{"last_updated":1728461545,"ttl":60,"version":"2.2","data":{"bikes":[{"bike_id":"c60da232-2931-445e-9832-6a7c4cbdbe4f","system_id":"levelo_inurba_marseille","lat":43.25939,"lon":5.40909,"is_reserved":false,"is_disabled":false,"rental_uris":{"android":"levelo://app?vid=c60da232-2931-445e-9832-6a7c4cbdbe4f","ios":"levelo://app?vid=c60da232-2931-445e-9832-6a7c4cbdbe4f"},"vehicle_type_id":"4","last_reported":1728461546,"current_range_meters":29600,"station_id":"ce4bhm92rcd13ifvqglg","pricing_plan_id":"cebpf4jnsgd1na2vs0mg"},{"bike_id":"74a2bc47-bf20-4183-badc-92f3c0344910","system_id":"levelo_inurba_marseille","lat":43.28151,"lon":5.42635,"is_reserved":false,"is_disabled":false,"rental_uris":{"android":"levelo://app?vid=74a2bc47-bf20-4183-badc-92f3c0344910","ios":"levelo://app?vid=74a2bc47-bf20-4183-badc-92f3c0344910"},"vehicle_type_id":"4","last_reported":1728461546,"current_range_meters":26800,"station_id":"ce4bhnh2rcd13ifvqgug","pricing_plan_id":"cebpf4jnsgd1na2vs0mg"},{"bike_id":"4d05d63f-111c-4b0a-b626-f412071e31cd","system_id":"levelo_inurba_marseille","lat":43.26683,"lon":5.38276,"is_reserved":false,"is_disabled":false,"rental_uris":{"android":"levelo://app?vid=4d05d63f-111c-4b0a-b626-f412071e31cd","ios":"levelo://app?vid=4d05d63f-111c-4b0a-b626-f412071e31cd"},"vehicle_type_id":"4","last_reported":1728461546,"current_range_meters":26800,"station_id":"ce4bhg92rcd13ifvqf90","pricing_plan_id":"cebpf4jnsgd1na2vs0mg"},{"bike_id":"64401e11-82c8-4b90-a932-63d1fc0345c9","system_id":"levelo_inurba_marseille","lat":43.30547,"lon":5.36726,"is_reserved":false,"is_disabled":false,"rental_uris":{"android":"levelo://app?vid=64401e11-82c8-4b90-a932-63d1fc0345c9","ios":"levelo://app?vid=64401e11-82c8-4b90-a932-63d1fc0345c9"},"vehicle_type_id":"4","last_reported":1728461546,"current_range_meters":19600,"station_id":"ce4bgrp2rcd13ifvqc9g","pricing_plan_id":"cebpf4jnsgd1na2vs0mg"},{"bike_id":"62d9e195-f719-4690-a78c-ff33746a6f51","system_id":"levelo_inurba_marseille","lat":43.27378,"lon":5.36266,"is_reserved":false,"is_disabled":false,"rental_uris":{"android":"levelo://app?vid=62d9e195-f719-4690-a78c-ff33746a6f51","ios":"levelo://app?vid=62d9e195-f719-4690-a78c-ff33746a6f51"},"vehicle_type_id":"4","last_reported":1728461546,"current_range_meters":38800,"station_id":"ce4bhbh2rcd13ifvqeo0","pricing_plan_id":"cebpf4jnsgd1na2vs0mg"},{"bike_id":"6b8918a4-396b-43e5-9a7f-f056357bf660","system_id":"levelo_inurba_marseille","lat":43.23067,"lon":5.35503,"is_reserved":false,"is_disabled":false,"rental_uris":{"android":"levelo://app?vid=6b8918a4-396b-43e5-9a7f-f056357bf660","ios":"levelo://app?vid=6b8918a4-396b-43e5-9a7f-f056357bf660"},"vehicle_type_id":"4","last_reported":1728461546,"current_range_meters":9200,"station_id":"cpo3342slgdg3j2ifvpg","pricing_plan_id":"cebpf4jnsgd1na2vs0mg"},{"bike_id":"20083906-661b-4fd5-a650-4b4ae4266774","system_id":"levelo_inurba_marseille","lat":43.3229,"lon":5.38279,"is_reserved":false,"is_disabled":false,"rental_uris":{"android":"levelo://app?vid=20083906-661b-4fd5-a650-4b4ae4266774","ios":"levelo://app?vid=20083906-661b-4fd5-a650-4b4ae4266774"},"vehicle_type_id":"4","last_reported":1728461546,"current_range_meters":37600,"station_id":"ce4bhr12rcd13ifvqhqg","pricing_plan_id":"cebpf4jnsgd1na2vs0mg"},{"bike_id":"9de260ca-26e0-4fce-908c-9c438548d500","system_id":"levelo_inurba_marseille","lat":43.32045,"lon":5.41542,"is_reserved":false,"is_disabled":false,"rental_uris":{"android":"levelo://app?vid=9de260ca-26e0-4fce-908c-9c438548d500","ios":"levelo://app?vid=9de260ca-26e0-4fce-908c-9c438548d500"},"vehicle_type_id":"4","last_reported":1728461546,"current_range_meters":36400,"station_id":"ce4bhq92rcd13ifvqhkg","pricing_plan_id":"cebpf4jnsgd1na2vs0mg"},{"bike_id":"64524fe4-6e16-4d18-8e90-00b089a26f5f","system_id":"levelo_inurba_marseille","lat":43.27843,"lon":5.38479,"is_reserved":false,"is_disabled":false,"rental_uris":{"android":"levelo://app?vid=64524fe4-6e16-4d18-8e90-00b089a26f5f","ios":"levelo://app?vid=64524fe4-6e16-4d18-8e90-00b089a26f5f"},"vehicle_type_id":"4","last_reported":1728461546,"current_range_meters":34800,"station_id":"ce4bgvp2rcd13ifvqct0","pricing_plan_id":"cebpf4jnsgd1na2vs0mg"},{"bike_id":"a4319151-307a-4f45-87df-6ed5817f7510","system_id":"levelo_inurba_marseille","lat":43.2407,"lon":5.37768,"is_reserved":false,"is_disabled":false,"rental_uris":{"android":"levelo://app?vid=a4319151-307a-4f45-87df-6ed5817f7510","ios":"levelo://app?vid=a4319151-307a-4f45-87df-6ed5817f7510"},"vehicle_type_id":"4","last_reported":1728461546,"current_range_meters":36400,"station_id":"ce4bhnp2rcd13ifvqgvg","pricing_plan_id":"cebpf4jnsgd1na2vs0mg"},{"bike_id":"5955c424-b516-4f31-9e88-1dc303d2cf30","system_id":"levelo_inurba_marseille","lat":43.265,"lon":5.39547,"is_reserved":false,"is_disabled":false,"rental_uris":{"android":"levelo://app?vid=5955c424-b516-4f31-9e88-1dc303d2cf30","ios":"levelo://app?vid=5955c424-b516-4f31-9e88-1dc303d2cf30"},"vehicle_type_id":"4","last_reported":1728461546,"current_range_meters":4400,"station_id":"ce4bhi12rcd13ifvqfq0","pricing_plan_id":"cebpf4jnsgd1na2vs0mg"},{"bike_id":"0942f772-31be-4eb1-b669-63d390169f0e","system_id":"levelo_inurba_marseille","lat":43.33603,"lon":5.41024,"is_reserved":false,"is_disabled":false,"rental_uris":{"android":"levelo://app?vid=0942f772-31be-4eb1-b669-63d390169f0e","ios":"levelo://app?vid=0942f772-31be-4eb1-b669-63d390169f0e"},"vehicle_type_id":"4","last_reported":1728461546,"current_range_meters":39200,"station_id":"ce4bhqh2rcd13ifvqhmg","pricing_plan_id":"cebpf4jnsgd1na2vs0mg"},{"bike_id":"d5ba9f47-4343-4d12-a9d2-0fadfddd5f19","system_id":"levelo_inurba_marseille","lat":43.27624,"lon":5.36106,"is_reserved":false,"is_disabled":false,"rental_uris":{"android":"levelo://app?vid=d5ba9f47-4343-4d12-a9d2-0fadfddd5f19","ios":"levelo://app?vid=d5ba9f47-4343-4d12-a9d2-0fadfddd5f19"},"vehicle_type_id":"4","last_reported":1728461546,"current_range_meters":35600,"station_id":"ce4bgj92rcd13ifvqbe0","pricing_plan_id":"cebpf4jnsgd1na2vs0mg"},{"bike_id":"39889ba0-0431-4056-b70a-688defafb58c","system_id":"levelo_inurba_marseille","lat":43.27497,"lon":5.4245,"is_reserved":false,"is_disabled":false,"rental_uris":{"android":"levelo://app?vid=39889ba0-0431-4056-b70a-688defafb58c","ios":"levelo://app?vid=39889ba0-0431-4056-b70a-688defafb58c"},"vehicle_type_id":"4","last_reported":1728461546,"current_range_meters":35600,"station_id":"ce4bhn92rcd13ifvqgrg","pricing_plan_id":"cebpf4jnsgd1na2vs0mg"},{"bike_id":"cdc79e65-a131-479a-baf9-3a3916c6e704","system_id":"levelo_inurba_marseille","lat":43.2677,"lon":5.39426,"is_reserved":false,"is_disabled":false,"rental_uris":{"android":"levelo://app?vid=cdc79e65-a131-479a-baf9-3a3916c6e704","ios":"levelo://app?vid=cdc79e65-a131-479a-baf9-3a3916c6e704"},"vehicle_type_id":"4","last_reported":1728461546,"current_range_meters":38000,"station_id":"ce4bhh12rcd13ifvqfg0","pricing_plan_id":"cebpf4jnsgd1na2vs0mg"},{"bike_id":"98f317d0-c60e-4b7e-a8d7-b0a28851b366","system_id":"levelo_inurba_marseille","lat":43.29267,"lon":5.40898,"is_reserved":false,"is_disabled":false,"rental_uris":{"android":"levelo://app?vid=98f317d0-c60e-4b7e-a8d7-b0a28851b366","ios":"levelo://app?vid=98f317d0-c60e-4b7e-a8d7-b0a28851b366"},"vehicle_type_id":"4","last_reported":1728461546,"current_range_meters":17600,"station_id":"ce4bh192rcd13ifvqdc0","pricing_plan_id":"cebpf4jnsgd1na2vs0mg"},{"bike_id":"c4732e4f-bfd2-4526-a545-ac5aea78f937","system_id":"levelo_inurba_marseille","lat":43.24984,"lon":5.40275,"is_reserved":false,"is_disabled":false,"rental_uris":{"android":"levelo://app?vid=c4732e4f-bfd2-4526-a545-ac5aea78f937","ios":"levelo://app?vid=c4732e4f-bfd2-4526-a545-ac5aea78f937"},"vehicle_type_id":"4","last_reported":1728461546,"current_range_meters":10800,"station_id":"","pricing_plan_id":"cebpf4jnsgd1na2vs0mg"},{"bike_id":"66adeba8-5df7-4620-b2f2-1937e7b64748","system_id":"levelo_inurba_marseille","lat":43.26948,"lon":5.38646,"is_reserved":false,"is_disabled":false,"rental_uris":{"android":"levelo://app?vid=66adeba8-5df7-4620-b2f2-1937e7b64748","ios":"levelo://app?vid=66adeba8-5df7-4620-b2f2-1937e7b64748"},"vehicle_type_id":"4","last_reported":1728461546,"current_range_meters":13600,"station_id":"ce4bhh92rcd13ifvqfh0","pricing_plan_id":"cebpf4jnsgd1na2vs0mg"},{"bike_id":"a7db8d57-39dc-4df7-b4dc-ffdc3d278a56","system_id":"levelo_inurba_marseille","lat":43.30265,"lon":5.37698,"is_reserved":false,"is_disabled":false,"rental_uris":{"android":"levelo://app?vid=a7db8d57-39dc-4df7-b4dc-ffdc3d278a56","ios":"levelo://app?vid=a7db8d57-39dc-4df7-b4dc-ffdc3d278a56"},"vehicle_type_id":"4","last_reported":1728461546,"current_range_meters":31200,"station_id":"ce4bguh2rcd13ifvqcj0","pricing_plan_id":"cebpf4jnsgd1na2vs0mg"},{"bike_id":"64c9abdc-a744-4b43-9856-a64e8ee5db15","system_id":"levelo_inurba_marseille","lat":43.23066,"lon":5.35499,"is_reserved":false,"is_disabled":false,"rental_uris":{"android":"levelo://app?vid=64c9abdc-a744-4b43-9856-a64e8ee5db15","ios":"levelo://app?vid=64c9abdc-a744-4b43-9856-a64e8ee5db15"},"vehicle_type_id":"4","last_reported":1728461546,"current_range_meters":38400,"station_id":"cpo3342slgdg3j2ifvpg","pricing_plan_id":"cebpf4jnsgd1na2vs0mg"},{"bike_id":"05230cb0-07ce-4987-8d23-90a32cbdcfa1","system_id":"levelo_inurba_marseille","lat":43.26954,"lon":5.38628,"is_reserved":false,"is_disabled":false,"rental_uris":{"android":"levelo://app?vid=05230cb0-07ce-4987-8d23-90a32cbdcfa1","ios":"levelo://app?vid=05230cb0-07ce-4987-8d23-90a32cbdcfa1"},"vehicle_type_id":"4","last_reported":1728461546,"current_range_meters":36000,"station_id":"ce4bhh92rcd13ifvqfh0","pricing_plan_id":"cebpf4jnsgd1na2vs0mg"},{"bike_id":"9fe4ef76-0861-4c56-99a4-e8d115275c35","system_id":"levelo_inurba_marseille","lat":43.30181,"lon":5.36611,"is_reserved":false,"is_disabled":false,"rental_uris":{"android":"levelo://app?vid=9fe4ef76-0861-4c56-99a4-e8d115275c35","ios":"levelo://app?vid=9fe4ef76-0861-4c56-99a4-e8d115275c35"},"vehicle_type_id":"4","last_reported":1728461546,"current_range_meters":32000,"station_id":"ce4bgrh2rcd13ifvqc8g","pricing_plan_id":"cebpf4jnsgd1na2vs0mg"},{"bike_id":"84936672-8cd0-4736-af4e-a9cf49a10d7b","system_id":"levelo_inurba_marseille","lat":43.295288,"lon":5.37498,"is_reserved":false,"is_disabled":false,"rental_uris":{"android":"levelo://app?vid=84936672-8cd0-4736-af4e-a9cf49a10d7b","ios":"levelo://app?vid=84936672-8cd0-4736-af4e-a9cf49a10d7b"},"vehicle_type_id":"4","last_reported":1728461546,"current_range_meters":17200,"station_id":"ce4bgi12rcd13ifvqb70","pricing_plan_id":"cebpf4jnsgd1na2vs0mg"},{"bike_id":"95c7d446-d990-41a1-97f6-327a9b4d1682","system_id":"levelo_inurba_marseille","lat":43.28482,"lon":5.38428,"is_reserved":false,"is_disabled":false,"rental_uris":{"android":"levelo://app?vid=95c7d446-d990-41a1-97f6-327a9b4d1682","ios":"levelo://app?vid=95c7d446-d990-41a1-97f6-327a9b4d1682"},"vehicle_type_id":"4","last_reported":1728461546,"current_range_meters":15200,"station_id":"ce4bh512rcd13ifvqe3g","pricing_plan_id":"cebpf4jnsgd1na2vs0mg"},{"bike_id":"dcda27d0-2e2a-4f4f-b3e3-facd7ab46ecf","system_id":"levelo_inurba_marseille","lat":43.29873,"lon":5.3974,"is_reserved":false,"is_disabled":false,"rental_uris":{"android":"levelo://app?vid=dcda27d0-2e2a-4f4f-b3e3-facd7ab46ecf","ios":"levelo://app?vid=dcda27d0-2e2a-4f4f-b3e3-facd7ab46ecf"},"vehicle_type_id":"4","last_reported":1728461546,"current_range_meters":22800,"station_id":"ce4bh0h2rcd13ifvqd50","pricing_plan_id":"cebpf4jnsgd1na2vs0mg"},{"bike_id":"7028d899-9984-4000-a689-483b691fc9e5","system_id":"levelo_inurba_marseille","lat":43.29556,"lon":5.4229,"is_reserved":false,"is_disabled":false,"rental_uris":{"android":"levelo://app?vid=7028d899-9984-4000-a689-483b691fc9e5","ios":"levelo://app?vid=7028d899-9984-4000-a689-483b691fc9e5"},"vehicle_type_id":"4","last_reported":1728461546,"current_range_meters":38800,"station_id":"ce4bhph2rcd13ifvqhdg","pricing_plan_id":"cebpf4jnsgd1na2vs0mg"},{"bike_id":"838b16dd-9eac-4c3f-b799-083241b130de","system_id":"levelo_inurba_marseille","lat":43.31353,"lon":5.36696,"is_reserved":false,"is_disabled":false,"rental_uris":{"android":"levelo://app?vid=838b16dd-9eac-4c3f-b799-083241b130de","ios":"levelo://app?vid=838b16dd-9eac-4c3f-b799-083241b130de"},"vehicle_type_id":"4","last_reported":1728461546,"current_range_meters":38800,"station_id":"ce4bgr92rcd13ifvqc6g","pricing_plan_id":"cebpf4jnsgd1na2vs0mg"},{"bike_id":"51ee61eb-9054-4c7a-bca3-706a1a65ec35","system_id":"levelo_inurba_marseille","lat":43.28155,"lon":5.42641,"is_reserved":false,"is_disabled":false,"rental_uris":{"android":"levelo://app?vid=51ee61eb-9054-4c7a-bca3-706a1a65ec35","ios":"levelo://app?vid=51ee61eb-9054-4c7a-bca3-706a1a65ec35"},"vehicle_type_id":"4","last_reported":1728461546,"current_range_meters":34000,"station_id":"ce4bhnh2rcd13ifvqgug","pricing_plan_id":"cebpf4jnsgd1na2vs0mg"},{"bike_id":"5533363b-4650-4bd1-b1ec-f21f43cd7529","system_id":"levelo_inurba_marseille","lat":43.295776,"lon":5.367438,"is_reserved":false,"is_disabled":false,"rental_uris":{"android":"levelo://app?vid=5533363b-4650-4bd1-b1ec-f21f43cd7529","ios":"levelo://app?vid=5533363b-4650-4bd1-b1ec-f21f43cd7529"},"vehicle_type_id":"4","last_reported":1728461546,"current_range_meters":17600,"station_id":"ce4bgph2rcd13ifvqc2g","pricing_plan_id":"cebpf4jnsgd1na2vs0mg"},{"bike_id":"ae032406-097d-467a-8f42-783bf8e78989","system_id":"levelo_inurba_marseille","lat":43.27917,"lon":5.3958,"is_reserved":false,"is_disabled":false,"rental_uris":{"android":"levelo://app?vid=ae032406-097d-467a-8f42-783bf8e78989","ios":"levelo://app?vid=ae032406-097d-467a-8f42-783bf8e78989"},"vehicle_type_id":"4","last_reported":1728461546,"current_range_meters":31200,"station_id":"ce4bhf92rcd13ifvqf40","pricing_plan_id":"cebpf4jnsgd1na2vs0mg"},{"bike_id":"8b1fbf19-b297-4076-84ee-eae96b76bb0e","system_id":"levelo_inurba_marseille","lat":43.27491,"lon":5.42455,"is_reserved":false,"is_disabled":false,"rental_uris":{"android":"levelo://app?vid=8b1fbf19-b297-4076-84ee-eae96b76bb0e","ios":"levelo://app?vid=8b1fbf19-b297-4076-84ee-eae96b76bb0e"},"vehicle_type_id":"4","last_reported":1728461546,"current_range_meters":30000,"station_id":"ce4bhn92rcd13ifvqgrg","pricing_plan_id":"cebpf4jnsgd1na2vs0mg"},{"bike_id":"18ef0866-f9ce-42a5-8f0f-7343c7554f53","system_id":"levelo_inurba_marseille","lat":43.30461,"lon":5.37899,"is_reserved":false,"is_disabled":false,"rental_uris":{"android":"levelo://app?vid=18ef0866-f9ce-42a5-8f0f-7343c7554f53","ios":"levelo://app?vid=18ef0866-f9ce-42a5-8f0f-7343c7554f53"},"vehicle_type_id":"4","last_reported":1728461546,"current_range_meters":9600,"station_id":"ce4bgup2rcd13ifvqcn0","pricing_plan_id":"cebpf4jnsgd1na2vs0mg"},{"bike_id":"9a6eb6ae-bb8d-47f2-92dc-15377e6e8e3e","system_id":"levelo_inurba_marseille","lat":43.29526,"lon":5.3905,"is_reserved":false,"is_disabled":false,"rental_uris":{"android":"levelo://app?vid=9a6eb6ae-bb8d-47f2-92dc-15377e6e8e3e","ios":"levelo://app?vid=9a6eb6ae-bb8d-47f2-92dc-15377e6e8e3e"},"vehicle_type_id":"4","last_reported":1728461546,"current_range_meters":23200,"station_id":"ce4bh3p2rcd13ifvqdp0","pricing_plan_id":"cebpf4jnsgd1na2vs0mg"},{"bike_id":"a25cf3f5-8305-429f-b687-0d2dc1eedf78","system_id":"levelo_inurba_marseille","lat":43.30462,"lon":5.37903,"is_reserved":false,"is_disabled":false,"rental_uris":{"android":"levelo://app?vid=a25cf3f5-8305-429f-b687-0d2dc1eedf78","ios":"levelo://app?vid=a25cf3f5-8305-429f-b687-0d2dc1eedf78"},"vehicle_type_id":"4","last_reported":1728461546,"current_range_meters":19600,"station_id":"ce4bgup2rcd13ifvqcn0","pricing_plan_id":"cebpf4jnsgd1na2vs0mg"},{"bike_id":"a3f685ae-6b20-4c01-a5f8-49ff40ffe410","system_id":"levelo_inurba_marseille","lat":43.30896,"lon":5.37207,"is_reserved":false,"is_disabled":false,"rental_uris":{"android":"levelo://app?vid=a3f685ae-6b20-4c01-a5f8-49ff40ffe410","ios":"levelo://app?vid=a3f685ae-6b20-4c01-a5f8-49ff40ffe410"},"vehicle_type_id":"4","last_reported":1728461546,"current_range_meters":14000,"station_id":"ce4bguh2rcd13ifvqckg","pricing_plan_id":"cebpf4jnsgd1na2vs0mg"},{"bike_id":"6bb73c89-014f-4a5d-817b-0696f2e56a9d","system_id":"levelo_inurba_marseille","lat":43.24073,"lon":5.37763,"is_reserved":false,"is_disabled":false,"rental_uris":{"android":"levelo://app?vid=6bb73c89-014f-4a5d-817b-0696f2e56a9d","ios":"levelo://app?vid=6bb73c89-014f-4a5d-817b-0696f2e56a9d"},"vehicle_type_id":"4","last_reported":1728461546,"current_range_meters":12800,"station_id":"ce4bhnp2rcd13ifvqgvg","pricing_plan_id":"cebpf4jnsgd1na2vs0mg"},{"bike_id":"e34447b1-a4eb-44c7-ad5e-6ff1d8cd0773","system_id":"levelo_inurba_marseille","lat":43.31363,"lon":5.38502,"is_reserved":false,"is_disabled":false,"rental_uris":{"android":"levelo://app?vid=e34447b1-a4eb-44c7-ad5e-6ff1d8cd0773","ios":"levelo://app?vid=e34447b1-a4eb-44c7-ad5e-6ff1d8cd0773"},"vehicle_type_id":"4","last_reported":1728461546,"current_range_meters":14800,"station_id":"ce4bgt92rcd13ifvqcf0","pricing_plan_id":"cebpf4jnsgd1na2vs0mg"},{"bike_id":"59a20882-e884-470e-b111-32ed424e7cc3","system_id":"levelo_inurba_marseille","lat":43.33724,"lon":5.39191,"is_reserved":false,"is_disabled":false,"rental_uris":{"android":"levelo://app?vid=59a20882-e884-470e-b111-32ed424e7cc3","ios":"levelo://app?vid=59a20882-e884-470e-b111-32ed424e7cc3"},"vehicle_type_id":"4","last_reported":1728461546,"current_range_meters":32400,"station_id":"ce4bhr92rcd13ifvqhsg","pricing_plan_id":"cebpf4jnsgd1na2vs0mg"},{"bike_id":"441d3405-bac8-4cb8-86f5-78555d149014","system_id":"levelo_inurba_marseille","lat":43.295743,"lon":5.375217,"is_reserved":false,"is_disabled":false,"rental_uris":{"android":"levelo://app?vid=441d3405-bac8-4cb8-86f5-78555d149014","ios":"levelo://app?vid=441d3405-bac8-4cb8-86f5-78555d149014"},"vehicle_type_id":"4","last_reported":1728461546,"current_range_meters":39200,"station_id":"ce4bgh92rcd13ifvqb50","pricing_plan_id":"cebpf4jnsgd1na2vs0mg"},{"bike_id":"9ed272e2-1a9d-49cf-8f57-b4c6c6d52ed4","system_id":"levelo_inurba_marseille","lat":43.3056,"lon":5.36536,"is_reserved":false,"is_disabled":false,"rental_uris":{"android":"levelo://app?vid=9ed272e2-1a9d-49cf-8f57-b4c6c6d52ed4","ios":"levelo://app?vid=9ed272e2-1a9d-49cf-8f57-b4c6c6d52ed4"},"vehicle_type_id":"4","last_reported":1728461546,"current_range_meters":27200,"station_id":"ce4bgs12rcd13ifvqcag","pricing_plan_id":"cebpf4jnsgd1na2vs0mg"},{"bike_id":"c2c697a5-1f78-4f8d-b2a7-f7db1f56eb5d","system_id":"levelo_inurba_marseille","lat":43.33613,"lon":5.41028,"is_reserved":false,"is_disabled":false,"rental_uris":{"android":"levelo://app?vid=c2c697a5-1f78-4f8d-b2a7-f7db1f56eb5d","ios":"levelo://app?vid=c2c697a5-1f78-4f8d-b2a7-f7db1f56eb5d"},"vehicle_type_id":"4","last_reported":1728461546,"current_range_meters":39200,"station_id":"ce4bhqh2rcd13ifvqhmg","pricing_plan_id":"cebpf4jnsgd1na2vs0mg"},{"bike_id":"7d7ab187-9965-49a4-bf26-b6ade39671fc","system_id":"levelo_inurba_marseille","lat":43.23195,"lon":5.3555,"is_reserved":false,"is_disabled":false,"rental_uris":{"android":"levelo://app?vid=7d7ab187-9965-49a4-bf26-b6ade39671fc","ios":"levelo://app?vid=7d7ab187-9965-49a4-bf26-b6ade39671fc"},"vehicle_type_id":"4","last_reported":1728461546,"current_range_meters":26000,"station_id":"ce4bhu92rcd13ifvqi70","pricing_plan_id":"cebpf4jnsgd1na2vs0mg"},{"bike_id":"8cf62a81-b430-4c46-9b02-ae2d97422b61","system_id":"levelo_inurba_marseille","lat":43.325343,"lon":5.414285,"is_reserved":false,"is_disabled":false,"rental_uris":{"android":"levelo://app?vid=8cf62a81-b430-4c46-9b02-ae2d97422b61","ios":"levelo://app?vid=8cf62a81-b430-4c46-9b02-ae2d97422b61"},"vehicle_type_id":"4","last_reported":1728461546,"current_range_meters":26000,"station_id":"ce4bhq12rcd13ifvqhhg","pricing_plan_id":"cebpf4jnsgd1na2vs0mg"},{"bike_id":"64cbf5ad-210a-4eed-8035-947870e47e4b","system_id":"levelo_inurba_marseille","lat":43.23189,"lon":5.39983,"is_reserved":false,"is_disabled":false,"rental_uris":{"android":"levelo://app?vid=64cbf5ad-210a-4eed-8035-947870e47e4b","ios":"levelo://app?vid=64cbf5ad-210a-4eed-8035-947870e47e4b"},"vehicle_type_id":"4","last_reported":1728461546,"current_range_meters":4400,"station_id":"ce4bhn12rcd13ifvqgqg","pricing_plan_id":"cebpf4jnsgd1na2vs0mg"},{"bike_id":"c5f7625c-379d-4acc-9b19-ae14ae4eac31","system_id":"levelo_inurba_marseille","lat":43.30185,"lon":5.36615,"is_reserved":false,"is_disabled":false,"rental_uris":{"android":"levelo://app?vid=c5f7625c-379d-4acc-9b19-ae14ae4eac31","ios":"levelo://app?vid=c5f7625c-379d-4acc-9b19-ae14ae4eac31"},"vehicle_type_id":"4","last_reported":1728461546,"current_range_meters":38800,"station_id":"ce4bgrh2rcd13ifvqc8g","pricing_plan_id":"cebpf4jnsgd1na2vs0mg"},{"bike_id":"35019b92-5087-40a5-9241-2bcb3e2dc08b","system_id":"levelo_inurba_marseille","lat":43.3091,"lon":5.36858,"is_reserved":false,"is_disabled":false,"rental_uris":{"android":"levelo://app?vid=35019b92-5087-40a5-9241-2bcb3e2dc08b","ios":"levelo://app?vid=35019b92-5087-40a5-9241-2bcb3e2dc08b"},"vehicle_type_id":"4","last_reported":1728461546,"current_range_meters":36800,"station_id":"ce4bgn92rcd13ifvqbvg","pricing_plan_id":"cebpf4jnsgd1na2vs0mg"},{"bike_id":"3ebb579f-18fb-44f5-b0b3-804bd56371c5","system_id":"levelo_inurba_marseille","lat":43.24079,"lon":5.37757,"is_reserved":false,"is_disabled":false,"rental_uris":{"android":"levelo://app?vid=3ebb579f-18fb-44f5-b0b3-804bd56371c5","ios":"levelo://app?vid=3ebb579f-18fb-44f5-b0b3-804bd56371c5"},"vehicle_type_id":"4","last_reported":1728461546,"current_range_meters":37600,"station_id":"ce4bhnp2rcd13ifvqgvg","pricing_plan_id":"cebpf4jnsgd1na2vs0mg"},{"bike_id":"0c141340-7add-4d6e-b13b-9500891d966c","system_id":"levelo_inurba_marseille","lat":43.24084,"lon":5.37741,"is_reserved":false,"is_disabled":false,"rental_uris":{"android":"levelo://app?vid=0c141340-7add-4d6e-b13b-9500891d966c","ios":"levelo://app?vid=0c141340-7add-4d6e-b13b-9500891d966c"},"vehicle_type_id":"4","last_reported":1728461546,"current_range_meters":14400,"station_id":"ce4bhnp2rcd13ifvqgvg","pricing_plan_id":"cebpf4jnsgd1na2vs0mg"},{"bike_id":"74efdb7e-6600-4f6b-bf14-d88d49e1344c","system_id":"levelo_inurba_marseille","lat":43.28488,"lon":5.38567,"is_reserved":false,"is_disabled":false,"rental_uris":{"android":"levelo://app?vid=74efdb7e-6600-4f6b-bf14-d88d49e1344c","ios":"levelo://app?vid=74efdb7e-6600-4f6b-bf14-d88d49e1344c"},"vehicle_type_id":"4","last_reported":1728461546,"current_range_meters":28000,"station_id":"ce4bh8p2rcd13ifvqeb0","pricing_plan_id":"cebpf4jnsgd1na2vs0mg"},{"bike_id":"cfeb45ab-cab0-43fd-82c7-0283af45cf07","system_id":"levelo_inurba_marseille","lat":43.27493,"lon":5.42451,"is_reserved":false,"is_disabled":false,"rental_uris":{"android":"levelo://app?vid=cfeb45ab-cab0-43fd-82c7-0283af45cf07","ios":"levelo://app?vid=cfeb45ab-cab0-43fd-82c7-0283af45cf07"},"vehicle_type_id":"4","last_reported":1728461546,"current_range_meters":35600,"station_id":"ce4bhn92rcd13ifvqgrg","pricing_plan_id":"cebpf4jnsgd1na2vs0mg"},{"bike_id":"2c4c3de7-36cc-49ba-89f4-420d8d550649","system_id":"levelo_inurba_marseille","lat":43.25936,"lon":5.40908,"is_reserved":false,"is_disabled":false,"rental_uris":{"android":"levelo://app?vid=2c4c3de7-36cc-49ba-89f4-420d8d550649","ios":"levelo://app?vid=2c4c3de7-36cc-49ba-89f4-420d8d550649"},"vehicle_type_id":"4","last_reported":1728461546,"current_range_meters":26000,"station_id":"ce4bhm92rcd13ifvqglg","pricing_plan_id":"cebpf4jnsgd1na2vs0mg"},{"bike_id":"1e1ebcea-da38-421e-ac53-e53fdfe51029","system_id":"levelo_inurba_marseille","lat":43.31234,"lon":5.36881,"is_reserved":false,"is_disabled":false,"rental_uris":{"android":"levelo://app?vid=1e1ebcea-da38-421e-ac53-e53fdfe51029","ios":"levelo://app?vid=1e1ebcea-da38-421e-ac53-e53fdfe51029"},"vehicle_type_id":"4","last_reported":1728461546,"current_range_meters":16000,"station_id":"ce4bgl92rcd13ifvqbq0","pricing_plan_id":"cebpf4jnsgd1na2vs0mg"},{"bike_id":"74e9ce9d-9e9f-4c6b-92fb-2f9a88c1f0f4","system_id":"levelo_inurba_marseille","lat":43.24168,"lon":5.36413,"is_reserved":false,"is_disabled":false,"rental_uris":{"android":"levelo://app?vid=74e9ce9d-9e9f-4c6b-92fb-2f9a88c1f0f4","ios":"levelo://app?vid=74e9ce9d-9e9f-4c6b-92fb-2f9a88c1f0f4"},"vehicle_type_id":"4","last_reported":1728461546,"current_range_meters":38000,"station_id":"cpo36qri1sfpv3e86is0","pricing_plan_id":"cebpf4jnsgd1na2vs0mg"},{"bike_id":"b015213c-a50b-49c6-a35a-d4427020f6a6","system_id":"levelo_inurba_marseille","lat":43.31344,"lon":5.36708,"is_reserved":false,"is_disabled":false,"rental_uris":{"android":"levelo://app?vid=b015213c-a50b-49c6-a35a-d4427020f6a6","ios":"levelo://app?vid=b015213c-a50b-49c6-a35a-d4427020f6a6"},"vehicle_type_id":"4","last_reported":1728461546,"current_range_meters":22800,"station_id":"ce4bgr92rcd13ifvqc6g","pricing_plan_id":"cebpf4jnsgd1na2vs0mg"},{"bike_id":"8f7f4295-f0a5-4e77-8354-c6827c156889","system_id":"levelo_inurba_marseille","lat":43.27501,"lon":5.42462,"is_reserved":false,"is_disabled":false,"rental_uris":{"android":"levelo://app?vid=8f7f4295-f0a5-4e77-8354-c6827c156889","ios":"levelo://app?vid=8f7f4295-f0a5-4e77-8354-c6827c156889"},"vehicle_type_id":"4","last_reported":1728461546,"current_range_meters":11200,"station_id":"ce4bhn92rcd13ifvqgrg","pricing_plan_id":"cebpf4jnsgd1na2vs0mg"},{"bike_id":"050f3efb-9333-4144-b72f-5b62928d64ea","system_id":"levelo_inurba_marseille","lat":43.26687,"lon":5.3827,"is_reserved":false,"is_disabled":false,"rental_uris":{"android":"levelo://app?vid=050f3efb-9333-4144-b72f-5b62928d64ea","ios":"levelo://app?vid=050f3efb-9333-4144-b72f-5b62928d64ea"},"vehicle_type_id":"4","last_reported":1728461546,"current_range_meters":29600,"station_id":"ce4bhg92rcd13ifvqf90","pricing_plan_id":"cebpf4jnsgd1na2vs0mg"},{"bike_id":"7bc48729-6a36-4a88-874a-c23256dab9e1","system_id":"levelo_inurba_marseille","lat":43.27497,"lon":5.42455,"is_reserved":false,"is_disabled":false,"rental_uris":{"android":"levelo://app?vid=7bc48729-6a36-4a88-874a-c23256dab9e1","ios":"levelo://app?vid=7bc48729-6a36-4a88-874a-c23256dab9e1"},"vehicle_type_id":"4","last_reported":1728461546,"current_range_meters":14000,"station_id":"ce4bhn92rcd13ifvqgrg","pricing_plan_id":"cebpf4jnsgd1na2vs0mg"},{"bike_id":"792577a6-685a-43bd-bdfe-2ef41696d1e8","system_id":"levelo_inurba_marseille","lat":43.23191,"lon":5.39986,"is_reserved":false,"is_disabled":false,"rental_uris":{"android":"levelo://app?vid=792577a6-685a-43bd-bdfe-2ef41696d1e8","ios":"levelo://app?vid=792577a6-685a-43bd-bdfe-2ef41696d1e8"},"vehicle_type_id":"4","last_reported":1728461546,"current_range_meters":33600,"station_id":"ce4bhn12rcd13ifvqgqg","pricing_plan_id":"cebpf4jnsgd1na2vs0mg"},{"bike_id":"9dd4f340-8a1e-4769-8cdc-2919ddd55db2","system_id":"levelo_inurba_marseille","lat":43.24804,"lon":5.37453,"is_reserved":false,"is_disabled":false,"rental_uris":{"android":"levelo://app?vid=9dd4f340-8a1e-4769-8cdc-2919ddd55db2","ios":"levelo://app?vid=9dd4f340-8a1e-4769-8cdc-2919ddd55db2"},"vehicle_type_id":"4","last_reported":1728461546,"current_range_meters":39200,"station_id":"ce4bhgh2rcd13ifvqfb0","pricing_plan_id":"cebpf4jnsgd1na2vs0mg"},{"bike_id":"4e6700a4-9eaa-4883-b595-cfa877cac3c2","system_id":"levelo_inurba_marseille","lat":43.22926,"lon":5.35376,"is_reserved":false,"is_disabled":false,"rental_uris":{"android":"levelo://app?vid=4e6700a4-9eaa-4883-b595-cfa877cac3c2","ios":"levelo://app?vid=4e6700a4-9eaa-4883-b595-cfa877cac3c2"},"vehicle_type_id":"4","last_reported":1728461546,"current_range_meters":16800,"station_id":"cpo3532slgdg3j2ikp40","pricing_plan_id":"cebpf4jnsgd1na2vs0mg"},{"bike_id":"15076557-340d-41fc-a13c-2001a5da6496","system_id":"levelo_inurba_marseille","lat":43.26209,"lon":5.37921,"is_reserved":false,"is_disabled":false,"rental_uris":{"android":"levelo://app?vid=15076557-340d-41fc-a13c-2001a5da6496","ios":"levelo://app?vid=15076557-340d-41fc-a13c-2001a5da6496"},"vehicle_type_id":"4","last_reported":1728461546,"current_range_meters":30400,"station_id":"ce4bhjp2rcd13ifvqg90","pricing_plan_id":"cebpf4jnsgd1na2vs0mg"},{"bike_id":"d0797665-6ef2-4471-9f17-aaa74175c83c","system_id":"levelo_inurba_marseille","lat":43.28424,"lon":5.35001,"is_reserved":false,"is_disabled":false,"rental_uris":{"android":"levelo://app?vid=d0797665-6ef2-4471-9f17-aaa74175c83c","ios":"levelo://app?vid=d0797665-6ef2-4471-9f17-aaa74175c83c"},"vehicle_type_id":"4","last_reported":1728461546,"current_range_meters":33200,"station_id":"ce4bhbh2rcd13ifvqepg","pricing_plan_id":"cebpf4jnsgd1na2vs0mg"},{"bike_id":"94775af8-d27b-430a-9eca-3e8949f61c98","system_id":"levelo_inurba_marseille","lat":43.26196,"lon":5.3745,"is_reserved":false,"is_disabled":false,"rental_uris":{"android":"levelo://app?vid=94775af8-d27b-430a-9eca-3e8949f61c98","ios":"levelo://app?vid=94775af8-d27b-430a-9eca-3e8949f61c98"},"vehicle_type_id":"4","last_reported":1728461546,"current_range_meters":27200,"station_id":"ce4bhgp2rcd13ifvqfc0","pricing_plan_id":"cebpf4jnsgd1na2vs0mg"},{"bike_id":"8bea543b-214d-40ec-9431-9caab1e0e5b3","system_id":"levelo_inurba_marseille","lat":43.23156,"lon":5.43713,"is_reserved":false,"is_disabled":false,"rental_uris":{"android":"levelo://app?vid=8bea543b-214d-40ec-9431-9caab1e0e5b3","ios":"levelo://app?vid=8bea543b-214d-40ec-9431-9caab1e0e5b3"},"vehicle_type_id":"4","last_reported":1728461546,"current_range_meters":14400,"station_id":"ce4bhmp2rcd13ifvqgog","pricing_plan_id":"cebpf4jnsgd1na2vs0mg"},{"bike_id":"18c26881-711a-4fea-9db2-4659e3a5521e","system_id":"levelo_inurba_marseille","lat":43.29901,"lon":5.38141,"is_reserved":false,"is_disabled":false,"rental_uris":{"android":"levelo://app?vid=18c26881-711a-4fea-9db2-4659e3a5521e","ios":"levelo://app?vid=18c26881-711a-4fea-9db2-4659e3a5521e"},"vehicle_type_id":"4","last_reported":1728461546,"current_range_meters":28400,"station_id":"ce4bgj12rcd13ifvqbc0","pricing_plan_id":"cebpf4jnsgd1na2vs0mg"},{"bike_id":"d3d56830-8710-450a-9311-63319fc341ac","system_id":"levelo_inurba_marseille","lat":43.32539,"lon":5.41441,"is_reserved":false,"is_disabled":false,"rental_uris":{"android":"levelo://app?vid=d3d56830-8710-450a-9311-63319fc341ac","ios":"levelo://app?vid=d3d56830-8710-450a-9311-63319fc341ac"},"vehicle_type_id":"4","last_reported":1728461546,"current_range_meters":22800,"station_id":"ce4bhq12rcd13ifvqhhg","pricing_plan_id":"cebpf4jnsgd1na2vs0mg"},{"bike_id":"28870c61-52ad-4627-bd08-d12e58cefbc6","system_id":"levelo_inurba_marseille","lat":43.27489,"lon":5.42462,"is_reserved":false,"is_disabled":false,"rental_uris":{"android":"levelo://app?vid=28870c61-52ad-4627-bd08-d12e58cefbc6","ios":"levelo://app?vid=28870c61-52ad-4627-bd08-d12e58cefbc6"},"vehicle_type_id":"4","last_reported":1728461546,"current_range_meters":30800,"station_id":"ce4bhn92rcd13ifvqgrg","pricing_plan_id":"cebpf4jnsgd1na2vs0mg"},{"bike_id":"051133e1-617d-4246-9be9-4d946642f690","system_id":"levelo_inurba_marseille","lat":43.33603,"lon":5.41021,"is_reserved":false,"is_disabled":false,"rental_uris":{"android":"levelo://app?vid=051133e1-617d-4246-9be9-4d946642f690","ios":"levelo://app?vid=051133e1-617d-4246-9be9-4d946642f690"},"vehicle_type_id":"4","last_reported":1728461546,"current_range_meters":39200,"station_id":"ce4bhqh2rcd13ifvqhmg","pricing_plan_id":"cebpf4jnsgd1na2vs0mg"},{"bike_id":"0b04b87f-751c-4f17-bc30-8ba6df17289e","system_id":"levelo_inurba_marseille","lat":43.25941,"lon":5.40903,"is_reserved":false,"is_disabled":false,"rental_uris":{"android":"levelo://app?vid=0b04b87f-751c-4f17-bc30-8ba6df17289e","ios":"levelo://app?vid=0b04b87f-751c-4f17-bc30-8ba6df17289e"},"vehicle_type_id":"4","last_reported":1728461546,"current_range_meters":35200,"station_id":"ce4bhm92rcd13ifvqglg","pricing_plan_id":"cebpf4jnsgd1na2vs0mg"},{"bike_id":"4fbc83f3-01d1-40e7-8f1b-915e2ab4c4fe","system_id":"levelo_inurba_marseille","lat":43.24072,"lon":5.37761,"is_reserved":false,"is_disabled":false,"rental_uris":{"android":"levelo://app?vid=4fbc83f3-01d1-40e7-8f1b-915e2ab4c4fe","ios":"levelo://app?vid=4fbc83f3-01d1-40e7-8f1b-915e2ab4c4fe"},"vehicle_type_id":"4","last_reported":1728461546,"current_range_meters":19600,"station_id":"ce4bhnp2rcd13ifvqgvg","pricing_plan_id":"cebpf4jnsgd1na2vs0mg"},{"bike_id":"2969d5d4-65a5-43a1-95dd-f1611fda7cca","system_id":"levelo_inurba_marseille","lat":43.24667,"lon":5.38169,"is_reserved":false,"is_disabled":false,"rental_uris":{"android":"levelo://app?vid=2969d5d4-65a5-43a1-95dd-f1611fda7cca","ios":"levelo://app?vid=2969d5d4-65a5-43a1-95dd-f1611fda7cca"},"vehicle_type_id":"4","last_reported":1728461546,"current_range_meters":27600,"station_id":"ce4bhih2rcd13ifvqfr0","pricing_plan_id":"cebpf4jnsgd1na2vs0mg"},{"bike_id":"7999b32e-2391-4b61-8a56-b7d618166799","system_id":"levelo_inurba_marseille","lat":43.28371,"lon":5.38635,"is_reserved":false,"is_disabled":false,"rental_uris":{"android":"levelo://app?vid=7999b32e-2391-4b61-8a56-b7d618166799","ios":"levelo://app?vid=7999b32e-2391-4b61-8a56-b7d618166799"},"vehicle_type_id":"4","last_reported":1728461546,"current_range_meters":20800,"station_id":"ce4bh492rcd13ifvqdvg","pricing_plan_id":"cebpf4jnsgd1na2vs0mg"},{"bike_id":"8513be67-a978-4cfc-9563-19285ed6fe5a","system_id":"levelo_inurba_marseille","lat":43.23197,"lon":5.35549,"is_reserved":false,"is_disabled":false,"rental_uris":{"android":"levelo://app?vid=8513be67-a978-4cfc-9563-19285ed6fe5a","ios":"levelo://app?vid=8513be67-a978-4cfc-9563-19285ed6fe5a"},"vehicle_type_id":"4","last_reported":1728461546,"current_range_meters":13600,"station_id":"ce4bhu92rcd13ifvqi70","pricing_plan_id":"cebpf4jnsgd1na2vs0mg"},{"bike_id":"b3b8d2ce-0168-4d69-9131-206a6c26c26a","system_id":"levelo_inurba_marseille","lat":43.25092,"lon":5.39515,"is_reserved":false,"is_disabled":false,"rental_uris":{"android":"levelo://app?vid=b3b8d2ce-0168-4d69-9131-206a6c26c26a","ios":"levelo://app?vid=b3b8d2ce-0168-4d69-9131-206a6c26c26a"},"vehicle_type_id":"4","last_reported":1728461546,"current_range_meters":8400,"station_id":"ce4bhm12rcd13ifvqgkg","pricing_plan_id":"cebpf4jnsgd1na2vs0mg"},{"bike_id":"922252e8-02c2-4987-8eed-1d6d69073568","system_id":"levelo_inurba_marseille","lat":43.26686,"lon":5.38278,"is_reserved":false,"is_disabled":false,"rental_uris":{"android":"levelo://app?vid=922252e8-02c2-4987-8eed-1d6d69073568","ios":"levelo://app?vid=922252e8-02c2-4987-8eed-1d6d69073568"},"vehicle_type_id":"4","last_reported":1728461546,"current_range_meters":32800,"station_id":"ce4bhg92rcd13ifvqf90","pricing_plan_id":"cebpf4jnsgd1na2vs0mg"},{"bike_id":"2e2eded2-ac3e-4b23-8162-ffa573264863","system_id":"levelo_inurba_marseille","lat":43.2657,"lon":5.39022,"is_reserved":false,"is_disabled":false,"rental_uris":{"android":"levelo://app?vid=2e2eded2-ac3e-4b23-8162-ffa573264863","ios":"levelo://app?vid=2e2eded2-ac3e-4b23-8162-ffa573264863"},"vehicle_type_id":"4","last_reported":1728461546,"current_range_meters":26800,"station_id":"ce4bhe12rcd13ifvqf30","pricing_plan_id":"cebpf4jnsgd1na2vs0mg"},{"bike_id":"a6b3d3c3-66cf-4ef9-93fa-38e21f9a6c77","system_id":"levelo_inurba_marseille","lat":43.26686,"lon":5.38275,"is_reserved":false,"is_disabled":false,"rental_uris":{"android":"levelo://app?vid=a6b3d3c3-66cf-4ef9-93fa-38e21f9a6c77","ios":"levelo://app?vid=a6b3d3c3-66cf-4ef9-93fa-38e21f9a6c77"},"vehicle_type_id":"4","last_reported":1728461546,"current_range_meters":38000,"station_id":"ce4bhg92rcd13ifvqf90","pricing_plan_id":"cebpf4jnsgd1na2vs0mg"},{"bike_id":"604d15ec-8a74-4600-9234-5e2d48eeff51","system_id":"levelo_inurba_marseille","lat":43.33615,"lon":5.41033,"is_reserved":false,"is_disabled":false,"rental_uris":{"android":"levelo://app?vid=604d15ec-8a74-4600-9234-5e2d48eeff51","ios":"levelo://app?vid=604d15ec-8a74-4600-9234-5e2d48eeff51"},"vehicle_type_id":"4","last_reported":1728461546,"current_range_meters":19600,"station_id":"ce4bhqh2rcd13ifvqhmg","pricing_plan_id":"cebpf4jnsgd1na2vs0mg"},{"bike_id":"641ca273-1707-4e6d-a647-8e46019ad620","system_id":"levelo_inurba_marseille","lat":43.27964,"lon":5.38762,"is_reserved":false,"is_disabled":false,"rental_uris":{"android":"levelo://app?vid=641ca273-1707-4e6d-a647-8e46019ad620","ios":"levelo://app?vid=641ca273-1707-4e6d-a647-8e46019ad620"},"vehicle_type_id":"4","last_reported":1728461546,"current_range_meters":38000,"station_id":"ce4bhg12rcd13ifvqf80","pricing_plan_id":"cebpf4jnsgd1na2vs0mg"},{"bike_id":"0afe02a7-f81b-4317-97c0-97c264e052b6","system_id":"levelo_inurba_marseille","lat":43.29522,"lon":5.37501,"is_reserved":false,"is_disabled":false,"rental_uris":{"android":"levelo://app?vid=0afe02a7-f81b-4317-97c0-97c264e052b6","ios":"levelo://app?vid=0afe02a7-f81b-4317-97c0-97c264e052b6"},"vehicle_type_id":"4","last_reported":1728461546,"current_range_meters":37600,"station_id":"ce4bgkp2rcd13ifvqbmg","pricing_plan_id":"cebpf4jnsgd1na2vs0mg"},{"bike_id":"f6cc445f-adc8-48aa-8069-82c02cb21379","system_id":"levelo_inurba_marseille","lat":43.2797,"lon":5.38728,"is_reserved":false,"is_disabled":false,"rental_uris":{"android":"levelo://app?vid=f6cc445f-adc8-48aa-8069-82c02cb21379","ios":"levelo://app?vid=f6cc445f-adc8-48aa-8069-82c02cb21379"},"vehicle_type_id":"4","last_reported":1728461546,"current_range_meters":38800,"station_id":"ce4bhg12rcd13ifvqf80","pricing_plan_id":"cebpf4jnsgd1na2vs0mg"},{"bike_id":"4a0c4a80-24ca-4117-82f0-18bb156d4aec","system_id":"levelo_inurba_marseille","lat":43.30902,"lon":5.36851,"is_reserved":false,"is_disabled":false,"rental_uris":{"android":"levelo://app?vid=4a0c4a80-24ca-4117-82f0-18bb156d4aec","ios":"levelo://app?vid=4a0c4a80-24ca-4117-82f0-18bb156d4aec"},"vehicle_type_id":"4","last_reported":1728461546,"current_range_meters":5600,"station_id":"ce4bgn92rcd13ifvqbvg","pricing_plan_id":"cebpf4jnsgd1na2vs0mg"},{"bike_id":"3159ba03-34d0-49a0-8ced-00febf3edf9e","system_id":"levelo_inurba_marseille","lat":43.29464,"lon":5.37666,"is_reserved":false,"is_disabled":false,"rental_uris":{"android":"levelo://app?vid=3159ba03-34d0-49a0-8ced-00febf3edf9e","ios":"levelo://app?vid=3159ba03-34d0-49a0-8ced-00febf3edf9e"},"vehicle_type_id":"4","last_reported":1728461546,"current_range_meters":30400,"station_id":"ce4bhh92rcd13ifvqfi0","pricing_plan_id":"cebpf4jnsgd1na2vs0mg"},{"bike_id":"2c326297-c07d-45b1-b66c-b2717a12f1b8","system_id":"levelo_inurba_marseille","lat":43.24076,"lon":5.37755,"is_reserved":false,"is_disabled":false,"rental_uris":{"android":"levelo://app?vid=2c326297-c07d-45b1-b66c-b2717a12f1b8","ios":"levelo://app?vid=2c326297-c07d-45b1-b66c-b2717a12f1b8"},"vehicle_type_id":"4","last_reported":1728461546,"current_range_meters":27200,"station_id":"ce4bhnp2rcd13ifvqgvg","pricing_plan_id":"cebpf4jnsgd1na2vs0mg"},{"bike_id":"d1d729c1-7adb-492b-9c95-9015a1ed2807","system_id":"levelo_inurba_marseille","lat":43.23152,"lon":5.43716,"is_reserved":false,"is_disabled":false,"rental_uris":{"android":"levelo://app?vid=d1d729c1-7adb-492b-9c95-9015a1ed2807","ios":"levelo://app?vid=d1d729c1-7adb-492b-9c95-9015a1ed2807"},"vehicle_type_id":"4","last_reported":1728461546,"current_range_meters":12400,"station_id":"ce4bhmp2rcd13ifvqgog","pricing_plan_id":"cebpf4jnsgd1na2vs0mg"},{"bike_id":"f4e5b719-ec13-47cf-95ee-467f11b1f3b4","system_id":"levelo_inurba_marseille","lat":43.2871,"lon":5.37945,"is_reserved":false,"is_disabled":false,"rental_uris":{"android":"levelo://app?vid=f4e5b719-ec13-47cf-95ee-467f11b1f3b4","ios":"levelo://app?vid=f4e5b719-ec13-47cf-95ee-467f11b1f3b4"},"vehicle_type_id":"4","last_reported":1728461546,"current_range_meters":36400,"station_id":"ce4bgrp2rcd13ifvqc9g","pricing_plan_id":"cebpf4jnsgd1na2vs0mg"},{"bike_id":"9a20db31-b3d9-4746-9995-cb59a0e0b074","system_id":"levelo_inurba_marseille","lat":43.30464,"lon":5.37914,"is_reserved":false,"is_disabled":false,"rental_uris":{"android":"levelo://app?vid=9a20db31-b3d9-4746-9995-cb59a0e0b074","ios":"levelo://app?vid=9a20db31-b3d9-4746-9995-cb59a0e0b074"},"vehicle_type_id":"4","last_reported":1728461546,"current_range_meters":19600,"station_id":"ce4bgup2rcd13ifvqcn0","pricing_plan_id":"cebpf4jnsgd1na2vs0mg"},{"bike_id":"7337653a-7306-4df9-b416-6d97416190fd","system_id":"levelo_inurba_marseille","lat":43.29035,"lon":5.39962,"is_reserved":false,"is_disabled":false,"rental_uris":{"android":"levelo://app?vid=7337653a-7306-4df9-b416-6d97416190fd","ios":"levelo://app?vid=7337653a-7306-4df9-b416-6d97416190fd"},"vehicle_type_id":"4","last_reported":1728461546,"current_range_meters":23200,"station_id":"ce4bh392rcd13ifvqdm0","pricing_plan_id":"cebpf4jnsgd1na2vs0mg"},{"bike_id":"96d80047-32d2-45f4-bd41-195cf5cb8e0c","system_id":"levelo_inurba_marseille","lat":43.23053,"lon":5.35493,"is_reserved":false,"is_disabled":false,"rental_uris":{"android":"levelo://app?vid=96d80047-32d2-45f4-bd41-195cf5cb8e0c","ios":"levelo://app?vid=96d80047-32d2-45f4-bd41-195cf5cb8e0c"},"vehicle_type_id":"4","last_reported":1728461546,"current_range_meters":38000,"station_id":"cpo3342slgdg3j2ifvpg","pricing_plan_id":"cebpf4jnsgd1na2vs0mg"},{"bike_id":"aea59b95-40ec-4ce5-adc4-1af61b5d68b5","system_id":"levelo_inurba_marseille","lat":43.3028,"lon":5.37707,"is_reserved":false,"is_disabled":false,"rental_uris":{"android":"levelo://app?vid=aea59b95-40ec-4ce5-adc4-1af61b5d68b5","ios":"levelo://app?vid=aea59b95-40ec-4ce5-adc4-1af61b5d68b5"},"vehicle_type_id":"4","last_reported":1728461546,"current_range_meters":39200,"station_id":"ce4bguh2rcd13ifvqcj0","pricing_plan_id":"cebpf4jnsgd1na2vs0mg"},{"bike_id":"83eebce3-7b95-4ec8-8fcc-6cf802cddd29","system_id":"levelo_inurba_marseille","lat":43.27973,"lon":5.38757,"is_reserved":false,"is_disabled":false,"rental_uris":{"android":"levelo://app?vid=83eebce3-7b95-4ec8-8fcc-6cf802cddd29","ios":"levelo://app?vid=83eebce3-7b95-4ec8-8fcc-6cf802cddd29"},"vehicle_type_id":"4","last_reported":1728461546,"current_range_meters":26800,"station_id":"ce4bhg12rcd13ifvqf80","pricing_plan_id":"cebpf4jnsgd1na2vs0mg"},{"bike_id":"0f70adbe-ee9d-46bd-9883-74567fc4748c","system_id":"levelo_inurba_marseille","lat":43.31223,"lon":5.36866,"is_reserved":false,"is_disabled":false,"rental_uris":{"android":"levelo://app?vid=0f70adbe-ee9d-46bd-9883-74567fc4748c","ios":"levelo://app?vid=0f70adbe-ee9d-46bd-9883-74567fc4748c"},"vehicle_type_id":"4","last_reported":1728461546,"current_range_meters":39200,"station_id":"ce4bgl92rcd13ifvqbq0","pricing_plan_id":"cebpf4jnsgd1na2vs0mg"},{"bike_id":"c24ab6ea-6c76-4668-8e4d-b013ea1f6252","system_id":"levelo_inurba_marseille","lat":43.30135,"lon":5.37422,"is_reserved":false,"is_disabled":false,"rental_uris":{"android":"levelo://app?vid=c24ab6ea-6c76-4668-8e4d-b013ea1f6252","ios":"levelo://app?vid=c24ab6ea-6c76-4668-8e4d-b013ea1f6252"},"vehicle_type_id":"4","last_reported":1728461546,"current_range_meters":25600,"station_id":"ce4bgs92rcd13ifvqcc0","pricing_plan_id":"cebpf4jnsgd1na2vs0mg"},{"bike_id":"4527bfc5-c904-4845-895d-1c7c8e77151f","system_id":"levelo_inurba_marseille","lat":43.31996,"lon":5.38147,"is_reserved":false,"is_disabled":false,"rental_uris":{"android":"levelo://app?vid=4527bfc5-c904-4845-895d-1c7c8e77151f","ios":"levelo://app?vid=4527bfc5-c904-4845-895d-1c7c8e77151f"},"vehicle_type_id":"4","last_reported":1728461546,"current_range_meters":36400,"station_id":"ce4bhr12rcd13ifvqhpg","pricing_plan_id":"cebpf4jnsgd1na2vs0mg"},{"bike_id":"a44748dc-f8f5-4318-8bce-df7a0f090cd4","system_id":"levelo_inurba_marseille","lat":43.29554,"lon":5.42279,"is_reserved":false,"is_disabled":false,"rental_uris":{"android":"levelo://app?vid=a44748dc-f8f5-4318-8bce-df7a0f090cd4","ios":"levelo://app?vid=a44748dc-f8f5-4318-8bce-df7a0f090cd4"},"vehicle_type_id":"4","last_reported":1728461546,"current_range_meters":39200,"station_id":"ce4bhph2rcd13ifvqhdg","pricing_plan_id":"cebpf4jnsgd1na2vs0mg"},{"bike_id":"45051c07-a864-41b8-be9f-d6bc8c6d0047","system_id":"levelo_inurba_marseille","lat":43.23151,"lon":5.4372,"is_reserved":false,"is_disabled":false,"rental_uris":{"android":"levelo://app?vid=45051c07-a864-41b8-be9f-d6bc8c6d0047","ios":"levelo://app?vid=45051c07-a864-41b8-be9f-d6bc8c6d0047"},"vehicle_type_id":"4","last_reported":1728461546,"current_range_meters":31200,"station_id":"ce4bhmp2rcd13ifvqgog","pricing_plan_id":"cebpf4jnsgd1na2vs0mg"},{"bike_id":"928fae15-fd53-4b25-baa8-01b9b68645a8","system_id":"levelo_inurba_marseille","lat":43.26932,"lon":5.38917,"is_reserved":false,"is_disabled":false,"rental_uris":{"android":"levelo://app?vid=928fae15-fd53-4b25-baa8-01b9b68645a8","ios":"levelo://app?vid=928fae15-fd53-4b25-baa8-01b9b68645a8"},"vehicle_type_id":"4","last_reported":1728461546,"current_range_meters":38800,"station_id":"ce4bhhh2rcd13ifvqfl0","pricing_plan_id":"cebpf4jnsgd1na2vs0mg"},{"bike_id":"6ecc9958-aaeb-4210-8091-0a1a55ff425f","system_id":"levelo_inurba_marseille","lat":43.23154,"lon":5.43731,"is_reserved":false,"is_disabled":false,"rental_uris":{"android":"levelo://app?vid=6ecc9958-aaeb-4210-8091-0a1a55ff425f","ios":"levelo://app?vid=6ecc9958-aaeb-4210-8091-0a1a55ff425f"},"vehicle_type_id":"4","last_reported":1728461546,"current_range_meters":12400,"station_id":"ce4bhmp2rcd13ifvqgog","pricing_plan_id":"cebpf4jnsgd1na2vs0mg"},{"bike_id":"ada37d34-4ee5-4635-86c3-8cd6f90efc16","system_id":"levelo_inurba_marseille","lat":43.26208,"lon":5.37929,"is_reserved":false,"is_disabled":false,"rental_uris":{"android":"levelo://app?vid=ada37d34-4ee5-4635-86c3-8cd6f90efc16","ios":"levelo://app?vid=ada37d34-4ee5-4635-86c3-8cd6f90efc16"},"vehicle_type_id":"4","last_reported":1728461546,"current_range_meters":6400,"station_id":"ce4bhjp2rcd13ifvqg90","pricing_plan_id":"cebpf4jnsgd1na2vs0mg"},{"bike_id":"9fe78430-11e7-47f8-baac-bd725566a90b","system_id":"levelo_inurba_marseille","lat":43.23195,"lon":5.35559,"is_reserved":false,"is_disabled":false,"rental_uris":{"android":"levelo://app?vid=9fe78430-11e7-47f8-baac-bd725566a90b","ios":"levelo://app?vid=9fe78430-11e7-47f8-baac-bd725566a90b"},"vehicle_type_id":"4","last_reported":1728461546,"current_range_meters":4000,"station_id":"ce4bhu92rcd13ifvqi70","pricing_plan_id":"cebpf4jnsgd1na2vs0mg"},{"bike_id":"3c47709e-cce9-4829-a61a-1beb95b597d3","system_id":"levelo_inurba_marseille","lat":43.275,"lon":5.42453,"is_reserved":false,"is_disabled":false,"rental_uris":{"android":"levelo://app?vid=3c47709e-cce9-4829-a61a-1beb95b597d3","ios":"levelo://app?vid=3c47709e-cce9-4829-a61a-1beb95b597d3"},"vehicle_type_id":"4","last_reported":1728461546,"current_range_meters":32000,"station_id":"ce4bhn92rcd13ifvqgrg","pricing_plan_id":"cebpf4jnsgd1na2vs0mg"},{"bike_id":"158c735d-765f-459c-89f5-d54d747df691","system_id":"levelo_inurba_marseille","lat":43.25928,"lon":5.4091,"is_reserved":false,"is_disabled":false,"rental_uris":{"android":"levelo://app?vid=158c735d-765f-459c-89f5-d54d747df691","ios":"levelo://app?vid=158c735d-765f-459c-89f5-d54d747df691"},"vehicle_type_id":"4","last_reported":1728461546,"current_range_meters":38400,"station_id":"ce4bhm92rcd13ifvqglg","pricing_plan_id":"cebpf4jnsgd1na2vs0mg"},{"bike_id":"da4a30f9-9ac5-49b6-a719-4d62f8e54519","system_id":"levelo_inurba_marseille","lat":43.30157,"lon":5.38086,"is_reserved":false,"is_disabled":false,"rental_uris":{"android":"levelo://app?vid=da4a30f9-9ac5-49b6-a719-4d62f8e54519","ios":"levelo://app?vid=da4a30f9-9ac5-49b6-a719-4d62f8e54519"},"vehicle_type_id":"4","last_reported":1728461546,"current_range_meters":20800,"station_id":"ce4bgjp2rcd13ifvqbh0","pricing_plan_id":"cebpf4jnsgd1na2vs0mg"},{"bike_id":"32a47555-5b90-4e71-acec-5d7469e9cc0c","system_id":"levelo_inurba_marseille","lat":43.32484,"lon":5.36569,"is_reserved":false,"is_disabled":false,"rental_uris":{"android":"levelo://app?vid=32a47555-5b90-4e71-acec-5d7469e9cc0c","ios":"levelo://app?vid=32a47555-5b90-4e71-acec-5d7469e9cc0c"},"vehicle_type_id":"4","last_reported":1728461546,"current_range_meters":39200,"station_id":"ce4bhs12rcd13ifvqhvg","pricing_plan_id":"cebpf4jnsgd1na2vs0mg"},{"bike_id":"6b85a3ee-4da3-449d-ad78-2a214e188956","system_id":"levelo_inurba_marseille","lat":43.30152,"lon":5.3808,"is_reserved":false,"is_disabled":false,"rental_uris":{"android":"levelo://app?vid=6b85a3ee-4da3-449d-ad78-2a214e188956","ios":"levelo://app?vid=6b85a3ee-4da3-449d-ad78-2a214e188956"},"vehicle_type_id":"4","last_reported":1728461546,"current_range_meters":18000,"station_id":"ce4bgjp2rcd13ifvqbh0","pricing_plan_id":"cebpf4jnsgd1na2vs0mg"},{"bike_id":"d7f92690-1f48-4b04-b189-19fb5e3db760","system_id":"levelo_inurba_marseille","lat":43.29375,"lon":5.37834,"is_reserved":false,"is_disabled":false,"rental_uris":{"android":"levelo://app?vid=d7f92690-1f48-4b04-b189-19fb5e3db760","ios":"levelo://app?vid=d7f92690-1f48-4b04-b189-19fb5e3db760"},"vehicle_type_id":"4","last_reported":1728461546,"current_range_meters":25200,"station_id":"ce4bgjh2rcd13ifvqbf0","pricing_plan_id":"cebpf4jnsgd1na2vs0mg"},{"bike_id":"d4e64f39-8e77-4895-8c2d-10934c35d4ef","system_id":"levelo_inurba_marseille","lat":43.31225,"lon":5.36882,"is_reserved":false,"is_disabled":false,"rental_uris":{"android":"levelo://app?vid=d4e64f39-8e77-4895-8c2d-10934c35d4ef","ios":"levelo://app?vid=d4e64f39-8e77-4895-8c2d-10934c35d4ef"},"vehicle_type_id":"4","last_reported":1728461546,"current_range_meters":28800,"station_id":"ce4bgl92rcd13ifvqbq0","pricing_plan_id":"cebpf4jnsgd1na2vs0mg"},{"bike_id":"e893287e-c33c-4e65-a9e0-b26d0de48a78","system_id":"levelo_inurba_marseille","lat":43.31347,"lon":5.36713,"is_reserved":false,"is_disabled":false,"rental_uris":{"android":"levelo://app?vid=e893287e-c33c-4e65-a9e0-b26d0de48a78","ios":"levelo://app?vid=e893287e-c33c-4e65-a9e0-b26d0de48a78"},"vehicle_type_id":"4","last_reported":1728461546,"current_range_meters":35200,"station_id":"ce4bgr92rcd13ifvqc6g","pricing_plan_id":"cebpf4jnsgd1na2vs0mg"},{"bike_id":"f5bd0055-90f6-4036-b18d-9cb67f28454a","system_id":"levelo_inurba_marseille","lat":43.33608,"lon":5.4104,"is_reserved":false,"is_disabled":false,"rental_uris":{"android":"levelo://app?vid=f5bd0055-90f6-4036-b18d-9cb67f28454a","ios":"levelo://app?vid=f5bd0055-90f6-4036-b18d-9cb67f28454a"},"vehicle_type_id":"4","last_reported":1728461546,"current_range_meters":14000,"station_id":"ce4bhqh2rcd13ifvqhmg","pricing_plan_id":"cebpf4jnsgd1na2vs0mg"},{"bike_id":"42331874-00d9-42da-8ade-186b4ef1581a","system_id":"levelo_inurba_marseille","lat":43.26213,"lon":5.37452,"is_reserved":false,"is_disabled":false,"rental_uris":{"android":"levelo://app?vid=42331874-00d9-42da-8ade-186b4ef1581a","ios":"levelo://app?vid=42331874-00d9-42da-8ade-186b4ef1581a"},"vehicle_type_id":"4","last_reported":1728461546,"current_range_meters":26000,"station_id":"ce4bhgp2rcd13ifvqfc0","pricing_plan_id":"cebpf4jnsgd1na2vs0mg"},{"bike_id":"70579604-fe31-4626-8ce5-732c300fd65a","system_id":"levelo_inurba_marseille","lat":43.3054,"lon":5.36545,"is_reserved":false,"is_disabled":false,"rental_uris":{"android":"levelo://app?vid=70579604-fe31-4626-8ce5-732c300fd65a","ios":"levelo://app?vid=70579604-fe31-4626-8ce5-732c300fd65a"},"vehicle_type_id":"4","last_reported":1728461546,"current_range_meters":9200,"station_id":"ce4bgs12rcd13ifvqcag","pricing_plan_id":"cebpf4jnsgd1na2vs0mg"},{"bike_id":"88267538-d6a0-4053-8085-f063fb54cc2b","system_id":"levelo_inurba_marseille","lat":43.27494,"lon":5.42458,"is_reserved":false,"is_disabled":false,"rental_uris":{"android":"levelo://app?vid=88267538-d6a0-4053-8085-f063fb54cc2b","ios":"levelo://app?vid=88267538-d6a0-4053-8085-f063fb54cc2b"},"vehicle_type_id":"4","last_reported":1728461546,"current_range_meters":26000,"station_id":"ce4bhn92rcd13ifvqgrg","pricing_plan_id":"cebpf4jnsgd1na2vs0mg"},{"bike_id":"b4827499-060b-4d29-866e-571ac00645e9","system_id":"levelo_inurba_marseille","lat":43.270569,"lon":5.40257,"is_reserved":false,"is_disabled":false,"rental_uris":{"android":"levelo://app?vid=b4827499-060b-4d29-866e-571ac00645e9","ios":"levelo://app?vid=b4827499-060b-4d29-866e-571ac00645e9"},"vehicle_type_id":"4","last_reported":1728461546,"current_range_meters":22400,"station_id":"ce4bhk92rcd13ifvqgc0","pricing_plan_id":"cebpf4jnsgd1na2vs0mg"},{"bike_id":"d1e48058-57bc-4a38-aa4b-b2a182693437","system_id":"levelo_inurba_marseille","lat":43.28979,"lon":5.37851,"is_reserved":false,"is_disabled":false,"rental_uris":{"android":"levelo://app?vid=d1e48058-57bc-4a38-aa4b-b2a182693437","ios":"levelo://app?vid=d1e48058-57bc-4a38-aa4b-b2a182693437"},"vehicle_type_id":"4","last_reported":1728461546,"current_range_meters":38000,"station_id":"ce4bh9p2rcd13ifvqed0","pricing_plan_id":"cebpf4jnsgd1na2vs0mg"},{"bike_id":"baba3ddf-e747-4095-9a9c-078163c7026f","system_id":"levelo_inurba_marseille","lat":43.25932,"lon":5.40907,"is_reserved":false,"is_disabled":false,"rental_uris":{"android":"levelo://app?vid=baba3ddf-e747-4095-9a9c-078163c7026f","ios":"levelo://app?vid=baba3ddf-e747-4095-9a9c-078163c7026f"},"vehicle_type_id":"4","last_reported":1728461546,"current_range_meters":7200,"station_id":"ce4bhm92rcd13ifvqglg","pricing_plan_id":"cebpf4jnsgd1na2vs0mg"},{"bike_id":"6217f0d4-29aa-4911-a3f9-c02e45328700","system_id":"levelo_inurba_marseille","lat":43.23194,"lon":5.35547,"is_reserved":false,"is_disabled":false,"rental_uris":{"android":"levelo://app?vid=6217f0d4-29aa-4911-a3f9-c02e45328700","ios":"levelo://app?vid=6217f0d4-29aa-4911-a3f9-c02e45328700"},"vehicle_type_id":"4","last_reported":1728461546,"current_range_meters":33600,"station_id":"ce4bhu92rcd13ifvqi70","pricing_plan_id":"cebpf4jnsgd1na2vs0mg"},{"bike_id":"a335f677-574f-4c1e-836f-24ac52969147","system_id":"levelo_inurba_marseille","lat":43.282675,"lon":5.350608,"is_reserved":false,"is_disabled":false,"rental_uris":{"android":"levelo://app?vid=a335f677-574f-4c1e-836f-24ac52969147","ios":"levelo://app?vid=a335f677-574f-4c1e-836f-24ac52969147"},"vehicle_type_id":"4","last_reported":1728461546,"current_range_meters":8800,"station_id":"ce4bhbp2rcd13ifvqerg","pricing_plan_id":"cebpf4jnsgd1na2vs0mg"},{"bike_id":"141df06e-113e-44c6-8129-a25fe376a60a","system_id":"levelo_inurba_marseille","lat":43.29551,"lon":5.42285,"is_reserved":false,"is_disabled":false,"rental_uris":{"android":"levelo://app?vid=141df06e-113e-44c6-8129-a25fe376a60a","ios":"levelo://app?vid=141df06e-113e-44c6-8129-a25fe376a60a"},"vehicle_type_id":"4","last_reported":1728461546,"current_range_meters":38400,"station_id":"ce4bhph2rcd13ifvqhdg","pricing_plan_id":"cebpf4jnsgd1na2vs0mg"},{"bike_id":"c8ebc7d1-6943-4044-ad6c-3252fb6dd74b","system_id":"levelo_inurba_marseille","lat":43.26209,"lon":5.37446,"is_reserved":false,"is_disabled":false,"rental_uris":{"android":"levelo://app?vid=c8ebc7d1-6943-4044-ad6c-3252fb6dd74b","ios":"levelo://app?vid=c8ebc7d1-6943-4044-ad6c-3252fb6dd74b"},"vehicle_type_id":"4","last_reported":1728461546,"current_range_meters":28800,"station_id":"ce4bhgp2rcd13ifvqfc0","pricing_plan_id":"cebpf4jnsgd1na2vs0mg"},{"bike_id":"5e6b6150-a47e-402c-adfd-73ccaed8f7d2","system_id":"levelo_inurba_marseille","lat":43.26946,"lon":5.40255,"is_reserved":false,"is_disabled":false,"rental_uris":{"android":"levelo://app?vid=5e6b6150-a47e-402c-adfd-73ccaed8f7d2","ios":"levelo://app?vid=5e6b6150-a47e-402c-adfd-73ccaed8f7d2"},"vehicle_type_id":"4","last_reported":1728461546,"current_range_meters":37600,"station_id":"cjm6bp8fraef2m0cb0m0","pricing_plan_id":"cebpf4jnsgd1na2vs0mg"},{"bike_id":"fde7cf76-2bbb-462c-878e-7256af82b32b","system_id":"levelo_inurba_marseille","lat":43.2319,"lon":5.35555,"is_reserved":false,"is_disabled":false,"rental_uris":{"android":"levelo://app?vid=fde7cf76-2bbb-462c-878e-7256af82b32b","ios":"levelo://app?vid=fde7cf76-2bbb-462c-878e-7256af82b32b"},"vehicle_type_id":"4","last_reported":1728461546,"current_range_meters":39200,"station_id":"ce4bhu92rcd13ifvqi70","pricing_plan_id":"cebpf4jnsgd1na2vs0mg"},{"bike_id":"fd4dd0b0-9f29-4283-b0a3-caf50dd2be11","system_id":"levelo_inurba_marseille","lat":43.33024,"lon":5.39037,"is_reserved":false,"is_disabled":false,"rental_uris":{"android":"levelo://app?vid=fd4dd0b0-9f29-4283-b0a3-caf50dd2be11","ios":"levelo://app?vid=fd4dd0b0-9f29-4283-b0a3-caf50dd2be11"},"vehicle_type_id":"4","last_reported":1728461546,"current_range_meters":28000,"station_id":"ce4bhr92rcd13ifvqhrg","pricing_plan_id":"cebpf4jnsgd1na2vs0mg"},{"bike_id":"bcf73971-ac76-41a2-98e5-cb350f22e059","system_id":"levelo_inurba_marseille","lat":43.255771,"lon":5.38234,"is_reserved":false,"is_disabled":false,"rental_uris":{"android":"levelo://app?vid=bcf73971-ac76-41a2-98e5-cb350f22e059","ios":"levelo://app?vid=bcf73971-ac76-41a2-98e5-cb350f22e059"},"vehicle_type_id":"4","last_reported":1728461546,"current_range_meters":27600,"station_id":"ce4bhg12rcd13ifvqf60","pricing_plan_id":"cebpf4jnsgd1na2vs0mg"},{"bike_id":"2b6677d5-7b62-4a07-b6c3-7bf77f5bcd5c","system_id":"levelo_inurba_marseille","lat":43.28446,"lon":5.39185,"is_reserved":false,"is_disabled":false,"rental_uris":{"android":"levelo://app?vid=2b6677d5-7b62-4a07-b6c3-7bf77f5bcd5c","ios":"levelo://app?vid=2b6677d5-7b62-4a07-b6c3-7bf77f5bcd5c"},"vehicle_type_id":"4","last_reported":1728461546,"current_range_meters":38000,"station_id":"ce4bhoh2rcd13ifvqh5g","pricing_plan_id":"cebpf4jnsgd1na2vs0mg"},{"bike_id":"55592505-620d-4282-8a7d-430967b704db","system_id":"levelo_inurba_marseille","lat":43.29307,"lon":5.37187,"is_reserved":false,"is_disabled":false,"rental_uris":{"android":"levelo://app?vid=55592505-620d-4282-8a7d-430967b704db","ios":"levelo://app?vid=55592505-620d-4282-8a7d-430967b704db"},"vehicle_type_id":"4","last_reported":1728461546,"current_range_meters":24000,"station_id":"ce4bgh92rcd13ifvqb40","pricing_plan_id":"cebpf4jnsgd1na2vs0mg"},{"bike_id":"4f75fb25-7be5-4191-a0e9-dc8cd755da5b","system_id":"levelo_inurba_marseille","lat":43.29917,"lon":5.37468,"is_reserved":false,"is_disabled":false,"rental_uris":{"android":"levelo://app?vid=4f75fb25-7be5-4191-a0e9-dc8cd755da5b","ios":"levelo://app?vid=4f75fb25-7be5-4191-a0e9-dc8cd755da5b"},"vehicle_type_id":"4","last_reported":1728461546,"current_range_meters":19600,"station_id":"ce4bgjh2rcd13ifvqbg0","pricing_plan_id":"cebpf4jnsgd1na2vs0mg"},{"bike_id":"ff34ef8c-35ba-4599-8a65-98fd950e650d","system_id":"levelo_inurba_marseille","lat":43.24667,"lon":5.38161,"is_reserved":false,"is_disabled":false,"rental_uris":{"android":"levelo://app?vid=ff34ef8c-35ba-4599-8a65-98fd950e650d","ios":"levelo://app?vid=ff34ef8c-35ba-4599-8a65-98fd950e650d"},"vehicle_type_id":"4","last_reported":1728461546,"current_range_meters":39200,"station_id":"ce4bhih2rcd13ifvqfr0","pricing_plan_id":"cebpf4jnsgd1na2vs0mg"},{"bike_id":"84e1676e-bfa5-461b-8a0c-7bbfe307106f","system_id":"levelo_inurba_marseille","lat":43.25584,"lon":5.3823,"is_reserved":false,"is_disabled":false,"rental_uris":{"android":"levelo://app?vid=84e1676e-bfa5-461b-8a0c-7bbfe307106f","ios":"levelo://app?vid=84e1676e-bfa5-461b-8a0c-7bbfe307106f"},"vehicle_type_id":"4","last_reported":1728461546,"current_range_meters":38800,"station_id":"ce4bhih2rcd13ifvqfs0","pricing_plan_id":"cebpf4jnsgd1na2vs0mg"},{"bike_id":"0639ec70-43dc-420c-a1af-257ee376cffc","system_id":"levelo_inurba_marseille","lat":43.29554,"lon":5.4229,"is_reserved":false,"is_disabled":false,"rental_uris":{"android":"levelo://app?vid=0639ec70-43dc-420c-a1af-257ee376cffc","ios":"levelo://app?vid=0639ec70-43dc-420c-a1af-257ee376cffc"},"vehicle_type_id":"4","last_reported":1728461546,"current_range_meters":31200,"station_id":"ce4bhph2rcd13ifvqhdg","pricing_plan_id":"cebpf4jnsgd1na2vs0mg"},{"bike_id":"c315d040-1092-47de-a43c-7dffb44d42e1","system_id":"levelo_inurba_marseille","lat":43.297699,"lon":5.376886,"is_reserved":false,"is_disabled":false,"rental_uris":{"android":"levelo://app?vid=c315d040-1092-47de-a43c-7dffb44d42e1","ios":"levelo://app?vid=c315d040-1092-47de-a43c-7dffb44d42e1"},"vehicle_type_id":"4","last_reported":1728461546,"current_range_meters":28800,"station_id":"ce4bgi92rcd13ifvqb90","pricing_plan_id":"cebpf4jnsgd1na2vs0mg"},{"bike_id":"2250666e-2423-4ec9-a242-d1f6b184ebc2","system_id":"levelo_inurba_marseille","lat":43.30142,"lon":5.37415,"is_reserved":false,"is_disabled":false,"rental_uris":{"android":"levelo://app?vid=2250666e-2423-4ec9-a242-d1f6b184ebc2","ios":"levelo://app?vid=2250666e-2423-4ec9-a242-d1f6b184ebc2"},"vehicle_type_id":"4","last_reported":1728461546,"current_range_meters":28000,"station_id":"ce4bgs92rcd13ifvqcc0","pricing_plan_id":"cebpf4jnsgd1na2vs0mg"},{"bike_id":"abcdcf90-45be-42ed-a0ef-8312cf07294c","system_id":"levelo_inurba_marseille","lat":43.30139,"lon":5.37422,"is_reserved":false,"is_disabled":false,"rental_uris":{"android":"levelo://app?vid=abcdcf90-45be-42ed-a0ef-8312cf07294c","ios":"levelo://app?vid=abcdcf90-45be-42ed-a0ef-8312cf07294c"},"vehicle_type_id":"4","last_reported":1728461546,"current_range_meters":30400,"station_id":"ce4bgs92rcd13ifvqcc0","pricing_plan_id":"cebpf4jnsgd1na2vs0mg"},{"bike_id":"40ce2d9d-e920-4ff5-a7be-f7e9fddaed2e","system_id":"levelo_inurba_marseille","lat":43.30542,"lon":5.36708,"is_reserved":false,"is_disabled":false,"rental_uris":{"android":"levelo://app?vid=40ce2d9d-e920-4ff5-a7be-f7e9fddaed2e","ios":"levelo://app?vid=40ce2d9d-e920-4ff5-a7be-f7e9fddaed2e"},"vehicle_type_id":"4","last_reported":1728461546,"current_range_meters":35200,"station_id":"ce4bgrp2rcd13ifvqc9g","pricing_plan_id":"cebpf4jnsgd1na2vs0mg"},{"bike_id":"a2005419-aa99-493c-8b29-888aca10d9b7","system_id":"levelo_inurba_marseille","lat":43.31345,"lon":5.36727,"is_reserved":false,"is_disabled":false,"rental_uris":{"android":"levelo://app?vid=a2005419-aa99-493c-8b29-888aca10d9b7","ios":"levelo://app?vid=a2005419-aa99-493c-8b29-888aca10d9b7"},"vehicle_type_id":"4","last_reported":1728461546,"current_range_meters":8000,"station_id":"ce4bgr92rcd13ifvqc6g","pricing_plan_id":"cebpf4jnsgd1na2vs0mg"},{"bike_id":"c6f4c165-f2b0-469b-b31f-409fa51a5b90","system_id":"levelo_inurba_marseille","lat":43.23196,"lon":5.35556,"is_reserved":false,"is_disabled":false,"rental_uris":{"android":"levelo://app?vid=c6f4c165-f2b0-469b-b31f-409fa51a5b90","ios":"levelo://app?vid=c6f4c165-f2b0-469b-b31f-409fa51a5b90"},"vehicle_type_id":"4","last_reported":1728461546,"current_range_meters":18800,"station_id":"ce4bhu92rcd13ifvqi70","pricing_plan_id":"cebpf4jnsgd1na2vs0mg"},{"bike_id":"144d11b5-61d2-497e-a663-d169e960147f","system_id":"levelo_inurba_marseille","lat":43.33632,"lon":5.41048,"is_reserved":false,"is_disabled":false,"rental_uris":{"android":"levelo://app?vid=144d11b5-61d2-497e-a663-d169e960147f","ios":"levelo://app?vid=144d11b5-61d2-497e-a663-d169e960147f"},"vehicle_type_id":"4","last_reported":1728461546,"current_range_meters":32000,"station_id":"ce4bhqh2rcd13ifvqhmg","pricing_plan_id":"cebpf4jnsgd1na2vs0mg"},{"bike_id":"8a67907a-4e1b-4251-b4a4-c980df6fc77b","system_id":"levelo_inurba_marseille","lat":43.30274,"lon":5.37696,"is_reserved":false,"is_disabled":false,"rental_uris":{"android":"levelo://app?vid=8a67907a-4e1b-4251-b4a4-c980df6fc77b","ios":"levelo://app?vid=8a67907a-4e1b-4251-b4a4-c980df6fc77b"},"vehicle_type_id":"4","last_reported":1728461546,"current_range_meters":36400,"station_id":"ce4bguh2rcd13ifvqcj0","pricing_plan_id":"cebpf4jnsgd1na2vs0mg"},{"bike_id":"8f195e73-56cf-4dbf-97df-c620bbc300b1","system_id":"levelo_inurba_marseille","lat":43.23157,"lon":5.43703,"is_reserved":false,"is_disabled":false,"rental_uris":{"android":"levelo://app?vid=8f195e73-56cf-4dbf-97df-c620bbc300b1","ios":"levelo://app?vid=8f195e73-56cf-4dbf-97df-c620bbc300b1"},"vehicle_type_id":"4","last_reported":1728461546,"current_range_meters":17600,"station_id":"ce4bhmp2rcd13ifvqgog","pricing_plan_id":"cebpf4jnsgd1na2vs0mg"},{"bike_id":"09fa8933-188c-463c-b655-4d048fac928d","system_id":"levelo_inurba_marseille","lat":43.30155,"lon":5.38084,"is_reserved":false,"is_disabled":false,"rental_uris":{"android":"levelo://app?vid=09fa8933-188c-463c-b655-4d048fac928d","ios":"levelo://app?vid=09fa8933-188c-463c-b655-4d048fac928d"},"vehicle_type_id":"4","last_reported":1728461546,"current_range_meters":36400,"station_id":"ce4bgjp2rcd13ifvqbh0","pricing_plan_id":"cebpf4jnsgd1na2vs0mg"},{"bike_id":"25afecff-8faf-4ca5-beb4-ce74280dcb13","system_id":"levelo_inurba_marseille","lat":43.23191,"lon":5.35545,"is_reserved":false,"is_disabled":false,"rental_uris":{"android":"levelo://app?vid=25afecff-8faf-4ca5-beb4-ce74280dcb13","ios":"levelo://app?vid=25afecff-8faf-4ca5-beb4-ce74280dcb13"},"vehicle_type_id":"4","last_reported":1728461546,"current_range_meters":4800,"station_id":"ce4bhu92rcd13ifvqi70","pricing_plan_id":"cebpf4jnsgd1na2vs0mg"},{"bike_id":"7219fee0-219f-4cfa-8633-b620db7597ae","system_id":"levelo_inurba_marseille","lat":43.298493,"lon":5.371095,"is_reserved":false,"is_disabled":false,"rental_uris":{"android":"levelo://app?vid=7219fee0-219f-4cfa-8633-b620db7597ae","ios":"levelo://app?vid=7219fee0-219f-4cfa-8633-b620db7597ae"},"vehicle_type_id":"4","last_reported":1728461546,"current_range_meters":16000,"station_id":"ce4bgjh2rcd13ifvqbg0","pricing_plan_id":"cebpf4jnsgd1na2vs0mg"},{"bike_id":"f33edb99-347d-4327-abd0-67008465357f","system_id":"levelo_inurba_marseille","lat":43.24078,"lon":5.37761,"is_reserved":false,"is_disabled":false,"rental_uris":{"android":"levelo://app?vid=f33edb99-347d-4327-abd0-67008465357f","ios":"levelo://app?vid=f33edb99-347d-4327-abd0-67008465357f"},"vehicle_type_id":"4","last_reported":1728461546,"current_range_meters":30800,"station_id":"ce4bhnp2rcd13ifvqgvg","pricing_plan_id":"cebpf4jnsgd1na2vs0mg"},{"bike_id":"c398cd0f-1da5-460d-bcf6-33f46e4f04b5","system_id":"levelo_inurba_marseille","lat":43.290367,"lon":5.399788,"is_reserved":false,"is_disabled":false,"rental_uris":{"android":"levelo://app?vid=c398cd0f-1da5-460d-bcf6-33f46e4f04b5","ios":"levelo://app?vid=c398cd0f-1da5-460d-bcf6-33f46e4f04b5"},"vehicle_type_id":"4","last_reported":1728461546,"current_range_meters":36400,"station_id":"ce4bh492rcd13ifvqdug","pricing_plan_id":"cebpf4jnsgd1na2vs0mg"},{"bike_id":"3555ba24-83db-490c-a575-eb5af60736ac","system_id":"levelo_inurba_marseille","lat":43.24081,"lon":5.37763,"is_reserved":false,"is_disabled":false,"rental_uris":{"android":"levelo://app?vid=3555ba24-83db-490c-a575-eb5af60736ac","ios":"levelo://app?vid=3555ba24-83db-490c-a575-eb5af60736ac"},"vehicle_type_id":"4","last_reported":1728461546,"current_range_meters":26800,"station_id":"ce4bhnp2rcd13ifvqgvg","pricing_plan_id":"cebpf4jnsgd1na2vs0mg"},{"bike_id":"5e146af4-57f6-4478-8445-6a3648fa63e5","system_id":"levelo_inurba_marseille","lat":43.30951,"lon":5.39039,"is_reserved":false,"is_disabled":false,"rental_uris":{"android":"levelo://app?vid=5e146af4-57f6-4478-8445-6a3648fa63e5","ios":"levelo://app?vid=5e146af4-57f6-4478-8445-6a3648fa63e5"},"vehicle_type_id":"4","last_reported":1728461546,"current_range_meters":28800,"station_id":"ce4bgup2rcd13ifvqco0","pricing_plan_id":"cebpf4jnsgd1na2vs0mg"},{"bike_id":"3f90bb59-398f-4b25-b824-7ec44a4fe021","system_id":"levelo_inurba_marseille","lat":43.29582,"lon":5.42343,"is_reserved":false,"is_disabled":false,"rental_uris":{"android":"levelo://app?vid=3f90bb59-398f-4b25-b824-7ec44a4fe021","ios":"levelo://app?vid=3f90bb59-398f-4b25-b824-7ec44a4fe021"},"vehicle_type_id":"4","last_reported":1728461546,"current_range_meters":38800,"station_id":"ce4bhph2rcd13ifvqhdg","pricing_plan_id":"cebpf4jnsgd1na2vs0mg"},{"bike_id":"1fa1bc4e-b810-4f90-a7ba-37ca81d5592f","system_id":"levelo_inurba_marseille","lat":43.29535,"lon":5.39043,"is_reserved":false,"is_disabled":false,"rental_uris":{"android":"levelo://app?vid=1fa1bc4e-b810-4f90-a7ba-37ca81d5592f","ios":"levelo://app?vid=1fa1bc4e-b810-4f90-a7ba-37ca81d5592f"},"vehicle_type_id":"4","last_reported":1728461546,"current_range_meters":30800,"station_id":"ce4bh3p2rcd13ifvqdp0","pricing_plan_id":"cebpf4jnsgd1na2vs0mg"},{"bike_id":"e2d3bf15-6bc4-4545-bc67-a271e3dd6038","system_id":"levelo_inurba_marseille","lat":43.29561,"lon":5.42287,"is_reserved":false,"is_disabled":false,"rental_uris":{"android":"levelo://app?vid=e2d3bf15-6bc4-4545-bc67-a271e3dd6038","ios":"levelo://app?vid=e2d3bf15-6bc4-4545-bc67-a271e3dd6038"},"vehicle_type_id":"4","last_reported":1728461546,"current_range_meters":38800,"station_id":"ce4bhph2rcd13ifvqhdg","pricing_plan_id":"cebpf4jnsgd1na2vs0mg"},{"bike_id":"2c502928-b51e-47c4-b911-763aae73ab9e","system_id":"levelo_inurba_marseille","lat":43.24077,"lon":5.37756,"is_reserved":false,"is_disabled":false,"rental_uris":{"android":"levelo://app?vid=2c502928-b51e-47c4-b911-763aae73ab9e","ios":"levelo://app?vid=2c502928-b51e-47c4-b911-763aae73ab9e"},"vehicle_type_id":"4","last_reported":1728461546,"current_range_meters":36800,"station_id":"ce4bhnp2rcd13ifvqgvg","pricing_plan_id":"cebpf4jnsgd1na2vs0mg"},{"bike_id":"71250cb0-c748-47e9-a0b5-268da76a0664","system_id":"levelo_inurba_marseille","lat":43.30905,"lon":5.36842,"is_reserved":false,"is_disabled":false,"rental_uris":{"android":"levelo://app?vid=71250cb0-c748-47e9-a0b5-268da76a0664","ios":"levelo://app?vid=71250cb0-c748-47e9-a0b5-268da76a0664"},"vehicle_type_id":"4","last_reported":1728461546,"current_range_meters":25200,"station_id":"ce4bgn92rcd13ifvqbvg","pricing_plan_id":"cebpf4jnsgd1na2vs0mg"},{"bike_id":"49e74dee-8cba-4b09-8380-03c6c3b2ccb7","system_id":"levelo_inurba_marseille","lat":43.33611,"lon":5.41028,"is_reserved":false,"is_disabled":false,"rental_uris":{"android":"levelo://app?vid=49e74dee-8cba-4b09-8380-03c6c3b2ccb7","ios":"levelo://app?vid=49e74dee-8cba-4b09-8380-03c6c3b2ccb7"},"vehicle_type_id":"4","last_reported":1728461546,"current_range_meters":38800,"station_id":"ce4bhqh2rcd13ifvqhmg","pricing_plan_id":"cebpf4jnsgd1na2vs0mg"},{"bike_id":"c5f9d7b5-095c-44ea-b18e-09fa3f124b58","system_id":"levelo_inurba_marseille","lat":43.33756,"lon":5.37448,"is_reserved":false,"is_disabled":false,"rental_uris":{"android":"levelo://app?vid=c5f9d7b5-095c-44ea-b18e-09fa3f124b58","ios":"levelo://app?vid=c5f9d7b5-095c-44ea-b18e-09fa3f124b58"},"vehicle_type_id":"4","last_reported":1728461546,"current_range_meters":38000,"station_id":"","pricing_plan_id":"cebpf4jnsgd1na2vs0mg"},{"bike_id":"045ace5c-b2a3-426f-8ab8-2dde56e1fe43","system_id":"levelo_inurba_marseille","lat":43.30353,"lon":5.41876,"is_reserved":false,"is_disabled":false,"rental_uris":{"android":"levelo://app?vid=045ace5c-b2a3-426f-8ab8-2dde56e1fe43","ios":"levelo://app?vid=045ace5c-b2a3-426f-8ab8-2dde56e1fe43"},"vehicle_type_id":"4","last_reported":1728461546,"current_range_meters":32000,"station_id":"ce4bhop2rcd13ifvqh7g","pricing_plan_id":"cebpf4jnsgd1na2vs0mg"},{"bike_id":"811665d1-0f10-4243-9873-ae3d8727fc0b","system_id":"levelo_inurba_marseille","lat":43.33611,"lon":5.41032,"is_reserved":false,"is_disabled":false,"rental_uris":{"android":"levelo://app?vid=811665d1-0f10-4243-9873-ae3d8727fc0b","ios":"levelo://app?vid=811665d1-0f10-4243-9873-ae3d8727fc0b"},"vehicle_type_id":"4","last_reported":1728461546,"current_range_meters":26000,"station_id":"ce4bhqh2rcd13ifvqhmg","pricing_plan_id":"cebpf4jnsgd1na2vs0mg"},{"bike_id":"cd5db413-cd84-47e8-8776-565b7138cca3","system_id":"levelo_inurba_marseille","lat":43.324829,"lon":5.365696,"is_reserved":false,"is_disabled":false,"rental_uris":{"android":"levelo://app?vid=cd5db413-cd84-47e8-8776-565b7138cca3","ios":"levelo://app?vid=cd5db413-cd84-47e8-8776-565b7138cca3"},"vehicle_type_id":"4","last_reported":1728461546,"current_range_meters":10800,"station_id":"ce4bhs12rcd13ifvqhvg","pricing_plan_id":"cebpf4jnsgd1na2vs0mg"},{"bike_id":"06971ff2-9e3f-427f-9afb-e2db59fd3490","system_id":"levelo_inurba_marseille","lat":43.30152,"lon":5.38087,"is_reserved":false,"is_disabled":false,"rental_uris":{"android":"levelo://app?vid=06971ff2-9e3f-427f-9afb-e2db59fd3490","ios":"levelo://app?vid=06971ff2-9e3f-427f-9afb-e2db59fd3490"},"vehicle_type_id":"4","last_reported":1728461546,"current_range_meters":30000,"station_id":"ce4bgjp2rcd13ifvqbh0","pricing_plan_id":"cebpf4jnsgd1na2vs0mg"},{"bike_id":"98abc9c5-0288-48da-819f-005a5cd3a454","system_id":"levelo_inurba_marseille","lat":43.27841,"lon":5.3546,"is_reserved":false,"is_disabled":false,"rental_uris":{"android":"levelo://app?vid=98abc9c5-0288-48da-819f-005a5cd3a454","ios":"levelo://app?vid=98abc9c5-0288-48da-819f-005a5cd3a454"},"vehicle_type_id":"4","last_reported":1728461546,"current_range_meters":24800,"station_id":"","pricing_plan_id":"cebpf4jnsgd1na2vs0mg"},{"bike_id":"952bbccd-3bcf-47ed-bb76-25090a9e5e75","system_id":"levelo_inurba_marseille","lat":43.30907,"lon":5.36852,"is_reserved":false,"is_disabled":false,"rental_uris":{"android":"levelo://app?vid=952bbccd-3bcf-47ed-bb76-25090a9e5e75","ios":"levelo://app?vid=952bbccd-3bcf-47ed-bb76-25090a9e5e75"},"vehicle_type_id":"4","last_reported":1728461546,"current_range_meters":28400,"station_id":"ce4bgn92rcd13ifvqbvg","pricing_plan_id":"cebpf4jnsgd1na2vs0mg"},{"bike_id":"6a930237-624b-4cde-ad52-27a0343c1393","system_id":"levelo_inurba_marseille","lat":43.2315,"lon":5.43713,"is_reserved":false,"is_disabled":false,"rental_uris":{"android":"levelo://app?vid=6a930237-624b-4cde-ad52-27a0343c1393","ios":"levelo://app?vid=6a930237-624b-4cde-ad52-27a0343c1393"},"vehicle_type_id":"4","last_reported":1728461546,"current_range_meters":38000,"station_id":"ce4bhmp2rcd13ifvqgog","pricing_plan_id":"cebpf4jnsgd1na2vs0mg"},{"bike_id":"74e99172-b562-4180-88ef-777a20d65b0b","system_id":"levelo_inurba_marseille","lat":43.24077,"lon":5.37733,"is_reserved":false,"is_disabled":false,"rental_uris":{"android":"levelo://app?vid=74e99172-b562-4180-88ef-777a20d65b0b","ios":"levelo://app?vid=74e99172-b562-4180-88ef-777a20d65b0b"},"vehicle_type_id":"4","last_reported":1728461546,"current_range_meters":36000,"station_id":"ce4bhnp2rcd13ifvqgvg","pricing_plan_id":"cebpf4jnsgd1na2vs0mg"},{"bike_id":"de9c1657-bcf9-4800-b27f-d9f88895cc32","system_id":"levelo_inurba_marseille","lat":43.26207,"lon":5.37932,"is_reserved":false,"is_disabled":false,"rental_uris":{"android":"levelo://app?vid=de9c1657-bcf9-4800-b27f-d9f88895cc32","ios":"levelo://app?vid=de9c1657-bcf9-4800-b27f-d9f88895cc32"},"vehicle_type_id":"4","last_reported":1728461546,"current_range_meters":18000,"station_id":"ce4bhjp2rcd13ifvqg90","pricing_plan_id":"cebpf4jnsgd1na2vs0mg"},{"bike_id":"74637494-39b2-4d45-8059-bbc9298d0213","system_id":"levelo_inurba_marseille","lat":43.27371,"lon":5.36257,"is_reserved":false,"is_disabled":false,"rental_uris":{"android":"levelo://app?vid=74637494-39b2-4d45-8059-bbc9298d0213","ios":"levelo://app?vid=74637494-39b2-4d45-8059-bbc9298d0213"},"vehicle_type_id":"4","last_reported":1728461546,"current_range_meters":38000,"station_id":"ce4bhbh2rcd13ifvqeo0","pricing_plan_id":"cebpf4jnsgd1na2vs0mg"},{"bike_id":"398eb9a5-252c-466a-9dd3-c7b275537f92","system_id":"levelo_inurba_marseille","lat":43.29878,"lon":5.39737,"is_reserved":false,"is_disabled":false,"rental_uris":{"android":"levelo://app?vid=398eb9a5-252c-466a-9dd3-c7b275537f92","ios":"levelo://app?vid=398eb9a5-252c-466a-9dd3-c7b275537f92"},"vehicle_type_id":"4","last_reported":1728461546,"current_range_meters":23200,"station_id":"ce4bh0h2rcd13ifvqd50","pricing_plan_id":"cebpf4jnsgd1na2vs0mg"},{"bike_id":"c3d12d9f-d4dc-44b9-be41-aff54f1f26ab","system_id":"levelo_inurba_marseille","lat":43.26568,"lon":5.39018,"is_reserved":false,"is_disabled":false,"rental_uris":{"android":"levelo://app?vid=c3d12d9f-d4dc-44b9-be41-aff54f1f26ab","ios":"levelo://app?vid=c3d12d9f-d4dc-44b9-be41-aff54f1f26ab"},"vehicle_type_id":"4","last_reported":1728461546,"current_range_meters":22800,"station_id":"ce4bhe12rcd13ifvqf30","pricing_plan_id":"cebpf4jnsgd1na2vs0mg"},{"bike_id":"526411e4-59b4-450c-be5a-0137df51abdb","system_id":"levelo_inurba_marseille","lat":43.24184,"lon":5.3973,"is_reserved":false,"is_disabled":false,"rental_uris":{"android":"levelo://app?vid=526411e4-59b4-450c-be5a-0137df51abdb","ios":"levelo://app?vid=526411e4-59b4-450c-be5a-0137df51abdb"},"vehicle_type_id":"4","last_reported":1728461546,"current_range_meters":36000,"station_id":"ce4bhn12rcd13ifvqgpg","pricing_plan_id":"cebpf4jnsgd1na2vs0mg"},{"bike_id":"51491273-5357-4f4d-8e48-72ab9f02f73b","system_id":"levelo_inurba_marseille","lat":43.26064,"lon":5.39396,"is_reserved":false,"is_disabled":false,"rental_uris":{"android":"levelo://app?vid=51491273-5357-4f4d-8e48-72ab9f02f73b","ios":"levelo://app?vid=51491273-5357-4f4d-8e48-72ab9f02f73b"},"vehicle_type_id":"4","last_reported":1728461546,"current_range_meters":25200,"station_id":"ce4bhh92rcd13ifvqfj0","pricing_plan_id":"cebpf4jnsgd1na2vs0mg"},{"bike_id":"e72fa7c9-6357-4d3c-946f-994459110c8a","system_id":"levelo_inurba_marseille","lat":43.27487,"lon":5.42465,"is_reserved":false,"is_disabled":false,"rental_uris":{"android":"levelo://app?vid=e72fa7c9-6357-4d3c-946f-994459110c8a","ios":"levelo://app?vid=e72fa7c9-6357-4d3c-946f-994459110c8a"},"vehicle_type_id":"4","last_reported":1728461546,"current_range_meters":38000,"station_id":"ce4bhn92rcd13ifvqgrg","pricing_plan_id":"cebpf4jnsgd1na2vs0mg"},{"bike_id":"2ed31331-8d4b-4cc9-a6d5-cb863be87dba","system_id":"levelo_inurba_marseille","lat":43.27497,"lon":5.42459,"is_reserved":false,"is_disabled":false,"rental_uris":{"android":"levelo://app?vid=2ed31331-8d4b-4cc9-a6d5-cb863be87dba","ios":"levelo://app?vid=2ed31331-8d4b-4cc9-a6d5-cb863be87dba"},"vehicle_type_id":"4","last_reported":1728461546,"current_range_meters":38800,"station_id":"ce4bhn92rcd13ifvqgrg","pricing_plan_id":"cebpf4jnsgd1na2vs0mg"},{"bike_id":"212d58f0-7281-494e-b4af-6dc8f301be06","system_id":"levelo_inurba_marseille","lat":43.27497,"lon":5.42452,"is_reserved":false,"is_disabled":false,"rental_uris":{"android":"levelo://app?vid=212d58f0-7281-494e-b4af-6dc8f301be06","ios":"levelo://app?vid=212d58f0-7281-494e-b4af-6dc8f301be06"},"vehicle_type_id":"4","last_reported":1728461546,"current_range_meters":36400,"station_id":"ce4bhn92rcd13ifvqgrg","pricing_plan_id":"cebpf4jnsgd1na2vs0mg"},{"bike_id":"9d0e75bf-b07f-4e50-a949-6eacbfcf162a","system_id":"levelo_inurba_marseille","lat":43.24663,"lon":5.38164,"is_reserved":false,"is_disabled":false,"rental_uris":{"android":"levelo://app?vid=9d0e75bf-b07f-4e50-a949-6eacbfcf162a","ios":"levelo://app?vid=9d0e75bf-b07f-4e50-a949-6eacbfcf162a"},"vehicle_type_id":"4","last_reported":1728461546,"current_range_meters":38400,"station_id":"ce4bhih2rcd13ifvqfr0","pricing_plan_id":"cebpf4jnsgd1na2vs0mg"},{"bike_id":"677fd3dc-896a-44b9-8f84-55a866e5870b","system_id":"levelo_inurba_marseille","lat":43.2942,"lon":5.38624,"is_reserved":false,"is_disabled":false,"rental_uris":{"android":"levelo://app?vid=677fd3dc-896a-44b9-8f84-55a866e5870b","ios":"levelo://app?vid=677fd3dc-896a-44b9-8f84-55a866e5870b"},"vehicle_type_id":"4","last_reported":1728461546,"current_range_meters":16000,"station_id":"ce4bh2h2rcd13ifvqdh0","pricing_plan_id":"cebpf4jnsgd1na2vs0mg"},{"bike_id":"03ab50e8-f08a-4560-84c0-8046061c1f13","system_id":"levelo_inurba_marseille","lat":43.33606,"lon":5.41026,"is_reserved":false,"is_disabled":false,"rental_uris":{"android":"levelo://app?vid=03ab50e8-f08a-4560-84c0-8046061c1f13","ios":"levelo://app?vid=03ab50e8-f08a-4560-84c0-8046061c1f13"},"vehicle_type_id":"4","last_reported":1728461546,"current_range_meters":10000,"station_id":"ce4bhqh2rcd13ifvqhmg","pricing_plan_id":"cebpf4jnsgd1na2vs0mg"},{"bike_id":"981417f7-3650-4686-9c01-f3fca65dc77f","system_id":"levelo_inurba_marseille","lat":43.2307,"lon":5.35493,"is_reserved":false,"is_disabled":false,"rental_uris":{"android":"levelo://app?vid=981417f7-3650-4686-9c01-f3fca65dc77f","ios":"levelo://app?vid=981417f7-3650-4686-9c01-f3fca65dc77f"},"vehicle_type_id":"4","last_reported":1728461546,"current_range_meters":19600,"station_id":"cpo3342slgdg3j2ifvpg","pricing_plan_id":"cebpf4jnsgd1na2vs0mg"},{"bike_id":"b910cbc1-a115-459f-8c0b-1f2acacdc404","system_id":"levelo_inurba_marseille","lat":43.31376,"lon":5.36725,"is_reserved":false,"is_disabled":false,"rental_uris":{"android":"levelo://app?vid=b910cbc1-a115-459f-8c0b-1f2acacdc404","ios":"levelo://app?vid=b910cbc1-a115-459f-8c0b-1f2acacdc404"},"vehicle_type_id":"4","last_reported":1728461546,"current_range_meters":18800,"station_id":"ce4bgr92rcd13ifvqc6g","pricing_plan_id":"cebpf4jnsgd1na2vs0mg"},{"bike_id":"d9e78638-d819-4cce-8dbf-1fa89d7a43c2","system_id":"levelo_inurba_marseille","lat":43.2558,"lon":5.38241,"is_reserved":false,"is_disabled":false,"rental_uris":{"android":"levelo://app?vid=d9e78638-d819-4cce-8dbf-1fa89d7a43c2","ios":"levelo://app?vid=d9e78638-d819-4cce-8dbf-1fa89d7a43c2"},"vehicle_type_id":"4","last_reported":1728461546,"current_range_meters":34000,"station_id":"ce4bhih2rcd13ifvqfs0","pricing_plan_id":"cebpf4jnsgd1na2vs0mg"},{"bike_id":"060995da-b0ca-4f4d-9369-ab9ed7a777eb","system_id":"levelo_inurba_marseille","lat":43.30552,"lon":5.36736,"is_reserved":false,"is_disabled":false,"rental_uris":{"android":"levelo://app?vid=060995da-b0ca-4f4d-9369-ab9ed7a777eb","ios":"levelo://app?vid=060995da-b0ca-4f4d-9369-ab9ed7a777eb"},"vehicle_type_id":"4","last_reported":1728461546,"current_range_meters":20000,"station_id":"ce4bgrp2rcd13ifvqc9g","pricing_plan_id":"cebpf4jnsgd1na2vs0mg"},{"bike_id":"a7fc21fc-96fb-4603-843c-267888a20c03","system_id":"levelo_inurba_marseille","lat":43.30541,"lon":5.3671,"is_reserved":false,"is_disabled":false,"rental_uris":{"android":"levelo://app?vid=a7fc21fc-96fb-4603-843c-267888a20c03","ios":"levelo://app?vid=a7fc21fc-96fb-4603-843c-267888a20c03"},"vehicle_type_id":"4","last_reported":1728461546,"current_range_meters":38800,"station_id":"ce4bgrp2rcd13ifvqc9g","pricing_plan_id":"cebpf4jnsgd1na2vs0mg"},{"bike_id":"f8b7b8b0-ca12-4225-ba00-086d85721f68","system_id":"levelo_inurba_marseille","lat":43.3122,"lon":5.36866,"is_reserved":false,"is_disabled":false,"rental_uris":{"android":"levelo://app?vid=f8b7b8b0-ca12-4225-ba00-086d85721f68","ios":"levelo://app?vid=f8b7b8b0-ca12-4225-ba00-086d85721f68"},"vehicle_type_id":"4","last_reported":1728461546,"current_range_meters":24000,"station_id":"ce4bgl92rcd13ifvqbq0","pricing_plan_id":"cebpf4jnsgd1na2vs0mg"},{"bike_id":"ce219041-637a-40c8-b2f8-67ffc5bb5bae","system_id":"levelo_inurba_marseille","lat":43.30592,"lon":5.39361,"is_reserved":false,"is_disabled":false,"rental_uris":{"android":"levelo://app?vid=ce219041-637a-40c8-b2f8-67ffc5bb5bae","ios":"levelo://app?vid=ce219041-637a-40c8-b2f8-67ffc5bb5bae"},"vehicle_type_id":"4","last_reported":1728461546,"current_range_meters":2800,"station_id":"ce4bh0p2rcd13ifvqd80","pricing_plan_id":"cebpf4jnsgd1na2vs0mg"},{"bike_id":"5d19a48f-4ecb-4a04-8593-e3ad4a8266a2","system_id":"levelo_inurba_marseille","lat":43.29844,"lon":5.36271,"is_reserved":false,"is_disabled":false,"rental_uris":{"android":"levelo://app?vid=5d19a48f-4ecb-4a04-8593-e3ad4a8266a2","ios":"levelo://app?vid=5d19a48f-4ecb-4a04-8593-e3ad4a8266a2"},"vehicle_type_id":"4","last_reported":1728461546,"current_range_meters":38400,"station_id":"ce4bgpp2rcd13ifvqc3g","pricing_plan_id":"cebpf4jnsgd1na2vs0mg"},{"bike_id":"b0385a57-4956-4300-9905-3abfc07ad960","system_id":"levelo_inurba_marseille","lat":43.255615,"lon":5.400782,"is_reserved":false,"is_disabled":false,"rental_uris":{"android":"levelo://app?vid=b0385a57-4956-4300-9905-3abfc07ad960","ios":"levelo://app?vid=b0385a57-4956-4300-9905-3abfc07ad960"},"vehicle_type_id":"4","last_reported":1728461546,"current_range_meters":25200,"station_id":"","pricing_plan_id":"cebpf4jnsgd1na2vs0mg"},{"bike_id":"e302c9e8-c83d-489d-916e-90bbbfdd581b","system_id":"levelo_inurba_marseille","lat":43.25937,"lon":5.40912,"is_reserved":false,"is_disabled":false,"rental_uris":{"android":"levelo://app?vid=e302c9e8-c83d-489d-916e-90bbbfdd581b","ios":"levelo://app?vid=e302c9e8-c83d-489d-916e-90bbbfdd581b"},"vehicle_type_id":"4","last_reported":1728461546,"current_range_meters":3600,"station_id":"ce4bhm92rcd13ifvqglg","pricing_plan_id":"cebpf4jnsgd1na2vs0mg"},{"bike_id":"b558cea7-fc0d-41f8-989c-3012b987d43b","system_id":"levelo_inurba_marseille","lat":43.28419,"lon":5.34994,"is_reserved":false,"is_disabled":false,"rental_uris":{"android":"levelo://app?vid=b558cea7-fc0d-41f8-989c-3012b987d43b","ios":"levelo://app?vid=b558cea7-fc0d-41f8-989c-3012b987d43b"},"vehicle_type_id":"4","last_reported":1728461546,"current_range_meters":38800,"station_id":"ce4bhbh2rcd13ifvqepg","pricing_plan_id":"cebpf4jnsgd1na2vs0mg"},{"bike_id":"7f7dad92-4ef0-45e6-9e53-415048c30267","system_id":"levelo_inurba_marseille","lat":43.30299,"lon":5.36858,"is_reserved":false,"is_disabled":false,"rental_uris":{"android":"levelo://app?vid=7f7dad92-4ef0-45e6-9e53-415048c30267","ios":"levelo://app?vid=7f7dad92-4ef0-45e6-9e53-415048c30267"},"vehicle_type_id":"4","last_reported":1728461546,"current_range_meters":12400,"station_id":"ce4bgqh2rcd13ifvqc5g","pricing_plan_id":"cebpf4jnsgd1na2vs0mg"},{"bike_id":"9f96eeb0-1e52-4d84-b153-bb57ad535a2a","system_id":"levelo_inurba_marseille","lat":43.295074,"lon":5.374268,"is_reserved":false,"is_disabled":false,"rental_uris":{"android":"levelo://app?vid=9f96eeb0-1e52-4d84-b153-bb57ad535a2a","ios":"levelo://app?vid=9f96eeb0-1e52-4d84-b153-bb57ad535a2a"},"vehicle_type_id":"4","last_reported":1728461546,"current_range_meters":32800,"station_id":"ce4bgqh2rcd13ifvqc5g","pricing_plan_id":"cebpf4jnsgd1na2vs0mg"},{"bike_id":"5b88c963-47f3-429c-af9e-fe86716196ce","system_id":"levelo_inurba_marseille","lat":43.29553,"lon":5.42282,"is_reserved":false,"is_disabled":false,"rental_uris":{"android":"levelo://app?vid=5b88c963-47f3-429c-af9e-fe86716196ce","ios":"levelo://app?vid=5b88c963-47f3-429c-af9e-fe86716196ce"},"vehicle_type_id":"4","last_reported":1728461546,"current_range_meters":39200,"station_id":"ce4bhph2rcd13ifvqhdg","pricing_plan_id":"cebpf4jnsgd1na2vs0mg"},{"bike_id":"b4cdd3cc-cc3c-48ad-ac9d-4120e6f711f5","system_id":"levelo_inurba_marseille","lat":43.30154,"lon":5.38082,"is_reserved":false,"is_disabled":false,"rental_uris":{"android":"levelo://app?vid=b4cdd3cc-cc3c-48ad-ac9d-4120e6f711f5","ios":"levelo://app?vid=b4cdd3cc-cc3c-48ad-ac9d-4120e6f711f5"},"vehicle_type_id":"4","last_reported":1728461546,"current_range_meters":22400,"station_id":"ce4bgjp2rcd13ifvqbh0","pricing_plan_id":"cebpf4jnsgd1na2vs0mg"},{"bike_id":"acc85f39-3b29-4d55-ac95-b906b13e8eef","system_id":"levelo_inurba_marseille","lat":43.30559,"lon":5.36539,"is_reserved":false,"is_disabled":false,"rental_uris":{"android":"levelo://app?vid=acc85f39-3b29-4d55-ac95-b906b13e8eef","ios":"levelo://app?vid=acc85f39-3b29-4d55-ac95-b906b13e8eef"},"vehicle_type_id":"4","last_reported":1728461546,"current_range_meters":38800,"station_id":"ce4bgs12rcd13ifvqcag","pricing_plan_id":"cebpf4jnsgd1na2vs0mg"},{"bike_id":"bf95273f-62ba-4176-b69f-2e879358a833","system_id":"levelo_inurba_marseille","lat":43.3122,"lon":5.36864,"is_reserved":false,"is_disabled":false,"rental_uris":{"android":"levelo://app?vid=bf95273f-62ba-4176-b69f-2e879358a833","ios":"levelo://app?vid=bf95273f-62ba-4176-b69f-2e879358a833"},"vehicle_type_id":"4","last_reported":1728461546,"current_range_meters":39200,"station_id":"ce4bgl92rcd13ifvqbq0","pricing_plan_id":"cebpf4jnsgd1na2vs0mg"},{"bike_id":"105cc977-34ae-489d-8857-680e2a567ac9","system_id":"levelo_inurba_marseille","lat":43.25574,"lon":5.38254,"is_reserved":false,"is_disabled":false,"rental_uris":{"android":"levelo://app?vid=105cc977-34ae-489d-8857-680e2a567ac9","ios":"levelo://app?vid=105cc977-34ae-489d-8857-680e2a567ac9"},"vehicle_type_id":"4","last_reported":1728461546,"current_range_meters":27600,"station_id":"ce4bhih2rcd13ifvqfs0","pricing_plan_id":"cebpf4jnsgd1na2vs0mg"},{"bike_id":"3b824c89-cf15-4e04-8271-2c0fef868aed","system_id":"levelo_inurba_marseille","lat":43.30547,"lon":5.36535,"is_reserved":false,"is_disabled":false,"rental_uris":{"android":"levelo://app?vid=3b824c89-cf15-4e04-8271-2c0fef868aed","ios":"levelo://app?vid=3b824c89-cf15-4e04-8271-2c0fef868aed"},"vehicle_type_id":"4","last_reported":1728461546,"current_range_meters":22400,"station_id":"ce4bgs12rcd13ifvqcag","pricing_plan_id":"cebpf4jnsgd1na2vs0mg"},{"bike_id":"810b32d6-b30c-480b-a6ee-5bd54d112eb8","system_id":"levelo_inurba_marseille","lat":43.33749,"lon":5.37442,"is_reserved":false,"is_disabled":false,"rental_uris":{"android":"levelo://app?vid=810b32d6-b30c-480b-a6ee-5bd54d112eb8","ios":"levelo://app?vid=810b32d6-b30c-480b-a6ee-5bd54d112eb8"},"vehicle_type_id":"4","last_reported":1728461546,"current_range_meters":28800,"station_id":"ce4rr2p2rcd13i802rgg","pricing_plan_id":"cebpf4jnsgd1na2vs0mg"},{"bike_id":"fe85d2a3-5312-465f-98f1-901fadb4b4d5","system_id":"levelo_inurba_marseille","lat":43.24075,"lon":5.37758,"is_reserved":false,"is_disabled":false,"rental_uris":{"android":"levelo://app?vid=fe85d2a3-5312-465f-98f1-901fadb4b4d5","ios":"levelo://app?vid=fe85d2a3-5312-465f-98f1-901fadb4b4d5"},"vehicle_type_id":"4","last_reported":1728461546,"current_range_meters":27200,"station_id":"ce4bhnp2rcd13ifvqgvg","pricing_plan_id":"cebpf4jnsgd1na2vs0mg"},{"bike_id":"131dc033-13a9-49c8-bf85-2f51c5628f4e","system_id":"levelo_inurba_marseille","lat":43.28151,"lon":5.42644,"is_reserved":false,"is_disabled":false,"rental_uris":{"android":"levelo://app?vid=131dc033-13a9-49c8-bf85-2f51c5628f4e","ios":"levelo://app?vid=131dc033-13a9-49c8-bf85-2f51c5628f4e"},"vehicle_type_id":"4","last_reported":1728461546,"current_range_meters":37600,"station_id":"ce4bhnh2rcd13ifvqgug","pricing_plan_id":"cebpf4jnsgd1na2vs0mg"},{"bike_id":"d77a8155-08b8-4fe2-bf17-5470ae6d27d1","system_id":"levelo_inurba_marseille","lat":43.22931,"lon":5.35376,"is_reserved":false,"is_disabled":false,"rental_uris":{"android":"levelo://app?vid=d77a8155-08b8-4fe2-bf17-5470ae6d27d1","ios":"levelo://app?vid=d77a8155-08b8-4fe2-bf17-5470ae6d27d1"},"vehicle_type_id":"4","last_reported":1728461546,"current_range_meters":24400,"station_id":"cpo3532slgdg3j2ikp40","pricing_plan_id":"cebpf4jnsgd1na2vs0mg"},{"bike_id":"566f124d-d2dc-44d6-baaa-cd99b0a92098","system_id":"levelo_inurba_marseille","lat":43.23149,"lon":5.43717,"is_reserved":false,"is_disabled":false,"rental_uris":{"android":"levelo://app?vid=566f124d-d2dc-44d6-baaa-cd99b0a92098","ios":"levelo://app?vid=566f124d-d2dc-44d6-baaa-cd99b0a92098"},"vehicle_type_id":"4","last_reported":1728461546,"current_range_meters":38800,"station_id":"ce4bhmp2rcd13ifvqgog","pricing_plan_id":"cebpf4jnsgd1na2vs0mg"},{"bike_id":"c1f9c3a2-7d21-4d7e-9be7-b2b978e56d23","system_id":"levelo_inurba_marseille","lat":43.2732,"lon":5.3909,"is_reserved":false,"is_disabled":false,"rental_uris":{"android":"levelo://app?vid=c1f9c3a2-7d21-4d7e-9be7-b2b978e56d23","ios":"levelo://app?vid=c1f9c3a2-7d21-4d7e-9be7-b2b978e56d23"},"vehicle_type_id":"4","last_reported":1728461546,"current_range_meters":34000,"station_id":"ce4bhgp2rcd13ifvqfe0","pricing_plan_id":"cebpf4jnsgd1na2vs0mg"},{"bike_id":"909b693f-c27a-4061-8aad-d890caa1fb05","system_id":"levelo_inurba_marseille","lat":43.30539,"lon":5.36703,"is_reserved":false,"is_disabled":false,"rental_uris":{"android":"levelo://app?vid=909b693f-c27a-4061-8aad-d890caa1fb05","ios":"levelo://app?vid=909b693f-c27a-4061-8aad-d890caa1fb05"},"vehicle_type_id":"4","last_reported":1728461546,"current_range_meters":30400,"station_id":"ce4bgrp2rcd13ifvqc9g","pricing_plan_id":"cebpf4jnsgd1na2vs0mg"},{"bike_id":"b7f49b05-5d71-44d0-b1a9-4f91f809b61f","system_id":"levelo_inurba_marseille","lat":43.30557,"lon":5.36565,"is_reserved":false,"is_disabled":false,"rental_uris":{"android":"levelo://app?vid=b7f49b05-5d71-44d0-b1a9-4f91f809b61f","ios":"levelo://app?vid=b7f49b05-5d71-44d0-b1a9-4f91f809b61f"},"vehicle_type_id":"4","last_reported":1728461546,"current_range_meters":26800,"station_id":"ce4bgs12rcd13ifvqcag","pricing_plan_id":"cebpf4jnsgd1na2vs0mg"},{"bike_id":"8d6e3111-d63f-481a-8050-9af7beb8f0c6","system_id":"levelo_inurba_marseille","lat":43.29551,"lon":5.37409,"is_reserved":false,"is_disabled":false,"rental_uris":{"android":"levelo://app?vid=8d6e3111-d63f-481a-8050-9af7beb8f0c6","ios":"levelo://app?vid=8d6e3111-d63f-481a-8050-9af7beb8f0c6"},"vehicle_type_id":"4","last_reported":1728461546,"current_range_meters":25600,"station_id":"ce4bgkp2rcd13ifvqbmg","pricing_plan_id":"cebpf4jnsgd1na2vs0mg"},{"bike_id":"483c9ef4-466c-4084-a6f5-16648aecb604","system_id":"levelo_inurba_marseille","lat":43.3254,"lon":5.41451,"is_reserved":false,"is_disabled":false,"rental_uris":{"android":"levelo://app?vid=483c9ef4-466c-4084-a6f5-16648aecb604","ios":"levelo://app?vid=483c9ef4-466c-4084-a6f5-16648aecb604"},"vehicle_type_id":"4","last_reported":1728461546,"current_range_meters":39200,"station_id":"ce4bhq12rcd13ifvqhhg","pricing_plan_id":"cebpf4jnsgd1na2vs0mg"},{"bike_id":"92f0f563-ea16-4c02-b287-b0ed88c8eb9d","system_id":"levelo_inurba_marseille","lat":43.26679,"lon":5.38268,"is_reserved":false,"is_disabled":false,"rental_uris":{"android":"levelo://app?vid=92f0f563-ea16-4c02-b287-b0ed88c8eb9d","ios":"levelo://app?vid=92f0f563-ea16-4c02-b287-b0ed88c8eb9d"},"vehicle_type_id":"4","last_reported":1728461546,"current_range_meters":18800,"station_id":"ce4bhg92rcd13ifvqf90","pricing_plan_id":"cebpf4jnsgd1na2vs0mg"},{"bike_id":"07543eb7-0c52-49fd-bb4c-36125be9ad9b","system_id":"levelo_inurba_marseille","lat":43.31352,"lon":5.3671,"is_reserved":false,"is_disabled":false,"rental_uris":{"android":"levelo://app?vid=07543eb7-0c52-49fd-bb4c-36125be9ad9b","ios":"levelo://app?vid=07543eb7-0c52-49fd-bb4c-36125be9ad9b"},"vehicle_type_id":"4","last_reported":1728461546,"current_range_meters":2800,"station_id":"ce4bgr92rcd13ifvqc6g","pricing_plan_id":"cebpf4jnsgd1na2vs0mg"},{"bike_id":"e3a82d8f-2188-4152-b040-5b5cb1d61e46","system_id":"levelo_inurba_marseille","lat":43.30544,"lon":5.36559,"is_reserved":false,"is_disabled":false,"rental_uris":{"android":"levelo://app?vid=e3a82d8f-2188-4152-b040-5b5cb1d61e46","ios":"levelo://app?vid=e3a82d8f-2188-4152-b040-5b5cb1d61e46"},"vehicle_type_id":"4","last_reported":1728461546,"current_range_meters":38000,"station_id":"ce4bgs12rcd13ifvqcag","pricing_plan_id":"cebpf4jnsgd1na2vs0mg"},{"bike_id":"e1a5c79b-b669-4f11-8eb4-af5513c136c6","system_id":"levelo_inurba_marseille","lat":43.30276,"lon":5.37696,"is_reserved":false,"is_disabled":false,"rental_uris":{"android":"levelo://app?vid=e1a5c79b-b669-4f11-8eb4-af5513c136c6","ios":"levelo://app?vid=e1a5c79b-b669-4f11-8eb4-af5513c136c6"},"vehicle_type_id":"4","last_reported":1728461546,"current_range_meters":28000,"station_id":"ce4bguh2rcd13ifvqcj0","pricing_plan_id":"cebpf4jnsgd1na2vs0mg"},{"bike_id":"f261f849-1534-4c3c-8241-0fa5ed0b8cef","system_id":"levelo_inurba_marseille","lat":43.33759,"lon":5.37454,"is_reserved":false,"is_disabled":false,"rental_uris":{"android":"levelo://app?vid=f261f849-1534-4c3c-8241-0fa5ed0b8cef","ios":"levelo://app?vid=f261f849-1534-4c3c-8241-0fa5ed0b8cef"},"vehicle_type_id":"4","last_reported":1728461546,"current_range_meters":38400,"station_id":"","pricing_plan_id":"cebpf4jnsgd1na2vs0mg"},{"bike_id":"4eeb98d9-ebaa-45c0-85a6-95c9a5d26f38","system_id":"levelo_inurba_marseille","lat":43.2926,"lon":5.38454,"is_reserved":false,"is_disabled":false,"rental_uris":{"android":"levelo://app?vid=4eeb98d9-ebaa-45c0-85a6-95c9a5d26f38","ios":"levelo://app?vid=4eeb98d9-ebaa-45c0-85a6-95c9a5d26f38"},"vehicle_type_id":"4","last_reported":1728461546,"current_range_meters":36400,"station_id":"ce4bh692rcd13ifvqea0","pricing_plan_id":"cebpf4jnsgd1na2vs0mg"},{"bike_id":"cc1d202b-5d65-40e5-bf96-176d1dac001e","system_id":"levelo_inurba_marseille","lat":43.3372,"lon":5.39191,"is_reserved":false,"is_disabled":false,"rental_uris":{"android":"levelo://app?vid=cc1d202b-5d65-40e5-bf96-176d1dac001e","ios":"levelo://app?vid=cc1d202b-5d65-40e5-bf96-176d1dac001e"},"vehicle_type_id":"4","last_reported":1728461546,"current_range_meters":17200,"station_id":"ce4bhr92rcd13ifvqhsg","pricing_plan_id":"cebpf4jnsgd1na2vs0mg"},{"bike_id":"ec5d5cc0-7637-4fb9-a741-7392281e0c95","system_id":"levelo_inurba_marseille","lat":43.25494,"lon":5.37647,"is_reserved":false,"is_disabled":false,"rental_uris":{"android":"levelo://app?vid=ec5d5cc0-7637-4fb9-a741-7392281e0c95","ios":"levelo://app?vid=ec5d5cc0-7637-4fb9-a741-7392281e0c95"},"vehicle_type_id":"4","last_reported":1728461546,"current_range_meters":30000,"station_id":"ce4bhh12rcd13ifvqff0","pricing_plan_id":"cebpf4jnsgd1na2vs0mg"},{"bike_id":"b1b914a9-f856-4695-a7db-27fdf5e5c15b","system_id":"levelo_inurba_marseille","lat":43.305458,"lon":5.365558,"is_reserved":false,"is_disabled":false,"rental_uris":{"android":"levelo://app?vid=b1b914a9-f856-4695-a7db-27fdf5e5c15b","ios":"levelo://app?vid=b1b914a9-f856-4695-a7db-27fdf5e5c15b"},"vehicle_type_id":"4","last_reported":1728461546,"current_range_meters":12400,"station_id":"ce4bgs12rcd13ifvqcag","pricing_plan_id":"cebpf4jnsgd1na2vs0mg"},{"bike_id":"ae34953c-471d-45a0-a84a-a16db6392d67","system_id":"levelo_inurba_marseille","lat":43.2668,"lon":5.3827,"is_reserved":false,"is_disabled":false,"rental_uris":{"android":"levelo://app?vid=ae34953c-471d-45a0-a84a-a16db6392d67","ios":"levelo://app?vid=ae34953c-471d-45a0-a84a-a16db6392d67"},"vehicle_type_id":"4","last_reported":1728461546,"current_range_meters":28400,"station_id":"ce4bhg92rcd13ifvqf90","pricing_plan_id":"cebpf4jnsgd1na2vs0mg"},{"bike_id":"e21a6851-a23a-48f0-b35f-5e1f5ce133d7","system_id":"levelo_inurba_marseille","lat":43.30807,"lon":5.38166,"is_reserved":false,"is_disabled":false,"rental_uris":{"android":"levelo://app?vid=e21a6851-a23a-48f0-b35f-5e1f5ce133d7","ios":"levelo://app?vid=e21a6851-a23a-48f0-b35f-5e1f5ce133d7"},"vehicle_type_id":"4","last_reported":1728461546,"current_range_meters":38800,"station_id":"ce4bgt12rcd13ifvqce0","pricing_plan_id":"cebpf4jnsgd1na2vs0mg"},{"bike_id":"d9678b9c-25d5-4564-820a-951efa7ca6b1","system_id":"levelo_inurba_marseille","lat":43.3095,"lon":5.39036,"is_reserved":false,"is_disabled":false,"rental_uris":{"android":"levelo://app?vid=d9678b9c-25d5-4564-820a-951efa7ca6b1","ios":"levelo://app?vid=d9678b9c-25d5-4564-820a-951efa7ca6b1"},"vehicle_type_id":"4","last_reported":1728461546,"current_range_meters":12800,"station_id":"ce4bgup2rcd13ifvqco0","pricing_plan_id":"cebpf4jnsgd1na2vs0mg"},{"bike_id":"a9e521c4-05e0-4c34-8eeb-42a67bedbe76","system_id":"levelo_inurba_marseille","lat":43.24075,"lon":5.37767,"is_reserved":false,"is_disabled":false,"rental_uris":{"android":"levelo://app?vid=a9e521c4-05e0-4c34-8eeb-42a67bedbe76","ios":"levelo://app?vid=a9e521c4-05e0-4c34-8eeb-42a67bedbe76"},"vehicle_type_id":"4","last_reported":1728461546,"current_range_meters":35200,"station_id":"ce4bhnp2rcd13ifvqgvg","pricing_plan_id":"cebpf4jnsgd1na2vs0mg"},{"bike_id":"c8d3831e-6794-44a1-aa34-2243927a79e6","system_id":"levelo_inurba_marseille","lat":43.30195,"lon":5.3663,"is_reserved":false,"is_disabled":false,"rental_uris":{"android":"levelo://app?vid=c8d3831e-6794-44a1-aa34-2243927a79e6","ios":"levelo://app?vid=c8d3831e-6794-44a1-aa34-2243927a79e6"},"vehicle_type_id":"4","last_reported":1728461546,"current_range_meters":18800,"station_id":"ce4bgrh2rcd13ifvqc8g","pricing_plan_id":"cebpf4jnsgd1na2vs0mg"},{"bike_id":"bb13c190-cc4b-458b-8da5-8ceb23a16241","system_id":"levelo_inurba_marseille","lat":43.26778,"lon":5.39423,"is_reserved":false,"is_disabled":false,"rental_uris":{"android":"levelo://app?vid=bb13c190-cc4b-458b-8da5-8ceb23a16241","ios":"levelo://app?vid=bb13c190-cc4b-458b-8da5-8ceb23a16241"},"vehicle_type_id":"4","last_reported":1728461546,"current_range_meters":32400,"station_id":"ce4bhh12rcd13ifvqfg0","pricing_plan_id":"cebpf4jnsgd1na2vs0mg"},{"bike_id":"494053de-ea3d-4a5d-bcf8-eb2ddc0d643e","system_id":"levelo_inurba_marseille","lat":43.337444,"lon":5.374475,"is_reserved":false,"is_disabled":false,"rental_uris":{"android":"levelo://app?vid=494053de-ea3d-4a5d-bcf8-eb2ddc0d643e","ios":"levelo://app?vid=494053de-ea3d-4a5d-bcf8-eb2ddc0d643e"},"vehicle_type_id":"4","last_reported":1728461546,"current_range_meters":28800,"station_id":"","pricing_plan_id":"cebpf4jnsgd1na2vs0mg"},{"bike_id":"48cda49d-a872-4cae-ab64-6fcde0cad5de","system_id":"levelo_inurba_marseille","lat":43.30908,"lon":5.36848,"is_reserved":false,"is_disabled":false,"rental_uris":{"android":"levelo://app?vid=48cda49d-a872-4cae-ab64-6fcde0cad5de","ios":"levelo://app?vid=48cda49d-a872-4cae-ab64-6fcde0cad5de"},"vehicle_type_id":"4","last_reported":1728461546,"current_range_meters":26000,"station_id":"ce4bgn92rcd13ifvqbvg","pricing_plan_id":"cebpf4jnsgd1na2vs0mg"},{"bike_id":"7c508c4f-0d71-47bf-997b-905aab4646c4","system_id":"levelo_inurba_marseille","lat":43.325406,"lon":5.414506,"is_reserved":false,"is_disabled":false,"rental_uris":{"android":"levelo://app?vid=7c508c4f-0d71-47bf-997b-905aab4646c4","ios":"levelo://app?vid=7c508c4f-0d71-47bf-997b-905aab4646c4"},"vehicle_type_id":"4","last_reported":1728461546,"current_range_meters":39200,"station_id":"ce4bhq12rcd13ifvqhhg","pricing_plan_id":"cebpf4jnsgd1na2vs0mg"},