{"last_updated":1708376831,"ttl":30,"version":"2.2","data":{"bikes":[{"bike_id":"c8f4694f-39f5-4e17-8c3f-2e8bc92a51a2","system_id":"levelo_inurba_marseille","lat":43.313499,"lon":5.369291,"is_reserved":false,"is_disabled":false,"rental_uris":{"android":"levelo://app?vid=c8f4694f-39f5-4e17-8c3f-2e8bc92a51a2","ios":"levelo://app?vid=c8f4694f-39f5-4e17-8c3f-2e8bc92a51a2"},"vehicle_type_id":"4","last_reported":1708376832,"current_range_meters":0,"station_id":"","pricing_plan_id":"cebpf4jnsgd1na2vs0mg"},{"bike_id":"385d33ec-67cb-41dc-acf0-d3250e11e528","system_id":"levelo_inurba_marseille","lat":43.312239,"lon":5.368562,"is_reserved":false,"is_disabled":false,"rental_uris":{"android":"levelo://app?vid=385d33ec-67cb-41dc-acf0-d3250e11e528","ios":"levelo://app?vid=385d33ec-67cb-41dc-acf0-d3250e11e528"},"vehicle_type_id":"4","last_reported":1708376832,"current_range_meters":24800,"station_id":"ce4bgl92rcd13ifvqbq0","pricing_plan_id":"cebpf4jnsgd1na2vs0mg"},{"bike_id":"e4bbf2e5-7e4f-48c8-98ca-ce6f0b50ff65","system_id":"levelo_inurba_marseille","lat":43.309076,"lon":5.368465,"is_reserved":false,"is_disabled":false,"rental_uris":{"android":"levelo://app?vid=e4bbf2e5-7e4f-48c8-98ca-ce6f0b50ff65","ios":"levelo://app?vid=e4bbf2e5-7e4f-48c8-98ca-ce6f0b50ff65"},"vehicle_type_id":"4","last_reported":1708376832,"current_range_meters":26000,"station_id":"ce4bgn92rcd13ifvqbvg","pricing_plan_id":"cebpf4jnsgd1na2vs0mg"},{"bike_id":"b4128018-8336-41c3-9f08-59b70b531e37","system_id":"levelo_inurba_marseille","lat":43.314811,"lon":5.373103,"is_reserved":false,"is_disabled":false,"rental_uris":{"android":"levelo://app?vid=b4128018-8336-41c3-9f08-59b70b531e37","ios":"levelo://app?vid=b4128018-8336-41c3-9f08-59b70b531e37"},"vehicle_type_id":"4","last_reported":1708376832,"current_range_meters":12000,"station_id":"ce4bgt12rcd13ifvqcd0","pricing_plan_id":"cebpf4jnsgd1na2vs0mg"},{"bike_id":"e3b8e918-c802-4631-915d-0b69a962b9d5","system_id":"levelo_inurba_marseille","lat":43.314811,"lon":5.373103,"is_reserved":false,"is_disabled":false,"rental_uris":{"android":"levelo://app?vid=e3b8e918-c802-4631-915d-0b69a962b9d5","ios":"levelo://app?vid=e3b8e918-c802-4631-915d-0b69a962b9d5"},"vehicle_type_id":"4","last_reported":1708376832,"current_range_meters":13200,"station_id":"ce4bgt12rcd13ifvqcd0","pricing_plan_id":"cebpf4jnsgd1na2vs0mg"},{"bike_id":"0cb5b8dc-0347-428a-949f-d92ee1ed7af1","system_id":"levelo_inurba_marseille","lat":43.308898,"lon":5.371934,"is_reserved":false,"is_disabled":false,"rental_uris":{"android":"levelo://app?vid=0cb5b8dc-0347-428a-949f-d92ee1ed7af1","ios":"levelo://app?vid=0cb5b8dc-0347-428a-949f-d92ee1ed7af1"},"vehicle_type_id":"4","last_reported":1708376832,"current_range_meters":14400,"station_id":"ce4bguh2rcd13ifvqckg","pricing_plan_id":"cebpf4jnsgd1na2vs0mg"},{"bike_id":"95c30ec0-c62f-440e-9334-62db5833e02d","system_id":"levelo_inurba_marseille","lat":43.305368,"lon":5.367343,"is_reserved":false,"is_disabled":false,"rental_uris":{"android":"levelo://app?vid=95c30ec0-c62f-440e-9334-62db5833e02d","ios":"levelo://app?vid=95c30ec0-c62f-440e-9334-62db5833e02d"},"vehicle_type_id":"4","last_reported":1708376832,"current_range_meters":24800,"station_id":"ce4bgrp2rcd13ifvqc9g","pricing_plan_id":"cebpf4jnsgd1na2vs0mg"},{"bike_id":"0208c589-fc9b-440f-b68b-5a3589ae3f3f","system_id":"levelo_inurba_marseille","lat":43.311131,"lon":5.377651,"is_reserved":false,"is_disabled":false,"rental_uris":{"android":"levelo://app?vid=0208c589-fc9b-440f-b68b-5a3589ae3f3f","ios":"levelo://app?vid=0208c589-fc9b-440f-b68b-5a3589ae3f3f"},"vehicle_type_id":"4","last_reported":1708376832,"current_range_meters":0,"station_id":"ce4bgt92rcd13ifvqcg0","pricing_plan_id":"cebpf4jnsgd1na2vs0mg"},{"bike_id":"2574247a-8683-40ee-883b-3a8d9319a936","system_id":"levelo_inurba_marseille","lat":43.311125,"lon":5.377624,"is_reserved":false,"is_disabled":false,"rental_uris":{"android":"levelo://app?vid=2574247a-8683-40ee-883b-3a8d9319a936","ios":"levelo://app?vid=2574247a-8683-40ee-883b-3a8d9319a936"},"vehicle_type_id":"4","last_reported":1708376832,"current_range_meters":22000,"station_id":"ce4bgt92rcd13ifvqcg0","pricing_plan_id":"cebpf4jnsgd1na2vs0mg"},{"bike_id":"b7388452-43cf-4c70-8df6-797be1d24fac","system_id":"levelo_inurba_marseille","lat":43.31124,"lon":5.377678,"is_reserved":false,"is_disabled":false,"rental_uris":{"android":"levelo://app?vid=b7388452-43cf-4c70-8df6-797be1d24fac","ios":"levelo://app?vid=b7388452-43cf-4c70-8df6-797be1d24fac"},"vehicle_type_id":"4","last_reported":1708376832,"current_range_meters":27600,"station_id":"ce4bgt92rcd13ifvqcg0","pricing_plan_id":"cebpf4jnsgd1na2vs0mg"},{"bike_id":"141a7b6e-4902-4345-8dec-09744ac6a91c","system_id":"levelo_inurba_marseille","lat":43.307945,"lon":5.376487,"is_reserved":false,"is_disabled":false,"rental_uris":{"android":"levelo://app?vid=141a7b6e-4902-4345-8dec-09744ac6a91c","ios":"levelo://app?vid=141a7b6e-4902-4345-8dec-09744ac6a91c"},"vehicle_type_id":"4","last_reported":1708376832,"current_range_meters":10400,"station_id":"ce4bgv92rcd13ifvqcq0","pricing_plan_id":"cebpf4jnsgd1na2vs0mg"},{"bike_id":"af4d98b8-6aaa-45bf-a686-b6f2adb4aa9f","system_id":"levelo_inurba_marseille","lat":43.30789,"lon":5.37651,"is_reserved":false,"is_disabled":false,"rental_uris":{"android":"levelo://app?vid=af4d98b8-6aaa-45bf-a686-b6f2adb4aa9f","ios":"levelo://app?vid=af4d98b8-6aaa-45bf-a686-b6f2adb4aa9f"},"vehicle_type_id":"4","last_reported":1708376832,"current_range_meters":3200,"station_id":"ce4bgv92rcd13ifvqcq0","pricing_plan_id":"cebpf4jnsgd1na2vs0mg"},{"bike_id":"e93332c8-71cb-4a70-a2cb-8dae89f30527","system_id":"levelo_inurba_marseille","lat":43.317075,"lon":5.377367,"is_reserved":false,"is_disabled":false,"rental_uris":{"android":"levelo://app?vid=e93332c8-71cb-4a70-a2cb-8dae89f30527","ios":"levelo://app?vid=e93332c8-71cb-4a70-a2cb-8dae89f30527"},"vehicle_type_id":"4","last_reported":1708376832,"current_range_meters":22000,"station_id":"ce4bgth2rcd13ifvqch0","pricing_plan_id":"cebpf4jnsgd1na2vs0mg"},{"bike_id":"0b6eadea-6fbd-45ef-9291-6b9e1d925434","system_id":"levelo_inurba_marseille","lat":43.317075,"lon":5.377367,"is_reserved":false,"is_disabled":false,"rental_uris":{"android":"levelo://app?vid=0b6eadea-6fbd-45ef-9291-6b9e1d925434","ios":"levelo://app?vid=0b6eadea-6fbd-45ef-9291-6b9e1d925434"},"vehicle_type_id":"4","last_reported":1708376832,"current_range_meters":0,"station_id":"ce4bgth2rcd13ifvqch0","pricing_plan_id":"cebpf4jnsgd1na2vs0mg"},{"bike_id":"851bb78f-5bb9-4747-b47e-fbb6a43efdfb","system_id":"levelo_inurba_marseille","lat":43.315293,"lon":5.380349,"is_reserved":false,"is_disabled":false,"rental_uris":{"android":"levelo://app?vid=851bb78f-5bb9-4747-b47e-fbb6a43efdfb","ios":"levelo://app?vid=851bb78f-5bb9-4747-b47e-fbb6a43efdfb"},"vehicle_type_id":"4","last_reported":1708376832,"current_range_meters":24000,"station_id":"ce4bhsp2rcd13ifvqi50","pricing_plan_id":"cebpf4jnsgd1na2vs0mg"},{"bike_id":"ba7abea4-7e24-46bb-9b73-93d8ca3e3719","system_id":"levelo_inurba_marseille","lat":43.315293,"lon":5.380349,"is_reserved":false,"is_disabled":false,"rental_uris":{"android":"levelo://app?vid=ba7abea4-7e24-46bb-9b73-93d8ca3e3719","ios":"levelo://app?vid=ba7abea4-7e24-46bb-9b73-93d8ca3e3719"},"vehicle_type_id":"4","last_reported":1708376832,"current_range_meters":30400,"station_id":"ce4bhsp2rcd13ifvqi50","pricing_plan_id":"cebpf4jnsgd1na2vs0mg"},{"bike_id":"14623ca0-3e69-483e-9a41-7be7b88db399","system_id":"levelo_inurba_marseille","lat":43.315293,"lon":5.380349,"is_reserved":false,"is_disabled":false,"rental_uris":{"android":"levelo://app?vid=14623ca0-3e69-483e-9a41-7be7b88db399","ios":"levelo://app?vid=14623ca0-3e69-483e-9a41-7be7b88db399"},"vehicle_type_id":"4","last_reported":1708376832,"current_range_meters":26800,"station_id":"ce4bhsp2rcd13ifvqi50","pricing_plan_id":"cebpf4jnsgd1na2vs0mg"},{"bike_id":"0bfacec8-75f1-4a68-ad10-892382b6fd24","system_id":"levelo_inurba_marseille","lat":43.314811,"lon":5.373103,"is_reserved":false,"is_disabled":false,"rental_uris":{"android":"levelo://app?vid=0bfacec8-75f1-4a68-ad10-892382b6fd24","ios":"levelo://app?vid=0bfacec8-75f1-4a68-ad10-892382b6fd24"},"vehicle_type_id":"4","last_reported":1708376832,"current_range_meters":26000,"station_id":"ce4bgt12rcd13ifvqcd0","pricing_plan_id":"cebpf4jnsgd1na2vs0mg"},{"bike_id":"c163126b-df87-4d2d-a228-15ae009499d7","system_id":"levelo_inurba_marseille","lat":43.301939,"lon":5.366286,"is_reserved":false,"is_disabled":false,"rental_uris":{"android":"levelo://app?vid=c163126b-df87-4d2d-a228-15ae009499d7","ios":"levelo://app?vid=c163126b-df87-4d2d-a228-15ae009499d7"},"vehicle_type_id":"4","last_reported":1708376832,"current_range_meters":11600,"station_id":"ce4bgrh2rcd13ifvqc8g","pricing_plan_id":"cebpf4jnsgd1na2vs0mg"},{"bike_id":"ffab0e35-120b-4ee5-a017-93c539293083","system_id":"levelo_inurba_marseille","lat":43.308012,"lon":5.381511,"is_reserved":false,"is_disabled":false,"rental_uris":{"android":"levelo://app?vid=ffab0e35-120b-4ee5-a017-93c539293083","ios":"levelo://app?vid=ffab0e35-120b-4ee5-a017-93c539293083"},"vehicle_type_id":"4","last_reported":1708376832,"current_range_meters":16400,"station_id":"ce4bgt12rcd13ifvqce0","pricing_plan_id":"cebpf4jnsgd1na2vs0mg"},{"bike_id":"81541ea4-6294-4850-b301-cd4c9c6c5c5e","system_id":"levelo_inurba_marseille","lat":43.308012,"lon":5.381511,"is_reserved":false,"is_disabled":false,"rental_uris":{"android":"levelo://app?vid=81541ea4-6294-4850-b301-cd4c9c6c5c5e","ios":"levelo://app?vid=81541ea4-6294-4850-b301-cd4c9c6c5c5e"},"vehicle_type_id":"4","last_reported":1708376832,"current_range_meters":29600,"station_id":"ce4bgt12rcd13ifvqce0","pricing_plan_id":"cebpf4jnsgd1na2vs0mg"},{"bike_id":"50945769-35d2-4f21-9e60-d8ce3f8699cd","system_id":"levelo_inurba_marseille","lat":43.308012,"lon":5.381511,"is_reserved":false,"is_disabled":false,"rental_uris":{"android":"levelo://app?vid=50945769-35d2-4f21-9e60-d8ce3f8699cd","ios":"levelo://app?vid=50945769-35d2-4f21-9e60-d8ce3f8699cd"},"vehicle_type_id":"4","last_reported":1708376832,"current_range_meters":16000,"station_id":"ce4bgt12rcd13ifvqce0","pricing_plan_id":"cebpf4jnsgd1na2vs0mg"},{"bike_id":"93b55c31-2127-4194-abec-5f6bf8b4ed8f","system_id":"levelo_inurba_marseille","lat":43.308012,"lon":5.381511,"is_reserved":false,"is_disabled":false,"rental_uris":{"android":"levelo://app?vid=93b55c31-2127-4194-abec-5f6bf8b4ed8f","ios":"levelo://app?vid=93b55c31-2127-4194-abec-5f6bf8b4ed8f"},"vehicle_type_id":"4","last_reported":1708376832,"current_range_meters":4800,"station_id":"ce4bgt12rcd13ifvqce0","pricing_plan_id":"cebpf4jnsgd1na2vs0mg"},{"bike_id":"dc9e9f2c-815f-447b-bf46-4a57a729c508","system_id":"levelo_inurba_marseille","lat":43.310804,"lon":5.38359,"is_reserved":false,"is_disabled":false,"rental_uris":{"android":"levelo://app?vid=dc9e9f2c-815f-447b-bf46-4a57a729c508","ios":"levelo://app?vid=dc9e9f2c-815f-447b-bf46-4a57a729c508"},"vehicle_type_id":"4","last_reported":1708376832,"current_range_meters":9600,"station_id":"ce4bgv92rcd13ifvqcr0","pricing_plan_id":"cebpf4jnsgd1na2vs0mg"},{"bike_id":"13ed5772-d318-40c2-a1ab-114038408622","system_id":"levelo_inurba_marseille","lat":43.324771,"lon":5.36557,"is_reserved":false,"is_disabled":false,"rental_uris":{"android":"levelo://app?vid=13ed5772-d318-40c2-a1ab-114038408622","ios":"levelo://app?vid=13ed5772-d318-40c2-a1ab-114038408622"},"vehicle_type_id":"4","last_reported":1708376832,"current_range_meters":29600,"station_id":"ce4bhs12rcd13ifvqhvg","pricing_plan_id":"cebpf4jnsgd1na2vs0mg"},{"bike_id":"4cd60cd3-101b-4a05-9703-76840434a255","system_id":"levelo_inurba_marseille","lat":43.324771,"lon":5.36557,"is_reserved":false,"is_disabled":false,"rental_uris":{"android":"levelo://app?vid=4cd60cd3-101b-4a05-9703-76840434a255","ios":"levelo://app?vid=4cd60cd3-101b-4a05-9703-76840434a255"},"vehicle_type_id":"4","last_reported":1708376832,"current_range_meters":28400,"station_id":"ce4bhs12rcd13ifvqhvg","pricing_plan_id":"cebpf4jnsgd1na2vs0mg"},{"bike_id":"a1411f93-559d-4c55-b53d-718f28f579af","system_id":"levelo_inurba_marseille","lat":43.324808,"lon":5.3656,"is_reserved":false,"is_disabled":false,"rental_uris":{"android":"levelo://app?vid=a1411f93-559d-4c55-b53d-718f28f579af","ios":"levelo://app?vid=a1411f93-559d-4c55-b53d-718f28f579af"},"vehicle_type_id":"4","last_reported":1708376832,"current_range_meters":2400,"station_id":"ce4bhs12rcd13ifvqhvg","pricing_plan_id":"cebpf4jnsgd1na2vs0mg"},{"bike_id":"2c6c36c9-7e02-4a23-ad99-472b535677b4","system_id":"levelo_inurba_marseille","lat":43.324771,"lon":5.36557,"is_reserved":false,"is_disabled":false,"rental_uris":{"android":"levelo://app?vid=2c6c36c9-7e02-4a23-ad99-472b535677b4","ios":"levelo://app?vid=2c6c36c9-7e02-4a23-ad99-472b535677b4"},"vehicle_type_id":"4","last_reported":1708376832,"current_range_meters":8000,"station_id":"ce4bhs12rcd13ifvqhvg","pricing_plan_id":"cebpf4jnsgd1na2vs0mg"},{"bike_id":"12b36bd4-2176-4c7e-b0b3-fc74f7095c6a","system_id":"levelo_inurba_marseille","lat":43.32483,"lon":5.36553,"is_reserved":false,"is_disabled":false,"rental_uris":{"android":"levelo://app?vid=12b36bd4-2176-4c7e-b0b3-fc74f7095c6a","ios":"levelo://app?vid=12b36bd4-2176-4c7e-b0b3-fc74f7095c6a"},"vehicle_type_id":"4","last_reported":1708376832,"current_range_meters":0,"station_id":"ce4bhs12rcd13ifvqhvg","pricing_plan_id":"cebpf4jnsgd1na2vs0mg"},{"bike_id":"7c66a11a-bea8-4a2a-98be-7794b214389b","system_id":"levelo_inurba_marseille","lat":43.324771,"lon":5.36557,"is_reserved":false,"is_disabled":false,"rental_uris":{"android":"levelo://app?vid=7c66a11a-bea8-4a2a-98be-7794b214389b","ios":"levelo://app?vid=7c66a11a-bea8-4a2a-98be-7794b214389b"},"vehicle_type_id":"4","last_reported":1708376832,"current_range_meters":0,"station_id":"ce4bhs12rcd13ifvqhvg","pricing_plan_id":"cebpf4jnsgd1na2vs0mg"},{"bike_id":"ab60f61e-1754-4bab-9316-cbca6ab0249d","system_id":"levelo_inurba_marseille","lat":43.32485,"lon":5.365679,"is_reserved":false,"is_disabled":false,"rental_uris":{"android":"levelo://app?vid=ab60f61e-1754-4bab-9316-cbca6ab0249d","ios":"levelo://app?vid=ab60f61e-1754-4bab-9316-cbca6ab0249d"},"vehicle_type_id":"4","last_reported":1708376832,"current_range_meters":15200,"station_id":"ce4bhs12rcd13ifvqhvg","pricing_plan_id":"cebpf4jnsgd1na2vs0mg"},{"bike_id":"787b97fd-3045-418a-93db-948f0d624107","system_id":"levelo_inurba_marseille","lat":43.324849,"lon":5.365528,"is_reserved":false,"is_disabled":false,"rental_uris":{"android":"levelo://app?vid=787b97fd-3045-418a-93db-948f0d624107","ios":"levelo://app?vid=787b97fd-3045-418a-93db-948f0d624107"},"vehicle_type_id":"4","last_reported":1708376832,"current_range_meters":21600,"station_id":"ce4bhs12rcd13ifvqhvg","pricing_plan_id":"cebpf4jnsgd1na2vs0mg"},{"bike_id":"e5a43df1-97ba-4067-8df7-f3537edbfa4b","system_id":"levelo_inurba_marseille","lat":43.324771,"lon":5.36557,"is_reserved":false,"is_disabled":false,"rental_uris":{"android":"levelo://app?vid=e5a43df1-97ba-4067-8df7-f3537edbfa4b","ios":"levelo://app?vid=e5a43df1-97ba-4067-8df7-f3537edbfa4b"},"vehicle_type_id":"4","last_reported":1708376832,"current_range_meters":0,"station_id":"ce4bhs12rcd13ifvqhvg","pricing_plan_id":"cebpf4jnsgd1na2vs0mg"},{"bike_id":"5f3727da-be6d-4245-8b7a-5c108328736b","system_id":"levelo_inurba_marseille","lat":43.324771,"lon":5.36557,"is_reserved":false,"is_disabled":false,"rental_uris":{"android":"levelo://app?vid=5f3727da-be6d-4245-8b7a-5c108328736b","ios":"levelo://app?vid=5f3727da-be6d-4245-8b7a-5c108328736b"},"vehicle_type_id":"4","last_reported":1708376832,"current_range_meters":4000,"station_id":"ce4bhs12rcd13ifvqhvg","pricing_plan_id":"cebpf4jnsgd1na2vs0mg"},{"bike_id":"617637a0-a74b-48a2-8e03-a476ae74f235","system_id":"levelo_inurba_marseille","lat":43.31071,"lon":5.38349,"is_reserved":false,"is_disabled":false,"rental_uris":{"android":"levelo://app?vid=617637a0-a74b-48a2-8e03-a476ae74f235","ios":"levelo://app?vid=617637a0-a74b-48a2-8e03-a476ae74f235"},"vehicle_type_id":"4","last_reported":1708376832,"current_range_meters":6400,"station_id":"ce4bgv92rcd13ifvqcr0","pricing_plan_id":"cebpf4jnsgd1na2vs0mg"},{"bike_id":"ca532f9d-dec9-4470-aeea-6742434fe9e1","system_id":"levelo_inurba_marseille","lat":43.302784,"lon":5.377158,"is_reserved":false,"is_disabled":false,"rental_uris":{"android":"levelo://app?vid=ca532f9d-dec9-4470-aeea-6742434fe9e1","ios":"levelo://app?vid=ca532f9d-dec9-4470-aeea-6742434fe9e1"},"vehicle_type_id":"4","last_reported":1708376832,"current_range_meters":28800,"station_id":"ce4bguh2rcd13ifvqcj0","pricing_plan_id":"cebpf4jnsgd1na2vs0mg"},{"bike_id":"2d97ba72-a2b6-4623-9a8a-535f28fc5ec3","system_id":"levelo_inurba_marseille","lat":43.319947,"lon":5.381505,"is_reserved":false,"is_disabled":false,"rental_uris":{"android":"levelo://app?vid=2d97ba72-a2b6-4623-9a8a-535f28fc5ec3","ios":"levelo://app?vid=2d97ba72-a2b6-4623-9a8a-535f28fc5ec3"},"vehicle_type_id":"4","last_reported":1708376832,"current_range_meters":9600,"station_id":"ce4bhr12rcd13ifvqhpg","pricing_plan_id":"cebpf4jnsgd1na2vs0mg"},{"bike_id":"326adc9f-1ebd-49f3-9949-adab05bdfb8f","system_id":"levelo_inurba_marseille","lat":43.31999,"lon":5.38152,"is_reserved":false,"is_disabled":false,"rental_uris":{"android":"levelo://app?vid=326adc9f-1ebd-49f3-9949-adab05bdfb8f","ios":"levelo://app?vid=326adc9f-1ebd-49f3-9949-adab05bdfb8f"},"vehicle_type_id":"4","last_reported":1708376832,"current_range_meters":22400,"station_id":"ce4bhr12rcd13ifvqhpg","pricing_plan_id":"cebpf4jnsgd1na2vs0mg"},{"bike_id":"e8dfff5e-1bb7-477f-8452-42e99fa71ec3","system_id":"levelo_inurba_marseille","lat":43.320007,"lon":5.381561,"is_reserved":false,"is_disabled":false,"rental_uris":{"android":"levelo://app?vid=e8dfff5e-1bb7-477f-8452-42e99fa71ec3","ios":"levelo://app?vid=e8dfff5e-1bb7-477f-8452-42e99fa71ec3"},"vehicle_type_id":"4","last_reported":1708376832,"current_range_meters":20000,"station_id":"ce4bhr12rcd13ifvqhpg","pricing_plan_id":"cebpf4jnsgd1na2vs0mg"},{"bike_id":"fb6930b4-ca3f-4177-ab7d-6c24aab3cf8c","system_id":"levelo_inurba_marseille","lat":43.313571,"lon":5.384829,"is_reserved":false,"is_disabled":false,"rental_uris":{"android":"levelo://app?vid=fb6930b4-ca3f-4177-ab7d-6c24aab3cf8c","ios":"levelo://app?vid=fb6930b4-ca3f-4177-ab7d-6c24aab3cf8c"},"vehicle_type_id":"4","last_reported":1708376832,"current_range_meters":12800,"station_id":"ce4bgt92rcd13ifvqcf0","pricing_plan_id":"cebpf4jnsgd1na2vs0mg"},{"bike_id":"324f2aa2-e4b5-43de-a769-aba3ee3bf1dd","system_id":"levelo_inurba_marseille","lat":43.28573,"lon":5.394992,"is_reserved":false,"is_disabled":false,"rental_uris":{"android":"levelo://app?vid=324f2aa2-e4b5-43de-a769-aba3ee3bf1dd","ios":"levelo://app?vid=324f2aa2-e4b5-43de-a769-aba3ee3bf1dd"},"vehicle_type_id":"4","last_reported":1708376832,"current_range_meters":28400,"station_id":"ce4bh292rcd13ifvqdg0","pricing_plan_id":"cebpf4jnsgd1na2vs0mg"},{"bike_id":"1905feff-740f-4acf-b945-649dbf3c5c7b","system_id":"levelo_inurba_marseille","lat":43.313571,"lon":5.384829,"is_reserved":false,"is_disabled":false,"rental_uris":{"android":"levelo://app?vid=1905feff-740f-4acf-b945-649dbf3c5c7b","ios":"levelo://app?vid=1905feff-740f-4acf-b945-649dbf3c5c7b"},"vehicle_type_id":"4","last_reported":1708376832,"current_range_meters":16400,"station_id":"ce4bgt92rcd13ifvqcf0","pricing_plan_id":"cebpf4jnsgd1na2vs0mg"},{"bike_id":"04bf62c4-6547-4405-9474-bb0760741159","system_id":"levelo_inurba_marseille","lat":43.313568,"lon":5.384989,"is_reserved":false,"is_disabled":false,"rental_uris":{"android":"levelo://app?vid=04bf62c4-6547-4405-9474-bb0760741159","ios":"levelo://app?vid=04bf62c4-6547-4405-9474-bb0760741159"},"vehicle_type_id":"4","last_reported":1708376832,"current_range_meters":0,"station_id":"ce4bgt92rcd13ifvqcf0","pricing_plan_id":"cebpf4jnsgd1na2vs0mg"},{"bike_id":"63838351-a6a1-494f-80d2-d6c73201e40e","system_id":"levelo_inurba_marseille","lat":43.31359,"lon":5.385021,"is_reserved":false,"is_disabled":false,"rental_uris":{"android":"levelo://app?vid=63838351-a6a1-494f-80d2-d6c73201e40e","ios":"levelo://app?vid=63838351-a6a1-494f-80d2-d6c73201e40e"},"vehicle_type_id":"4","last_reported":1708376832,"current_range_meters":29600,"station_id":"ce4bgt92rcd13ifvqcf0","pricing_plan_id":"cebpf4jnsgd1na2vs0mg"},{"bike_id":"0256e02c-9bd1-4bc2-8316-e151c18c4971","system_id":"levelo_inurba_marseille","lat":43.313546,"lon":5.385073,"is_reserved":false,"is_disabled":false,"rental_uris":{"android":"levelo://app?vid=0256e02c-9bd1-4bc2-8316-e151c18c4971","ios":"levelo://app?vid=0256e02c-9bd1-4bc2-8316-e151c18c4971"},"vehicle_type_id":"4","last_reported":1708376832,"current_range_meters":23200,"station_id":"ce4bgt92rcd13ifvqcf0","pricing_plan_id":"cebpf4jnsgd1na2vs0mg"},{"bike_id":"4afc2841-7c34-49c1-9871-8b2cc99047e3","system_id":"levelo_inurba_marseille","lat":43.299724,"lon":5.371829,"is_reserved":false,"is_disabled":false,"rental_uris":{"android":"levelo://app?vid=4afc2841-7c34-49c1-9871-8b2cc99047e3","ios":"levelo://app?vid=4afc2841-7c34-49c1-9871-8b2cc99047e3"},"vehicle_type_id":"4","last_reported":1708376832,"current_range_meters":25200,"station_id":"ce4bgr92rcd13ifvqc7g","pricing_plan_id":"cebpf4jnsgd1na2vs0mg"},{"bike_id":"ab10e15e-1612-41a9-a1f8-1ed40565f54b","system_id":"levelo_inurba_marseille","lat":43.313571,"lon":5.384829,"is_reserved":false,"is_disabled":false,"rental_uris":{"android":"levelo://app?vid=ab10e15e-1612-41a9-a1f8-1ed40565f54b","ios":"levelo://app?vid=ab10e15e-1612-41a9-a1f8-1ed40565f54b"},"vehicle_type_id":"4","last_reported":1708376832,"current_range_meters":11600,"station_id":"ce4bgt92rcd13ifvqcf0","pricing_plan_id":"cebpf4jnsgd1na2vs0mg"},{"bike_id":"f3de7a4a-e94e-4b16-9744-6f74204c8d6e","system_id":"levelo_inurba_marseille","lat":43.299724,"lon":5.371829,"is_reserved":false,"is_disabled":false,"rental_uris":{"android":"levelo://app?vid=f3de7a4a-e94e-4b16-9744-6f74204c8d6e","ios":"levelo://app?vid=f3de7a4a-e94e-4b16-9744-6f74204c8d6e"},"vehicle_type_id":"4","last_reported":1708376832,"current_range_meters":12800,"station_id":"ce4bgr92rcd13ifvqc7g","pricing_plan_id":"cebpf4jnsgd1na2vs0mg"},{"bike_id":"c43ff15a-5eaa-4c80-9877-472e51bb56e1","system_id":"levelo_inurba_marseille","lat":43.305364,"lon":5.384119,"is_reserved":false,"is_disabled":false,"rental_uris":{"android":"levelo://app?vid=c43ff15a-5eaa-4c80-9877-472e51bb56e1","ios":"levelo://app?vid=c43ff15a-5eaa-4c80-9877-472e51bb56e1"},"vehicle_type_id":"4","last_reported":1708376832,"current_range_meters":14400,"station_id":"ce4bgg92rcd13ifvqb30","pricing_plan_id":"cebpf4jnsgd1na2vs0mg"},{"bike_id":"6ac6d1f6-a2c0-401b-b047-45f18ce2ad28","system_id":"levelo_inurba_marseille","lat":43.305364,"lon":5.384119,"is_reserved":false,"is_disabled":false,"rental_uris":{"android":"levelo://app?vid=6ac6d1f6-a2c0-401b-b047-45f18ce2ad28","ios":"levelo://app?vid=6ac6d1f6-a2c0-401b-b047-45f18ce2ad28"},"vehicle_type_id":"4","last_reported":1708376832,"current_range_meters":18400,"station_id":"ce4bgg92rcd13ifvqb30","pricing_plan_id":"cebpf4jnsgd1na2vs0mg"},{"bike_id":"21e5dafc-b0d8-49e9-beec-76ab8f352a66","system_id":"levelo_inurba_marseille","lat":43.305364,"lon":5.384119,"is_reserved":false,"is_disabled":false,"rental_uris":{"android":"levelo://app?vid=21e5dafc-b0d8-49e9-beec-76ab8f352a66","ios":"levelo://app?vid=21e5dafc-b0d8-49e9-beec-76ab8f352a66"},"vehicle_type_id":"4","last_reported":1708376832,"current_range_meters":28000,"station_id":"ce4bgg92rcd13ifvqb30","pricing_plan_id":"cebpf4jnsgd1na2vs0mg"},{"bike_id":"c38008f2-7590-45f4-9a65-4863a5b141b4","system_id":"levelo_inurba_marseille","lat":43.305364,"lon":5.384119,"is_reserved":false,"is_disabled":false,"rental_uris":{"android":"levelo://app?vid=c38008f2-7590-45f4-9a65-4863a5b141b4","ios":"levelo://app?vid=c38008f2-7590-45f4-9a65-4863a5b141b4"},"vehicle_type_id":"4","last_reported":1708376832,"current_range_meters":14400,"station_id":"ce4bgg92rcd13ifvqb30","pricing_plan_id":"cebpf4jnsgd1na2vs0mg"},{"bike_id":"233a1a39-fa71-46b6-91bb-a07a5e935265","system_id":"levelo_inurba_marseille","lat":43.305364,"lon":5.384119,"is_reserved":false,"is_disabled":false,"rental_uris":{"android":"levelo://app?vid=233a1a39-fa71-46b6-91bb-a07a5e935265","ios":"levelo://app?vid=233a1a39-fa71-46b6-91bb-a07a5e935265"},"vehicle_type_id":"4","last_reported":1708376832,"current_range_meters":22400,"station_id":"ce4bgg92rcd13ifvqb30","pricing_plan_id":"cebpf4jnsgd1na2vs0mg"},{"bike_id":"db7075de-1a49-49cb-868e-aca4dc1f3aaf","system_id":"levelo_inurba_marseille","lat":43.311722,"lon":5.387247,"is_reserved":false,"is_disabled":false,"rental_uris":{"android":"levelo://app?vid=db7075de-1a49-49cb-868e-aca4dc1f3aaf","ios":"levelo://app?vid=db7075de-1a49-49cb-868e-aca4dc1f3aaf"},"vehicle_type_id":"4","last_reported":1708376832,"current_range_meters":9600,"station_id":"ce4bgv12rcd13ifvqcp0","pricing_plan_id":"cebpf4jnsgd1na2vs0mg"},{"bike_id":"7853d033-42ed-40cd-95b6-d80e81c2c22c","system_id":"levelo_inurba_marseille","lat":43.311722,"lon":5.387247,"is_reserved":false,"is_disabled":false,"rental_uris":{"android":"levelo://app?vid=7853d033-42ed-40cd-95b6-d80e81c2c22c","ios":"levelo://app?vid=7853d033-42ed-40cd-95b6-d80e81c2c22c"},"vehicle_type_id":"4","last_reported":1708376832,"current_range_meters":21600,"station_id":"ce4bgv12rcd13ifvqcp0","pricing_plan_id":"cebpf4jnsgd1na2vs0mg"},{"bike_id":"8f739cd0-083c-4784-ae71-0c0267c37fd4","system_id":"levelo_inurba_marseille","lat":43.311722,"lon":5.387247,"is_reserved":false,"is_disabled":false,"rental_uris":{"android":"levelo://app?vid=8f739cd0-083c-4784-ae71-0c0267c37fd4","ios":"levelo://app?vid=8f739cd0-083c-4784-ae71-0c0267c37fd4"},"vehicle_type_id":"4","last_reported":1708376832,"current_range_meters":15600,"station_id":"ce4bgv12rcd13ifvqcp0","pricing_plan_id":"cebpf4jnsgd1na2vs0mg"},{"bike_id":"3571987e-39cf-4d08-8e97-0689cea1def8","system_id":"levelo_inurba_marseille","lat":43.311722,"lon":5.387247,"is_reserved":false,"is_disabled":false,"rental_uris":{"android":"levelo://app?vid=3571987e-39cf-4d08-8e97-0689cea1def8","ios":"levelo://app?vid=3571987e-39cf-4d08-8e97-0689cea1def8"},"vehicle_type_id":"4","last_reported":1708376832,"current_range_meters":1200,"station_id":"ce4bgv12rcd13ifvqcp0","pricing_plan_id":"cebpf4jnsgd1na2vs0mg"},{"bike_id":"2a048a81-190d-4a33-8016-06985ff052ab","system_id":"levelo_inurba_marseille","lat":43.311722,"lon":5.387247,"is_reserved":false,"is_disabled":false,"rental_uris":{"android":"levelo://app?vid=2a048a81-190d-4a33-8016-06985ff052ab","ios":"levelo://app?vid=2a048a81-190d-4a33-8016-06985ff052ab"},"vehicle_type_id":"4","last_reported":1708376832,"current_range_meters":27600,"station_id":"ce4bgv12rcd13ifvqcp0","pricing_plan_id":"cebpf4jnsgd1na2vs0mg"},{"bike_id":"8a7f90af-495f-4071-8fa0-66c7a414613a","system_id":"levelo_inurba_marseille","lat":43.311722,"lon":5.387247,"is_reserved":false,"is_disabled":false,"rental_uris":{"android":"levelo://app?vid=8a7f90af-495f-4071-8fa0-66c7a414613a","ios":"levelo://app?vid=8a7f90af-495f-4071-8fa0-66c7a414613a"},"vehicle_type_id":"4","last_reported":1708376832,"current_range_meters":2000,"station_id":"ce4bgv12rcd13ifvqcp0","pricing_plan_id":"cebpf4jnsgd1na2vs0mg"},{"bike_id":"ef5c7914-8e3f-45f1-9827-e955746d5cb8","system_id":"levelo_inurba_marseille","lat":43.29804,"lon":5.36506,"is_reserved":false,"is_disabled":false,"rental_uris":{"android":"levelo://app?vid=ef5c7914-8e3f-45f1-9827-e955746d5cb8","ios":"levelo://app?vid=ef5c7914-8e3f-45f1-9827-e955746d5cb8"},"vehicle_type_id":"4","last_reported":1708376832,"current_range_meters":13200,"station_id":"","pricing_plan_id":"cebpf4jnsgd1na2vs0mg"},{"bike_id":"3abb9479-2707-4d7e-b30c-ba46a05b4b7e","system_id":"levelo_inurba_marseille","lat":43.297794,"lon":5.370888,"is_reserved":false,"is_disabled":false,"rental_uris":{"android":"levelo://app?vid=3abb9479-2707-4d7e-b30c-ba46a05b4b7e","ios":"levelo://app?vid=3abb9479-2707-4d7e-b30c-ba46a05b4b7e"},"vehicle_type_id":"4","last_reported":1708376832,"current_range_meters":27600,"station_id":"ce4bgop2rcd13ifvqc1g","pricing_plan_id":"cebpf4jnsgd1na2vs0mg"},{"bike_id":"87b9dd3b-d0dd-47e4-b430-d07e769ec461","system_id":"levelo_inurba_marseille","lat":43.297794,"lon":5.370888,"is_reserved":false,"is_disabled":false,"rental_uris":{"android":"levelo://app?vid=87b9dd3b-d0dd-47e4-b430-d07e769ec461","ios":"levelo://app?vid=87b9dd3b-d0dd-47e4-b430-d07e769ec461"},"vehicle_type_id":"4","last_reported":1708376832,"current_range_meters":25200,"station_id":"ce4bgop2rcd13ifvqc1g","pricing_plan_id":"cebpf4jnsgd1na2vs0mg"},{"bike_id":"e6d33c2b-0d6c-4bf8-9355-0017f7556f91","system_id":"levelo_inurba_marseille","lat":43.297794,"lon":5.370888,"is_reserved":false,"is_disabled":false,"rental_uris":{"android":"levelo://app?vid=e6d33c2b-0d6c-4bf8-9355-0017f7556f91","ios":"levelo://app?vid=e6d33c2b-0d6c-4bf8-9355-0017f7556f91"},"vehicle_type_id":"4","last_reported":1708376832,"current_range_meters":5200,"station_id":"ce4bgop2rcd13ifvqc1g","pricing_plan_id":"cebpf4jnsgd1na2vs0mg"},{"bike_id":"fce4e9eb-f1db-4840-9573-54454ce3f1d6","system_id":"levelo_inurba_marseille","lat":43.322872,"lon":5.382756,"is_reserved":false,"is_disabled":false,"rental_uris":{"android":"levelo://app?vid=fce4e9eb-f1db-4840-9573-54454ce3f1d6","ios":"levelo://app?vid=fce4e9eb-f1db-4840-9573-54454ce3f1d6"},"vehicle_type_id":"4","last_reported":1708376832,"current_range_meters":25200,"station_id":"ce4bhr12rcd13ifvqhqg","pricing_plan_id":"cebpf4jnsgd1na2vs0mg"},{"bike_id":"9edfbbac-3647-4389-a484-42c4a248ae6c","system_id":"levelo_inurba_marseille","lat":43.322872,"lon":5.382756,"is_reserved":false,"is_disabled":false,"rental_uris":{"android":"levelo://app?vid=9edfbbac-3647-4389-a484-42c4a248ae6c","ios":"levelo://app?vid=9edfbbac-3647-4389-a484-42c4a248ae6c"},"vehicle_type_id":"4","last_reported":1708376832,"current_range_meters":27200,"station_id":"ce4bhr12rcd13ifvqhqg","pricing_plan_id":"cebpf4jnsgd1na2vs0mg"},{"bike_id":"91ab4edd-d149-4ede-888b-4d27f7f91f34","system_id":"levelo_inurba_marseille","lat":43.322872,"lon":5.382756,"is_reserved":false,"is_disabled":false,"rental_uris":{"android":"levelo://app?vid=91ab4edd-d149-4ede-888b-4d27f7f91f34","ios":"levelo://app?vid=91ab4edd-d149-4ede-888b-4d27f7f91f34"},"vehicle_type_id":"4","last_reported":1708376832,"current_range_meters":12800,"station_id":"ce4bhr12rcd13ifvqhqg","pricing_plan_id":"cebpf4jnsgd1na2vs0mg"},{"bike_id":"d026edbc-abfe-4769-8eb1-e1acc923139d","system_id":"levelo_inurba_marseille","lat":43.32296,"lon":5.3827,"is_reserved":false,"is_disabled":false,"rental_uris":{"android":"levelo://app?vid=d026edbc-abfe-4769-8eb1-e1acc923139d","ios":"levelo://app?vid=d026edbc-abfe-4769-8eb1-e1acc923139d"},"vehicle_type_id":"4","last_reported":1708376832,"current_range_meters":26400,"station_id":"ce4bhr12rcd13ifvqhqg","pricing_plan_id":"cebpf4jnsgd1na2vs0mg"},{"bike_id":"073032fd-33d1-4ee1-a0f7-5225435e5b99","system_id":"levelo_inurba_marseille","lat":43.297163,"lon":5.365866,"is_reserved":false,"is_disabled":false,"rental_uris":{"android":"levelo://app?vid=073032fd-33d1-4ee1-a0f7-5225435e5b99","ios":"levelo://app?vid=073032fd-33d1-4ee1-a0f7-5225435e5b99"},"vehicle_type_id":"4","last_reported":1708376832,"current_range_meters":16400,"station_id":"ce4bgn12rcd13ifvqbt0","pricing_plan_id":"cebpf4jnsgd1na2vs0mg"},{"bike_id":"ae3be08b-57ba-4a17-b3c9-4a45d41fe643","system_id":"levelo_inurba_marseille","lat":43.297163,"lon":5.365866,"is_reserved":false,"is_disabled":false,"rental_uris":{"android":"levelo://app?vid=ae3be08b-57ba-4a17-b3c9-4a45d41fe643","ios":"levelo://app?vid=ae3be08b-57ba-4a17-b3c9-4a45d41fe643"},"vehicle_type_id":"4","last_reported":1708376832,"current_range_meters":22800,"station_id":"ce4bgn12rcd13ifvqbt0","pricing_plan_id":"cebpf4jnsgd1na2vs0mg"},{"bike_id":"0ade780d-8480-46dd-9a93-4de2886a40ad","system_id":"levelo_inurba_marseille","lat":43.297163,"lon":5.365866,"is_reserved":false,"is_disabled":false,"rental_uris":{"android":"levelo://app?vid=0ade780d-8480-46dd-9a93-4de2886a40ad","ios":"levelo://app?vid=0ade780d-8480-46dd-9a93-4de2886a40ad"},"vehicle_type_id":"4","last_reported":1708376832,"current_range_meters":13600,"station_id":"ce4bgn12rcd13ifvqbt0","pricing_plan_id":"cebpf4jnsgd1na2vs0mg"},{"bike_id":"add7985a-15aa-4ecf-aefb-9183c2c5c61d","system_id":"levelo_inurba_marseille","lat":43.29965,"lon":5.379257,"is_reserved":false,"is_disabled":false,"rental_uris":{"android":"levelo://app?vid=add7985a-15aa-4ecf-aefb-9183c2c5c61d","ios":"levelo://app?vid=add7985a-15aa-4ecf-aefb-9183c2c5c61d"},"vehicle_type_id":"4","last_reported":1708376832,"current_range_meters":11600,"station_id":"","pricing_plan_id":"cebpf4jnsgd1na2vs0mg"},{"bike_id":"f02a0f6f-66a6-462e-9e55-3dfdd8fe01d9","system_id":"levelo_inurba_marseille","lat":43.329126,"lon":5.367029,"is_reserved":false,"is_disabled":false,"rental_uris":{"android":"levelo://app?vid=f02a0f6f-66a6-462e-9e55-3dfdd8fe01d9","ios":"levelo://app?vid=f02a0f6f-66a6-462e-9e55-3dfdd8fe01d9"},"vehicle_type_id":"4","last_reported":1708376832,"current_range_meters":1200,"station_id":"","pricing_plan_id":"cebpf4jnsgd1na2vs0mg"},{"bike_id":"6288b525-46ae-45a4-99da-97dc9e3fa0e1","system_id":"levelo_inurba_marseille","lat":43.29598,"lon":5.367983,"is_reserved":false,"is_disabled":false,"rental_uris":{"android":"levelo://app?vid=6288b525-46ae-45a4-99da-97dc9e3fa0e1","ios":"levelo://app?vid=6288b525-46ae-45a4-99da-97dc9e3fa0e1"},"vehicle_type_id":"4","last_reported":1708376832,"current_range_meters":24800,"station_id":"","pricing_plan_id":"cebpf4jnsgd1na2vs0mg"},{"bike_id":"33e6ca9c-d9d7-4504-9d22-6fcb11e1fe2e","system_id":"levelo_inurba_marseille","lat":43.299028,"lon":5.381509,"is_reserved":false,"is_disabled":false,"rental_uris":{"android":"levelo://app?vid=33e6ca9c-d9d7-4504-9d22-6fcb11e1fe2e","ios":"levelo://app?vid=33e6ca9c-d9d7-4504-9d22-6fcb11e1fe2e"},"vehicle_type_id":"4","last_reported":1708376832,"current_range_meters":28800,"station_id":"ce4bgj12rcd13ifvqbc0","pricing_plan_id":"cebpf4jnsgd1na2vs0mg"},{"bike_id":"77d0319d-3c60-45bc-b80f-a3cbc688c98d","system_id":"levelo_inurba_marseille","lat":43.299053,"lon":5.38145,"is_reserved":false,"is_disabled":false,"rental_uris":{"android":"levelo://app?vid=77d0319d-3c60-45bc-b80f-a3cbc688c98d","ios":"levelo://app?vid=77d0319d-3c60-45bc-b80f-a3cbc688c98d"},"vehicle_type_id":"4","last_reported":1708376832,"current_range_meters":28800,"station_id":"ce4bgj12rcd13ifvqbc0","pricing_plan_id":"cebpf4jnsgd1na2vs0mg"},{"bike_id":"9b115ebf-65a9-47d3-ab52-8c4b12863dc4","system_id":"levelo_inurba_marseille","lat":43.317557,"lon":5.390173,"is_reserved":false,"is_disabled":false,"rental_uris":{"android":"levelo://app?vid=9b115ebf-65a9-47d3-ab52-8c4b12863dc4","ios":"levelo://app?vid=9b115ebf-65a9-47d3-ab52-8c4b12863dc4"},"vehicle_type_id":"4","last_reported":1708376832,"current_range_meters":8000,"station_id":"ce4bhqp2rcd13ifvqhng","pricing_plan_id":"cebpf4jnsgd1na2vs0mg"},{"bike_id":"5a549979-89f7-41be-b2dd-6e73bf5ca96e","system_id":"levelo_inurba_marseille","lat":43.317557,"lon":5.390173,"is_reserved":false,"is_disabled":false,"rental_uris":{"android":"levelo://app?vid=5a549979-89f7-41be-b2dd-6e73bf5ca96e","ios":"levelo://app?vid=5a549979-89f7-41be-b2dd-6e73bf5ca96e"},"vehicle_type_id":"4","last_reported":1708376832,"current_range_meters":0,"station_id":"ce4bhqp2rcd13ifvqhng","pricing_plan_id":"cebpf4jnsgd1na2vs0mg"},{"bike_id":"9006dcf1-17d3-4031-81c2-9e818b61b918","system_id":"levelo_inurba_marseille","lat":43.317557,"lon":5.390173,"is_reserved":false,"is_disabled":false,"rental_uris":{"android":"levelo://app?vid=9006dcf1-17d3-4031-81c2-9e818b61b918","ios":"levelo://app?vid=9006dcf1-17d3-4031-81c2-9e818b61b918"},"vehicle_type_id":"4","last_reported":1708376832,"current_range_meters":30400,"station_id":"ce4bhqp2rcd13ifvqhng","pricing_plan_id":"cebpf4jnsgd1na2vs0mg"},{"bike_id":"01d234d0-e8e0-45f8-b8bb-c81cf3e028da","system_id":"levelo_inurba_marseille","lat":43.317557,"lon":5.390173,"is_reserved":false,"is_disabled":false,"rental_uris":{"android":"levelo://app?vid=01d234d0-e8e0-45f8-b8bb-c81cf3e028da","ios":"levelo://app?vid=01d234d0-e8e0-45f8-b8bb-c81cf3e028da"},"vehicle_type_id":"4","last_reported":1708376832,"current_range_meters":31200,"station_id":"ce4bhqp2rcd13ifvqhng","pricing_plan_id":"cebpf4jnsgd1na2vs0mg"},{"bike_id":"e3d6a117-f1c2-4286-b6fc-026747e43e8e","system_id":"levelo_inurba_marseille","lat":43.317557,"lon":5.390173,"is_reserved":false,"is_disabled":false,"rental_uris":{"android":"levelo://app?vid=e3d6a117-f1c2-4286-b6fc-026747e43e8e","ios":"levelo://app?vid=e3d6a117-f1c2-4286-b6fc-026747e43e8e"},"vehicle_type_id":"4","last_reported":1708376832,"current_range_meters":17600,"station_id":"ce4bhqp2rcd13ifvqhng","pricing_plan_id":"cebpf4jnsgd1na2vs0mg"},{"bike_id":"a058b8c9-ce73-4233-9ec0-7d21bd3e485a","system_id":"levelo_inurba_marseille","lat":43.317557,"lon":5.390173,"is_reserved":false,"is_disabled":false,"rental_uris":{"android":"levelo://app?vid=a058b8c9-ce73-4233-9ec0-7d21bd3e485a","ios":"levelo://app?vid=a058b8c9-ce73-4233-9ec0-7d21bd3e485a"},"vehicle_type_id":"4","last_reported":1708376832,"current_range_meters":11200,"station_id":"ce4bhqp2rcd13ifvqhng","pricing_plan_id":"cebpf4jnsgd1na2vs0mg"},{"bike_id":"f2666d97-f098-4e8d-948b-6ca5cf2b5347","system_id":"levelo_inurba_marseille","lat":43.317557,"lon":5.390173,"is_reserved":false,"is_disabled":false,"rental_uris":{"android":"levelo://app?vid=f2666d97-f098-4e8d-948b-6ca5cf2b5347","ios":"levelo://app?vid=f2666d97-f098-4e8d-948b-6ca5cf2b5347"},"vehicle_type_id":"4","last_reported":1708376832,"current_range_meters":10400,"station_id":"ce4bhqp2rcd13ifvqhng","pricing_plan_id":"cebpf4jnsgd1na2vs0mg"},{"bike_id":"9850b0c8-fd40-4553-9418-16c78492a3b8","system_id":"levelo_inurba_marseille","lat":43.304274,"lon":5.388873,"is_reserved":false,"is_disabled":false,"rental_uris":{"android":"levelo://app?vid=9850b0c8-fd40-4553-9418-16c78492a3b8","ios":"levelo://app?vid=9850b0c8-fd40-4553-9418-16c78492a3b8"},"vehicle_type_id":"4","last_reported":1708376832,"current_range_meters":13200,"station_id":"ce4bgk12rcd13ifvqbi0","pricing_plan_id":"cebpf4jnsgd1na2vs0mg"},{"bike_id":"3d80a6b4-456a-4f71-891d-9f1ee12153d5","system_id":"levelo_inurba_marseille","lat":43.30431,"lon":5.38888,"is_reserved":false,"is_disabled":false,"rental_uris":{"android":"levelo://app?vid=3d80a6b4-456a-4f71-891d-9f1ee12153d5","ios":"levelo://app?vid=3d80a6b4-456a-4f71-891d-9f1ee12153d5"},"vehicle_type_id":"4","last_reported":1708376832,"current_range_meters":5200,"station_id":"ce4bgk12rcd13ifvqbi0","pricing_plan_id":"cebpf4jnsgd1na2vs0mg"},{"bike_id":"5d75a57f-1d5c-4b23-96e6-93dea7c89732","system_id":"levelo_inurba_marseille","lat":43.304393,"lon":5.388953,"is_reserved":false,"is_disabled":false,"rental_uris":{"android":"levelo://app?vid=5d75a57f-1d5c-4b23-96e6-93dea7c89732","ios":"levelo://app?vid=5d75a57f-1d5c-4b23-96e6-93dea7c89732"},"vehicle_type_id":"4","last_reported":1708376832,"current_range_meters":30400,"station_id":"ce4bgk12rcd13ifvqbi0","pricing_plan_id":"cebpf4jnsgd1na2vs0mg"},{"bike_id":"48d42010-4d24-459e-bc55-2c03dc99dac5","system_id":"levelo_inurba_marseille","lat":43.299707,"lon":5.384859,"is_reserved":false,"is_disabled":false,"rental_uris":{"android":"levelo://app?vid=48d42010-4d24-459e-bc55-2c03dc99dac5","ios":"levelo://app?vid=48d42010-4d24-459e-bc55-2c03dc99dac5"},"vehicle_type_id":"4","last_reported":1708376832,"current_range_meters":18800,"station_id":"ce4bgj92rcd13ifvqbd0","pricing_plan_id":"cebpf4jnsgd1na2vs0mg"},{"bike_id":"7b24712a-2239-4461-9189-b80a41b894a9","system_id":"levelo_inurba_marseille","lat":43.299707,"lon":5.384859,"is_reserved":false,"is_disabled":false,"rental_uris":{"android":"levelo://app?vid=7b24712a-2239-4461-9189-b80a41b894a9","ios":"levelo://app?vid=7b24712a-2239-4461-9189-b80a41b894a9"},"vehicle_type_id":"4","last_reported":1708376832,"current_range_meters":1200,"station_id":"ce4bgj92rcd13ifvqbd0","pricing_plan_id":"cebpf4jnsgd1na2vs0mg"},{"bike_id":"8c566ccf-3b5d-4cd4-8797-6e44b9b56f8d","system_id":"levelo_inurba_marseille","lat":43.299707,"lon":5.384859,"is_reserved":false,"is_disabled":false,"rental_uris":{"android":"levelo://app?vid=8c566ccf-3b5d-4cd4-8797-6e44b9b56f8d","ios":"levelo://app?vid=8c566ccf-3b5d-4cd4-8797-6e44b9b56f8d"},"vehicle_type_id":"4","last_reported":1708376832,"current_range_meters":17600,"station_id":"ce4bgj92rcd13ifvqbd0","pricing_plan_id":"cebpf4jnsgd1na2vs0mg"},{"bike_id":"8d6927e8-6b38-4d79-ad69-98e35ba6a46c","system_id":"levelo_inurba_marseille","lat":43.299724,"lon":5.384848,"is_reserved":false,"is_disabled":false,"rental_uris":{"android":"levelo://app?vid=8d6927e8-6b38-4d79-ad69-98e35ba6a46c","ios":"levelo://app?vid=8d6927e8-6b38-4d79-ad69-98e35ba6a46c"},"vehicle_type_id":"4","last_reported":1708376832,"current_range_meters":9200,"station_id":"ce4bgj92rcd13ifvqbd0","pricing_plan_id":"cebpf4jnsgd1na2vs0mg"},{"bike_id":"80470b1b-109e-417d-b1a9-02ecfa2e01ae","system_id":"levelo_inurba_marseille","lat":43.299707,"lon":5.384859,"is_reserved":false,"is_disabled":false,"rental_uris":{"android":"levelo://app?vid=80470b1b-109e-417d-b1a9-02ecfa2e01ae","ios":"levelo://app?vid=80470b1b-109e-417d-b1a9-02ecfa2e01ae"},"vehicle_type_id":"4","last_reported":1708376832,"current_range_meters":800,"station_id":"ce4bgj92rcd13ifvqbd0","pricing_plan_id":"cebpf4jnsgd1na2vs0mg"},{"bike_id":"93096291-ae6d-49ca-abe6-048a2d9188df","system_id":"levelo_inurba_marseille","lat":43.295279,"lon":5.375048,"is_reserved":false,"is_disabled":false,"rental_uris":{"android":"levelo://app?vid=93096291-ae6d-49ca-abe6-048a2d9188df","ios":"levelo://app?vid=93096291-ae6d-49ca-abe6-048a2d9188df"},"vehicle_type_id":"4","last_reported":1708376832,"current_range_meters":6400,"station_id":"ce4bgkp2rcd13ifvqbmg","pricing_plan_id":"cebpf4jnsgd1na2vs0mg"},{"bike_id":"60aac471-43fb-437f-a879-52036fb50366","system_id":"levelo_inurba_marseille","lat":43.299717,"lon":5.384845,"is_reserved":false,"is_disabled":false,"rental_uris":{"android":"levelo://app?vid=60aac471-43fb-437f-a879-52036fb50366","ios":"levelo://app?vid=60aac471-43fb-437f-a879-52036fb50366"},"vehicle_type_id":"4","last_reported":1708376832,"current_range_meters":0,"station_id":"ce4bgj92rcd13ifvqbd0","pricing_plan_id":"cebpf4jnsgd1na2vs0mg"},{"bike_id":"14b2adbd-de5e-493a-919f-cb01d90fdaa2","system_id":"levelo_inurba_marseille","lat":43.32368,"lon":5.38887,"is_reserved":false,"is_disabled":false,"rental_uris":{"android":"levelo://app?vid=14b2adbd-de5e-493a-919f-cb01d90fdaa2","ios":"levelo://app?vid=14b2adbd-de5e-493a-919f-cb01d90fdaa2"},"vehicle_type_id":"4","last_reported":1708376832,"current_range_meters":12000,"station_id":"ce4bhqp2rcd13ifvqhog","pricing_plan_id":"cebpf4jnsgd1na2vs0mg"},{"bike_id":"43b17461-186f-478c-a457-8e950e7a3723","system_id":"levelo_inurba_marseille","lat":43.293249,"lon":5.371578,"is_reserved":false,"is_disabled":false,"rental_uris":{"android":"levelo://app?vid=43b17461-186f-478c-a457-8e950e7a3723","ios":"levelo://app?vid=43b17461-186f-478c-a457-8e950e7a3723"},"vehicle_type_id":"4","last_reported":1708376832,"current_range_meters":0,"station_id":"ce4bgh92rcd13ifvqb40","pricing_plan_id":"cebpf4jnsgd1na2vs0mg"},{"bike_id":"d6cf31fa-abed-40fa-bc9c-7ed8cd37044e","system_id":"levelo_inurba_marseille","lat":43.293259,"lon":5.371586,"is_reserved":false,"is_disabled":false,"rental_uris":{"android":"levelo://app?vid=d6cf31fa-abed-40fa-bc9c-7ed8cd37044e","ios":"levelo://app?vid=d6cf31fa-abed-40fa-bc9c-7ed8cd37044e"},"vehicle_type_id":"4","last_reported":1708376832,"current_range_meters":14800,"station_id":"ce4bgh92rcd13ifvqb40","pricing_plan_id":"cebpf4jnsgd1na2vs0mg"},{"bike_id":"abe7d0a2-2080-4dab-84e2-41db18473abb","system_id":"levelo_inurba_marseille","lat":43.292749,"lon":5.368402,"is_reserved":false,"is_disabled":false,"rental_uris":{"android":"levelo://app?vid=abe7d0a2-2080-4dab-84e2-41db18473abb","ios":"levelo://app?vid=abe7d0a2-2080-4dab-84e2-41db18473abb"},"vehicle_type_id":"4","last_reported":1708376832,"current_range_meters":4800,"station_id":"ce4bhbp2rcd13ifvqesg","pricing_plan_id":"cebpf4jnsgd1na2vs0mg"},{"bike_id":"cd28783c-f1fd-4672-8a78-31d8cb8326e7","system_id":"levelo_inurba_marseille","lat":43.292749,"lon":5.368402,"is_reserved":false,"is_disabled":false,"rental_uris":{"android":"levelo://app?vid=cd28783c-f1fd-4672-8a78-31d8cb8326e7","ios":"levelo://app?vid=cd28783c-f1fd-4672-8a78-31d8cb8326e7"},"vehicle_type_id":"4","last_reported":1708376832,"current_range_meters":16400,"station_id":"ce4bhbp2rcd13ifvqesg","pricing_plan_id":"cebpf4jnsgd1na2vs0mg"},{"bike_id":"6e91721f-ae39-42c9-bf28-5339cba6191c","system_id":"levelo_inurba_marseille","lat":43.293,"lon":5.37157,"is_reserved":false,"is_disabled":false,"rental_uris":{"android":"levelo://app?vid=6e91721f-ae39-42c9-bf28-5339cba6191c","ios":"levelo://app?vid=6e91721f-ae39-42c9-bf28-5339cba6191c"},"vehicle_type_id":"4","last_reported":1708376832,"current_range_meters":0,"station_id":"ce4bgh92rcd13ifvqb40","pricing_plan_id":"cebpf4jnsgd1na2vs0mg"},{"bike_id":"a356a71d-8723-493e-8dd7-0d2f4f5a935a","system_id":"levelo_inurba_marseille","lat":43.31282,"lon":5.39467,"is_reserved":false,"is_disabled":false,"rental_uris":{"android":"levelo://app?vid=a356a71d-8723-493e-8dd7-0d2f4f5a935a","ios":"levelo://app?vid=a356a71d-8723-493e-8dd7-0d2f4f5a935a"},"vehicle_type_id":"4","last_reported":1708376832,"current_range_meters":14800,"station_id":"","pricing_plan_id":"cebpf4jnsgd1na2vs0mg"},{"bike_id":"d7d96388-cb54-41c7-af29-2212b32c2672","system_id":"levelo_inurba_marseille","lat":43.293009,"lon":5.374584,"is_reserved":false,"is_disabled":false,"rental_uris":{"android":"levelo://app?vid=d7d96388-cb54-41c7-af29-2212b32c2672","ios":"levelo://app?vid=d7d96388-cb54-41c7-af29-2212b32c2672"},"vehicle_type_id":"4","last_reported":1708376832,"current_range_meters":18000,"station_id":"ce4bgi12rcd13ifvqb70","pricing_plan_id":"cebpf4jnsgd1na2vs0mg"},{"bike_id":"7f527278-7982-4491-a1b0-d3e1bd2821c3","system_id":"levelo_inurba_marseille","lat":43.303002,"lon":5.392142,"is_reserved":false,"is_disabled":false,"rental_uris":{"android":"levelo://app?vid=7f527278-7982-4491-a1b0-d3e1bd2821c3","ios":"levelo://app?vid=7f527278-7982-4491-a1b0-d3e1bd2821c3"},"vehicle_type_id":"4","last_reported":1708376832,"current_range_meters":21600,"station_id":"ce4bgkh2rcd13ifvqbk0","pricing_plan_id":"cebpf4jnsgd1na2vs0mg"},{"bike_id":"a8e5c5a6-4950-415d-ac72-f4ce8cacd3a0","system_id":"levelo_inurba_marseille","lat":43.300852,"lon":5.390859,"is_reserved":false,"is_disabled":false,"rental_uris":{"android":"levelo://app?vid=a8e5c5a6-4950-415d-ac72-f4ce8cacd3a0","ios":"levelo://app?vid=a8e5c5a6-4950-415d-ac72-f4ce8cacd3a0"},"vehicle_type_id":"4","last_reported":1708376832,"current_range_meters":24800,"station_id":"ce4bh192rcd13ifvqdb0","pricing_plan_id":"cebpf4jnsgd1na2vs0mg"},{"bike_id":"6a874ee3-1bee-4588-9433-d9ab2af9fc37","system_id":"levelo_inurba_marseille","lat":43.30085,"lon":5.390856,"is_reserved":false,"is_disabled":false,"rental_uris":{"android":"levelo://app?vid=6a874ee3-1bee-4588-9433-d9ab2af9fc37","ios":"levelo://app?vid=6a874ee3-1bee-4588-9433-d9ab2af9fc37"},"vehicle_type_id":"4","last_reported":1708376832,"current_range_meters":12800,"station_id":"ce4bh192rcd13ifvqdb0","pricing_plan_id":"cebpf4jnsgd1na2vs0mg"},{"bike_id":"f7a81959-4415-435d-a520-d41cd22ed438","system_id":"levelo_inurba_marseille","lat":43.292311,"lon":5.360731,"is_reserved":false,"is_disabled":false,"rental_uris":{"android":"levelo://app?vid=f7a81959-4415-435d-a520-d41cd22ed438","ios":"levelo://app?vid=f7a81959-4415-435d-a520-d41cd22ed438"},"vehicle_type_id":"4","last_reported":1708376832,"current_range_meters":21600,"station_id":"ce4bhbh2rcd13ifvqeqg","pricing_plan_id":"cebpf4jnsgd1na2vs0mg"},{"bike_id":"41ad962e-360c-478f-80e7-beb50152db3d","system_id":"levelo_inurba_marseille","lat":43.292311,"lon":5.360731,"is_reserved":false,"is_disabled":false,"rental_uris":{"android":"levelo://app?vid=41ad962e-360c-478f-80e7-beb50152db3d","ios":"levelo://app?vid=41ad962e-360c-478f-80e7-beb50152db3d"},"vehicle_type_id":"4","last_reported":1708376832,"current_range_meters":26800,"station_id":"ce4bhbh2rcd13ifvqeqg","pricing_plan_id":"cebpf4jnsgd1na2vs0mg"},{"bike_id":"86ec6f0c-3bd6-4fd5-9085-23171a09d9e5","system_id":"levelo_inurba_marseille","lat":43.292311,"lon":5.360731,"is_reserved":false,"is_disabled":false,"rental_uris":{"android":"levelo://app?vid=86ec6f0c-3bd6-4fd5-9085-23171a09d9e5","ios":"levelo://app?vid=86ec6f0c-3bd6-4fd5-9085-23171a09d9e5"},"vehicle_type_id":"4","last_reported":1708376832,"current_range_meters":16400,"station_id":"ce4bhbh2rcd13ifvqeqg","pricing_plan_id":"cebpf4jnsgd1na2vs0mg"},{"bike_id":"6e4f4f62-1d7e-4f78-bb75-b417a294681a","system_id":"levelo_inurba_marseille","lat":43.292311,"lon":5.360731,"is_reserved":false,"is_disabled":false,"rental_uris":{"android":"levelo://app?vid=6e4f4f62-1d7e-4f78-bb75-b417a294681a","ios":"levelo://app?vid=6e4f4f62-1d7e-4f78-bb75-b417a294681a"},"vehicle_type_id":"4","last_reported":1708376832,"current_range_meters":26800,"station_id":"ce4bhbh2rcd13ifvqeqg","pricing_plan_id":"cebpf4jnsgd1na2vs0mg"},{"bike_id":"b0bc2962-60bd-485d-a9bb-7db5b00c1dbf","system_id":"levelo_inurba_marseille","lat":43.30085,"lon":5.390856,"is_reserved":false,"is_disabled":false,"rental_uris":{"android":"levelo://app?vid=b0bc2962-60bd-485d-a9bb-7db5b00c1dbf","ios":"levelo://app?vid=b0bc2962-60bd-485d-a9bb-7db5b00c1dbf"},"vehicle_type_id":"4","last_reported":1708376832,"current_range_meters":23200,"station_id":"ce4bh192rcd13ifvqdb0","pricing_plan_id":"cebpf4jnsgd1na2vs0mg"},{"bike_id":"7f4d1554-7035-4dbb-a3b5-6508097fdee8","system_id":"levelo_inurba_marseille","lat":43.292311,"lon":5.360731,"is_reserved":false,"is_disabled":false,"rental_uris":{"android":"levelo://app?vid=7f4d1554-7035-4dbb-a3b5-6508097fdee8","ios":"levelo://app?vid=7f4d1554-7035-4dbb-a3b5-6508097fdee8"},"vehicle_type_id":"4","last_reported":1708376832,"current_range_meters":10000,"station_id":"ce4bhbh2rcd13ifvqeqg","pricing_plan_id":"cebpf4jnsgd1na2vs0mg"},{"bike_id":"38e678fc-a604-4448-95f0-758be9a976a8","system_id":"levelo_inurba_marseille","lat":43.292311,"lon":5.360731,"is_reserved":false,"is_disabled":false,"rental_uris":{"android":"levelo://app?vid=38e678fc-a604-4448-95f0-758be9a976a8","ios":"levelo://app?vid=38e678fc-a604-4448-95f0-758be9a976a8"},"vehicle_type_id":"4","last_reported":1708376832,"current_range_meters":10000,"station_id":"ce4bhbh2rcd13ifvqeqg","pricing_plan_id":"cebpf4jnsgd1na2vs0mg"},{"bike_id":"4b27d897-22ea-4e3c-b737-f75584568374","system_id":"levelo_inurba_marseille","lat":43.292311,"lon":5.360731,"is_reserved":false,"is_disabled":false,"rental_uris":{"android":"levelo://app?vid=4b27d897-22ea-4e3c-b737-f75584568374","ios":"levelo://app?vid=4b27d897-22ea-4e3c-b737-f75584568374"},"vehicle_type_id":"4","last_reported":1708376832,"current_range_meters":24800,"station_id":"ce4bhbh2rcd13ifvqeqg","pricing_plan_id":"cebpf4jnsgd1na2vs0mg"},{"bike_id":"502cae09-cebf-48c2-8243-b37e57ccaceb","system_id":"levelo_inurba_marseille","lat":43.30085,"lon":5.390856,"is_reserved":false,"is_disabled":false,"rental_uris":{"android":"levelo://app?vid=502cae09-cebf-48c2-8243-b37e57ccaceb","ios":"levelo://app?vid=502cae09-cebf-48c2-8243-b37e57ccaceb"},"vehicle_type_id":"4","last_reported":1708376832,"current_range_meters":24800,"station_id":"ce4bh192rcd13ifvqdb0","pricing_plan_id":"cebpf4jnsgd1na2vs0mg"},{"bike_id":"8ac9a789-ac66-4bfc-937c-cf8bf287d8d7","system_id":"levelo_inurba_marseille","lat":43.292311,"lon":5.360731,"is_reserved":false,"is_disabled":false,"rental_uris":{"android":"levelo://app?vid=8ac9a789-ac66-4bfc-937c-cf8bf287d8d7","ios":"levelo://app?vid=8ac9a789-ac66-4bfc-937c-cf8bf287d8d7"},"vehicle_type_id":"4","last_reported":1708376832,"current_range_meters":23600,"station_id":"ce4bhbh2rcd13ifvqeqg","pricing_plan_id":"cebpf4jnsgd1na2vs0mg"},{"bike_id":"f9d18a34-de10-46c7-8864-b6235bb7d3b7","system_id":"levelo_inurba_marseille","lat":43.292311,"lon":5.360731,"is_reserved":false,"is_disabled":false,"rental_uris":{"android":"levelo://app?vid=f9d18a34-de10-46c7-8864-b6235bb7d3b7","ios":"levelo://app?vid=f9d18a34-de10-46c7-8864-b6235bb7d3b7"},"vehicle_type_id":"4","last_reported":1708376832,"current_range_meters":21200,"station_id":"ce4bhbh2rcd13ifvqeqg","pricing_plan_id":"cebpf4jnsgd1na2vs0mg"},{"bike_id":"d32053c2-016f-4013-bb17-9a396e2a21a4","system_id":"levelo_inurba_marseille","lat":43.292228,"lon":5.360502,"is_reserved":false,"is_disabled":false,"rental_uris":{"android":"levelo://app?vid=d32053c2-016f-4013-bb17-9a396e2a21a4","ios":"levelo://app?vid=d32053c2-016f-4013-bb17-9a396e2a21a4"},"vehicle_type_id":"4","last_reported":1708376832,"current_range_meters":29200,"station_id":"ce4bhbh2rcd13ifvqeqg","pricing_plan_id":"cebpf4jnsgd1na2vs0mg"},{"bike_id":"bc7dd6d8-5622-4b45-b827-8ed3f73babd7","system_id":"levelo_inurba_marseille","lat":43.292188,"lon":5.360475,"is_reserved":false,"is_disabled":false,"rental_uris":{"android":"levelo://app?vid=bc7dd6d8-5622-4b45-b827-8ed3f73babd7","ios":"levelo://app?vid=bc7dd6d8-5622-4b45-b827-8ed3f73babd7"},"vehicle_type_id":"4","last_reported":1708376832,"current_range_meters":25600,"station_id":"ce4bhbh2rcd13ifvqeqg","pricing_plan_id":"cebpf4jnsgd1na2vs0mg"},{"bike_id":"44353ecc-da34-47dd-8a62-16d25e9b51f5","system_id":"levelo_inurba_marseille","lat":43.29216,"lon":5.37358,"is_reserved":false,"is_disabled":false,"rental_uris":{"android":"levelo://app?vid=44353ecc-da34-47dd-8a62-16d25e9b51f5","ios":"levelo://app?vid=44353ecc-da34-47dd-8a62-16d25e9b51f5"},"vehicle_type_id":"4","last_reported":1708376832,"current_range_meters":2400,"station_id":"","pricing_plan_id":"cebpf4jnsgd1na2vs0mg"},{"bike_id":"f6ca420a-1b92-4b6e-a220-8a9f5f8dcf57","system_id":"levelo_inurba_marseille","lat":43.29267,"lon":5.376173,"is_reserved":false,"is_disabled":false,"rental_uris":{"android":"levelo://app?vid=f6ca420a-1b92-4b6e-a220-8a9f5f8dcf57","ios":"levelo://app?vid=f6ca420a-1b92-4b6e-a220-8a9f5f8dcf57"},"vehicle_type_id":"4","last_reported":1708376832,"current_range_meters":19200,"station_id":"","pricing_plan_id":"cebpf4jnsgd1na2vs0mg"},{"bike_id":"06803eb3-1b79-4a01-90ee-1a75be0b0f00","system_id":"levelo_inurba_marseille","lat":43.298764,"lon":5.388973,"is_reserved":false,"is_disabled":false,"rental_uris":{"android":"levelo://app?vid=06803eb3-1b79-4a01-90ee-1a75be0b0f00","ios":"levelo://app?vid=06803eb3-1b79-4a01-90ee-1a75be0b0f00"},"vehicle_type_id":"4","last_reported":1708376832,"current_range_meters":12400,"station_id":"ce4bh392rcd13ifvqdl0","pricing_plan_id":"cebpf4jnsgd1na2vs0mg"},{"bike_id":"a5d49166-62fe-41bd-8bee-6062b26689ee","system_id":"levelo_inurba_marseille","lat":43.298764,"lon":5.388973,"is_reserved":false,"is_disabled":false,"rental_uris":{"android":"levelo://app?vid=a5d49166-62fe-41bd-8bee-6062b26689ee","ios":"levelo://app?vid=a5d49166-62fe-41bd-8bee-6062b26689ee"},"vehicle_type_id":"4","last_reported":1708376832,"current_range_meters":18400,"station_id":"ce4bh392rcd13ifvqdl0","pricing_plan_id":"cebpf4jnsgd1na2vs0mg"},{"bike_id":"6a8381fa-beae-4cdb-83bd-acb8b5135a35","system_id":"levelo_inurba_marseille","lat":43.298764,"lon":5.388973,"is_reserved":false,"is_disabled":false,"rental_uris":{"android":"levelo://app?vid=6a8381fa-beae-4cdb-83bd-acb8b5135a35","ios":"levelo://app?vid=6a8381fa-beae-4cdb-83bd-acb8b5135a35"},"vehicle_type_id":"4","last_reported":1708376832,"current_range_meters":14400,"station_id":"ce4bh392rcd13ifvqdl0","pricing_plan_id":"cebpf4jnsgd1na2vs0mg"},{"bike_id":"2ff98eb7-d90c-47dd-a14b-2a87a95fe49f","system_id":"levelo_inurba_marseille","lat":43.298764,"lon":5.388973,"is_reserved":false,"is_disabled":false,"rental_uris":{"android":"levelo://app?vid=2ff98eb7-d90c-47dd-a14b-2a87a95fe49f","ios":"levelo://app?vid=2ff98eb7-d90c-47dd-a14b-2a87a95fe49f"},"vehicle_type_id":"4","last_reported":1708376832,"current_range_meters":15200,"station_id":"ce4bh392rcd13ifvqdl0","pricing_plan_id":"cebpf4jnsgd1na2vs0mg"},{"bike_id":"a8adc832-7e45-4c41-9a91-6120d3fa77b4","system_id":"levelo_inurba_marseille","lat":43.298764,"lon":5.388973,"is_reserved":false,"is_disabled":false,"rental_uris":{"android":"levelo://app?vid=a8adc832-7e45-4c41-9a91-6120d3fa77b4","ios":"levelo://app?vid=a8adc832-7e45-4c41-9a91-6120d3fa77b4"},"vehicle_type_id":"4","last_reported":1708376832,"current_range_meters":15600,"station_id":"ce4bh392rcd13ifvqdl0","pricing_plan_id":"cebpf4jnsgd1na2vs0mg"},{"bike_id":"9f33d0f2-ce92-4065-a003-d3e306806f1d","system_id":"levelo_inurba_marseille","lat":43.3089,"lon":5.39627,"is_reserved":false,"is_disabled":false,"rental_uris":{"android":"levelo://app?vid=9f33d0f2-ce92-4065-a003-d3e306806f1d","ios":"levelo://app?vid=9f33d0f2-ce92-4065-a003-d3e306806f1d"},"vehicle_type_id":"4","last_reported":1708376832,"current_range_meters":24000,"station_id":"ce4bh012rcd13ifvqcv0","pricing_plan_id":"cebpf4jnsgd1na2vs0mg"},{"bike_id":"f56ab3ba-0120-4e74-8550-905d7dc0e3d1","system_id":"levelo_inurba_marseille","lat":43.309038,"lon":5.396546,"is_reserved":false,"is_disabled":false,"rental_uris":{"android":"levelo://app?vid=f56ab3ba-0120-4e74-8550-905d7dc0e3d1","ios":"levelo://app?vid=f56ab3ba-0120-4e74-8550-905d7dc0e3d1"},"vehicle_type_id":"4","last_reported":1708376832,"current_range_meters":16000,"station_id":"ce4bh012rcd13ifvqcv0","pricing_plan_id":"cebpf4jnsgd1na2vs0mg"},{"bike_id":"86ae2794-98a4-4c6c-8dc2-0bd9e685c9e5","system_id":"levelo_inurba_marseille","lat":43.291994,"lon":5.357886,"is_reserved":false,"is_disabled":false,"rental_uris":{"android":"levelo://app?vid=86ae2794-98a4-4c6c-8dc2-0bd9e685c9e5","ios":"levelo://app?vid=86ae2794-98a4-4c6c-8dc2-0bd9e685c9e5"},"vehicle_type_id":"4","last_reported":1708376832,"current_range_meters":30000,"station_id":"ce4bhb12rcd13ifvqel0","pricing_plan_id":"cebpf4jnsgd1na2vs0mg"},{"bike_id":"b8a24971-25ad-4674-ae1a-8fdff4dab901","system_id":"levelo_inurba_marseille","lat":43.291994,"lon":5.357886,"is_reserved":false,"is_disabled":false,"rental_uris":{"android":"levelo://app?vid=b8a24971-25ad-4674-ae1a-8fdff4dab901","ios":"levelo://app?vid=b8a24971-25ad-4674-ae1a-8fdff4dab901"},"vehicle_type_id":"4","last_reported":1708376832,"current_range_meters":2000,"station_id":"ce4bhb12rcd13ifvqel0","pricing_plan_id":"cebpf4jnsgd1na2vs0mg"},{"bike_id":"496762b4-ed93-457c-9ad5-0d07e9426156","system_id":"levelo_inurba_marseille","lat":43.291994,"lon":5.357886,"is_reserved":false,"is_disabled":false,"rental_uris":{"android":"levelo://app?vid=496762b4-ed93-457c-9ad5-0d07e9426156","ios":"levelo://app?vid=496762b4-ed93-457c-9ad5-0d07e9426156"},"vehicle_type_id":"4","last_reported":1708376832,"current_range_meters":24000,"station_id":"ce4bhb12rcd13ifvqel0","pricing_plan_id":"cebpf4jnsgd1na2vs0mg"},{"bike_id":"022ad871-0efc-4ba3-b813-6250f276730c","system_id":"levelo_inurba_marseille","lat":43.291994,"lon":5.357886,"is_reserved":false,"is_disabled":false,"rental_uris":{"android":"levelo://app?vid=022ad871-0efc-4ba3-b813-6250f276730c","ios":"levelo://app?vid=022ad871-0efc-4ba3-b813-6250f276730c"},"vehicle_type_id":"4","last_reported":1708376832,"current_range_meters":16800,"station_id":"ce4bhb12rcd13ifvqel0","pricing_plan_id":"cebpf4jnsgd1na2vs0mg"},{"bike_id":"c35b1c73-8760-4c1e-af98-17ca5ba0cbcb","system_id":"levelo_inurba_marseille","lat":43.309038,"lon":5.396546,"is_reserved":false,"is_disabled":false,"rental_uris":{"android":"levelo://app?vid=c35b1c73-8760-4c1e-af98-17ca5ba0cbcb","ios":"levelo://app?vid=c35b1c73-8760-4c1e-af98-17ca5ba0cbcb"},"vehicle_type_id":"4","last_reported":1708376832,"current_range_meters":20400,"station_id":"ce4bh012rcd13ifvqcv0","pricing_plan_id":"cebpf4jnsgd1na2vs0mg"},{"bike_id":"6c4f712b-8037-4932-99eb-53873955d2e5","system_id":"levelo_inurba_marseille","lat":43.291994,"lon":5.357886,"is_reserved":false,"is_disabled":false,"rental_uris":{"android":"levelo://app?vid=6c4f712b-8037-4932-99eb-53873955d2e5","ios":"levelo://app?vid=6c4f712b-8037-4932-99eb-53873955d2e5"},"vehicle_type_id":"4","last_reported":1708376832,"current_range_meters":2400,"station_id":"ce4bhb12rcd13ifvqel0","pricing_plan_id":"cebpf4jnsgd1na2vs0mg"},{"bike_id":"5a103a17-b3af-4569-9d8f-18c76ab68a3e","system_id":"levelo_inurba_marseille","lat":43.309038,"lon":5.396546,"is_reserved":false,"is_disabled":false,"rental_uris":{"android":"levelo://app?vid=5a103a17-b3af-4569-9d8f-18c76ab68a3e","ios":"levelo://app?vid=5a103a17-b3af-4569-9d8f-18c76ab68a3e"},"vehicle_type_id":"4","last_reported":1708376832,"current_range_meters":1200,"station_id":"ce4bh012rcd13ifvqcv0","pricing_plan_id":"cebpf4jnsgd1na2vs0mg"},{"bike_id":"c256e8eb-5561-44ca-aa79-c951a04ed417","system_id":"levelo_inurba_marseille","lat":43.309038,"lon":5.396546,"is_reserved":false,"is_disabled":false,"rental_uris":{"android":"levelo://app?vid=c256e8eb-5561-44ca-aa79-c951a04ed417","ios":"levelo://app?vid=c256e8eb-5561-44ca-aa79-c951a04ed417"},"vehicle_type_id":"4","last_reported":1708376832,"current_range_meters":22400,"station_id":"ce4bh012rcd13ifvqcv0","pricing_plan_id":"cebpf4jnsgd1na2vs0mg"},{"bike_id":"5c2bb1cb-cdf1-4d3e-a120-6a49abc38c4f","system_id":"levelo_inurba_marseille","lat":43.309038,"lon":5.396546,"is_reserved":false,"is_disabled":false,"rental_uris":{"android":"levelo://app?vid=5c2bb1cb-cdf1-4d3e-a120-6a49abc38c4f","ios":"levelo://app?vid=5c2bb1cb-cdf1-4d3e-a120-6a49abc38c4f"},"vehicle_type_id":"4","last_reported":1708376832,"current_range_meters":22400,"station_id":"ce4bh012rcd13ifvqcv0","pricing_plan_id":"cebpf4jnsgd1na2vs0mg"},{"bike_id":"da367d11-5361-4c10-82f2-f255d1ad2afe","system_id":"levelo_inurba_marseille","lat":43.309038,"lon":5.396546,"is_reserved":false,"is_disabled":false,"rental_uris":{"android":"levelo://app?vid=da367d11-5361-4c10-82f2-f255d1ad2afe","ios":"levelo://app?vid=da367d11-5361-4c10-82f2-f255d1ad2afe"},"vehicle_type_id":"4","last_reported":1708376832,"current_range_meters":6800,"station_id":"ce4bh012rcd13ifvqcv0","pricing_plan_id":"cebpf4jnsgd1na2vs0mg"},{"bike_id":"cb0639bd-179f-44e0-989b-e3b6a05b75a4","system_id":"levelo_inurba_marseille","lat":43.309038,"lon":5.396546,"is_reserved":false,"is_disabled":false,"rental_uris":{"android":"levelo://app?vid=cb0639bd-179f-44e0-989b-e3b6a05b75a4","ios":"levelo://app?vid=cb0639bd-179f-44e0-989b-e3b6a05b75a4"},"vehicle_type_id":"4","last_reported":1708376832,"current_range_meters":7600,"station_id":"ce4bh012rcd13ifvqcv0","pricing_plan_id":"cebpf4jnsgd1na2vs0mg"},{"bike_id":"bfe3992b-9eb8-4106-b207-9c07bdd3b28e","system_id":"levelo_inurba_marseille","lat":43.309099,"lon":5.396535,"is_reserved":false,"is_disabled":false,"rental_uris":{"android":"levelo://app?vid=bfe3992b-9eb8-4106-b207-9c07bdd3b28e","ios":"levelo://app?vid=bfe3992b-9eb8-4106-b207-9c07bdd3b28e"},"vehicle_type_id":"4","last_reported":1708376832,"current_range_meters":4400,"station_id":"ce4bh012rcd13ifvqcv0","pricing_plan_id":"cebpf4jnsgd1na2vs0mg"},{"bike_id":"3cd5ba5c-ab88-4937-935c-89f0e00fff91","system_id":"levelo_inurba_marseille","lat":43.313291,"lon":5.396838,"is_reserved":false,"is_disabled":false,"rental_uris":{"android":"levelo://app?vid=3cd5ba5c-ab88-4937-935c-89f0e00fff91","ios":"levelo://app?vid=3cd5ba5c-ab88-4937-935c-89f0e00fff91"},"vehicle_type_id":"4","last_reported":1708376832,"current_range_meters":0,"station_id":"ce4bgvp2rcd13ifvqcu0","pricing_plan_id":"cebpf4jnsgd1na2vs0mg"},{"bike_id":"bab24dd4-9f77-415d-ad48-c773efdf66ca","system_id":"levelo_inurba_marseille","lat":43.29529,"lon":5.385581,"is_reserved":false,"is_disabled":false,"rental_uris":{"android":"levelo://app?vid=bab24dd4-9f77-415d-ad48-c773efdf66ca","ios":"levelo://app?vid=bab24dd4-9f77-415d-ad48-c773efdf66ca"},"vehicle_type_id":"4","last_reported":1708376832,"current_range_meters":29600,"station_id":"ce4bgih2rcd13ifvqba0","pricing_plan_id":"cebpf4jnsgd1na2vs0mg"},{"bike_id":"568621b2-5a5d-4655-9d35-f5500f44e7ea","system_id":"levelo_inurba_marseille","lat":43.29529,"lon":5.385581,"is_reserved":false,"is_disabled":false,"rental_uris":{"android":"levelo://app?vid=568621b2-5a5d-4655-9d35-f5500f44e7ea","ios":"levelo://app?vid=568621b2-5a5d-4655-9d35-f5500f44e7ea"},"vehicle_type_id":"4","last_reported":1708376832,"current_range_meters":9200,"station_id":"ce4bgih2rcd13ifvqba0","pricing_plan_id":"cebpf4jnsgd1na2vs0mg"},{"bike_id":"4b7fe8b9-b4e7-4ced-958e-dc1e1f4aa236","system_id":"levelo_inurba_marseille","lat":43.29529,"lon":5.385581,"is_reserved":false,"is_disabled":false,"rental_uris":{"android":"levelo://app?vid=4b7fe8b9-b4e7-4ced-958e-dc1e1f4aa236","ios":"levelo://app?vid=4b7fe8b9-b4e7-4ced-958e-dc1e1f4aa236"},"vehicle_type_id":"4","last_reported":1708376832,"current_range_meters":21200,"station_id":"ce4bgih2rcd13ifvqba0","pricing_plan_id":"cebpf4jnsgd1na2vs0mg"},{"bike_id":"4760f9b1-198f-4f50-ad70-2cad0de1d54a","system_id":"levelo_inurba_marseille","lat":43.309038,"lon":5.396546,"is_reserved":false,"is_disabled":false,"rental_uris":{"android":"levelo://app?vid=4760f9b1-198f-4f50-ad70-2cad0de1d54a","ios":"levelo://app?vid=4760f9b1-198f-4f50-ad70-2cad0de1d54a"},"vehicle_type_id":"4","last_reported":1708376832,"current_range_meters":26800,"station_id":"ce4bh012rcd13ifvqcv0","pricing_plan_id":"cebpf4jnsgd1na2vs0mg"},{"bike_id":"4be0d9ed-4068-4b7e-90d1-387998dac091","system_id":"levelo_inurba_marseille","lat":43.29529,"lon":5.385581,"is_reserved":false,"is_disabled":false,"rental_uris":{"android":"levelo://app?vid=4be0d9ed-4068-4b7e-90d1-387998dac091","ios":"levelo://app?vid=4be0d9ed-4068-4b7e-90d1-387998dac091"},"vehicle_type_id":"4","last_reported":1708376832,"current_range_meters":27600,"station_id":"ce4bgih2rcd13ifvqba0","pricing_plan_id":"cebpf4jnsgd1na2vs0mg"},{"bike_id":"2fed8b98-e0b2-4302-a8f6-3146e7d21d81","system_id":"levelo_inurba_marseille","lat":43.29529,"lon":5.385581,"is_reserved":false,"is_disabled":false,"rental_uris":{"android":"levelo://app?vid=2fed8b98-e0b2-4302-a8f6-3146e7d21d81","ios":"levelo://app?vid=2fed8b98-e0b2-4302-a8f6-3146e7d21d81"},"vehicle_type_id":"4","last_reported":1708376832,"current_range_meters":21600,"station_id":"ce4bgih2rcd13ifvqba0","pricing_plan_id":"cebpf4jnsgd1na2vs0mg"},{"bike_id":"b77ddd61-62c4-4e40-93bb-789355930db5","system_id":"levelo_inurba_marseille","lat":43.29529,"lon":5.385581,"is_reserved":false,"is_disabled":false,"rental_uris":{"android":"levelo://app?vid=b77ddd61-62c4-4e40-93bb-789355930db5","ios":"levelo://app?vid=b77ddd61-62c4-4e40-93bb-789355930db5"},"vehicle_type_id":"4","last_reported":1708376832,"current_range_meters":30400,"station_id":"ce4bgih2rcd13ifvqba0","pricing_plan_id":"cebpf4jnsgd1na2vs0mg"},{"bike_id":"40c91fe9-61e7-4aa9-9fc0-d448d56b093d","system_id":"levelo_inurba_marseille","lat":43.29529,"lon":5.385581,"is_reserved":false,"is_disabled":false,"rental_uris":{"android":"levelo://app?vid=40c91fe9-61e7-4aa9-9fc0-d448d56b093d","ios":"levelo://app?vid=40c91fe9-61e7-4aa9-9fc0-d448d56b093d"},"vehicle_type_id":"4","last_reported":1708376832,"current_range_meters":20400,"station_id":"ce4bgih2rcd13ifvqba0","pricing_plan_id":"cebpf4jnsgd1na2vs0mg"},{"bike_id":"c1e01c7b-5d19-43a8-865f-1b56c20994fa","system_id":"levelo_inurba_marseille","lat":43.29529,"lon":5.385581,"is_reserved":false,"is_disabled":false,"rental_uris":{"android":"levelo://app?vid=c1e01c7b-5d19-43a8-865f-1b56c20994fa","ios":"levelo://app?vid=c1e01c7b-5d19-43a8-865f-1b56c20994fa"},"vehicle_type_id":"4","last_reported":1708376832,"current_range_meters":27200,"station_id":"ce4bgih2rcd13ifvqba0","pricing_plan_id":"cebpf4jnsgd1na2vs0mg"},{"bike_id":"5149a820-d197-4afc-aa63-1a9e3a3c88e6","system_id":"levelo_inurba_marseille","lat":43.29529,"lon":5.385581,"is_reserved":false,"is_disabled":false,"rental_uris":{"android":"levelo://app?vid=5149a820-d197-4afc-aa63-1a9e3a3c88e6","ios":"levelo://app?vid=5149a820-d197-4afc-aa63-1a9e3a3c88e6"},"vehicle_type_id":"4","last_reported":1708376832,"current_range_meters":21600,"station_id":"ce4bgih2rcd13ifvqba0","pricing_plan_id":"cebpf4jnsgd1na2vs0mg"},{"bike_id":"ea383555-9157-48b6-9ff2-d3578b006850","system_id":"levelo_inurba_marseille","lat":43.29529,"lon":5.385581,"is_reserved":false,"is_disabled":false,"rental_uris":{"android":"levelo://app?vid=ea383555-9157-48b6-9ff2-d3578b006850","ios":"levelo://app?vid=ea383555-9157-48b6-9ff2-d3578b006850"},"vehicle_type_id":"4","last_reported":1708376832,"current_range_meters":30400,"station_id":"ce4bgih2rcd13ifvqba0","pricing_plan_id":"cebpf4jnsgd1na2vs0mg"},{"bike_id":"130ef5fe-0453-4694-bf93-6856449153f8","system_id":"levelo_inurba_marseille","lat":43.29529,"lon":5.385581,"is_reserved":false,"is_disabled":false,"rental_uris":{"android":"levelo://app?vid=130ef5fe-0453-4694-bf93-6856449153f8","ios":"levelo://app?vid=130ef5fe-0453-4694-bf93-6856449153f8"},"vehicle_type_id":"4","last_reported":1708376832,"current_range_meters":2800,"station_id":"ce4bgih2rcd13ifvqba0","pricing_plan_id":"cebpf4jnsgd1na2vs0mg"},{"bike_id":"e547d83f-3359-4aab-8a2d-a3d32b0d52a6","system_id":"levelo_inurba_marseille","lat":43.290779,"lon":5.371482,"is_reserved":false,"is_disabled":false,"rental_uris":{"android":"levelo://app?vid=e547d83f-3359-4aab-8a2d-a3d32b0d52a6","ios":"levelo://app?vid=e547d83f-3359-4aab-8a2d-a3d32b0d52a6"},"vehicle_type_id":"4","last_reported":1708376832,"current_range_meters":26400,"station_id":"ce4bh5p2rcd13ifvqe4g","pricing_plan_id":"cebpf4jnsgd1na2vs0mg"},{"bike_id":"e7876f45-4d69-483b-a229-b746ec292526","system_id":"levelo_inurba_marseille","lat":43.302008,"lon":5.394694,"is_reserved":false,"is_disabled":false,"rental_uris":{"android":"levelo://app?vid=e7876f45-4d69-483b-a229-b746ec292526","ios":"levelo://app?vid=e7876f45-4d69-483b-a229-b746ec292526"},"vehicle_type_id":"4","last_reported":1708376832,"current_range_meters":7600,"station_id":"ce4bh0p2rcd13ifvqd70","pricing_plan_id":"cebpf4jnsgd1na2vs0mg"},{"bike_id":"1a3f5879-003a-4d86-b4f4-00388a18b8ca","system_id":"levelo_inurba_marseille","lat":43.302008,"lon":5.394694,"is_reserved":false,"is_disabled":false,"rental_uris":{"android":"levelo://app?vid=1a3f5879-003a-4d86-b4f4-00388a18b8ca","ios":"levelo://app?vid=1a3f5879-003a-4d86-b4f4-00388a18b8ca"},"vehicle_type_id":"4","last_reported":1708376832,"current_range_meters":29200,"station_id":"ce4bh0p2rcd13ifvqd70","pricing_plan_id":"cebpf4jnsgd1na2vs0mg"},{"bike_id":"1a5925eb-b513-44e9-bdb4-da13b640e4e0","system_id":"levelo_inurba_marseille","lat":43.302008,"lon":5.394694,"is_reserved":false,"is_disabled":false,"rental_uris":{"android":"levelo://app?vid=1a5925eb-b513-44e9-bdb4-da13b640e4e0","ios":"levelo://app?vid=1a5925eb-b513-44e9-bdb4-da13b640e4e0"},"vehicle_type_id":"4","last_reported":1708376832,"current_range_meters":24400,"station_id":"ce4bh0p2rcd13ifvqd70","pricing_plan_id":"cebpf4jnsgd1na2vs0mg"},{"bike_id":"113b5df0-06f8-432e-9644-6329de3156dc","system_id":"levelo_inurba_marseille","lat":43.302008,"lon":5.394694,"is_reserved":false,"is_disabled":false,"rental_uris":{"android":"levelo://app?vid=113b5df0-06f8-432e-9644-6329de3156dc","ios":"levelo://app?vid=113b5df0-06f8-432e-9644-6329de3156dc"},"vehicle_type_id":"4","last_reported":1708376832,"current_range_meters":25200,"station_id":"ce4bh0p2rcd13ifvqd70","pricing_plan_id":"cebpf4jnsgd1na2vs0mg"},{"bike_id":"a7c6ac1b-ebbf-400c-973b-c0dd82a9922e","system_id":"levelo_inurba_marseille","lat":43.302008,"lon":5.394694,"is_reserved":false,"is_disabled":false,"rental_uris":{"android":"levelo://app?vid=a7c6ac1b-ebbf-400c-973b-c0dd82a9922e","ios":"levelo://app?vid=a7c6ac1b-ebbf-400c-973b-c0dd82a9922e"},"vehicle_type_id":"4","last_reported":1708376832,"current_range_meters":12000,"station_id":"ce4bh0p2rcd13ifvqd70","pricing_plan_id":"cebpf4jnsgd1na2vs0mg"},{"bike_id":"a32df588-7861-4d35-8a36-3120498d3b8f","system_id":"levelo_inurba_marseille","lat":43.290631,"lon":5.359244,"is_reserved":false,"is_disabled":false,"rental_uris":{"android":"levelo://app?vid=a32df588-7861-4d35-8a36-3120498d3b8f","ios":"levelo://app?vid=a32df588-7861-4d35-8a36-3120498d3b8f"},"vehicle_type_id":"4","last_reported":1708376832,"current_range_meters":19600,"station_id":"ce4bha92rcd13ifvqeg0","pricing_plan_id":"cebpf4jnsgd1na2vs0mg"},{"bike_id":"096cc9e4-c605-44af-bfd2-61a654309cda","system_id":"levelo_inurba_marseille","lat":43.290631,"lon":5.359244,"is_reserved":false,"is_disabled":false,"rental_uris":{"android":"levelo://app?vid=096cc9e4-c605-44af-bfd2-61a654309cda","ios":"levelo://app?vid=096cc9e4-c605-44af-bfd2-61a654309cda"},"vehicle_type_id":"4","last_reported":1708376832,"current_range_meters":28000,"station_id":"ce4bha92rcd13ifvqeg0","pricing_plan_id":"cebpf4jnsgd1na2vs0mg"},{"bike_id":"c662e9d1-5a66-4b42-822d-fcc8221d0a4e","system_id":"levelo_inurba_marseille","lat":43.290631,"lon":5.359244,"is_reserved":false,"is_disabled":false,"rental_uris":{"android":"levelo://app?vid=c662e9d1-5a66-4b42-822d-fcc8221d0a4e","ios":"levelo://app?vid=c662e9d1-5a66-4b42-822d-fcc8221d0a4e"},"vehicle_type_id":"4","last_reported":1708376832,"current_range_meters":21200,"station_id":"ce4bha92rcd13ifvqeg0","pricing_plan_id":"cebpf4jnsgd1na2vs0mg"},{"bike_id":"f3621e31-2802-4d00-9575-e569e4cadbd9","system_id":"levelo_inurba_marseille","lat":43.290624,"lon":5.359245,"is_reserved":false,"is_disabled":false,"rental_uris":{"android":"levelo://app?vid=f3621e31-2802-4d00-9575-e569e4cadbd9","ios":"levelo://app?vid=f3621e31-2802-4d00-9575-e569e4cadbd9"},"vehicle_type_id":"4","last_reported":1708376832,"current_range_meters":30400,"station_id":"ce4bha92rcd13ifvqeg0","pricing_plan_id":"cebpf4jnsgd1na2vs0mg"},{"bike_id":"2e1d4998-865b-4cff-8f2b-d91194e03c79","system_id":"levelo_inurba_marseille","lat":43.294153,"lon":5.386305,"is_reserved":false,"is_disabled":false,"rental_uris":{"android":"levelo://app?vid=2e1d4998-865b-4cff-8f2b-d91194e03c79","ios":"levelo://app?vid=2e1d4998-865b-4cff-8f2b-d91194e03c79"},"vehicle_type_id":"4","last_reported":1708376832,"current_range_meters":0,"station_id":"ce4bh2h2rcd13ifvqdh0","pricing_plan_id":"cebpf4jnsgd1na2vs0mg"},{"bike_id":"432661e7-96fd-4027-8311-a20c94a0b10d","system_id":"levelo_inurba_marseille","lat":43.289184,"lon":5.366408,"is_reserved":false,"is_disabled":false,"rental_uris":{"android":"levelo://app?vid=432661e7-96fd-4027-8311-a20c94a0b10d","ios":"levelo://app?vid=432661e7-96fd-4027-8311-a20c94a0b10d"},"vehicle_type_id":"4","last_reported":1708376832,"current_range_meters":31200,"station_id":"ce4bhap2rcd13ifvqek0","pricing_plan_id":"cebpf4jnsgd1na2vs0mg"},{"bike_id":"7d1ec4a4-68f4-4667-877e-11f51144dc14","system_id":"levelo_inurba_marseille","lat":43.29425,"lon":5.38617,"is_reserved":false,"is_disabled":false,"rental_uris":{"android":"levelo://app?vid=7d1ec4a4-68f4-4667-877e-11f51144dc14","ios":"levelo://app?vid=7d1ec4a4-68f4-4667-877e-11f51144dc14"},"vehicle_type_id":"4","last_reported":1708376832,"current_range_meters":16800,"station_id":"ce4bh2h2rcd13ifvqdh0","pricing_plan_id":"cebpf4jnsgd1na2vs0mg"},{"bike_id":"fccd6f11-b371-4d22-a884-0583ab126210","system_id":"levelo_inurba_marseille","lat":43.294153,"lon":5.386305,"is_reserved":false,"is_disabled":false,"rental_uris":{"android":"levelo://app?vid=fccd6f11-b371-4d22-a884-0583ab126210","ios":"levelo://app?vid=fccd6f11-b371-4d22-a884-0583ab126210"},"vehicle_type_id":"4","last_reported":1708376832,"current_range_meters":6400,"station_id":"ce4bh2h2rcd13ifvqdh0","pricing_plan_id":"cebpf4jnsgd1na2vs0mg"},{"bike_id":"aa5aabab-ed51-480d-9f23-63fc561a6a08","system_id":"levelo_inurba_marseille","lat":43.290319,"lon":5.375732,"is_reserved":false,"is_disabled":false,"rental_uris":{"android":"levelo://app?vid=aa5aabab-ed51-480d-9f23-63fc561a6a08","ios":"levelo://app?vid=aa5aabab-ed51-480d-9f23-63fc561a6a08"},"vehicle_type_id":"4","last_reported":1708376832,"current_range_meters":17200,"station_id":"ce4bh692rcd13ifvqe90","pricing_plan_id":"cebpf4jnsgd1na2vs0mg"},{"bike_id":"b33817c0-afbd-4345-8331-e2236d100358","system_id":"levelo_inurba_marseille","lat":43.294153,"lon":5.386305,"is_reserved":false,"is_disabled":false,"rental_uris":{"android":"levelo://app?vid=b33817c0-afbd-4345-8331-e2236d100358","ios":"levelo://app?vid=b33817c0-afbd-4345-8331-e2236d100358"},"vehicle_type_id":"4","last_reported":1708376832,"current_range_meters":4400,"station_id":"ce4bh2h2rcd13ifvqdh0","pricing_plan_id":"cebpf4jnsgd1na2vs0mg"},{"bike_id":"4a3f62fa-d70f-403e-a9d1-bc5e66de800e","system_id":"levelo_inurba_marseille","lat":43.29421,"lon":5.3862,"is_reserved":false,"is_disabled":false,"rental_uris":{"android":"levelo://app?vid=4a3f62fa-d70f-403e-a9d1-bc5e66de800e","ios":"levelo://app?vid=4a3f62fa-d70f-403e-a9d1-bc5e66de800e"},"vehicle_type_id":"4","last_reported":1708376832,"current_range_meters":0,"station_id":"ce4bh2h2rcd13ifvqdh0","pricing_plan_id":"cebpf4jnsgd1na2vs0mg"},{"bike_id":"37b990c0-7ed6-4817-898a-415a856812f8","system_id":"levelo_inurba_marseille","lat":43.29427,"lon":5.38633,"is_reserved":false,"is_disabled":false,"rental_uris":{"android":"levelo://app?vid=37b990c0-7ed6-4817-898a-415a856812f8","ios":"levelo://app?vid=37b990c0-7ed6-4817-898a-415a856812f8"},"vehicle_type_id":"4","last_reported":1708376832,"current_range_meters":800,"station_id":"ce4bh2h2rcd13ifvqdh0","pricing_plan_id":"cebpf4jnsgd1na2vs0mg"},{"bike_id":"35ca9118-ca05-4bf7-892e-c86df613b4c6","system_id":"levelo_inurba_marseille","lat":43.290327,"lon":5.375711,"is_reserved":false,"is_disabled":false,"rental_uris":{"android":"levelo://app?vid=35ca9118-ca05-4bf7-892e-c86df613b4c6","ios":"levelo://app?vid=35ca9118-ca05-4bf7-892e-c86df613b4c6"},"vehicle_type_id":"4","last_reported":1708376832,"current_range_meters":24400,"station_id":"ce4bh692rcd13ifvqe90","pricing_plan_id":"cebpf4jnsgd1na2vs0mg"},{"bike_id":"e39bbe07-48a8-483b-a214-195fe286f982","system_id":"levelo_inurba_marseille","lat":43.294162,"lon":5.386292,"is_reserved":false,"is_disabled":false,"rental_uris":{"android":"levelo://app?vid=e39bbe07-48a8-483b-a214-195fe286f982","ios":"levelo://app?vid=e39bbe07-48a8-483b-a214-195fe286f982"},"vehicle_type_id":"4","last_reported":1708376832,"current_range_meters":6000,"station_id":"ce4bh2h2rcd13ifvqdh0","pricing_plan_id":"cebpf4jnsgd1na2vs0mg"},{"bike_id":"1de5be10-fb66-4efe-8885-fac88c072540","system_id":"levelo_inurba_marseille","lat":43.294162,"lon":5.386292,"is_reserved":false,"is_disabled":false,"rental_uris":{"android":"levelo://app?vid=1de5be10-fb66-4efe-8885-fac88c072540","ios":"levelo://app?vid=1de5be10-fb66-4efe-8885-fac88c072540"},"vehicle_type_id":"4","last_reported":1708376832,"current_range_meters":20000,"station_id":"ce4bh2h2rcd13ifvqdh0","pricing_plan_id":"cebpf4jnsgd1na2vs0mg"},{"bike_id":"34018b6b-a20d-4f2a-a01f-095c7cf9f8ac","system_id":"levelo_inurba_marseille","lat":43.289184,"lon":5.366408,"is_reserved":false,"is_disabled":false,"rental_uris":{"android":"levelo://app?vid=34018b6b-a20d-4f2a-a01f-095c7cf9f8ac","ios":"levelo://app?vid=34018b6b-a20d-4f2a-a01f-095c7cf9f8ac"},"vehicle_type_id":"4","last_reported":1708376832,"current_range_meters":28400,"station_id":"ce4bhap2rcd13ifvqek0","pricing_plan_id":"cebpf4jnsgd1na2vs0mg"},{"bike_id":"f21b13a1-3fd9-460a-8d56-795c7ff241c7","system_id":"levelo_inurba_marseille","lat":43.29416,"lon":5.38621,"is_reserved":false,"is_disabled":false,"rental_uris":{"android":"levelo://app?vid=f21b13a1-3fd9-460a-8d56-795c7ff241c7","ios":"levelo://app?vid=f21b13a1-3fd9-460a-8d56-795c7ff241c7"},"vehicle_type_id":"4","last_reported":1708376832,"current_range_meters":0,"station_id":"ce4bh2h2rcd13ifvqdh0","pricing_plan_id":"cebpf4jnsgd1na2vs0mg"},{"bike_id":"7be16c38-c126-4ef6-bb63-caf198488d69","system_id":"levelo_inurba_marseille","lat":43.289184,"lon":5.366408,"is_reserved":false,"is_disabled":false,"rental_uris":{"android":"levelo://app?vid=7be16c38-c126-4ef6-bb63-caf198488d69","ios":"levelo://app?vid=7be16c38-c126-4ef6-bb63-caf198488d69"},"vehicle_type_id":"4","last_reported":1708376832,"current_range_meters":25600,"station_id":"ce4bhap2rcd13ifvqek0","pricing_plan_id":"cebpf4jnsgd1na2vs0mg"},{"bike_id":"16f66772-ff6f-4ff1-b4f6-67d25471b367","system_id":"levelo_inurba_marseille","lat":43.29125,"lon":5.37942,"is_reserved":false,"is_disabled":false,"rental_uris":{"android":"levelo://app?vid=16f66772-ff6f-4ff1-b4f6-67d25471b367","ios":"levelo://app?vid=16f66772-ff6f-4ff1-b4f6-67d25471b367"},"vehicle_type_id":"4","last_reported":1708376832,"current_range_meters":14400,"station_id":"","pricing_plan_id":"cebpf4jnsgd1na2vs0mg"},{"bike_id":"a6546b50-d234-4f6a-aa1e-f89413b59276","system_id":"levelo_inurba_marseille","lat":43.289468,"lon":5.363719,"is_reserved":false,"is_disabled":false,"rental_uris":{"android":"levelo://app?vid=a6546b50-d234-4f6a-aa1e-f89413b59276","ios":"levelo://app?vid=a6546b50-d234-4f6a-aa1e-f89413b59276"},"vehicle_type_id":"4","last_reported":1708376832,"current_range_meters":6000,"station_id":"ce4bhc92rcd13ifvqetg","pricing_plan_id":"cebpf4jnsgd1na2vs0mg"},{"bike_id":"a0adad83-c911-4527-9595-004dd160d60c","system_id":"levelo_inurba_marseille","lat":43.289184,"lon":5.366408,"is_reserved":false,"is_disabled":false,"rental_uris":{"android":"levelo://app?vid=a0adad83-c911-4527-9595-004dd160d60c","ios":"levelo://app?vid=a0adad83-c911-4527-9595-004dd160d60c"},"vehicle_type_id":"4","last_reported":1708376832,"current_range_meters":12000,"station_id":"ce4bhap2rcd13ifvqek0","pricing_plan_id":"cebpf4jnsgd1na2vs0mg"},{"bike_id":"ea537f6e-9fba-40a7-99ef-49d8b4d97d4e","system_id":"levelo_inurba_marseille","lat":43.2894,"lon":5.3663,"is_reserved":false,"is_disabled":false,"rental_uris":{"android":"levelo://app?vid=ea537f6e-9fba-40a7-99ef-49d8b4d97d4e","ios":"levelo://app?vid=ea537f6e-9fba-40a7-99ef-49d8b4d97d4e"},"vehicle_type_id":"4","last_reported":1708376832,"current_range_meters":27200,"station_id":"ce4bhap2rcd13ifvqek0","pricing_plan_id":"cebpf4jnsgd1na2vs0mg"},{"bike_id":"c330d24c-5923-4cbc-afee-64809bfbfe80","system_id":"levelo_inurba_marseille","lat":43.289184,"lon":5.366408,"is_reserved":false,"is_disabled":false,"rental_uris":{"android":"levelo://app?vid=c330d24c-5923-4cbc-afee-64809bfbfe80","ios":"levelo://app?vid=c330d24c-5923-4cbc-afee-64809bfbfe80"},"vehicle_type_id":"4","last_reported":1708376832,"current_range_meters":22000,"station_id":"ce4bhap2rcd13ifvqek0","pricing_plan_id":"cebpf4jnsgd1na2vs0mg"},{"bike_id":"928d02b9-9129-451a-819b-290af6119de7","system_id":"levelo_inurba_marseille","lat":43.289184,"lon":5.366408,"is_reserved":false,"is_disabled":false,"rental_uris":{"android":"levelo://app?vid=928d02b9-9129-451a-819b-290af6119de7","ios":"levelo://app?vid=928d02b9-9129-451a-819b-290af6119de7"},"vehicle_type_id":"4","last_reported":1708376832,"current_range_meters":14000,"station_id":"ce4bhap2rcd13ifvqek0","pricing_plan_id":"cebpf4jnsgd1na2vs0mg"},{"bike_id":"23b42519-6572-4b85-96f1-6816e0dbaf76","system_id":"levelo_inurba_marseille","lat":43.289184,"lon":5.366408,"is_reserved":false,"is_disabled":false,"rental_uris":{"android":"levelo://app?vid=23b42519-6572-4b85-96f1-6816e0dbaf76","ios":"levelo://app?vid=23b42519-6572-4b85-96f1-6816e0dbaf76"},"vehicle_type_id":"4","last_reported":1708376832,"current_range_meters":31200,"station_id":"ce4bhap2rcd13ifvqek0","pricing_plan_id":"cebpf4jnsgd1na2vs0mg"},{"bike_id":"ced2ab6c-8711-4893-8dec-e590ebda7ddf","system_id":"levelo_inurba_marseille","lat":43.289184,"lon":5.366408,"is_reserved":false,"is_disabled":false,"rental_uris":{"android":"levelo://app?vid=ced2ab6c-8711-4893-8dec-e590ebda7ddf","ios":"levelo://app?vid=ced2ab6c-8711-4893-8dec-e590ebda7ddf"},"vehicle_type_id":"4","last_reported":1708376832,"current_range_meters":30400,"station_id":"ce4bhap2rcd13ifvqek0","pricing_plan_id":"cebpf4jnsgd1na2vs0mg"},{"bike_id":"4205f57d-942f-4c21-9089-4ab70f47911f","system_id":"levelo_inurba_marseille","lat":43.289468,"lon":5.363719,"is_reserved":false,"is_disabled":false,"rental_uris":{"android":"levelo://app?vid=4205f57d-942f-4c21-9089-4ab70f47911f","ios":"levelo://app?vid=4205f57d-942f-4c21-9089-4ab70f47911f"},"vehicle_type_id":"4","last_reported":1708376832,"current_range_meters":1200,"station_id":"ce4bhc92rcd13ifvqetg","pricing_plan_id":"cebpf4jnsgd1na2vs0mg"},{"bike_id":"bc805d30-5040-4256-9eb5-c5a7389d59f8","system_id":"levelo_inurba_marseille","lat":43.289184,"lon":5.366408,"is_reserved":false,"is_disabled":false,"rental_uris":{"android":"levelo://app?vid=bc805d30-5040-4256-9eb5-c5a7389d59f8","ios":"levelo://app?vid=bc805d30-5040-4256-9eb5-c5a7389d59f8"},"vehicle_type_id":"4","last_reported":1708376832,"current_range_meters":0,"station_id":"ce4bhap2rcd13ifvqek0","pricing_plan_id":"cebpf4jnsgd1na2vs0mg"},{"bike_id":"a33ca92a-352c-4ec0-a9a8-b8728f3cc3cf","system_id":"levelo_inurba_marseille","lat":43.289468,"lon":5.363719,"is_reserved":false,"is_disabled":false,"rental_uris":{"android":"levelo://app?vid=a33ca92a-352c-4ec0-a9a8-b8728f3cc3cf","ios":"levelo://app?vid=a33ca92a-352c-4ec0-a9a8-b8728f3cc3cf"},"vehicle_type_id":"4","last_reported":1708376832,"current_range_meters":27600,"station_id":"ce4bhc92rcd13ifvqetg","pricing_plan_id":"cebpf4jnsgd1na2vs0mg"},{"bike_id":"2a213f6e-ebaa-4f39-b5a6-e49b725a1e90","system_id":"levelo_inurba_marseille","lat":43.289184,"lon":5.366408,"is_reserved":false,"is_disabled":false,"rental_uris":{"android":"levelo://app?vid=2a213f6e-ebaa-4f39-b5a6-e49b725a1e90","ios":"levelo://app?vid=2a213f6e-ebaa-4f39-b5a6-e49b725a1e90"},"vehicle_type_id":"4","last_reported":1708376832,"current_range_meters":27600,"station_id":"ce4bhap2rcd13ifvqek0","pricing_plan_id":"cebpf4jnsgd1na2vs0mg"},{"bike_id":"39fb3a0b-b636-4855-b308-d8301b774522","system_id":"levelo_inurba_marseille","lat":43.289468,"lon":5.363719,"is_reserved":false,"is_disabled":false,"rental_uris":{"android":"levelo://app?vid=39fb3a0b-b636-4855-b308-d8301b774522","ios":"levelo://app?vid=39fb3a0b-b636-4855-b308-d8301b774522"},"vehicle_type_id":"4","last_reported":1708376832,"current_range_meters":26800,"station_id":"ce4bhc92rcd13ifvqetg","pricing_plan_id":"cebpf4jnsgd1na2vs0mg"},{"bike_id":"73d6d1b3-0fb1-4dda-a310-1d0b519c47a2","system_id":"levelo_inurba_marseille","lat":43.289468,"lon":5.363719,"is_reserved":false,"is_disabled":false,"rental_uris":{"android":"levelo://app?vid=73d6d1b3-0fb1-4dda-a310-1d0b519c47a2","ios":"levelo://app?vid=73d6d1b3-0fb1-4dda-a310-1d0b519c47a2"},"vehicle_type_id":"4","last_reported":1708376832,"current_range_meters":5200,"station_id":"ce4bhc92rcd13ifvqetg","pricing_plan_id":"cebpf4jnsgd1na2vs0mg"},{"bike_id":"5ecdddfd-b0ec-422e-b2e0-2b508a4c4140","system_id":"levelo_inurba_marseille","lat":43.289468,"lon":5.363719,"is_reserved":false,"is_disabled":false,"rental_uris":{"android":"levelo://app?vid=5ecdddfd-b0ec-422e-b2e0-2b508a4c4140","ios":"levelo://app?vid=5ecdddfd-b0ec-422e-b2e0-2b508a4c4140"},"vehicle_type_id":"4","last_reported":1708376832,"current_range_meters":31200,"station_id":"ce4bhc92rcd13ifvqetg","pricing_plan_id":"cebpf4jnsgd1na2vs0mg"},{"bike_id":"e8d2fb17-a30b-4f7f-915f-eaf6558333b6","system_id":"levelo_inurba_marseille","lat":43.292644,"lon":5.384257,"is_reserved":false,"is_disabled":false,"rental_uris":{"android":"levelo://app?vid=e8d2fb17-a30b-4f7f-915f-eaf6558333b6","ios":"levelo://app?vid=e8d2fb17-a30b-4f7f-915f-eaf6558333b6"},"vehicle_type_id":"4","last_reported":1708376832,"current_range_meters":3600,"station_id":"ce4bh692rcd13ifvqea0","pricing_plan_id":"cebpf4jnsgd1na2vs0mg"},{"bike_id":"443ae071-165e-4c57-8005-5c8f3eff7a36","system_id":"levelo_inurba_marseille","lat":43.29268,"lon":5.38438,"is_reserved":false,"is_disabled":false,"rental_uris":{"android":"levelo://app?vid=443ae071-165e-4c57-8005-5c8f3eff7a36","ios":"levelo://app?vid=443ae071-165e-4c57-8005-5c8f3eff7a36"},"vehicle_type_id":"4","last_reported":1708376832,"current_range_meters":800,"station_id":"ce4bh692rcd13ifvqea0","pricing_plan_id":"cebpf4jnsgd1na2vs0mg"},{"bike_id":"5772ee86-8b4b-43f5-a995-e5eb36990021","system_id":"levelo_inurba_marseille","lat":43.292647,"lon":5.38438,"is_reserved":false,"is_disabled":false,"rental_uris":{"android":"levelo://app?vid=5772ee86-8b4b-43f5-a995-e5eb36990021","ios":"levelo://app?vid=5772ee86-8b4b-43f5-a995-e5eb36990021"},"vehicle_type_id":"4","last_reported":1708376832,"current_range_meters":20000,"station_id":"ce4bh692rcd13ifvqea0","pricing_plan_id":"cebpf4jnsgd1na2vs0mg"},{"bike_id":"a7014aee-d7d0-48ba-8ddd-2338bd8c8f76","system_id":"levelo_inurba_marseille","lat":43.292644,"lon":5.384257,"is_reserved":false,"is_disabled":false,"rental_uris":{"android":"levelo://app?vid=a7014aee-d7d0-48ba-8ddd-2338bd8c8f76","ios":"levelo://app?vid=a7014aee-d7d0-48ba-8ddd-2338bd8c8f76"},"vehicle_type_id":"4","last_reported":1708376832,"current_range_meters":0,"station_id":"ce4bh692rcd13ifvqea0","pricing_plan_id":"cebpf4jnsgd1na2vs0mg"},{"bike_id":"f20c2106-86c2-4076-9199-d5fffd6d82f3","system_id":"levelo_inurba_marseille","lat":43.29253,"lon":5.384343,"is_reserved":false,"is_disabled":false,"rental_uris":{"android":"levelo://app?vid=f20c2106-86c2-4076-9199-d5fffd6d82f3","ios":"levelo://app?vid=f20c2106-86c2-4076-9199-d5fffd6d82f3"},"vehicle_type_id":"4","last_reported":1708376832,"current_range_meters":16400,"station_id":"ce4bh692rcd13ifvqea0","pricing_plan_id":"cebpf4jnsgd1na2vs0mg"},{"bike_id":"e830da0a-86c7-4ce7-900d-8e961c0b939d","system_id":"levelo_inurba_marseille","lat":43.290103,"lon":5.356114,"is_reserved":false,"is_disabled":false,"rental_uris":{"android":"levelo://app?vid=e830da0a-86c7-4ce7-900d-8e961c0b939d","ios":"levelo://app?vid=e830da0a-86c7-4ce7-900d-8e961c0b939d"},"vehicle_type_id":"4","last_reported":1708376832,"current_range_meters":23600,"station_id":"ce4bhb92rcd13ifvqen0","pricing_plan_id":"cebpf4jnsgd1na2vs0mg"},{"bike_id":"64c8a977-e817-4529-bbbf-d54830de4873","system_id":"levelo_inurba_marseille","lat":43.29103,"lon":5.38085,"is_reserved":false,"is_disabled":false,"rental_uris":{"android":"levelo://app?vid=64c8a977-e817-4529-bbbf-d54830de4873","ios":"levelo://app?vid=64c8a977-e817-4529-bbbf-d54830de4873"},"vehicle_type_id":"4","last_reported":1708376832,"current_range_meters":15600,"station_id":"","pricing_plan_id":"cebpf4jnsgd1na2vs0mg"},{"bike_id":"51fcb553-328b-4378-883e-f75dce8ab826","system_id":"levelo_inurba_marseille","lat":43.290103,"lon":5.356114,"is_reserved":false,"is_disabled":false,"rental_uris":{"android":"levelo://app?vid=51fcb553-328b-4378-883e-f75dce8ab826","ios":"levelo://app?vid=51fcb553-328b-4378-883e-f75dce8ab826"},"vehicle_type_id":"4","last_reported":1708376832,"current_range_meters":0,"station_id":"ce4bhb92rcd13ifvqen0","pricing_plan_id":"cebpf4jnsgd1na2vs0mg"},{"bike_id":"9a9240be-325a-4969-a362-4e84aed35f49","system_id":"levelo_inurba_marseille","lat":43.290104,"lon":5.356111,"is_reserved":false,"is_disabled":false,"rental_uris":{"android":"levelo://app?vid=9a9240be-325a-4969-a362-4e84aed35f49","ios":"levelo://app?vid=9a9240be-325a-4969-a362-4e84aed35f49"},"vehicle_type_id":"4","last_reported":1708376832,"current_range_meters":21600,"station_id":"ce4bhb92rcd13ifvqen0","pricing_plan_id":"cebpf4jnsgd1na2vs0mg"},{"bike_id":"976b7a6f-6946-4cc2-ac45-ef015536dc22","system_id":"levelo_inurba_marseille","lat":43.290104,"lon":5.356111,"is_reserved":false,"is_disabled":false,"rental_uris":{"android":"levelo://app?vid=976b7a6f-6946-4cc2-ac45-ef015536dc22","ios":"levelo://app?vid=976b7a6f-6946-4cc2-ac45-ef015536dc22"},"vehicle_type_id":"4","last_reported":1708376832,"current_range_meters":28000,"station_id":"ce4bhb92rcd13ifvqen0","pricing_plan_id":"cebpf4jnsgd1na2vs0mg"},{"bike_id":"9f48c0a5-b975-43ed-b2b9-63f1785c40b1","system_id":"levelo_inurba_marseille","lat":43.290104,"lon":5.356111,"is_reserved":false,"is_disabled":false,"rental_uris":{"android":"levelo://app?vid=9f48c0a5-b975-43ed-b2b9-63f1785c40b1","ios":"levelo://app?vid=9f48c0a5-b975-43ed-b2b9-63f1785c40b1"},"vehicle_type_id":"4","last_reported":1708376832,"current_range_meters":19200,"station_id":"ce4bhb92rcd13ifvqen0","pricing_plan_id":"cebpf4jnsgd1na2vs0mg"},{"bike_id":"1df3f504-5781-4d50-bc6c-d04624e9c380","system_id":"levelo_inurba_marseille","lat":43.29005,"lon":5.35612,"is_reserved":false,"is_disabled":false,"rental_uris":{"android":"levelo://app?vid=1df3f504-5781-4d50-bc6c-d04624e9c380","ios":"levelo://app?vid=1df3f504-5781-4d50-bc6c-d04624e9c380"},"vehicle_type_id":"4","last_reported":1708376832,"current_range_meters":20000,"station_id":"ce4bhb92rcd13ifvqen0","pricing_plan_id":"cebpf4jnsgd1na2vs0mg"},{"bike_id":"e2fde6be-2cb6-4572-b699-27121c055eea","system_id":"levelo_inurba_marseille","lat":43.290041,"lon":5.356145,"is_reserved":false,"is_disabled":false,"rental_uris":{"android":"levelo://app?vid=e2fde6be-2cb6-4572-b699-27121c055eea","ios":"levelo://app?vid=e2fde6be-2cb6-4572-b699-27121c055eea"},"vehicle_type_id":"4","last_reported":1708376832,"current_range_meters":31200,"station_id":"ce4bhb92rcd13ifvqen0","pricing_plan_id":"cebpf4jnsgd1na2vs0mg"},{"bike_id":"c95ad3f9-ba14-4d47-9a17-91e5a028ceff","system_id":"levelo_inurba_marseille","lat":43.290103,"lon":5.356114,"is_reserved":false,"is_disabled":false,"rental_uris":{"android":"levelo://app?vid=c95ad3f9-ba14-4d47-9a17-91e5a028ceff","ios":"levelo://app?vid=c95ad3f9-ba14-4d47-9a17-91e5a028ceff"},"vehicle_type_id":"4","last_reported":1708376832,"current_range_meters":25200,"station_id":"ce4bhb92rcd13ifvqen0","pricing_plan_id":"cebpf4jnsgd1na2vs0mg"},{"bike_id":"a376388f-8e38-4a45-86d6-1a65433d6918","system_id":"levelo_inurba_marseille","lat":43.29004,"lon":5.35613,"is_reserved":false,"is_disabled":false,"rental_uris":{"android":"levelo://app?vid=a376388f-8e38-4a45-86d6-1a65433d6918","ios":"levelo://app?vid=a376388f-8e38-4a45-86d6-1a65433d6918"},"vehicle_type_id":"4","last_reported":1708376832,"current_range_meters":14800,"station_id":"ce4bhb92rcd13ifvqen0","pricing_plan_id":"cebpf4jnsgd1na2vs0mg"},{"bike_id":"a28d0f7d-ff3d-458a-916a-a0efc1611ef6","system_id":"levelo_inurba_marseille","lat":43.29003,"lon":5.35614,"is_reserved":false,"is_disabled":false,"rental_uris":{"android":"levelo://app?vid=a28d0f7d-ff3d-458a-916a-a0efc1611ef6","ios":"levelo://app?vid=a28d0f7d-ff3d-458a-916a-a0efc1611ef6"},"vehicle_type_id":"4","last_reported":1708376832,"current_range_meters":24800,"station_id":"ce4bhb92rcd13ifvqen0","pricing_plan_id":"cebpf4jnsgd1na2vs0mg"},{"bike_id":"6ff16ab2-61d1-4c5d-9cc6-1f9c4599538b","system_id":"levelo_inurba_marseille","lat":43.290104,"lon":5.356111,"is_reserved":false,"is_disabled":false,"rental_uris":{"android":"levelo://app?vid=6ff16ab2-61d1-4c5d-9cc6-1f9c4599538b","ios":"levelo://app?vid=6ff16ab2-61d1-4c5d-9cc6-1f9c4599538b"},"vehicle_type_id":"4","last_reported":1708376832,"current_range_meters":10800,"station_id":"ce4bhb92rcd13ifvqen0","pricing_plan_id":"cebpf4jnsgd1na2vs0mg"},{"bike_id":"c99665f8-a7e4-43be-af3f-5ad7ea54612e","system_id":"levelo_inurba_marseille","lat":43.29002,"lon":5.35613,"is_reserved":false,"is_disabled":false,"rental_uris":{"android":"levelo://app?vid=c99665f8-a7e4-43be-af3f-5ad7ea54612e","ios":"levelo://app?vid=c99665f8-a7e4-43be-af3f-5ad7ea54612e"},"vehicle_type_id":"4","last_reported":1708376832,"current_range_meters":10000,"station_id":"ce4bhb92rcd13ifvqen0","pricing_plan_id":"cebpf4jnsgd1na2vs0mg"},{"bike_id":"92112f1b-4fcd-42d3-9872-1e0583d0a648","system_id":"levelo_inurba_marseille","lat":43.30962,"lon":5.39971,"is_reserved":false,"is_disabled":false,"rental_uris":{"android":"levelo://app?vid=92112f1b-4fcd-42d3-9872-1e0583d0a648","ios":"levelo://app?vid=92112f1b-4fcd-42d3-9872-1e0583d0a648"},"vehicle_type_id":"4","last_reported":1708376832,"current_range_meters":6800,"station_id":"ce4bh092rcd13ifvqd30","pricing_plan_id":"cebpf4jnsgd1na2vs0mg"},{"bike_id":"4e1c869c-37a3-40e1-b2da-e575043abfaf","system_id":"levelo_inurba_marseille","lat":43.29002,"lon":5.35605,"is_reserved":false,"is_disabled":false,"rental_uris":{"android":"levelo://app?vid=4e1c869c-37a3-40e1-b2da-e575043abfaf","ios":"levelo://app?vid=4e1c869c-37a3-40e1-b2da-e575043abfaf"},"vehicle_type_id":"4","last_reported":1708376832,"current_range_meters":26000,"station_id":"ce4bhb92rcd13ifvqen0","pricing_plan_id":"cebpf4jnsgd1na2vs0mg"},{"bike_id":"2671f9c8-5f40-448b-aa9b-7d0abdfa7d14","system_id":"levelo_inurba_marseille","lat":43.290995,"lon":5.381361,"is_reserved":false,"is_disabled":false,"rental_uris":{"android":"levelo://app?vid=2671f9c8-5f40-448b-aa9b-7d0abdfa7d14","ios":"levelo://app?vid=2671f9c8-5f40-448b-aa9b-7d0abdfa7d14"},"vehicle_type_id":"4","last_reported":1708376832,"current_range_meters":28000,"station_id":"ce4bh512rcd13ifvqe2g","pricing_plan_id":"cebpf4jnsgd1na2vs0mg"},{"bike_id":"3a256e68-b247-4e4f-80f1-5cbad09eda92","system_id":"levelo_inurba_marseille","lat":43.29787,"lon":5.3933,"is_reserved":false,"is_disabled":false,"rental_uris":{"android":"levelo://app?vid=3a256e68-b247-4e4f-80f1-5cbad09eda92","ios":"levelo://app?vid=3a256e68-b247-4e4f-80f1-5cbad09eda92"},"vehicle_type_id":"4","last_reported":1708376832,"current_range_meters":5200,"station_id":"chh1huq6cuj3fo74tm60","pricing_plan_id":"cebpf4jnsgd1na2vs0mg"},{"bike_id":"9c62d042-1131-4f93-9c1c-82ee998e9af7","system_id":"levelo_inurba_marseille","lat":43.297815,"lon":5.393548,"is_reserved":false,"is_disabled":false,"rental_uris":{"android":"levelo://app?vid=9c62d042-1131-4f93-9c1c-82ee998e9af7","ios":"levelo://app?vid=9c62d042-1131-4f93-9c1c-82ee998e9af7"},"vehicle_type_id":"4","last_reported":1708376832,"current_range_meters":30000,"station_id":"chh1huq6cuj3fo74tm60","pricing_plan_id":"cebpf4jnsgd1na2vs0mg"},{"bike_id":"895afb08-8fe5-4feb-bdf7-d767d360e9d6","system_id":"levelo_inurba_marseille","lat":43.29786,"lon":5.3934,"is_reserved":false,"is_disabled":false,"rental_uris":{"android":"levelo://app?vid=895afb08-8fe5-4feb-bdf7-d767d360e9d6","ios":"levelo://app?vid=895afb08-8fe5-4feb-bdf7-d767d360e9d6"},"vehicle_type_id":"4","last_reported":1708376832,"current_range_meters":2400,"station_id":"chh1huq6cuj3fo74tm60","pricing_plan_id":"cebpf4jnsgd1na2vs0mg"},{"bike_id":"e2e3c222-2c0b-449d-9953-8332bc70abc8","system_id":"levelo_inurba_marseille","lat":43.297815,"lon":5.393548,"is_reserved":false,"is_disabled":false,"rental_uris":{"android":"levelo://app?vid=e2e3c222-2c0b-449d-9953-8332bc70abc8","ios":"levelo://app?vid=e2e3c222-2c0b-449d-9953-8332bc70abc8"},"vehicle_type_id":"4","last_reported":1708376832,"current_range_meters":20800,"station_id":"chh1huq6cuj3fo74tm60","pricing_plan_id":"cebpf4jnsgd1na2vs0mg"},{"bike_id":"36b00f65-d02a-4052-ae86-51ef78c50cda","system_id":"levelo_inurba_marseille","lat":43.297831,"lon":5.393405,"is_reserved":false,"is_disabled":false,"rental_uris":{"android":"levelo://app?vid=36b00f65-d02a-4052-ae86-51ef78c50cda","ios":"levelo://app?vid=36b00f65-d02a-4052-ae86-51ef78c50cda"},"vehicle_type_id":"4","last_reported":1708376832,"current_range_meters":13200,"station_id":"chh1huq6cuj3fo74tm60","pricing_plan_id":"cebpf4jnsgd1na2vs0mg"},{"bike_id":"c83540eb-c3e7-4799-989b-5ec07dbb00fb","system_id":"levelo_inurba_marseille","lat":43.289741,"lon":5.378306,"is_reserved":false,"is_disabled":false,"rental_uris":{"android":"levelo://app?vid=c83540eb-c3e7-4799-989b-5ec07dbb00fb","ios":"levelo://app?vid=c83540eb-c3e7-4799-989b-5ec07dbb00fb"},"vehicle_type_id":"4","last_reported":1708376832,"current_range_meters":15600,"station_id":"ce4bh9p2rcd13ifvqed0","pricing_plan_id":"cebpf4jnsgd1na2vs0mg"},{"bike_id":"16b7635d-7942-4149-bf93-bd3457e1517e","system_id":"levelo_inurba_marseille","lat":43.295169,"lon":5.390426,"is_reserved":false,"is_disabled":false,"rental_uris":{"android":"levelo://app?vid=16b7635d-7942-4149-bf93-bd3457e1517e","ios":"levelo://app?vid=16b7635d-7942-4149-bf93-bd3457e1517e"},"vehicle_type_id":"4","last_reported":1708376832,"current_range_meters":12800,"station_id":"ce4bh3p2rcd13ifvqdp0","pricing_plan_id":"cebpf4jnsgd1na2vs0mg"},{"bike_id":"fe1be972-88c1-4003-a579-b9c1485acc64","system_id":"levelo_inurba_marseille","lat":43.295169,"lon":5.390426,"is_reserved":false,"is_disabled":false,"rental_uris":{"android":"levelo://app?vid=fe1be972-88c1-4003-a579-b9c1485acc64","ios":"levelo://app?vid=fe1be972-88c1-4003-a579-b9c1485acc64"},"vehicle_type_id":"4","last_reported":1708376832,"current_range_meters":15200,"station_id":"ce4bh3p2rcd13ifvqdp0","pricing_plan_id":"cebpf4jnsgd1na2vs0mg"},