{"last_updated":1736410323,"ttl":60,"version":"2.2","data":{"bikes":[{"bike_id":"d9f07577-6bbd-4bbe-9576-a5076057b132","system_id":"levelo_inurba_marseille","lat":43.30423,"lon":5.38883,"is_reserved":false,"is_disabled":false,"rental_uris":{"android":"levelo://app?vid=d9f07577-6bbd-4bbe-9576-a5076057b132","ios":"levelo://app?vid=d9f07577-6bbd-4bbe-9576-a5076057b132"},"vehicle_type_id":"4","last_reported":1736410323,"current_range_meters":38800,"station_id":"ce4bgk12rcd13ifvqbi0","pricing_plan_id":"cebpf4jnsgd1na2vs0mg"},{"bike_id":"1db5158e-767d-4ae3-99cf-55245b9ab73b","system_id":"levelo_inurba_marseille","lat":43.239623,"lon":5.36635,"is_reserved":false,"is_disabled":false,"rental_uris":{"android":"levelo://app?vid=1db5158e-767d-4ae3-99cf-55245b9ab73b","ios":"levelo://app?vid=1db5158e-767d-4ae3-99cf-55245b9ab73b"},"vehicle_type_id":"4","last_reported":1736410323,"current_range_meters":23200,"station_id":"ce4bhi12rcd13ifvqfp0","pricing_plan_id":"cebpf4jnsgd1na2vs0mg"},{"bike_id":"19201661-9d2b-4f3c-b8c5-4e86fe40df0a","system_id":"levelo_inurba_marseille","lat":43.27423,"lon":5.39419,"is_reserved":false,"is_disabled":false,"rental_uris":{"android":"levelo://app?vid=19201661-9d2b-4f3c-b8c5-4e86fe40df0a","ios":"levelo://app?vid=19201661-9d2b-4f3c-b8c5-4e86fe40df0a"},"vehicle_type_id":"4","last_reported":1736410323,"current_range_meters":37600,"station_id":"ce4bhdp2rcd13ifvqf20","pricing_plan_id":"cebpf4jnsgd1na2vs0mg"},{"bike_id":"424b02a3-71fc-4629-934b-0ffcd9c06e9e","system_id":"levelo_inurba_marseille","lat":43.30905,"lon":5.39641,"is_reserved":false,"is_disabled":false,"rental_uris":{"android":"levelo://app?vid=424b02a3-71fc-4629-934b-0ffcd9c06e9e","ios":"levelo://app?vid=424b02a3-71fc-4629-934b-0ffcd9c06e9e"},"vehicle_type_id":"4","last_reported":1736410323,"current_range_meters":37600,"station_id":"ce4bh012rcd13ifvqcv0","pricing_plan_id":"cebpf4jnsgd1na2vs0mg"},{"bike_id":"c2aea2f4-9f3f-4be6-9d98-23b4bb3c1c50","system_id":"levelo_inurba_marseille","lat":43.24067,"lon":5.37755,"is_reserved":false,"is_disabled":false,"rental_uris":{"android":"levelo://app?vid=c2aea2f4-9f3f-4be6-9d98-23b4bb3c1c50","ios":"levelo://app?vid=c2aea2f4-9f3f-4be6-9d98-23b4bb3c1c50"},"vehicle_type_id":"4","last_reported":1736410323,"current_range_meters":14800,"station_id":"ce4bhnp2rcd13ifvqgvg","pricing_plan_id":"cebpf4jnsgd1na2vs0mg"},{"bike_id":"bd79f785-a877-4813-8d8f-22c9692def75","system_id":"levelo_inurba_marseille","lat":43.30556,"lon":5.36683,"is_reserved":false,"is_disabled":false,"rental_uris":{"android":"levelo://app?vid=bd79f785-a877-4813-8d8f-22c9692def75","ios":"levelo://app?vid=bd79f785-a877-4813-8d8f-22c9692def75"},"vehicle_type_id":"4","last_reported":1736410323,"current_range_meters":4400,"station_id":"ce4bgrp2rcd13ifvqc9g","pricing_plan_id":"cebpf4jnsgd1na2vs0mg"},{"bike_id":"079a2489-d193-414b-8b47-82e93bfb4b65","system_id":"levelo_inurba_marseille","lat":43.288916,"lon":5.380037,"is_reserved":false,"is_disabled":false,"rental_uris":{"android":"levelo://app?vid=079a2489-d193-414b-8b47-82e93bfb4b65","ios":"levelo://app?vid=079a2489-d193-414b-8b47-82e93bfb4b65"},"vehicle_type_id":"4","last_reported":1736410323,"current_range_meters":34000,"station_id":"","pricing_plan_id":"cebpf4jnsgd1na2vs0mg"},{"bike_id":"38b313e7-9a2f-452f-bdb8-d453ae7237a3","system_id":"levelo_inurba_marseille","lat":43.275,"lon":5.42443,"is_reserved":false,"is_disabled":false,"rental_uris":{"android":"levelo://app?vid=38b313e7-9a2f-452f-bdb8-d453ae7237a3","ios":"levelo://app?vid=38b313e7-9a2f-452f-bdb8-d453ae7237a3"},"vehicle_type_id":"4","last_reported":1736410323,"current_range_meters":38800,"station_id":"ce4bhn92rcd13ifvqgrg","pricing_plan_id":"cebpf4jnsgd1na2vs0mg"},{"bike_id":"b0b1c191-80d8-42d7-a86d-9eb2b43e4251","system_id":"levelo_inurba_marseille","lat":43.32467,"lon":5.36568,"is_reserved":false,"is_disabled":false,"rental_uris":{"android":"levelo://app?vid=b0b1c191-80d8-42d7-a86d-9eb2b43e4251","ios":"levelo://app?vid=b0b1c191-80d8-42d7-a86d-9eb2b43e4251"},"vehicle_type_id":"4","last_reported":1736410323,"current_range_meters":36400,"station_id":"ce4bhs12rcd13ifvqhvg","pricing_plan_id":"cebpf4jnsgd1na2vs0mg"},{"bike_id":"c25da445-2bd6-4668-92d8-67b9db836116","system_id":"levelo_inurba_marseille","lat":43.30588,"lon":5.37619,"is_reserved":false,"is_disabled":true,"rental_uris":{"android":"levelo://app?vid=c25da445-2bd6-4668-92d8-67b9db836116","ios":"levelo://app?vid=c25da445-2bd6-4668-92d8-67b9db836116"},"vehicle_type_id":"4","last_reported":1736410323,"current_range_meters":2000,"station_id":"","pricing_plan_id":"cebpf4jnsgd1na2vs0mg"},{"bike_id":"79167e8a-95b6-4db3-abed-314db13fc8c6","system_id":"levelo_inurba_marseille","lat":43.29554,"lon":5.42287,"is_reserved":false,"is_disabled":false,"rental_uris":{"android":"levelo://app?vid=79167e8a-95b6-4db3-abed-314db13fc8c6","ios":"levelo://app?vid=79167e8a-95b6-4db3-abed-314db13fc8c6"},"vehicle_type_id":"4","last_reported":1736410323,"current_range_meters":38800,"station_id":"ce4bhph2rcd13ifvqhdg","pricing_plan_id":"cebpf4jnsgd1na2vs0mg"},{"bike_id":"051ee3d7-17a2-401e-9bd5-08261edf66ab","system_id":"levelo_inurba_marseille","lat":43.25944,"lon":5.40879,"is_reserved":false,"is_disabled":false,"rental_uris":{"android":"levelo://app?vid=051ee3d7-17a2-401e-9bd5-08261edf66ab","ios":"levelo://app?vid=051ee3d7-17a2-401e-9bd5-08261edf66ab"},"vehicle_type_id":"4","last_reported":1736410323,"current_range_meters":22800,"station_id":"ce4bhm92rcd13ifvqglg","pricing_plan_id":"cebpf4jnsgd1na2vs0mg"},{"bike_id":"89b3ad15-3316-4a7f-a04e-7776dd6ff918","system_id":"levelo_inurba_marseille","lat":43.30954,"lon":5.39029,"is_reserved":false,"is_disabled":false,"rental_uris":{"android":"levelo://app?vid=89b3ad15-3316-4a7f-a04e-7776dd6ff918","ios":"levelo://app?vid=89b3ad15-3316-4a7f-a04e-7776dd6ff918"},"vehicle_type_id":"4","last_reported":1736410323,"current_range_meters":34000,"station_id":"ce4bgup2rcd13ifvqco0","pricing_plan_id":"cebpf4jnsgd1na2vs0mg"},{"bike_id":"784c114c-6b4b-4d66-8437-8a364b7d7999","system_id":"levelo_inurba_marseille","lat":43.33759,"lon":5.39135,"is_reserved":false,"is_disabled":false,"rental_uris":{"android":"levelo://app?vid=784c114c-6b4b-4d66-8437-8a364b7d7999","ios":"levelo://app?vid=784c114c-6b4b-4d66-8437-8a364b7d7999"},"vehicle_type_id":"4","last_reported":1736410323,"current_range_meters":30800,"station_id":"","pricing_plan_id":"cebpf4jnsgd1na2vs0mg"},{"bike_id":"bf887147-63c1-446c-9415-5e82581b5a97","system_id":"levelo_inurba_marseille","lat":43.30271,"lon":5.37707,"is_reserved":false,"is_disabled":false,"rental_uris":{"android":"levelo://app?vid=bf887147-63c1-446c-9415-5e82581b5a97","ios":"levelo://app?vid=bf887147-63c1-446c-9415-5e82581b5a97"},"vehicle_type_id":"4","last_reported":1736410323,"current_range_meters":39200,"station_id":"ce4bguh2rcd13ifvqcj0","pricing_plan_id":"cebpf4jnsgd1na2vs0mg"},{"bike_id":"1927b5c1-461b-4ad6-b434-4ee135d4d1e3","system_id":"levelo_inurba_marseille","lat":43.24072,"lon":5.3775,"is_reserved":false,"is_disabled":false,"rental_uris":{"android":"levelo://app?vid=1927b5c1-461b-4ad6-b434-4ee135d4d1e3","ios":"levelo://app?vid=1927b5c1-461b-4ad6-b434-4ee135d4d1e3"},"vehicle_type_id":"4","last_reported":1736410323,"current_range_meters":27600,"station_id":"ce4bhnp2rcd13ifvqgvg","pricing_plan_id":"cebpf4jnsgd1na2vs0mg"},{"bike_id":"d57e5ddf-cc3a-4186-9399-193b423247f5","system_id":"levelo_inurba_marseille","lat":43.29261,"lon":5.38446,"is_reserved":false,"is_disabled":false,"rental_uris":{"android":"levelo://app?vid=d57e5ddf-cc3a-4186-9399-193b423247f5","ios":"levelo://app?vid=d57e5ddf-cc3a-4186-9399-193b423247f5"},"vehicle_type_id":"4","last_reported":1736410323,"current_range_meters":28800,"station_id":"ce4bh692rcd13ifvqea0","pricing_plan_id":"cebpf4jnsgd1na2vs0mg"},{"bike_id":"ece82557-6569-4215-9027-5b44a37fe52e","system_id":"levelo_inurba_marseille","lat":43.29049,"lon":5.38029,"is_reserved":false,"is_disabled":true,"rental_uris":{"android":"levelo://app?vid=ece82557-6569-4215-9027-5b44a37fe52e","ios":"levelo://app?vid=ece82557-6569-4215-9027-5b44a37fe52e"},"vehicle_type_id":"4","last_reported":1736410323,"current_range_meters":0,"station_id":"","pricing_plan_id":"cebpf4jnsgd1na2vs0mg"},{"bike_id":"27867ec6-dc38-4e93-906a-9fa049ef4236","system_id":"levelo_inurba_marseille","lat":43.30545,"lon":5.36698,"is_reserved":false,"is_disabled":false,"rental_uris":{"android":"levelo://app?vid=27867ec6-dc38-4e93-906a-9fa049ef4236","ios":"levelo://app?vid=27867ec6-dc38-4e93-906a-9fa049ef4236"},"vehicle_type_id":"4","last_reported":1736410323,"current_range_meters":39200,"station_id":"ce4bgrp2rcd13ifvqc9g","pricing_plan_id":"cebpf4jnsgd1na2vs0mg"},{"bike_id":"f40a23e1-4db4-43c9-bf26-5d3436aadc87","system_id":"levelo_inurba_marseille","lat":43.28364,"lon":5.3864,"is_reserved":false,"is_disabled":true,"rental_uris":{"android":"levelo://app?vid=f40a23e1-4db4-43c9-bf26-5d3436aadc87","ios":"levelo://app?vid=f40a23e1-4db4-43c9-bf26-5d3436aadc87"},"vehicle_type_id":"4","last_reported":1736410323,"current_range_meters":35600,"station_id":"ce4bh492rcd13ifvqdvg","pricing_plan_id":"cebpf4jnsgd1na2vs0mg"},{"bike_id":"efbc13d8-a15f-41bc-b68a-9c78a57ff274","system_id":"levelo_inurba_marseille","lat":43.31338,"lon":5.36715,"is_reserved":false,"is_disabled":false,"rental_uris":{"android":"levelo://app?vid=efbc13d8-a15f-41bc-b68a-9c78a57ff274","ios":"levelo://app?vid=efbc13d8-a15f-41bc-b68a-9c78a57ff274"},"vehicle_type_id":"4","last_reported":1736410323,"current_range_meters":39200,"station_id":"ce4bgr92rcd13ifvqc6g","pricing_plan_id":"cebpf4jnsgd1na2vs0mg"},{"bike_id":"73eb524f-2d58-4a00-9fa5-76f6077910dd","system_id":"levelo_inurba_marseille","lat":43.23182,"lon":5.3999,"is_reserved":false,"is_disabled":true,"rental_uris":{"android":"levelo://app?vid=73eb524f-2d58-4a00-9fa5-76f6077910dd","ios":"levelo://app?vid=73eb524f-2d58-4a00-9fa5-76f6077910dd"},"vehicle_type_id":"4","last_reported":1736410323,"current_range_meters":9200,"station_id":"ce4bhn12rcd13ifvqgqg","pricing_plan_id":"cebpf4jnsgd1na2vs0mg"},{"bike_id":"c38e3732-0196-42c9-aabd-9e168dff810d","system_id":"levelo_inurba_marseille","lat":43.304222,"lon":5.378368,"is_reserved":false,"is_disabled":true,"rental_uris":{"android":"levelo://app?vid=c38e3732-0196-42c9-aabd-9e168dff810d","ios":"levelo://app?vid=c38e3732-0196-42c9-aabd-9e168dff810d"},"vehicle_type_id":"4","last_reported":1736410323,"current_range_meters":0,"station_id":"ce4bgup2rcd13ifvqcn0","pricing_plan_id":"cebpf4jnsgd1na2vs0mg"},{"bike_id":"2199d219-e0ca-4b28-a772-ba63161f237a","system_id":"levelo_inurba_marseille","lat":43.32117,"lon":5.36764,"is_reserved":false,"is_disabled":false,"rental_uris":{"android":"levelo://app?vid=2199d219-e0ca-4b28-a772-ba63161f237a","ios":"levelo://app?vid=2199d219-e0ca-4b28-a772-ba63161f237a"},"vehicle_type_id":"4","last_reported":1736410323,"current_range_meters":14000,"station_id":"ce4bhrh2rcd13ifvqhug","pricing_plan_id":"cebpf4jnsgd1na2vs0mg"},{"bike_id":"302028f2-8ce9-4776-88f8-208deb70f26d","system_id":"levelo_inurba_marseille","lat":43.29925,"lon":5.37493,"is_reserved":false,"is_disabled":false,"rental_uris":{"android":"levelo://app?vid=302028f2-8ce9-4776-88f8-208deb70f26d","ios":"levelo://app?vid=302028f2-8ce9-4776-88f8-208deb70f26d"},"vehicle_type_id":"4","last_reported":1736410323,"current_range_meters":26000,"station_id":"ce4bgjh2rcd13ifvqbg0","pricing_plan_id":"cebpf4jnsgd1na2vs0mg"},{"bike_id":"5a5618e9-77be-4df7-ac93-29588848000f","system_id":"levelo_inurba_marseille","lat":43.32287,"lon":5.38256,"is_reserved":false,"is_disabled":false,"rental_uris":{"android":"levelo://app?vid=5a5618e9-77be-4df7-ac93-29588848000f","ios":"levelo://app?vid=5a5618e9-77be-4df7-ac93-29588848000f"},"vehicle_type_id":"4","last_reported":1736410323,"current_range_meters":24000,"station_id":"ce4bhr12rcd13ifvqhqg","pricing_plan_id":"cebpf4jnsgd1na2vs0mg"},{"bike_id":"7e2cb16e-abcd-40ff-b2a9-ee4f3bdf6a2a","system_id":"levelo_inurba_marseille","lat":43.30951,"lon":5.39041,"is_reserved":false,"is_disabled":false,"rental_uris":{"android":"levelo://app?vid=7e2cb16e-abcd-40ff-b2a9-ee4f3bdf6a2a","ios":"levelo://app?vid=7e2cb16e-abcd-40ff-b2a9-ee4f3bdf6a2a"},"vehicle_type_id":"4","last_reported":1736410323,"current_range_meters":29600,"station_id":"ce4bgup2rcd13ifvqco0","pricing_plan_id":"cebpf4jnsgd1na2vs0mg"},{"bike_id":"8716db54-126d-408a-8960-149e8432745d","system_id":"levelo_inurba_marseille","lat":43.25921,"lon":5.40894,"is_reserved":false,"is_disabled":false,"rental_uris":{"android":"levelo://app?vid=8716db54-126d-408a-8960-149e8432745d","ios":"levelo://app?vid=8716db54-126d-408a-8960-149e8432745d"},"vehicle_type_id":"4","last_reported":1736410323,"current_range_meters":33600,"station_id":"ce4bhm92rcd13ifvqglg","pricing_plan_id":"cebpf4jnsgd1na2vs0mg"},{"bike_id":"e068bbe5-cf3a-4c54-9153-f48a9e33fc48","system_id":"levelo_inurba_marseille","lat":43.29271,"lon":5.36857,"is_reserved":false,"is_disabled":false,"rental_uris":{"android":"levelo://app?vid=e068bbe5-cf3a-4c54-9153-f48a9e33fc48","ios":"levelo://app?vid=e068bbe5-cf3a-4c54-9153-f48a9e33fc48"},"vehicle_type_id":"4","last_reported":1736410323,"current_range_meters":30400,"station_id":"ce4bhbp2rcd13ifvqesg","pricing_plan_id":"cebpf4jnsgd1na2vs0mg"},{"bike_id":"5f01e351-0beb-4bec-99a6-8ccfaafab549","system_id":"levelo_inurba_marseille","lat":43.290267,"lon":5.38133,"is_reserved":false,"is_disabled":true,"rental_uris":{"android":"levelo://app?vid=5f01e351-0beb-4bec-99a6-8ccfaafab549","ios":"levelo://app?vid=5f01e351-0beb-4bec-99a6-8ccfaafab549"},"vehicle_type_id":"4","last_reported":1736410323,"current_range_meters":38000,"station_id":"ce4bh4p2rcd13ifvqe1g","pricing_plan_id":"cebpf4jnsgd1na2vs0mg"},{"bike_id":"00a40db9-16bb-4c3a-8e4b-8470e61573cd","system_id":"levelo_inurba_marseille","lat":43.32018,"lon":5.41569,"is_reserved":false,"is_disabled":false,"rental_uris":{"android":"levelo://app?vid=00a40db9-16bb-4c3a-8e4b-8470e61573cd","ios":"levelo://app?vid=00a40db9-16bb-4c3a-8e4b-8470e61573cd"},"vehicle_type_id":"4","last_reported":1736410323,"current_range_meters":36000,"station_id":"ce4bhq92rcd13ifvqhkg","pricing_plan_id":"cebpf4jnsgd1na2vs0mg"},{"bike_id":"5ee3cc75-4216-44e2-b530-ebf5f7d4db5d","system_id":"levelo_inurba_marseille","lat":43.26934,"lon":5.40265,"is_reserved":false,"is_disabled":false,"rental_uris":{"android":"levelo://app?vid=5ee3cc75-4216-44e2-b530-ebf5f7d4db5d","ios":"levelo://app?vid=5ee3cc75-4216-44e2-b530-ebf5f7d4db5d"},"vehicle_type_id":"4","last_reported":1736410323,"current_range_meters":37600,"station_id":"cjm6bp8fraef2m0cb0m0","pricing_plan_id":"cebpf4jnsgd1na2vs0mg"},{"bike_id":"1aefdccc-7e2b-45c1-a671-e6f4e5d94ebb","system_id":"levelo_inurba_marseille","lat":43.34151,"lon":5.40904,"is_reserved":false,"is_disabled":false,"rental_uris":{"android":"levelo://app?vid=1aefdccc-7e2b-45c1-a671-e6f4e5d94ebb","ios":"levelo://app?vid=1aefdccc-7e2b-45c1-a671-e6f4e5d94ebb"},"vehicle_type_id":"4","last_reported":1736410323,"current_range_meters":37600,"station_id":"ce4bhqh2rcd13ifvqhlg","pricing_plan_id":"cebpf4jnsgd1na2vs0mg"},{"bike_id":"e64ccaa1-341f-4e45-98d3-5478b7337fac","system_id":"levelo_inurba_marseille","lat":43.27498,"lon":5.42461,"is_reserved":false,"is_disabled":false,"rental_uris":{"android":"levelo://app?vid=e64ccaa1-341f-4e45-98d3-5478b7337fac","ios":"levelo://app?vid=e64ccaa1-341f-4e45-98d3-5478b7337fac"},"vehicle_type_id":"4","last_reported":1736410323,"current_range_meters":24800,"station_id":"ce4bhn92rcd13ifvqgrg","pricing_plan_id":"cebpf4jnsgd1na2vs0mg"},{"bike_id":"027fb515-cf5e-4431-9b8b-d23328baea59","system_id":"levelo_inurba_marseille","lat":43.2344,"lon":5.41178,"is_reserved":false,"is_disabled":false,"rental_uris":{"android":"levelo://app?vid=027fb515-cf5e-4431-9b8b-d23328baea59","ios":"levelo://app?vid=027fb515-cf5e-4431-9b8b-d23328baea59"},"vehicle_type_id":"4","last_reported":1736410323,"current_range_meters":15200,"station_id":"","pricing_plan_id":"cebpf4jnsgd1na2vs0mg"},{"bike_id":"0a157462-fcbc-40b5-aaef-16fa103f6583","system_id":"levelo_inurba_marseille","lat":43.29277,"lon":5.36849,"is_reserved":false,"is_disabled":false,"rental_uris":{"android":"levelo://app?vid=0a157462-fcbc-40b5-aaef-16fa103f6583","ios":"levelo://app?vid=0a157462-fcbc-40b5-aaef-16fa103f6583"},"vehicle_type_id":"4","last_reported":1736410323,"current_range_meters":34000,"station_id":"ce4bhbp2rcd13ifvqesg","pricing_plan_id":"cebpf4jnsgd1na2vs0mg"},{"bike_id":"0548464b-ef06-42b9-8259-a8997dec7927","system_id":"levelo_inurba_marseille","lat":43.293758,"lon":5.378414,"is_reserved":false,"is_disabled":true,"rental_uris":{"android":"levelo://app?vid=0548464b-ef06-42b9-8259-a8997dec7927","ios":"levelo://app?vid=0548464b-ef06-42b9-8259-a8997dec7927"},"vehicle_type_id":"4","last_reported":1736410323,"current_range_meters":39200,"station_id":"ce4bgjh2rcd13ifvqbf0","pricing_plan_id":"cebpf4jnsgd1na2vs0mg"},{"bike_id":"be4c59f4-a498-44be-a430-245c96b05e75","system_id":"levelo_inurba_marseille","lat":43.32815,"lon":5.39163,"is_reserved":false,"is_disabled":false,"rental_uris":{"android":"levelo://app?vid=be4c59f4-a498-44be-a430-245c96b05e75","ios":"levelo://app?vid=be4c59f4-a498-44be-a430-245c96b05e75"},"vehicle_type_id":"4","last_reported":1736410323,"current_range_meters":11600,"station_id":"","pricing_plan_id":"cebpf4jnsgd1na2vs0mg"},{"bike_id":"feeeae9a-4bcc-477a-bc8c-e9391fa8aedd","system_id":"levelo_inurba_marseille","lat":43.29177,"lon":5.39328,"is_reserved":false,"is_disabled":true,"rental_uris":{"android":"levelo://app?vid=feeeae9a-4bcc-477a-bc8c-e9391fa8aedd","ios":"levelo://app?vid=feeeae9a-4bcc-477a-bc8c-e9391fa8aedd"},"vehicle_type_id":"4","last_reported":1736410323,"current_range_meters":0,"station_id":"ce4bh192rcd13ifvqdd0","pricing_plan_id":"cebpf4jnsgd1na2vs0mg"},{"bike_id":"20bcb929-e433-4359-8f98-9293c0fe690d","system_id":"levelo_inurba_marseille","lat":43.30428,"lon":5.38893,"is_reserved":false,"is_disabled":false,"rental_uris":{"android":"levelo://app?vid=20bcb929-e433-4359-8f98-9293c0fe690d","ios":"levelo://app?vid=20bcb929-e433-4359-8f98-9293c0fe690d"},"vehicle_type_id":"4","last_reported":1736410323,"current_range_meters":37600,"station_id":"ce4bgk12rcd13ifvqbi0","pricing_plan_id":"cebpf4jnsgd1na2vs0mg"},{"bike_id":"dbe4d7d2-95f9-4a28-b000-f9ac7c3f52eb","system_id":"levelo_inurba_marseille","lat":43.29192,"lon":5.39312,"is_reserved":false,"is_disabled":true,"rental_uris":{"android":"levelo://app?vid=dbe4d7d2-95f9-4a28-b000-f9ac7c3f52eb","ios":"levelo://app?vid=dbe4d7d2-95f9-4a28-b000-f9ac7c3f52eb"},"vehicle_type_id":"4","last_reported":1736410323,"current_range_meters":0,"station_id":"ce4bh192rcd13ifvqdd0","pricing_plan_id":"cebpf4jnsgd1na2vs0mg"},{"bike_id":"7387796e-08cb-478b-8c70-ce47dc5f3a47","system_id":"levelo_inurba_marseille","lat":43.29036,"lon":5.39966,"is_reserved":false,"is_disabled":false,"rental_uris":{"android":"levelo://app?vid=7387796e-08cb-478b-8c70-ce47dc5f3a47","ios":"levelo://app?vid=7387796e-08cb-478b-8c70-ce47dc5f3a47"},"vehicle_type_id":"4","last_reported":1736410323,"current_range_meters":30800,"station_id":"ce4bh392rcd13ifvqdm0","pricing_plan_id":"cebpf4jnsgd1na2vs0mg"},{"bike_id":"b02ae6ee-06d8-4b9f-9872-c8fcf9b7576a","system_id":"levelo_inurba_marseille","lat":43.30549,"lon":5.36546,"is_reserved":false,"is_disabled":false,"rental_uris":{"android":"levelo://app?vid=b02ae6ee-06d8-4b9f-9872-c8fcf9b7576a","ios":"levelo://app?vid=b02ae6ee-06d8-4b9f-9872-c8fcf9b7576a"},"vehicle_type_id":"4","last_reported":1736410323,"current_range_meters":20400,"station_id":"ce4bgs12rcd13ifvqcag","pricing_plan_id":"cebpf4jnsgd1na2vs0mg"},{"bike_id":"5fa377fe-eb3b-4c5f-ab50-699e5f8d5bb0","system_id":"levelo_inurba_marseille","lat":43.26787,"lon":5.39413,"is_reserved":false,"is_disabled":false,"rental_uris":{"android":"levelo://app?vid=5fa377fe-eb3b-4c5f-ab50-699e5f8d5bb0","ios":"levelo://app?vid=5fa377fe-eb3b-4c5f-ab50-699e5f8d5bb0"},"vehicle_type_id":"4","last_reported":1736410323,"current_range_meters":36000,"station_id":"ce4bhh12rcd13ifvqfg0","pricing_plan_id":"cebpf4jnsgd1na2vs0mg"},{"bike_id":"6288fc36-64e2-450e-8227-13971a1b19cb","system_id":"levelo_inurba_marseille","lat":43.29065,"lon":5.37177,"is_reserved":false,"is_disabled":false,"rental_uris":{"android":"levelo://app?vid=6288fc36-64e2-450e-8227-13971a1b19cb","ios":"levelo://app?vid=6288fc36-64e2-450e-8227-13971a1b19cb"},"vehicle_type_id":"4","last_reported":1736410323,"current_range_meters":9200,"station_id":"ce4bh5p2rcd13ifvqe4g","pricing_plan_id":"cebpf4jnsgd1na2vs0mg"},{"bike_id":"88d3281d-3774-4453-a399-da9a7778c29e","system_id":"levelo_inurba_marseille","lat":43.26536,"lon":5.3904,"is_reserved":false,"is_disabled":true,"rental_uris":{"android":"levelo://app?vid=88d3281d-3774-4453-a399-da9a7778c29e","ios":"levelo://app?vid=88d3281d-3774-4453-a399-da9a7778c29e"},"vehicle_type_id":"4","last_reported":1736410323,"current_range_meters":400,"station_id":"ce4bhe12rcd13ifvqf30","pricing_plan_id":"cebpf4jnsgd1na2vs0mg"},{"bike_id":"28a111cc-3794-4268-b94a-bc117522b260","system_id":"levelo_inurba_marseille","lat":43.30944,"lon":5.39042,"is_reserved":false,"is_disabled":false,"rental_uris":{"android":"levelo://app?vid=28a111cc-3794-4268-b94a-bc117522b260","ios":"levelo://app?vid=28a111cc-3794-4268-b94a-bc117522b260"},"vehicle_type_id":"4","last_reported":1736410323,"current_range_meters":24400,"station_id":"ce4bgup2rcd13ifvqco0","pricing_plan_id":"cebpf4jnsgd1na2vs0mg"},{"bike_id":"e5410bec-fb17-4f9c-8010-02da077ef2ca","system_id":"levelo_inurba_marseille","lat":43.27968,"lon":5.38749,"is_reserved":false,"is_disabled":false,"rental_uris":{"android":"levelo://app?vid=e5410bec-fb17-4f9c-8010-02da077ef2ca","ios":"levelo://app?vid=e5410bec-fb17-4f9c-8010-02da077ef2ca"},"vehicle_type_id":"4","last_reported":1736410323,"current_range_meters":6400,"station_id":"ce4bhg12rcd13ifvqf80","pricing_plan_id":"cebpf4jnsgd1na2vs0mg"},{"bike_id":"e9b1302c-9612-4751-a40f-ab029a63718c","system_id":"levelo_inurba_marseille","lat":43.30144,"lon":5.37426,"is_reserved":false,"is_disabled":false,"rental_uris":{"android":"levelo://app?vid=e9b1302c-9612-4751-a40f-ab029a63718c","ios":"levelo://app?vid=e9b1302c-9612-4751-a40f-ab029a63718c"},"vehicle_type_id":"4","last_reported":1736410323,"current_range_meters":31200,"station_id":"ce4bgs92rcd13ifvqcc0","pricing_plan_id":"cebpf4jnsgd1na2vs0mg"},{"bike_id":"5a510936-ef30-4d40-ad66-b08ff6fa754c","system_id":"levelo_inurba_marseille","lat":43.30958,"lon":5.39052,"is_reserved":false,"is_disabled":false,"rental_uris":{"android":"levelo://app?vid=5a510936-ef30-4d40-ad66-b08ff6fa754c","ios":"levelo://app?vid=5a510936-ef30-4d40-ad66-b08ff6fa754c"},"vehicle_type_id":"4","last_reported":1736410323,"current_range_meters":38800,"station_id":"ce4bgup2rcd13ifvqco0","pricing_plan_id":"cebpf4jnsgd1na2vs0mg"},{"bike_id":"260ad999-6910-4ca2-bb14-f62dc04964ab","system_id":"levelo_inurba_marseille","lat":43.25008,"lon":5.389227,"is_reserved":false,"is_disabled":false,"rental_uris":{"android":"levelo://app?vid=260ad999-6910-4ca2-bb14-f62dc04964ab","ios":"levelo://app?vid=260ad999-6910-4ca2-bb14-f62dc04964ab"},"vehicle_type_id":"4","last_reported":1736410323,"current_range_meters":4000,"station_id":"ce4bhgp2rcd13ifvqfd0","pricing_plan_id":"cebpf4jnsgd1na2vs0mg"},{"bike_id":"fa4e1d94-57a7-4fd9-8196-d235d2c57bf0","system_id":"levelo_inurba_marseille","lat":43.30519,"lon":5.3671,"is_reserved":false,"is_disabled":false,"rental_uris":{"android":"levelo://app?vid=fa4e1d94-57a7-4fd9-8196-d235d2c57bf0","ios":"levelo://app?vid=fa4e1d94-57a7-4fd9-8196-d235d2c57bf0"},"vehicle_type_id":"4","last_reported":1736410323,"current_range_meters":39200,"station_id":"ce4bgrp2rcd13ifvqc9g","pricing_plan_id":"cebpf4jnsgd1na2vs0mg"},{"bike_id":"62c17a2a-95a1-4fa6-bcce-42552dd81ec1","system_id":"levelo_inurba_marseille","lat":43.31501,"lon":5.37297,"is_reserved":false,"is_disabled":true,"rental_uris":{"android":"levelo://app?vid=62c17a2a-95a1-4fa6-bcce-42552dd81ec1","ios":"levelo://app?vid=62c17a2a-95a1-4fa6-bcce-42552dd81ec1"},"vehicle_type_id":"4","last_reported":1736410323,"current_range_meters":0,"station_id":"ce4bgt12rcd13ifvqcd0","pricing_plan_id":"cebpf4jnsgd1na2vs0mg"},{"bike_id":"978a329c-0ea7-4caf-8578-9b393ff5e1b1","system_id":"levelo_inurba_marseille","lat":43.32542,"lon":5.41458,"is_reserved":false,"is_disabled":false,"rental_uris":{"android":"levelo://app?vid=978a329c-0ea7-4caf-8578-9b393ff5e1b1","ios":"levelo://app?vid=978a329c-0ea7-4caf-8578-9b393ff5e1b1"},"vehicle_type_id":"4","last_reported":1736410323,"current_range_meters":32000,"station_id":"ce4bhq12rcd13ifvqhhg","pricing_plan_id":"cebpf4jnsgd1na2vs0mg"},{"bike_id":"07acdbf0-e2f3-489b-bd42-61cb30669b29","system_id":"levelo_inurba_marseille","lat":43.27067,"lon":5.4228,"is_reserved":false,"is_disabled":false,"rental_uris":{"android":"levelo://app?vid=07acdbf0-e2f3-489b-bd42-61cb30669b29","ios":"levelo://app?vid=07acdbf0-e2f3-489b-bd42-61cb30669b29"},"vehicle_type_id":"4","last_reported":1736410323,"current_range_meters":38400,"station_id":"ce4bhk92rcd13ifvqgb0","pricing_plan_id":"cebpf4jnsgd1na2vs0mg"},{"bike_id":"ae870ab4-710e-4ed3-9af4-fcc88a5e6080","system_id":"levelo_inurba_marseille","lat":43.2692,"lon":5.38877,"is_reserved":false,"is_disabled":true,"rental_uris":{"android":"levelo://app?vid=ae870ab4-710e-4ed3-9af4-fcc88a5e6080","ios":"levelo://app?vid=ae870ab4-710e-4ed3-9af4-fcc88a5e6080"},"vehicle_type_id":"4","last_reported":1736410323,"current_range_meters":1600,"station_id":"","pricing_plan_id":"cebpf4jnsgd1na2vs0mg"},{"bike_id":"074f581e-c7b5-47b2-a4b9-c284fa70c031","system_id":"levelo_inurba_marseille","lat":43.28484,"lon":5.38556,"is_reserved":false,"is_disabled":true,"rental_uris":{"android":"levelo://app?vid=074f581e-c7b5-47b2-a4b9-c284fa70c031","ios":"levelo://app?vid=074f581e-c7b5-47b2-a4b9-c284fa70c031"},"vehicle_type_id":"4","last_reported":1736410323,"current_range_meters":38800,"station_id":"ce4bh8p2rcd13ifvqeb0","pricing_plan_id":"cebpf4jnsgd1na2vs0mg"},{"bike_id":"bf5b86b3-0ab4-4a8c-a39c-cc98024320b8","system_id":"levelo_inurba_marseille","lat":43.28417,"lon":5.37519,"is_reserved":false,"is_disabled":true,"rental_uris":{"android":"levelo://app?vid=bf5b86b3-0ab4-4a8c-a39c-cc98024320b8","ios":"levelo://app?vid=bf5b86b3-0ab4-4a8c-a39c-cc98024320b8"},"vehicle_type_id":"4","last_reported":1736410323,"current_range_meters":14000,"station_id":"ce4bh412rcd13ifvqds0","pricing_plan_id":"cebpf4jnsgd1na2vs0mg"},{"bike_id":"1fe4de93-a972-46c6-bbc7-b129ab9b60fe","system_id":"levelo_inurba_marseille","lat":43.27492,"lon":5.42452,"is_reserved":false,"is_disabled":false,"rental_uris":{"android":"levelo://app?vid=1fe4de93-a972-46c6-bbc7-b129ab9b60fe","ios":"levelo://app?vid=1fe4de93-a972-46c6-bbc7-b129ab9b60fe"},"vehicle_type_id":"4","last_reported":1736410323,"current_range_meters":26000,"station_id":"ce4bhn92rcd13ifvqgrg","pricing_plan_id":"cebpf4jnsgd1na2vs0mg"},{"bike_id":"573cd560-26e4-447a-a437-f12ad894e2f9","system_id":"levelo_inurba_marseille","lat":43.29849,"lon":5.36284,"is_reserved":false,"is_disabled":false,"rental_uris":{"android":"levelo://app?vid=573cd560-26e4-447a-a437-f12ad894e2f9","ios":"levelo://app?vid=573cd560-26e4-447a-a437-f12ad894e2f9"},"vehicle_type_id":"4","last_reported":1736410323,"current_range_meters":38800,"station_id":"ce4bgpp2rcd13ifvqc3g","pricing_plan_id":"cebpf4jnsgd1na2vs0mg"},{"bike_id":"0c9f26e2-be7f-4990-af23-4023b9fc089b","system_id":"levelo_inurba_marseille","lat":43.3108,"lon":5.42427,"is_reserved":false,"is_disabled":false,"rental_uris":{"android":"levelo://app?vid=0c9f26e2-be7f-4990-af23-4023b9fc089b","ios":"levelo://app?vid=0c9f26e2-be7f-4990-af23-4023b9fc089b"},"vehicle_type_id":"4","last_reported":1736410323,"current_range_meters":38400,"station_id":"ce4bhp92rcd13ifvqhag","pricing_plan_id":"cebpf4jnsgd1na2vs0mg"},{"bike_id":"128e494f-c5f6-49d1-8da7-12ffc5ea9838","system_id":"levelo_inurba_marseille","lat":43.24156,"lon":5.36389,"is_reserved":false,"is_disabled":true,"rental_uris":{"android":"levelo://app?vid=128e494f-c5f6-49d1-8da7-12ffc5ea9838","ios":"levelo://app?vid=128e494f-c5f6-49d1-8da7-12ffc5ea9838"},"vehicle_type_id":"4","last_reported":1736410323,"current_range_meters":12400,"station_id":"cpo36qri1sfpv3e86is0","pricing_plan_id":"cebpf4jnsgd1na2vs0mg"},{"bike_id":"f01fdadf-aa17-46a2-9b2b-03f41c0aad0e","system_id":"levelo_inurba_marseille","lat":43.26684,"lon":5.38274,"is_reserved":false,"is_disabled":false,"rental_uris":{"android":"levelo://app?vid=f01fdadf-aa17-46a2-9b2b-03f41c0aad0e","ios":"levelo://app?vid=f01fdadf-aa17-46a2-9b2b-03f41c0aad0e"},"vehicle_type_id":"4","last_reported":1736410323,"current_range_meters":32400,"station_id":"ce4bhg92rcd13ifvqf90","pricing_plan_id":"cebpf4jnsgd1na2vs0mg"},{"bike_id":"201edcd9-ea58-4450-adf5-e1deccadfded","system_id":"levelo_inurba_marseille","lat":43.2903,"lon":5.39981,"is_reserved":false,"is_disabled":false,"rental_uris":{"android":"levelo://app?vid=201edcd9-ea58-4450-adf5-e1deccadfded","ios":"levelo://app?vid=201edcd9-ea58-4450-adf5-e1deccadfded"},"vehicle_type_id":"4","last_reported":1736410323,"current_range_meters":34800,"station_id":"ce4bh392rcd13ifvqdm0","pricing_plan_id":"cebpf4jnsgd1na2vs0mg"},{"bike_id":"bfe61413-0f2e-4c52-b47b-cd780543338a","system_id":"levelo_inurba_marseille","lat":43.27965,"lon":5.3875,"is_reserved":false,"is_disabled":false,"rental_uris":{"android":"levelo://app?vid=bfe61413-0f2e-4c52-b47b-cd780543338a","ios":"levelo://app?vid=bfe61413-0f2e-4c52-b47b-cd780543338a"},"vehicle_type_id":"4","last_reported":1736410323,"current_range_meters":39200,"station_id":"ce4bhg12rcd13ifvqf80","pricing_plan_id":"cebpf4jnsgd1na2vs0mg"},{"bike_id":"13410f0c-5da0-428f-a35c-269f9a8f1cde","system_id":"levelo_inurba_marseille","lat":43.29038,"lon":5.39952,"is_reserved":false,"is_disabled":false,"rental_uris":{"android":"levelo://app?vid=13410f0c-5da0-428f-a35c-269f9a8f1cde","ios":"levelo://app?vid=13410f0c-5da0-428f-a35c-269f9a8f1cde"},"vehicle_type_id":"4","last_reported":1736410323,"current_range_meters":33600,"station_id":"ce4bh392rcd13ifvqdm0","pricing_plan_id":"cebpf4jnsgd1na2vs0mg"},{"bike_id":"42d905c4-9ee2-4402-a796-7c4f27c94b70","system_id":"levelo_inurba_marseille","lat":43.29771,"lon":5.38113,"is_reserved":false,"is_disabled":true,"rental_uris":{"android":"levelo://app?vid=42d905c4-9ee2-4402-a796-7c4f27c94b70","ios":"levelo://app?vid=42d905c4-9ee2-4402-a796-7c4f27c94b70"},"vehicle_type_id":"4","last_reported":1736410323,"current_range_meters":12400,"station_id":"ce4bgip2rcd13ifvqbb0","pricing_plan_id":"cebpf4jnsgd1na2vs0mg"},{"bike_id":"9fd9a3de-90df-466c-8510-f29e450ec62b","system_id":"levelo_inurba_marseille","lat":43.31075,"lon":5.4244,"is_reserved":false,"is_disabled":true,"rental_uris":{"android":"levelo://app?vid=9fd9a3de-90df-466c-8510-f29e450ec62b","ios":"levelo://app?vid=9fd9a3de-90df-466c-8510-f29e450ec62b"},"vehicle_type_id":"4","last_reported":1736410323,"current_range_meters":14000,"station_id":"ce4bhp92rcd13ifvqhag","pricing_plan_id":"cebpf4jnsgd1na2vs0mg"},{"bike_id":"037144ed-aafa-4390-8d32-ef4e940ab49d","system_id":"levelo_inurba_marseille","lat":43.286513,"lon":5.363513,"is_reserved":false,"is_disabled":true,"rental_uris":{"android":"levelo://app?vid=037144ed-aafa-4390-8d32-ef4e940ab49d","ios":"levelo://app?vid=037144ed-aafa-4390-8d32-ef4e940ab49d"},"vehicle_type_id":"4","last_reported":1736410323,"current_range_meters":4000,"station_id":"ce4bhah2rcd13ifvqej0","pricing_plan_id":"cebpf4jnsgd1na2vs0mg"},{"bike_id":"7e647b87-ee39-48c8-8a57-8ca415c7293d","system_id":"levelo_inurba_marseille","lat":43.23049,"lon":5.35498,"is_reserved":false,"is_disabled":false,"rental_uris":{"android":"levelo://app?vid=7e647b87-ee39-48c8-8a57-8ca415c7293d","ios":"levelo://app?vid=7e647b87-ee39-48c8-8a57-8ca415c7293d"},"vehicle_type_id":"4","last_reported":1736410323,"current_range_meters":34800,"station_id":"cpo3342slgdg3j2ifvpg","pricing_plan_id":"cebpf4jnsgd1na2vs0mg"},{"bike_id":"2e111832-e19b-4555-bbf4-d6a50be9d832","system_id":"levelo_inurba_marseille","lat":43.28425,"lon":5.37507,"is_reserved":false,"is_disabled":true,"rental_uris":{"android":"levelo://app?vid=2e111832-e19b-4555-bbf4-d6a50be9d832","ios":"levelo://app?vid=2e111832-e19b-4555-bbf4-d6a50be9d832"},"vehicle_type_id":"4","last_reported":1736410323,"current_range_meters":33600,"station_id":"","pricing_plan_id":"cebpf4jnsgd1na2vs0mg"},{"bike_id":"39df3191-edd6-415a-8f1e-bee4d3a68754","system_id":"levelo_inurba_marseille","lat":43.27675,"lon":5.38896,"is_reserved":false,"is_disabled":false,"rental_uris":{"android":"levelo://app?vid=39df3191-edd6-415a-8f1e-bee4d3a68754","ios":"levelo://app?vid=39df3191-edd6-415a-8f1e-bee4d3a68754"},"vehicle_type_id":"4","last_reported":1736410323,"current_range_meters":28800,"station_id":"ce4bhi12rcd13ifvqfo0","pricing_plan_id":"cebpf4jnsgd1na2vs0mg"},{"bike_id":"102cb488-e37e-4a25-ae00-7f174450be41","system_id":"levelo_inurba_marseille","lat":43.27568,"lon":5.38401,"is_reserved":false,"is_disabled":false,"rental_uris":{"android":"levelo://app?vid=102cb488-e37e-4a25-ae00-7f174450be41","ios":"levelo://app?vid=102cb488-e37e-4a25-ae00-7f174450be41"},"vehicle_type_id":"4","last_reported":1736410323,"current_range_meters":38400,"station_id":"ce4bhh92rcd13ifvqfi0","pricing_plan_id":"cebpf4jnsgd1na2vs0mg"},{"bike_id":"1f50cc2d-c6ef-46fb-9c7f-27b6608a6555","system_id":"levelo_inurba_marseille","lat":43.30878,"lon":5.36883,"is_reserved":false,"is_disabled":false,"rental_uris":{"android":"levelo://app?vid=1f50cc2d-c6ef-46fb-9c7f-27b6608a6555","ios":"levelo://app?vid=1f50cc2d-c6ef-46fb-9c7f-27b6608a6555"},"vehicle_type_id":"4","last_reported":1736410323,"current_range_meters":32400,"station_id":"ce4bgn92rcd13ifvqbvg","pricing_plan_id":"cebpf4jnsgd1na2vs0mg"},{"bike_id":"66262c96-b45c-4483-b296-8a78ef082310","system_id":"levelo_inurba_marseille","lat":43.30281,"lon":5.377,"is_reserved":false,"is_disabled":false,"rental_uris":{"android":"levelo://app?vid=66262c96-b45c-4483-b296-8a78ef082310","ios":"levelo://app?vid=66262c96-b45c-4483-b296-8a78ef082310"},"vehicle_type_id":"4","last_reported":1736410323,"current_range_meters":33600,"station_id":"ce4bguh2rcd13ifvqcj0","pricing_plan_id":"cebpf4jnsgd1na2vs0mg"},{"bike_id":"3223642d-f7b5-46fa-8dd2-cf3f83b56156","system_id":"levelo_inurba_marseille","lat":43.29373,"lon":5.37843,"is_reserved":false,"is_disabled":false,"rental_uris":{"android":"levelo://app?vid=3223642d-f7b5-46fa-8dd2-cf3f83b56156","ios":"levelo://app?vid=3223642d-f7b5-46fa-8dd2-cf3f83b56156"},"vehicle_type_id":"4","last_reported":1736410323,"current_range_meters":37600,"station_id":"ce4bgjh2rcd13ifvqbf0","pricing_plan_id":"cebpf4jnsgd1na2vs0mg"},{"bike_id":"09e3588e-7ba5-47e4-87a0-bfa5eb2056aa","system_id":"levelo_inurba_marseille","lat":43.31766,"lon":5.39004,"is_reserved":false,"is_disabled":false,"rental_uris":{"android":"levelo://app?vid=09e3588e-7ba5-47e4-87a0-bfa5eb2056aa","ios":"levelo://app?vid=09e3588e-7ba5-47e4-87a0-bfa5eb2056aa"},"vehicle_type_id":"4","last_reported":1736410323,"current_range_meters":16800,"station_id":"ce4bhqp2rcd13ifvqhng","pricing_plan_id":"cebpf4jnsgd1na2vs0mg"},{"bike_id":"a0353e02-f61e-4c4a-b079-581d0669d9ae","system_id":"levelo_inurba_marseille","lat":43.31705,"lon":5.37765,"is_reserved":false,"is_disabled":false,"rental_uris":{"android":"levelo://app?vid=a0353e02-f61e-4c4a-b079-581d0669d9ae","ios":"levelo://app?vid=a0353e02-f61e-4c4a-b079-581d0669d9ae"},"vehicle_type_id":"4","last_reported":1736410323,"current_range_meters":38800,"station_id":"ce4bgth2rcd13ifvqch0","pricing_plan_id":"cebpf4jnsgd1na2vs0mg"},{"bike_id":"2d1536de-ed9a-4813-bbd6-10bda74ca621","system_id":"levelo_inurba_marseille","lat":43.24786,"lon":5.37473,"is_reserved":false,"is_disabled":false,"rental_uris":{"android":"levelo://app?vid=2d1536de-ed9a-4813-bbd6-10bda74ca621","ios":"levelo://app?vid=2d1536de-ed9a-4813-bbd6-10bda74ca621"},"vehicle_type_id":"4","last_reported":1736410323,"current_range_meters":11200,"station_id":"ce4bhgh2rcd13ifvqfb0","pricing_plan_id":"cebpf4jnsgd1na2vs0mg"},{"bike_id":"39faa2fe-395f-49c9-9056-e37436793a85","system_id":"levelo_inurba_marseille","lat":43.303144,"lon":5.404431,"is_reserved":false,"is_disabled":true,"rental_uris":{"android":"levelo://app?vid=39faa2fe-395f-49c9-9056-e37436793a85","ios":"levelo://app?vid=39faa2fe-395f-49c9-9056-e37436793a85"},"vehicle_type_id":"4","last_reported":1736410323,"current_range_meters":29600,"station_id":"ce4bh012rcd13ifvqd10","pricing_plan_id":"cebpf4jnsgd1na2vs0mg"},{"bike_id":"80f089d1-6208-4daa-bf1d-e077f22470f1","system_id":"levelo_inurba_marseille","lat":43.33718,"lon":5.39186,"is_reserved":false,"is_disabled":false,"rental_uris":{"android":"levelo://app?vid=80f089d1-6208-4daa-bf1d-e077f22470f1","ios":"levelo://app?vid=80f089d1-6208-4daa-bf1d-e077f22470f1"},"vehicle_type_id":"4","last_reported":1736410323,"current_range_meters":19200,"station_id":"ce4bhr92rcd13ifvqhsg","pricing_plan_id":"cebpf4jnsgd1na2vs0mg"},{"bike_id":"e14b89e2-c308-4a37-be6f-d17509326321","system_id":"levelo_inurba_marseille","lat":43.31343,"lon":5.36724,"is_reserved":false,"is_disabled":false,"rental_uris":{"android":"levelo://app?vid=e14b89e2-c308-4a37-be6f-d17509326321","ios":"levelo://app?vid=e14b89e2-c308-4a37-be6f-d17509326321"},"vehicle_type_id":"4","last_reported":1736410323,"current_range_meters":28000,"station_id":"ce4bgr92rcd13ifvqc6g","pricing_plan_id":"cebpf4jnsgd1na2vs0mg"},{"bike_id":"ee31af65-8f6b-4958-b048-ba78a3897db1","system_id":"levelo_inurba_marseille","lat":43.33611,"lon":5.41035,"is_reserved":false,"is_disabled":false,"rental_uris":{"android":"levelo://app?vid=ee31af65-8f6b-4958-b048-ba78a3897db1","ios":"levelo://app?vid=ee31af65-8f6b-4958-b048-ba78a3897db1"},"vehicle_type_id":"4","last_reported":1736410323,"current_range_meters":17200,"station_id":"ce4bhqh2rcd13ifvqhmg","pricing_plan_id":"cebpf4jnsgd1na2vs0mg"},{"bike_id":"c5d38e55-ac65-4343-b113-b767b27a1b66","system_id":"levelo_inurba_marseille","lat":43.24179,"lon":5.39725,"is_reserved":false,"is_disabled":false,"rental_uris":{"android":"levelo://app?vid=c5d38e55-ac65-4343-b113-b767b27a1b66","ios":"levelo://app?vid=c5d38e55-ac65-4343-b113-b767b27a1b66"},"vehicle_type_id":"4","last_reported":1736410323,"current_range_meters":20800,"station_id":"ce4bhn12rcd13ifvqgpg","pricing_plan_id":"cebpf4jnsgd1na2vs0mg"},{"bike_id":"2b814576-82ce-4758-abf3-c79e907188a0","system_id":"levelo_inurba_marseille","lat":43.29476,"lon":5.37612,"is_reserved":false,"is_disabled":false,"rental_uris":{"android":"levelo://app?vid=2b814576-82ce-4758-abf3-c79e907188a0","ios":"levelo://app?vid=2b814576-82ce-4758-abf3-c79e907188a0"},"vehicle_type_id":"4","last_reported":1736410323,"current_range_meters":8800,"station_id":"","pricing_plan_id":"cebpf4jnsgd1na2vs0mg"},{"bike_id":"634a031a-85f4-4a82-a081-262bdc08dc08","system_id":"levelo_inurba_marseille","lat":43.27492,"lon":5.42455,"is_reserved":false,"is_disabled":false,"rental_uris":{"android":"levelo://app?vid=634a031a-85f4-4a82-a081-262bdc08dc08","ios":"levelo://app?vid=634a031a-85f4-4a82-a081-262bdc08dc08"},"vehicle_type_id":"4","last_reported":1736410323,"current_range_meters":34800,"station_id":"ce4bhn92rcd13ifvqgrg","pricing_plan_id":"cebpf4jnsgd1na2vs0mg"},{"bike_id":"4b1bcc07-82a7-477b-8def-610d4f653cb3","system_id":"levelo_inurba_marseille","lat":43.29017,"lon":5.38132,"is_reserved":false,"is_disabled":true,"rental_uris":{"android":"levelo://app?vid=4b1bcc07-82a7-477b-8def-610d4f653cb3","ios":"levelo://app?vid=4b1bcc07-82a7-477b-8def-610d4f653cb3"},"vehicle_type_id":"4","last_reported":1736410323,"current_range_meters":24400,"station_id":"ce4bh4p2rcd13ifvqe1g","pricing_plan_id":"cebpf4jnsgd1na2vs0mg"},{"bike_id":"b69e39e4-e108-465d-bddd-4ffc1dea8f10","system_id":"levelo_inurba_marseille","lat":43.25713,"lon":5.41119,"is_reserved":false,"is_disabled":false,"rental_uris":{"android":"levelo://app?vid=b69e39e4-e108-465d-bddd-4ffc1dea8f10","ios":"levelo://app?vid=b69e39e4-e108-465d-bddd-4ffc1dea8f10"},"vehicle_type_id":"4","last_reported":1736410323,"current_range_meters":36800,"station_id":"ce4bhkp2rcd13ifvqgd0","pricing_plan_id":"cebpf4jnsgd1na2vs0mg"},{"bike_id":"f2536309-8d2b-4ccd-86e1-4c168080c77c","system_id":"levelo_inurba_marseille","lat":43.23179,"lon":5.35566,"is_reserved":false,"is_disabled":false,"rental_uris":{"android":"levelo://app?vid=f2536309-8d2b-4ccd-86e1-4c168080c77c","ios":"levelo://app?vid=f2536309-8d2b-4ccd-86e1-4c168080c77c"},"vehicle_type_id":"4","last_reported":1736410323,"current_range_meters":8000,"station_id":"ce4bhu92rcd13ifvqi70","pricing_plan_id":"cebpf4jnsgd1na2vs0mg"},{"bike_id":"98acfbe9-5036-4f04-be90-e65f01ce50b5","system_id":"levelo_inurba_marseille","lat":43.24087,"lon":5.37732,"is_reserved":false,"is_disabled":false,"rental_uris":{"android":"levelo://app?vid=98acfbe9-5036-4f04-be90-e65f01ce50b5","ios":"levelo://app?vid=98acfbe9-5036-4f04-be90-e65f01ce50b5"},"vehicle_type_id":"4","last_reported":1736410323,"current_range_meters":25200,"station_id":"ce4bhnp2rcd13ifvqgvg","pricing_plan_id":"cebpf4jnsgd1na2vs0mg"},{"bike_id":"6b640b87-7556-44b6-bc74-75d5376a29ae","system_id":"levelo_inurba_marseille","lat":43.31375,"lon":5.36759,"is_reserved":false,"is_disabled":false,"rental_uris":{"android":"levelo://app?vid=6b640b87-7556-44b6-bc74-75d5376a29ae","ios":"levelo://app?vid=6b640b87-7556-44b6-bc74-75d5376a29ae"},"vehicle_type_id":"4","last_reported":1736410323,"current_range_meters":31200,"station_id":"","pricing_plan_id":"cebpf4jnsgd1na2vs0mg"},{"bike_id":"37473974-effd-49ca-be9f-43a2b2a7e5ee","system_id":"levelo_inurba_marseille","lat":43.30476,"lon":5.37896,"is_reserved":false,"is_disabled":false,"rental_uris":{"android":"levelo://app?vid=37473974-effd-49ca-be9f-43a2b2a7e5ee","ios":"levelo://app?vid=37473974-effd-49ca-be9f-43a2b2a7e5ee"},"vehicle_type_id":"4","last_reported":1736410323,"current_range_meters":24000,"station_id":"ce4bgup2rcd13ifvqcn0","pricing_plan_id":"cebpf4jnsgd1na2vs0mg"},{"bike_id":"ff74a986-f967-43aa-b18f-f2e18ed7e568","system_id":"levelo_inurba_marseille","lat":43.29102,"lon":5.3814,"is_reserved":false,"is_disabled":true,"rental_uris":{"android":"levelo://app?vid=ff74a986-f967-43aa-b18f-f2e18ed7e568","ios":"levelo://app?vid=ff74a986-f967-43aa-b18f-f2e18ed7e568"},"vehicle_type_id":"4","last_reported":1736410323,"current_range_meters":9600,"station_id":"ce4bh512rcd13ifvqe2g","pricing_plan_id":"cebpf4jnsgd1na2vs0mg"},{"bike_id":"b8b738cb-ef0c-4357-b3a7-9b64021e64ef","system_id":"levelo_inurba_marseille","lat":43.33017,"lon":5.39011,"is_reserved":false,"is_disabled":false,"rental_uris":{"android":"levelo://app?vid=b8b738cb-ef0c-4357-b3a7-9b64021e64ef","ios":"levelo://app?vid=b8b738cb-ef0c-4357-b3a7-9b64021e64ef"},"vehicle_type_id":"4","last_reported":1736410323,"current_range_meters":34800,"station_id":"ce4bhr92rcd13ifvqhrg","pricing_plan_id":"cebpf4jnsgd1na2vs0mg"},{"bike_id":"bb636211-c010-46b6-b358-bf7db6dac6a4","system_id":"levelo_inurba_marseille","lat":43.29025,"lon":5.38104,"is_reserved":false,"is_disabled":true,"rental_uris":{"android":"levelo://app?vid=bb636211-c010-46b6-b358-bf7db6dac6a4","ios":"levelo://app?vid=bb636211-c010-46b6-b358-bf7db6dac6a4"},"vehicle_type_id":"4","last_reported":1736410323,"current_range_meters":37600,"station_id":"ce4bh4p2rcd13ifvqe1g","pricing_plan_id":"cebpf4jnsgd1na2vs0mg"},{"bike_id":"36cd0b0b-3b9b-4f45-8abd-e5b966ccd39a","system_id":"levelo_inurba_marseille","lat":43.31887,"lon":5.40741,"is_reserved":false,"is_disabled":false,"rental_uris":{"android":"levelo://app?vid=36cd0b0b-3b9b-4f45-8abd-e5b966ccd39a","ios":"levelo://app?vid=36cd0b0b-3b9b-4f45-8abd-e5b966ccd39a"},"vehicle_type_id":"4","last_reported":1736410323,"current_range_meters":38800,"station_id":"ce4bhq12rcd13ifvqhig","pricing_plan_id":"cebpf4jnsgd1na2vs0mg"},{"bike_id":"f76caccf-de8b-4760-a4b0-3d1087b2d15c","system_id":"levelo_inurba_marseille","lat":43.27846,"lon":5.3921,"is_reserved":false,"is_disabled":false,"rental_uris":{"android":"levelo://app?vid=f76caccf-de8b-4760-a4b0-3d1087b2d15c","ios":"levelo://app?vid=f76caccf-de8b-4760-a4b0-3d1087b2d15c"},"vehicle_type_id":"4","last_reported":1736410323,"current_range_meters":38800,"station_id":"ce4bhjp2rcd13ifvqga0","pricing_plan_id":"cebpf4jnsgd1na2vs0mg"},{"bike_id":"730ac88e-25cf-4c16-8bb4-ef5233b286a1","system_id":"levelo_inurba_marseille","lat":43.25009,"lon":5.38919,"is_reserved":false,"is_disabled":false,"rental_uris":{"android":"levelo://app?vid=730ac88e-25cf-4c16-8bb4-ef5233b286a1","ios":"levelo://app?vid=730ac88e-25cf-4c16-8bb4-ef5233b286a1"},"vehicle_type_id":"4","last_reported":1736410323,"current_range_meters":19600,"station_id":"ce4bhgp2rcd13ifvqfd0","pricing_plan_id":"cebpf4jnsgd1na2vs0mg"},{"bike_id":"a023b9e2-2413-4b3d-a218-b9727e7097b5","system_id":"levelo_inurba_marseille","lat":43.292991,"lon":5.374633,"is_reserved":false,"is_disabled":true,"rental_uris":{"android":"levelo://app?vid=a023b9e2-2413-4b3d-a218-b9727e7097b5","ios":"levelo://app?vid=a023b9e2-2413-4b3d-a218-b9727e7097b5"},"vehicle_type_id":"4","last_reported":1736410323,"current_range_meters":30400,"station_id":"ce4bgi12rcd13ifvqb70","pricing_plan_id":"cebpf4jnsgd1na2vs0mg"},{"bike_id":"6058e9ce-752e-4934-ae72-d78f217a2c4d","system_id":"levelo_inurba_marseille","lat":43.29642,"lon":5.37148,"is_reserved":false,"is_disabled":false,"rental_uris":{"android":"levelo://app?vid=6058e9ce-752e-4934-ae72-d78f217a2c4d","ios":"levelo://app?vid=6058e9ce-752e-4934-ae72-d78f217a2c4d"},"vehicle_type_id":"4","last_reported":1736410323,"current_range_meters":36400,"station_id":"ce4bgnh2rcd13ifvqc0g","pricing_plan_id":"cebpf4jnsgd1na2vs0mg"},{"bike_id":"ccdaaa6c-81ef-4113-be28-76f9f82c6762","system_id":"levelo_inurba_marseille","lat":43.31367,"lon":5.36727,"is_reserved":false,"is_disabled":false,"rental_uris":{"android":"levelo://app?vid=ccdaaa6c-81ef-4113-be28-76f9f82c6762","ios":"levelo://app?vid=ccdaaa6c-81ef-4113-be28-76f9f82c6762"},"vehicle_type_id":"4","last_reported":1736410323,"current_range_meters":27600,"station_id":"ce4bgr92rcd13ifvqc6g","pricing_plan_id":"cebpf4jnsgd1na2vs0mg"},{"bike_id":"3e2246cb-9b6f-4fe1-82f2-4dd1b71e8bfa","system_id":"levelo_inurba_marseille","lat":43.299357,"lon":5.39855,"is_reserved":false,"is_disabled":false,"rental_uris":{"android":"levelo://app?vid=3e2246cb-9b6f-4fe1-82f2-4dd1b71e8bfa","ios":"levelo://app?vid=3e2246cb-9b6f-4fe1-82f2-4dd1b71e8bfa"},"vehicle_type_id":"4","last_reported":1736410323,"current_range_meters":32000,"station_id":"","pricing_plan_id":"cebpf4jnsgd1na2vs0mg"},{"bike_id":"43d93e53-9f11-415d-98d7-95709d8633e5","system_id":"levelo_inurba_marseille","lat":43.26554,"lon":5.39012,"is_reserved":false,"is_disabled":true,"rental_uris":{"android":"levelo://app?vid=43d93e53-9f11-415d-98d7-95709d8633e5","ios":"levelo://app?vid=43d93e53-9f11-415d-98d7-95709d8633e5"},"vehicle_type_id":"4","last_reported":1736410323,"current_range_meters":25200,"station_id":"ce4bhe12rcd13ifvqf30","pricing_plan_id":"cebpf4jnsgd1na2vs0mg"},{"bike_id":"abcfdef3-1ca1-4962-aea3-98fc8de74111","system_id":"levelo_inurba_marseille","lat":43.27323,"lon":5.39077,"is_reserved":false,"is_disabled":false,"rental_uris":{"android":"levelo://app?vid=abcfdef3-1ca1-4962-aea3-98fc8de74111","ios":"levelo://app?vid=abcfdef3-1ca1-4962-aea3-98fc8de74111"},"vehicle_type_id":"4","last_reported":1736410323,"current_range_meters":22400,"station_id":"ce4bhgp2rcd13ifvqfe0","pricing_plan_id":"cebpf4jnsgd1na2vs0mg"},{"bike_id":"2a611997-d70e-4c6d-ac36-17e21435ec55","system_id":"levelo_inurba_marseille","lat":43.305586,"lon":5.367415,"is_reserved":false,"is_disabled":false,"rental_uris":{"android":"levelo://app?vid=2a611997-d70e-4c6d-ac36-17e21435ec55","ios":"levelo://app?vid=2a611997-d70e-4c6d-ac36-17e21435ec55"},"vehicle_type_id":"4","last_reported":1736410323,"current_range_meters":8800,"station_id":"ce4bgrp2rcd13ifvqc9g","pricing_plan_id":"cebpf4jnsgd1na2vs0mg"},{"bike_id":"702703ce-9877-4f50-b0ae-4f79b291ba73","system_id":"levelo_inurba_marseille","lat":43.29907,"lon":5.38146,"is_reserved":false,"is_disabled":false,"rental_uris":{"android":"levelo://app?vid=702703ce-9877-4f50-b0ae-4f79b291ba73","ios":"levelo://app?vid=702703ce-9877-4f50-b0ae-4f79b291ba73"},"vehicle_type_id":"4","last_reported":1736410323,"current_range_meters":5600,"station_id":"ce4bgj12rcd13ifvqbc0","pricing_plan_id":"cebpf4jnsgd1na2vs0mg"},{"bike_id":"84f94f4e-0808-4a6a-81b7-b32e63ec079a","system_id":"levelo_inurba_marseille","lat":43.28452,"lon":5.38402,"is_reserved":false,"is_disabled":false,"rental_uris":{"android":"levelo://app?vid=84f94f4e-0808-4a6a-81b7-b32e63ec079a","ios":"levelo://app?vid=84f94f4e-0808-4a6a-81b7-b32e63ec079a"},"vehicle_type_id":"4","last_reported":1736410323,"current_range_meters":38800,"station_id":"ce4bh512rcd13ifvqe3g","pricing_plan_id":"cebpf4jnsgd1na2vs0mg"},{"bike_id":"2825a119-5b5a-4630-b83a-5a86bf58ccad","system_id":"levelo_inurba_marseille","lat":43.312799,"lon":5.373674,"is_reserved":false,"is_disabled":false,"rental_uris":{"android":"levelo://app?vid=2825a119-5b5a-4630-b83a-5a86bf58ccad","ios":"levelo://app?vid=2825a119-5b5a-4630-b83a-5a86bf58ccad"},"vehicle_type_id":"4","last_reported":1736410323,"current_range_meters":6800,"station_id":"","pricing_plan_id":"cebpf4jnsgd1na2vs0mg"},{"bike_id":"599cb150-7973-4a42-bd67-2927c118c704","system_id":"levelo_inurba_marseille","lat":43.3359,"lon":5.40967,"is_reserved":false,"is_disabled":false,"rental_uris":{"android":"levelo://app?vid=599cb150-7973-4a42-bd67-2927c118c704","ios":"levelo://app?vid=599cb150-7973-4a42-bd67-2927c118c704"},"vehicle_type_id":"4","last_reported":1736410323,"current_range_meters":37600,"station_id":"ce4bhqh2rcd13ifvqhmg","pricing_plan_id":"cebpf4jnsgd1na2vs0mg"},{"bike_id":"e0888fda-f491-4af6-b84a-392b540e2ac4","system_id":"levelo_inurba_marseille","lat":43.27315,"lon":5.39071,"is_reserved":false,"is_disabled":false,"rental_uris":{"android":"levelo://app?vid=e0888fda-f491-4af6-b84a-392b540e2ac4","ios":"levelo://app?vid=e0888fda-f491-4af6-b84a-392b540e2ac4"},"vehicle_type_id":"4","last_reported":1736410323,"current_range_meters":27200,"station_id":"ce4bhgp2rcd13ifvqfe0","pricing_plan_id":"cebpf4jnsgd1na2vs0mg"},{"bike_id":"a5de4f51-c9f5-4f57-aa6d-d7fdb83ee152","system_id":"levelo_inurba_marseille","lat":43.26188,"lon":5.37469,"is_reserved":false,"is_disabled":true,"rental_uris":{"android":"levelo://app?vid=a5de4f51-c9f5-4f57-aa6d-d7fdb83ee152","ios":"levelo://app?vid=a5de4f51-c9f5-4f57-aa6d-d7fdb83ee152"},"vehicle_type_id":"4","last_reported":1736410323,"current_range_meters":800,"station_id":"ce4bhgp2rcd13ifvqfc0","pricing_plan_id":"cebpf4jnsgd1na2vs0mg"},{"bike_id":"c1884886-7195-4587-8c39-415e45dd607f","system_id":"levelo_inurba_marseille","lat":43.24177,"lon":5.39732,"is_reserved":false,"is_disabled":false,"rental_uris":{"android":"levelo://app?vid=c1884886-7195-4587-8c39-415e45dd607f","ios":"levelo://app?vid=c1884886-7195-4587-8c39-415e45dd607f"},"vehicle_type_id":"4","last_reported":1736410323,"current_range_meters":7200,"station_id":"ce4bhn12rcd13ifvqgpg","pricing_plan_id":"cebpf4jnsgd1na2vs0mg"},{"bike_id":"3cddc7d0-66f2-44ac-afa2-f28c1202d2e7","system_id":"levelo_inurba_marseille","lat":43.33611,"lon":5.41001,"is_reserved":false,"is_disabled":false,"rental_uris":{"android":"levelo://app?vid=3cddc7d0-66f2-44ac-afa2-f28c1202d2e7","ios":"levelo://app?vid=3cddc7d0-66f2-44ac-afa2-f28c1202d2e7"},"vehicle_type_id":"4","last_reported":1736410323,"current_range_meters":37600,"station_id":"ce4bhqh2rcd13ifvqhmg","pricing_plan_id":"cebpf4jnsgd1na2vs0mg"},{"bike_id":"4efd2084-9715-446a-aae8-df22bb0734d5","system_id":"levelo_inurba_marseille","lat":43.25916,"lon":5.40914,"is_reserved":false,"is_disabled":false,"rental_uris":{"android":"levelo://app?vid=4efd2084-9715-446a-aae8-df22bb0734d5","ios":"levelo://app?vid=4efd2084-9715-446a-aae8-df22bb0734d5"},"vehicle_type_id":"4","last_reported":1736410323,"current_range_meters":23200,"station_id":"ce4bhm92rcd13ifvqglg","pricing_plan_id":"cebpf4jnsgd1na2vs0mg"},{"bike_id":"566e166f-540b-49b9-9dbe-d7f4132c151b","system_id":"levelo_inurba_marseille","lat":43.30309,"lon":5.36897,"is_reserved":false,"is_disabled":false,"rental_uris":{"android":"levelo://app?vid=566e166f-540b-49b9-9dbe-d7f4132c151b","ios":"levelo://app?vid=566e166f-540b-49b9-9dbe-d7f4132c151b"},"vehicle_type_id":"4","last_reported":1736410323,"current_range_meters":38000,"station_id":"ce4bgqh2rcd13ifvqc5g","pricing_plan_id":"cebpf4jnsgd1na2vs0mg"},{"bike_id":"efef951d-7a28-434a-9def-181d9819fab9","system_id":"levelo_inurba_marseille","lat":43.29542,"lon":5.3751,"is_reserved":false,"is_disabled":false,"rental_uris":{"android":"levelo://app?vid=efef951d-7a28-434a-9def-181d9819fab9","ios":"levelo://app?vid=efef951d-7a28-434a-9def-181d9819fab9"},"vehicle_type_id":"4","last_reported":1736410323,"current_range_meters":33200,"station_id":"ce4bgkp2rcd13ifvqbmg","pricing_plan_id":"cebpf4jnsgd1na2vs0mg"},{"bike_id":"7a0a8a69-615c-43f3-a001-073b74f4a57b","system_id":"levelo_inurba_marseille","lat":43.25575,"lon":5.38229,"is_reserved":false,"is_disabled":false,"rental_uris":{"android":"levelo://app?vid=7a0a8a69-615c-43f3-a001-073b74f4a57b","ios":"levelo://app?vid=7a0a8a69-615c-43f3-a001-073b74f4a57b"},"vehicle_type_id":"4","last_reported":1736410323,"current_range_meters":31200,"station_id":"ce4bhih2rcd13ifvqfs0","pricing_plan_id":"cebpf4jnsgd1na2vs0mg"},{"bike_id":"43beb3ff-6dba-44c4-8cee-ee4bda60cbb9","system_id":"levelo_inurba_marseille","lat":43.27974,"lon":5.38746,"is_reserved":false,"is_disabled":false,"rental_uris":{"android":"levelo://app?vid=43beb3ff-6dba-44c4-8cee-ee4bda60cbb9","ios":"levelo://app?vid=43beb3ff-6dba-44c4-8cee-ee4bda60cbb9"},"vehicle_type_id":"4","last_reported":1736410323,"current_range_meters":8400,"station_id":"ce4bhg12rcd13ifvqf80","pricing_plan_id":"cebpf4jnsgd1na2vs0mg"},{"bike_id":"d03baa4e-a1ff-4dbb-aa3a-8f7610789178","system_id":"levelo_inurba_marseille","lat":43.33724,"lon":5.3922,"is_reserved":false,"is_disabled":false,"rental_uris":{"android":"levelo://app?vid=d03baa4e-a1ff-4dbb-aa3a-8f7610789178","ios":"levelo://app?vid=d03baa4e-a1ff-4dbb-aa3a-8f7610789178"},"vehicle_type_id":"4","last_reported":1736410323,"current_range_meters":38800,"station_id":"ce4bhr92rcd13ifvqhsg","pricing_plan_id":"cebpf4jnsgd1na2vs0mg"},{"bike_id":"d5470c79-2751-4325-8543-6242ca460841","system_id":"levelo_inurba_marseille","lat":43.30482,"lon":5.37899,"is_reserved":false,"is_disabled":false,"rental_uris":{"android":"levelo://app?vid=d5470c79-2751-4325-8543-6242ca460841","ios":"levelo://app?vid=d5470c79-2751-4325-8543-6242ca460841"},"vehicle_type_id":"4","last_reported":1736410323,"current_range_meters":36400,"station_id":"ce4bgup2rcd13ifvqcn0","pricing_plan_id":"cebpf4jnsgd1na2vs0mg"},{"bike_id":"0a3d01c7-b1b6-4282-806b-4f33aa594a92","system_id":"levelo_inurba_marseille","lat":43.24396,"lon":5.37053,"is_reserved":false,"is_disabled":false,"rental_uris":{"android":"levelo://app?vid=0a3d01c7-b1b6-4282-806b-4f33aa594a92","ios":"levelo://app?vid=0a3d01c7-b1b6-4282-806b-4f33aa594a92"},"vehicle_type_id":"4","last_reported":1736410323,"current_range_meters":38800,"station_id":"ce4bhhh2rcd13ifvqfk0","pricing_plan_id":"cebpf4jnsgd1na2vs0mg"},{"bike_id":"e55df270-5810-4b23-940b-dee821cadcec","system_id":"levelo_inurba_marseille","lat":43.26699,"lon":5.38269,"is_reserved":false,"is_disabled":false,"rental_uris":{"android":"levelo://app?vid=e55df270-5810-4b23-940b-dee821cadcec","ios":"levelo://app?vid=e55df270-5810-4b23-940b-dee821cadcec"},"vehicle_type_id":"4","last_reported":1736410323,"current_range_meters":35600,"station_id":"ce4bhg92rcd13ifvqf90","pricing_plan_id":"cebpf4jnsgd1na2vs0mg"},{"bike_id":"6634f8bf-9d52-4118-86a1-d5dfb9f73ba8","system_id":"levelo_inurba_marseille","lat":43.2844,"lon":5.39191,"is_reserved":false,"is_disabled":true,"rental_uris":{"android":"levelo://app?vid=6634f8bf-9d52-4118-86a1-d5dfb9f73ba8","ios":"levelo://app?vid=6634f8bf-9d52-4118-86a1-d5dfb9f73ba8"},"vehicle_type_id":"4","last_reported":1736410323,"current_range_meters":36800,"station_id":"ce4bhoh2rcd13ifvqh5g","pricing_plan_id":"cebpf4jnsgd1na2vs0mg"},{"bike_id":"34439110-4349-43a6-8107-ddbab2d99d16","system_id":"levelo_inurba_marseille","lat":43.29781,"lon":5.37103,"is_reserved":false,"is_disabled":false,"rental_uris":{"android":"levelo://app?vid=34439110-4349-43a6-8107-ddbab2d99d16","ios":"levelo://app?vid=34439110-4349-43a6-8107-ddbab2d99d16"},"vehicle_type_id":"4","last_reported":1736410323,"current_range_meters":25200,"station_id":"ce4bgop2rcd13ifvqc1g","pricing_plan_id":"cebpf4jnsgd1na2vs0mg"},{"bike_id":"ff1dc76b-e0a3-4254-8b4c-5f5d5b650629","system_id":"levelo_inurba_marseille","lat":43.3024,"lon":5.40076,"is_reserved":false,"is_disabled":true,"rental_uris":{"android":"levelo://app?vid=ff1dc76b-e0a3-4254-8b4c-5f5d5b650629","ios":"levelo://app?vid=ff1dc76b-e0a3-4254-8b4c-5f5d5b650629"},"vehicle_type_id":"4","last_reported":1736410323,"current_range_meters":0,"station_id":"ce4bgvh2rcd13ifvqcs0","pricing_plan_id":"cebpf4jnsgd1na2vs0mg"},{"bike_id":"984183ab-4139-4b2d-b3d8-e709d25ef67c","system_id":"levelo_inurba_marseille","lat":43.30917,"lon":5.3785,"is_reserved":false,"is_disabled":false,"rental_uris":{"android":"levelo://app?vid=984183ab-4139-4b2d-b3d8-e709d25ef67c","ios":"levelo://app?vid=984183ab-4139-4b2d-b3d8-e709d25ef67c"},"vehicle_type_id":"4","last_reported":1736410323,"current_range_meters":13600,"station_id":"","pricing_plan_id":"cebpf4jnsgd1na2vs0mg"},{"bike_id":"e3487d63-f120-4e4c-a770-3d093ba1410b","system_id":"levelo_inurba_marseille","lat":43.23355,"lon":5.35815,"is_reserved":false,"is_disabled":false,"rental_uris":{"android":"levelo://app?vid=e3487d63-f120-4e4c-a770-3d093ba1410b","ios":"levelo://app?vid=e3487d63-f120-4e4c-a770-3d093ba1410b"},"vehicle_type_id":"4","last_reported":1736410323,"current_range_meters":32000,"station_id":"","pricing_plan_id":"cebpf4jnsgd1na2vs0mg"},{"bike_id":"86f289f9-45b8-4759-8a59-be91d7de3c31","system_id":"levelo_inurba_marseille","lat":43.335938,"lon":5.409541,"is_reserved":false,"is_disabled":false,"rental_uris":{"android":"levelo://app?vid=86f289f9-45b8-4759-8a59-be91d7de3c31","ios":"levelo://app?vid=86f289f9-45b8-4759-8a59-be91d7de3c31"},"vehicle_type_id":"4","last_reported":1736410323,"current_range_meters":19600,"station_id":"ce4bhqh2rcd13ifvqhmg","pricing_plan_id":"cebpf4jnsgd1na2vs0mg"},{"bike_id":"2ea8c7d1-3bbf-4b57-8250-89fd6ceb8b56","system_id":"levelo_inurba_marseille","lat":43.25723,"lon":5.41104,"is_reserved":false,"is_disabled":false,"rental_uris":{"android":"levelo://app?vid=2ea8c7d1-3bbf-4b57-8250-89fd6ceb8b56","ios":"levelo://app?vid=2ea8c7d1-3bbf-4b57-8250-89fd6ceb8b56"},"vehicle_type_id":"4","last_reported":1736410323,"current_range_meters":37600,"station_id":"ce4bhkp2rcd13ifvqgd0","pricing_plan_id":"cebpf4jnsgd1na2vs0mg"},{"bike_id":"bb5f7b1b-fafb-45b0-a6b7-306e5a25c30d","system_id":"levelo_inurba_marseille","lat":43.23153,"lon":5.4372,"is_reserved":false,"is_disabled":false,"rental_uris":{"android":"levelo://app?vid=bb5f7b1b-fafb-45b0-a6b7-306e5a25c30d","ios":"levelo://app?vid=bb5f7b1b-fafb-45b0-a6b7-306e5a25c30d"},"vehicle_type_id":"4","last_reported":1736410323,"current_range_meters":36000,"station_id":"ce4bhmp2rcd13ifvqgog","pricing_plan_id":"cebpf4jnsgd1na2vs0mg"},{"bike_id":"8b39156c-3ea4-4869-b1d6-7c5c55ac828a","system_id":"levelo_inurba_marseille","lat":43.24066,"lon":5.37781,"is_reserved":false,"is_disabled":true,"rental_uris":{"android":"levelo://app?vid=8b39156c-3ea4-4869-b1d6-7c5c55ac828a","ios":"levelo://app?vid=8b39156c-3ea4-4869-b1d6-7c5c55ac828a"},"vehicle_type_id":"4","last_reported":1736410323,"current_range_meters":2000,"station_id":"ce4bhnp2rcd13ifvqgvg","pricing_plan_id":"cebpf4jnsgd1na2vs0mg"},{"bike_id":"c1036f07-11e0-4d1c-ac50-b0205b60a939","system_id":"levelo_inurba_marseille","lat":43.30946,"lon":5.39044,"is_reserved":false,"is_disabled":false,"rental_uris":{"android":"levelo://app?vid=c1036f07-11e0-4d1c-ac50-b0205b60a939","ios":"levelo://app?vid=c1036f07-11e0-4d1c-ac50-b0205b60a939"},"vehicle_type_id":"4","last_reported":1736410323,"current_range_meters":38800,"station_id":"ce4bgup2rcd13ifvqco0","pricing_plan_id":"cebpf4jnsgd1na2vs0mg"},{"bike_id":"61f80575-9f0e-4647-b8bb-2460d9473614","system_id":"levelo_inurba_marseille","lat":43.275643,"lon":5.384214,"is_reserved":false,"is_disabled":false,"rental_uris":{"android":"levelo://app?vid=61f80575-9f0e-4647-b8bb-2460d9473614","ios":"levelo://app?vid=61f80575-9f0e-4647-b8bb-2460d9473614"},"vehicle_type_id":"4","last_reported":1736410323,"current_range_meters":38800,"station_id":"ce4bhh92rcd13ifvqfi0","pricing_plan_id":"cebpf4jnsgd1na2vs0mg"},{"bike_id":"232b190e-5cd4-4b5b-a567-1d0e0e0c7469","system_id":"levelo_inurba_marseille","lat":43.29619,"lon":5.37151,"is_reserved":false,"is_disabled":false,"rental_uris":{"android":"levelo://app?vid=232b190e-5cd4-4b5b-a567-1d0e0e0c7469","ios":"levelo://app?vid=232b190e-5cd4-4b5b-a567-1d0e0e0c7469"},"vehicle_type_id":"4","last_reported":1736410323,"current_range_meters":25600,"station_id":"ce4bgnh2rcd13ifvqc0g","pricing_plan_id":"cebpf4jnsgd1na2vs0mg"},{"bike_id":"acdde589-0c5c-45c1-8942-2aca3ccbf899","system_id":"levelo_inurba_marseille","lat":43.27375,"lon":5.36255,"is_reserved":false,"is_disabled":false,"rental_uris":{"android":"levelo://app?vid=acdde589-0c5c-45c1-8942-2aca3ccbf899","ios":"levelo://app?vid=acdde589-0c5c-45c1-8942-2aca3ccbf899"},"vehicle_type_id":"4","last_reported":1736410323,"current_range_meters":35600,"station_id":"ce4bhbh2rcd13ifvqeo0","pricing_plan_id":"cebpf4jnsgd1na2vs0mg"},{"bike_id":"3f31d3b6-c4e8-4da6-ac51-d5707df0fef0","system_id":"levelo_inurba_marseille","lat":43.28977,"lon":5.37831,"is_reserved":false,"is_disabled":false,"rental_uris":{"android":"levelo://app?vid=3f31d3b6-c4e8-4da6-ac51-d5707df0fef0","ios":"levelo://app?vid=3f31d3b6-c4e8-4da6-ac51-d5707df0fef0"},"vehicle_type_id":"4","last_reported":1736410323,"current_range_meters":35200,"station_id":"ce4bh9p2rcd13ifvqed0","pricing_plan_id":"cebpf4jnsgd1na2vs0mg"},{"bike_id":"a5b17657-42e5-456b-bb59-7c63a1f42c97","system_id":"levelo_inurba_marseille","lat":43.23153,"lon":5.43712,"is_reserved":false,"is_disabled":false,"rental_uris":{"android":"levelo://app?vid=a5b17657-42e5-456b-bb59-7c63a1f42c97","ios":"levelo://app?vid=a5b17657-42e5-456b-bb59-7c63a1f42c97"},"vehicle_type_id":"4","last_reported":1736410323,"current_range_meters":24800,"station_id":"ce4bhmp2rcd13ifvqgog","pricing_plan_id":"cebpf4jnsgd1na2vs0mg"},{"bike_id":"37d8e1ef-d932-49d7-b893-49542cf44d13","system_id":"levelo_inurba_marseille","lat":43.32345,"lon":5.40629,"is_reserved":false,"is_disabled":true,"rental_uris":{"android":"levelo://app?vid=37d8e1ef-d932-49d7-b893-49542cf44d13","ios":"levelo://app?vid=37d8e1ef-d932-49d7-b893-49542cf44d13"},"vehicle_type_id":"4","last_reported":1736410323,"current_range_meters":0,"station_id":"ce4bhq92rcd13ifvqhjg","pricing_plan_id":"cebpf4jnsgd1na2vs0mg"},{"bike_id":"2f81e22d-0e56-46f9-83d0-f9bf7f3497c1","system_id":"levelo_inurba_marseille","lat":43.27972,"lon":5.38748,"is_reserved":false,"is_disabled":false,"rental_uris":{"android":"levelo://app?vid=2f81e22d-0e56-46f9-83d0-f9bf7f3497c1","ios":"levelo://app?vid=2f81e22d-0e56-46f9-83d0-f9bf7f3497c1"},"vehicle_type_id":"4","last_reported":1736410323,"current_range_meters":30800,"station_id":"ce4bhg12rcd13ifvqf80","pricing_plan_id":"cebpf4jnsgd1na2vs0mg"},{"bike_id":"93c5a90b-5646-4017-9884-cb888d12aae9","system_id":"levelo_inurba_marseille","lat":43.30909,"lon":5.36856,"is_reserved":false,"is_disabled":false,"rental_uris":{"android":"levelo://app?vid=93c5a90b-5646-4017-9884-cb888d12aae9","ios":"levelo://app?vid=93c5a90b-5646-4017-9884-cb888d12aae9"},"vehicle_type_id":"4","last_reported":1736410323,"current_range_meters":28000,"station_id":"ce4bgn92rcd13ifvqbvg","pricing_plan_id":"cebpf4jnsgd1na2vs0mg"},{"bike_id":"4074752c-248e-472f-9cc8-f4a66852bbfc","system_id":"levelo_inurba_marseille","lat":43.28058,"lon":5.38701,"is_reserved":false,"is_disabled":false,"rental_uris":{"android":"levelo://app?vid=4074752c-248e-472f-9cc8-f4a66852bbfc","ios":"levelo://app?vid=4074752c-248e-472f-9cc8-f4a66852bbfc"},"vehicle_type_id":"4","last_reported":1736410323,"current_range_meters":30000,"station_id":"","pricing_plan_id":"cebpf4jnsgd1na2vs0mg"},{"bike_id":"63c817a8-7fe4-4bba-9c1c-70e578257f97","system_id":"levelo_inurba_marseille","lat":43.23957,"lon":5.36645,"is_reserved":false,"is_disabled":false,"rental_uris":{"android":"levelo://app?vid=63c817a8-7fe4-4bba-9c1c-70e578257f97","ios":"levelo://app?vid=63c817a8-7fe4-4bba-9c1c-70e578257f97"},"vehicle_type_id":"4","last_reported":1736410323,"current_range_meters":38400,"station_id":"ce4bhi12rcd13ifvqfp0","pricing_plan_id":"cebpf4jnsgd1na2vs0mg"},{"bike_id":"4428bc76-6a8b-4013-bfbc-831a457a428c","system_id":"levelo_inurba_marseille","lat":43.30433,"lon":5.38887,"is_reserved":false,"is_disabled":false,"rental_uris":{"android":"levelo://app?vid=4428bc76-6a8b-4013-bfbc-831a457a428c","ios":"levelo://app?vid=4428bc76-6a8b-4013-bfbc-831a457a428c"},"vehicle_type_id":"4","last_reported":1736410323,"current_range_meters":35600,"station_id":"ce4bgk12rcd13ifvqbi0","pricing_plan_id":"cebpf4jnsgd1na2vs0mg"},{"bike_id":"e162055e-04f8-4e16-85e5-e66d7339ffa3","system_id":"levelo_inurba_marseille","lat":43.26693,"lon":5.38264,"is_reserved":false,"is_disabled":false,"rental_uris":{"android":"levelo://app?vid=e162055e-04f8-4e16-85e5-e66d7339ffa3","ios":"levelo://app?vid=e162055e-04f8-4e16-85e5-e66d7339ffa3"},"vehicle_type_id":"4","last_reported":1736410323,"current_range_meters":30800,"station_id":"ce4bhg92rcd13ifvqf90","pricing_plan_id":"cebpf4jnsgd1na2vs0mg"},{"bike_id":"73506a2a-d06c-45de-92d0-b96c574a5cbc","system_id":"levelo_inurba_marseille","lat":43.29375,"lon":5.37859,"is_reserved":false,"is_disabled":false,"rental_uris":{"android":"levelo://app?vid=73506a2a-d06c-45de-92d0-b96c574a5cbc","ios":"levelo://app?vid=73506a2a-d06c-45de-92d0-b96c574a5cbc"},"vehicle_type_id":"4","last_reported":1736410323,"current_range_meters":31200,"station_id":"ce4bgjh2rcd13ifvqbf0","pricing_plan_id":"cebpf4jnsgd1na2vs0mg"},{"bike_id":"770d93aa-0c23-4871-aa60-b8e9be50c50c","system_id":"levelo_inurba_marseille","lat":43.33109,"lon":5.38226,"is_reserved":false,"is_disabled":false,"rental_uris":{"android":"levelo://app?vid=770d93aa-0c23-4871-aa60-b8e9be50c50c","ios":"levelo://app?vid=770d93aa-0c23-4871-aa60-b8e9be50c50c"},"vehicle_type_id":"4","last_reported":1736410323,"current_range_meters":28000,"station_id":"","pricing_plan_id":"cebpf4jnsgd1na2vs0mg"},{"bike_id":"7cdfe5cb-2d56-48e1-be17-c9c1f3d2949e","system_id":"levelo_inurba_marseille","lat":43.27486,"lon":5.42464,"is_reserved":false,"is_disabled":false,"rental_uris":{"android":"levelo://app?vid=7cdfe5cb-2d56-48e1-be17-c9c1f3d2949e","ios":"levelo://app?vid=7cdfe5cb-2d56-48e1-be17-c9c1f3d2949e"},"vehicle_type_id":"4","last_reported":1736410323,"current_range_meters":28000,"station_id":"ce4bhn92rcd13ifvqgrg","pricing_plan_id":"cebpf4jnsgd1na2vs0mg"},{"bike_id":"8e31379e-d2cf-485c-9315-17ecd57dce5b","system_id":"levelo_inurba_marseille","lat":43.27491,"lon":5.42457,"is_reserved":false,"is_disabled":false,"rental_uris":{"android":"levelo://app?vid=8e31379e-d2cf-485c-9315-17ecd57dce5b","ios":"levelo://app?vid=8e31379e-d2cf-485c-9315-17ecd57dce5b"},"vehicle_type_id":"4","last_reported":1736410323,"current_range_meters":36400,"station_id":"ce4bhn92rcd13ifvqgrg","pricing_plan_id":"cebpf4jnsgd1na2vs0mg"},{"bike_id":"7277abf6-1732-4723-9bef-c0330eccd972","system_id":"levelo_inurba_marseille","lat":43.27495,"lon":5.42441,"is_reserved":false,"is_disabled":false,"rental_uris":{"android":"levelo://app?vid=7277abf6-1732-4723-9bef-c0330eccd972","ios":"levelo://app?vid=7277abf6-1732-4723-9bef-c0330eccd972"},"vehicle_type_id":"4","last_reported":1736410323,"current_range_meters":36000,"station_id":"ce4bhn92rcd13ifvqgrg","pricing_plan_id":"cebpf4jnsgd1na2vs0mg"},{"bike_id":"36dc3b8f-35c2-4724-9be8-254949aa0f52","system_id":"levelo_inurba_marseille","lat":43.27412,"lon":5.39421,"is_reserved":false,"is_disabled":false,"rental_uris":{"android":"levelo://app?vid=36dc3b8f-35c2-4724-9be8-254949aa0f52","ios":"levelo://app?vid=36dc3b8f-35c2-4724-9be8-254949aa0f52"},"vehicle_type_id":"4","last_reported":1736410323,"current_range_meters":25200,"station_id":"ce4bhdp2rcd13ifvqf20","pricing_plan_id":"cebpf4jnsgd1na2vs0mg"},{"bike_id":"afef8454-25f1-45ab-bb05-70901f285be0","system_id":"levelo_inurba_marseille","lat":43.30177,"lon":5.38066,"is_reserved":false,"is_disabled":false,"rental_uris":{"android":"levelo://app?vid=afef8454-25f1-45ab-bb05-70901f285be0","ios":"levelo://app?vid=afef8454-25f1-45ab-bb05-70901f285be0"},"vehicle_type_id":"4","last_reported":1736410323,"current_range_meters":33200,"station_id":"ce4bgjp2rcd13ifvqbh0","pricing_plan_id":"cebpf4jnsgd1na2vs0mg"},{"bike_id":"60ce1b70-e47d-4caf-abee-52e7d5bfe299","system_id":"levelo_inurba_marseille","lat":43.24649,"lon":5.3889,"is_reserved":false,"is_disabled":false,"rental_uris":{"android":"levelo://app?vid=60ce1b70-e47d-4caf-abee-52e7d5bfe299","ios":"levelo://app?vid=60ce1b70-e47d-4caf-abee-52e7d5bfe299"},"vehicle_type_id":"4","last_reported":1736410323,"current_range_meters":38400,"station_id":"ce4bhg12rcd13ifvqf60","pricing_plan_id":"cebpf4jnsgd1na2vs0mg"},{"bike_id":"66471134-25e4-4211-abd7-23c33d84503b","system_id":"levelo_inurba_marseille","lat":43.25918,"lon":5.40906,"is_reserved":false,"is_disabled":false,"rental_uris":{"android":"levelo://app?vid=66471134-25e4-4211-abd7-23c33d84503b","ios":"levelo://app?vid=66471134-25e4-4211-abd7-23c33d84503b"},"vehicle_type_id":"4","last_reported":1736410323,"current_range_meters":38800,"station_id":"ce4bhm92rcd13ifvqglg","pricing_plan_id":"cebpf4jnsgd1na2vs0mg"},{"bike_id":"ea4a1aef-b9c7-4462-b3ba-a3c4893018ce","system_id":"levelo_inurba_marseille","lat":43.30339,"lon":5.40413,"is_reserved":false,"is_disabled":false,"rental_uris":{"android":"levelo://app?vid=ea4a1aef-b9c7-4462-b3ba-a3c4893018ce","ios":"levelo://app?vid=ea4a1aef-b9c7-4462-b3ba-a3c4893018ce"},"vehicle_type_id":"4","last_reported":1736410323,"current_range_meters":33200,"station_id":"ce4bh012rcd13ifvqd10","pricing_plan_id":"cebpf4jnsgd1na2vs0mg"},{"bike_id":"a04c750d-c2a3-4826-bb16-b9d8bd34b860","system_id":"levelo_inurba_marseille","lat":43.25576,"lon":5.38229,"is_reserved":false,"is_disabled":false,"rental_uris":{"android":"levelo://app?vid=a04c750d-c2a3-4826-bb16-b9d8bd34b860","ios":"levelo://app?vid=a04c750d-c2a3-4826-bb16-b9d8bd34b860"},"vehicle_type_id":"4","last_reported":1736410323,"current_range_meters":22400,"station_id":"ce4bhih2rcd13ifvqfs0","pricing_plan_id":"cebpf4jnsgd1na2vs0mg"},{"bike_id":"01da78b9-bf8c-4af1-ac40-8283bd8b12b3","system_id":"levelo_inurba_marseille","lat":43.29895,"lon":5.43658,"is_reserved":false,"is_disabled":true,"rental_uris":{"android":"levelo://app?vid=01da78b9-bf8c-4af1-ac40-8283bd8b12b3","ios":"levelo://app?vid=01da78b9-bf8c-4af1-ac40-8283bd8b12b3"},"vehicle_type_id":"4","last_reported":1736410323,"current_range_meters":38800,"station_id":"ce4bhpp2rcd13ifvqhfg","pricing_plan_id":"cebpf4jnsgd1na2vs0mg"},{"bike_id":"1d27be0d-961c-4e0d-8ce0-c23bf855f1df","system_id":"levelo_inurba_marseille","lat":43.28279,"lon":5.35075,"is_reserved":false,"is_disabled":false,"rental_uris":{"android":"levelo://app?vid=1d27be0d-961c-4e0d-8ce0-c23bf855f1df","ios":"levelo://app?vid=1d27be0d-961c-4e0d-8ce0-c23bf855f1df"},"vehicle_type_id":"4","last_reported":1736410323,"current_range_meters":38800,"station_id":"ce4bhbp2rcd13ifvqerg","pricing_plan_id":"cebpf4jnsgd1na2vs0mg"},{"bike_id":"894e3b75-49bb-43b3-b8d6-04abf8a326ba","system_id":"levelo_inurba_marseille","lat":43.24805,"lon":5.37421,"is_reserved":false,"is_disabled":false,"rental_uris":{"android":"levelo://app?vid=894e3b75-49bb-43b3-b8d6-04abf8a326ba","ios":"levelo://app?vid=894e3b75-49bb-43b3-b8d6-04abf8a326ba"},"vehicle_type_id":"4","last_reported":1736410323,"current_range_meters":38800,"station_id":"ce4bhgh2rcd13ifvqfb0","pricing_plan_id":"cebpf4jnsgd1na2vs0mg"},{"bike_id":"0db5fb09-6d82-47a7-a227-f60d367170f3","system_id":"levelo_inurba_marseille","lat":43.30285,"lon":5.37695,"is_reserved":false,"is_disabled":false,"rental_uris":{"android":"levelo://app?vid=0db5fb09-6d82-47a7-a227-f60d367170f3","ios":"levelo://app?vid=0db5fb09-6d82-47a7-a227-f60d367170f3"},"vehicle_type_id":"4","last_reported":1736410323,"current_range_meters":32800,"station_id":"ce4bguh2rcd13ifvqcj0","pricing_plan_id":"cebpf4jnsgd1na2vs0mg"},{"bike_id":"0b4b96ab-7a14-44ca-b772-2d65b060ef72","system_id":"levelo_inurba_marseille","lat":43.29033,"lon":5.39965,"is_reserved":false,"is_disabled":false,"rental_uris":{"android":"levelo://app?vid=0b4b96ab-7a14-44ca-b772-2d65b060ef72","ios":"levelo://app?vid=0b4b96ab-7a14-44ca-b772-2d65b060ef72"},"vehicle_type_id":"4","last_reported":1736410323,"current_range_meters":33600,"station_id":"ce4bh392rcd13ifvqdm0","pricing_plan_id":"cebpf4jnsgd1na2vs0mg"},{"bike_id":"6c9daffc-e174-4a9a-8b3e-30a6cf4027c8","system_id":"levelo_inurba_marseille","lat":43.32111,"lon":5.36806,"is_reserved":false,"is_disabled":false,"rental_uris":{"android":"levelo://app?vid=6c9daffc-e174-4a9a-8b3e-30a6cf4027c8","ios":"levelo://app?vid=6c9daffc-e174-4a9a-8b3e-30a6cf4027c8"},"vehicle_type_id":"4","last_reported":1736410323,"current_range_meters":16400,"station_id":"ce4bhrh2rcd13ifvqhug","pricing_plan_id":"cebpf4jnsgd1na2vs0mg"},{"bike_id":"93b7e7bc-917a-4253-af1e-71755c2c5a70","system_id":"levelo_inurba_marseille","lat":43.295897,"lon":5.377162,"is_reserved":false,"is_disabled":true,"rental_uris":{"android":"levelo://app?vid=93b7e7bc-917a-4253-af1e-71755c2c5a70","ios":"levelo://app?vid=93b7e7bc-917a-4253-af1e-71755c2c5a70"},"vehicle_type_id":"4","last_reported":1736410323,"current_range_meters":12000,"station_id":"ce4bgi92rcd13ifvqb90","pricing_plan_id":"cebpf4jnsgd1na2vs0mg"},{"bike_id":"dd684305-627d-4c75-a8c7-0de6bdbb4c52","system_id":"levelo_inurba_marseille","lat":43.26192,"lon":5.37447,"is_reserved":false,"is_disabled":false,"rental_uris":{"android":"levelo://app?vid=dd684305-627d-4c75-a8c7-0de6bdbb4c52","ios":"levelo://app?vid=dd684305-627d-4c75-a8c7-0de6bdbb4c52"},"vehicle_type_id":"4","last_reported":1736410323,"current_range_meters":37600,"station_id":"ce4bhgp2rcd13ifvqfc0","pricing_plan_id":"cebpf4jnsgd1na2vs0mg"},{"bike_id":"e8778fc2-10bf-4448-a1c1-f8c6a48b6619","system_id":"levelo_inurba_marseille","lat":43.24856,"lon":5.4016,"is_reserved":false,"is_disabled":false,"rental_uris":{"android":"levelo://app?vid=e8778fc2-10bf-4448-a1c1-f8c6a48b6619","ios":"levelo://app?vid=e8778fc2-10bf-4448-a1c1-f8c6a48b6619"},"vehicle_type_id":"4","last_reported":1736410323,"current_range_meters":11200,"station_id":"ce4bhlh2rcd13ifvqgig","pricing_plan_id":"cebpf4jnsgd1na2vs0mg"},{"bike_id":"0eb7659f-ca88-4600-85b9-5fc1232c8636","system_id":"levelo_inurba_marseille","lat":43.28713,"lon":5.37935,"is_reserved":false,"is_disabled":false,"rental_uris":{"android":"levelo://app?vid=0eb7659f-ca88-4600-85b9-5fc1232c8636","ios":"levelo://app?vid=0eb7659f-ca88-4600-85b9-5fc1232c8636"},"vehicle_type_id":"4","last_reported":1736410323,"current_range_meters":38400,"station_id":"ce4bh9p2rcd13ifvqec0","pricing_plan_id":"cebpf4jnsgd1na2vs0mg"},{"bike_id":"aa93e012-148e-4dfc-80c5-c18401d721dd","system_id":"levelo_inurba_marseille","lat":43.27959,"lon":5.38727,"is_reserved":false,"is_disabled":false,"rental_uris":{"android":"levelo://app?vid=aa93e012-148e-4dfc-80c5-c18401d721dd","ios":"levelo://app?vid=aa93e012-148e-4dfc-80c5-c18401d721dd"},"vehicle_type_id":"4","last_reported":1736410323,"current_range_meters":38400,"station_id":"ce4bhg12rcd13ifvqf80","pricing_plan_id":"cebpf4jnsgd1na2vs0mg"},{"bike_id":"4bffd4f7-21d9-4fbc-858f-50b206ef4fc5","system_id":"levelo_inurba_marseille","lat":43.29799,"lon":5.38106,"is_reserved":false,"is_disabled":false,"rental_uris":{"android":"levelo://app?vid=4bffd4f7-21d9-4fbc-858f-50b206ef4fc5","ios":"levelo://app?vid=4bffd4f7-21d9-4fbc-858f-50b206ef4fc5"},"vehicle_type_id":"4","last_reported":1736410323,"current_range_meters":34800,"station_id":"ce4bgip2rcd13ifvqbb0","pricing_plan_id":"cebpf4jnsgd1na2vs0mg"},{"bike_id":"49f71cfb-5f4f-4efd-8023-2c4eb676a391","system_id":"levelo_inurba_marseille","lat":43.241628,"lon":5.363981,"is_reserved":false,"is_disabled":false,"rental_uris":{"android":"levelo://app?vid=49f71cfb-5f4f-4efd-8023-2c4eb676a391","ios":"levelo://app?vid=49f71cfb-5f4f-4efd-8023-2c4eb676a391"},"vehicle_type_id":"4","last_reported":1736410323,"current_range_meters":34000,"station_id":"cpo36qri1sfpv3e86is0","pricing_plan_id":"cebpf4jnsgd1na2vs0mg"},{"bike_id":"546fbb96-800b-4f90-be23-b4f678471f8f","system_id":"levelo_inurba_marseille","lat":43.25571,"lon":5.3823,"is_reserved":false,"is_disabled":false,"rental_uris":{"android":"levelo://app?vid=546fbb96-800b-4f90-be23-b4f678471f8f","ios":"levelo://app?vid=546fbb96-800b-4f90-be23-b4f678471f8f"},"vehicle_type_id":"4","last_reported":1736410323,"current_range_meters":12000,"station_id":"ce4bhih2rcd13ifvqfs0","pricing_plan_id":"cebpf4jnsgd1na2vs0mg"},{"bike_id":"0ccade42-5a63-4395-8893-aa0d8196a166","system_id":"levelo_inurba_marseille","lat":43.30449,"lon":5.36723,"is_reserved":false,"is_disabled":false,"rental_uris":{"android":"levelo://app?vid=0ccade42-5a63-4395-8893-aa0d8196a166","ios":"levelo://app?vid=0ccade42-5a63-4395-8893-aa0d8196a166"},"vehicle_type_id":"4","last_reported":1736410323,"current_range_meters":26800,"station_id":"ce4bgrp2rcd13ifvqc9g","pricing_plan_id":"cebpf4jnsgd1na2vs0mg"},{"bike_id":"898eb003-04d7-4026-bb13-6085820c9346","system_id":"levelo_inurba_marseille","lat":43.30888,"lon":5.39647,"is_reserved":false,"is_disabled":true,"rental_uris":{"android":"levelo://app?vid=898eb003-04d7-4026-bb13-6085820c9346","ios":"levelo://app?vid=898eb003-04d7-4026-bb13-6085820c9346"},"vehicle_type_id":"4","last_reported":1736410323,"current_range_meters":38800,"station_id":"ce4bh012rcd13ifvqcv0","pricing_plan_id":"cebpf4jnsgd1na2vs0mg"},{"bike_id":"95d3448a-591f-493e-a463-7ae24e6b0478","system_id":"levelo_inurba_marseille","lat":43.30134,"lon":5.38792,"is_reserved":false,"is_disabled":true,"rental_uris":{"android":"levelo://app?vid=95d3448a-591f-493e-a463-7ae24e6b0478","ios":"levelo://app?vid=95d3448a-591f-493e-a463-7ae24e6b0478"},"vehicle_type_id":"4","last_reported":1736410323,"current_range_meters":16000,"station_id":"ce4bghh2rcd13ifvqb60","pricing_plan_id":"cebpf4jnsgd1na2vs0mg"},{"bike_id":"ec50e564-50cf-4b9e-a679-3e9a416fa80f","system_id":"levelo_inurba_marseille","lat":43.30477,"lon":5.37901,"is_reserved":false,"is_disabled":false,"rental_uris":{"android":"levelo://app?vid=ec50e564-50cf-4b9e-a679-3e9a416fa80f","ios":"levelo://app?vid=ec50e564-50cf-4b9e-a679-3e9a416fa80f"},"vehicle_type_id":"4","last_reported":1736410323,"current_range_meters":24000,"station_id":"ce4bgup2rcd13ifvqcn0","pricing_plan_id":"cebpf4jnsgd1na2vs0mg"},{"bike_id":"173e31c8-c78f-4b3b-a308-9f47b47a0b39","system_id":"levelo_inurba_marseille","lat":43.3254,"lon":5.4144,"is_reserved":false,"is_disabled":false,"rental_uris":{"android":"levelo://app?vid=173e31c8-c78f-4b3b-a308-9f47b47a0b39","ios":"levelo://app?vid=173e31c8-c78f-4b3b-a308-9f47b47a0b39"},"vehicle_type_id":"4","last_reported":1736410323,"current_range_meters":25200,"station_id":"ce4bhq12rcd13ifvqhhg","pricing_plan_id":"cebpf4jnsgd1na2vs0mg"},{"bike_id":"0f3ee8c9-5ca0-45ae-88b3-835d5c3ac0b1","system_id":"levelo_inurba_marseille","lat":43.29256,"lon":5.40913,"is_reserved":false,"is_disabled":false,"rental_uris":{"android":"levelo://app?vid=0f3ee8c9-5ca0-45ae-88b3-835d5c3ac0b1","ios":"levelo://app?vid=0f3ee8c9-5ca0-45ae-88b3-835d5c3ac0b1"},"vehicle_type_id":"4","last_reported":1736410323,"current_range_meters":3600,"station_id":"ce4bh192rcd13ifvqdc0","pricing_plan_id":"cebpf4jnsgd1na2vs0mg"},{"bike_id":"507309ad-2c5e-4442-b16a-0a701fe1fda0","system_id":"levelo_inurba_marseille","lat":43.30548,"lon":5.3654,"is_reserved":false,"is_disabled":true,"rental_uris":{"android":"levelo://app?vid=507309ad-2c5e-4442-b16a-0a701fe1fda0","ios":"levelo://app?vid=507309ad-2c5e-4442-b16a-0a701fe1fda0"},"vehicle_type_id":"4","last_reported":1736410323,"current_range_meters":38800,"station_id":"","pricing_plan_id":"cebpf4jnsgd1na2vs0mg"},{"bike_id":"ebb4f680-8c2e-45c9-8723-3ec8fa11ff2c","system_id":"levelo_inurba_marseille","lat":43.29033,"lon":5.38642,"is_reserved":false,"is_disabled":false,"rental_uris":{"android":"levelo://app?vid=ebb4f680-8c2e-45c9-8723-3ec8fa11ff2c","ios":"levelo://app?vid=ebb4f680-8c2e-45c9-8723-3ec8fa11ff2c"},"vehicle_type_id":"4","last_reported":1736410323,"current_range_meters":5600,"station_id":"ce4bh4p2rcd13ifvqe0g","pricing_plan_id":"cebpf4jnsgd1na2vs0mg"},{"bike_id":"c3fed3ff-6b92-4fcd-9518-3530a380cb58","system_id":"levelo_inurba_marseille","lat":43.28931,"lon":5.36398,"is_reserved":false,"is_disabled":true,"rental_uris":{"android":"levelo://app?vid=c3fed3ff-6b92-4fcd-9518-3530a380cb58","ios":"levelo://app?vid=c3fed3ff-6b92-4fcd-9518-3530a380cb58"},"vehicle_type_id":"4","last_reported":1736410323,"current_range_meters":37600,"station_id":"ce4bhc92rcd13ifvqetg","pricing_plan_id":"cebpf4jnsgd1na2vs0mg"},{"bike_id":"1e2223a2-c032-49e7-8dbf-982df86a0520","system_id":"levelo_inurba_marseille","lat":43.22915,"lon":5.35378,"is_reserved":false,"is_disabled":false,"rental_uris":{"android":"levelo://app?vid=1e2223a2-c032-49e7-8dbf-982df86a0520","ios":"levelo://app?vid=1e2223a2-c032-49e7-8dbf-982df86a0520"},"vehicle_type_id":"4","last_reported":1736410323,"current_range_meters":36800,"station_id":"cpo3532slgdg3j2ikp40","pricing_plan_id":"cebpf4jnsgd1na2vs0mg"},{"bike_id":"85819100-b41b-421d-a481-465ea2f61a2a","system_id":"levelo_inurba_marseille","lat":43.26685,"lon":5.38273,"is_reserved":false,"is_disabled":false,"rental_uris":{"android":"levelo://app?vid=85819100-b41b-421d-a481-465ea2f61a2a","ios":"levelo://app?vid=85819100-b41b-421d-a481-465ea2f61a2a"},"vehicle_type_id":"4","last_reported":1736410323,"current_range_meters":36800,"station_id":"ce4bhg92rcd13ifvqf90","pricing_plan_id":"cebpf4jnsgd1na2vs0mg"},{"bike_id":"ea764fb9-43e7-4fba-8fb2-7ea5c9113106","system_id":"levelo_inurba_marseille","lat":43.31353,"lon":5.36714,"is_reserved":false,"is_disabled":false,"rental_uris":{"android":"levelo://app?vid=ea764fb9-43e7-4fba-8fb2-7ea5c9113106","ios":"levelo://app?vid=ea764fb9-43e7-4fba-8fb2-7ea5c9113106"},"vehicle_type_id":"4","last_reported":1736410323,"current_range_meters":35200,"station_id":"ce4bgr92rcd13ifvqc6g","pricing_plan_id":"cebpf4jnsgd1na2vs0mg"},{"bike_id":"3aefb9c1-3e4a-487c-b413-b90ef97c7063","system_id":"levelo_inurba_marseille","lat":43.22937,"lon":5.35399,"is_reserved":false,"is_disabled":false,"rental_uris":{"android":"levelo://app?vid=3aefb9c1-3e4a-487c-b413-b90ef97c7063","ios":"levelo://app?vid=3aefb9c1-3e4a-487c-b413-b90ef97c7063"},"vehicle_type_id":"4","last_reported":1736410323,"current_range_meters":16400,"station_id":"","pricing_plan_id":"cebpf4jnsgd1na2vs0mg"},{"bike_id":"be8a233f-ad85-41b2-af03-bfa1e3033438","system_id":"levelo_inurba_marseille","lat":43.23195,"lon":5.35555,"is_reserved":false,"is_disabled":false,"rental_uris":{"android":"levelo://app?vid=be8a233f-ad85-41b2-af03-bfa1e3033438","ios":"levelo://app?vid=be8a233f-ad85-41b2-af03-bfa1e3033438"},"vehicle_type_id":"4","last_reported":1736410323,"current_range_meters":28800,"station_id":"ce4bhu92rcd13ifvqi70","pricing_plan_id":"cebpf4jnsgd1na2vs0mg"},{"bike_id":"34c4f0f7-5b8e-46c8-9002-a277c67bb74b","system_id":"levelo_inurba_marseille","lat":43.30953,"lon":5.39028,"is_reserved":false,"is_disabled":false,"rental_uris":{"android":"levelo://app?vid=34c4f0f7-5b8e-46c8-9002-a277c67bb74b","ios":"levelo://app?vid=34c4f0f7-5b8e-46c8-9002-a277c67bb74b"},"vehicle_type_id":"4","last_reported":1736410323,"current_range_meters":30800,"station_id":"ce4bgup2rcd13ifvqco0","pricing_plan_id":"cebpf4jnsgd1na2vs0mg"},{"bike_id":"ce0d4b53-1587-493b-9be1-60a77a2c352b","system_id":"levelo_inurba_marseille","lat":43.27477,"lon":5.42489,"is_reserved":false,"is_disabled":false,"rental_uris":{"android":"levelo://app?vid=ce0d4b53-1587-493b-9be1-60a77a2c352b","ios":"levelo://app?vid=ce0d4b53-1587-493b-9be1-60a77a2c352b"},"vehicle_type_id":"4","last_reported":1736410323,"current_range_meters":20000,"station_id":"ce4bhn92rcd13ifvqgrg","pricing_plan_id":"cebpf4jnsgd1na2vs0mg"},{"bike_id":"b36967c0-ebfd-4742-ab89-97d497aa528a","system_id":"levelo_inurba_marseille","lat":43.30545,"lon":5.36553,"is_reserved":false,"is_disabled":false,"rental_uris":{"android":"levelo://app?vid=b36967c0-ebfd-4742-ab89-97d497aa528a","ios":"levelo://app?vid=b36967c0-ebfd-4742-ab89-97d497aa528a"},"vehicle_type_id":"4","last_reported":1736410323,"current_range_meters":20000,"station_id":"ce4bgs12rcd13ifvqcag","pricing_plan_id":"cebpf4jnsgd1na2vs0mg"},{"bike_id":"ef83dea9-5da0-4d5b-a81c-4caba66e5728","system_id":"levelo_inurba_marseille","lat":43.30437,"lon":5.38898,"is_reserved":false,"is_disabled":false,"rental_uris":{"android":"levelo://app?vid=ef83dea9-5da0-4d5b-a81c-4caba66e5728","ios":"levelo://app?vid=ef83dea9-5da0-4d5b-a81c-4caba66e5728"},"vehicle_type_id":"4","last_reported":1736410323,"current_range_meters":32800,"station_id":"ce4bgk12rcd13ifvqbi0","pricing_plan_id":"cebpf4jnsgd1na2vs0mg"},{"bike_id":"2555e9c2-41eb-42cc-8360-399e32805217","system_id":"levelo_inurba_marseille","lat":43.29604,"lon":5.37728,"is_reserved":false,"is_disabled":true,"rental_uris":{"android":"levelo://app?vid=2555e9c2-41eb-42cc-8360-399e32805217","ios":"levelo://app?vid=2555e9c2-41eb-42cc-8360-399e32805217"},"vehicle_type_id":"4","last_reported":1736410323,"current_range_meters":35600,"station_id":"ce4bgi92rcd13ifvqb90","pricing_plan_id":"cebpf4jnsgd1na2vs0mg"},{"bike_id":"3cebf9a3-0c25-460c-94d4-af04dc81215b","system_id":"levelo_inurba_marseille","lat":43.30918,"lon":5.3685,"is_reserved":false,"is_disabled":false,"rental_uris":{"android":"levelo://app?vid=3cebf9a3-0c25-460c-94d4-af04dc81215b","ios":"levelo://app?vid=3cebf9a3-0c25-460c-94d4-af04dc81215b"},"vehicle_type_id":"4","last_reported":1736410323,"current_range_meters":38800,"station_id":"ce4bgn92rcd13ifvqbvg","pricing_plan_id":"cebpf4jnsgd1na2vs0mg"},{"bike_id":"6ffba497-52f7-4a81-b005-bbbc3eee46b1","system_id":"levelo_inurba_marseille","lat":43.3017,"lon":5.38082,"is_reserved":false,"is_disabled":false,"rental_uris":{"android":"levelo://app?vid=6ffba497-52f7-4a81-b005-bbbc3eee46b1","ios":"levelo://app?vid=6ffba497-52f7-4a81-b005-bbbc3eee46b1"},"vehicle_type_id":"4","last_reported":1736410323,"current_range_meters":38800,"station_id":"ce4bgjp2rcd13ifvqbh0","pricing_plan_id":"cebpf4jnsgd1na2vs0mg"},{"bike_id":"b988bc75-6d65-43a5-871a-529ec8dbb208","system_id":"levelo_inurba_marseille","lat":43.28342,"lon":5.38104,"is_reserved":false,"is_disabled":false,"rental_uris":{"android":"levelo://app?vid=b988bc75-6d65-43a5-871a-529ec8dbb208","ios":"levelo://app?vid=b988bc75-6d65-43a5-871a-529ec8dbb208"},"vehicle_type_id":"4","last_reported":1736410323,"current_range_meters":12000,"station_id":"ce4bh412rcd13ifvqdr0","pricing_plan_id":"cebpf4jnsgd1na2vs0mg"},{"bike_id":"a2cdc16c-2ab6-429a-9af3-90d7981a1f04","system_id":"levelo_inurba_marseille","lat":43.27964,"lon":5.38743,"is_reserved":false,"is_disabled":true,"rental_uris":{"android":"levelo://app?vid=a2cdc16c-2ab6-429a-9af3-90d7981a1f04","ios":"levelo://app?vid=a2cdc16c-2ab6-429a-9af3-90d7981a1f04"},"vehicle_type_id":"4","last_reported":1736410323,"current_range_meters":1200,"station_id":"ce4bhg12rcd13ifvqf80","pricing_plan_id":"cebpf4jnsgd1na2vs0mg"},{"bike_id":"debf4b66-5bf6-44b1-b1b1-62a76440470d","system_id":"levelo_inurba_marseille","lat":43.2315,"lon":5.43688,"is_reserved":false,"is_disabled":false,"rental_uris":{"android":"levelo://app?vid=debf4b66-5bf6-44b1-b1b1-62a76440470d","ios":"levelo://app?vid=debf4b66-5bf6-44b1-b1b1-62a76440470d"},"vehicle_type_id":"4","last_reported":1736410323,"current_range_meters":24800,"station_id":"ce4bhmp2rcd13ifvqgog","pricing_plan_id":"cebpf4jnsgd1na2vs0mg"},{"bike_id":"647494de-729d-4e34-815d-ff7d8e02c61a","system_id":"levelo_inurba_marseille","lat":43.3213,"lon":5.36769,"is_reserved":false,"is_disabled":false,"rental_uris":{"android":"levelo://app?vid=647494de-729d-4e34-815d-ff7d8e02c61a","ios":"levelo://app?vid=647494de-729d-4e34-815d-ff7d8e02c61a"},"vehicle_type_id":"4","last_reported":1736410323,"current_range_meters":16400,"station_id":"ce4bhrh2rcd13ifvqhug","pricing_plan_id":"cebpf4jnsgd1na2vs0mg"},{"bike_id":"f56d8408-3442-4a11-8b09-dec941f0cc9b","system_id":"levelo_inurba_marseille","lat":43.306,"lon":5.39346,"is_reserved":false,"is_disabled":false,"rental_uris":{"android":"levelo://app?vid=f56d8408-3442-4a11-8b09-dec941f0cc9b","ios":"levelo://app?vid=f56d8408-3442-4a11-8b09-dec941f0cc9b"},"vehicle_type_id":"4","last_reported":1736410323,"current_range_meters":38800,"station_id":"ce4bh0p2rcd13ifvqd80","pricing_plan_id":"cebpf4jnsgd1na2vs0mg"},{"bike_id":"1f13abda-0c2f-485b-b7d9-de8f3b464a21","system_id":"levelo_inurba_marseille","lat":43.29632,"lon":5.37717,"is_reserved":false,"is_disabled":true,"rental_uris":{"android":"levelo://app?vid=1f13abda-0c2f-485b-b7d9-de8f3b464a21","ios":"levelo://app?vid=1f13abda-0c2f-485b-b7d9-de8f3b464a21"},"vehicle_type_id":"4","last_reported":1736410323,"current_range_meters":36400,"station_id":"ce4bgi92rcd13ifvqb90","pricing_plan_id":"cebpf4jnsgd1na2vs0mg"},{"bike_id":"d33f7f21-c1d0-4041-b22d-26cb5c89808d","system_id":"levelo_inurba_marseille","lat":43.30562,"lon":5.36485,"is_reserved":false,"is_disabled":false,"rental_uris":{"android":"levelo://app?vid=d33f7f21-c1d0-4041-b22d-26cb5c89808d","ios":"levelo://app?vid=d33f7f21-c1d0-4041-b22d-26cb5c89808d"},"vehicle_type_id":"4","last_reported":1736410323,"current_range_meters":38800,"station_id":"","pricing_plan_id":"cebpf4jnsgd1na2vs0mg"},{"bike_id":"ca5b73b8-bbae-4af5-a5a9-ad3889f9d436","system_id":"levelo_inurba_marseille","lat":43.273732,"lon":5.36262,"is_reserved":false,"is_disabled":false,"rental_uris":{"android":"levelo://app?vid=ca5b73b8-bbae-4af5-a5a9-ad3889f9d436","ios":"levelo://app?vid=ca5b73b8-bbae-4af5-a5a9-ad3889f9d436"},"vehicle_type_id":"4","last_reported":1736410323,"current_range_meters":38000,"station_id":"ce4bhbh2rcd13ifvqeo0","pricing_plan_id":"cebpf4jnsgd1na2vs0mg"},{"bike_id":"ad28bd53-1c8c-44ea-9a1c-1e5a5b2498fe","system_id":"levelo_inurba_marseille","lat":43.24162,"lon":5.36416,"is_reserved":false,"is_disabled":false,"rental_uris":{"android":"levelo://app?vid=ad28bd53-1c8c-44ea-9a1c-1e5a5b2498fe","ios":"levelo://app?vid=ad28bd53-1c8c-44ea-9a1c-1e5a5b2498fe"},"vehicle_type_id":"4","last_reported":1736410323,"current_range_meters":16000,"station_id":"cpo36qri1sfpv3e86is0","pricing_plan_id":"cebpf4jnsgd1na2vs0mg"},{"bike_id":"d6054180-7e08-40b3-be75-7053335ecc80","system_id":"levelo_inurba_marseille","lat":43.24066,"lon":5.37743,"is_reserved":false,"is_disabled":true,"rental_uris":{"android":"levelo://app?vid=d6054180-7e08-40b3-be75-7053335ecc80","ios":"levelo://app?vid=d6054180-7e08-40b3-be75-7053335ecc80"},"vehicle_type_id":"4","last_reported":1736410323,"current_range_meters":17200,"station_id":"ce4bhnp2rcd13ifvqgvg","pricing_plan_id":"cebpf4jnsgd1na2vs0mg"},{"bike_id":"2d2fbc61-7484-43d8-82f1-4c77f4e113dc","system_id":"levelo_inurba_marseille","lat":43.24077,"lon":5.37739,"is_reserved":false,"is_disabled":false,"rental_uris":{"android":"levelo://app?vid=2d2fbc61-7484-43d8-82f1-4c77f4e113dc","ios":"levelo://app?vid=2d2fbc61-7484-43d8-82f1-4c77f4e113dc"},"vehicle_type_id":"4","last_reported":1736410323,"current_range_meters":23200,"station_id":"ce4bhnp2rcd13ifvqgvg","pricing_plan_id":"cebpf4jnsgd1na2vs0mg"},{"bike_id":"3b46a4ed-74ee-409d-9a0b-977e6a987106","system_id":"levelo_inurba_marseille","lat":43.31702,"lon":5.37774,"is_reserved":false,"is_disabled":true,"rental_uris":{"android":"levelo://app?vid=3b46a4ed-74ee-409d-9a0b-977e6a987106","ios":"levelo://app?vid=3b46a4ed-74ee-409d-9a0b-977e6a987106"},"vehicle_type_id":"4","last_reported":1736410323,"current_range_meters":35600,"station_id":"","pricing_plan_id":"cebpf4jnsgd1na2vs0mg"},{"bike_id":"46afa4bc-c930-44a2-adc9-94c8f932b324","system_id":"levelo_inurba_marseille","lat":43.287054,"lon":5.364423,"is_reserved":false,"is_disabled":false,"rental_uris":{"android":"levelo://app?vid=46afa4bc-c930-44a2-adc9-94c8f932b324","ios":"levelo://app?vid=46afa4bc-c930-44a2-adc9-94c8f932b324"},"vehicle_type_id":"4","last_reported":1736410323,"current_range_meters":8000,"station_id":"","pricing_plan_id":"cebpf4jnsgd1na2vs0mg"},{"bike_id":"112760ca-e41e-407c-8289-fed212e08426","system_id":"levelo_inurba_marseille","lat":43.31353,"lon":5.36709,"is_reserved":false,"is_disabled":false,"rental_uris":{"android":"levelo://app?vid=112760ca-e41e-407c-8289-fed212e08426","ios":"levelo://app?vid=112760ca-e41e-407c-8289-fed212e08426"},"vehicle_type_id":"4","last_reported":1736410323,"current_range_meters":34000,"station_id":"ce4bgr92rcd13ifvqc6g","pricing_plan_id":"cebpf4jnsgd1na2vs0mg"},{"bike_id":"50cd5673-6836-4309-a193-16e51cb2408d","system_id":"levelo_inurba_marseille","lat":43.2668,"lon":5.38275,"is_reserved":false,"is_disabled":false,"rental_uris":{"android":"levelo://app?vid=50cd5673-6836-4309-a193-16e51cb2408d","ios":"levelo://app?vid=50cd5673-6836-4309-a193-16e51cb2408d"},"vehicle_type_id":"4","last_reported":1736410323,"current_range_meters":39200,"station_id":"ce4bhg92rcd13ifvqf90","pricing_plan_id":"cebpf4jnsgd1na2vs0mg"},{"bike_id":"d7da6d2b-7d05-41f7-a950-0b9b99c228b0","system_id":"levelo_inurba_marseille","lat":43.25006,"lon":5.38932,"is_reserved":false,"is_disabled":false,"rental_uris":{"android":"levelo://app?vid=d7da6d2b-7d05-41f7-a950-0b9b99c228b0","ios":"levelo://app?vid=d7da6d2b-7d05-41f7-a950-0b9b99c228b0"},"vehicle_type_id":"4","last_reported":1736410323,"current_range_meters":32800,"station_id":"ce4bhgp2rcd13ifvqfd0","pricing_plan_id":"cebpf4jnsgd1na2vs0mg"},{"bike_id":"09bc3d5e-94c0-46f1-8bc3-7115858837a7","system_id":"levelo_inurba_marseille","lat":43.30248,"lon":5.40094,"is_reserved":false,"is_disabled":false,"rental_uris":{"android":"levelo://app?vid=09bc3d5e-94c0-46f1-8bc3-7115858837a7","ios":"levelo://app?vid=09bc3d5e-94c0-46f1-8bc3-7115858837a7"},"vehicle_type_id":"4","last_reported":1736410323,"current_range_meters":38800,"station_id":"ce4bgvh2rcd13ifvqcs0","pricing_plan_id":"cebpf4jnsgd1na2vs0mg"},{"bike_id":"ea8cc297-7205-42be-a82e-9b9fed9bbdda","system_id":"levelo_inurba_marseille","lat":43.28461,"lon":5.38454,"is_reserved":false,"is_disabled":false,"rental_uris":{"android":"levelo://app?vid=ea8cc297-7205-42be-a82e-9b9fed9bbdda","ios":"levelo://app?vid=ea8cc297-7205-42be-a82e-9b9fed9bbdda"},"vehicle_type_id":"4","last_reported":1736410323,"current_range_meters":33200,"station_id":"ce4bh512rcd13ifvqe3g","pricing_plan_id":"cebpf4jnsgd1na2vs0mg"},{"bike_id":"40893d54-94bf-4756-99f8-788b7b0b743f","system_id":"levelo_inurba_marseille","lat":43.30464,"lon":5.37904,"is_reserved":false,"is_disabled":false,"rental_uris":{"android":"levelo://app?vid=40893d54-94bf-4756-99f8-788b7b0b743f","ios":"levelo://app?vid=40893d54-94bf-4756-99f8-788b7b0b743f"},"vehicle_type_id":"4","last_reported":1736410323,"current_range_meters":37600,"station_id":"ce4bgup2rcd13ifvqcn0","pricing_plan_id":"cebpf4jnsgd1na2vs0mg"},{"bike_id":"7602b9db-fede-47ee-bd0b-311a54641a45","system_id":"levelo_inurba_marseille","lat":43.31901,"lon":5.40726,"is_reserved":false,"is_disabled":false,"rental_uris":{"android":"levelo://app?vid=7602b9db-fede-47ee-bd0b-311a54641a45","ios":"levelo://app?vid=7602b9db-fede-47ee-bd0b-311a54641a45"},"vehicle_type_id":"4","last_reported":1736410323,"current_range_meters":38800,"station_id":"ce4bhq12rcd13ifvqhig","pricing_plan_id":"cebpf4jnsgd1na2vs0mg"},{"bike_id":"377905ce-ff14-425c-a795-09de43f26e70","system_id":"levelo_inurba_marseille","lat":43.30555,"lon":5.36561,"is_reserved":false,"is_disabled":false,"rental_uris":{"android":"levelo://app?vid=377905ce-ff14-425c-a795-09de43f26e70","ios":"levelo://app?vid=377905ce-ff14-425c-a795-09de43f26e70"},"vehicle_type_id":"4","last_reported":1736410323,"current_range_meters":26000,"station_id":"ce4bgs12rcd13ifvqcag","pricing_plan_id":"cebpf4jnsgd1na2vs0mg"},{"bike_id":"d0530fc2-685a-4690-9f60-1f7f862e46af","system_id":"levelo_inurba_marseille","lat":43.29289,"lon":5.37465,"is_reserved":false,"is_disabled":false,"rental_uris":{"android":"levelo://app?vid=d0530fc2-685a-4690-9f60-1f7f862e46af","ios":"levelo://app?vid=d0530fc2-685a-4690-9f60-1f7f862e46af"},"vehicle_type_id":"4","last_reported":1736410323,"current_range_meters":20000,"station_id":"ce4bhgp2rcd13ifvqfd0","pricing_plan_id":"cebpf4jnsgd1na2vs0mg"},{"bike_id":"a412c127-42d2-426f-8887-6e6167d789f2","system_id":"levelo_inurba_marseille","lat":43.32086,"lon":5.36789,"is_reserved":false,"is_disabled":false,"rental_uris":{"android":"levelo://app?vid=a412c127-42d2-426f-8887-6e6167d789f2","ios":"levelo://app?vid=a412c127-42d2-426f-8887-6e6167d789f2"},"vehicle_type_id":"4","last_reported":1736410323,"current_range_meters":36400,"station_id":"ce4bhrh2rcd13ifvqhug","pricing_plan_id":"cebpf4jnsgd1na2vs0mg"},{"bike_id":"9f45806b-0439-44e8-9147-35b59088d5f3","system_id":"levelo_inurba_marseille","lat":43.24167,"lon":5.36402,"is_reserved":false,"is_disabled":false,"rental_uris":{"android":"levelo://app?vid=9f45806b-0439-44e8-9147-35b59088d5f3","ios":"levelo://app?vid=9f45806b-0439-44e8-9147-35b59088d5f3"},"vehicle_type_id":"4","last_reported":1736410323,"current_range_meters":20000,"station_id":"cpo36qri1sfpv3e86is0","pricing_plan_id":"cebpf4jnsgd1na2vs0mg"},{"bike_id":"98c7696c-ad24-4497-8d84-0c788d79bd64","system_id":"levelo_inurba_marseille","lat":43.30142,"lon":5.37425,"is_reserved":false,"is_disabled":false,"rental_uris":{"android":"levelo://app?vid=98c7696c-ad24-4497-8d84-0c788d79bd64","ios":"levelo://app?vid=98c7696c-ad24-4497-8d84-0c788d79bd64"},"vehicle_type_id":"4","last_reported":1736410323,"current_range_meters":39200,"station_id":"ce4bgs92rcd13ifvqcc0","pricing_plan_id":"cebpf4jnsgd1na2vs0mg"},{"bike_id":"51e1289c-d38f-4381-8c55-dbfcce3dba5d","system_id":"levelo_inurba_marseille","lat":43.305275,"lon":5.367016,"is_reserved":false,"is_disabled":false,"rental_uris":{"android":"levelo://app?vid=51e1289c-d38f-4381-8c55-dbfcce3dba5d","ios":"levelo://app?vid=51e1289c-d38f-4381-8c55-dbfcce3dba5d"},"vehicle_type_id":"4","last_reported":1736410323,"current_range_meters":10800,"station_id":"ce4bgrp2rcd13ifvqc9g","pricing_plan_id":"cebpf4jnsgd1na2vs0mg"},{"bike_id":"b4348434-3556-4b89-b16f-259938342d3a","system_id":"levelo_inurba_marseille","lat":43.26933,"lon":5.38927,"is_reserved":false,"is_disabled":false,"rental_uris":{"android":"levelo://app?vid=b4348434-3556-4b89-b16f-259938342d3a","ios":"levelo://app?vid=b4348434-3556-4b89-b16f-259938342d3a"},"vehicle_type_id":"4","last_reported":1736410323,"current_range_meters":6400,"station_id":"ce4bhhh2rcd13ifvqfl0","pricing_plan_id":"cebpf4jnsgd1na2vs0mg"},{"bike_id":"32cb5b67-7b81-4ec4-a5d2-69200fd9d2af","system_id":"levelo_inurba_marseille","lat":43.24649,"lon":5.38894,"is_reserved":false,"is_disabled":false,"rental_uris":{"android":"levelo://app?vid=32cb5b67-7b81-4ec4-a5d2-69200fd9d2af","ios":"levelo://app?vid=32cb5b67-7b81-4ec4-a5d2-69200fd9d2af"},"vehicle_type_id":"4","last_reported":1736410323,"current_range_meters":28000,"station_id":"ce4bhg12rcd13ifvqf60","pricing_plan_id":"cebpf4jnsgd1na2vs0mg"},{"bike_id":"a900d05d-2213-4b3c-9e1f-f144fe0c9a66","system_id":"levelo_inurba_marseille","lat":43.30799,"lon":5.38155,"is_reserved":false,"is_disabled":false,"rental_uris":{"android":"levelo://app?vid=a900d05d-2213-4b3c-9e1f-f144fe0c9a66","ios":"levelo://app?vid=a900d05d-2213-4b3c-9e1f-f144fe0c9a66"},"vehicle_type_id":"4","last_reported":1736410323,"current_range_meters":30000,"station_id":"ce4bgt12rcd13ifvqce0","pricing_plan_id":"cebpf4jnsgd1na2vs0mg"},{"bike_id":"3108c230-0b71-48c3-ac34-2963912f8e96","system_id":"levelo_inurba_marseille","lat":43.25934,"lon":5.40909,"is_reserved":false,"is_disabled":false,"rental_uris":{"android":"levelo://app?vid=3108c230-0b71-48c3-ac34-2963912f8e96","ios":"levelo://app?vid=3108c230-0b71-48c3-ac34-2963912f8e96"},