{"last_updated":1720195790,"ttl":30,"version":"2.2","data":{"bikes":[{"bike_id":"8e54694f-1c3d-4cd8-aeb2-f6b1fa5970dc","system_id":"levelo_inurba_marseille","lat":43.309076,"lon":5.368465,"is_reserved":false,"is_disabled":false,"rental_uris":{"android":"levelo://app?vid=8e54694f-1c3d-4cd8-aeb2-f6b1fa5970dc","ios":"levelo://app?vid=8e54694f-1c3d-4cd8-aeb2-f6b1fa5970dc"},"vehicle_type_id":"4","last_reported":1720195791,"current_range_meters":5600,"station_id":"ce4bgn92rcd13ifvqbvg","pricing_plan_id":"cebpf4jnsgd1na2vs0mg"},{"bike_id":"e36495a4-394f-4165-97a1-19db3170e578","system_id":"levelo_inurba_marseille","lat":43.31497,"lon":5.37293,"is_reserved":false,"is_disabled":false,"rental_uris":{"android":"levelo://app?vid=e36495a4-394f-4165-97a1-19db3170e578","ios":"levelo://app?vid=e36495a4-394f-4165-97a1-19db3170e578"},"vehicle_type_id":"4","last_reported":1720195791,"current_range_meters":0,"station_id":"ce4bgt12rcd13ifvqcd0","pricing_plan_id":"cebpf4jnsgd1na2vs0mg"},{"bike_id":"b7f59f6b-9a4b-459a-b8c7-e7702443303b","system_id":"levelo_inurba_marseille","lat":43.309034,"lon":5.371783,"is_reserved":false,"is_disabled":false,"rental_uris":{"android":"levelo://app?vid=b7f59f6b-9a4b-459a-b8c7-e7702443303b","ios":"levelo://app?vid=b7f59f6b-9a4b-459a-b8c7-e7702443303b"},"vehicle_type_id":"4","last_reported":1720195791,"current_range_meters":6800,"station_id":"ce4bguh2rcd13ifvqckg","pricing_plan_id":"cebpf4jnsgd1na2vs0mg"},{"bike_id":"9607b354-aa5a-42bb-aca7-38946b2d62c2","system_id":"levelo_inurba_marseille","lat":43.309039,"lon":5.371797,"is_reserved":false,"is_disabled":false,"rental_uris":{"android":"levelo://app?vid=9607b354-aa5a-42bb-aca7-38946b2d62c2","ios":"levelo://app?vid=9607b354-aa5a-42bb-aca7-38946b2d62c2"},"vehicle_type_id":"4","last_reported":1720195791,"current_range_meters":13200,"station_id":"ce4bguh2rcd13ifvqckg","pricing_plan_id":"cebpf4jnsgd1na2vs0mg"},{"bike_id":"41cdcdd6-ded1-4424-b142-2da7b544bf9d","system_id":"levelo_inurba_marseille","lat":43.317914,"lon":5.369378,"is_reserved":false,"is_disabled":false,"rental_uris":{"android":"levelo://app?vid=41cdcdd6-ded1-4424-b142-2da7b544bf9d","ios":"levelo://app?vid=41cdcdd6-ded1-4424-b142-2da7b544bf9d"},"vehicle_type_id":"4","last_reported":1720195791,"current_range_meters":10000,"station_id":"","pricing_plan_id":"cebpf4jnsgd1na2vs0mg"},{"bike_id":"c79f8306-56bf-44a2-ba95-de1d7b0db9c7","system_id":"levelo_inurba_marseille","lat":43.312909,"lon":5.375559,"is_reserved":false,"is_disabled":false,"rental_uris":{"android":"levelo://app?vid=c79f8306-56bf-44a2-ba95-de1d7b0db9c7","ios":"levelo://app?vid=c79f8306-56bf-44a2-ba95-de1d7b0db9c7"},"vehicle_type_id":"4","last_reported":1720195791,"current_range_meters":0,"station_id":"","pricing_plan_id":"cebpf4jnsgd1na2vs0mg"},{"bike_id":"e137663d-8691-4bf4-a0cb-fb315a8a92f4","system_id":"levelo_inurba_marseille","lat":43.31823,"lon":5.37246,"is_reserved":false,"is_disabled":false,"rental_uris":{"android":"levelo://app?vid=e137663d-8691-4bf4-a0cb-fb315a8a92f4","ios":"levelo://app?vid=e137663d-8691-4bf4-a0cb-fb315a8a92f4"},"vehicle_type_id":"4","last_reported":1720195791,"current_range_meters":1600,"station_id":"","pricing_plan_id":"cebpf4jnsgd1na2vs0mg"},{"bike_id":"c04e4982-5767-4f30-937b-e9f2d61b2027","system_id":"levelo_inurba_marseille","lat":43.30546,"lon":5.36656,"is_reserved":false,"is_disabled":false,"rental_uris":{"android":"levelo://app?vid=c04e4982-5767-4f30-937b-e9f2d61b2027","ios":"levelo://app?vid=c04e4982-5767-4f30-937b-e9f2d61b2027"},"vehicle_type_id":"4","last_reported":1720195791,"current_range_meters":0,"station_id":"","pricing_plan_id":"cebpf4jnsgd1na2vs0mg"},{"bike_id":"42a6d438-4b64-43bf-979f-8c1a19a062cd","system_id":"levelo_inurba_marseille","lat":43.311125,"lon":5.377624,"is_reserved":false,"is_disabled":false,"rental_uris":{"android":"levelo://app?vid=42a6d438-4b64-43bf-979f-8c1a19a062cd","ios":"levelo://app?vid=42a6d438-4b64-43bf-979f-8c1a19a062cd"},"vehicle_type_id":"4","last_reported":1720195791,"current_range_meters":25200,"station_id":"ce4bgt92rcd13ifvqcg0","pricing_plan_id":"cebpf4jnsgd1na2vs0mg"},{"bike_id":"0ff22976-84e0-4409-90f9-1aab7a7e63db","system_id":"levelo_inurba_marseille","lat":43.307945,"lon":5.376487,"is_reserved":false,"is_disabled":false,"rental_uris":{"android":"levelo://app?vid=0ff22976-84e0-4409-90f9-1aab7a7e63db","ios":"levelo://app?vid=0ff22976-84e0-4409-90f9-1aab7a7e63db"},"vehicle_type_id":"4","last_reported":1720195791,"current_range_meters":24800,"station_id":"ce4bgv92rcd13ifvqcq0","pricing_plan_id":"cebpf4jnsgd1na2vs0mg"},{"bike_id":"8f845438-170f-4f47-8533-321828163aeb","system_id":"levelo_inurba_marseille","lat":43.307945,"lon":5.376487,"is_reserved":false,"is_disabled":false,"rental_uris":{"android":"levelo://app?vid=8f845438-170f-4f47-8533-321828163aeb","ios":"levelo://app?vid=8f845438-170f-4f47-8533-321828163aeb"},"vehicle_type_id":"4","last_reported":1720195791,"current_range_meters":7600,"station_id":"ce4bgv92rcd13ifvqcq0","pricing_plan_id":"cebpf4jnsgd1na2vs0mg"},{"bike_id":"55107493-cd2e-4878-bc9c-8b3f2dc5df0e","system_id":"levelo_inurba_marseille","lat":43.317075,"lon":5.377367,"is_reserved":false,"is_disabled":false,"rental_uris":{"android":"levelo://app?vid=55107493-cd2e-4878-bc9c-8b3f2dc5df0e","ios":"levelo://app?vid=55107493-cd2e-4878-bc9c-8b3f2dc5df0e"},"vehicle_type_id":"4","last_reported":1720195791,"current_range_meters":6000,"station_id":"ce4bgth2rcd13ifvqch0","pricing_plan_id":"cebpf4jnsgd1na2vs0mg"},{"bike_id":"afa72986-c748-4fc0-9792-9f11cc7e0c66","system_id":"levelo_inurba_marseille","lat":43.30304,"lon":5.368987,"is_reserved":false,"is_disabled":false,"rental_uris":{"android":"levelo://app?vid=afa72986-c748-4fc0-9792-9f11cc7e0c66","ios":"levelo://app?vid=afa72986-c748-4fc0-9792-9f11cc7e0c66"},"vehicle_type_id":"4","last_reported":1720195791,"current_range_meters":26400,"station_id":"ce4bgqh2rcd13ifvqc5g","pricing_plan_id":"cebpf4jnsgd1na2vs0mg"},{"bike_id":"9b129fc5-20f7-43f5-b289-a4f5f52b6603","system_id":"levelo_inurba_marseille","lat":43.32285,"lon":5.36773,"is_reserved":false,"is_disabled":false,"rental_uris":{"android":"levelo://app?vid=9b129fc5-20f7-43f5-b289-a4f5f52b6603","ios":"levelo://app?vid=9b129fc5-20f7-43f5-b289-a4f5f52b6603"},"vehicle_type_id":"4","last_reported":1720195791,"current_range_meters":0,"station_id":"","pricing_plan_id":"cebpf4jnsgd1na2vs0mg"},{"bike_id":"1f9bc8bb-541f-4a58-b7a3-9168e20ed626","system_id":"levelo_inurba_marseille","lat":43.31536,"lon":5.38039,"is_reserved":false,"is_disabled":false,"rental_uris":{"android":"levelo://app?vid=1f9bc8bb-541f-4a58-b7a3-9168e20ed626","ios":"levelo://app?vid=1f9bc8bb-541f-4a58-b7a3-9168e20ed626"},"vehicle_type_id":"4","last_reported":1720195791,"current_range_meters":28400,"station_id":"ce4bhsp2rcd13ifvqi50","pricing_plan_id":"cebpf4jnsgd1na2vs0mg"},{"bike_id":"70a70a61-db22-4037-8928-ed7849563c53","system_id":"levelo_inurba_marseille","lat":43.324731,"lon":5.365583,"is_reserved":false,"is_disabled":false,"rental_uris":{"android":"levelo://app?vid=70a70a61-db22-4037-8928-ed7849563c53","ios":"levelo://app?vid=70a70a61-db22-4037-8928-ed7849563c53"},"vehicle_type_id":"4","last_reported":1720195791,"current_range_meters":24800,"station_id":"ce4bhs12rcd13ifvqhvg","pricing_plan_id":"cebpf4jnsgd1na2vs0mg"},{"bike_id":"df7d3009-3084-4f61-9c80-b20bd7556d55","system_id":"levelo_inurba_marseille","lat":43.324771,"lon":5.36557,"is_reserved":false,"is_disabled":false,"rental_uris":{"android":"levelo://app?vid=df7d3009-3084-4f61-9c80-b20bd7556d55","ios":"levelo://app?vid=df7d3009-3084-4f61-9c80-b20bd7556d55"},"vehicle_type_id":"4","last_reported":1720195791,"current_range_meters":27600,"station_id":"ce4bhs12rcd13ifvqhvg","pricing_plan_id":"cebpf4jnsgd1na2vs0mg"},{"bike_id":"f4cf2b21-7a36-418f-b6ba-ea7a509149bc","system_id":"levelo_inurba_marseille","lat":43.324771,"lon":5.36557,"is_reserved":false,"is_disabled":false,"rental_uris":{"android":"levelo://app?vid=f4cf2b21-7a36-418f-b6ba-ea7a509149bc","ios":"levelo://app?vid=f4cf2b21-7a36-418f-b6ba-ea7a509149bc"},"vehicle_type_id":"4","last_reported":1720195791,"current_range_meters":8000,"station_id":"ce4bhs12rcd13ifvqhvg","pricing_plan_id":"cebpf4jnsgd1na2vs0mg"},{"bike_id":"15155e11-4925-49a8-9ca9-ede75c71c7dc","system_id":"levelo_inurba_marseille","lat":43.324771,"lon":5.36557,"is_reserved":false,"is_disabled":false,"rental_uris":{"android":"levelo://app?vid=15155e11-4925-49a8-9ca9-ede75c71c7dc","ios":"levelo://app?vid=15155e11-4925-49a8-9ca9-ede75c71c7dc"},"vehicle_type_id":"4","last_reported":1720195791,"current_range_meters":6400,"station_id":"ce4bhs12rcd13ifvqhvg","pricing_plan_id":"cebpf4jnsgd1na2vs0mg"},{"bike_id":"7bc4b2b4-a771-4581-b1f8-e0ee23bf4dc5","system_id":"levelo_inurba_marseille","lat":43.324771,"lon":5.36557,"is_reserved":false,"is_disabled":false,"rental_uris":{"android":"levelo://app?vid=7bc4b2b4-a771-4581-b1f8-e0ee23bf4dc5","ios":"levelo://app?vid=7bc4b2b4-a771-4581-b1f8-e0ee23bf4dc5"},"vehicle_type_id":"4","last_reported":1720195791,"current_range_meters":27600,"station_id":"ce4bhs12rcd13ifvqhvg","pricing_plan_id":"cebpf4jnsgd1na2vs0mg"},{"bike_id":"db29794a-735b-406d-a809-c2c7f581afbc","system_id":"levelo_inurba_marseille","lat":43.324771,"lon":5.36557,"is_reserved":false,"is_disabled":false,"rental_uris":{"android":"levelo://app?vid=db29794a-735b-406d-a809-c2c7f581afbc","ios":"levelo://app?vid=db29794a-735b-406d-a809-c2c7f581afbc"},"vehicle_type_id":"4","last_reported":1720195791,"current_range_meters":14400,"station_id":"ce4bhs12rcd13ifvqhvg","pricing_plan_id":"cebpf4jnsgd1na2vs0mg"},{"bike_id":"dc7401a3-f714-4aea-a92a-9bc6ab1bcaf1","system_id":"levelo_inurba_marseille","lat":43.310804,"lon":5.38359,"is_reserved":false,"is_disabled":false,"rental_uris":{"android":"levelo://app?vid=dc7401a3-f714-4aea-a92a-9bc6ab1bcaf1","ios":"levelo://app?vid=dc7401a3-f714-4aea-a92a-9bc6ab1bcaf1"},"vehicle_type_id":"4","last_reported":1720195791,"current_range_meters":8800,"station_id":"ce4bgv92rcd13ifvqcr0","pricing_plan_id":"cebpf4jnsgd1na2vs0mg"},{"bike_id":"34885b1b-6b6f-47f7-8282-83ccc4df20e5","system_id":"levelo_inurba_marseille","lat":43.310804,"lon":5.38359,"is_reserved":false,"is_disabled":false,"rental_uris":{"android":"levelo://app?vid=34885b1b-6b6f-47f7-8282-83ccc4df20e5","ios":"levelo://app?vid=34885b1b-6b6f-47f7-8282-83ccc4df20e5"},"vehicle_type_id":"4","last_reported":1720195791,"current_range_meters":9200,"station_id":"ce4bgv92rcd13ifvqcr0","pricing_plan_id":"cebpf4jnsgd1na2vs0mg"},{"bike_id":"e53be35f-db15-43e2-9af2-ede096aebe4b","system_id":"levelo_inurba_marseille","lat":43.30147,"lon":5.37415,"is_reserved":false,"is_disabled":false,"rental_uris":{"android":"levelo://app?vid=e53be35f-db15-43e2-9af2-ede096aebe4b","ios":"levelo://app?vid=e53be35f-db15-43e2-9af2-ede096aebe4b"},"vehicle_type_id":"4","last_reported":1720195791,"current_range_meters":0,"station_id":"ce4bgs92rcd13ifvqcc0","pricing_plan_id":"cebpf4jnsgd1na2vs0mg"},{"bike_id":"2f14dcc4-0835-4918-98f0-e43dde280800","system_id":"levelo_inurba_marseille","lat":43.301429,"lon":5.37413,"is_reserved":false,"is_disabled":false,"rental_uris":{"android":"levelo://app?vid=2f14dcc4-0835-4918-98f0-e43dde280800","ios":"levelo://app?vid=2f14dcc4-0835-4918-98f0-e43dde280800"},"vehicle_type_id":"4","last_reported":1720195791,"current_range_meters":13600,"station_id":"ce4bgs92rcd13ifvqcc0","pricing_plan_id":"cebpf4jnsgd1na2vs0mg"},{"bike_id":"878ea04e-eb43-4e1e-8801-3df1585760e3","system_id":"levelo_inurba_marseille","lat":43.30143,"lon":5.37413,"is_reserved":false,"is_disabled":false,"rental_uris":{"android":"levelo://app?vid=878ea04e-eb43-4e1e-8801-3df1585760e3","ios":"levelo://app?vid=878ea04e-eb43-4e1e-8801-3df1585760e3"},"vehicle_type_id":"4","last_reported":1720195791,"current_range_meters":31600,"station_id":"ce4bgs92rcd13ifvqcc0","pricing_plan_id":"cebpf4jnsgd1na2vs0mg"},{"bike_id":"af180e10-5aba-44f7-9b01-c5d03a386688","system_id":"levelo_inurba_marseille","lat":43.30143,"lon":5.37413,"is_reserved":false,"is_disabled":false,"rental_uris":{"android":"levelo://app?vid=af180e10-5aba-44f7-9b01-c5d03a386688","ios":"levelo://app?vid=af180e10-5aba-44f7-9b01-c5d03a386688"},"vehicle_type_id":"4","last_reported":1720195791,"current_range_meters":28800,"station_id":"ce4bgs92rcd13ifvqcc0","pricing_plan_id":"cebpf4jnsgd1na2vs0mg"},{"bike_id":"6a6c7a3f-0241-4c0d-ae39-f44153a4264e","system_id":"levelo_inurba_marseille","lat":43.319935,"lon":5.381699,"is_reserved":false,"is_disabled":false,"rental_uris":{"android":"levelo://app?vid=6a6c7a3f-0241-4c0d-ae39-f44153a4264e","ios":"levelo://app?vid=6a6c7a3f-0241-4c0d-ae39-f44153a4264e"},"vehicle_type_id":"4","last_reported":1720195791,"current_range_meters":21600,"station_id":"ce4bhr12rcd13ifvqhpg","pricing_plan_id":"cebpf4jnsgd1na2vs0mg"},{"bike_id":"73f26fd5-b399-4ba1-afc1-b20f5b9d5d8f","system_id":"levelo_inurba_marseille","lat":43.32001,"lon":5.381567,"is_reserved":false,"is_disabled":false,"rental_uris":{"android":"levelo://app?vid=73f26fd5-b399-4ba1-afc1-b20f5b9d5d8f","ios":"levelo://app?vid=73f26fd5-b399-4ba1-afc1-b20f5b9d5d8f"},"vehicle_type_id":"4","last_reported":1720195791,"current_range_meters":2400,"station_id":"ce4bhr12rcd13ifvqhpg","pricing_plan_id":"cebpf4jnsgd1na2vs0mg"},{"bike_id":"8d0b5118-0d4e-438e-afc1-2052530b66c9","system_id":"levelo_inurba_marseille","lat":43.319935,"lon":5.381699,"is_reserved":false,"is_disabled":false,"rental_uris":{"android":"levelo://app?vid=8d0b5118-0d4e-438e-afc1-2052530b66c9","ios":"levelo://app?vid=8d0b5118-0d4e-438e-afc1-2052530b66c9"},"vehicle_type_id":"4","last_reported":1720195791,"current_range_meters":0,"station_id":"ce4bhr12rcd13ifvqhpg","pricing_plan_id":"cebpf4jnsgd1na2vs0mg"},{"bike_id":"56bb98b1-0103-4d56-8140-64d753e092ad","system_id":"levelo_inurba_marseille","lat":43.313571,"lon":5.384829,"is_reserved":false,"is_disabled":false,"rental_uris":{"android":"levelo://app?vid=56bb98b1-0103-4d56-8140-64d753e092ad","ios":"levelo://app?vid=56bb98b1-0103-4d56-8140-64d753e092ad"},"vehicle_type_id":"4","last_reported":1720195791,"current_range_meters":14400,"station_id":"ce4bgt92rcd13ifvqcf0","pricing_plan_id":"cebpf4jnsgd1na2vs0mg"},{"bike_id":"9fdfcc28-f0e1-4c71-9e3e-289fb9b005c5","system_id":"levelo_inurba_marseille","lat":43.299724,"lon":5.371829,"is_reserved":false,"is_disabled":false,"rental_uris":{"android":"levelo://app?vid=9fdfcc28-f0e1-4c71-9e3e-289fb9b005c5","ios":"levelo://app?vid=9fdfcc28-f0e1-4c71-9e3e-289fb9b005c5"},"vehicle_type_id":"4","last_reported":1720195791,"current_range_meters":18800,"station_id":"ce4bgr92rcd13ifvqc7g","pricing_plan_id":"cebpf4jnsgd1na2vs0mg"},{"bike_id":"1ee43d2a-0e4e-48b8-8a12-0b4bea57a77a","system_id":"levelo_inurba_marseille","lat":43.299724,"lon":5.371829,"is_reserved":false,"is_disabled":false,"rental_uris":{"android":"levelo://app?vid=1ee43d2a-0e4e-48b8-8a12-0b4bea57a77a","ios":"levelo://app?vid=1ee43d2a-0e4e-48b8-8a12-0b4bea57a77a"},"vehicle_type_id":"4","last_reported":1720195791,"current_range_meters":0,"station_id":"ce4bgr92rcd13ifvqc7g","pricing_plan_id":"cebpf4jnsgd1na2vs0mg"},{"bike_id":"8b1bae3e-a69a-4753-b7ab-1bd767cb5feb","system_id":"levelo_inurba_marseille","lat":43.299724,"lon":5.371829,"is_reserved":false,"is_disabled":false,"rental_uris":{"android":"levelo://app?vid=8b1bae3e-a69a-4753-b7ab-1bd767cb5feb","ios":"levelo://app?vid=8b1bae3e-a69a-4753-b7ab-1bd767cb5feb"},"vehicle_type_id":"4","last_reported":1720195791,"current_range_meters":10000,"station_id":"ce4bgr92rcd13ifvqc7g","pricing_plan_id":"cebpf4jnsgd1na2vs0mg"},{"bike_id":"4d5be025-7dea-4136-b554-20f5a6020b16","system_id":"levelo_inurba_marseille","lat":43.299724,"lon":5.371829,"is_reserved":false,"is_disabled":false,"rental_uris":{"android":"levelo://app?vid=4d5be025-7dea-4136-b554-20f5a6020b16","ios":"levelo://app?vid=4d5be025-7dea-4136-b554-20f5a6020b16"},"vehicle_type_id":"4","last_reported":1720195791,"current_range_meters":31200,"station_id":"ce4bgr92rcd13ifvqc7g","pricing_plan_id":"cebpf4jnsgd1na2vs0mg"},{"bike_id":"3bd4c7ed-7ad2-44a2-9f27-fe6ff5f1408d","system_id":"levelo_inurba_marseille","lat":43.298433,"lon":5.362774,"is_reserved":false,"is_disabled":false,"rental_uris":{"android":"levelo://app?vid=3bd4c7ed-7ad2-44a2-9f27-fe6ff5f1408d","ios":"levelo://app?vid=3bd4c7ed-7ad2-44a2-9f27-fe6ff5f1408d"},"vehicle_type_id":"4","last_reported":1720195791,"current_range_meters":12400,"station_id":"ce4bgpp2rcd13ifvqc3g","pricing_plan_id":"cebpf4jnsgd1na2vs0mg"},{"bike_id":"b8d60ad3-a663-413c-b003-09b37a3714ac","system_id":"levelo_inurba_marseille","lat":43.298433,"lon":5.362774,"is_reserved":false,"is_disabled":false,"rental_uris":{"android":"levelo://app?vid=b8d60ad3-a663-413c-b003-09b37a3714ac","ios":"levelo://app?vid=b8d60ad3-a663-413c-b003-09b37a3714ac"},"vehicle_type_id":"4","last_reported":1720195791,"current_range_meters":400,"station_id":"ce4bgpp2rcd13ifvqc3g","pricing_plan_id":"cebpf4jnsgd1na2vs0mg"},{"bike_id":"796490c2-2806-4654-b0ca-fcb436071b42","system_id":"levelo_inurba_marseille","lat":43.298433,"lon":5.362774,"is_reserved":false,"is_disabled":false,"rental_uris":{"android":"levelo://app?vid=796490c2-2806-4654-b0ca-fcb436071b42","ios":"levelo://app?vid=796490c2-2806-4654-b0ca-fcb436071b42"},"vehicle_type_id":"4","last_reported":1720195791,"current_range_meters":10800,"station_id":"ce4bgpp2rcd13ifvqc3g","pricing_plan_id":"cebpf4jnsgd1na2vs0mg"},{"bike_id":"f55dcd2b-766c-4262-9eb6-27633aad9c10","system_id":"levelo_inurba_marseille","lat":43.299243,"lon":5.37481,"is_reserved":false,"is_disabled":false,"rental_uris":{"android":"levelo://app?vid=f55dcd2b-766c-4262-9eb6-27633aad9c10","ios":"levelo://app?vid=f55dcd2b-766c-4262-9eb6-27633aad9c10"},"vehicle_type_id":"4","last_reported":1720195791,"current_range_meters":14000,"station_id":"ce4bgjh2rcd13ifvqbg0","pricing_plan_id":"cebpf4jnsgd1na2vs0mg"},{"bike_id":"788c5260-aa81-432f-bc5e-bd5f6cfbc306","system_id":"levelo_inurba_marseille","lat":43.311722,"lon":5.387247,"is_reserved":false,"is_disabled":false,"rental_uris":{"android":"levelo://app?vid=788c5260-aa81-432f-bc5e-bd5f6cfbc306","ios":"levelo://app?vid=788c5260-aa81-432f-bc5e-bd5f6cfbc306"},"vehicle_type_id":"4","last_reported":1720195791,"current_range_meters":4400,"station_id":"ce4bgv12rcd13ifvqcp0","pricing_plan_id":"cebpf4jnsgd1na2vs0mg"},{"bike_id":"4c0528aa-aacb-4eaf-88b2-f57d08fd1072","system_id":"levelo_inurba_marseille","lat":43.311723,"lon":5.387247,"is_reserved":false,"is_disabled":false,"rental_uris":{"android":"levelo://app?vid=4c0528aa-aacb-4eaf-88b2-f57d08fd1072","ios":"levelo://app?vid=4c0528aa-aacb-4eaf-88b2-f57d08fd1072"},"vehicle_type_id":"4","last_reported":1720195791,"current_range_meters":22400,"station_id":"ce4bgv12rcd13ifvqcp0","pricing_plan_id":"cebpf4jnsgd1na2vs0mg"},{"bike_id":"f1d15e01-dc4f-4624-98e9-aa1506b2f788","system_id":"levelo_inurba_marseille","lat":43.311722,"lon":5.387247,"is_reserved":false,"is_disabled":false,"rental_uris":{"android":"levelo://app?vid=f1d15e01-dc4f-4624-98e9-aa1506b2f788","ios":"levelo://app?vid=f1d15e01-dc4f-4624-98e9-aa1506b2f788"},"vehicle_type_id":"4","last_reported":1720195791,"current_range_meters":0,"station_id":"ce4bgv12rcd13ifvqcp0","pricing_plan_id":"cebpf4jnsgd1na2vs0mg"},{"bike_id":"fc61b835-51c9-4ea3-a943-cad07f427fb1","system_id":"levelo_inurba_marseille","lat":43.31038,"lon":5.3871,"is_reserved":false,"is_disabled":false,"rental_uris":{"android":"levelo://app?vid=fc61b835-51c9-4ea3-a943-cad07f427fb1","ios":"levelo://app?vid=fc61b835-51c9-4ea3-a943-cad07f427fb1"},"vehicle_type_id":"4","last_reported":1720195791,"current_range_meters":4800,"station_id":"","pricing_plan_id":"cebpf4jnsgd1na2vs0mg"},{"bike_id":"3971114c-c192-4b93-9dfa-208d5c8fd8f1","system_id":"levelo_inurba_marseille","lat":43.311722,"lon":5.387247,"is_reserved":false,"is_disabled":false,"rental_uris":{"android":"levelo://app?vid=3971114c-c192-4b93-9dfa-208d5c8fd8f1","ios":"levelo://app?vid=3971114c-c192-4b93-9dfa-208d5c8fd8f1"},"vehicle_type_id":"4","last_reported":1720195791,"current_range_meters":24400,"station_id":"ce4bgv12rcd13ifvqcp0","pricing_plan_id":"cebpf4jnsgd1na2vs0mg"},{"bike_id":"26d25781-f534-4b74-a663-04b51b67a7a8","system_id":"levelo_inurba_marseille","lat":43.297794,"lon":5.370888,"is_reserved":false,"is_disabled":false,"rental_uris":{"android":"levelo://app?vid=26d25781-f534-4b74-a663-04b51b67a7a8","ios":"levelo://app?vid=26d25781-f534-4b74-a663-04b51b67a7a8"},"vehicle_type_id":"4","last_reported":1720195791,"current_range_meters":20800,"station_id":"ce4bgop2rcd13ifvqc1g","pricing_plan_id":"cebpf4jnsgd1na2vs0mg"},{"bike_id":"3ed1a6ee-73a5-448b-aab8-7dd05117cb66","system_id":"levelo_inurba_marseille","lat":43.30169,"lon":5.381359,"is_reserved":false,"is_disabled":false,"rental_uris":{"android":"levelo://app?vid=3ed1a6ee-73a5-448b-aab8-7dd05117cb66","ios":"levelo://app?vid=3ed1a6ee-73a5-448b-aab8-7dd05117cb66"},"vehicle_type_id":"4","last_reported":1720195791,"current_range_meters":0,"station_id":"","pricing_plan_id":"cebpf4jnsgd1na2vs0mg"},{"bike_id":"dadcbc81-ec48-4bf0-b40b-649843ed81b2","system_id":"levelo_inurba_marseille","lat":43.297774,"lon":5.370875,"is_reserved":false,"is_disabled":false,"rental_uris":{"android":"levelo://app?vid=dadcbc81-ec48-4bf0-b40b-649843ed81b2","ios":"levelo://app?vid=dadcbc81-ec48-4bf0-b40b-649843ed81b2"},"vehicle_type_id":"4","last_reported":1720195791,"current_range_meters":29600,"station_id":"ce4bgop2rcd13ifvqc1g","pricing_plan_id":"cebpf4jnsgd1na2vs0mg"},{"bike_id":"21ab68ef-f61e-4ff3-b293-2b258dcc8686","system_id":"levelo_inurba_marseille","lat":43.32291,"lon":5.38269,"is_reserved":false,"is_disabled":false,"rental_uris":{"android":"levelo://app?vid=21ab68ef-f61e-4ff3-b293-2b258dcc8686","ios":"levelo://app?vid=21ab68ef-f61e-4ff3-b293-2b258dcc8686"},"vehicle_type_id":"4","last_reported":1720195791,"current_range_meters":0,"station_id":"ce4bhr12rcd13ifvqhqg","pricing_plan_id":"cebpf4jnsgd1na2vs0mg"},{"bike_id":"82f58178-8f89-479f-a33f-971fd10a7a10","system_id":"levelo_inurba_marseille","lat":43.298267,"lon":5.376872,"is_reserved":false,"is_disabled":false,"rental_uris":{"android":"levelo://app?vid=82f58178-8f89-479f-a33f-971fd10a7a10","ios":"levelo://app?vid=82f58178-8f89-479f-a33f-971fd10a7a10"},"vehicle_type_id":"4","last_reported":1720195791,"current_range_meters":5600,"station_id":"","pricing_plan_id":"cebpf4jnsgd1na2vs0mg"},{"bike_id":"b0f43224-b28b-4e0a-989a-863079de3908","system_id":"levelo_inurba_marseille","lat":43.296332,"lon":5.367218,"is_reserved":false,"is_disabled":false,"rental_uris":{"android":"levelo://app?vid=b0f43224-b28b-4e0a-989a-863079de3908","ios":"levelo://app?vid=b0f43224-b28b-4e0a-989a-863079de3908"},"vehicle_type_id":"4","last_reported":1720195791,"current_range_meters":20800,"station_id":"","pricing_plan_id":"cebpf4jnsgd1na2vs0mg"},{"bike_id":"609db0c6-6023-4212-b634-c3997b2de57a","system_id":"levelo_inurba_marseille","lat":43.2968,"lon":5.37291,"is_reserved":false,"is_disabled":false,"rental_uris":{"android":"levelo://app?vid=609db0c6-6023-4212-b634-c3997b2de57a","ios":"levelo://app?vid=609db0c6-6023-4212-b634-c3997b2de57a"},"vehicle_type_id":"4","last_reported":1720195791,"current_range_meters":18400,"station_id":"ce4bgk12rcd13ifvqbj0","pricing_plan_id":"cebpf4jnsgd1na2vs0mg"},{"bike_id":"280525b4-850d-4349-9c72-4f70d3424eeb","system_id":"levelo_inurba_marseille","lat":43.32728,"lon":5.37848,"is_reserved":false,"is_disabled":false,"rental_uris":{"android":"levelo://app?vid=280525b4-850d-4349-9c72-4f70d3424eeb","ios":"levelo://app?vid=280525b4-850d-4349-9c72-4f70d3424eeb"},"vehicle_type_id":"4","last_reported":1720195791,"current_range_meters":9200,"station_id":"","pricing_plan_id":"cebpf4jnsgd1na2vs0mg"},{"bike_id":"9bd157e2-749e-4972-b877-a1f936e1dce5","system_id":"levelo_inurba_marseille","lat":43.296131,"lon":5.370791,"is_reserved":false,"is_disabled":false,"rental_uris":{"android":"levelo://app?vid=9bd157e2-749e-4972-b877-a1f936e1dce5","ios":"levelo://app?vid=9bd157e2-749e-4972-b877-a1f936e1dce5"},"vehicle_type_id":"4","last_reported":1720195791,"current_range_meters":7200,"station_id":"ce4bgnh2rcd13ifvqc0g","pricing_plan_id":"cebpf4jnsgd1na2vs0mg"},{"bike_id":"5e8817d3-3f70-450d-bb24-3eff54378c8e","system_id":"levelo_inurba_marseille","lat":43.29584,"lon":5.36749,"is_reserved":false,"is_disabled":false,"rental_uris":{"android":"levelo://app?vid=5e8817d3-3f70-450d-bb24-3eff54378c8e","ios":"levelo://app?vid=5e8817d3-3f70-450d-bb24-3eff54378c8e"},"vehicle_type_id":"4","last_reported":1720195791,"current_range_meters":0,"station_id":"ce4bgph2rcd13ifvqc2g","pricing_plan_id":"cebpf4jnsgd1na2vs0mg"},{"bike_id":"27b6f0fd-b67e-40eb-a8bf-1777848056ff","system_id":"levelo_inurba_marseille","lat":43.296935,"lon":5.376544,"is_reserved":false,"is_disabled":false,"rental_uris":{"android":"levelo://app?vid=27b6f0fd-b67e-40eb-a8bf-1777848056ff","ios":"levelo://app?vid=27b6f0fd-b67e-40eb-a8bf-1777848056ff"},"vehicle_type_id":"4","last_reported":1720195791,"current_range_meters":0,"station_id":"ce4bgkh2rcd13ifvqbl0","pricing_plan_id":"cebpf4jnsgd1na2vs0mg"},{"bike_id":"d4527ce1-f91a-44f1-9808-4f8adc9c750c","system_id":"levelo_inurba_marseille","lat":43.296921,"lon":5.376579,"is_reserved":false,"is_disabled":false,"rental_uris":{"android":"levelo://app?vid=d4527ce1-f91a-44f1-9808-4f8adc9c750c","ios":"levelo://app?vid=d4527ce1-f91a-44f1-9808-4f8adc9c750c"},"vehicle_type_id":"4","last_reported":1720195791,"current_range_meters":7600,"station_id":"ce4bgkh2rcd13ifvqbl0","pricing_plan_id":"cebpf4jnsgd1na2vs0mg"},{"bike_id":"753492e4-6b6b-4131-9d6a-576d48676437","system_id":"levelo_inurba_marseille","lat":43.309589,"lon":5.390258,"is_reserved":false,"is_disabled":false,"rental_uris":{"android":"levelo://app?vid=753492e4-6b6b-4131-9d6a-576d48676437","ios":"levelo://app?vid=753492e4-6b6b-4131-9d6a-576d48676437"},"vehicle_type_id":"4","last_reported":1720195791,"current_range_meters":12800,"station_id":"ce4bgup2rcd13ifvqco0","pricing_plan_id":"cebpf4jnsgd1na2vs0mg"},{"bike_id":"4e25f909-7136-4e9e-9475-d806e3191ba3","system_id":"levelo_inurba_marseille","lat":43.317557,"lon":5.390173,"is_reserved":false,"is_disabled":false,"rental_uris":{"android":"levelo://app?vid=4e25f909-7136-4e9e-9475-d806e3191ba3","ios":"levelo://app?vid=4e25f909-7136-4e9e-9475-d806e3191ba3"},"vehicle_type_id":"4","last_reported":1720195791,"current_range_meters":4000,"station_id":"ce4bhqp2rcd13ifvqhng","pricing_plan_id":"cebpf4jnsgd1na2vs0mg"},{"bike_id":"ae4491d9-4a50-411f-9a0a-77b04c1a9e8f","system_id":"levelo_inurba_marseille","lat":43.29745,"lon":5.37928,"is_reserved":false,"is_disabled":false,"rental_uris":{"android":"levelo://app?vid=ae4491d9-4a50-411f-9a0a-77b04c1a9e8f","ios":"levelo://app?vid=ae4491d9-4a50-411f-9a0a-77b04c1a9e8f"},"vehicle_type_id":"4","last_reported":1720195791,"current_range_meters":29200,"station_id":"","pricing_plan_id":"cebpf4jnsgd1na2vs0mg"},{"bike_id":"09f34926-c6e2-4536-8cd2-79c70906def9","system_id":"levelo_inurba_marseille","lat":43.298037,"lon":5.381066,"is_reserved":false,"is_disabled":false,"rental_uris":{"android":"levelo://app?vid=09f34926-c6e2-4536-8cd2-79c70906def9","ios":"levelo://app?vid=09f34926-c6e2-4536-8cd2-79c70906def9"},"vehicle_type_id":"4","last_reported":1720195791,"current_range_meters":0,"station_id":"ce4bgip2rcd13ifvqbb0","pricing_plan_id":"cebpf4jnsgd1na2vs0mg"},{"bike_id":"c558fe22-dff3-4ba6-8e24-03fe403f1af4","system_id":"levelo_inurba_marseille","lat":43.295748,"lon":5.37522,"is_reserved":false,"is_disabled":false,"rental_uris":{"android":"levelo://app?vid=c558fe22-dff3-4ba6-8e24-03fe403f1af4","ios":"levelo://app?vid=c558fe22-dff3-4ba6-8e24-03fe403f1af4"},"vehicle_type_id":"4","last_reported":1720195791,"current_range_meters":29600,"station_id":"ce4bgh92rcd13ifvqb50","pricing_plan_id":"cebpf4jnsgd1na2vs0mg"},{"bike_id":"47974efe-4721-426c-ab86-504673923b6a","system_id":"levelo_inurba_marseille","lat":43.295748,"lon":5.37522,"is_reserved":false,"is_disabled":false,"rental_uris":{"android":"levelo://app?vid=47974efe-4721-426c-ab86-504673923b6a","ios":"levelo://app?vid=47974efe-4721-426c-ab86-504673923b6a"},"vehicle_type_id":"4","last_reported":1720195791,"current_range_meters":8000,"station_id":"ce4bgh92rcd13ifvqb50","pricing_plan_id":"cebpf4jnsgd1na2vs0mg"},{"bike_id":"f6432e77-bf11-4d94-9a5c-3faa43842718","system_id":"levelo_inurba_marseille","lat":43.304274,"lon":5.388873,"is_reserved":false,"is_disabled":false,"rental_uris":{"android":"levelo://app?vid=f6432e77-bf11-4d94-9a5c-3faa43842718","ios":"levelo://app?vid=f6432e77-bf11-4d94-9a5c-3faa43842718"},"vehicle_type_id":"4","last_reported":1720195791,"current_range_meters":11600,"station_id":"ce4bgk12rcd13ifvqbi0","pricing_plan_id":"cebpf4jnsgd1na2vs0mg"},{"bike_id":"3e44b643-146c-4469-91c8-becf4240ad21","system_id":"levelo_inurba_marseille","lat":43.304278,"lon":5.388868,"is_reserved":false,"is_disabled":false,"rental_uris":{"android":"levelo://app?vid=3e44b643-146c-4469-91c8-becf4240ad21","ios":"levelo://app?vid=3e44b643-146c-4469-91c8-becf4240ad21"},"vehicle_type_id":"4","last_reported":1720195791,"current_range_meters":2800,"station_id":"ce4bgk12rcd13ifvqbi0","pricing_plan_id":"cebpf4jnsgd1na2vs0mg"},{"bike_id":"98395f5b-97e5-499d-b929-48c45e33e495","system_id":"levelo_inurba_marseille","lat":43.296263,"lon":5.377094,"is_reserved":false,"is_disabled":false,"rental_uris":{"android":"levelo://app?vid=98395f5b-97e5-499d-b929-48c45e33e495","ios":"levelo://app?vid=98395f5b-97e5-499d-b929-48c45e33e495"},"vehicle_type_id":"4","last_reported":1720195791,"current_range_meters":0,"station_id":"ce4bgi92rcd13ifvqb90","pricing_plan_id":"cebpf4jnsgd1na2vs0mg"},{"bike_id":"1a0fb889-cb7d-4e6c-b8ce-145033e2563d","system_id":"levelo_inurba_marseille","lat":43.295279,"lon":5.375048,"is_reserved":false,"is_disabled":false,"rental_uris":{"android":"levelo://app?vid=1a0fb889-cb7d-4e6c-b8ce-145033e2563d","ios":"levelo://app?vid=1a0fb889-cb7d-4e6c-b8ce-145033e2563d"},"vehicle_type_id":"4","last_reported":1720195791,"current_range_meters":3600,"station_id":"ce4bgkp2rcd13ifvqbmg","pricing_plan_id":"cebpf4jnsgd1na2vs0mg"},{"bike_id":"1e55bb4b-126e-4305-8b30-ee896722c2b5","system_id":"levelo_inurba_marseille","lat":43.29523,"lon":5.37493,"is_reserved":false,"is_disabled":false,"rental_uris":{"android":"levelo://app?vid=1e55bb4b-126e-4305-8b30-ee896722c2b5","ios":"levelo://app?vid=1e55bb4b-126e-4305-8b30-ee896722c2b5"},"vehicle_type_id":"4","last_reported":1720195791,"current_range_meters":0,"station_id":"ce4bgkp2rcd13ifvqbmg","pricing_plan_id":"cebpf4jnsgd1na2vs0mg"},{"bike_id":"f40f2d29-01ec-4fd5-b25a-d56d144746bc","system_id":"levelo_inurba_marseille","lat":43.299724,"lon":5.384848,"is_reserved":false,"is_disabled":false,"rental_uris":{"android":"levelo://app?vid=f40f2d29-01ec-4fd5-b25a-d56d144746bc","ios":"levelo://app?vid=f40f2d29-01ec-4fd5-b25a-d56d144746bc"},"vehicle_type_id":"4","last_reported":1720195791,"current_range_meters":0,"station_id":"ce4bgj92rcd13ifvqbd0","pricing_plan_id":"cebpf4jnsgd1na2vs0mg"},{"bike_id":"deeb7b25-3094-4845-aa40-f86dd2f82846","system_id":"levelo_inurba_marseille","lat":43.295279,"lon":5.375048,"is_reserved":false,"is_disabled":false,"rental_uris":{"android":"levelo://app?vid=deeb7b25-3094-4845-aa40-f86dd2f82846","ios":"levelo://app?vid=deeb7b25-3094-4845-aa40-f86dd2f82846"},"vehicle_type_id":"4","last_reported":1720195791,"current_range_meters":20800,"station_id":"ce4bgkp2rcd13ifvqbmg","pricing_plan_id":"cebpf4jnsgd1na2vs0mg"},{"bike_id":"7ee7dbaf-aa6e-40c3-9b55-37c0f29e3275","system_id":"levelo_inurba_marseille","lat":43.301396,"lon":5.387812,"is_reserved":false,"is_disabled":false,"rental_uris":{"android":"levelo://app?vid=7ee7dbaf-aa6e-40c3-9b55-37c0f29e3275","ios":"levelo://app?vid=7ee7dbaf-aa6e-40c3-9b55-37c0f29e3275"},"vehicle_type_id":"4","last_reported":1720195791,"current_range_meters":0,"station_id":"ce4bghh2rcd13ifvqb60","pricing_plan_id":"cebpf4jnsgd1na2vs0mg"},{"bike_id":"be86c186-ceda-4e06-ae6b-01c46c3dca21","system_id":"levelo_inurba_marseille","lat":43.32367,"lon":5.388836,"is_reserved":false,"is_disabled":false,"rental_uris":{"android":"levelo://app?vid=be86c186-ceda-4e06-ae6b-01c46c3dca21","ios":"levelo://app?vid=be86c186-ceda-4e06-ae6b-01c46c3dca21"},"vehicle_type_id":"4","last_reported":1720195791,"current_range_meters":4400,"station_id":"ce4bhqp2rcd13ifvqhog","pricing_plan_id":"cebpf4jnsgd1na2vs0mg"},{"bike_id":"7de93074-bc9e-4cb7-a2b8-3237e3cc1ede","system_id":"levelo_inurba_marseille","lat":43.32367,"lon":5.388836,"is_reserved":false,"is_disabled":false,"rental_uris":{"android":"levelo://app?vid=7de93074-bc9e-4cb7-a2b8-3237e3cc1ede","ios":"levelo://app?vid=7de93074-bc9e-4cb7-a2b8-3237e3cc1ede"},"vehicle_type_id":"4","last_reported":1720195791,"current_range_meters":3200,"station_id":"ce4bhqp2rcd13ifvqhog","pricing_plan_id":"cebpf4jnsgd1na2vs0mg"},{"bike_id":"703e14ca-d678-45c0-a0bf-cea46d267c56","system_id":"levelo_inurba_marseille","lat":43.32367,"lon":5.388836,"is_reserved":false,"is_disabled":false,"rental_uris":{"android":"levelo://app?vid=703e14ca-d678-45c0-a0bf-cea46d267c56","ios":"levelo://app?vid=703e14ca-d678-45c0-a0bf-cea46d267c56"},"vehicle_type_id":"4","last_reported":1720195791,"current_range_meters":0,"station_id":"ce4bhqp2rcd13ifvqhog","pricing_plan_id":"cebpf4jnsgd1na2vs0mg"},{"bike_id":"0d165d6b-53a1-4197-a1ff-5166ff2c7c6f","system_id":"levelo_inurba_marseille","lat":43.296003,"lon":5.380867,"is_reserved":false,"is_disabled":false,"rental_uris":{"android":"levelo://app?vid=0d165d6b-53a1-4197-a1ff-5166ff2c7c6f","ios":"levelo://app?vid=0d165d6b-53a1-4197-a1ff-5166ff2c7c6f"},"vehicle_type_id":"4","last_reported":1720195791,"current_range_meters":0,"station_id":"ce4bgl12rcd13ifvqbo0","pricing_plan_id":"cebpf4jnsgd1na2vs0mg"},{"bike_id":"6ae7b72c-49f9-472f-9fc7-be56d8ac7737","system_id":"levelo_inurba_marseille","lat":43.29594,"lon":5.38092,"is_reserved":false,"is_disabled":false,"rental_uris":{"android":"levelo://app?vid=6ae7b72c-49f9-472f-9fc7-be56d8ac7737","ios":"levelo://app?vid=6ae7b72c-49f9-472f-9fc7-be56d8ac7737"},"vehicle_type_id":"4","last_reported":1720195791,"current_range_meters":0,"station_id":"ce4bgl12rcd13ifvqbo0","pricing_plan_id":"cebpf4jnsgd1na2vs0mg"},{"bike_id":"0949dc96-066c-48c8-ae01-66f9de5056fc","system_id":"levelo_inurba_marseille","lat":43.29602,"lon":5.381084,"is_reserved":false,"is_disabled":false,"rental_uris":{"android":"levelo://app?vid=0949dc96-066c-48c8-ae01-66f9de5056fc","ios":"levelo://app?vid=0949dc96-066c-48c8-ae01-66f9de5056fc"},"vehicle_type_id":"4","last_reported":1720195791,"current_range_meters":0,"station_id":"ce4bgl12rcd13ifvqbo0","pricing_plan_id":"cebpf4jnsgd1na2vs0mg"},{"bike_id":"36f7a0f0-9710-4cc5-bc39-8afd1bd68641","system_id":"levelo_inurba_marseille","lat":43.29307,"lon":5.37167,"is_reserved":false,"is_disabled":false,"rental_uris":{"android":"levelo://app?vid=36f7a0f0-9710-4cc5-bc39-8afd1bd68641","ios":"levelo://app?vid=36f7a0f0-9710-4cc5-bc39-8afd1bd68641"},"vehicle_type_id":"4","last_reported":1720195791,"current_range_meters":28000,"station_id":"ce4bgh92rcd13ifvqb40","pricing_plan_id":"cebpf4jnsgd1na2vs0mg"},{"bike_id":"617e5bb7-34ce-4b98-831a-45c53e1d07eb","system_id":"levelo_inurba_marseille","lat":43.29307,"lon":5.37171,"is_reserved":false,"is_disabled":false,"rental_uris":{"android":"levelo://app?vid=617e5bb7-34ce-4b98-831a-45c53e1d07eb","ios":"levelo://app?vid=617e5bb7-34ce-4b98-831a-45c53e1d07eb"},"vehicle_type_id":"4","last_reported":1720195791,"current_range_meters":20000,"station_id":"ce4bgh92rcd13ifvqb40","pricing_plan_id":"cebpf4jnsgd1na2vs0mg"},{"bike_id":"1ce63512-fb2b-4ded-bcff-efbc26d473a5","system_id":"levelo_inurba_marseille","lat":43.29306,"lon":5.37171,"is_reserved":false,"is_disabled":false,"rental_uris":{"android":"levelo://app?vid=1ce63512-fb2b-4ded-bcff-efbc26d473a5","ios":"levelo://app?vid=1ce63512-fb2b-4ded-bcff-efbc26d473a5"},"vehicle_type_id":"4","last_reported":1720195791,"current_range_meters":4800,"station_id":"ce4bgh92rcd13ifvqb40","pricing_plan_id":"cebpf4jnsgd1na2vs0mg"},{"bike_id":"1b12ef29-518f-415b-9002-f94bdb3ea2e2","system_id":"levelo_inurba_marseille","lat":43.29303,"lon":5.37174,"is_reserved":false,"is_disabled":false,"rental_uris":{"android":"levelo://app?vid=1b12ef29-518f-415b-9002-f94bdb3ea2e2","ios":"levelo://app?vid=1b12ef29-518f-415b-9002-f94bdb3ea2e2"},"vehicle_type_id":"4","last_reported":1720195791,"current_range_meters":0,"station_id":"ce4bgh92rcd13ifvqb40","pricing_plan_id":"cebpf4jnsgd1na2vs0mg"},{"bike_id":"553368d9-9b1c-49b7-a54a-8ab3a465a80f","system_id":"levelo_inurba_marseille","lat":43.305994,"lon":5.393687,"is_reserved":false,"is_disabled":false,"rental_uris":{"android":"levelo://app?vid=553368d9-9b1c-49b7-a54a-8ab3a465a80f","ios":"levelo://app?vid=553368d9-9b1c-49b7-a54a-8ab3a465a80f"},"vehicle_type_id":"4","last_reported":1720195791,"current_range_meters":17600,"station_id":"ce4bh0p2rcd13ifvqd80","pricing_plan_id":"cebpf4jnsgd1na2vs0mg"},{"bike_id":"b7b063fa-2b07-4a78-aa99-df87d36945b6","system_id":"levelo_inurba_marseille","lat":43.303002,"lon":5.392142,"is_reserved":false,"is_disabled":false,"rental_uris":{"android":"levelo://app?vid=b7b063fa-2b07-4a78-aa99-df87d36945b6","ios":"levelo://app?vid=b7b063fa-2b07-4a78-aa99-df87d36945b6"},"vehicle_type_id":"4","last_reported":1720195791,"current_range_meters":16000,"station_id":"ce4bgkh2rcd13ifvqbk0","pricing_plan_id":"cebpf4jnsgd1na2vs0mg"},{"bike_id":"79d556d0-d3e8-47b2-955d-069b838fa07a","system_id":"levelo_inurba_marseille","lat":43.30311,"lon":5.39209,"is_reserved":false,"is_disabled":false,"rental_uris":{"android":"levelo://app?vid=79d556d0-d3e8-47b2-955d-069b838fa07a","ios":"levelo://app?vid=79d556d0-d3e8-47b2-955d-069b838fa07a"},"vehicle_type_id":"4","last_reported":1720195791,"current_range_meters":0,"station_id":"ce4bgkh2rcd13ifvqbk0","pricing_plan_id":"cebpf4jnsgd1na2vs0mg"},{"bike_id":"03534b1f-7e7c-4085-9c35-a33d6bc560fc","system_id":"levelo_inurba_marseille","lat":43.2936,"lon":5.37835,"is_reserved":false,"is_disabled":false,"rental_uris":{"android":"levelo://app?vid=03534b1f-7e7c-4085-9c35-a33d6bc560fc","ios":"levelo://app?vid=03534b1f-7e7c-4085-9c35-a33d6bc560fc"},"vehicle_type_id":"4","last_reported":1720195791,"current_range_meters":16800,"station_id":"ce4bgjh2rcd13ifvqbf0","pricing_plan_id":"cebpf4jnsgd1na2vs0mg"},{"bike_id":"683cf236-ece7-4524-95f6-1119aa3e9cc4","system_id":"levelo_inurba_marseille","lat":43.292311,"lon":5.360731,"is_reserved":false,"is_disabled":false,"rental_uris":{"android":"levelo://app?vid=683cf236-ece7-4524-95f6-1119aa3e9cc4","ios":"levelo://app?vid=683cf236-ece7-4524-95f6-1119aa3e9cc4"},"vehicle_type_id":"4","last_reported":1720195791,"current_range_meters":3200,"station_id":"ce4bhbh2rcd13ifvqeqg","pricing_plan_id":"cebpf4jnsgd1na2vs0mg"},{"bike_id":"9ddfbc03-f754-48d5-93bb-4e3bcd5cb6fc","system_id":"levelo_inurba_marseille","lat":43.2936,"lon":5.37835,"is_reserved":false,"is_disabled":false,"rental_uris":{"android":"levelo://app?vid=9ddfbc03-f754-48d5-93bb-4e3bcd5cb6fc","ios":"levelo://app?vid=9ddfbc03-f754-48d5-93bb-4e3bcd5cb6fc"},"vehicle_type_id":"4","last_reported":1720195791,"current_range_meters":3200,"station_id":"ce4bgjh2rcd13ifvqbf0","pricing_plan_id":"cebpf4jnsgd1na2vs0mg"},{"bike_id":"010c7190-27b9-4894-b939-53b06ccfe65c","system_id":"levelo_inurba_marseille","lat":43.30083,"lon":5.39085,"is_reserved":false,"is_disabled":false,"rental_uris":{"android":"levelo://app?vid=010c7190-27b9-4894-b939-53b06ccfe65c","ios":"levelo://app?vid=010c7190-27b9-4894-b939-53b06ccfe65c"},"vehicle_type_id":"4","last_reported":1720195791,"current_range_meters":0,"station_id":"ce4bh192rcd13ifvqdb0","pricing_plan_id":"cebpf4jnsgd1na2vs0mg"},{"bike_id":"c3e6ff21-5f52-4e3d-9799-229dfc85fa0d","system_id":"levelo_inurba_marseille","lat":43.300852,"lon":5.390859,"is_reserved":false,"is_disabled":false,"rental_uris":{"android":"levelo://app?vid=c3e6ff21-5f52-4e3d-9799-229dfc85fa0d","ios":"levelo://app?vid=c3e6ff21-5f52-4e3d-9799-229dfc85fa0d"},"vehicle_type_id":"4","last_reported":1720195791,"current_range_meters":4000,"station_id":"ce4bh192rcd13ifvqdb0","pricing_plan_id":"cebpf4jnsgd1na2vs0mg"},{"bike_id":"9d148275-8c20-4e56-b93f-447f30cc8e77","system_id":"levelo_inurba_marseille","lat":43.298764,"lon":5.388973,"is_reserved":false,"is_disabled":false,"rental_uris":{"android":"levelo://app?vid=9d148275-8c20-4e56-b93f-447f30cc8e77","ios":"levelo://app?vid=9d148275-8c20-4e56-b93f-447f30cc8e77"},"vehicle_type_id":"4","last_reported":1720195791,"current_range_meters":0,"station_id":"ce4bh392rcd13ifvqdl0","pricing_plan_id":"cebpf4jnsgd1na2vs0mg"},{"bike_id":"26e38396-073a-4ccd-9533-d4aae7633f2c","system_id":"levelo_inurba_marseille","lat":43.298764,"lon":5.388973,"is_reserved":false,"is_disabled":false,"rental_uris":{"android":"levelo://app?vid=26e38396-073a-4ccd-9533-d4aae7633f2c","ios":"levelo://app?vid=26e38396-073a-4ccd-9533-d4aae7633f2c"},"vehicle_type_id":"4","last_reported":1720195791,"current_range_meters":12400,"station_id":"ce4bh392rcd13ifvqdl0","pricing_plan_id":"cebpf4jnsgd1na2vs0mg"},{"bike_id":"be405b3a-2f18-4f79-9ff2-17f8c9ec1171","system_id":"levelo_inurba_marseille","lat":43.300852,"lon":5.390859,"is_reserved":false,"is_disabled":false,"rental_uris":{"android":"levelo://app?vid=be405b3a-2f18-4f79-9ff2-17f8c9ec1171","ios":"levelo://app?vid=be405b3a-2f18-4f79-9ff2-17f8c9ec1171"},"vehicle_type_id":"4","last_reported":1720195791,"current_range_meters":10000,"station_id":"ce4bh192rcd13ifvqdb0","pricing_plan_id":"cebpf4jnsgd1na2vs0mg"},{"bike_id":"4c3759e5-5e54-4d9f-b45e-d26cbc469288","system_id":"levelo_inurba_marseille","lat":43.298764,"lon":5.388973,"is_reserved":false,"is_disabled":false,"rental_uris":{"android":"levelo://app?vid=4c3759e5-5e54-4d9f-b45e-d26cbc469288","ios":"levelo://app?vid=4c3759e5-5e54-4d9f-b45e-d26cbc469288"},"vehicle_type_id":"4","last_reported":1720195791,"current_range_meters":2400,"station_id":"ce4bh392rcd13ifvqdl0","pricing_plan_id":"cebpf4jnsgd1na2vs0mg"},{"bike_id":"baa4a2e2-3c49-498d-bb99-990b623b3eca","system_id":"levelo_inurba_marseille","lat":43.298764,"lon":5.388973,"is_reserved":false,"is_disabled":false,"rental_uris":{"android":"levelo://app?vid=baa4a2e2-3c49-498d-bb99-990b623b3eca","ios":"levelo://app?vid=baa4a2e2-3c49-498d-bb99-990b623b3eca"},"vehicle_type_id":"4","last_reported":1720195791,"current_range_meters":6800,"station_id":"ce4bh392rcd13ifvqdl0","pricing_plan_id":"cebpf4jnsgd1na2vs0mg"},{"bike_id":"833a85da-4620-4955-a8c6-e4ee8cd53d7b","system_id":"levelo_inurba_marseille","lat":43.298764,"lon":5.388973,"is_reserved":false,"is_disabled":false,"rental_uris":{"android":"levelo://app?vid=833a85da-4620-4955-a8c6-e4ee8cd53d7b","ios":"levelo://app?vid=833a85da-4620-4955-a8c6-e4ee8cd53d7b"},"vehicle_type_id":"4","last_reported":1720195791,"current_range_meters":19200,"station_id":"ce4bh392rcd13ifvqdl0","pricing_plan_id":"cebpf4jnsgd1na2vs0mg"},{"bike_id":"f39aa067-7a61-404a-9298-5edc3da000e9","system_id":"levelo_inurba_marseille","lat":43.292005,"lon":5.357875,"is_reserved":false,"is_disabled":false,"rental_uris":{"android":"levelo://app?vid=f39aa067-7a61-404a-9298-5edc3da000e9","ios":"levelo://app?vid=f39aa067-7a61-404a-9298-5edc3da000e9"},"vehicle_type_id":"4","last_reported":1720195791,"current_range_meters":10000,"station_id":"ce4bhb12rcd13ifvqel0","pricing_plan_id":"cebpf4jnsgd1na2vs0mg"},{"bike_id":"bfe61017-3024-48e4-80ed-182466da0720","system_id":"levelo_inurba_marseille","lat":43.291913,"lon":5.358033,"is_reserved":false,"is_disabled":false,"rental_uris":{"android":"levelo://app?vid=bfe61017-3024-48e4-80ed-182466da0720","ios":"levelo://app?vid=bfe61017-3024-48e4-80ed-182466da0720"},"vehicle_type_id":"4","last_reported":1720195791,"current_range_meters":0,"station_id":"ce4bhb12rcd13ifvqel0","pricing_plan_id":"cebpf4jnsgd1na2vs0mg"},{"bike_id":"9f436800-aa75-4582-81b5-be6f1c3dbb5f","system_id":"levelo_inurba_marseille","lat":43.313291,"lon":5.396838,"is_reserved":false,"is_disabled":false,"rental_uris":{"android":"levelo://app?vid=9f436800-aa75-4582-81b5-be6f1c3dbb5f","ios":"levelo://app?vid=9f436800-aa75-4582-81b5-be6f1c3dbb5f"},"vehicle_type_id":"4","last_reported":1720195791,"current_range_meters":23200,"station_id":"ce4bgvp2rcd13ifvqcu0","pricing_plan_id":"cebpf4jnsgd1na2vs0mg"},{"bike_id":"f36711b9-2703-4d57-b20e-964748da8936","system_id":"levelo_inurba_marseille","lat":43.309038,"lon":5.396546,"is_reserved":false,"is_disabled":false,"rental_uris":{"android":"levelo://app?vid=f36711b9-2703-4d57-b20e-964748da8936","ios":"levelo://app?vid=f36711b9-2703-4d57-b20e-964748da8936"},"vehicle_type_id":"4","last_reported":1720195791,"current_range_meters":400,"station_id":"ce4bh012rcd13ifvqcv0","pricing_plan_id":"cebpf4jnsgd1na2vs0mg"},{"bike_id":"67133372-01f9-4e07-8803-368687e28662","system_id":"levelo_inurba_marseille","lat":43.29529,"lon":5.385581,"is_reserved":false,"is_disabled":false,"rental_uris":{"android":"levelo://app?vid=67133372-01f9-4e07-8803-368687e28662","ios":"levelo://app?vid=67133372-01f9-4e07-8803-368687e28662"},"vehicle_type_id":"4","last_reported":1720195791,"current_range_meters":1200,"station_id":"ce4bgih2rcd13ifvqba0","pricing_plan_id":"cebpf4jnsgd1na2vs0mg"},{"bike_id":"addf6dd6-dbbb-4321-8b9e-f11972f2eaf3","system_id":"levelo_inurba_marseille","lat":43.29529,"lon":5.385581,"is_reserved":false,"is_disabled":false,"rental_uris":{"android":"levelo://app?vid=addf6dd6-dbbb-4321-8b9e-f11972f2eaf3","ios":"levelo://app?vid=addf6dd6-dbbb-4321-8b9e-f11972f2eaf3"},"vehicle_type_id":"4","last_reported":1720195791,"current_range_meters":4800,"station_id":"ce4bgih2rcd13ifvqba0","pricing_plan_id":"cebpf4jnsgd1na2vs0mg"},{"bike_id":"6b3c7aee-bec0-49a2-ba6b-abfabd74b5d8","system_id":"levelo_inurba_marseille","lat":43.29529,"lon":5.385581,"is_reserved":false,"is_disabled":false,"rental_uris":{"android":"levelo://app?vid=6b3c7aee-bec0-49a2-ba6b-abfabd74b5d8","ios":"levelo://app?vid=6b3c7aee-bec0-49a2-ba6b-abfabd74b5d8"},"vehicle_type_id":"4","last_reported":1720195791,"current_range_meters":23600,"station_id":"ce4bgih2rcd13ifvqba0","pricing_plan_id":"cebpf4jnsgd1na2vs0mg"},{"bike_id":"749da511-b1dc-4457-9e34-6ebc826e3567","system_id":"levelo_inurba_marseille","lat":43.29529,"lon":5.385581,"is_reserved":false,"is_disabled":false,"rental_uris":{"android":"levelo://app?vid=749da511-b1dc-4457-9e34-6ebc826e3567","ios":"levelo://app?vid=749da511-b1dc-4457-9e34-6ebc826e3567"},"vehicle_type_id":"4","last_reported":1720195791,"current_range_meters":22400,"station_id":"ce4bgih2rcd13ifvqba0","pricing_plan_id":"cebpf4jnsgd1na2vs0mg"},{"bike_id":"fcbaeeda-3c3d-4798-91ae-da6f73214399","system_id":"levelo_inurba_marseille","lat":43.29529,"lon":5.385581,"is_reserved":false,"is_disabled":false,"rental_uris":{"android":"levelo://app?vid=fcbaeeda-3c3d-4798-91ae-da6f73214399","ios":"levelo://app?vid=fcbaeeda-3c3d-4798-91ae-da6f73214399"},"vehicle_type_id":"4","last_reported":1720195791,"current_range_meters":20400,"station_id":"ce4bgih2rcd13ifvqba0","pricing_plan_id":"cebpf4jnsgd1na2vs0mg"},{"bike_id":"4cae54a9-bdb1-4b61-813a-6c980ded8e2e","system_id":"levelo_inurba_marseille","lat":43.294632,"lon":5.385657,"is_reserved":false,"is_disabled":false,"rental_uris":{"android":"levelo://app?vid=4cae54a9-bdb1-4b61-813a-6c980ded8e2e","ios":"levelo://app?vid=4cae54a9-bdb1-4b61-813a-6c980ded8e2e"},"vehicle_type_id":"4","last_reported":1720195791,"current_range_meters":0,"station_id":"ce4bh2h2rcd13ifvqdh0","pricing_plan_id":"cebpf4jnsgd1na2vs0mg"},{"bike_id":"026e8a67-5eb0-4067-a64e-899111e37f09","system_id":"levelo_inurba_marseille","lat":43.29,"lon":5.36793,"is_reserved":false,"is_disabled":false,"rental_uris":{"android":"levelo://app?vid=026e8a67-5eb0-4067-a64e-899111e37f09","ios":"levelo://app?vid=026e8a67-5eb0-4067-a64e-899111e37f09"},"vehicle_type_id":"4","last_reported":1720195791,"current_range_meters":3200,"station_id":"","pricing_plan_id":"cebpf4jnsgd1na2vs0mg"},{"bike_id":"f358afef-87cf-4620-b779-5e79734e5c1f","system_id":"levelo_inurba_marseille","lat":43.302008,"lon":5.394694,"is_reserved":false,"is_disabled":false,"rental_uris":{"android":"levelo://app?vid=f358afef-87cf-4620-b779-5e79734e5c1f","ios":"levelo://app?vid=f358afef-87cf-4620-b779-5e79734e5c1f"},"vehicle_type_id":"4","last_reported":1720195791,"current_range_meters":15600,"station_id":"ce4bh0p2rcd13ifvqd70","pricing_plan_id":"cebpf4jnsgd1na2vs0mg"},{"bike_id":"25933bdb-9cce-446c-90b3-19b70af53a62","system_id":"levelo_inurba_marseille","lat":43.29425,"lon":5.38624,"is_reserved":false,"is_disabled":false,"rental_uris":{"android":"levelo://app?vid=25933bdb-9cce-446c-90b3-19b70af53a62","ios":"levelo://app?vid=25933bdb-9cce-446c-90b3-19b70af53a62"},"vehicle_type_id":"4","last_reported":1720195791,"current_range_meters":21600,"station_id":"ce4bh2h2rcd13ifvqdh0","pricing_plan_id":"cebpf4jnsgd1na2vs0mg"},{"bike_id":"0b7a5f46-bbd3-4404-a1a9-7eda3848ef7d","system_id":"levelo_inurba_marseille","lat":43.29419,"lon":5.38614,"is_reserved":false,"is_disabled":false,"rental_uris":{"android":"levelo://app?vid=0b7a5f46-bbd3-4404-a1a9-7eda3848ef7d","ios":"levelo://app?vid=0b7a5f46-bbd3-4404-a1a9-7eda3848ef7d"},"vehicle_type_id":"4","last_reported":1720195791,"current_range_meters":2800,"station_id":"ce4bh2h2rcd13ifvqdh0","pricing_plan_id":"cebpf4jnsgd1na2vs0mg"},{"bike_id":"f26da5b8-05e7-4402-9f6f-cfbbf985061f","system_id":"levelo_inurba_marseille","lat":43.29423,"lon":5.38622,"is_reserved":false,"is_disabled":false,"rental_uris":{"android":"levelo://app?vid=f26da5b8-05e7-4402-9f6f-cfbbf985061f","ios":"levelo://app?vid=f26da5b8-05e7-4402-9f6f-cfbbf985061f"},"vehicle_type_id":"4","last_reported":1720195791,"current_range_meters":20000,"station_id":"ce4bh2h2rcd13ifvqdh0","pricing_plan_id":"cebpf4jnsgd1na2vs0mg"},{"bike_id":"e830eecb-c237-4880-9681-540623611f63","system_id":"levelo_inurba_marseille","lat":43.29418,"lon":5.38622,"is_reserved":false,"is_disabled":false,"rental_uris":{"android":"levelo://app?vid=e830eecb-c237-4880-9681-540623611f63","ios":"levelo://app?vid=e830eecb-c237-4880-9681-540623611f63"},"vehicle_type_id":"4","last_reported":1720195791,"current_range_meters":0,"station_id":"ce4bh2h2rcd13ifvqdh0","pricing_plan_id":"cebpf4jnsgd1na2vs0mg"},{"bike_id":"16178005-5dee-465e-ac5b-5832bfedfd45","system_id":"levelo_inurba_marseille","lat":43.294162,"lon":5.386292,"is_reserved":false,"is_disabled":false,"rental_uris":{"android":"levelo://app?vid=16178005-5dee-465e-ac5b-5832bfedfd45","ios":"levelo://app?vid=16178005-5dee-465e-ac5b-5832bfedfd45"},"vehicle_type_id":"4","last_reported":1720195791,"current_range_meters":17600,"station_id":"ce4bh2h2rcd13ifvqdh0","pricing_plan_id":"cebpf4jnsgd1na2vs0mg"},{"bike_id":"eb8b75a5-f382-4aed-b094-743469002fba","system_id":"levelo_inurba_marseille","lat":43.294162,"lon":5.386292,"is_reserved":false,"is_disabled":false,"rental_uris":{"android":"levelo://app?vid=eb8b75a5-f382-4aed-b094-743469002fba","ios":"levelo://app?vid=eb8b75a5-f382-4aed-b094-743469002fba"},"vehicle_type_id":"4","last_reported":1720195791,"current_range_meters":4000,"station_id":"ce4bh2h2rcd13ifvqdh0","pricing_plan_id":"cebpf4jnsgd1na2vs0mg"},{"bike_id":"3652cad6-0d19-4409-bfe2-5f7a98c8d09d","system_id":"levelo_inurba_marseille","lat":43.29418,"lon":5.38623,"is_reserved":false,"is_disabled":false,"rental_uris":{"android":"levelo://app?vid=3652cad6-0d19-4409-bfe2-5f7a98c8d09d","ios":"levelo://app?vid=3652cad6-0d19-4409-bfe2-5f7a98c8d09d"},"vehicle_type_id":"4","last_reported":1720195791,"current_range_meters":3200,"station_id":"ce4bh2h2rcd13ifvqdh0","pricing_plan_id":"cebpf4jnsgd1na2vs0mg"},{"bike_id":"46aec4e1-d0f5-4a54-88bc-d9b711b0fb61","system_id":"levelo_inurba_marseille","lat":43.294153,"lon":5.386305,"is_reserved":false,"is_disabled":false,"rental_uris":{"android":"levelo://app?vid=46aec4e1-d0f5-4a54-88bc-d9b711b0fb61","ios":"levelo://app?vid=46aec4e1-d0f5-4a54-88bc-d9b711b0fb61"},"vehicle_type_id":"4","last_reported":1720195791,"current_range_meters":23200,"station_id":"ce4bh2h2rcd13ifvqdh0","pricing_plan_id":"cebpf4jnsgd1na2vs0mg"},{"bike_id":"cb94565f-b567-4f33-8f1c-1e47ea7e67a6","system_id":"levelo_inurba_marseille","lat":43.29418,"lon":5.38625,"is_reserved":false,"is_disabled":false,"rental_uris":{"android":"levelo://app?vid=cb94565f-b567-4f33-8f1c-1e47ea7e67a6","ios":"levelo://app?vid=cb94565f-b567-4f33-8f1c-1e47ea7e67a6"},"vehicle_type_id":"4","last_reported":1720195791,"current_range_meters":8800,"station_id":"ce4bh2h2rcd13ifvqdh0","pricing_plan_id":"cebpf4jnsgd1na2vs0mg"},{"bike_id":"0a83e868-4ef3-49fc-b3e5-dc5c6351f540","system_id":"levelo_inurba_marseille","lat":43.294162,"lon":5.386292,"is_reserved":false,"is_disabled":false,"rental_uris":{"android":"levelo://app?vid=0a83e868-4ef3-49fc-b3e5-dc5c6351f540","ios":"levelo://app?vid=0a83e868-4ef3-49fc-b3e5-dc5c6351f540"},"vehicle_type_id":"4","last_reported":1720195791,"current_range_meters":25600,"station_id":"ce4bh2h2rcd13ifvqdh0","pricing_plan_id":"cebpf4jnsgd1na2vs0mg"},{"bike_id":"92f9cfb4-4167-4e3e-8bb6-d2e38e81fa02","system_id":"levelo_inurba_marseille","lat":43.294162,"lon":5.386292,"is_reserved":false,"is_disabled":false,"rental_uris":{"android":"levelo://app?vid=92f9cfb4-4167-4e3e-8bb6-d2e38e81fa02","ios":"levelo://app?vid=92f9cfb4-4167-4e3e-8bb6-d2e38e81fa02"},"vehicle_type_id":"4","last_reported":1720195791,"current_range_meters":20800,"station_id":"ce4bh2h2rcd13ifvqdh0","pricing_plan_id":"cebpf4jnsgd1na2vs0mg"},{"bike_id":"0423e4e0-7cdc-4916-aef4-2b7986e9ef7c","system_id":"levelo_inurba_marseille","lat":43.29416,"lon":5.3863,"is_reserved":false,"is_disabled":false,"rental_uris":{"android":"levelo://app?vid=0423e4e0-7cdc-4916-aef4-2b7986e9ef7c","ios":"levelo://app?vid=0423e4e0-7cdc-4916-aef4-2b7986e9ef7c"},"vehicle_type_id":"4","last_reported":1720195791,"current_range_meters":14000,"station_id":"ce4bh2h2rcd13ifvqdh0","pricing_plan_id":"cebpf4jnsgd1na2vs0mg"},{"bike_id":"978ca983-7b0f-4289-a588-a3b41c8078bd","system_id":"levelo_inurba_marseille","lat":43.289184,"lon":5.366408,"is_reserved":false,"is_disabled":false,"rental_uris":{"android":"levelo://app?vid=978ca983-7b0f-4289-a588-a3b41c8078bd","ios":"levelo://app?vid=978ca983-7b0f-4289-a588-a3b41c8078bd"},"vehicle_type_id":"4","last_reported":1720195791,"current_range_meters":2000,"station_id":"ce4bhap2rcd13ifvqek0","pricing_plan_id":"cebpf4jnsgd1na2vs0mg"},{"bike_id":"630cf295-b170-4bbb-bb79-966417d07a3a","system_id":"levelo_inurba_marseille","lat":43.294162,"lon":5.386292,"is_reserved":false,"is_disabled":false,"rental_uris":{"android":"levelo://app?vid=630cf295-b170-4bbb-bb79-966417d07a3a","ios":"levelo://app?vid=630cf295-b170-4bbb-bb79-966417d07a3a"},"vehicle_type_id":"4","last_reported":1720195791,"current_range_meters":0,"station_id":"ce4bh2h2rcd13ifvqdh0","pricing_plan_id":"cebpf4jnsgd1na2vs0mg"},{"bike_id":"97ba1204-225c-482e-adbb-ef0cedb7c58a","system_id":"levelo_inurba_marseille","lat":43.289468,"lon":5.363719,"is_reserved":false,"is_disabled":false,"rental_uris":{"android":"levelo://app?vid=97ba1204-225c-482e-adbb-ef0cedb7c58a","ios":"levelo://app?vid=97ba1204-225c-482e-adbb-ef0cedb7c58a"},"vehicle_type_id":"4","last_reported":1720195791,"current_range_meters":30000,"station_id":"ce4bhc92rcd13ifvqetg","pricing_plan_id":"cebpf4jnsgd1na2vs0mg"},{"bike_id":"0d498da7-7038-4c92-8c69-e560a52c2028","system_id":"levelo_inurba_marseille","lat":43.289468,"lon":5.363719,"is_reserved":false,"is_disabled":false,"rental_uris":{"android":"levelo://app?vid=0d498da7-7038-4c92-8c69-e560a52c2028","ios":"levelo://app?vid=0d498da7-7038-4c92-8c69-e560a52c2028"},"vehicle_type_id":"4","last_reported":1720195791,"current_range_meters":12400,"station_id":"ce4bhc92rcd13ifvqetg","pricing_plan_id":"cebpf4jnsgd1na2vs0mg"},{"bike_id":"1ab00272-0822-48f7-8ec4-73ad877ad84d","system_id":"levelo_inurba_marseille","lat":43.310733,"lon":5.39901,"is_reserved":false,"is_disabled":false,"rental_uris":{"android":"levelo://app?vid=1ab00272-0822-48f7-8ec4-73ad877ad84d","ios":"levelo://app?vid=1ab00272-0822-48f7-8ec4-73ad877ad84d"},"vehicle_type_id":"4","last_reported":1720195791,"current_range_meters":0,"station_id":"ce4bh012rcd13ifvqd00","pricing_plan_id":"cebpf4jnsgd1na2vs0mg"},{"bike_id":"1c99fafd-2f3b-42ca-bb9c-9b890fe490d6","system_id":"levelo_inurba_marseille","lat":43.29267,"lon":5.38429,"is_reserved":false,"is_disabled":false,"rental_uris":{"android":"levelo://app?vid=1c99fafd-2f3b-42ca-bb9c-9b890fe490d6","ios":"levelo://app?vid=1c99fafd-2f3b-42ca-bb9c-9b890fe490d6"},"vehicle_type_id":"4","last_reported":1720195791,"current_range_meters":28400,"station_id":"ce4bh692rcd13ifvqea0","pricing_plan_id":"cebpf4jnsgd1na2vs0mg"},{"bike_id":"f5e7f847-8ad6-4d2c-8ced-188eae3d8de3","system_id":"levelo_inurba_marseille","lat":43.29263,"lon":5.38426,"is_reserved":false,"is_disabled":false,"rental_uris":{"android":"levelo://app?vid=f5e7f847-8ad6-4d2c-8ced-188eae3d8de3","ios":"levelo://app?vid=f5e7f847-8ad6-4d2c-8ced-188eae3d8de3"},"vehicle_type_id":"4","last_reported":1720195791,"current_range_meters":21600,"station_id":"ce4bh692rcd13ifvqea0","pricing_plan_id":"cebpf4jnsgd1na2vs0mg"},{"bike_id":"b53d6cb9-2491-4d14-baaf-ff5118f1487b","system_id":"levelo_inurba_marseille","lat":43.301117,"lon":5.398795,"is_reserved":false,"is_disabled":false,"rental_uris":{"android":"levelo://app?vid=b53d6cb9-2491-4d14-baaf-ff5118f1487b","ios":"levelo://app?vid=b53d6cb9-2491-4d14-baaf-ff5118f1487b"},"vehicle_type_id":"4","last_reported":1720195791,"current_range_meters":10400,"station_id":"ce4bh0h2rcd13ifvqd40","pricing_plan_id":"cebpf4jnsgd1na2vs0mg"},{"bike_id":"e4af2cad-9ea5-4b20-b636-e6908c3ef0d4","system_id":"levelo_inurba_marseille","lat":43.292644,"lon":5.384257,"is_reserved":false,"is_disabled":false,"rental_uris":{"android":"levelo://app?vid=e4af2cad-9ea5-4b20-b636-e6908c3ef0d4","ios":"levelo://app?vid=e4af2cad-9ea5-4b20-b636-e6908c3ef0d4"},"vehicle_type_id":"4","last_reported":1720195791,"current_range_meters":23600,"station_id":"ce4bh692rcd13ifvqea0","pricing_plan_id":"cebpf4jnsgd1na2vs0mg"},{"bike_id":"35ea4e8c-0ad0-4582-a9c0-4b6d052309b8","system_id":"levelo_inurba_marseille","lat":43.292644,"lon":5.384257,"is_reserved":false,"is_disabled":false,"rental_uris":{"android":"levelo://app?vid=35ea4e8c-0ad0-4582-a9c0-4b6d052309b8","ios":"levelo://app?vid=35ea4e8c-0ad0-4582-a9c0-4b6d052309b8"},"vehicle_type_id":"4","last_reported":1720195791,"current_range_meters":20000,"station_id":"ce4bh692rcd13ifvqea0","pricing_plan_id":"cebpf4jnsgd1na2vs0mg"},{"bike_id":"0403ac95-a977-4c79-b7b1-35b94d10dab9","system_id":"levelo_inurba_marseille","lat":43.304296,"lon":5.397513,"is_reserved":false,"is_disabled":false,"rental_uris":{"android":"levelo://app?vid=0403ac95-a977-4c79-b7b1-35b94d10dab9","ios":"levelo://app?vid=0403ac95-a977-4c79-b7b1-35b94d10dab9"},"vehicle_type_id":"4","last_reported":1720195791,"current_range_meters":3600,"station_id":"ce4bh092rcd13ifvqd20","pricing_plan_id":"cebpf4jnsgd1na2vs0mg"},{"bike_id":"b7960c54-2986-4c22-a881-97058f1baf92","system_id":"levelo_inurba_marseille","lat":43.29258,"lon":5.3844,"is_reserved":false,"is_disabled":false,"rental_uris":{"android":"levelo://app?vid=b7960c54-2986-4c22-a881-97058f1baf92","ios":"levelo://app?vid=b7960c54-2986-4c22-a881-97058f1baf92"},"vehicle_type_id":"4","last_reported":1720195791,"current_range_meters":6800,"station_id":"ce4bh692rcd13ifvqea0","pricing_plan_id":"cebpf4jnsgd1na2vs0mg"},{"bike_id":"7a21b8de-f9b1-46c0-8820-961585d741ba","system_id":"levelo_inurba_marseille","lat":43.292584,"lon":5.38441,"is_reserved":false,"is_disabled":false,"rental_uris":{"android":"levelo://app?vid=7a21b8de-f9b1-46c0-8820-961585d741ba","ios":"levelo://app?vid=7a21b8de-f9b1-46c0-8820-961585d741ba"},"vehicle_type_id":"4","last_reported":1720195791,"current_range_meters":1200,"station_id":"","pricing_plan_id":"cebpf4jnsgd1na2vs0mg"},{"bike_id":"47ddd8f9-f385-421e-b596-360ddfb25b9e","system_id":"levelo_inurba_marseille","lat":43.292644,"lon":5.384257,"is_reserved":false,"is_disabled":false,"rental_uris":{"android":"levelo://app?vid=47ddd8f9-f385-421e-b596-360ddfb25b9e","ios":"levelo://app?vid=47ddd8f9-f385-421e-b596-360ddfb25b9e"},"vehicle_type_id":"4","last_reported":1720195791,"current_range_meters":800,"station_id":"ce4bh692rcd13ifvqea0","pricing_plan_id":"cebpf4jnsgd1na2vs0mg"},{"bike_id":"33dc1ca6-43e5-4158-b1e7-3b0602aa593f","system_id":"levelo_inurba_marseille","lat":43.29256,"lon":5.38438,"is_reserved":false,"is_disabled":false,"rental_uris":{"android":"levelo://app?vid=33dc1ca6-43e5-4158-b1e7-3b0602aa593f","ios":"levelo://app?vid=33dc1ca6-43e5-4158-b1e7-3b0602aa593f"},"vehicle_type_id":"4","last_reported":1720195791,"current_range_meters":27600,"station_id":"ce4bh692rcd13ifvqea0","pricing_plan_id":"cebpf4jnsgd1na2vs0mg"},{"bike_id":"c70cad9b-9e24-457c-9b1f-875d69bedc35","system_id":"levelo_inurba_marseille","lat":43.29257,"lon":5.38442,"is_reserved":false,"is_disabled":false,"rental_uris":{"android":"levelo://app?vid=c70cad9b-9e24-457c-9b1f-875d69bedc35","ios":"levelo://app?vid=c70cad9b-9e24-457c-9b1f-875d69bedc35"},"vehicle_type_id":"4","last_reported":1720195791,"current_range_meters":3600,"station_id":"ce4bh692rcd13ifvqea0","pricing_plan_id":"cebpf4jnsgd1na2vs0mg"},{"bike_id":"6c84a559-84a3-4533-b805-1dc456d04613","system_id":"levelo_inurba_marseille","lat":43.292644,"lon":5.384257,"is_reserved":false,"is_disabled":false,"rental_uris":{"android":"levelo://app?vid=6c84a559-84a3-4533-b805-1dc456d04613","ios":"levelo://app?vid=6c84a559-84a3-4533-b805-1dc456d04613"},"vehicle_type_id":"4","last_reported":1720195791,"current_range_meters":1200,"station_id":"ce4bh692rcd13ifvqea0","pricing_plan_id":"cebpf4jnsgd1na2vs0mg"},{"bike_id":"a05fd310-14fd-43f7-8754-eac201fbd7ba","system_id":"levelo_inurba_marseille","lat":43.292644,"lon":5.384257,"is_reserved":false,"is_disabled":false,"rental_uris":{"android":"levelo://app?vid=a05fd310-14fd-43f7-8754-eac201fbd7ba","ios":"levelo://app?vid=a05fd310-14fd-43f7-8754-eac201fbd7ba"},"vehicle_type_id":"4","last_reported":1720195791,"current_range_meters":21600,"station_id":"ce4bh692rcd13ifvqea0","pricing_plan_id":"cebpf4jnsgd1na2vs0mg"},{"bike_id":"608d26bc-6e84-49e6-b392-e0555d3851b2","system_id":"levelo_inurba_marseille","lat":43.292644,"lon":5.384257,"is_reserved":false,"is_disabled":false,"rental_uris":{"android":"levelo://app?vid=608d26bc-6e84-49e6-b392-e0555d3851b2","ios":"levelo://app?vid=608d26bc-6e84-49e6-b392-e0555d3851b2"},"vehicle_type_id":"4","last_reported":1720195791,"current_range_meters":30800,"station_id":"ce4bh692rcd13ifvqea0","pricing_plan_id":"cebpf4jnsgd1na2vs0mg"},{"bike_id":"5d16c4f8-9448-4c3a-9dd7-e810a83868c7","system_id":"levelo_inurba_marseille","lat":43.290104,"lon":5.356111,"is_reserved":false,"is_disabled":false,"rental_uris":{"android":"levelo://app?vid=5d16c4f8-9448-4c3a-9dd7-e810a83868c7","ios":"levelo://app?vid=5d16c4f8-9448-4c3a-9dd7-e810a83868c7"},"vehicle_type_id":"4","last_reported":1720195791,"current_range_meters":0,"station_id":"ce4bhb92rcd13ifvqen0","pricing_plan_id":"cebpf4jnsgd1na2vs0mg"},{"bike_id":"a26ee058-af34-4f82-ad2b-0b01cc31733c","system_id":"levelo_inurba_marseille","lat":43.290104,"lon":5.356111,"is_reserved":false,"is_disabled":false,"rental_uris":{"android":"levelo://app?vid=a26ee058-af34-4f82-ad2b-0b01cc31733c","ios":"levelo://app?vid=a26ee058-af34-4f82-ad2b-0b01cc31733c"},"vehicle_type_id":"4","last_reported":1720195791,"current_range_meters":31600,"station_id":"ce4bhb92rcd13ifvqen0","pricing_plan_id":"cebpf4jnsgd1na2vs0mg"},{"bike_id":"3bbb454c-fa99-4c6d-86a7-933258c5462a","system_id":"levelo_inurba_marseille","lat":43.290995,"lon":5.381361,"is_reserved":false,"is_disabled":false,"rental_uris":{"android":"levelo://app?vid=3bbb454c-fa99-4c6d-86a7-933258c5462a","ios":"levelo://app?vid=3bbb454c-fa99-4c6d-86a7-933258c5462a"},"vehicle_type_id":"4","last_reported":1720195791,"current_range_meters":5200,"station_id":"ce4bh512rcd13ifvqe2g","pricing_plan_id":"cebpf4jnsgd1na2vs0mg"},{"bike_id":"af052045-70cd-40f1-ad15-e133e66885ae","system_id":"levelo_inurba_marseille","lat":43.28994,"lon":5.35618,"is_reserved":false,"is_disabled":false,"rental_uris":{"android":"levelo://app?vid=af052045-70cd-40f1-ad15-e133e66885ae","ios":"levelo://app?vid=af052045-70cd-40f1-ad15-e133e66885ae"},"vehicle_type_id":"4","last_reported":1720195791,"current_range_meters":0,"station_id":"","pricing_plan_id":"cebpf4jnsgd1na2vs0mg"},{"bike_id":"b4d45543-2b03-4b8a-9000-f930750fe79d","system_id":"levelo_inurba_marseille","lat":43.290995,"lon":5.381361,"is_reserved":false,"is_disabled":false,"rental_uris":{"android":"levelo://app?vid=b4d45543-2b03-4b8a-9000-f930750fe79d","ios":"levelo://app?vid=b4d45543-2b03-4b8a-9000-f930750fe79d"},"vehicle_type_id":"4","last_reported":1720195791,"current_range_meters":22400,"station_id":"ce4bh512rcd13ifvqe2g","pricing_plan_id":"cebpf4jnsgd1na2vs0mg"},{"bike_id":"7651e12f-d342-4759-97ad-16eabbb98aae","system_id":"levelo_inurba_marseille","lat":43.290995,"lon":5.381361,"is_reserved":false,"is_disabled":false,"rental_uris":{"android":"levelo://app?vid=7651e12f-d342-4759-97ad-16eabbb98aae","ios":"levelo://app?vid=7651e12f-d342-4759-97ad-16eabbb98aae"},"vehicle_type_id":"4","last_reported":1720195791,"current_range_meters":16800,"station_id":"ce4bh512rcd13ifvqe2g","pricing_plan_id":"cebpf4jnsgd1na2vs0mg"},{"bike_id":"fe8ef625-1569-45ed-ba74-633efea77df9","system_id":"levelo_inurba_marseille","lat":43.290995,"lon":5.381361,"is_reserved":false,"is_disabled":false,"rental_uris":{"android":"levelo://app?vid=fe8ef625-1569-45ed-ba74-633efea77df9","ios":"levelo://app?vid=fe8ef625-1569-45ed-ba74-633efea77df9"},"vehicle_type_id":"4","last_reported":1720195791,"current_range_meters":5600,"station_id":"ce4bh512rcd13ifvqe2g","pricing_plan_id":"cebpf4jnsgd1na2vs0mg"},{"bike_id":"7e849bc2-ad03-44eb-aa90-cca2a92dc70a","system_id":"levelo_inurba_marseille","lat":43.290995,"lon":5.381361,"is_reserved":false,"is_disabled":false,"rental_uris":{"android":"levelo://app?vid=7e849bc2-ad03-44eb-aa90-cca2a92dc70a","ios":"levelo://app?vid=7e849bc2-ad03-44eb-aa90-cca2a92dc70a"},"vehicle_type_id":"4","last_reported":1720195791,"current_range_meters":0,"station_id":"ce4bh512rcd13ifvqe2g","pricing_plan_id":"cebpf4jnsgd1na2vs0mg"},{"bike_id":"3665c0d6-621b-4367-bb6e-feb9e473bae0","system_id":"levelo_inurba_marseille","lat":43.29784,"lon":5.39324,"is_reserved":false,"is_disabled":false,"rental_uris":{"android":"levelo://app?vid=3665c0d6-621b-4367-bb6e-feb9e473bae0","ios":"levelo://app?vid=3665c0d6-621b-4367-bb6e-feb9e473bae0"},"vehicle_type_id":"4","last_reported":1720195791,"current_range_meters":23200,"station_id":"chh1huq6cuj3fo74tm60","pricing_plan_id":"cebpf4jnsgd1na2vs0mg"},{"bike_id":"c26e3738-fb0f-44de-ae2b-0e2aef0affe9","system_id":"levelo_inurba_marseille","lat":43.29799,"lon":5.39348,"is_reserved":false,"is_disabled":false,"rental_uris":{"android":"levelo://app?vid=c26e3738-fb0f-44de-ae2b-0e2aef0affe9","ios":"levelo://app?vid=c26e3738-fb0f-44de-ae2b-0e2aef0affe9"},"vehicle_type_id":"4","last_reported":1720195791,"current_range_meters":31200,"station_id":"chh1huq6cuj3fo74tm60","pricing_plan_id":"cebpf4jnsgd1na2vs0mg"},{"bike_id":"05091bbe-860e-4197-9d68-16c1eae0e4bd","system_id":"levelo_inurba_marseille","lat":43.295169,"lon":5.390426,"is_reserved":false,"is_disabled":false,"rental_uris":{"android":"levelo://app?vid=05091bbe-860e-4197-9d68-16c1eae0e4bd","ios":"levelo://app?vid=05091bbe-860e-4197-9d68-16c1eae0e4bd"},"vehicle_type_id":"4","last_reported":1720195791,"current_range_meters":31200,"station_id":"ce4bh3p2rcd13ifvqdp0","pricing_plan_id":"cebpf4jnsgd1na2vs0mg"},{"bike_id":"12e4636f-68bf-48f8-82b2-625c7cd00cad","system_id":"levelo_inurba_marseille","lat":43.29527,"lon":5.39033,"is_reserved":false,"is_disabled":false,"rental_uris":{"android":"levelo://app?vid=12e4636f-68bf-48f8-82b2-625c7cd00cad","ios":"levelo://app?vid=12e4636f-68bf-48f8-82b2-625c7cd00cad"},"vehicle_type_id":"4","last_reported":1720195791,"current_range_meters":31200,"station_id":"ce4bh3p2rcd13ifvqdp0","pricing_plan_id":"cebpf4jnsgd1na2vs0mg"},{"bike_id":"515344d7-ecdc-4d50-b065-1c0baf85ebdb","system_id":"levelo_inurba_marseille","lat":43.297815,"lon":5.393548,"is_reserved":false,"is_disabled":false,"rental_uris":{"android":"levelo://app?vid=515344d7-ecdc-4d50-b065-1c0baf85ebdb","ios":"levelo://app?vid=515344d7-ecdc-4d50-b065-1c0baf85ebdb"},"vehicle_type_id":"4","last_reported":1720195791,"current_range_meters":30800,"station_id":"chh1huq6cuj3fo74tm60","pricing_plan_id":"cebpf4jnsgd1na2vs0mg"},{"bike_id":"075fafb6-3ad2-4774-a99b-bdf24deef1e1","system_id":"levelo_inurba_marseille","lat":43.289743,"lon":5.378304,"is_reserved":false,"is_disabled":false,"rental_uris":{"android":"levelo://app?vid=075fafb6-3ad2-4774-a99b-bdf24deef1e1","ios":"levelo://app?vid=075fafb6-3ad2-4774-a99b-bdf24deef1e1"},"vehicle_type_id":"4","last_reported":1720195791,"current_range_meters":6800,"station_id":"ce4bh9p2rcd13ifvqed0","pricing_plan_id":"cebpf4jnsgd1na2vs0mg"},{"bike_id":"a3fd5c36-42de-44a7-95aa-9843e1898bc4","system_id":"levelo_inurba_marseille","lat":43.29524,"lon":5.39037,"is_reserved":false,"is_disabled":false,"rental_uris":{"android":"levelo://app?vid=a3fd5c36-42de-44a7-95aa-9843e1898bc4","ios":"levelo://app?vid=a3fd5c36-42de-44a7-95aa-9843e1898bc4"},"vehicle_type_id":"4","last_reported":1720195791,"current_range_meters":31200,"station_id":"ce4bh3p2rcd13ifvqdp0","pricing_plan_id":"cebpf4jnsgd1na2vs0mg"},{"bike_id":"95656629-65e9-4d73-b909-759328b6cbfd","system_id":"levelo_inurba_marseille","lat":43.295169,"lon":5.390426,"is_reserved":false,"is_disabled":false,"rental_uris":{"android":"levelo://app?vid=95656629-65e9-4d73-b909-759328b6cbfd","ios":"levelo://app?vid=95656629-65e9-4d73-b909-759328b6cbfd"},"vehicle_type_id":"4","last_reported":1720195791,"current_range_meters":10800,"station_id":"ce4bh3p2rcd13ifvqdp0","pricing_plan_id":"cebpf4jnsgd1na2vs0mg"},{"bike_id":"f16c83c6-01f0-4c81-b836-75b1e9894ee9","system_id":"levelo_inurba_marseille","lat":43.295169,"lon":5.390426,"is_reserved":false,"is_disabled":false,"rental_uris":{"android":"levelo://app?vid=f16c83c6-01f0-4c81-b836-75b1e9894ee9","ios":"levelo://app?vid=f16c83c6-01f0-4c81-b836-75b1e9894ee9"},"vehicle_type_id":"4","last_reported":1720195791,"current_range_meters":6000,"station_id":"ce4bh3p2rcd13ifvqdp0","pricing_plan_id":"cebpf4jnsgd1na2vs0mg"},{"bike_id":"e7b7f1ee-301a-40aa-bc80-6b7c6d92abc4","system_id":"levelo_inurba_marseille","lat":43.295169,"lon":5.390426,"is_reserved":false,"is_disabled":false,"rental_uris":{"android":"levelo://app?vid=e7b7f1ee-301a-40aa-bc80-6b7c6d92abc4","ios":"levelo://app?vid=e7b7f1ee-301a-40aa-bc80-6b7c6d92abc4"},"vehicle_type_id":"4","last_reported":1720195791,"current_range_meters":2400,"station_id":"ce4bh3p2rcd13ifvqdp0","pricing_plan_id":"cebpf4jnsgd1na2vs0mg"},{"bike_id":"f6d37228-81d9-48e0-8073-9ace80a817a6","system_id":"levelo_inurba_marseille","lat":43.289741,"lon":5.378306,"is_reserved":false,"is_disabled":false,"rental_uris":{"android":"levelo://app?vid=f6d37228-81d9-48e0-8073-9ace80a817a6","ios":"levelo://app?vid=f6d37228-81d9-48e0-8073-9ace80a817a6"},"vehicle_type_id":"4","last_reported":1720195791,"current_range_meters":26400,"station_id":"ce4bh9p2rcd13ifvqed0","pricing_plan_id":"cebpf4jnsgd1na2vs0mg"},{"bike_id":"bda84792-4369-419e-9d38-5d7f06a56678","system_id":"levelo_inurba_marseille","lat":43.290094,"lon":5.381264,"is_reserved":false,"is_disabled":false,"rental_uris":{"android":"levelo://app?vid=bda84792-4369-419e-9d38-5d7f06a56678","ios":"levelo://app?vid=bda84792-4369-419e-9d38-5d7f06a56678"},"vehicle_type_id":"4","last_reported":1720195791,"current_range_meters":28800,"station_id":"ce4bh4p2rcd13ifvqe1g","pricing_plan_id":"cebpf4jnsgd1na2vs0mg"},{"bike_id":"c6ca15e8-df2a-4b16-94f3-255a081c2a52","system_id":"levelo_inurba_marseille","lat":43.28856,"lon":5.358371,"is_reserved":false,"is_disabled":false,"rental_uris":{"android":"levelo://app?vid=c6ca15e8-df2a-4b16-94f3-255a081c2a52","ios":"levelo://app?vid=c6ca15e8-df2a-4b16-94f3-255a081c2a52"},"vehicle_type_id":"4","last_reported":1720195791,"current_range_meters":6400,"station_id":"ce4bhb12rcd13ifvqem0","pricing_plan_id":"cebpf4jnsgd1na2vs0mg"},{"bike_id":"de574879-bfdc-4053-8ac9-ebaee69e7314","system_id":"levelo_inurba_marseille","lat":43.2901,"lon":5.381269,"is_reserved":false,"is_disabled":false,"rental_uris":{"android":"levelo://app?vid=de574879-bfdc-4053-8ac9-ebaee69e7314","ios":"levelo://app?vid=de574879-bfdc-4053-8ac9-ebaee69e7314"},"vehicle_type_id":"4","last_reported":1720195791,"current_range_meters":23200,"station_id":"ce4bh4p2rcd13ifvqe1g","pricing_plan_id":"cebpf4jnsgd1na2vs0mg"},{"bike_id":"96397127-c81e-40b4-a359-71057a306bc6","system_id":"levelo_inurba_marseille","lat":43.288643,"lon":5.358224,"is_reserved":false,"is_disabled":false,"rental_uris":{"android":"levelo://app?vid=96397127-c81e-40b4-a359-71057a306bc6","ios":"levelo://app?vid=96397127-c81e-40b4-a359-71057a306bc6"},"vehicle_type_id":"4","last_reported":1720195791,"current_range_meters":0,"station_id":"ce4bhb12rcd13ifvqem0","pricing_plan_id":"cebpf4jnsgd1na2vs0mg"},{"bike_id":"2a3aef8f-0123-4e5a-97d2-0984c66cb58c","system_id":"levelo_inurba_marseille","lat":43.28856,"lon":5.358371,"is_reserved":false,"is_disabled":false,"rental_uris":{"android":"levelo://app?vid=2a3aef8f-0123-4e5a-97d2-0984c66cb58c","ios":"levelo://app?vid=2a3aef8f-0123-4e5a-97d2-0984c66cb58c"},"vehicle_type_id":"4","last_reported":1720195791,"current_range_meters":800,"station_id":"ce4bhb12rcd13ifvqem0","pricing_plan_id":"cebpf4jnsgd1na2vs0mg"},{"bike_id":"db532afc-c20f-493a-a6d1-656afede8f91","system_id":"levelo_inurba_marseille","lat":43.309371,"lon":5.401449,"is_reserved":false,"is_disabled":false,"rental_uris":{"android":"levelo://app?vid=db532afc-c20f-493a-a6d1-656afede8f91","ios":"levelo://app?vid=db532afc-c20f-493a-a6d1-656afede8f91"},"vehicle_type_id":"4","last_reported":1720195791,"current_range_meters":31200,"station_id":"ce4bgvp2rcd13ifvqct0","pricing_plan_id":"cebpf4jnsgd1na2vs0mg"},{"bike_id":"5472bb8c-f0be-4af4-8666-fdffb5a45b20","system_id":"levelo_inurba_marseille","lat":43.309371,"lon":5.401449,"is_reserved":false,"is_disabled":false,"rental_uris":{"android":"levelo://app?vid=5472bb8c-f0be-4af4-8666-fdffb5a45b20","ios":"levelo://app?vid=5472bb8c-f0be-4af4-8666-fdffb5a45b20"},"vehicle_type_id":"4","last_reported":1720195791,"current_range_meters":6800,"station_id":"ce4bgvp2rcd13ifvqct0","pricing_plan_id":"cebpf4jnsgd1na2vs0mg"},{"bike_id":"aeb91b75-5b26-4416-a0ed-2e7351e4dc9d","system_id":"levelo_inurba_marseille","lat":43.309371,"lon":5.401449,"is_reserved":false,"is_disabled":false,"rental_uris":{"android":"levelo://app?vid=aeb91b75-5b26-4416-a0ed-2e7351e4dc9d","ios":"levelo://app?vid=aeb91b75-5b26-4416-a0ed-2e7351e4dc9d"},"vehicle_type_id":"4","last_reported":1720195791,"current_range_meters":1600,"station_id":"ce4bgvp2rcd13ifvqct0","pricing_plan_id":"cebpf4jnsgd1na2vs0mg"},{"bike_id":"e014d1fb-8567-49b4-b97e-0644bd7f348e","system_id":"levelo_inurba_marseille","lat":43.337494,"lon":5.374532,"is_reserved":false,"is_disabled":false,"rental_uris":{"android":"levelo://app?vid=e014d1fb-8567-49b4-b97e-0644bd7f348e","ios":"levelo://app?vid=e014d1fb-8567-49b4-b97e-0644bd7f348e"},"vehicle_type_id":"4","last_reported":1720195791,"current_range_meters":28400,"station_id":"","pricing_plan_id":"cebpf4jnsgd1na2vs0mg"},{"bike_id":"41fcb31e-469f-4a07-8a88-fbe57c2d85f5","system_id":"levelo_inurba_marseille","lat":43.33755,"lon":5.37455,"is_reserved":false,"is_disabled":false,"rental_uris":{"android":"levelo://app?vid=41fcb31e-469f-4a07-8a88-fbe57c2d85f5","ios":"levelo://app?vid=41fcb31e-469f-4a07-8a88-fbe57c2d85f5"},"vehicle_type_id":"4","last_reported":1720195791,"current_range_meters":30800,"station_id":"","pricing_plan_id":"cebpf4jnsgd1na2vs0mg"},{"bike_id":"68ef8faa-8b41-491b-bfe4-7ecd1860340b","system_id":"levelo_inurba_marseille","lat":43.337629,"lon":5.374416,"is_reserved":false,"is_disabled":false,"rental_uris":{"android":"levelo://app?vid=68ef8faa-8b41-491b-bfe4-7ecd1860340b","ios":"levelo://app?vid=68ef8faa-8b41-491b-bfe4-7ecd1860340b"},"vehicle_type_id":"4","last_reported":1720195791,"current_range_meters":23200,"station_id":"","pricing_plan_id":"cebpf4jnsgd1na2vs0mg"},{"bike_id":"8e3e9c61-a1f2-44c7-9dfc-6944991b8188","system_id":"levelo_inurba_marseille","lat":43.33759,"lon":5.37481,"is_reserved":false,"is_disabled":false,"rental_uris":{"android":"levelo://app?vid=8e3e9c61-a1f2-44c7-9dfc-6944991b8188","ios":"levelo://app?vid=8e3e9c61-a1f2-44c7-9dfc-6944991b8188"},"vehicle_type_id":"4","last_reported":1720195791,"current_range_meters":26400,"station_id":"","pricing_plan_id":"cebpf4jnsgd1na2vs0mg"},{"bike_id":"ba77c056-6fe7-4228-884f-a9f07e3f5ccc","system_id":"levelo_inurba_marseille","lat":43.33766,"lon":5.37452,"is_reserved":false,"is_disabled":false,"rental_uris":{"android":"levelo://app?vid=ba77c056-6fe7-4228-884f-a9f07e3f5ccc","ios":"levelo://app?vid=ba77c056-6fe7-4228-884f-a9f07e3f5ccc"},"vehicle_type_id":"4","last_reported":1720195791,"current_range_meters":29200,"station_id":"ce4rr2p2rcd13i802rgg","pricing_plan_id":"cebpf4jnsgd1na2vs0mg"},{"bike_id":"151a38cb-b1dd-4c44-9a4a-dd9f034d0d43","system_id":"levelo_inurba_marseille","lat":43.309371,"lon":5.401449,"is_reserved":false,"is_disabled":false,"rental_uris":{"android":"levelo://app?vid=151a38cb-b1dd-4c44-9a4a-dd9f034d0d43","ios":"levelo://app?vid=151a38cb-b1dd-4c44-9a4a-dd9f034d0d43"},"vehicle_type_id":"4","last_reported":1720195791,"current_range_meters":18400,"station_id":"ce4bgvp2rcd13ifvqct0","pricing_plan_id":"cebpf4jnsgd1na2vs0mg"},{"bike_id":"d18fc15d-e9a7-4dbb-9aed-fc17bcc86552","system_id":"levelo_inurba_marseille","lat":43.337692,"lon":5.374382,"is_reserved":false,"is_disabled":false,"rental_uris":{"android":"levelo://app?vid=d18fc15d-e9a7-4dbb-9aed-fc17bcc86552","ios":"levelo://app?vid=d18fc15d-e9a7-4dbb-9aed-fc17bcc86552"},"vehicle_type_id":"4","last_reported":1720195791,"current_range_meters":22000,"station_id":"ce4rr2p2rcd13i802rgg","pricing_plan_id":"cebpf4jnsgd1na2vs0mg"},{"bike_id":"22664dbb-05c6-44b7-ac76-723d395f476e","system_id":"levelo_inurba_marseille","lat":43.337718,"lon":5.374394,"is_reserved":false,"is_disabled":false,"rental_uris":{"android":"levelo://app?vid=22664dbb-05c6-44b7-ac76-723d395f476e","ios":"levelo://app?vid=22664dbb-05c6-44b7-ac76-723d395f476e"},"vehicle_type_id":"4","last_reported":1720195791,"current_range_meters":30800,"station_id":"","pricing_plan_id":"cebpf4jnsgd1na2vs0mg"},{"bike_id":"8516d279-514f-4d94-9f78-361ce68ff57d","system_id":"levelo_inurba_marseille","lat":43.301117,"lon":5.398795,"is_reserved":false,"is_disabled":false,"rental_uris":{"android":"levelo://app?vid=8516d279-514f-4d94-9f78-361ce68ff57d","ios":"levelo://app?vid=8516d279-514f-4d94-9f78-361ce68ff57d"},"vehicle_type_id":"4","last_reported":1720195791,"current_range_meters":20000,"station_id":"ce4bh0h2rcd13ifvqd40","pricing_plan_id":"cebpf4jnsgd1na2vs0mg"},{"bike_id":"887d9eca-f5ef-4cec-921d-07226c163359","system_id":"levelo_inurba_marseille","lat":43.301117,"lon":5.398795,"is_reserved":false,"is_disabled":false,"rental_uris":{"android":"levelo://app?vid=887d9eca-f5ef-4cec-921d-07226c163359","ios":"levelo://app?vid=887d9eca-f5ef-4cec-921d-07226c163359"},"vehicle_type_id":"4","last_reported":1720195791,"current_range_meters":1200,"station_id":"ce4bh0h2rcd13ifvqd40","pricing_plan_id":"cebpf4jnsgd1na2vs0mg"},{"bike_id":"21cfba44-fe18-49ea-adb5-c778921c81e5","system_id":"levelo_inurba_marseille","lat":43.301117,"lon":5.398795,"is_reserved":false,"is_disabled":false,"rental_uris":{"android":"levelo://app?vid=21cfba44-fe18-49ea-adb5-c778921c81e5","ios":"levelo://app?vid=21cfba44-fe18-49ea-adb5-c778921c81e5"},"vehicle_type_id":"4","last_reported":1720195791,"current_range_meters":0,"station_id":"ce4bh0h2rcd13ifvqd40","pricing_plan_id":"cebpf4jnsgd1na2vs0mg"},{"bike_id":"ffaf3bd3-3827-4908-bc5d-9b634631f280","system_id":"levelo_inurba_marseille","lat":43.301117,"lon":5.398795,"is_reserved":false,"is_disabled":false,"rental_uris":{"android":"levelo://app?vid=ffaf3bd3-3827-4908-bc5d-9b634631f280","ios":"levelo://app?vid=ffaf3bd3-3827-4908-bc5d-9b634631f280"},"vehicle_type_id":"4","last_reported":1720195791,"current_range_meters":0,"station_id":"ce4bh0h2rcd13ifvqd40","pricing_plan_id":"cebpf4jnsgd1na2vs0mg"},{"bike_id":"84ca73e9-e504-4941-b46a-99470191b6e8","system_id":"levelo_inurba_marseille","lat":43.286593,"lon":5.363346,"is_reserved":false,"is_disabled":false,"rental_uris":{"android":"levelo://app?vid=84ca73e9-e504-4941-b46a-99470191b6e8","ios":"levelo://app?vid=84ca73e9-e504-4941-b46a-99470191b6e8"},"vehicle_type_id":"4","last_reported":1720195791,"current_range_meters":0,"station_id":"ce4bhah2rcd13ifvqej0","pricing_plan_id":"cebpf4jnsgd1na2vs0mg"},{"bike_id":"7e44dc2a-457d-40d9-adfe-a6011950ee39","system_id":"levelo_inurba_marseille","lat":43.298681,"lon":5.397225,"is_reserved":false,"is_disabled":false,"rental_uris":{"android":"levelo://app?vid=7e44dc2a-457d-40d9-adfe-a6011950ee39","ios":"levelo://app?vid=7e44dc2a-457d-40d9-adfe-a6011950ee39"},"vehicle_type_id":"4","last_reported":1720195791,"current_range_meters":6400,"station_id":"ce4bh0h2rcd13ifvqd50","pricing_plan_id":"cebpf4jnsgd1na2vs0mg"},{"bike_id":"a92b712b-a45e-4db5-bbcc-8e7161701634","system_id":"levelo_inurba_marseille","lat":43.298681,"lon":5.397225,"is_reserved":false,"is_disabled":false,"rental_uris":{"android":"levelo://app?vid=a92b712b-a45e-4db5-bbcc-8e7161701634","ios":"levelo://app?vid=a92b712b-a45e-4db5-bbcc-8e7161701634"},"vehicle_type_id":"4","last_reported":1720195791,"current_range_meters":0,"station_id":"ce4bh0h2rcd13ifvqd50","pricing_plan_id":"cebpf4jnsgd1na2vs0mg"},{"bike_id":"266f0df0-8e1f-444f-86c9-2434ef0cbd94","system_id":"levelo_inurba_marseille","lat":43.286591,"lon":5.363346,"is_reserved":false,"is_disabled":false,"rental_uris":{"android":"levelo://app?vid=266f0df0-8e1f-444f-86c9-2434ef0cbd94","ios":"levelo://app?vid=266f0df0-8e1f-444f-86c9-2434ef0cbd94"},"vehicle_type_id":"4","last_reported":1720195791,"current_range_meters":22400,"station_id":"ce4bhah2rcd13ifvqej0","pricing_plan_id":"cebpf4jnsgd1na2vs0mg"},{"bike_id":"f5624836-f2ec-482a-813a-f5dd85c6655d","system_id":"levelo_inurba_marseille","lat":43.298681,"lon":5.397225,"is_reserved":false,"is_disabled":false,"rental_uris":{"android":"levelo://app?vid=f5624836-f2ec-482a-813a-f5dd85c6655d","ios":"levelo://app?vid=f5624836-f2ec-482a-813a-f5dd85c6655d"},"vehicle_type_id":"4","last_reported":1720195791,"current_range_meters":12400,"station_id":"ce4bh0h2rcd13ifvqd50","pricing_plan_id":"cebpf4jnsgd1na2vs0mg"},{"bike_id":"8bfa816c-7ccf-4984-9dcc-c15189fc6d8d","system_id":"levelo_inurba_marseille","lat":43.286593,"lon":5.363346,"is_reserved":false,"is_disabled":false,"rental_uris":{"android":"levelo://app?vid=8bfa816c-7ccf-4984-9dcc-c15189fc6d8d","ios":"levelo://app?vid=8bfa816c-7ccf-4984-9dcc-c15189fc6d8d"},"vehicle_type_id":"4","last_reported":1720195791,"current_range_meters":17600,"station_id":"ce4bhah2rcd13ifvqej0","pricing_plan_id":"cebpf4jnsgd1na2vs0mg"},{"bike_id":"faaa1e7a-3e69-43c3-80f2-d06f258bbe0c","system_id":"levelo_inurba_marseille","lat":43.298681,"lon":5.397225,"is_reserved":false,"is_disabled":false,"rental_uris":{"android":"levelo://app?vid=faaa1e7a-3e69-43c3-80f2-d06f258bbe0c","ios":"levelo://app?vid=faaa1e7a-3e69-43c3-80f2-d06f258bbe0c"},"vehicle_type_id":"4","last_reported":1720195791,"current_range_meters":0,"station_id":"ce4bh0h2rcd13ifvqd50","pricing_plan_id":"cebpf4jnsgd1na2vs0mg"},{"bike_id":"41fde1a6-b9d1-48a2-bda7-c96db580f2a6","system_id":"levelo_inurba_marseille","lat":43.295196,"lon":5.39397,"is_reserved":false,"is_disabled":false,"rental_uris":{"android":"levelo://app?vid=41fde1a6-b9d1-48a2-bda7-c96db580f2a6","ios":"levelo://app?vid=41fde1a6-b9d1-48a2-bda7-c96db580f2a6"},"vehicle_type_id":"4","last_reported":1720195791,"current_range_meters":21200,"station_id":"ce4bh292rcd13ifvqdf0","pricing_plan_id":"cebpf4jnsgd1na2vs0mg"},{"bike_id":"da39b92c-f51f-455b-9493-345102edfa15","system_id":"levelo_inurba_marseille","lat":43.290336,"lon":5.386425,"is_reserved":false,"is_disabled":false,"rental_uris":{"android":"levelo://app?vid=da39b92c-f51f-455b-9493-345102edfa15","ios":"levelo://app?vid=da39b92c-f51f-455b-9493-345102edfa15"},"vehicle_type_id":"4","last_reported":1720195791,"current_range_meters":0,"station_id":"ce4bh4p2rcd13ifvqe0g","pricing_plan_id":"cebpf4jnsgd1na2vs0mg"},{"bike_id":"066f0afb-d763-466a-a68a-7d55704e50e0","system_id":"levelo_inurba_marseille","lat":43.302759,"lon":5.400793,"is_reserved":false,"is_disabled":false,"rental_uris":{"android":"levelo://app?vid=066f0afb-d763-466a-a68a-7d55704e50e0","ios":"levelo://app?vid=066f0afb-d763-466a-a68a-7d55704e50e0"},"vehicle_type_id":"4","last_reported":1720195791,"current_range_meters":21600,"station_id":"ce4bgvh2rcd13ifvqcs0","pricing_plan_id":"cebpf4jnsgd1na2vs0mg"},{"bike_id":"84a51184-1e13-49fb-9bd5-266e18958d15","system_id":"levelo_inurba_marseille","lat":43.286039,"lon":5.370681,"is_reserved":false,"is_disabled":false,"rental_uris":{"android":"levelo://app?vid=84a51184-1e13-49fb-9bd5-266e18958d15","ios":"levelo://app?vid=84a51184-1e13-49fb-9bd5-266e18958d15"},"vehicle_type_id":"4","last_reported":1720195791,"current_range_meters":21200,"station_id":"ce4bht12rcd13ifvqi60","pricing_plan_id":"cebpf4jnsgd1na2vs0mg"},{"bike_id":"ec9c5516-0849-4d65-8c61-9f9566a90c51","system_id":"levelo_inurba_marseille","lat":43.286039,"lon":5.370681,"is_reserved":false,"is_disabled":false,"rental_uris":{"android":"levelo://app?vid=ec9c5516-0849-4d65-8c61-9f9566a90c51","ios":"levelo://app?vid=ec9c5516-0849-4d65-8c61-9f9566a90c51"},"vehicle_type_id":"4","last_reported":1720195791,"current_range_meters":14800,"station_id":"ce4bht12rcd13ifvqi60","pricing_plan_id":"cebpf4jnsgd1na2vs0mg"},{"bike_id":"63cbd811-88f0-4245-9a62-6d8a162eafca","system_id":"levelo_inurba_marseille","lat":43.286039,"lon":5.370681,"is_reserved":false,"is_disabled":false,"rental_uris":{"android":"levelo://app?vid=63cbd811-88f0-4245-9a62-6d8a162eafca","ios":"levelo://app?vid=63cbd811-88f0-4245-9a62-6d8a162eafca"},"vehicle_type_id":"4","last_reported":1720195791,"current_range_meters":9600,"station_id":"ce4bht12rcd13ifvqi60","pricing_plan_id":"cebpf4jnsgd1na2vs0mg"},{"bike_id":"69698b77-b1a9-4bef-a1e5-dc22deed2738","system_id":"levelo_inurba_marseille","lat":43.287184,"lon":5.37937,"is_reserved":false,"is_disabled":false,"rental_uris":{"android":"levelo://app?vid=69698b77-b1a9-4bef-a1e5-dc22deed2738","ios":"levelo://app?vid=69698b77-b1a9-4bef-a1e5-dc22deed2738"},"vehicle_type_id":"4","last_reported":1720195791,"current_range_meters":0,"station_id":"ce4bh9p2rcd13ifvqec0","pricing_plan_id":"cebpf4jnsgd1na2vs0mg"},{"bike_id":"64d0fe54-8120-4910-bc1f-8c7b1e98929d","system_id":"levelo_inurba_marseille","lat":43.287184,"lon":5.37937,"is_reserved":false,"is_disabled":false,"rental_uris":{"android":"levelo://app?vid=64d0fe54-8120-4910-bc1f-8c7b1e98929d","ios":"levelo://app?vid=64d0fe54-8120-4910-bc1f-8c7b1e98929d"},"vehicle_type_id":"4","last_reported":1720195791,"current_range_meters":0,"station_id":"ce4bh9p2rcd13ifvqec0","pricing_plan_id":"cebpf4jnsgd1na2vs0mg"},{"bike_id":"2f11ebf4-5fcd-416c-953f-48b7cdd965df","system_id":"levelo_inurba_marseille","lat":43.287184,"lon":5.37937,"is_reserved":false,"is_disabled":false,"rental_uris":{"android":"levelo://app?vid=2f11ebf4-5fcd-416c-953f-48b7cdd965df","ios":"levelo://app?vid=2f11ebf4-5fcd-416c-953f-48b7cdd965df"},"vehicle_type_id":"4","last_reported":1720195791,"current_range_meters":11200,"station_id":"ce4bh9p2rcd13ifvqec0","pricing_plan_id":"cebpf4jnsgd1na2vs0mg"},{"bike_id":"47acad89-af7b-441d-b08f-105a452e23a8","system_id":"levelo_inurba_marseille","lat":43.31688,"lon":5.40468,"is_reserved":false,"is_disabled":false,"rental_uris":{"android":"levelo://app?vid=47acad89-af7b-441d-b08f-105a452e23a8","ios":"levelo://app?vid=47acad89-af7b-441d-b08f-105a452e23a8"},"vehicle_type_id":"4","last_reported":1720195791,"current_range_meters":14000,"station_id":"ce4bh012rcd13ifvqd00","pricing_plan_id":"cebpf4jnsgd1na2vs0mg"},{"bike_id":"a2e556a7-2edb-4318-8060-41ef8bdf7fbe","system_id":"levelo_inurba_marseille","lat":43.31681,"lon":5.4047,"is_reserved":false,"is_disabled":false,"rental_uris":{"android":"levelo://app?vid=a2e556a7-2edb-4318-8060-41ef8bdf7fbe","ios":"levelo://app?vid=a2e556a7-2edb-4318-8060-41ef8bdf7fbe"},"vehicle_type_id":"4","last_reported":1720195791,"current_range_meters":14400,"station_id":"ce4bh012rcd13ifvqd00","pricing_plan_id":"cebpf4jnsgd1na2vs0mg"},{"bike_id":"1fcceacb-440d-49e6-8807-cd7667d5ccc4","system_id":"levelo_inurba_marseille","lat":43.284534,"lon":5.358662,"is_reserved":false,"is_disabled":false,"rental_uris":{"android":"levelo://app?vid=1fcceacb-440d-49e6-8807-cd7667d5ccc4","ios":"levelo://app?vid=1fcceacb-440d-49e6-8807-cd7667d5ccc4"},"vehicle_type_id":"4","last_reported":1720195791,"current_range_meters":800,"station_id":"ce4bhah2rcd13ifvqei0","pricing_plan_id":"cebpf4jnsgd1na2vs0mg"},{"bike_id":"86c7129f-394b-455a-8184-9d081a43cb3c","system_id":"levelo_inurba_marseille","lat":43.284538,"lon":5.358657,"is_reserved":false,"is_disabled":false,"rental_uris":{"android":"levelo://app?vid=86c7129f-394b-455a-8184-9d081a43cb3c","ios":"levelo://app?vid=86c7129f-394b-455a-8184-9d081a43cb3c"},"vehicle_type_id":"4","last_reported":1720195791,"current_range_meters":21600,"station_id":"ce4bhah2rcd13ifvqei0","pricing_plan_id":"cebpf4jnsgd1na2vs0mg"},{"bike_id":"98c05448-8e01-49db-b551-3b2bc875e3aa","system_id":"levelo_inurba_marseille","lat":43.294314,"lon":5.397498,"is_reserved":false,"is_disabled":false,"rental_uris":{"android":"levelo://app?vid=98c05448-8e01-49db-b551-3b2bc875e3aa","ios":"levelo://app?vid=98c05448-8e01-49db-b551-3b2bc875e3aa"},"vehicle_type_id":"4","last_reported":1720195791,"current_range_meters":800,"station_id":"ce4bh3h2rcd13ifvqdo0","pricing_plan_id":"cebpf4jnsgd1na2vs0mg"},{"bike_id":"0e8895d6-3d3b-45f3-a55d-aefc7804e275","system_id":"levelo_inurba_marseille","lat":43.28454,"lon":5.35881,"is_reserved":false,"is_disabled":false,"rental_uris":{"android":"levelo://app?vid=0e8895d6-3d3b-45f3-a55d-aefc7804e275","ios":"levelo://app?vid=0e8895d6-3d3b-45f3-a55d-aefc7804e275"},"vehicle_type_id":"4","last_reported":1720195791,"current_range_meters":22000,"station_id":"ce4bhah2rcd13ifvqei0","pricing_plan_id":"cebpf4jnsgd1na2vs0mg"},{"bike_id":"7af06941-922e-42c4-b693-a6c9707bf6b8","system_id":"levelo_inurba_marseille","lat":43.294314,"lon":5.397498,"is_reserved":false,"is_disabled":false,"rental_uris":{"android":"levelo://app?vid=7af06941-922e-42c4-b693-a6c9707bf6b8","ios":"levelo://app?vid=7af06941-922e-42c4-b693-a6c9707bf6b8"},"vehicle_type_id":"4","last_reported":1720195791,"current_range_meters":30800,"station_id":"ce4bh3h2rcd13ifvqdo0","pricing_plan_id":"cebpf4jnsgd1na2vs0mg"},{"bike_id":"ef503452-a3c4-4240-ba16-16f23a0db6e9","system_id":"levelo_inurba_marseille","lat":43.294314,"lon":5.397498,"is_reserved":false,"is_disabled":false,"rental_uris":{"android":"levelo://app?vid=ef503452-a3c4-4240-ba16-16f23a0db6e9","ios":"levelo://app?vid=ef503452-a3c4-4240-ba16-16f23a0db6e9"},"vehicle_type_id":"4","last_reported":1720195791,"current_range_meters":1600,"station_id":"ce4bh3h2rcd13ifvqdo0","pricing_plan_id":"cebpf4jnsgd1na2vs0mg"},{"bike_id":"893d1ca5-7b3f-40e5-9420-23ad9bfff74c","system_id":"levelo_inurba_marseille","lat":43.294314,"lon":5.397498,"is_reserved":false,"is_disabled":false,"rental_uris":{"android":"levelo://app?vid=893d1ca5-7b3f-40e5-9420-23ad9bfff74c","ios":"levelo://app?vid=893d1ca5-7b3f-40e5-9420-23ad9bfff74c"},"vehicle_type_id":"4","last_reported":1720195791,"current_range_meters":5200,"station_id":"ce4bh3h2rcd13ifvqdo0","pricing_plan_id":"cebpf4jnsgd1na2vs0mg"},{"bike_id":"ab6e94f7-c0b1-4458-ba98-e7b46af2ac83","system_id":"levelo_inurba_marseille","lat":43.28621,"lon":5.35111,"is_reserved":false,"is_disabled":false,"rental_uris":{"android":"levelo://app?vid=ab6e94f7-c0b1-4458-ba98-e7b46af2ac83","ios":"levelo://app?vid=ab6e94f7-c0b1-4458-ba98-e7b46af2ac83"},"vehicle_type_id":"4","last_reported":1720195791,"current_range_meters":23200,"station_id":"ce4bhch2rcd13ifvqeug","pricing_plan_id":"cebpf4jnsgd1na2vs0mg"},{"bike_id":"211ed442-64fb-4158-acf6-e70cab483369","system_id":"levelo_inurba_marseille","lat":43.285848,"lon":5.350787,"is_reserved":false,"is_disabled":false,"rental_uris":{"android":"levelo://app?vid=211ed442-64fb-4158-acf6-e70cab483369","ios":"levelo://app?vid=211ed442-64fb-4158-acf6-e70cab483369"},"vehicle_type_id":"4","last_reported":1720195791,"current_range_meters":31200,"station_id":"ce4bhch2rcd13ifvqeug","pricing_plan_id":"cebpf4jnsgd1na2vs0mg"},{"bike_id":"d00af0a1-3dd6-4b75-9c46-cd8bf4370bb6","system_id":"levelo_inurba_marseille","lat":43.285856,"lon":5.350771,"is_reserved":false,"is_disabled":false,"rental_uris":{"android":"levelo://app?vid=d00af0a1-3dd6-4b75-9c46-cd8bf4370bb6","ios":"levelo://app?vid=d00af0a1-3dd6-4b75-9c46-cd8bf4370bb6"},"vehicle_type_id":"4","last_reported":1720195791,"current_range_meters":0,"station_id":"ce4bhch2rcd13ifvqeug","pricing_plan_id":"cebpf4jnsgd1na2vs0mg"},{"bike_id":"ea3f3b3d-2cf0-485a-89bb-cf42686a4cab","system_id":"levelo_inurba_marseille","lat":43.28618,"lon":5.35112,"is_reserved":false,"is_disabled":false,"rental_uris":{"android":"levelo://app?vid=ea3f3b3d-2cf0-485a-89bb-cf42686a4cab","ios":"levelo://app?vid=ea3f3b3d-2cf0-485a-89bb-cf42686a4cab"},"vehicle_type_id":"4","last_reported":1720195791,"current_range_meters":15200,"station_id":"ce4bhch2rcd13ifvqeug","pricing_plan_id":"cebpf4jnsgd1na2vs0mg"},{"bike_id":"839c507a-db28-479e-af77-07d4d255ab6e","system_id":"levelo_inurba_marseille","lat":43.2862,"lon":5.35105,"is_reserved":false,"is_disabled":false,"rental_uris":{"android":"levelo://app?vid=839c507a-db28-479e-af77-07d4d255ab6e","ios":"levelo://app?vid=839c507a-db28-479e-af77-07d4d255ab6e"},"vehicle_type_id":"4","last_reported":1720195791,"current_range_meters":3600,"station_id":"ce4bhch2rcd13ifvqeug","pricing_plan_id":"cebpf4jnsgd1na2vs0mg"},{"bike_id":"bf43560c-67e8-45cb-81bb-a6dcb7a45e5c","system_id":"levelo_inurba_marseille","lat":43.28621,"lon":5.35101,"is_reserved":false,"is_disabled":false,"rental_uris":{"android":"levelo://app?vid=bf43560c-67e8-45cb-81bb-a6dcb7a45e5c","ios":"levelo://app?vid=bf43560c-67e8-45cb-81bb-a6dcb7a45e5c"},"vehicle_type_id":"4","last_reported":1720195791,"current_range_meters":10400,"station_id":"ce4bhch2rcd13ifvqeug","pricing_plan_id":"cebpf4jnsgd1na2vs0mg"},{"bike_id":"f8f234f7-05b3-41a2-9de2-6885856acbb8","system_id":"levelo_inurba_marseille","lat":43.285848,"lon":5.350787,"is_reserved":false,"is_disabled":false,"rental_uris":{"android":"levelo://app?vid=f8f234f7-05b3-41a2-9de2-6885856acbb8","ios":"levelo://app?vid=f8f234f7-05b3-41a2-9de2-6885856acbb8"},"vehicle_type_id":"4","last_reported":1720195791,"current_range_meters":13200,"station_id":"ce4bhch2rcd13ifvqeug","pricing_plan_id":"cebpf4jnsgd1na2vs0mg"},{"bike_id":"15162e50-ddea-4100-b0c0-2a46a35a3259","system_id":"levelo_inurba_marseille","lat":43.28619,"lon":5.35103,"is_reserved":false,"is_disabled":false,"rental_uris":{"android":"levelo://app?vid=15162e50-ddea-4100-b0c0-2a46a35a3259","ios":"levelo://app?vid=15162e50-ddea-4100-b0c0-2a46a35a3259"},"vehicle_type_id":"4","last_reported":1720195791,"current_range_meters":10800,"station_id":"ce4bhch2rcd13ifvqeug","pricing_plan_id":"cebpf4jnsgd1na2vs0mg"},{"bike_id":"9fab9b6d-890d-4660-935f-1e5df48a72ce","system_id":"levelo_inurba_marseille","lat":43.285856,"lon":5.350771,"is_reserved":false,"is_disabled":false,"rental_uris":{"android":"levelo://app?vid=9fab9b6d-890d-4660-935f-1e5df48a72ce","ios":"levelo://app?vid=9fab9b6d-890d-4660-935f-1e5df48a72ce"},"vehicle_type_id":"4","last_reported":1720195791,"current_range_meters":31200,"station_id":"ce4bhch2rcd13ifvqeug","pricing_plan_id":"cebpf4jnsgd1na2vs0mg"},{"bike_id":"ec5decce-430d-4348-b1fa-781625e00fe2","system_id":"levelo_inurba_marseille","lat":43.285848,"lon":5.350787,"is_reserved":false,"is_disabled":false,"rental_uris":{"android":"levelo://app?vid=ec5decce-430d-4348-b1fa-781625e00fe2","ios":"levelo://app?vid=ec5decce-430d-4348-b1fa-781625e00fe2"},"vehicle_type_id":"4","last_reported":1720195791,"current_range_meters":19200,"station_id":"ce4bhch2rcd13ifvqeug","pricing_plan_id":"cebpf4jnsgd1na2vs0mg"},{"bike_id":"ca8333c7-cfe3-4ae6-9a06-737c50220ec9","system_id":"levelo_inurba_marseille","lat":43.28617,"lon":5.35108,"is_reserved":false,"is_disabled":false,"rental_uris":{"android":"levelo://app?vid=ca8333c7-cfe3-4ae6-9a06-737c50220ec9","ios":"levelo://app?vid=ca8333c7-cfe3-4ae6-9a06-737c50220ec9"},"vehicle_type_id":"4","last_reported":1720195791,"current_range_meters":15600,"station_id":"ce4bhch2rcd13ifvqeug","pricing_plan_id":"cebpf4jnsgd1na2vs0mg"},{"bike_id":"b4fd17d7-d502-45de-bd0d-a6c6410f9211","system_id":"levelo_inurba_marseille","lat":43.28617,"lon":5.35108,"is_reserved":false,"is_disabled":false,"rental_uris":{"android":"levelo://app?vid=b4fd17d7-d502-45de-bd0d-a6c6410f9211","ios":"levelo://app?vid=b4fd17d7-d502-45de-bd0d-a6c6410f9211"},"vehicle_type_id":"4","last_reported":1720195791,"current_range_meters":28400,"station_id":"ce4bhch2rcd13ifvqeug","pricing_plan_id":"cebpf4jnsgd1na2vs0mg"},{"bike_id":"63a40183-6eb7-49a0-94e4-8e051026c501","system_id":"levelo_inurba_marseille","lat":43.28618,"lon":5.35104,"is_reserved":false,"is_disabled":false,"rental_uris":{"android":"levelo://app?vid=63a40183-6eb7-49a0-94e4-8e051026c501","ios":"levelo://app?vid=63a40183-6eb7-49a0-94e4-8e051026c501"},"vehicle_type_id":"4","last_reported":1720195791,"current_range_meters":5200,"station_id":"ce4bhch2rcd13ifvqeug","pricing_plan_id":"cebpf4jnsgd1na2vs0mg"},{"bike_id":"f56519e9-7f42-403f-ba1d-67864607bc6d","system_id":"levelo_inurba_marseille","lat":43.28616,"lon":5.35105,"is_reserved":false,"is_disabled":false,"rental_uris":{"android":"levelo://app?vid=f56519e9-7f42-403f-ba1d-67864607bc6d","ios":"levelo://app?vid=f56519e9-7f42-403f-ba1d-67864607bc6d"},"vehicle_type_id":"4","last_reported":1720195791,"current_range_meters":15600,"station_id":"ce4bhch2rcd13ifvqeug","pricing_plan_id":"cebpf4jnsgd1na2vs0mg"},{"bike_id":"289ba50f-79dd-48f7-8e9d-b638915639bf","system_id":"levelo_inurba_marseille","lat":43.28615,"lon":5.35107,"is_reserved":false,"is_disabled":false,"rental_uris":{"android":"levelo://app?vid=289ba50f-79dd-48f7-8e9d-b638915639bf","ios":"levelo://app?vid=289ba50f-79dd-48f7-8e9d-b638915639bf"},"vehicle_type_id":"4","last_reported":1720195791,"current_range_meters":30800,"station_id":"ce4bhch2rcd13ifvqeug","pricing_plan_id":"cebpf4jnsgd1na2vs0mg"},{"bike_id":"97a9aaba-5635-4997-a9f2-7ce62dddfb6c","system_id":"levelo_inurba_marseille","lat":43.286146,"lon":5.351079,"is_reserved":false,"is_disabled":false,"rental_uris":{"android":"levelo://app?vid=97a9aaba-5635-4997-a9f2-7ce62dddfb6c","ios":"levelo://app?vid=97a9aaba-5635-4997-a9f2-7ce62dddfb6c"},"vehicle_type_id":"4","last_reported":1720195791,"current_range_meters":31200,"station_id":"ce4bhch2rcd13ifvqeug","pricing_plan_id":"cebpf4jnsgd1na2vs0mg"},{"bike_id":"9a34f980-611a-4136-9ed9-33c709b93761","system_id":"levelo_inurba_marseille","lat":43.28617,"lon":5.351,"is_reserved":false,"is_disabled":false,"rental_uris":{"android":"levelo://app?vid=9a34f980-611a-4136-9ed9-33c709b93761","ios":"levelo://app?vid=9a34f980-611a-4136-9ed9-33c709b93761"},"vehicle_type_id":"4","last_reported":1720195791,"current_range_meters":13600,"station_id":"ce4bhch2rcd13ifvqeug","pricing_plan_id":"cebpf4jnsgd1na2vs0mg"},{"bike_id":"4c3cf06b-9fb3-42b0-bdca-572c12f7926b","system_id":"levelo_inurba_marseille","lat":43.285848,"lon":5.350787,"is_reserved":false,"is_disabled":false,"rental_uris":{"android":"levelo://app?vid=4c3cf06b-9fb3-42b0-bdca-572c12f7926b","ios":"levelo://app?vid=4c3cf06b-9fb3-42b0-bdca-572c12f7926b"},"vehicle_type_id":"4","last_reported":1720195791,"current_range_meters":14000,"station_id":"ce4bhch2rcd13ifvqeug","pricing_plan_id":"cebpf4jnsgd1na2vs0mg"},