{"last_updated":1736327370,"ttl":60,"version":"2.2","data":{"bikes":[{"bike_id":"89421f62-06fd-4b68-bcb1-b94fd7ea6d26","system_id":"levelo_inurba_marseille","lat":43.32364,"lon":5.38908,"is_reserved":false,"is_disabled":false,"rental_uris":{"android":"levelo://app?vid=89421f62-06fd-4b68-bcb1-b94fd7ea6d26","ios":"levelo://app?vid=89421f62-06fd-4b68-bcb1-b94fd7ea6d26"},"vehicle_type_id":"4","last_reported":1736327371,"current_range_meters":18000,"station_id":"ce4bhqp2rcd13ifvqhog","pricing_plan_id":"cebpf4jnsgd1na2vs0mg"},{"bike_id":"19aa1d25-f781-496a-bbb9-147e19783b08","system_id":"levelo_inurba_marseille","lat":43.29545,"lon":5.42282,"is_reserved":false,"is_disabled":false,"rental_uris":{"android":"levelo://app?vid=19aa1d25-f781-496a-bbb9-147e19783b08","ios":"levelo://app?vid=19aa1d25-f781-496a-bbb9-147e19783b08"},"vehicle_type_id":"4","last_reported":1736327371,"current_range_meters":37600,"station_id":"ce4bhph2rcd13ifvqhdg","pricing_plan_id":"cebpf4jnsgd1na2vs0mg"},{"bike_id":"f98d5c26-fc14-42dd-adca-41d68eb164ac","system_id":"levelo_inurba_marseille","lat":43.24071,"lon":5.37752,"is_reserved":false,"is_disabled":false,"rental_uris":{"android":"levelo://app?vid=f98d5c26-fc14-42dd-adca-41d68eb164ac","ios":"levelo://app?vid=f98d5c26-fc14-42dd-adca-41d68eb164ac"},"vehicle_type_id":"4","last_reported":1736327371,"current_range_meters":17200,"station_id":"ce4bhnp2rcd13ifvqgvg","pricing_plan_id":"cebpf4jnsgd1na2vs0mg"},{"bike_id":"48b35edd-d2d3-4a1d-aa70-60d28d9fffe5","system_id":"levelo_inurba_marseille","lat":43.30313,"lon":5.36905,"is_reserved":false,"is_disabled":true,"rental_uris":{"android":"levelo://app?vid=48b35edd-d2d3-4a1d-aa70-60d28d9fffe5","ios":"levelo://app?vid=48b35edd-d2d3-4a1d-aa70-60d28d9fffe5"},"vehicle_type_id":"4","last_reported":1736327371,"current_range_meters":1600,"station_id":"ce4bgqh2rcd13ifvqc5g","pricing_plan_id":"cebpf4jnsgd1na2vs0mg"},{"bike_id":"8fcb09d7-adbd-442f-8abe-4829f0288e18","system_id":"levelo_inurba_marseille","lat":43.23151,"lon":5.43715,"is_reserved":false,"is_disabled":true,"rental_uris":{"android":"levelo://app?vid=8fcb09d7-adbd-442f-8abe-4829f0288e18","ios":"levelo://app?vid=8fcb09d7-adbd-442f-8abe-4829f0288e18"},"vehicle_type_id":"4","last_reported":1736327371,"current_range_meters":2000,"station_id":"ce4bhmp2rcd13ifvqgog","pricing_plan_id":"cebpf4jnsgd1na2vs0mg"},{"bike_id":"cbb08560-dd28-41f8-bfe9-675b1b5cc4d9","system_id":"levelo_inurba_marseille","lat":43.26952,"lon":5.38623,"is_reserved":false,"is_disabled":false,"rental_uris":{"android":"levelo://app?vid=cbb08560-dd28-41f8-bfe9-675b1b5cc4d9","ios":"levelo://app?vid=cbb08560-dd28-41f8-bfe9-675b1b5cc4d9"},"vehicle_type_id":"4","last_reported":1736327371,"current_range_meters":18000,"station_id":"ce4bhh92rcd13ifvqfh0","pricing_plan_id":"cebpf4jnsgd1na2vs0mg"},{"bike_id":"f065f7d9-a8ce-4520-8997-39d76473d5d9","system_id":"levelo_inurba_marseille","lat":43.29575,"lon":5.37727,"is_reserved":false,"is_disabled":false,"rental_uris":{"android":"levelo://app?vid=f065f7d9-a8ce-4520-8997-39d76473d5d9","ios":"levelo://app?vid=f065f7d9-a8ce-4520-8997-39d76473d5d9"},"vehicle_type_id":"4","last_reported":1736327371,"current_range_meters":22000,"station_id":"","pricing_plan_id":"cebpf4jnsgd1na2vs0mg"},{"bike_id":"a289fb1b-5f21-48af-a806-ce60b8382da2","system_id":"levelo_inurba_marseille","lat":43.22914,"lon":5.35405,"is_reserved":false,"is_disabled":false,"rental_uris":{"android":"levelo://app?vid=a289fb1b-5f21-48af-a806-ce60b8382da2","ios":"levelo://app?vid=a289fb1b-5f21-48af-a806-ce60b8382da2"},"vehicle_type_id":"4","last_reported":1736327371,"current_range_meters":6400,"station_id":"cpo3532slgdg3j2ikp40","pricing_plan_id":"cebpf4jnsgd1na2vs0mg"},{"bike_id":"55d08fde-ac2b-4230-9985-be7440636dea","system_id":"levelo_inurba_marseille","lat":43.27488,"lon":5.42463,"is_reserved":false,"is_disabled":false,"rental_uris":{"android":"levelo://app?vid=55d08fde-ac2b-4230-9985-be7440636dea","ios":"levelo://app?vid=55d08fde-ac2b-4230-9985-be7440636dea"},"vehicle_type_id":"4","last_reported":1736327371,"current_range_meters":23200,"station_id":"ce4bhn92rcd13ifvqgrg","pricing_plan_id":"cebpf4jnsgd1na2vs0mg"},{"bike_id":"0c06f679-85b2-4f8b-8237-3c1bdba6d34d","system_id":"levelo_inurba_marseille","lat":43.27186,"lon":5.41013,"is_reserved":false,"is_disabled":false,"rental_uris":{"android":"levelo://app?vid=0c06f679-85b2-4f8b-8237-3c1bdba6d34d","ios":"levelo://app?vid=0c06f679-85b2-4f8b-8237-3c1bdba6d34d"},"vehicle_type_id":"4","last_reported":1736327371,"current_range_meters":38000,"station_id":"ce4bhl12rcd13ifvqgf0","pricing_plan_id":"cebpf4jnsgd1na2vs0mg"},{"bike_id":"4b29141b-4a03-4076-8d70-de5cc02e29f3","system_id":"levelo_inurba_marseille","lat":43.25839,"lon":5.39415,"is_reserved":false,"is_disabled":true,"rental_uris":{"android":"levelo://app?vid=4b29141b-4a03-4076-8d70-de5cc02e29f3","ios":"levelo://app?vid=4b29141b-4a03-4076-8d70-de5cc02e29f3"},"vehicle_type_id":"4","last_reported":1736327371,"current_range_meters":33200,"station_id":"ce4bhip2rcd13ifvqft0","pricing_plan_id":"cebpf4jnsgd1na2vs0mg"},{"bike_id":"a66a0c9d-3e90-4e2f-a813-6ebdf1b8c770","system_id":"levelo_inurba_marseille","lat":43.33723,"lon":5.39177,"is_reserved":false,"is_disabled":false,"rental_uris":{"android":"levelo://app?vid=a66a0c9d-3e90-4e2f-a813-6ebdf1b8c770","ios":"levelo://app?vid=a66a0c9d-3e90-4e2f-a813-6ebdf1b8c770"},"vehicle_type_id":"4","last_reported":1736327371,"current_range_meters":38000,"station_id":"ce4bhr92rcd13ifvqhsg","pricing_plan_id":"cebpf4jnsgd1na2vs0mg"},{"bike_id":"deb9d35f-eef1-4545-ad5e-e86f1dd16f69","system_id":"levelo_inurba_marseille","lat":43.30278,"lon":5.37703,"is_reserved":false,"is_disabled":false,"rental_uris":{"android":"levelo://app?vid=deb9d35f-eef1-4545-ad5e-e86f1dd16f69","ios":"levelo://app?vid=deb9d35f-eef1-4545-ad5e-e86f1dd16f69"},"vehicle_type_id":"4","last_reported":1736327371,"current_range_meters":36800,"station_id":"ce4bguh2rcd13ifvqcj0","pricing_plan_id":"cebpf4jnsgd1na2vs0mg"},{"bike_id":"2e3020fc-739e-484f-aff1-968aa18f2ac1","system_id":"levelo_inurba_marseille","lat":43.27977,"lon":5.41666,"is_reserved":false,"is_disabled":true,"rental_uris":{"android":"levelo://app?vid=2e3020fc-739e-484f-aff1-968aa18f2ac1","ios":"levelo://app?vid=2e3020fc-739e-484f-aff1-968aa18f2ac1"},"vehicle_type_id":"4","last_reported":1736327371,"current_range_meters":30400,"station_id":"ce4bho12rcd13ifvqh1g","pricing_plan_id":"cebpf4jnsgd1na2vs0mg"},{"bike_id":"dcea8a0c-4dbb-4c3f-bce6-379c8a88a9c4","system_id":"levelo_inurba_marseille","lat":43.29627,"lon":5.40594,"is_reserved":false,"is_disabled":false,"rental_uris":{"android":"levelo://app?vid=dcea8a0c-4dbb-4c3f-bce6-379c8a88a9c4","ios":"levelo://app?vid=dcea8a0c-4dbb-4c3f-bce6-379c8a88a9c4"},"vehicle_type_id":"4","last_reported":1736327371,"current_range_meters":38800,"station_id":"ce4bh0h2rcd13ifvqd60","pricing_plan_id":"cebpf4jnsgd1na2vs0mg"},{"bike_id":"508712e8-c246-4ef4-9b9e-20f18ed4e9a4","system_id":"levelo_inurba_marseille","lat":43.27496,"lon":5.424453,"is_reserved":false,"is_disabled":false,"rental_uris":{"android":"levelo://app?vid=508712e8-c246-4ef4-9b9e-20f18ed4e9a4","ios":"levelo://app?vid=508712e8-c246-4ef4-9b9e-20f18ed4e9a4"},"vehicle_type_id":"4","last_reported":1736327371,"current_range_meters":16400,"station_id":"ce4bhn92rcd13ifvqgrg","pricing_plan_id":"cebpf4jnsgd1na2vs0mg"},{"bike_id":"6e031888-b11e-4c1e-840a-d82dae47ce46","system_id":"levelo_inurba_marseille","lat":43.306,"lon":5.39354,"is_reserved":false,"is_disabled":true,"rental_uris":{"android":"levelo://app?vid=6e031888-b11e-4c1e-840a-d82dae47ce46","ios":"levelo://app?vid=6e031888-b11e-4c1e-840a-d82dae47ce46"},"vehicle_type_id":"4","last_reported":1736327371,"current_range_meters":2000,"station_id":"ce4bh0p2rcd13ifvqd80","pricing_plan_id":"cebpf4jnsgd1na2vs0mg"},{"bike_id":"54706f4d-3807-4316-80c4-c6c99386bb04","system_id":"levelo_inurba_marseille","lat":43.26678,"lon":5.3826,"is_reserved":false,"is_disabled":false,"rental_uris":{"android":"levelo://app?vid=54706f4d-3807-4316-80c4-c6c99386bb04","ios":"levelo://app?vid=54706f4d-3807-4316-80c4-c6c99386bb04"},"vehicle_type_id":"4","last_reported":1736327371,"current_range_meters":31200,"station_id":"ce4bhg92rcd13ifvqf90","pricing_plan_id":"cebpf4jnsgd1na2vs0mg"},{"bike_id":"cac6d88b-d7ac-46a8-bc8b-d11694250484","system_id":"levelo_inurba_marseille","lat":43.28377,"lon":5.38645,"is_reserved":false,"is_disabled":false,"rental_uris":{"android":"levelo://app?vid=cac6d88b-d7ac-46a8-bc8b-d11694250484","ios":"levelo://app?vid=cac6d88b-d7ac-46a8-bc8b-d11694250484"},"vehicle_type_id":"4","last_reported":1736327371,"current_range_meters":38800,"station_id":"ce4bh492rcd13ifvqdvg","pricing_plan_id":"cebpf4jnsgd1na2vs0mg"},{"bike_id":"8b7b03a4-76c0-429d-86c4-2cba528f75db","system_id":"levelo_inurba_marseille","lat":43.32357,"lon":5.389005,"is_reserved":false,"is_disabled":true,"rental_uris":{"android":"levelo://app?vid=8b7b03a4-76c0-429d-86c4-2cba528f75db","ios":"levelo://app?vid=8b7b03a4-76c0-429d-86c4-2cba528f75db"},"vehicle_type_id":"4","last_reported":1736327371,"current_range_meters":800,"station_id":"ce4bhqp2rcd13ifvqhog","pricing_plan_id":"cebpf4jnsgd1na2vs0mg"},{"bike_id":"d4e6248e-5526-47d5-86cf-f46afb735eb2","system_id":"levelo_inurba_marseille","lat":43.27492,"lon":5.42449,"is_reserved":false,"is_disabled":false,"rental_uris":{"android":"levelo://app?vid=d4e6248e-5526-47d5-86cf-f46afb735eb2","ios":"levelo://app?vid=d4e6248e-5526-47d5-86cf-f46afb735eb2"},"vehicle_type_id":"4","last_reported":1736327371,"current_range_meters":30000,"station_id":"ce4bhn92rcd13ifvqgrg","pricing_plan_id":"cebpf4jnsgd1na2vs0mg"},{"bike_id":"e1d67e76-e9ef-43a5-b307-2704c03519b0","system_id":"levelo_inurba_marseille","lat":43.28924,"lon":5.397,"is_reserved":false,"is_disabled":false,"rental_uris":{"android":"levelo://app?vid=e1d67e76-e9ef-43a5-b307-2704c03519b0","ios":"levelo://app?vid=e1d67e76-e9ef-43a5-b307-2704c03519b0"},"vehicle_type_id":"4","last_reported":1736327371,"current_range_meters":17600,"station_id":"","pricing_plan_id":"cebpf4jnsgd1na2vs0mg"},{"bike_id":"3fd8c986-d393-40dd-a28c-67a9ff20b0ca","system_id":"levelo_inurba_marseille","lat":43.30278,"lon":5.37711,"is_reserved":false,"is_disabled":false,"rental_uris":{"android":"levelo://app?vid=3fd8c986-d393-40dd-a28c-67a9ff20b0ca","ios":"levelo://app?vid=3fd8c986-d393-40dd-a28c-67a9ff20b0ca"},"vehicle_type_id":"4","last_reported":1736327371,"current_range_meters":38800,"station_id":"ce4bguh2rcd13ifvqcj0","pricing_plan_id":"cebpf4jnsgd1na2vs0mg"},{"bike_id":"8d65b2b1-927b-45d9-8b22-6f75685ab908","system_id":"levelo_inurba_marseille","lat":43.23139,"lon":5.43733,"is_reserved":false,"is_disabled":false,"rental_uris":{"android":"levelo://app?vid=8d65b2b1-927b-45d9-8b22-6f75685ab908","ios":"levelo://app?vid=8d65b2b1-927b-45d9-8b22-6f75685ab908"},"vehicle_type_id":"4","last_reported":1736327371,"current_range_meters":39200,"station_id":"ce4bhmp2rcd13ifvqgog","pricing_plan_id":"cebpf4jnsgd1na2vs0mg"},{"bike_id":"5dee414e-c252-4db1-a57d-605e2fc00798","system_id":"levelo_inurba_marseille","lat":43.29171,"lon":5.37161,"is_reserved":false,"is_disabled":false,"rental_uris":{"android":"levelo://app?vid=5dee414e-c252-4db1-a57d-605e2fc00798","ios":"levelo://app?vid=5dee414e-c252-4db1-a57d-605e2fc00798"},"vehicle_type_id":"4","last_reported":1736327371,"current_range_meters":25600,"station_id":"ce4bha92rcd13ifvqeh0","pricing_plan_id":"cebpf4jnsgd1na2vs0mg"},{"bike_id":"b07d00a8-6032-4d59-abf5-d2c19c2da952","system_id":"levelo_inurba_marseille","lat":43.31354,"lon":5.36717,"is_reserved":false,"is_disabled":false,"rental_uris":{"android":"levelo://app?vid=b07d00a8-6032-4d59-abf5-d2c19c2da952","ios":"levelo://app?vid=b07d00a8-6032-4d59-abf5-d2c19c2da952"},"vehicle_type_id":"4","last_reported":1736327371,"current_range_meters":11200,"station_id":"ce4bgr92rcd13ifvqc6g","pricing_plan_id":"cebpf4jnsgd1na2vs0mg"},{"bike_id":"74393c54-dc75-44b7-b4a4-b850f960113f","system_id":"levelo_inurba_marseille","lat":43.29263,"lon":5.38438,"is_reserved":false,"is_disabled":false,"rental_uris":{"android":"levelo://app?vid=74393c54-dc75-44b7-b4a4-b850f960113f","ios":"levelo://app?vid=74393c54-dc75-44b7-b4a4-b850f960113f"},"vehicle_type_id":"4","last_reported":1736327371,"current_range_meters":21600,"station_id":"ce4bh692rcd13ifvqea0","pricing_plan_id":"cebpf4jnsgd1na2vs0mg"},{"bike_id":"f8c4877a-beee-4798-92eb-04e9371f94d3","system_id":"levelo_inurba_marseille","lat":43.24399,"lon":5.37034,"is_reserved":false,"is_disabled":false,"rental_uris":{"android":"levelo://app?vid=f8c4877a-beee-4798-92eb-04e9371f94d3","ios":"levelo://app?vid=f8c4877a-beee-4798-92eb-04e9371f94d3"},"vehicle_type_id":"4","last_reported":1736327371,"current_range_meters":38800,"station_id":"ce4bhhh2rcd13ifvqfk0","pricing_plan_id":"cebpf4jnsgd1na2vs0mg"},{"bike_id":"b8f86245-55f5-4b19-b9e8-5d79b051dcff","system_id":"levelo_inurba_marseille","lat":43.28941,"lon":5.39641,"is_reserved":false,"is_disabled":false,"rental_uris":{"android":"levelo://app?vid=b8f86245-55f5-4b19-b9e8-5d79b051dcff","ios":"levelo://app?vid=b8f86245-55f5-4b19-b9e8-5d79b051dcff"},"vehicle_type_id":"4","last_reported":1736327371,"current_range_meters":22400,"station_id":"ce4bh3h2rcd13ifvqdn0","pricing_plan_id":"cebpf4jnsgd1na2vs0mg"},{"bike_id":"d201fd91-b116-47c6-b879-fa489756dca6","system_id":"levelo_inurba_marseille","lat":43.24066,"lon":5.3775,"is_reserved":false,"is_disabled":false,"rental_uris":{"android":"levelo://app?vid=d201fd91-b116-47c6-b879-fa489756dca6","ios":"levelo://app?vid=d201fd91-b116-47c6-b879-fa489756dca6"},"vehicle_type_id":"4","last_reported":1736327371,"current_range_meters":36800,"station_id":"ce4bhnp2rcd13ifvqgvg","pricing_plan_id":"cebpf4jnsgd1na2vs0mg"},{"bike_id":"f5477bd9-ae2b-4f4a-90d2-43e1d2905a20","system_id":"levelo_inurba_marseille","lat":43.284224,"lon":5.34986,"is_reserved":false,"is_disabled":false,"rental_uris":{"android":"levelo://app?vid=f5477bd9-ae2b-4f4a-90d2-43e1d2905a20","ios":"levelo://app?vid=f5477bd9-ae2b-4f4a-90d2-43e1d2905a20"},"vehicle_type_id":"4","last_reported":1736327371,"current_range_meters":19600,"station_id":"ce4bhbh2rcd13ifvqepg","pricing_plan_id":"cebpf4jnsgd1na2vs0mg"},{"bike_id":"9dda8f80-1596-40a0-bec4-6853fbd156a6","system_id":"levelo_inurba_marseille","lat":43.24667,"lon":5.38162,"is_reserved":false,"is_disabled":false,"rental_uris":{"android":"levelo://app?vid=9dda8f80-1596-40a0-bec4-6853fbd156a6","ios":"levelo://app?vid=9dda8f80-1596-40a0-bec4-6853fbd156a6"},"vehicle_type_id":"4","last_reported":1736327371,"current_range_meters":25600,"station_id":"ce4bhih2rcd13ifvqfr0","pricing_plan_id":"cebpf4jnsgd1na2vs0mg"},{"bike_id":"3db76c14-10ba-44c7-9025-9f542d5d4924","system_id":"levelo_inurba_marseille","lat":43.29293,"lon":5.37466,"is_reserved":false,"is_disabled":false,"rental_uris":{"android":"levelo://app?vid=3db76c14-10ba-44c7-9025-9f542d5d4924","ios":"levelo://app?vid=3db76c14-10ba-44c7-9025-9f542d5d4924"},"vehicle_type_id":"4","last_reported":1736327371,"current_range_meters":38800,"station_id":"ce4bgi12rcd13ifvqb70","pricing_plan_id":"cebpf4jnsgd1na2vs0mg"},{"bike_id":"a25a9571-68eb-4f8c-b5c4-11cd6d79579e","system_id":"levelo_inurba_marseille","lat":43.23142,"lon":5.43704,"is_reserved":false,"is_disabled":false,"rental_uris":{"android":"levelo://app?vid=a25a9571-68eb-4f8c-b5c4-11cd6d79579e","ios":"levelo://app?vid=a25a9571-68eb-4f8c-b5c4-11cd6d79579e"},"vehicle_type_id":"4","last_reported":1736327371,"current_range_meters":28400,"station_id":"ce4bhmp2rcd13ifvqgog","pricing_plan_id":"cebpf4jnsgd1na2vs0mg"},{"bike_id":"83d61421-4a96-4675-8cf7-7779890541e6","system_id":"levelo_inurba_marseille","lat":43.31529,"lon":5.38026,"is_reserved":false,"is_disabled":false,"rental_uris":{"android":"levelo://app?vid=83d61421-4a96-4675-8cf7-7779890541e6","ios":"levelo://app?vid=83d61421-4a96-4675-8cf7-7779890541e6"},"vehicle_type_id":"4","last_reported":1736327371,"current_range_meters":38800,"station_id":"ce4bhsp2rcd13ifvqi50","pricing_plan_id":"cebpf4jnsgd1na2vs0mg"},{"bike_id":"3e436db9-f423-4441-8ddd-f48e627696a4","system_id":"levelo_inurba_marseille","lat":43.30538,"lon":5.36561,"is_reserved":false,"is_disabled":false,"rental_uris":{"android":"levelo://app?vid=3e436db9-f423-4441-8ddd-f48e627696a4","ios":"levelo://app?vid=3e436db9-f423-4441-8ddd-f48e627696a4"},"vehicle_type_id":"4","last_reported":1736327371,"current_range_meters":34000,"station_id":"ce4bgs12rcd13ifvqcag","pricing_plan_id":"cebpf4jnsgd1na2vs0mg"},{"bike_id":"c736efc7-bdd4-4760-a57b-96851815e95f","system_id":"levelo_inurba_marseille","lat":43.26489,"lon":5.39596,"is_reserved":false,"is_disabled":true,"rental_uris":{"android":"levelo://app?vid=c736efc7-bdd4-4760-a57b-96851815e95f","ios":"levelo://app?vid=c736efc7-bdd4-4760-a57b-96851815e95f"},"vehicle_type_id":"4","last_reported":1736327371,"current_range_meters":38800,"station_id":"ce4bhi12rcd13ifvqfq0","pricing_plan_id":"cebpf4jnsgd1na2vs0mg"},{"bike_id":"a1ceaab5-cc98-4739-8fba-923512224dcf","system_id":"levelo_inurba_marseille","lat":43.23199,"lon":5.35558,"is_reserved":false,"is_disabled":false,"rental_uris":{"android":"levelo://app?vid=a1ceaab5-cc98-4739-8fba-923512224dcf","ios":"levelo://app?vid=a1ceaab5-cc98-4739-8fba-923512224dcf"},"vehicle_type_id":"4","last_reported":1736327371,"current_range_meters":38800,"station_id":"ce4bhu92rcd13ifvqi70","pricing_plan_id":"cebpf4jnsgd1na2vs0mg"},{"bike_id":"19a2e6e5-2826-4489-8e2c-76dfec5c26a1","system_id":"levelo_inurba_marseille","lat":43.29345,"lon":5.37835,"is_reserved":false,"is_disabled":false,"rental_uris":{"android":"levelo://app?vid=19a2e6e5-2826-4489-8e2c-76dfec5c26a1","ios":"levelo://app?vid=19a2e6e5-2826-4489-8e2c-76dfec5c26a1"},"vehicle_type_id":"4","last_reported":1736327371,"current_range_meters":30000,"station_id":"ce4bgjh2rcd13ifvqbf0","pricing_plan_id":"cebpf4jnsgd1na2vs0mg"},{"bike_id":"a230afbe-d82a-429a-8fc5-4f906e96c1b8","system_id":"levelo_inurba_marseille","lat":43.29098,"lon":5.38143,"is_reserved":false,"is_disabled":false,"rental_uris":{"android":"levelo://app?vid=a230afbe-d82a-429a-8fc5-4f906e96c1b8","ios":"levelo://app?vid=a230afbe-d82a-429a-8fc5-4f906e96c1b8"},"vehicle_type_id":"4","last_reported":1736327371,"current_range_meters":26800,"station_id":"ce4bh512rcd13ifvqe2g","pricing_plan_id":"cebpf4jnsgd1na2vs0mg"},{"bike_id":"670aca15-a0b5-4e9b-9f94-4d512f324a68","system_id":"levelo_inurba_marseille","lat":43.29179,"lon":5.39316,"is_reserved":false,"is_disabled":true,"rental_uris":{"android":"levelo://app?vid=670aca15-a0b5-4e9b-9f94-4d512f324a68","ios":"levelo://app?vid=670aca15-a0b5-4e9b-9f94-4d512f324a68"},"vehicle_type_id":"4","last_reported":1736327371,"current_range_meters":4800,"station_id":"ce4bh192rcd13ifvqdd0","pricing_plan_id":"cebpf4jnsgd1na2vs0mg"},{"bike_id":"1bdf9ea7-9cda-433d-929f-366643850a3b","system_id":"levelo_inurba_marseille","lat":43.2315,"lon":5.43709,"is_reserved":false,"is_disabled":false,"rental_uris":{"android":"levelo://app?vid=1bdf9ea7-9cda-433d-929f-366643850a3b","ios":"levelo://app?vid=1bdf9ea7-9cda-433d-929f-366643850a3b"},"vehicle_type_id":"4","last_reported":1736327371,"current_range_meters":4000,"station_id":"ce4bhmp2rcd13ifvqgog","pricing_plan_id":"cebpf4jnsgd1na2vs0mg"},{"bike_id":"0d869571-702b-474e-9734-e51fa36b8db2","system_id":"levelo_inurba_marseille","lat":43.29174,"lon":5.39341,"is_reserved":false,"is_disabled":true,"rental_uris":{"android":"levelo://app?vid=0d869571-702b-474e-9734-e51fa36b8db2","ios":"levelo://app?vid=0d869571-702b-474e-9734-e51fa36b8db2"},"vehicle_type_id":"4","last_reported":1736327371,"current_range_meters":4400,"station_id":"","pricing_plan_id":"cebpf4jnsgd1na2vs0mg"},{"bike_id":"aac094c1-81e5-48d7-8e08-ccb7b93aa5ea","system_id":"levelo_inurba_marseille","lat":43.2976,"lon":5.37658,"is_reserved":false,"is_disabled":false,"rental_uris":{"android":"levelo://app?vid=aac094c1-81e5-48d7-8e08-ccb7b93aa5ea","ios":"levelo://app?vid=aac094c1-81e5-48d7-8e08-ccb7b93aa5ea"},"vehicle_type_id":"4","last_reported":1736327371,"current_range_meters":31200,"station_id":"ce4bgkh2rcd13ifvqbl0","pricing_plan_id":"cebpf4jnsgd1na2vs0mg"},{"bike_id":"948ec750-a0b2-4307-b653-8885aba7e21e","system_id":"levelo_inurba_marseille","lat":43.33724,"lon":5.39185,"is_reserved":false,"is_disabled":false,"rental_uris":{"android":"levelo://app?vid=948ec750-a0b2-4307-b653-8885aba7e21e","ios":"levelo://app?vid=948ec750-a0b2-4307-b653-8885aba7e21e"},"vehicle_type_id":"4","last_reported":1736327371,"current_range_meters":38800,"station_id":"ce4bhr92rcd13ifvqhsg","pricing_plan_id":"cebpf4jnsgd1na2vs0mg"},{"bike_id":"c276b730-5d31-4ec8-9c89-be9e0b19b00e","system_id":"levelo_inurba_marseille","lat":43.27973,"lon":5.38756,"is_reserved":false,"is_disabled":false,"rental_uris":{"android":"levelo://app?vid=c276b730-5d31-4ec8-9c89-be9e0b19b00e","ios":"levelo://app?vid=c276b730-5d31-4ec8-9c89-be9e0b19b00e"},"vehicle_type_id":"4","last_reported":1736327371,"current_range_meters":10800,"station_id":"ce4bhg12rcd13ifvqf80","pricing_plan_id":"cebpf4jnsgd1na2vs0mg"},{"bike_id":"f5ccc5f6-079e-40fb-8a2d-13909406ac83","system_id":"levelo_inurba_marseille","lat":43.26937,"lon":5.38645,"is_reserved":false,"is_disabled":false,"rental_uris":{"android":"levelo://app?vid=f5ccc5f6-079e-40fb-8a2d-13909406ac83","ios":"levelo://app?vid=f5ccc5f6-079e-40fb-8a2d-13909406ac83"},"vehicle_type_id":"4","last_reported":1736327371,"current_range_meters":20000,"station_id":"ce4bhh92rcd13ifvqfh0","pricing_plan_id":"cebpf4jnsgd1na2vs0mg"},{"bike_id":"89211829-6a20-497c-8e50-7e7d27e11d4c","system_id":"levelo_inurba_marseille","lat":43.28126,"lon":5.42656,"is_reserved":false,"is_disabled":false,"rental_uris":{"android":"levelo://app?vid=89211829-6a20-497c-8e50-7e7d27e11d4c","ios":"levelo://app?vid=89211829-6a20-497c-8e50-7e7d27e11d4c"},"vehicle_type_id":"4","last_reported":1736327371,"current_range_meters":8400,"station_id":"ce4bhnh2rcd13ifvqgug","pricing_plan_id":"cebpf4jnsgd1na2vs0mg"},{"bike_id":"8ad933d2-ec64-410e-b356-311070f7dbbb","system_id":"levelo_inurba_marseille","lat":43.28566,"lon":5.39491,"is_reserved":false,"is_disabled":false,"rental_uris":{"android":"levelo://app?vid=8ad933d2-ec64-410e-b356-311070f7dbbb","ios":"levelo://app?vid=8ad933d2-ec64-410e-b356-311070f7dbbb"},"vehicle_type_id":"4","last_reported":1736327371,"current_range_meters":14400,"station_id":"ce4bh292rcd13ifvqdg0","pricing_plan_id":"cebpf4jnsgd1na2vs0mg"},{"bike_id":"8ffdb1b0-c1ec-4e13-9d1a-2d1f30211d91","system_id":"levelo_inurba_marseille","lat":43.3067,"lon":5.39264,"is_reserved":false,"is_disabled":false,"rental_uris":{"android":"levelo://app?vid=8ffdb1b0-c1ec-4e13-9d1a-2d1f30211d91","ios":"levelo://app?vid=8ffdb1b0-c1ec-4e13-9d1a-2d1f30211d91"},"vehicle_type_id":"4","last_reported":1736327371,"current_range_meters":38800,"station_id":"ce4bh0p2rcd13ifvqd80","pricing_plan_id":"cebpf4jnsgd1na2vs0mg"},{"bike_id":"ac91465c-f04a-4a79-8c64-9eeff5c7e05e","system_id":"levelo_inurba_marseille","lat":43.25082,"lon":5.39519,"is_reserved":false,"is_disabled":false,"rental_uris":{"android":"levelo://app?vid=ac91465c-f04a-4a79-8c64-9eeff5c7e05e","ios":"levelo://app?vid=ac91465c-f04a-4a79-8c64-9eeff5c7e05e"},"vehicle_type_id":"4","last_reported":1736327371,"current_range_meters":35600,"station_id":"ce4bhm12rcd13ifvqgkg","pricing_plan_id":"cebpf4jnsgd1na2vs0mg"},{"bike_id":"45d8c38d-f6d8-403b-8ce3-9f5a1eec15f7","system_id":"levelo_inurba_marseille","lat":43.27484,"lon":5.42464,"is_reserved":false,"is_disabled":false,"rental_uris":{"android":"levelo://app?vid=45d8c38d-f6d8-403b-8ce3-9f5a1eec15f7","ios":"levelo://app?vid=45d8c38d-f6d8-403b-8ce3-9f5a1eec15f7"},"vehicle_type_id":"4","last_reported":1736327371,"current_range_meters":38800,"station_id":"ce4bhn92rcd13ifvqgrg","pricing_plan_id":"cebpf4jnsgd1na2vs0mg"},{"bike_id":"5cf5d467-316b-44fa-8fb8-856da6a44a4c","system_id":"levelo_inurba_marseille","lat":43.26436,"lon":5.40727,"is_reserved":false,"is_disabled":true,"rental_uris":{"android":"levelo://app?vid=5cf5d467-316b-44fa-8fb8-856da6a44a4c","ios":"levelo://app?vid=5cf5d467-316b-44fa-8fb8-856da6a44a4c"},"vehicle_type_id":"4","last_reported":1736327371,"current_range_meters":0,"station_id":"","pricing_plan_id":"cebpf4jnsgd1na2vs0mg"},{"bike_id":"d3223931-0093-411c-bbb1-9586b74e30b4","system_id":"levelo_inurba_marseille","lat":43.27079,"lon":5.42271,"is_reserved":false,"is_disabled":false,"rental_uris":{"android":"levelo://app?vid=d3223931-0093-411c-bbb1-9586b74e30b4","ios":"levelo://app?vid=d3223931-0093-411c-bbb1-9586b74e30b4"},"vehicle_type_id":"4","last_reported":1736327371,"current_range_meters":22400,"station_id":"ce4bhk92rcd13ifvqgb0","pricing_plan_id":"cebpf4jnsgd1na2vs0mg"},{"bike_id":"a8acd766-c8b6-49fa-a448-d51110da8e25","system_id":"levelo_inurba_marseille","lat":43.25107,"lon":5.40322,"is_reserved":false,"is_disabled":false,"rental_uris":{"android":"levelo://app?vid=a8acd766-c8b6-49fa-a448-d51110da8e25","ios":"levelo://app?vid=a8acd766-c8b6-49fa-a448-d51110da8e25"},"vehicle_type_id":"4","last_reported":1736327371,"current_range_meters":17200,"station_id":"ce4bhlh2rcd13ifvqgig","pricing_plan_id":"cebpf4jnsgd1na2vs0mg"},{"bike_id":"eec7a26a-363d-4616-a5da-9de2258d40f5","system_id":"levelo_inurba_marseille","lat":43.24056,"lon":5.37767,"is_reserved":false,"is_disabled":false,"rental_uris":{"android":"levelo://app?vid=eec7a26a-363d-4616-a5da-9de2258d40f5","ios":"levelo://app?vid=eec7a26a-363d-4616-a5da-9de2258d40f5"},"vehicle_type_id":"4","last_reported":1736327371,"current_range_meters":8800,"station_id":"ce4bhnp2rcd13ifvqgvg","pricing_plan_id":"cebpf4jnsgd1na2vs0mg"},{"bike_id":"f5f5c0c3-bf0d-4e89-9bff-89b492f51af6","system_id":"levelo_inurba_marseille","lat":43.24053,"lon":5.37757,"is_reserved":false,"is_disabled":false,"rental_uris":{"android":"levelo://app?vid=f5f5c0c3-bf0d-4e89-9bff-89b492f51af6","ios":"levelo://app?vid=f5f5c0c3-bf0d-4e89-9bff-89b492f51af6"},"vehicle_type_id":"4","last_reported":1736327371,"current_range_meters":38800,"station_id":"ce4bhnp2rcd13ifvqgvg","pricing_plan_id":"cebpf4jnsgd1na2vs0mg"},{"bike_id":"a1092041-779a-4253-8bce-5465f2c69d9c","system_id":"levelo_inurba_marseille","lat":43.28498,"lon":5.38565,"is_reserved":false,"is_disabled":false,"rental_uris":{"android":"levelo://app?vid=a1092041-779a-4253-8bce-5465f2c69d9c","ios":"levelo://app?vid=a1092041-779a-4253-8bce-5465f2c69d9c"},"vehicle_type_id":"4","last_reported":1736327371,"current_range_meters":36400,"station_id":"ce4bh8p2rcd13ifvqeb0","pricing_plan_id":"cebpf4jnsgd1na2vs0mg"},{"bike_id":"840e3f90-17d0-4c94-88a0-c5120c40cdea","system_id":"levelo_inurba_marseille","lat":43.25724,"lon":5.41103,"is_reserved":false,"is_disabled":true,"rental_uris":{"android":"levelo://app?vid=840e3f90-17d0-4c94-88a0-c5120c40cdea","ios":"levelo://app?vid=840e3f90-17d0-4c94-88a0-c5120c40cdea"},"vehicle_type_id":"4","last_reported":1736327371,"current_range_meters":38800,"station_id":"ce4bhkp2rcd13ifvqgd0","pricing_plan_id":"cebpf4jnsgd1na2vs0mg"},{"bike_id":"1bc78c82-74eb-430f-9c54-76623708396a","system_id":"levelo_inurba_marseille","lat":43.26197,"lon":5.37901,"is_reserved":false,"is_disabled":false,"rental_uris":{"android":"levelo://app?vid=1bc78c82-74eb-430f-9c54-76623708396a","ios":"levelo://app?vid=1bc78c82-74eb-430f-9c54-76623708396a"},"vehicle_type_id":"4","last_reported":1736327371,"current_range_meters":22400,"station_id":"ce4bhjp2rcd13ifvqg90","pricing_plan_id":"cebpf4jnsgd1na2vs0mg"},{"bike_id":"3f205333-1375-4776-8495-32be9889d547","system_id":"levelo_inurba_marseille","lat":43.26947,"lon":5.38899,"is_reserved":false,"is_disabled":false,"rental_uris":{"android":"levelo://app?vid=3f205333-1375-4776-8495-32be9889d547","ios":"levelo://app?vid=3f205333-1375-4776-8495-32be9889d547"},"vehicle_type_id":"4","last_reported":1736327371,"current_range_meters":28800,"station_id":"ce4bhhh2rcd13ifvqfl0","pricing_plan_id":"cebpf4jnsgd1na2vs0mg"},{"bike_id":"89ae0453-8e96-4766-9b23-8a0743530aba","system_id":"levelo_inurba_marseille","lat":43.25103,"lon":5.40325,"is_reserved":false,"is_disabled":false,"rental_uris":{"android":"levelo://app?vid=89ae0453-8e96-4766-9b23-8a0743530aba","ios":"levelo://app?vid=89ae0453-8e96-4766-9b23-8a0743530aba"},"vehicle_type_id":"4","last_reported":1736327371,"current_range_meters":30800,"station_id":"ce4bhlh2rcd13ifvqgig","pricing_plan_id":"cebpf4jnsgd1na2vs0mg"},{"bike_id":"69c8b9dd-859b-4507-8bd1-e448b3f99682","system_id":"levelo_inurba_marseille","lat":43.3228,"lon":5.38269,"is_reserved":false,"is_disabled":false,"rental_uris":{"android":"levelo://app?vid=69c8b9dd-859b-4507-8bd1-e448b3f99682","ios":"levelo://app?vid=69c8b9dd-859b-4507-8bd1-e448b3f99682"},"vehicle_type_id":"4","last_reported":1736327371,"current_range_meters":23200,"station_id":"ce4bhr12rcd13ifvqhqg","pricing_plan_id":"cebpf4jnsgd1na2vs0mg"},{"bike_id":"f315f1f6-15a6-45f1-b66d-ebc071343df0","system_id":"levelo_inurba_marseille","lat":43.29374,"lon":5.37861,"is_reserved":false,"is_disabled":true,"rental_uris":{"android":"levelo://app?vid=f315f1f6-15a6-45f1-b66d-ebc071343df0","ios":"levelo://app?vid=f315f1f6-15a6-45f1-b66d-ebc071343df0"},"vehicle_type_id":"4","last_reported":1736327371,"current_range_meters":32400,"station_id":"ce4bgjh2rcd13ifvqbf0","pricing_plan_id":"cebpf4jnsgd1na2vs0mg"},{"bike_id":"514d218d-b1d9-4d7b-9fa0-8ced26e21a3c","system_id":"levelo_inurba_marseille","lat":43.27202,"lon":5.40956,"is_reserved":false,"is_disabled":false,"rental_uris":{"android":"levelo://app?vid=514d218d-b1d9-4d7b-9fa0-8ced26e21a3c","ios":"levelo://app?vid=514d218d-b1d9-4d7b-9fa0-8ced26e21a3c"},"vehicle_type_id":"4","last_reported":1736327371,"current_range_meters":38800,"station_id":"ce4bhl12rcd13ifvqgf0","pricing_plan_id":"cebpf4jnsgd1na2vs0mg"},{"bike_id":"55f986b6-6660-4392-979e-bbb2a40091c0","system_id":"levelo_inurba_marseille","lat":43.304185,"lon":5.412895,"is_reserved":false,"is_disabled":false,"rental_uris":{"android":"levelo://app?vid=55f986b6-6660-4392-979e-bbb2a40091c0","ios":"levelo://app?vid=55f986b6-6660-4392-979e-bbb2a40091c0"},"vehicle_type_id":"4","last_reported":1736327371,"current_range_meters":33600,"station_id":"ce4bhop2rcd13ifvqh8g","pricing_plan_id":"cebpf4jnsgd1na2vs0mg"},{"bike_id":"224a60e5-c52c-48b0-a24b-de7b1b71367c","system_id":"levelo_inurba_marseille","lat":43.31476,"lon":5.37317,"is_reserved":false,"is_disabled":true,"rental_uris":{"android":"levelo://app?vid=224a60e5-c52c-48b0-a24b-de7b1b71367c","ios":"levelo://app?vid=224a60e5-c52c-48b0-a24b-de7b1b71367c"},"vehicle_type_id":"4","last_reported":1736327371,"current_range_meters":8800,"station_id":"ce4bgt12rcd13ifvqcd0","pricing_plan_id":"cebpf4jnsgd1na2vs0mg"},{"bike_id":"8c9f902b-6145-4b29-8893-9f907145c8a9","system_id":"levelo_inurba_marseille","lat":43.2306,"lon":5.35498,"is_reserved":false,"is_disabled":false,"rental_uris":{"android":"levelo://app?vid=8c9f902b-6145-4b29-8893-9f907145c8a9","ios":"levelo://app?vid=8c9f902b-6145-4b29-8893-9f907145c8a9"},"vehicle_type_id":"4","last_reported":1736327371,"current_range_meters":37600,"station_id":"cpo3342slgdg3j2ifvpg","pricing_plan_id":"cebpf4jnsgd1na2vs0mg"},{"bike_id":"c149f94c-e67e-4d82-8d58-defaef1244a4","system_id":"levelo_inurba_marseille","lat":43.24543,"lon":5.39528,"is_reserved":false,"is_disabled":false,"rental_uris":{"android":"levelo://app?vid=c149f94c-e67e-4d82-8d58-defaef1244a4","ios":"levelo://app?vid=c149f94c-e67e-4d82-8d58-defaef1244a4"},"vehicle_type_id":"4","last_reported":1736327371,"current_range_meters":38800,"station_id":"ce4bhlp2rcd13ifvqgjg","pricing_plan_id":"cebpf4jnsgd1na2vs0mg"},{"bike_id":"6a299307-cb31-4701-aff9-d0095ea2acfb","system_id":"levelo_inurba_marseille","lat":43.2315,"lon":5.4373,"is_reserved":false,"is_disabled":false,"rental_uris":{"android":"levelo://app?vid=6a299307-cb31-4701-aff9-d0095ea2acfb","ios":"levelo://app?vid=6a299307-cb31-4701-aff9-d0095ea2acfb"},"vehicle_type_id":"4","last_reported":1736327371,"current_range_meters":20800,"station_id":"ce4bhmp2rcd13ifvqgog","pricing_plan_id":"cebpf4jnsgd1na2vs0mg"},{"bike_id":"ccefbdf4-df27-4947-9b01-eba3707af800","system_id":"levelo_inurba_marseille","lat":43.29537,"lon":5.3856,"is_reserved":false,"is_disabled":true,"rental_uris":{"android":"levelo://app?vid=ccefbdf4-df27-4947-9b01-eba3707af800","ios":"levelo://app?vid=ccefbdf4-df27-4947-9b01-eba3707af800"},"vehicle_type_id":"4","last_reported":1736327371,"current_range_meters":16400,"station_id":"ce4bgih2rcd13ifvqba0","pricing_plan_id":"cebpf4jnsgd1na2vs0mg"},{"bike_id":"ea60edce-76ab-4155-8e79-99022a30bcac","system_id":"levelo_inurba_marseille","lat":43.29546,"lon":5.42302,"is_reserved":false,"is_disabled":false,"rental_uris":{"android":"levelo://app?vid=ea60edce-76ab-4155-8e79-99022a30bcac","ios":"levelo://app?vid=ea60edce-76ab-4155-8e79-99022a30bcac"},"vehicle_type_id":"4","last_reported":1736327371,"current_range_meters":10800,"station_id":"ce4bhph2rcd13ifvqhdg","pricing_plan_id":"cebpf4jnsgd1na2vs0mg"},{"bike_id":"23855dc5-5879-4251-80ba-18b8e1b17b19","system_id":"levelo_inurba_marseille","lat":43.24072,"lon":5.3774,"is_reserved":false,"is_disabled":false,"rental_uris":{"android":"levelo://app?vid=23855dc5-5879-4251-80ba-18b8e1b17b19","ios":"levelo://app?vid=23855dc5-5879-4251-80ba-18b8e1b17b19"},"vehicle_type_id":"4","last_reported":1736327371,"current_range_meters":31200,"station_id":"ce4bhnp2rcd13ifvqgvg","pricing_plan_id":"cebpf4jnsgd1na2vs0mg"},{"bike_id":"6855d861-11a1-47fc-821b-d4f17af77695","system_id":"levelo_inurba_marseille","lat":43.24176,"lon":5.3973,"is_reserved":false,"is_disabled":false,"rental_uris":{"android":"levelo://app?vid=6855d861-11a1-47fc-821b-d4f17af77695","ios":"levelo://app?vid=6855d861-11a1-47fc-821b-d4f17af77695"},"vehicle_type_id":"4","last_reported":1736327371,"current_range_meters":23200,"station_id":"ce4bhn12rcd13ifvqgpg","pricing_plan_id":"cebpf4jnsgd1na2vs0mg"},{"bike_id":"9e3531dc-4d9b-4cb1-96a9-6fe31db2f92e","system_id":"levelo_inurba_marseille","lat":43.30889,"lon":5.37193,"is_reserved":false,"is_disabled":false,"rental_uris":{"android":"levelo://app?vid=9e3531dc-4d9b-4cb1-96a9-6fe31db2f92e","ios":"levelo://app?vid=9e3531dc-4d9b-4cb1-96a9-6fe31db2f92e"},"vehicle_type_id":"4","last_reported":1736327371,"current_range_meters":23200,"station_id":"ce4bguh2rcd13ifvqckg","pricing_plan_id":"cebpf4jnsgd1na2vs0mg"},{"bike_id":"b13965eb-7a3e-487c-8f4f-1d2936af4009","system_id":"levelo_inurba_marseille","lat":43.258216,"lon":5.394318,"is_reserved":false,"is_disabled":false,"rental_uris":{"android":"levelo://app?vid=b13965eb-7a3e-487c-8f4f-1d2936af4009","ios":"levelo://app?vid=b13965eb-7a3e-487c-8f4f-1d2936af4009"},"vehicle_type_id":"4","last_reported":1736327371,"current_range_meters":38800,"station_id":"ce4bhip2rcd13ifvqft0","pricing_plan_id":"cebpf4jnsgd1na2vs0mg"},{"bike_id":"304884a8-edbb-4b51-8422-42a9e30f1931","system_id":"levelo_inurba_marseille","lat":43.2406,"lon":5.37765,"is_reserved":false,"is_disabled":true,"rental_uris":{"android":"levelo://app?vid=304884a8-edbb-4b51-8422-42a9e30f1931","ios":"levelo://app?vid=304884a8-edbb-4b51-8422-42a9e30f1931"},"vehicle_type_id":"4","last_reported":1736327371,"current_range_meters":2000,"station_id":"ce4bhnp2rcd13ifvqgvg","pricing_plan_id":"cebpf4jnsgd1na2vs0mg"},{"bike_id":"3ad0f3ed-1061-459e-b238-515ecfd1abd9","system_id":"levelo_inurba_marseille","lat":43.307764,"lon":5.376571,"is_reserved":false,"is_disabled":false,"rental_uris":{"android":"levelo://app?vid=3ad0f3ed-1061-459e-b238-515ecfd1abd9","ios":"levelo://app?vid=3ad0f3ed-1061-459e-b238-515ecfd1abd9"},"vehicle_type_id":"4","last_reported":1736327371,"current_range_meters":38400,"station_id":"ce4bgv92rcd13ifvqcq0","pricing_plan_id":"cebpf4jnsgd1na2vs0mg"},{"bike_id":"637c9e25-6ec5-4d5c-9ec9-ed6c73dcb821","system_id":"levelo_inurba_marseille","lat":43.31657,"lon":5.37816,"is_reserved":false,"is_disabled":false,"rental_uris":{"android":"levelo://app?vid=637c9e25-6ec5-4d5c-9ec9-ed6c73dcb821","ios":"levelo://app?vid=637c9e25-6ec5-4d5c-9ec9-ed6c73dcb821"},"vehicle_type_id":"4","last_reported":1736327371,"current_range_meters":32000,"station_id":"","pricing_plan_id":"cebpf4jnsgd1na2vs0mg"},{"bike_id":"8c6e351c-0361-48f3-a409-0c5834f3f005","system_id":"levelo_inurba_marseille","lat":43.23131,"lon":5.43717,"is_reserved":false,"is_disabled":true,"rental_uris":{"android":"levelo://app?vid=8c6e351c-0361-48f3-a409-0c5834f3f005","ios":"levelo://app?vid=8c6e351c-0361-48f3-a409-0c5834f3f005"},"vehicle_type_id":"4","last_reported":1736327371,"current_range_meters":24800,"station_id":"ce4bhmp2rcd13ifvqgog","pricing_plan_id":"cebpf4jnsgd1na2vs0mg"},{"bike_id":"646ad428-5beb-4ebe-b6b8-2c9e5b9059cc","system_id":"levelo_inurba_marseille","lat":43.30277,"lon":5.39219,"is_reserved":false,"is_disabled":false,"rental_uris":{"android":"levelo://app?vid=646ad428-5beb-4ebe-b6b8-2c9e5b9059cc","ios":"levelo://app?vid=646ad428-5beb-4ebe-b6b8-2c9e5b9059cc"},"vehicle_type_id":"4","last_reported":1736327371,"current_range_meters":21600,"station_id":"ce4bgkh2rcd13ifvqbk0","pricing_plan_id":"cebpf4jnsgd1na2vs0mg"},{"bike_id":"5671a7cc-1094-4b46-906d-b97f733ad9e2","system_id":"levelo_inurba_marseille","lat":43.303198,"lon":5.404395,"is_reserved":false,"is_disabled":true,"rental_uris":{"android":"levelo://app?vid=5671a7cc-1094-4b46-906d-b97f733ad9e2","ios":"levelo://app?vid=5671a7cc-1094-4b46-906d-b97f733ad9e2"},"vehicle_type_id":"4","last_reported":1736327371,"current_range_meters":33200,"station_id":"ce4bh012rcd13ifvqd10","pricing_plan_id":"cebpf4jnsgd1na2vs0mg"},{"bike_id":"e595796a-c7a2-4bc5-9efd-820721cae471","system_id":"levelo_inurba_marseille","lat":43.25926,"lon":5.40917,"is_reserved":false,"is_disabled":false,"rental_uris":{"android":"levelo://app?vid=e595796a-c7a2-4bc5-9efd-820721cae471","ios":"levelo://app?vid=e595796a-c7a2-4bc5-9efd-820721cae471"},"vehicle_type_id":"4","last_reported":1736327371,"current_range_meters":37600,"station_id":"ce4bhm92rcd13ifvqglg","pricing_plan_id":"cebpf4jnsgd1na2vs0mg"},{"bike_id":"013091b2-da9b-4660-95cc-06e55ec64952","system_id":"levelo_inurba_marseille","lat":43.25066,"lon":5.3953,"is_reserved":false,"is_disabled":false,"rental_uris":{"android":"levelo://app?vid=013091b2-da9b-4660-95cc-06e55ec64952","ios":"levelo://app?vid=013091b2-da9b-4660-95cc-06e55ec64952"},"vehicle_type_id":"4","last_reported":1736327371,"current_range_meters":16400,"station_id":"ce4bhm12rcd13ifvqgkg","pricing_plan_id":"cebpf4jnsgd1na2vs0mg"},{"bike_id":"005c2044-0c78-410b-b1cd-e1e9feaa0e05","system_id":"levelo_inurba_marseille","lat":43.23962,"lon":5.36623,"is_reserved":false,"is_disabled":false,"rental_uris":{"android":"levelo://app?vid=005c2044-0c78-410b-b1cd-e1e9feaa0e05","ios":"levelo://app?vid=005c2044-0c78-410b-b1cd-e1e9feaa0e05"},"vehicle_type_id":"4","last_reported":1736327371,"current_range_meters":14000,"station_id":"ce4bhi12rcd13ifvqfp0","pricing_plan_id":"cebpf4jnsgd1na2vs0mg"},{"bike_id":"db190856-6440-4075-89bd-6bb8e507459d","system_id":"levelo_inurba_marseille","lat":43.23954,"lon":5.36632,"is_reserved":false,"is_disabled":false,"rental_uris":{"android":"levelo://app?vid=db190856-6440-4075-89bd-6bb8e507459d","ios":"levelo://app?vid=db190856-6440-4075-89bd-6bb8e507459d"},"vehicle_type_id":"4","last_reported":1736327371,"current_range_meters":9600,"station_id":"ce4bhi12rcd13ifvqfp0","pricing_plan_id":"cebpf4jnsgd1na2vs0mg"},{"bike_id":"9c058318-42bf-43a7-832a-41c9b4c46de4","system_id":"levelo_inurba_marseille","lat":43.29017,"lon":5.39981,"is_reserved":false,"is_disabled":false,"rental_uris":{"android":"levelo://app?vid=9c058318-42bf-43a7-832a-41c9b4c46de4","ios":"levelo://app?vid=9c058318-42bf-43a7-832a-41c9b4c46de4"},"vehicle_type_id":"4","last_reported":1736327371,"current_range_meters":38800,"station_id":"ce4bh392rcd13ifvqdm0","pricing_plan_id":"cebpf4jnsgd1na2vs0mg"},{"bike_id":"6a595de3-0911-46a9-bdbf-4cca5437105e","system_id":"levelo_inurba_marseille","lat":43.23201,"lon":5.35544,"is_reserved":false,"is_disabled":false,"rental_uris":{"android":"levelo://app?vid=6a595de3-0911-46a9-bdbf-4cca5437105e","ios":"levelo://app?vid=6a595de3-0911-46a9-bdbf-4cca5437105e"},"vehicle_type_id":"4","last_reported":1736327371,"current_range_meters":10800,"station_id":"ce4bhu92rcd13ifvqi70","pricing_plan_id":"cebpf4jnsgd1na2vs0mg"},{"bike_id":"641d8acc-50b2-4173-ab23-c70f2a11d28e","system_id":"levelo_inurba_marseille","lat":43.2813,"lon":5.42651,"is_reserved":false,"is_disabled":true,"rental_uris":{"android":"levelo://app?vid=641d8acc-50b2-4173-ab23-c70f2a11d28e","ios":"levelo://app?vid=641d8acc-50b2-4173-ab23-c70f2a11d28e"},"vehicle_type_id":"4","last_reported":1736327371,"current_range_meters":19600,"station_id":"ce4bhnh2rcd13ifvqgug","pricing_plan_id":"cebpf4jnsgd1na2vs0mg"},{"bike_id":"958153da-1ae5-49a7-bd94-e257dc0b3d51","system_id":"levelo_inurba_marseille","lat":43.29618,"lon":5.37698,"is_reserved":false,"is_disabled":false,"rental_uris":{"android":"levelo://app?vid=958153da-1ae5-49a7-bd94-e257dc0b3d51","ios":"levelo://app?vid=958153da-1ae5-49a7-bd94-e257dc0b3d51"},"vehicle_type_id":"4","last_reported":1736327371,"current_range_meters":16800,"station_id":"ce4bgi92rcd13ifvqb90","pricing_plan_id":"cebpf4jnsgd1na2vs0mg"},{"bike_id":"56ecdbed-bf48-477e-840c-df37e51f6d52","system_id":"levelo_inurba_marseille","lat":43.2904,"lon":5.39962,"is_reserved":false,"is_disabled":false,"rental_uris":{"android":"levelo://app?vid=56ecdbed-bf48-477e-840c-df37e51f6d52","ios":"levelo://app?vid=56ecdbed-bf48-477e-840c-df37e51f6d52"},"vehicle_type_id":"4","last_reported":1736327371,"current_range_meters":38800,"station_id":"ce4bh392rcd13ifvqdm0","pricing_plan_id":"cebpf4jnsgd1na2vs0mg"},{"bike_id":"4a309558-80dc-41fc-8d1f-f7f76baadbf6","system_id":"levelo_inurba_marseille","lat":43.29845,"lon":5.36273,"is_reserved":false,"is_disabled":false,"rental_uris":{"android":"levelo://app?vid=4a309558-80dc-41fc-8d1f-f7f76baadbf6","ios":"levelo://app?vid=4a309558-80dc-41fc-8d1f-f7f76baadbf6"},"vehicle_type_id":"4","last_reported":1736327371,"current_range_meters":17200,"station_id":"ce4bgpp2rcd13ifvqc3g","pricing_plan_id":"cebpf4jnsgd1na2vs0mg"},{"bike_id":"d9697bb8-b1e0-405f-a7a8-a19e2df9e468","system_id":"levelo_inurba_marseille","lat":43.305431,"lon":5.367116,"is_reserved":false,"is_disabled":false,"rental_uris":{"android":"levelo://app?vid=d9697bb8-b1e0-405f-a7a8-a19e2df9e468","ios":"levelo://app?vid=d9697bb8-b1e0-405f-a7a8-a19e2df9e468"},"vehicle_type_id":"4","last_reported":1736327371,"current_range_meters":39200,"station_id":"ce4bgrp2rcd13ifvqc9g","pricing_plan_id":"cebpf4jnsgd1na2vs0mg"},{"bike_id":"1ff2a892-b73f-40a7-a84c-01f05f99d395","system_id":"levelo_inurba_marseille","lat":43.29262,"lon":5.38443,"is_reserved":false,"is_disabled":false,"rental_uris":{"android":"levelo://app?vid=1ff2a892-b73f-40a7-a84c-01f05f99d395","ios":"levelo://app?vid=1ff2a892-b73f-40a7-a84c-01f05f99d395"},"vehicle_type_id":"4","last_reported":1736327371,"current_range_meters":35200,"station_id":"ce4bh692rcd13ifvqea0","pricing_plan_id":"cebpf4jnsgd1na2vs0mg"},{"bike_id":"44ab28fa-0b3d-469d-97ff-06319e1159ef","system_id":"levelo_inurba_marseille","lat":43.239594,"lon":5.366438,"is_reserved":false,"is_disabled":false,"rental_uris":{"android":"levelo://app?vid=44ab28fa-0b3d-469d-97ff-06319e1159ef","ios":"levelo://app?vid=44ab28fa-0b3d-469d-97ff-06319e1159ef"},"vehicle_type_id":"4","last_reported":1736327371,"current_range_meters":15200,"station_id":"ce4bhi12rcd13ifvqfp0","pricing_plan_id":"cebpf4jnsgd1na2vs0mg"},{"bike_id":"eb76c646-8adc-409f-b1e6-d1eabb3d2215","system_id":"levelo_inurba_marseille","lat":43.25948,"lon":5.409,"is_reserved":false,"is_disabled":false,"rental_uris":{"android":"levelo://app?vid=eb76c646-8adc-409f-b1e6-d1eabb3d2215","ios":"levelo://app?vid=eb76c646-8adc-409f-b1e6-d1eabb3d2215"},"vehicle_type_id":"4","last_reported":1736327371,"current_range_meters":27200,"station_id":"ce4bhm92rcd13ifvqglg","pricing_plan_id":"cebpf4jnsgd1na2vs0mg"},{"bike_id":"b44cdae0-01a5-4a6a-a5cf-3b1e64163f02","system_id":"levelo_inurba_marseille","lat":43.25111,"lon":5.40323,"is_reserved":false,"is_disabled":false,"rental_uris":{"android":"levelo://app?vid=b44cdae0-01a5-4a6a-a5cf-3b1e64163f02","ios":"levelo://app?vid=b44cdae0-01a5-4a6a-a5cf-3b1e64163f02"},"vehicle_type_id":"4","last_reported":1736327371,"current_range_meters":38800,"station_id":"ce4bhlh2rcd13ifvqgig","pricing_plan_id":"cebpf4jnsgd1na2vs0mg"},{"bike_id":"22c89690-6047-410c-8c13-fe24ba3194e9","system_id":"levelo_inurba_marseille","lat":43.30586,"lon":5.39357,"is_reserved":false,"is_disabled":false,"rental_uris":{"android":"levelo://app?vid=22c89690-6047-410c-8c13-fe24ba3194e9","ios":"levelo://app?vid=22c89690-6047-410c-8c13-fe24ba3194e9"},"vehicle_type_id":"4","last_reported":1736327371,"current_range_meters":39200,"station_id":"ce4bh0p2rcd13ifvqd80","pricing_plan_id":"cebpf4jnsgd1na2vs0mg"},{"bike_id":"0a79eed2-003b-4218-9fdf-f43d76c17e3e","system_id":"levelo_inurba_marseille","lat":43.292991,"lon":5.374633,"is_reserved":false,"is_disabled":true,"rental_uris":{"android":"levelo://app?vid=0a79eed2-003b-4218-9fdf-f43d76c17e3e","ios":"levelo://app?vid=0a79eed2-003b-4218-9fdf-f43d76c17e3e"},"vehicle_type_id":"4","last_reported":1736327371,"current_range_meters":35200,"station_id":"ce4bgi12rcd13ifvqb70","pricing_plan_id":"cebpf4jnsgd1na2vs0mg"},{"bike_id":"6d88bbf0-f428-4bd4-ab8a-2ee8d5e7c74e","system_id":"levelo_inurba_marseille","lat":43.23048,"lon":5.35496,"is_reserved":false,"is_disabled":false,"rental_uris":{"android":"levelo://app?vid=6d88bbf0-f428-4bd4-ab8a-2ee8d5e7c74e","ios":"levelo://app?vid=6d88bbf0-f428-4bd4-ab8a-2ee8d5e7c74e"},"vehicle_type_id":"4","last_reported":1736327371,"current_range_meters":35600,"station_id":"cpo3342slgdg3j2ifvpg","pricing_plan_id":"cebpf4jnsgd1na2vs0mg"},{"bike_id":"0ec3396f-115a-4fe5-8885-ade4094b8066","system_id":"levelo_inurba_marseille","lat":43.299248,"lon":5.374702,"is_reserved":false,"is_disabled":false,"rental_uris":{"android":"levelo://app?vid=0ec3396f-115a-4fe5-8885-ade4094b8066","ios":"levelo://app?vid=0ec3396f-115a-4fe5-8885-ade4094b8066"},"vehicle_type_id":"4","last_reported":1736327371,"current_range_meters":32800,"station_id":"ce4bgjh2rcd13ifvqbg0","pricing_plan_id":"cebpf4jnsgd1na2vs0mg"},{"bike_id":"e3fb05d7-491e-4ca0-bd25-0e9b0619e01a","system_id":"levelo_inurba_marseille","lat":43.26951,"lon":5.38627,"is_reserved":false,"is_disabled":false,"rental_uris":{"android":"levelo://app?vid=e3fb05d7-491e-4ca0-bd25-0e9b0619e01a","ios":"levelo://app?vid=e3fb05d7-491e-4ca0-bd25-0e9b0619e01a"},"vehicle_type_id":"4","last_reported":1736327371,"current_range_meters":36400,"station_id":"ce4bhh92rcd13ifvqfh0","pricing_plan_id":"cebpf4jnsgd1na2vs0mg"},{"bike_id":"5d19cbc2-5f5a-46ee-8f84-8da80bfe76be","system_id":"levelo_inurba_marseille","lat":43.2407,"lon":5.3775,"is_reserved":false,"is_disabled":false,"rental_uris":{"android":"levelo://app?vid=5d19cbc2-5f5a-46ee-8f84-8da80bfe76be","ios":"levelo://app?vid=5d19cbc2-5f5a-46ee-8f84-8da80bfe76be"},"vehicle_type_id":"4","last_reported":1736327371,"current_range_meters":3600,"station_id":"ce4bhnp2rcd13ifvqgvg","pricing_plan_id":"cebpf4jnsgd1na2vs0mg"},{"bike_id":"0d54d3b5-8886-42c2-98f3-02b73817b0be","system_id":"levelo_inurba_marseille","lat":43.31351,"lon":5.36752,"is_reserved":false,"is_disabled":false,"rental_uris":{"android":"levelo://app?vid=0d54d3b5-8886-42c2-98f3-02b73817b0be","ios":"levelo://app?vid=0d54d3b5-8886-42c2-98f3-02b73817b0be"},"vehicle_type_id":"4","last_reported":1736327371,"current_range_meters":28800,"station_id":"ce4bgr92rcd13ifvqc6g","pricing_plan_id":"cebpf4jnsgd1na2vs0mg"},{"bike_id":"768e9c78-d0a3-4809-a132-8653852c97b2","system_id":"levelo_inurba_marseille","lat":43.27498,"lon":5.42448,"is_reserved":false,"is_disabled":false,"rental_uris":{"android":"levelo://app?vid=768e9c78-d0a3-4809-a132-8653852c97b2","ios":"levelo://app?vid=768e9c78-d0a3-4809-a132-8653852c97b2"},"vehicle_type_id":"4","last_reported":1736327371,"current_range_meters":20000,"station_id":"ce4bhn92rcd13ifvqgrg","pricing_plan_id":"cebpf4jnsgd1na2vs0mg"},{"bike_id":"5e106622-1b1d-4d23-8700-bb5b92ae4b6b","system_id":"levelo_inurba_marseille","lat":43.29011,"lon":5.39988,"is_reserved":false,"is_disabled":false,"rental_uris":{"android":"levelo://app?vid=5e106622-1b1d-4d23-8700-bb5b92ae4b6b","ios":"levelo://app?vid=5e106622-1b1d-4d23-8700-bb5b92ae4b6b"},"vehicle_type_id":"4","last_reported":1736327371,"current_range_meters":38800,"station_id":"ce4bh392rcd13ifvqdm0","pricing_plan_id":"cebpf4jnsgd1na2vs0mg"},{"bike_id":"dd298860-2b9d-48e1-81fc-6c3b12d378b4","system_id":"levelo_inurba_marseille","lat":43.31359,"lon":5.38488,"is_reserved":false,"is_disabled":false,"rental_uris":{"android":"levelo://app?vid=dd298860-2b9d-48e1-81fc-6c3b12d378b4","ios":"levelo://app?vid=dd298860-2b9d-48e1-81fc-6c3b12d378b4"},"vehicle_type_id":"4","last_reported":1736327371,"current_range_meters":11200,"station_id":"ce4bgt92rcd13ifvqcf0","pricing_plan_id":"cebpf4jnsgd1na2vs0mg"},{"bike_id":"05171470-9655-4536-889b-43822d7bd8f5","system_id":"levelo_inurba_marseille","lat":43.31273,"lon":5.37387,"is_reserved":false,"is_disabled":false,"rental_uris":{"android":"levelo://app?vid=05171470-9655-4536-889b-43822d7bd8f5","ios":"levelo://app?vid=05171470-9655-4536-889b-43822d7bd8f5"},"vehicle_type_id":"4","last_reported":1736327371,"current_range_meters":10000,"station_id":"","pricing_plan_id":"cebpf4jnsgd1na2vs0mg"},{"bike_id":"aae3be7c-9f84-4d73-acc6-b7f51578fa4e","system_id":"levelo_inurba_marseille","lat":43.24061,"lon":5.37777,"is_reserved":false,"is_disabled":false,"rental_uris":{"android":"levelo://app?vid=aae3be7c-9f84-4d73-acc6-b7f51578fa4e","ios":"levelo://app?vid=aae3be7c-9f84-4d73-acc6-b7f51578fa4e"},"vehicle_type_id":"4","last_reported":1736327371,"current_range_meters":30400,"station_id":"ce4bhnp2rcd13ifvqgvg","pricing_plan_id":"cebpf4jnsgd1na2vs0mg"},{"bike_id":"d0f7f7c9-5d11-43e5-ac3d-598fa4404ec8","system_id":"levelo_inurba_marseille","lat":43.23184,"lon":5.39988,"is_reserved":false,"is_disabled":false,"rental_uris":{"android":"levelo://app?vid=d0f7f7c9-5d11-43e5-ac3d-598fa4404ec8","ios":"levelo://app?vid=d0f7f7c9-5d11-43e5-ac3d-598fa4404ec8"},"vehicle_type_id":"4","last_reported":1736327371,"current_range_meters":18800,"station_id":"ce4bhn12rcd13ifvqgqg","pricing_plan_id":"cebpf4jnsgd1na2vs0mg"},{"bike_id":"dac13373-ea26-4b26-b6ac-4dabd0ff721b","system_id":"levelo_inurba_marseille","lat":43.2937,"lon":5.3785,"is_reserved":false,"is_disabled":false,"rental_uris":{"android":"levelo://app?vid=dac13373-ea26-4b26-b6ac-4dabd0ff721b","ios":"levelo://app?vid=dac13373-ea26-4b26-b6ac-4dabd0ff721b"},"vehicle_type_id":"4","last_reported":1736327371,"current_range_meters":38000,"station_id":"ce4bgjh2rcd13ifvqbf0","pricing_plan_id":"cebpf4jnsgd1na2vs0mg"},{"bike_id":"7e779bb4-a2d8-4631-bebb-225cfe26c2b9","system_id":"levelo_inurba_marseille","lat":43.30463,"lon":5.37913,"is_reserved":false,"is_disabled":false,"rental_uris":{"android":"levelo://app?vid=7e779bb4-a2d8-4631-bebb-225cfe26c2b9","ios":"levelo://app?vid=7e779bb4-a2d8-4631-bebb-225cfe26c2b9"},"vehicle_type_id":"4","last_reported":1736327371,"current_range_meters":30000,"station_id":"ce4bgup2rcd13ifvqcn0","pricing_plan_id":"cebpf4jnsgd1na2vs0mg"},{"bike_id":"1eb8b8fc-0fdf-4440-98ab-d54db1502e51","system_id":"levelo_inurba_marseille","lat":43.30195,"lon":5.36625,"is_reserved":false,"is_disabled":false,"rental_uris":{"android":"levelo://app?vid=1eb8b8fc-0fdf-4440-98ab-d54db1502e51","ios":"levelo://app?vid=1eb8b8fc-0fdf-4440-98ab-d54db1502e51"},"vehicle_type_id":"4","last_reported":1736327371,"current_range_meters":39200,"station_id":"ce4bgrh2rcd13ifvqc8g","pricing_plan_id":"cebpf4jnsgd1na2vs0mg"},{"bike_id":"0d5482e7-f541-412e-a421-0991dca692ea","system_id":"levelo_inurba_marseille","lat":43.31351,"lon":5.36734,"is_reserved":false,"is_disabled":false,"rental_uris":{"android":"levelo://app?vid=0d5482e7-f541-412e-a421-0991dca692ea","ios":"levelo://app?vid=0d5482e7-f541-412e-a421-0991dca692ea"},"vehicle_type_id":"4","last_reported":1736327371,"current_range_meters":12000,"station_id":"ce4bgr92rcd13ifvqc6g","pricing_plan_id":"cebpf4jnsgd1na2vs0mg"},{"bike_id":"257c7a47-4074-4a91-b13c-b76f6fa570cc","system_id":"levelo_inurba_marseille","lat":43.25582,"lon":5.38235,"is_reserved":false,"is_disabled":false,"rental_uris":{"android":"levelo://app?vid=257c7a47-4074-4a91-b13c-b76f6fa570cc","ios":"levelo://app?vid=257c7a47-4074-4a91-b13c-b76f6fa570cc"},"vehicle_type_id":"4","last_reported":1736327371,"current_range_meters":28400,"station_id":"ce4bhih2rcd13ifvqfs0","pricing_plan_id":"cebpf4jnsgd1na2vs0mg"},{"bike_id":"cdfea266-e5fd-4018-a292-1ba3701f72dd","system_id":"levelo_inurba_marseille","lat":43.2549,"lon":5.37654,"is_reserved":false,"is_disabled":false,"rental_uris":{"android":"levelo://app?vid=cdfea266-e5fd-4018-a292-1ba3701f72dd","ios":"levelo://app?vid=cdfea266-e5fd-4018-a292-1ba3701f72dd"},"vehicle_type_id":"4","last_reported":1736327371,"current_range_meters":28400,"station_id":"ce4bhh12rcd13ifvqff0","pricing_plan_id":"cebpf4jnsgd1na2vs0mg"},{"bike_id":"bbe8a3a3-9e19-4b30-b856-f353b5c221a0","system_id":"levelo_inurba_marseille","lat":43.3046,"lon":5.37913,"is_reserved":false,"is_disabled":false,"rental_uris":{"android":"levelo://app?vid=bbe8a3a3-9e19-4b30-b856-f353b5c221a0","ios":"levelo://app?vid=bbe8a3a3-9e19-4b30-b856-f353b5c221a0"},"vehicle_type_id":"4","last_reported":1736327371,"current_range_meters":28800,"station_id":"ce4bgup2rcd13ifvqcn0","pricing_plan_id":"cebpf4jnsgd1na2vs0mg"},{"bike_id":"ebe2855d-10ef-4682-8861-c7f4ec91888f","system_id":"levelo_inurba_marseille","lat":43.337232,"lon":5.391718,"is_reserved":false,"is_disabled":false,"rental_uris":{"android":"levelo://app?vid=ebe2855d-10ef-4682-8861-c7f4ec91888f","ios":"levelo://app?vid=ebe2855d-10ef-4682-8861-c7f4ec91888f"},"vehicle_type_id":"4","last_reported":1736327371,"current_range_meters":32000,"station_id":"ce4bhr92rcd13ifvqhsg","pricing_plan_id":"cebpf4jnsgd1na2vs0mg"},{"bike_id":"6d764b48-ab23-4547-bc62-57d87bd48e24","system_id":"levelo_inurba_marseille","lat":43.26215,"lon":5.37441,"is_reserved":false,"is_disabled":false,"rental_uris":{"android":"levelo://app?vid=6d764b48-ab23-4547-bc62-57d87bd48e24","ios":"levelo://app?vid=6d764b48-ab23-4547-bc62-57d87bd48e24"},"vehicle_type_id":"4","last_reported":1736327371,"current_range_meters":32000,"station_id":"ce4bhgp2rcd13ifvqfc0","pricing_plan_id":"cebpf4jnsgd1na2vs0mg"},{"bike_id":"cf55238d-3e2d-485d-8238-c5609593f49b","system_id":"levelo_inurba_marseille","lat":43.26687,"lon":5.38253,"is_reserved":false,"is_disabled":true,"rental_uris":{"android":"levelo://app?vid=cf55238d-3e2d-485d-8238-c5609593f49b","ios":"levelo://app?vid=cf55238d-3e2d-485d-8238-c5609593f49b"},"vehicle_type_id":"4","last_reported":1736327371,"current_range_meters":22400,"station_id":"ce4bhg92rcd13ifvqf90","pricing_plan_id":"cebpf4jnsgd1na2vs0mg"},{"bike_id":"336be5b4-41be-4c93-8b79-276dcd225506","system_id":"levelo_inurba_marseille","lat":43.29227,"lon":5.3605,"is_reserved":false,"is_disabled":true,"rental_uris":{"android":"levelo://app?vid=336be5b4-41be-4c93-8b79-276dcd225506","ios":"levelo://app?vid=336be5b4-41be-4c93-8b79-276dcd225506"},"vehicle_type_id":"4","last_reported":1736327371,"current_range_meters":27200,"station_id":"ce4bhbh2rcd13ifvqeqg","pricing_plan_id":"cebpf4jnsgd1na2vs0mg"},{"bike_id":"a038acd5-df80-40b0-854d-db4e76ddfe83","system_id":"levelo_inurba_marseille","lat":43.29162,"lon":5.37178,"is_reserved":false,"is_disabled":false,"rental_uris":{"android":"levelo://app?vid=a038acd5-df80-40b0-854d-db4e76ddfe83","ios":"levelo://app?vid=a038acd5-df80-40b0-854d-db4e76ddfe83"},"vehicle_type_id":"4","last_reported":1736327371,"current_range_meters":37600,"station_id":"ce4bha92rcd13ifvqeh0","pricing_plan_id":"cebpf4jnsgd1na2vs0mg"},{"bike_id":"c4ece075-62d8-400a-b873-18850276cf5a","system_id":"levelo_inurba_marseille","lat":43.27933,"lon":5.3872,"is_reserved":false,"is_disabled":false,"rental_uris":{"android":"levelo://app?vid=c4ece075-62d8-400a-b873-18850276cf5a","ios":"levelo://app?vid=c4ece075-62d8-400a-b873-18850276cf5a"},"vehicle_type_id":"4","last_reported":1736327371,"current_range_meters":12400,"station_id":"ce4bhg12rcd13ifvqf80","pricing_plan_id":"cebpf4jnsgd1na2vs0mg"},{"bike_id":"bd7a65c2-9d47-4a77-9109-57459ddf79ea","system_id":"levelo_inurba_marseille","lat":43.33613,"lon":5.40997,"is_reserved":false,"is_disabled":false,"rental_uris":{"android":"levelo://app?vid=bd7a65c2-9d47-4a77-9109-57459ddf79ea","ios":"levelo://app?vid=bd7a65c2-9d47-4a77-9109-57459ddf79ea"},"vehicle_type_id":"4","last_reported":1736327371,"current_range_meters":36800,"station_id":"ce4bhqh2rcd13ifvqhmg","pricing_plan_id":"cebpf4jnsgd1na2vs0mg"},{"bike_id":"d2b56a15-230e-4877-8466-23e461fb8aea","system_id":"levelo_inurba_marseille","lat":43.30544,"lon":5.36533,"is_reserved":false,"is_disabled":false,"rental_uris":{"android":"levelo://app?vid=d2b56a15-230e-4877-8466-23e461fb8aea","ios":"levelo://app?vid=d2b56a15-230e-4877-8466-23e461fb8aea"},"vehicle_type_id":"4","last_reported":1736327371,"current_range_meters":20800,"station_id":"ce4bgs12rcd13ifvqcag","pricing_plan_id":"cebpf4jnsgd1na2vs0mg"},{"bike_id":"39bedfab-5abf-4402-bf7e-cb9f470f945f","system_id":"levelo_inurba_marseille","lat":43.25706,"lon":5.41122,"is_reserved":false,"is_disabled":true,"rental_uris":{"android":"levelo://app?vid=39bedfab-5abf-4402-bf7e-cb9f470f945f","ios":"levelo://app?vid=39bedfab-5abf-4402-bf7e-cb9f470f945f"},"vehicle_type_id":"4","last_reported":1736327371,"current_range_meters":6800,"station_id":"ce4bhkp2rcd13ifvqgd0","pricing_plan_id":"cebpf4jnsgd1na2vs0mg"},{"bike_id":"9535e3a7-5cf3-4d8b-b4c1-a58d434715e2","system_id":"levelo_inurba_marseille","lat":43.26952,"lon":5.38642,"is_reserved":false,"is_disabled":false,"rental_uris":{"android":"levelo://app?vid=9535e3a7-5cf3-4d8b-b4c1-a58d434715e2","ios":"levelo://app?vid=9535e3a7-5cf3-4d8b-b4c1-a58d434715e2"},"vehicle_type_id":"4","last_reported":1736327371,"current_range_meters":20400,"station_id":"ce4bhh92rcd13ifvqfh0","pricing_plan_id":"cebpf4jnsgd1na2vs0mg"},{"bike_id":"03764b0b-92bd-4fb9-b139-d3978bc88178","system_id":"levelo_inurba_marseille","lat":43.30463,"lon":5.37903,"is_reserved":false,"is_disabled":false,"rental_uris":{"android":"levelo://app?vid=03764b0b-92bd-4fb9-b139-d3978bc88178","ios":"levelo://app?vid=03764b0b-92bd-4fb9-b139-d3978bc88178"},"vehicle_type_id":"4","last_reported":1736327371,"current_range_meters":30800,"station_id":"ce4bgup2rcd13ifvqcn0","pricing_plan_id":"cebpf4jnsgd1na2vs0mg"},{"bike_id":"534d5c19-63eb-487b-ba35-7ca0d64394d9","system_id":"levelo_inurba_marseille","lat":43.2706,"lon":5.40254,"is_reserved":false,"is_disabled":false,"rental_uris":{"android":"levelo://app?vid=534d5c19-63eb-487b-ba35-7ca0d64394d9","ios":"levelo://app?vid=534d5c19-63eb-487b-ba35-7ca0d64394d9"},"vehicle_type_id":"4","last_reported":1736327371,"current_range_meters":6800,"station_id":"ce4bhk92rcd13ifvqgc0","pricing_plan_id":"cebpf4jnsgd1na2vs0mg"},{"bike_id":"c9195917-e117-4e90-9956-1cf319725063","system_id":"levelo_inurba_marseille","lat":43.2454,"lon":5.3953,"is_reserved":false,"is_disabled":false,"rental_uris":{"android":"levelo://app?vid=c9195917-e117-4e90-9956-1cf319725063","ios":"levelo://app?vid=c9195917-e117-4e90-9956-1cf319725063"},"vehicle_type_id":"4","last_reported":1736327371,"current_range_meters":18000,"station_id":"ce4bhlp2rcd13ifvqgjg","pricing_plan_id":"cebpf4jnsgd1na2vs0mg"},{"bike_id":"a4dec33a-3574-46ab-bf07-5ce5a74a1fd6","system_id":"levelo_inurba_marseille","lat":43.28599,"lon":5.35121,"is_reserved":false,"is_disabled":false,"rental_uris":{"android":"levelo://app?vid=a4dec33a-3574-46ab-bf07-5ce5a74a1fd6","ios":"levelo://app?vid=a4dec33a-3574-46ab-bf07-5ce5a74a1fd6"},"vehicle_type_id":"4","last_reported":1736327371,"current_range_meters":28000,"station_id":"ce4bhch2rcd13ifvqeug","pricing_plan_id":"cebpf4jnsgd1na2vs0mg"},{"bike_id":"e63f1381-465a-42a4-9983-175aafc43e9d","system_id":"levelo_inurba_marseille","lat":43.23133,"lon":5.43737,"is_reserved":false,"is_disabled":true,"rental_uris":{"android":"levelo://app?vid=e63f1381-465a-42a4-9983-175aafc43e9d","ios":"levelo://app?vid=e63f1381-465a-42a4-9983-175aafc43e9d"},"vehicle_type_id":"4","last_reported":1736327371,"current_range_meters":19600,"station_id":"ce4bhmp2rcd13ifvqgog","pricing_plan_id":"cebpf4jnsgd1na2vs0mg"},{"bike_id":"3af9aed3-600d-41eb-821b-058b9ff7b0d9","system_id":"levelo_inurba_marseille","lat":43.26208,"lon":5.37913,"is_reserved":false,"is_disabled":false,"rental_uris":{"android":"levelo://app?vid=3af9aed3-600d-41eb-821b-058b9ff7b0d9","ios":"levelo://app?vid=3af9aed3-600d-41eb-821b-058b9ff7b0d9"},"vehicle_type_id":"4","last_reported":1736327371,"current_range_meters":38400,"station_id":"ce4bhjp2rcd13ifvqg90","pricing_plan_id":"cebpf4jnsgd1na2vs0mg"},{"bike_id":"4d5d09de-a31a-4eca-8af1-fa854c3b7051","system_id":"levelo_inurba_marseille","lat":43.25922,"lon":5.40926,"is_reserved":false,"is_disabled":true,"rental_uris":{"android":"levelo://app?vid=4d5d09de-a31a-4eca-8af1-fa854c3b7051","ios":"levelo://app?vid=4d5d09de-a31a-4eca-8af1-fa854c3b7051"},"vehicle_type_id":"4","last_reported":1736327371,"current_range_meters":38800,"station_id":"ce4bhm92rcd13ifvqglg","pricing_plan_id":"cebpf4jnsgd1na2vs0mg"},{"bike_id":"39a66161-6256-4a44-9ff8-9ec79f8478c8","system_id":"levelo_inurba_marseille","lat":43.28638,"lon":5.35083,"is_reserved":false,"is_disabled":false,"rental_uris":{"android":"levelo://app?vid=39a66161-6256-4a44-9ff8-9ec79f8478c8","ios":"levelo://app?vid=39a66161-6256-4a44-9ff8-9ec79f8478c8"},"vehicle_type_id":"4","last_reported":1736327371,"current_range_meters":17200,"station_id":"ce4bhch2rcd13ifvqeug","pricing_plan_id":"cebpf4jnsgd1na2vs0mg"},{"bike_id":"ac36773a-f350-4f46-9b3f-0b7d144ab8bf","system_id":"levelo_inurba_marseille","lat":43.29374,"lon":5.37846,"is_reserved":false,"is_disabled":false,"rental_uris":{"android":"levelo://app?vid=ac36773a-f350-4f46-9b3f-0b7d144ab8bf","ios":"levelo://app?vid=ac36773a-f350-4f46-9b3f-0b7d144ab8bf"},"vehicle_type_id":"4","last_reported":1736327371,"current_range_meters":10800,"station_id":"ce4bgjh2rcd13ifvqbf0","pricing_plan_id":"cebpf4jnsgd1na2vs0mg"},{"bike_id":"18e331ea-1f05-47ba-82b6-99d6f4fdbdf2","system_id":"levelo_inurba_marseille","lat":43.28612,"lon":5.35106,"is_reserved":false,"is_disabled":false,"rental_uris":{"android":"levelo://app?vid=18e331ea-1f05-47ba-82b6-99d6f4fdbdf2","ios":"levelo://app?vid=18e331ea-1f05-47ba-82b6-99d6f4fdbdf2"},"vehicle_type_id":"4","last_reported":1736327371,"current_range_meters":22400,"station_id":"ce4bhch2rcd13ifvqeug","pricing_plan_id":"cebpf4jnsgd1na2vs0mg"},{"bike_id":"a0d81ac3-6702-4830-8876-66a7cf6de763","system_id":"levelo_inurba_marseille","lat":43.25585,"lon":5.38254,"is_reserved":false,"is_disabled":false,"rental_uris":{"android":"levelo://app?vid=a0d81ac3-6702-4830-8876-66a7cf6de763","ios":"levelo://app?vid=a0d81ac3-6702-4830-8876-66a7cf6de763"},"vehicle_type_id":"4","last_reported":1736327371,"current_range_meters":31200,"station_id":"ce4bhih2rcd13ifvqfs0","pricing_plan_id":"cebpf4jnsgd1na2vs0mg"},{"bike_id":"da60c4cf-490b-4e60-8141-e8f05bde3cfa","system_id":"levelo_inurba_marseille","lat":43.28611,"lon":5.3513,"is_reserved":false,"is_disabled":true,"rental_uris":{"android":"levelo://app?vid=da60c4cf-490b-4e60-8141-e8f05bde3cfa","ios":"levelo://app?vid=da60c4cf-490b-4e60-8141-e8f05bde3cfa"},"vehicle_type_id":"4","last_reported":1736327371,"current_range_meters":0,"station_id":"ce4bhch2rcd13ifvqeug","pricing_plan_id":"cebpf4jnsgd1na2vs0mg"},{"bike_id":"470a0a7e-dbfe-4326-9489-cedffb503df1","system_id":"levelo_inurba_marseille","lat":43.29269,"lon":5.3845,"is_reserved":false,"is_disabled":false,"rental_uris":{"android":"levelo://app?vid=470a0a7e-dbfe-4326-9489-cedffb503df1","ios":"levelo://app?vid=470a0a7e-dbfe-4326-9489-cedffb503df1"},"vehicle_type_id":"4","last_reported":1736327371,"current_range_meters":4800,"station_id":"ce4bh692rcd13ifvqea0","pricing_plan_id":"cebpf4jnsgd1na2vs0mg"},{"bike_id":"aa33a53e-f806-43a8-ad7e-8e2bd9644426","system_id":"levelo_inurba_marseille","lat":43.32345,"lon":5.40629,"is_reserved":false,"is_disabled":true,"rental_uris":{"android":"levelo://app?vid=aa33a53e-f806-43a8-ad7e-8e2bd9644426","ios":"levelo://app?vid=aa33a53e-f806-43a8-ad7e-8e2bd9644426"},"vehicle_type_id":"4","last_reported":1736327371,"current_range_meters":0,"station_id":"ce4bhq92rcd13ifvqhjg","pricing_plan_id":"cebpf4jnsgd1na2vs0mg"},{"bike_id":"994cddd5-aae2-4220-bf92-969776d84886","system_id":"levelo_inurba_marseille","lat":43.314832,"lon":5.373111,"is_reserved":false,"is_disabled":false,"rental_uris":{"android":"levelo://app?vid=994cddd5-aae2-4220-bf92-969776d84886","ios":"levelo://app?vid=994cddd5-aae2-4220-bf92-969776d84886"},"vehicle_type_id":"4","last_reported":1736327371,"current_range_meters":38800,"station_id":"ce4bgt12rcd13ifvqcd0","pricing_plan_id":"cebpf4jnsgd1na2vs0mg"},{"bike_id":"139d7fee-ba07-4123-ad67-237db0bc1f21","system_id":"levelo_inurba_marseille","lat":43.26946,"lon":5.38624,"is_reserved":false,"is_disabled":false,"rental_uris":{"android":"levelo://app?vid=139d7fee-ba07-4123-ad67-237db0bc1f21","ios":"levelo://app?vid=139d7fee-ba07-4123-ad67-237db0bc1f21"},"vehicle_type_id":"4","last_reported":1736327371,"current_range_meters":29600,"station_id":"ce4bhh92rcd13ifvqfh0","pricing_plan_id":"cebpf4jnsgd1na2vs0mg"},{"bike_id":"9a036d7f-58a4-4dd9-a561-64a6144c1184","system_id":"levelo_inurba_marseille","lat":43.24073,"lon":5.3776,"is_reserved":false,"is_disabled":false,"rental_uris":{"android":"levelo://app?vid=9a036d7f-58a4-4dd9-a561-64a6144c1184","ios":"levelo://app?vid=9a036d7f-58a4-4dd9-a561-64a6144c1184"},"vehicle_type_id":"4","last_reported":1736327371,"current_range_meters":14800,"station_id":"ce4bhnp2rcd13ifvqgvg","pricing_plan_id":"cebpf4jnsgd1na2vs0mg"},{"bike_id":"015df2ec-0dd0-4de1-8244-56462b4571fd","system_id":"levelo_inurba_marseille","lat":43.25799,"lon":5.39446,"is_reserved":false,"is_disabled":false,"rental_uris":{"android":"levelo://app?vid=015df2ec-0dd0-4de1-8244-56462b4571fd","ios":"levelo://app?vid=015df2ec-0dd0-4de1-8244-56462b4571fd"},"vehicle_type_id":"4","last_reported":1736327371,"current_range_meters":12400,"station_id":"ce4bhip2rcd13ifvqft0","pricing_plan_id":"cebpf4jnsgd1na2vs0mg"},{"bike_id":"be457d0e-e951-4c20-92b5-c162743063cd","system_id":"levelo_inurba_marseille","lat":43.33,"lon":5.39065,"is_reserved":false,"is_disabled":false,"rental_uris":{"android":"levelo://app?vid=be457d0e-e951-4c20-92b5-c162743063cd","ios":"levelo://app?vid=be457d0e-e951-4c20-92b5-c162743063cd"},"vehicle_type_id":"4","last_reported":1736327371,"current_range_meters":14400,"station_id":"ce4bhr92rcd13ifvqhrg","pricing_plan_id":"cebpf4jnsgd1na2vs0mg"},{"bike_id":"5a610a92-ec66-4c09-b8f2-d292ab86e791","system_id":"levelo_inurba_marseille","lat":43.30134,"lon":5.374,"is_reserved":false,"is_disabled":true,"rental_uris":{"android":"levelo://app?vid=5a610a92-ec66-4c09-b8f2-d292ab86e791","ios":"levelo://app?vid=5a610a92-ec66-4c09-b8f2-d292ab86e791"},"vehicle_type_id":"4","last_reported":1736327371,"current_range_meters":37600,"station_id":"ce4bgs92rcd13ifvqcc0","pricing_plan_id":"cebpf4jnsgd1na2vs0mg"},{"bike_id":"848a32f2-5334-415d-b217-dfbc39bd34b9","system_id":"levelo_inurba_marseille","lat":43.30798,"lon":5.38046,"is_reserved":false,"is_disabled":true,"rental_uris":{"android":"levelo://app?vid=848a32f2-5334-415d-b217-dfbc39bd34b9","ios":"levelo://app?vid=848a32f2-5334-415d-b217-dfbc39bd34b9"},"vehicle_type_id":"4","last_reported":1736327371,"current_range_meters":0,"station_id":"ce4bgt12rcd13ifvqce0","pricing_plan_id":"cebpf4jnsgd1na2vs0mg"},{"bike_id":"8b42b122-781c-4312-8289-d3e216b3876e","system_id":"levelo_inurba_marseille","lat":43.25937,"lon":5.40908,"is_reserved":false,"is_disabled":false,"rental_uris":{"android":"levelo://app?vid=8b42b122-781c-4312-8289-d3e216b3876e","ios":"levelo://app?vid=8b42b122-781c-4312-8289-d3e216b3876e"},"vehicle_type_id":"4","last_reported":1736327371,"current_range_meters":38800,"station_id":"ce4bhm92rcd13ifvqglg","pricing_plan_id":"cebpf4jnsgd1na2vs0mg"},{"bike_id":"34c9a149-7d1b-4e58-a6b4-17edaa5a6718","system_id":"levelo_inurba_marseille","lat":43.32536,"lon":5.41439,"is_reserved":false,"is_disabled":false,"rental_uris":{"android":"levelo://app?vid=34c9a149-7d1b-4e58-a6b4-17edaa5a6718","ios":"levelo://app?vid=34c9a149-7d1b-4e58-a6b4-17edaa5a6718"},"vehicle_type_id":"4","last_reported":1736327371,"current_range_meters":39200,"station_id":"ce4bhq12rcd13ifvqhhg","pricing_plan_id":"cebpf4jnsgd1na2vs0mg"},{"bike_id":"45976433-508e-4d90-a5fb-7a7f31608f71","system_id":"levelo_inurba_marseille","lat":43.26213,"lon":5.37461,"is_reserved":false,"is_disabled":false,"rental_uris":{"android":"levelo://app?vid=45976433-508e-4d90-a5fb-7a7f31608f71","ios":"levelo://app?vid=45976433-508e-4d90-a5fb-7a7f31608f71"},"vehicle_type_id":"4","last_reported":1736327371,"current_range_meters":35600,"station_id":"ce4bhgp2rcd13ifvqfc0","pricing_plan_id":"cebpf4jnsgd1na2vs0mg"},{"bike_id":"14a4122a-f452-4aae-b18c-712339646710","system_id":"levelo_inurba_marseille","lat":43.32999,"lon":5.39079,"is_reserved":false,"is_disabled":false,"rental_uris":{"android":"levelo://app?vid=14a4122a-f452-4aae-b18c-712339646710","ios":"levelo://app?vid=14a4122a-f452-4aae-b18c-712339646710"},"vehicle_type_id":"4","last_reported":1736327371,"current_range_meters":39200,"station_id":"ce4bhr92rcd13ifvqhrg","pricing_plan_id":"cebpf4jnsgd1na2vs0mg"},{"bike_id":"31fc1b88-f4e1-46ba-b85e-c38872103c84","system_id":"levelo_inurba_marseille","lat":43.27944,"lon":5.38691,"is_reserved":false,"is_disabled":false,"rental_uris":{"android":"levelo://app?vid=31fc1b88-f4e1-46ba-b85e-c38872103c84","ios":"levelo://app?vid=31fc1b88-f4e1-46ba-b85e-c38872103c84"},"vehicle_type_id":"4","last_reported":1736327371,"current_range_meters":2800,"station_id":"","pricing_plan_id":"cebpf4jnsgd1na2vs0mg"},{"bike_id":"1e4b11b9-aef6-4e3d-9c15-1a4a39f3f31a","system_id":"levelo_inurba_marseille","lat":43.2978,"lon":5.38107,"is_reserved":false,"is_disabled":true,"rental_uris":{"android":"levelo://app?vid=1e4b11b9-aef6-4e3d-9c15-1a4a39f3f31a","ios":"levelo://app?vid=1e4b11b9-aef6-4e3d-9c15-1a4a39f3f31a"},"vehicle_type_id":"4","last_reported":1736327371,"current_range_meters":36000,"station_id":"ce4bgip2rcd13ifvqbb0","pricing_plan_id":"cebpf4jnsgd1na2vs0mg"},{"bike_id":"7b786416-a15d-4888-bc83-cebc3c5143fe","system_id":"levelo_inurba_marseille","lat":43.280307,"lon":5.369398,"is_reserved":false,"is_disabled":false,"rental_uris":{"android":"levelo://app?vid=7b786416-a15d-4888-bc83-cebc3c5143fe","ios":"levelo://app?vid=7b786416-a15d-4888-bc83-cebc3c5143fe"},"vehicle_type_id":"4","last_reported":1736327371,"current_range_meters":35600,"station_id":"ce4bha12rcd13ifvqef0","pricing_plan_id":"cebpf4jnsgd1na2vs0mg"},{"bike_id":"5d0570a9-b98a-430f-9098-7ee887c7cfad","system_id":"levelo_inurba_marseille","lat":43.29908,"lon":5.37471,"is_reserved":false,"is_disabled":false,"rental_uris":{"android":"levelo://app?vid=5d0570a9-b98a-430f-9098-7ee887c7cfad","ios":"levelo://app?vid=5d0570a9-b98a-430f-9098-7ee887c7cfad"},"vehicle_type_id":"4","last_reported":1736327371,"current_range_meters":24400,"station_id":"ce4bgjh2rcd13ifvqbg0","pricing_plan_id":"cebpf4jnsgd1na2vs0mg"},{"bike_id":"e5bdb990-8fd8-4d6b-a4be-716d9b355fa0","system_id":"levelo_inurba_marseille","lat":43.33614,"lon":5.41004,"is_reserved":false,"is_disabled":false,"rental_uris":{"android":"levelo://app?vid=e5bdb990-8fd8-4d6b-a4be-716d9b355fa0","ios":"levelo://app?vid=e5bdb990-8fd8-4d6b-a4be-716d9b355fa0"},"vehicle_type_id":"4","last_reported":1736327371,"current_range_meters":38800,"station_id":"ce4bhqh2rcd13ifvqhmg","pricing_plan_id":"cebpf4jnsgd1na2vs0mg"},{"bike_id":"4cd81cd1-fc10-4bfd-a78d-7dc5cffb7b07","system_id":"levelo_inurba_marseille","lat":43.28933,"lon":5.3642,"is_reserved":false,"is_disabled":false,"rental_uris":{"android":"levelo://app?vid=4cd81cd1-fc10-4bfd-a78d-7dc5cffb7b07","ios":"levelo://app?vid=4cd81cd1-fc10-4bfd-a78d-7dc5cffb7b07"},"vehicle_type_id":"4","last_reported":1736327371,"current_range_meters":38000,"station_id":"ce4bhc92rcd13ifvqetg","pricing_plan_id":"cebpf4jnsgd1na2vs0mg"},{"bike_id":"bbf998ea-d252-4590-8711-16d78ff4b07c","system_id":"levelo_inurba_marseille","lat":43.24645,"lon":5.38892,"is_reserved":false,"is_disabled":false,"rental_uris":{"android":"levelo://app?vid=bbf998ea-d252-4590-8711-16d78ff4b07c","ios":"levelo://app?vid=bbf998ea-d252-4590-8711-16d78ff4b07c"},"vehicle_type_id":"4","last_reported":1736327371,"current_range_meters":23200,"station_id":"ce4bhg12rcd13ifvqf60","pricing_plan_id":"cebpf4jnsgd1na2vs0mg"},{"bike_id":"029846ec-4a4b-4a30-bda8-b1a9de2c64fb","system_id":"levelo_inurba_marseille","lat":43.3136,"lon":5.36707,"is_reserved":false,"is_disabled":false,"rental_uris":{"android":"levelo://app?vid=029846ec-4a4b-4a30-bda8-b1a9de2c64fb","ios":"levelo://app?vid=029846ec-4a4b-4a30-bda8-b1a9de2c64fb"},"vehicle_type_id":"4","last_reported":1736327371,"current_range_meters":27600,"station_id":"ce4bgr92rcd13ifvqc6g","pricing_plan_id":"cebpf4jnsgd1na2vs0mg"},{"bike_id":"923074d6-010f-4e55-8918-33d31e71d5a6","system_id":"levelo_inurba_marseille","lat":43.26032,"lon":5.39409,"is_reserved":false,"is_disabled":false,"rental_uris":{"android":"levelo://app?vid=923074d6-010f-4e55-8918-33d31e71d5a6","ios":"levelo://app?vid=923074d6-010f-4e55-8918-33d31e71d5a6"},"vehicle_type_id":"4","last_reported":1736327371,"current_range_meters":14400,"station_id":"ce4bhh92rcd13ifvqfj0","pricing_plan_id":"cebpf4jnsgd1na2vs0mg"},{"bike_id":"7bc8f0e4-c466-459c-8dca-abe08d514bbd","system_id":"levelo_inurba_marseille","lat":43.29795,"lon":5.38099,"is_reserved":false,"is_disabled":false,"rental_uris":{"android":"levelo://app?vid=7bc8f0e4-c466-459c-8dca-abe08d514bbd","ios":"levelo://app?vid=7bc8f0e4-c466-459c-8dca-abe08d514bbd"},"vehicle_type_id":"4","last_reported":1736327371,"current_range_meters":29600,"station_id":"ce4bgip2rcd13ifvqbb0","pricing_plan_id":"cebpf4jnsgd1na2vs0mg"},{"bike_id":"ac378c34-4184-45d2-94fe-9e715bf2795b","system_id":"levelo_inurba_marseille","lat":43.30319,"lon":5.36906,"is_reserved":false,"is_disabled":false,"rental_uris":{"android":"levelo://app?vid=ac378c34-4184-45d2-94fe-9e715bf2795b","ios":"levelo://app?vid=ac378c34-4184-45d2-94fe-9e715bf2795b"},"vehicle_type_id":"4","last_reported":1736327371,"current_range_meters":33600,"station_id":"ce4bgqh2rcd13ifvqc5g","pricing_plan_id":"cebpf4jnsgd1na2vs0mg"},{"bike_id":"fa083e43-657c-4224-8dc3-77b86600b387","system_id":"levelo_inurba_marseille","lat":43.25489,"lon":5.37649,"is_reserved":false,"is_disabled":false,"rental_uris":{"android":"levelo://app?vid=fa083e43-657c-4224-8dc3-77b86600b387","ios":"levelo://app?vid=fa083e43-657c-4224-8dc3-77b86600b387"},"vehicle_type_id":"4","last_reported":1736327371,"current_range_meters":19200,"station_id":"ce4bhh12rcd13ifvqff0","pricing_plan_id":"cebpf4jnsgd1na2vs0mg"},{"bike_id":"d9498735-00f3-48c9-ad13-3d0c9ae00353","system_id":"levelo_inurba_marseille","lat":43.26664,"lon":5.38269,"is_reserved":false,"is_disabled":false,"rental_uris":{"android":"levelo://app?vid=d9498735-00f3-48c9-ad13-3d0c9ae00353","ios":"levelo://app?vid=d9498735-00f3-48c9-ad13-3d0c9ae00353"},"vehicle_type_id":"4","last_reported":1736327371,"current_range_meters":38800,"station_id":"ce4bhg92rcd13ifvqf90","pricing_plan_id":"cebpf4jnsgd1na2vs0mg"},{"bike_id":"bc2873b0-9774-491c-a2de-b95e350f7bdb","system_id":"levelo_inurba_marseille","lat":43.277693,"lon":5.39914,"is_reserved":false,"is_disabled":true,"rental_uris":{"android":"levelo://app?vid=bc2873b0-9774-491c-a2de-b95e350f7bdb","ios":"levelo://app?vid=bc2873b0-9774-491c-a2de-b95e350f7bdb"},"vehicle_type_id":"4","last_reported":1736327371,"current_range_meters":0,"station_id":"","pricing_plan_id":"cebpf4jnsgd1na2vs0mg"},{"bike_id":"d9829386-769b-47b8-9214-63b638d1061f","system_id":"levelo_inurba_marseille","lat":43.26553,"lon":5.3729,"is_reserved":false,"is_disabled":false,"rental_uris":{"android":"levelo://app?vid=d9829386-769b-47b8-9214-63b638d1061f","ios":"levelo://app?vid=d9829386-769b-47b8-9214-63b638d1061f"},"vehicle_type_id":"4","last_reported":1736327371,"current_range_meters":17200,"station_id":"ce4bhg12rcd13ifvqf70","pricing_plan_id":"cebpf4jnsgd1na2vs0mg"},{"bike_id":"74942fe7-3e6e-4a0f-84df-8d76dcc310a7","system_id":"levelo_inurba_marseille","lat":43.29574,"lon":5.42257,"is_reserved":false,"is_disabled":true,"rental_uris":{"android":"levelo://app?vid=74942fe7-3e6e-4a0f-84df-8d76dcc310a7","ios":"levelo://app?vid=74942fe7-3e6e-4a0f-84df-8d76dcc310a7"},"vehicle_type_id":"4","last_reported":1736327371,"current_range_meters":1600,"station_id":"ce4bhph2rcd13ifvqhdg","pricing_plan_id":"cebpf4jnsgd1na2vs0mg"},{"bike_id":"8d9a5384-e476-4093-92b2-6bcfd35b3b0b","system_id":"levelo_inurba_marseille","lat":43.31221,"lon":5.36868,"is_reserved":false,"is_disabled":false,"rental_uris":{"android":"levelo://app?vid=8d9a5384-e476-4093-92b2-6bcfd35b3b0b","ios":"levelo://app?vid=8d9a5384-e476-4093-92b2-6bcfd35b3b0b"},"vehicle_type_id":"4","last_reported":1736327371,"current_range_meters":20000,"station_id":"ce4bgl92rcd13ifvqbq0","pricing_plan_id":"cebpf4jnsgd1na2vs0mg"},{"bike_id":"1e297576-65d7-4d7e-82e0-d872b833f39a","system_id":"levelo_inurba_marseille","lat":43.30863,"lon":5.36843,"is_reserved":false,"is_disabled":true,"rental_uris":{"android":"levelo://app?vid=1e297576-65d7-4d7e-82e0-d872b833f39a","ios":"levelo://app?vid=1e297576-65d7-4d7e-82e0-d872b833f39a"},"vehicle_type_id":"4","last_reported":1736327371,"current_range_meters":20800,"station_id":"ce4bgn92rcd13ifvqbvg","pricing_plan_id":"cebpf4jnsgd1na2vs0mg"},{"bike_id":"2607304d-58d7-43d4-9311-b084ca776d33","system_id":"levelo_inurba_marseille","lat":43.2871,"lon":5.3793,"is_reserved":false,"is_disabled":false,"rental_uris":{"android":"levelo://app?vid=2607304d-58d7-43d4-9311-b084ca776d33","ios":"levelo://app?vid=2607304d-58d7-43d4-9311-b084ca776d33"},"vehicle_type_id":"4","last_reported":1736327371,"current_range_meters":30400,"station_id":"ce4bh9p2rcd13ifvqec0","pricing_plan_id":"cebpf4jnsgd1na2vs0mg"},{"bike_id":"12862326-6e9b-4d25-bff6-7861cc3847bb","system_id":"levelo_inurba_marseille","lat":43.26946,"lon":5.38631,"is_reserved":false,"is_disabled":false,"rental_uris":{"android":"levelo://app?vid=12862326-6e9b-4d25-bff6-7861cc3847bb","ios":"levelo://app?vid=12862326-6e9b-4d25-bff6-7861cc3847bb"},"vehicle_type_id":"4","last_reported":1736327371,"current_range_meters":34800,"station_id":"ce4bhh92rcd13ifvqfh0","pricing_plan_id":"cebpf4jnsgd1na2vs0mg"},{"bike_id":"f3068faf-6ea3-45c0-943e-8f5eb9fecb3c","system_id":"levelo_inurba_marseille","lat":43.23961,"lon":5.36633,"is_reserved":false,"is_disabled":false,"rental_uris":{"android":"levelo://app?vid=f3068faf-6ea3-45c0-943e-8f5eb9fecb3c","ios":"levelo://app?vid=f3068faf-6ea3-45c0-943e-8f5eb9fecb3c"},"vehicle_type_id":"4","last_reported":1736327371,"current_range_meters":33600,"station_id":"ce4bhi12rcd13ifvqfp0","pricing_plan_id":"cebpf4jnsgd1na2vs0mg"},{"bike_id":"e40367b0-c531-4691-bd5b-4322a48cc8cc","system_id":"levelo_inurba_marseille","lat":43.24054,"lon":5.37784,"is_reserved":false,"is_disabled":false,"rental_uris":{"android":"levelo://app?vid=e40367b0-c531-4691-bd5b-4322a48cc8cc","ios":"levelo://app?vid=e40367b0-c531-4691-bd5b-4322a48cc8cc"},"vehicle_type_id":"4","last_reported":1736327371,"current_range_meters":20400,"station_id":"ce4bhnp2rcd13ifvqgvg","pricing_plan_id":"cebpf4jnsgd1na2vs0mg"},{"bike_id":"23a66e3f-8e17-4ad8-b689-a42d7cb5191e","system_id":"levelo_inurba_marseille","lat":43.27845,"lon":5.39254,"is_reserved":false,"is_disabled":true,"rental_uris":{"android":"levelo://app?vid=23a66e3f-8e17-4ad8-b689-a42d7cb5191e","ios":"levelo://app?vid=23a66e3f-8e17-4ad8-b689-a42d7cb5191e"},"vehicle_type_id":"4","last_reported":1736327371,"current_range_meters":1600,"station_id":"","pricing_plan_id":"cebpf4jnsgd1na2vs0mg"},{"bike_id":"2937c8f0-6f06-4c7f-8240-41ad44bc55fa","system_id":"levelo_inurba_marseille","lat":43.231816,"lon":5.399951,"is_reserved":false,"is_disabled":false,"rental_uris":{"android":"levelo://app?vid=2937c8f0-6f06-4c7f-8240-41ad44bc55fa","ios":"levelo://app?vid=2937c8f0-6f06-4c7f-8240-41ad44bc55fa"},"vehicle_type_id":"4","last_reported":1736327371,"current_range_meters":7200,"station_id":"ce4bhn12rcd13ifvqgqg","pricing_plan_id":"cebpf4jnsgd1na2vs0mg"},{"bike_id":"c67f86a7-d1e6-4e2d-a762-5d292001711c","system_id":"levelo_inurba_marseille","lat":43.33015,"lon":5.39048,"is_reserved":false,"is_disabled":false,"rental_uris":{"android":"levelo://app?vid=c67f86a7-d1e6-4e2d-a762-5d292001711c","ios":"levelo://app?vid=c67f86a7-d1e6-4e2d-a762-5d292001711c"},"vehicle_type_id":"4","last_reported":1736327371,"current_range_meters":38400,"station_id":"ce4bhr92rcd13ifvqhrg","pricing_plan_id":"cebpf4jnsgd1na2vs0mg"},{"bike_id":"85790535-b370-4918-b100-b37ee487f26e","system_id":"levelo_inurba_marseille","lat":43.33601,"lon":5.409564,"is_reserved":false,"is_disabled":false,"rental_uris":{"android":"levelo://app?vid=85790535-b370-4918-b100-b37ee487f26e","ios":"levelo://app?vid=85790535-b370-4918-b100-b37ee487f26e"},"vehicle_type_id":"4","last_reported":1736327371,"current_range_meters":20000,"station_id":"","pricing_plan_id":"cebpf4jnsgd1na2vs0mg"},{"bike_id":"83b95573-a132-4230-85ae-63df2fb3316b","system_id":"levelo_inurba_marseille","lat":43.29975,"lon":5.3849,"is_reserved":false,"is_disabled":false,"rental_uris":{"android":"levelo://app?vid=83b95573-a132-4230-85ae-63df2fb3316b","ios":"levelo://app?vid=83b95573-a132-4230-85ae-63df2fb3316b"},"vehicle_type_id":"4","last_reported":1736327371,"current_range_meters":33200,"station_id":"ce4bgj92rcd13ifvqbd0","pricing_plan_id":"cebpf4jnsgd1na2vs0mg"},{"bike_id":"c5f8f22d-3e47-4405-a9fb-74cfce6679cc","system_id":"levelo_inurba_marseille","lat":43.28961,"lon":5.3785,"is_reserved":false,"is_disabled":false,"rental_uris":{"android":"levelo://app?vid=c5f8f22d-3e47-4405-a9fb-74cfce6679cc","ios":"levelo://app?vid=c5f8f22d-3e47-4405-a9fb-74cfce6679cc"},"vehicle_type_id":"4","last_reported":1736327371,"current_range_meters":39200,"station_id":"ce4bh9p2rcd13ifvqed0","pricing_plan_id":"cebpf4jnsgd1na2vs0mg"},{"bike_id":"d014f699-d84d-436b-b3bf-8c059d18ea89","system_id":"levelo_inurba_marseille","lat":43.22925,"lon":5.35372,"is_reserved":false,"is_disabled":false,"rental_uris":{"android":"levelo://app?vid=d014f699-d84d-436b-b3bf-8c059d18ea89","ios":"levelo://app?vid=d014f699-d84d-436b-b3bf-8c059d18ea89"},"vehicle_type_id":"4","last_reported":1736327371,"current_range_meters":4000,"station_id":"cpo3532slgdg3j2ikp40","pricing_plan_id":"cebpf4jnsgd1na2vs0mg"},{"bike_id":"85db0274-aa0a-4f9a-b691-02cfca5d3623","system_id":"levelo_inurba_marseille","lat":43.29828,"lon":5.36298,"is_reserved":false,"is_disabled":false,"rental_uris":{"android":"levelo://app?vid=85db0274-aa0a-4f9a-b691-02cfca5d3623","ios":"levelo://app?vid=85db0274-aa0a-4f9a-b691-02cfca5d3623"},"vehicle_type_id":"4","last_reported":1736327371,"current_range_meters":39200,"station_id":"ce4bgpp2rcd13ifvqc3g","pricing_plan_id":"cebpf4jnsgd1na2vs0mg"},{"bike_id":"2d1fa57e-4380-4051-a662-8a90feb5c43c","system_id":"levelo_inurba_marseille","lat":43.28437,"lon":5.39201,"is_reserved":false,"is_disabled":false,"rental_uris":{"android":"levelo://app?vid=2d1fa57e-4380-4051-a662-8a90feb5c43c","ios":"levelo://app?vid=2d1fa57e-4380-4051-a662-8a90feb5c43c"},"vehicle_type_id":"4","last_reported":1736327371,"current_range_meters":23200,"station_id":"ce4bhoh2rcd13ifvqh5g","pricing_plan_id":"cebpf4jnsgd1na2vs0mg"},{"bike_id":"727adc74-ff95-43c1-ae2c-3d143f397981","system_id":"levelo_inurba_marseille","lat":43.29191,"lon":5.35796,"is_reserved":false,"is_disabled":false,"rental_uris":{"android":"levelo://app?vid=727adc74-ff95-43c1-ae2c-3d143f397981","ios":"levelo://app?vid=727adc74-ff95-43c1-ae2c-3d143f397981"},"vehicle_type_id":"4","last_reported":1736327371,"current_range_meters":37600,"station_id":"ce4bhb12rcd13ifvqel0","pricing_plan_id":"cebpf4jnsgd1na2vs0mg"},{"bike_id":"955387a8-4a47-4691-946f-78754c88504b","system_id":"levelo_inurba_marseille","lat":43.23191,"lon":5.35553,"is_reserved":false,"is_disabled":false,"rental_uris":{"android":"levelo://app?vid=955387a8-4a47-4691-946f-78754c88504b","ios":"levelo://app?vid=955387a8-4a47-4691-946f-78754c88504b"},"vehicle_type_id":"4","last_reported":1736327371,"current_range_meters":33600,"station_id":"ce4bhu92rcd13ifvqi70","pricing_plan_id":"cebpf4jnsgd1na2vs0mg"},{"bike_id":"f949af9a-2683-4ec9-b4bf-168b31b3bcb2","system_id":"levelo_inurba_marseille","lat":43.24629,"lon":5.38918,"is_reserved":false,"is_disabled":false,"rental_uris":{"android":"levelo://app?vid=f949af9a-2683-4ec9-b4bf-168b31b3bcb2","ios":"levelo://app?vid=f949af9a-2683-4ec9-b4bf-168b31b3bcb2"},"vehicle_type_id":"4","last_reported":1736327371,"current_range_meters":12800,"station_id":"ce4bhg12rcd13ifvqf60","pricing_plan_id":"cebpf4jnsgd1na2vs0mg"},{"bike_id":"924cf6cf-e55f-47b8-a215-85149c3ae1eb","system_id":"levelo_inurba_marseille","lat":43.29611,"lon":5.3772,"is_reserved":false,"is_disabled":false,"rental_uris":{"android":"levelo://app?vid=924cf6cf-e55f-47b8-a215-85149c3ae1eb","ios":"levelo://app?vid=924cf6cf-e55f-47b8-a215-85149c3ae1eb"},"vehicle_type_id":"4","last_reported":1736327371,"current_range_meters":30800,"station_id":"ce4bgi92rcd13ifvqb90","pricing_plan_id":"cebpf4jnsgd1na2vs0mg"},{"bike_id":"aa850542-0e89-4864-a06c-1c75e60a736e","system_id":"levelo_inurba_marseille","lat":43.26805,"lon":5.39425,"is_reserved":false,"is_disabled":false,"rental_uris":{"android":"levelo://app?vid=aa850542-0e89-4864-a06c-1c75e60a736e","ios":"levelo://app?vid=aa850542-0e89-4864-a06c-1c75e60a736e"},"vehicle_type_id":"4","last_reported":1736327371,"current_range_meters":30800,"station_id":"ce4bhh12rcd13ifvqfg0","pricing_plan_id":"cebpf4jnsgd1na2vs0mg"},{"bike_id":"bc1bddae-bd10-42d4-8103-93c754584557","system_id":"levelo_inurba_marseille","lat":43.30102,"lon":5.39073,"is_reserved":false,"is_disabled":false,"rental_uris":{"android":"levelo://app?vid=bc1bddae-bd10-42d4-8103-93c754584557","ios":"levelo://app?vid=bc1bddae-bd10-42d4-8103-93c754584557"},"vehicle_type_id":"4","last_reported":1736327371,"current_range_meters":38400,"station_id":"ce4bh192rcd13ifvqdb0","pricing_plan_id":"cebpf4jnsgd1na2vs0mg"},{"bike_id":"bfa48a80-9b65-46cd-b2e8-810ef73b75e8","system_id":"levelo_inurba_marseille","lat":43.29026,"lon":5.39972,"is_reserved":false,"is_disabled":false,"rental_uris":{"android":"levelo://app?vid=bfa48a80-9b65-46cd-b2e8-810ef73b75e8","ios":"levelo://app?vid=bfa48a80-9b65-46cd-b2e8-810ef73b75e8"},"vehicle_type_id":"4","last_reported":1736327371,"current_range_meters":30800,"station_id":"ce4bh392rcd13ifvqdm0","pricing_plan_id":"cebpf4jnsgd1na2vs0mg"},{"bike_id":"a344e607-2212-45d5-b6de-a9033a6aa79f","system_id":"levelo_inurba_marseille","lat":43.26212,"lon":5.37916,"is_reserved":false,"is_disabled":false,"rental_uris":{"android":"levelo://app?vid=a344e607-2212-45d5-b6de-a9033a6aa79f","ios":"levelo://app?vid=a344e607-2212-45d5-b6de-a9033a6aa79f"},"vehicle_type_id":"4","last_reported":1736327371,"current_range_meters":36400,"station_id":"ce4bhjp2rcd13ifvqg90","pricing_plan_id":"cebpf4jnsgd1na2vs0mg"},{"bike_id":"e5bdc656-799c-4b61-9e89-7dbf4d0b6f78","system_id":"levelo_inurba_marseille","lat":43.3059,"lon":5.38445,"is_reserved":false,"is_disabled":false,"rental_uris":{"android":"levelo://app?vid=e5bdc656-799c-4b61-9e89-7dbf4d0b6f78","ios":"levelo://app?vid=e5bdc656-799c-4b61-9e89-7dbf4d0b6f78"},"vehicle_type_id":"4","last_reported":1736327371,"current_range_meters":38800,"station_id":"","pricing_plan_id":"cebpf4jnsgd1na2vs0mg"},{"bike_id":"73369133-d002-437e-a950-674ed971c349","system_id":"levelo_inurba_marseille","lat":43.30096,"lon":5.3909,"is_reserved":false,"is_disabled":false,"rental_uris":{"android":"levelo://app?vid=73369133-d002-437e-a950-674ed971c349","ios":"levelo://app?vid=73369133-d002-437e-a950-674ed971c349"},"vehicle_type_id":"4","last_reported":1736327371,"current_range_meters":24400,"station_id":"ce4bh192rcd13ifvqdb0","pricing_plan_id":"cebpf4jnsgd1na2vs0mg"},{"bike_id":"16b0ab00-8b4f-4f6e-9216-7be0728dd86e","system_id":"levelo_inurba_marseille","lat":43.31351,"lon":5.36717,"is_reserved":false,"is_disabled":false,"rental_uris":{"android":"levelo://app?vid=16b0ab00-8b4f-4f6e-9216-7be0728dd86e","ios":"levelo://app?vid=16b0ab00-8b4f-4f6e-9216-7be0728dd86e"},"vehicle_type_id":"4","last_reported":1736327371,"current_range_meters":4400,"station_id":"ce4bgr92rcd13ifvqc6g","pricing_plan_id":"cebpf4jnsgd1na2vs0mg"},{"bike_id":"4d8933e2-5888-4f6b-80fa-fa70e448ecfe","system_id":"levelo_inurba_marseille","lat":43.24159,"lon":5.364,"is_reserved":false,"is_disabled":false,"rental_uris":{"android":"levelo://app?vid=4d8933e2-5888-4f6b-80fa-fa70e448ecfe","ios":"levelo://app?vid=4d8933e2-5888-4f6b-80fa-fa70e448ecfe"},"vehicle_type_id":"4","last_reported":1736327371,"current_range_meters":20400,"station_id":"cpo36qri1sfpv3e86is0","pricing_plan_id":"cebpf4jnsgd1na2vs0mg"},{"bike_id":"761d165d-f444-4b88-8a90-c1b0c76f3158","system_id":"levelo_inurba_marseille","lat":43.25108,"lon":5.40314,"is_reserved":false,"is_disabled":false,"rental_uris":{"android":"levelo://app?vid=761d165d-f444-4b88-8a90-c1b0c76f3158","ios":"levelo://app?vid=761d165d-f444-4b88-8a90-c1b0c76f3158"},"vehicle_type_id":"4","last_reported":1736327371,"current_range_meters":38000,"station_id":"ce4bhlh2rcd13ifvqgig","pricing_plan_id":"cebpf4jnsgd1na2vs0mg"},{"bike_id":"86da3d96-d145-4bce-b358-ea917de440b6","system_id":"levelo_inurba_marseille","lat":43.29292,"lon":5.37462,"is_reserved":false,"is_disabled":false,"rental_uris":{"android":"levelo://app?vid=86da3d96-d145-4bce-b358-ea917de440b6","ios":"levelo://app?vid=86da3d96-d145-4bce-b358-ea917de440b6"},"vehicle_type_id":"4","last_reported":1736327371,"current_range_meters":36800,"station_id":"ce4bgi12rcd13ifvqb70","pricing_plan_id":"cebpf4jnsgd1na2vs0mg"},{"bike_id":"4a668f30-3ac2-4c09-a676-43b7579d0d95","system_id":"levelo_inurba_marseille","lat":43.28154,"lon":5.42635,"is_reserved":false,"is_disabled":true,"rental_uris":{"android":"levelo://app?vid=4a668f30-3ac2-4c09-a676-43b7579d0d95","ios":"levelo://app?vid=4a668f30-3ac2-4c09-a676-43b7579d0d95"},"vehicle_type_id":"4","last_reported":1736327371,"current_range_meters":37600,"station_id":"ce4bhnh2rcd13ifvqgug","pricing_plan_id":"cebpf4jnsgd1na2vs0mg"},{"bike_id":"75409a45-61ce-4b14-be6b-710007820052","system_id":"levelo_inurba_marseille","lat":43.29883,"lon":5.36225,"is_reserved":false,"is_disabled":false,"rental_uris":{"android":"levelo://app?vid=75409a45-61ce-4b14-be6b-710007820052","ios":"levelo://app?vid=75409a45-61ce-4b14-be6b-710007820052"},"vehicle_type_id":"4","last_reported":1736327371,"current_range_meters":28800,"station_id":"ce4bgpp2rcd13ifvqc3g","pricing_plan_id":"cebpf4jnsgd1na2vs0mg"},{"bike_id":"1a72204e-0b92-4b14-8ab2-15304a4475c5","system_id":"levelo_inurba_marseille","lat":43.29897,"lon":5.43664,"is_reserved":false,"is_disabled":false,"rental_uris":{"android":"levelo://app?vid=1a72204e-0b92-4b14-8ab2-15304a4475c5","ios":"levelo://app?vid=1a72204e-0b92-4b14-8ab2-15304a4475c5"},"vehicle_type_id":"4","last_reported":1736327371,"current_range_meters":18000,"station_id":"ce4bhpp2rcd13ifvqhfg","pricing_plan_id":"cebpf4jnsgd1na2vs0mg"},{"bike_id":"cbffa85f-21da-4f55-8518-83068fef689f","system_id":"levelo_inurba_marseille","lat":43.26689,"lon":5.38275,"is_reserved":false,"is_disabled":true,"rental_uris":{"android":"levelo://app?vid=cbffa85f-21da-4f55-8518-83068fef689f","ios":"levelo://app?vid=cbffa85f-21da-4f55-8518-83068fef689f"},"vehicle_type_id":"4","last_reported":1736327371,"current_range_meters":35600,"station_id":"ce4bhg92rcd13ifvqf90","pricing_plan_id":"cebpf4jnsgd1na2vs0mg"},{"bike_id":"09eef186-38b8-4ef0-a084-8519d0c60e4f","system_id":"levelo_inurba_marseille","lat":43.29015,"lon":5.38123,"is_reserved":false,"is_disabled":false,"rental_uris":{"android":"levelo://app?vid=09eef186-38b8-4ef0-a084-8519d0c60e4f","ios":"levelo://app?vid=09eef186-38b8-4ef0-a084-8519d0c60e4f"},"vehicle_type_id":"4","last_reported":1736327371,"current_range_meters":38800,"station_id":"ce4bh4p2rcd13ifvqe1g","pricing_plan_id":"cebpf4jnsgd1na2vs0mg"},{"bike_id":"76b04e76-a7d5-43f5-a119-bac6fe110b5e","system_id":"levelo_inurba_marseille","lat":43.29794,"lon":5.38083,"is_reserved":false,"is_disabled":false,"rental_uris":{"android":"levelo://app?vid=76b04e76-a7d5-43f5-a119-bac6fe110b5e","ios":"levelo://app?vid=76b04e76-a7d5-43f5-a119-bac6fe110b5e"},"vehicle_type_id":"4","last_reported":1736327371,"current_range_meters":16000,"station_id":"ce4bgip2rcd13ifvqbb0","pricing_plan_id":"cebpf4jnsgd1na2vs0mg"},{"bike_id":"ea768d35-4898-4c4f-ba8e-993735118ed5","system_id":"levelo_inurba_marseille","lat":43.29575,"lon":5.36741,"is_reserved":false,"is_disabled":false,"rental_uris":{"android":"levelo://app?vid=ea768d35-4898-4c4f-ba8e-993735118ed5","ios":"levelo://app?vid=ea768d35-4898-4c4f-ba8e-993735118ed5"},"vehicle_type_id":"4","last_reported":1736327371,"current_range_meters":38800,"station_id":"ce4bgph2rcd13ifvqc2g","pricing_plan_id":"cebpf4jnsgd1na2vs0mg"},{"bike_id":"5bc37f34-a570-4087-afd6-4faaf22dd83e","system_id":"levelo_inurba_marseille","lat":43.325434,"lon":5.41455,"is_reserved":false,"is_disabled":false,"rental_uris":{"android":"levelo://app?vid=5bc37f34-a570-4087-afd6-4faaf22dd83e","ios":"levelo://app?vid=5bc37f34-a570-4087-afd6-4faaf22dd83e"},"vehicle_type_id":"4","last_reported":1736327371,"current_range_meters":33200,"station_id":"ce4bhq12rcd13ifvqhhg","pricing_plan_id":"cebpf4jnsgd1na2vs0mg"},{"bike_id":"d26d2a2b-6b23-4fc3-b931-56527ca935bc","system_id":"levelo_inurba_marseille","lat":43.3177,"lon":5.39007,"is_reserved":false,"is_disabled":false,"rental_uris":{"android":"levelo://app?vid=d26d2a2b-6b23-4fc3-b931-56527ca935bc","ios":"levelo://app?vid=d26d2a2b-6b23-4fc3-b931-56527ca935bc"},"vehicle_type_id":"4","last_reported":1736327371,"current_range_meters":16000,"station_id":"ce4bhqp2rcd13ifvqhng","pricing_plan_id":"cebpf4jnsgd1na2vs0mg"},{"bike_id":"295a4dcf-0b6e-4c11-b779-d48b33f08e0b","system_id":"levelo_inurba_marseille","lat":43.3018,"lon":5.36599,"is_reserved":false,"is_disabled":false,"rental_uris":{"android":"levelo://app?vid=295a4dcf-0b6e-4c11-b779-d48b33f08e0b","ios":"levelo://app?vid=295a4dcf-0b6e-4c11-b779-d48b33f08e0b"},"vehicle_type_id":"4","last_reported":1736327371,"current_range_meters":38800,"station_id":"ce4bgrh2rcd13ifvqc8g","pricing_plan_id":"cebpf4jnsgd1na2vs0mg"},{"bike_id":"ea3f7ffa-01ca-4030-84be-88dbb8d13230","system_id":"levelo_inurba_marseille","lat":43.27478,"lon":5.42467,"is_reserved":false,"is_disabled":false,"rental_uris":{"android":"levelo://app?vid=ea3f7ffa-01ca-4030-84be-88dbb8d13230","ios":"levelo://app?vid=ea3f7ffa-01ca-4030-84be-88dbb8d13230"},"vehicle_type_id":"4","last_reported":1736327371,"current_range_meters":32800,"station_id":"ce4bhn92rcd13ifvqgrg","pricing_plan_id":"cebpf4jnsgd1na2vs0mg"},{"bike_id":"1569853a-3f58-4ae9-8f61-db33ec95dfbc","system_id":"levelo_inurba_marseille","lat":43.3228,"lon":5.38272,"is_reserved":false,"is_disabled":false,"rental_uris":{"android":"levelo://app?vid=1569853a-3f58-4ae9-8f61-db33ec95dfbc","ios":"levelo://app?vid=1569853a-3f58-4ae9-8f61-db33ec95dfbc"},"vehicle_type_id":"4","last_reported":1736327371,"current_range_meters":39200,"station_id":"ce4bhr12rcd13ifvqhqg","pricing_plan_id":"cebpf4jnsgd1na2vs0mg"},{"bike_id":"f2ea6372-b9d9-4d1a-8370-1cf09c6d3f49","system_id":"levelo_inurba_marseille","lat":43.24058,"lon":5.37785,"is_reserved":false,"is_disabled":false,"rental_uris":{"android":"levelo://app?vid=f2ea6372-b9d9-4d1a-8370-1cf09c6d3f49","ios":"levelo://app?vid=f2ea6372-b9d9-4d1a-8370-1cf09c6d3f49"},"vehicle_type_id":"4","last_reported":1736327371,"current_range_meters":4000,"station_id":"ce4bhnp2rcd13ifvqgvg","pricing_plan_id":"cebpf4jnsgd1na2vs0mg"},{"bike_id":"ad5fa59e-3cd9-400e-b6df-20421d65f745","system_id":"levelo_inurba_marseille","lat":43.24071,"lon":5.3776,"is_reserved":false,"is_disabled":true,"rental_uris":{"android":"levelo://app?vid=ad5fa59e-3cd9-400e-b6df-20421d65f745","ios":"levelo://app?vid=ad5fa59e-3cd9-400e-b6df-20421d65f745"},"vehicle_type_id":"4","last_reported":1736327371,"current_range_meters":0,"station_id":"ce4bhnp2rcd13ifvqgvg","pricing_plan_id":"cebpf4jnsgd1na2vs0mg"},{"bike_id":"1eecce4e-e774-4370-9544-6bbcd39b10bc","system_id":"levelo_inurba_marseille","lat":43.31215,"lon":5.36892,"is_reserved":false,"is_disabled":false,"rental_uris":{"android":"levelo://app?vid=1eecce4e-e774-4370-9544-6bbcd39b10bc","ios":"levelo://app?vid=1eecce4e-e774-4370-9544-6bbcd39b10bc"},"vehicle_type_id":"4","last_reported":1736327371,"current_range_meters":38800,"station_id":"ce4bgl92rcd13ifvqbq0","pricing_plan_id":"cebpf4jnsgd1na2vs0mg"},{"bike_id":"f0f170b8-94b1-4968-8b89-52f9e32fa834","system_id":"levelo_inurba_marseille","lat":43.24999,"lon":5.38939,"is_reserved":false,"is_disabled":false,"rental_uris":{"android":"levelo://app?vid=f0f170b8-94b1-4968-8b89-52f9e32fa834","ios":"levelo://app?vid=f0f170b8-94b1-4968-8b89-52f9e32fa834"},"vehicle_type_id":"4","last_reported":1736327371,"current_range_meters":24800,"station_id":"ce4bhgp2rcd13ifvqfd0","pricing_plan_id":"cebpf4jnsgd1na2vs0mg"},{"bike_id":"adb19c5c-da51-4fba-ba32-d2fa6d281586","system_id":"levelo_inurba_marseille","lat":43.27495,"lon":5.42449,"is_reserved":false,"is_disabled":false,"rental_uris":{"android":"levelo://app?vid=adb19c5c-da51-4fba-ba32-d2fa6d281586","ios":"levelo://app?vid=adb19c5c-da51-4fba-ba32-d2fa6d281586"},"vehicle_type_id":"4","last_reported":1736327371,"current_range_meters":28000,"station_id":"ce4bhn92rcd13ifvqgrg","pricing_plan_id":"cebpf4jnsgd1na2vs0mg"},{"bike_id":"304c7b37-1bde-4e18-a904-167256b37599","system_id":"levelo_inurba_marseille","lat":43.27501,"lon":5.42458,"is_reserved":false,"is_disabled":true,"rental_uris":{"android":"levelo://app?vid=304c7b37-1bde-4e18-a904-167256b37599","ios":"levelo://app?vid=304c7b37-1bde-4e18-a904-167256b37599"},"vehicle_type_id":"4","last_reported":1736327371,"current_range_meters":800,"station_id":"ce4bhn92rcd13ifvqgrg","pricing_plan_id":"cebpf4jnsgd1na2vs0mg"},{"bike_id":"8eec2c73-772b-4916-87b4-cb61e870a66e","system_id":"levelo_inurba_marseille","lat":43.30141,"lon":5.37403,"is_reserved":false,"is_disabled":false,"rental_uris":{"android":"levelo://app?vid=8eec2c73-772b-4916-87b4-cb61e870a66e","ios":"levelo://app?vid=8eec2c73-772b-4916-87b4-cb61e870a66e"},"vehicle_type_id":"4","last_reported":1736327371,"current_range_meters":17200,"station_id":"ce4bgs92rcd13ifvqcc0","pricing_plan_id":"cebpf4jnsgd1na2vs0mg"},{"bike_id":"9f1d3216-7725-4600-abc1-82447f7ecac3","system_id":"levelo_inurba_marseille","lat":43.30503,"lon":5.36535,"is_reserved":false,"is_disabled":false,"rental_uris":{"android":"levelo://app?vid=9f1d3216-7725-4600-abc1-82447f7ecac3","ios":"levelo://app?vid=9f1d3216-7725-4600-abc1-82447f7ecac3"},"vehicle_type_id":"4","last_reported":1736327371,"current_range_meters":31200,"station_id":"","pricing_plan_id":"cebpf4jnsgd1na2vs0mg"},{"bike_id":"37ea87f0-e0f9-4069-aafc-1bc88c729171","system_id":"levelo_inurba_marseille","lat":43.33563,"lon":5.41091,"is_reserved":false,"is_disabled":false,"rental_uris":{"android":"levelo://app?vid=37ea87f0-e0f9-4069-aafc-1bc88c729171","ios":"levelo://app?vid=37ea87f0-e0f9-4069-aafc-1bc88c729171"},"vehicle_type_id":"4","last_reported":1736327371,"current_range_meters":28800,"station_id":"","pricing_plan_id":"cebpf4jnsgd1na2vs0mg"},{"bike_id":"50fa1856-32a7-461f-9ce1-2ea42abf61fd","system_id":"levelo_inurba_marseille","lat":43.25938,"lon":5.40909,"is_reserved":false,"is_disabled":false,"rental_uris":{"android":"levelo://app?vid=50fa1856-32a7-461f-9ce1-2ea42abf61fd","ios":"levelo://app?vid=50fa1856-32a7-461f-9ce1-2ea42abf61fd"},"vehicle_type_id":"4","last_reported":1736327371,"current_range_meters":32800,"station_id":"ce4bhm92rcd13ifvqglg","pricing_plan_id":"cebpf4jnsgd1na2vs0mg"},