{"last_updated":1749496093,"ttl":60,"version":"2.2","data":{"bikes":[{"bike_id":"2e647003-1d2d-4142-ac90-bff05fc13542","system_id":"levelo_inurba_marseille","lat":43.2801,"lon":5.41649,"is_reserved":false,"is_disabled":false,"rental_uris":{"android":"levelo://app?vid=2e647003-1d2d-4142-ac90-bff05fc13542","ios":"levelo://app?vid=2e647003-1d2d-4142-ac90-bff05fc13542"},"vehicle_type_id":"4","last_reported":1749496093,"current_range_meters":2800,"station_id":"ce4bho12rcd13ifvqh1g","pricing_plan_id":"cebpf4jnsgd1na2vs0mg"},{"bike_id":"aeef483e-5cf7-4ab2-80be-46afb3f8e76f","system_id":"levelo_inurba_marseille","lat":43.29939,"lon":5.36553,"is_reserved":false,"is_disabled":false,"rental_uris":{"android":"levelo://app?vid=aeef483e-5cf7-4ab2-80be-46afb3f8e76f","ios":"levelo://app?vid=aeef483e-5cf7-4ab2-80be-46afb3f8e76f"},"vehicle_type_id":"4","last_reported":1749496093,"current_range_meters":2800,"station_id":"ce4bgm92rcd13ifvqbr0","pricing_plan_id":"cebpf4jnsgd1na2vs0mg"},{"bike_id":"84a685a2-d5e8-43b0-be4c-0ca8b4a86841","system_id":"levelo_inurba_marseille","lat":43.28145,"lon":5.4265,"is_reserved":false,"is_disabled":false,"rental_uris":{"android":"levelo://app?vid=84a685a2-d5e8-43b0-be4c-0ca8b4a86841","ios":"levelo://app?vid=84a685a2-d5e8-43b0-be4c-0ca8b4a86841"},"vehicle_type_id":"4","last_reported":1749496093,"current_range_meters":2800,"station_id":"ce4bhnh2rcd13ifvqgug","pricing_plan_id":"cebpf4jnsgd1na2vs0mg"},{"bike_id":"4e687346-16de-4ecf-8bf2-3d5b73a3cf9c","system_id":"levelo_inurba_marseille","lat":43.31996,"lon":5.38154,"is_reserved":false,"is_disabled":false,"rental_uris":{"android":"levelo://app?vid=4e687346-16de-4ecf-8bf2-3d5b73a3cf9c","ios":"levelo://app?vid=4e687346-16de-4ecf-8bf2-3d5b73a3cf9c"},"vehicle_type_id":"4","last_reported":1749496093,"current_range_meters":2800,"station_id":"ce4bhr12rcd13ifvqhpg","pricing_plan_id":"cebpf4jnsgd1na2vs0mg"},{"bike_id":"e47ff1b3-84f4-4223-8488-03c55121b410","system_id":"levelo_inurba_marseille","lat":43.3244,"lon":5.43583,"is_reserved":false,"is_disabled":false,"rental_uris":{"android":"levelo://app?vid=e47ff1b3-84f4-4223-8488-03c55121b410","ios":"levelo://app?vid=e47ff1b3-84f4-4223-8488-03c55121b410"},"vehicle_type_id":"4","last_reported":1749496093,"current_range_meters":2800,"station_id":"","pricing_plan_id":"cebpf4jnsgd1na2vs0mg"},{"bike_id":"5cae7341-17bd-45c7-bbb4-6963fcd342bd","system_id":"levelo_inurba_marseille","lat":43.27944,"lon":5.41043,"is_reserved":false,"is_disabled":false,"rental_uris":{"android":"levelo://app?vid=5cae7341-17bd-45c7-bbb4-6963fcd342bd","ios":"levelo://app?vid=5cae7341-17bd-45c7-bbb4-6963fcd342bd"},"vehicle_type_id":"4","last_reported":1749496093,"current_range_meters":3200,"station_id":"ce4bhnp2rcd13ifvqh0g","pricing_plan_id":"cebpf4jnsgd1na2vs0mg"},{"bike_id":"1ea4d901-280f-4050-a043-0b37afe86b03","system_id":"levelo_inurba_marseille","lat":43.211915,"lon":5.350696,"is_reserved":false,"is_disabled":false,"rental_uris":{"android":"levelo://app?vid=1ea4d901-280f-4050-a043-0b37afe86b03","ios":"levelo://app?vid=1ea4d901-280f-4050-a043-0b37afe86b03"},"vehicle_type_id":"4","last_reported":1749496093,"current_range_meters":3600,"station_id":"st_cvj6sg6p6f1abm77japg","pricing_plan_id":"cebpf4jnsgd1na2vs0mg"},{"bike_id":"da977024-9350-43fb-86c9-8f1278d43dbe","system_id":"levelo_inurba_marseille","lat":43.295715,"lon":5.399705,"is_reserved":false,"is_disabled":false,"rental_uris":{"android":"levelo://app?vid=da977024-9350-43fb-86c9-8f1278d43dbe","ios":"levelo://app?vid=da977024-9350-43fb-86c9-8f1278d43dbe"},"vehicle_type_id":"4","last_reported":1749496093,"current_range_meters":3600,"station_id":"ce4bh312rcd13ifvqdj0","pricing_plan_id":"cebpf4jnsgd1na2vs0mg"},{"bike_id":"d1ce804a-e7c0-4693-b1bd-a0eba358422d","system_id":"levelo_inurba_marseille","lat":43.30937,"lon":5.40137,"is_reserved":false,"is_disabled":false,"rental_uris":{"android":"levelo://app?vid=d1ce804a-e7c0-4693-b1bd-a0eba358422d","ios":"levelo://app?vid=d1ce804a-e7c0-4693-b1bd-a0eba358422d"},"vehicle_type_id":"4","last_reported":1749496093,"current_range_meters":3600,"station_id":"ce4bgvp2rcd13ifvqct0","pricing_plan_id":"cebpf4jnsgd1na2vs0mg"},{"bike_id":"2156b122-97ce-48c0-9b08-8117e91a2f90","system_id":"levelo_inurba_marseille","lat":43.29703,"lon":5.37698,"is_reserved":false,"is_disabled":false,"rental_uris":{"android":"levelo://app?vid=2156b122-97ce-48c0-9b08-8117e91a2f90","ios":"levelo://app?vid=2156b122-97ce-48c0-9b08-8117e91a2f90"},"vehicle_type_id":"4","last_reported":1749496093,"current_range_meters":3600,"station_id":"ce4bgkh2rcd13ifvqbl0","pricing_plan_id":"cebpf4jnsgd1na2vs0mg"},{"bike_id":"67d4735d-a812-4e55-90bc-5641f4e35931","system_id":"levelo_inurba_marseille","lat":43.211883,"lon":5.350701,"is_reserved":false,"is_disabled":false,"rental_uris":{"android":"levelo://app?vid=67d4735d-a812-4e55-90bc-5641f4e35931","ios":"levelo://app?vid=67d4735d-a812-4e55-90bc-5641f4e35931"},"vehicle_type_id":"4","last_reported":1749496093,"current_range_meters":4000,"station_id":"st_cvj6sg6p6f1abm77japg","pricing_plan_id":"cebpf4jnsgd1na2vs0mg"},{"bike_id":"4a292ceb-ec59-4800-bdcc-9491fcfc6b3e","system_id":"levelo_inurba_marseille","lat":43.27998,"lon":5.41668,"is_reserved":false,"is_disabled":false,"rental_uris":{"android":"levelo://app?vid=4a292ceb-ec59-4800-bdcc-9491fcfc6b3e","ios":"levelo://app?vid=4a292ceb-ec59-4800-bdcc-9491fcfc6b3e"},"vehicle_type_id":"4","last_reported":1749496093,"current_range_meters":4000,"station_id":"ce4bho12rcd13ifvqh1g","pricing_plan_id":"cebpf4jnsgd1na2vs0mg"},{"bike_id":"76dff3f0-834f-4367-9c95-a64d3e371b8d","system_id":"levelo_inurba_marseille","lat":43.26229,"lon":5.40452,"is_reserved":false,"is_disabled":false,"rental_uris":{"android":"levelo://app?vid=76dff3f0-834f-4367-9c95-a64d3e371b8d","ios":"levelo://app?vid=76dff3f0-834f-4367-9c95-a64d3e371b8d"},"vehicle_type_id":"4","last_reported":1749496093,"current_range_meters":4000,"station_id":"ce4bhmh2rcd13ifvqgmg","pricing_plan_id":"cebpf4jnsgd1na2vs0mg"},{"bike_id":"7b097000-57ca-4453-8e80-2da7937a7a00","system_id":"levelo_inurba_marseille","lat":43.30305,"lon":5.392,"is_reserved":false,"is_disabled":false,"rental_uris":{"android":"levelo://app?vid=7b097000-57ca-4453-8e80-2da7937a7a00","ios":"levelo://app?vid=7b097000-57ca-4453-8e80-2da7937a7a00"},"vehicle_type_id":"4","last_reported":1749496093,"current_range_meters":4000,"station_id":"ce4bgkh2rcd13ifvqbk0","pricing_plan_id":"cebpf4jnsgd1na2vs0mg"},{"bike_id":"c94192a2-124d-4a00-a51a-6765e8678025","system_id":"levelo_inurba_marseille","lat":43.30306,"lon":5.39208,"is_reserved":false,"is_disabled":true,"rental_uris":{"android":"levelo://app?vid=c94192a2-124d-4a00-a51a-6765e8678025","ios":"levelo://app?vid=c94192a2-124d-4a00-a51a-6765e8678025"},"vehicle_type_id":"4","last_reported":1749496093,"current_range_meters":4000,"station_id":"ce4bgkh2rcd13ifvqbk0","pricing_plan_id":"cebpf4jnsgd1na2vs0mg"},{"bike_id":"a2d73be7-868a-4600-9834-af16b43b12ad","system_id":"levelo_inurba_marseille","lat":43.24482,"lon":5.42519,"is_reserved":false,"is_disabled":false,"rental_uris":{"android":"levelo://app?vid=a2d73be7-868a-4600-9834-af16b43b12ad","ios":"levelo://app?vid=a2d73be7-868a-4600-9834-af16b43b12ad"},"vehicle_type_id":"4","last_reported":1749496093,"current_range_meters":4400,"station_id":"","pricing_plan_id":"cebpf4jnsgd1na2vs0mg"},{"bike_id":"00869608-7598-4ca2-8b8a-b244f70547f5","system_id":"levelo_inurba_marseille","lat":43.27944,"lon":5.41047,"is_reserved":false,"is_disabled":false,"rental_uris":{"android":"levelo://app?vid=00869608-7598-4ca2-8b8a-b244f70547f5","ios":"levelo://app?vid=00869608-7598-4ca2-8b8a-b244f70547f5"},"vehicle_type_id":"4","last_reported":1749496093,"current_range_meters":4400,"station_id":"ce4bhnp2rcd13ifvqh0g","pricing_plan_id":"cebpf4jnsgd1na2vs0mg"},{"bike_id":"4c67c0e9-17df-434d-959a-cef4fb5aff80","system_id":"levelo_inurba_marseille","lat":43.24071,"lon":5.37765,"is_reserved":false,"is_disabled":false,"rental_uris":{"android":"levelo://app?vid=4c67c0e9-17df-434d-959a-cef4fb5aff80","ios":"levelo://app?vid=4c67c0e9-17df-434d-959a-cef4fb5aff80"},"vehicle_type_id":"4","last_reported":1749496093,"current_range_meters":4400,"station_id":"ce4bhnp2rcd13ifvqgvg","pricing_plan_id":"cebpf4jnsgd1na2vs0mg"},{"bike_id":"3fdfffbb-7a21-4bf5-9530-76c1fee93620","system_id":"levelo_inurba_marseille","lat":43.28153,"lon":5.42614,"is_reserved":false,"is_disabled":false,"rental_uris":{"android":"levelo://app?vid=3fdfffbb-7a21-4bf5-9530-76c1fee93620","ios":"levelo://app?vid=3fdfffbb-7a21-4bf5-9530-76c1fee93620"},"vehicle_type_id":"4","last_reported":1749496093,"current_range_meters":4400,"station_id":"ce4bhnh2rcd13ifvqgug","pricing_plan_id":"cebpf4jnsgd1na2vs0mg"},{"bike_id":"a7b6f345-c573-436e-85b2-3dab9793ee94","system_id":"levelo_inurba_marseille","lat":43.2784,"lon":5.39203,"is_reserved":false,"is_disabled":false,"rental_uris":{"android":"levelo://app?vid=a7b6f345-c573-436e-85b2-3dab9793ee94","ios":"levelo://app?vid=a7b6f345-c573-436e-85b2-3dab9793ee94"},"vehicle_type_id":"4","last_reported":1749496093,"current_range_meters":4400,"station_id":"ce4bhjp2rcd13ifvqga0","pricing_plan_id":"cebpf4jnsgd1na2vs0mg"},{"bike_id":"174d8361-5219-4672-9abf-2e756213df48","system_id":"levelo_inurba_marseille","lat":43.27999,"lon":5.41652,"is_reserved":false,"is_disabled":false,"rental_uris":{"android":"levelo://app?vid=174d8361-5219-4672-9abf-2e756213df48","ios":"levelo://app?vid=174d8361-5219-4672-9abf-2e756213df48"},"vehicle_type_id":"4","last_reported":1749496093,"current_range_meters":4400,"station_id":"ce4bho12rcd13ifvqh1g","pricing_plan_id":"cebpf4jnsgd1na2vs0mg"},{"bike_id":"05aa0b24-9750-4521-8571-c85957fe1e7c","system_id":"levelo_inurba_marseille","lat":43.2792,"lon":5.395687,"is_reserved":false,"is_disabled":false,"rental_uris":{"android":"levelo://app?vid=05aa0b24-9750-4521-8571-c85957fe1e7c","ios":"levelo://app?vid=05aa0b24-9750-4521-8571-c85957fe1e7c"},"vehicle_type_id":"4","last_reported":1749496093,"current_range_meters":4800,"station_id":"ce4bhf92rcd13ifvqf40","pricing_plan_id":"cebpf4jnsgd1na2vs0mg"},{"bike_id":"06754bb4-52be-43b0-a16a-f8fd74748cfc","system_id":"levelo_inurba_marseille","lat":43.29897,"lon":5.38136,"is_reserved":false,"is_disabled":false,"rental_uris":{"android":"levelo://app?vid=06754bb4-52be-43b0-a16a-f8fd74748cfc","ios":"levelo://app?vid=06754bb4-52be-43b0-a16a-f8fd74748cfc"},"vehicle_type_id":"4","last_reported":1749496093,"current_range_meters":4800,"station_id":"ce4bgj12rcd13ifvqbc0","pricing_plan_id":"cebpf4jnsgd1na2vs0mg"},{"bike_id":"8bf17a89-c81a-4343-88d7-372796b983d5","system_id":"levelo_inurba_marseille","lat":43.31485,"lon":5.3731,"is_reserved":false,"is_disabled":false,"rental_uris":{"android":"levelo://app?vid=8bf17a89-c81a-4343-88d7-372796b983d5","ios":"levelo://app?vid=8bf17a89-c81a-4343-88d7-372796b983d5"},"vehicle_type_id":"4","last_reported":1749496093,"current_range_meters":4800,"station_id":"ce4bgt12rcd13ifvqcd0","pricing_plan_id":"cebpf4jnsgd1na2vs0mg"},{"bike_id":"b7828706-ba92-4e0d-9b8c-9fea8f28ae91","system_id":"levelo_inurba_marseille","lat":43.2996,"lon":5.41313,"is_reserved":false,"is_disabled":false,"rental_uris":{"android":"levelo://app?vid=b7828706-ba92-4e0d-9b8c-9fea8f28ae91","ios":"levelo://app?vid=b7828706-ba92-4e0d-9b8c-9fea8f28ae91"},"vehicle_type_id":"4","last_reported":1749496093,"current_range_meters":5600,"station_id":"ce4bhp12rcd13ifvqh9g","pricing_plan_id":"cebpf4jnsgd1na2vs0mg"},{"bike_id":"a61242dd-8369-4520-9963-a504224e1a30","system_id":"levelo_inurba_marseille","lat":43.23133,"lon":5.40801,"is_reserved":false,"is_disabled":false,"rental_uris":{"android":"levelo://app?vid=a61242dd-8369-4520-9963-a504224e1a30","ios":"levelo://app?vid=a61242dd-8369-4520-9963-a504224e1a30"},"vehicle_type_id":"4","last_reported":1749496093,"current_range_meters":5600,"station_id":"","pricing_plan_id":"cebpf4jnsgd1na2vs0mg"},{"bike_id":"19a8110d-e3cd-4b81-acc8-3d4937474ee0","system_id":"levelo_inurba_marseille","lat":43.26681,"lon":5.38264,"is_reserved":false,"is_disabled":false,"rental_uris":{"android":"levelo://app?vid=19a8110d-e3cd-4b81-acc8-3d4937474ee0","ios":"levelo://app?vid=19a8110d-e3cd-4b81-acc8-3d4937474ee0"},"vehicle_type_id":"4","last_reported":1749496093,"current_range_meters":5600,"station_id":"ce4bhg92rcd13ifvqf90","pricing_plan_id":"cebpf4jnsgd1na2vs0mg"},{"bike_id":"a49b0121-1433-466e-b746-366bbfc0cf7d","system_id":"levelo_inurba_marseille","lat":43.28941,"lon":5.36636,"is_reserved":false,"is_disabled":false,"rental_uris":{"android":"levelo://app?vid=a49b0121-1433-466e-b746-366bbfc0cf7d","ios":"levelo://app?vid=a49b0121-1433-466e-b746-366bbfc0cf7d"},"vehicle_type_id":"4","last_reported":1749496093,"current_range_meters":5600,"station_id":"ce4bhap2rcd13ifvqek0","pricing_plan_id":"cebpf4jnsgd1na2vs0mg"},{"bike_id":"2ee95ae0-83a2-4f87-92e7-182763430c39","system_id":"levelo_inurba_marseille","lat":43.2865,"lon":5.36354,"is_reserved":false,"is_disabled":true,"rental_uris":{"android":"levelo://app?vid=2ee95ae0-83a2-4f87-92e7-182763430c39","ios":"levelo://app?vid=2ee95ae0-83a2-4f87-92e7-182763430c39"},"vehicle_type_id":"4","last_reported":1749496093,"current_range_meters":5600,"station_id":"ce4bhah2rcd13ifvqej0","pricing_plan_id":"cebpf4jnsgd1na2vs0mg"},{"bike_id":"994fbbd1-7b7a-4973-8b72-780a5cbeda75","system_id":"levelo_inurba_marseille","lat":43.28981,"lon":5.37868,"is_reserved":false,"is_disabled":true,"rental_uris":{"android":"levelo://app?vid=994fbbd1-7b7a-4973-8b72-780a5cbeda75","ios":"levelo://app?vid=994fbbd1-7b7a-4973-8b72-780a5cbeda75"},"vehicle_type_id":"4","last_reported":1749496093,"current_range_meters":6000,"station_id":"ce4bh9p2rcd13ifvqed0","pricing_plan_id":"cebpf4jnsgd1na2vs0mg"},{"bike_id":"44311e62-ff29-4b21-ba0b-66aeabf39820","system_id":"levelo_inurba_marseille","lat":43.28399,"lon":5.37516,"is_reserved":false,"is_disabled":false,"rental_uris":{"android":"levelo://app?vid=44311e62-ff29-4b21-ba0b-66aeabf39820","ios":"levelo://app?vid=44311e62-ff29-4b21-ba0b-66aeabf39820"},"vehicle_type_id":"4","last_reported":1749496093,"current_range_meters":6000,"station_id":"ce4bh412rcd13ifvqds0","pricing_plan_id":"cebpf4jnsgd1na2vs0mg"},{"bike_id":"e0650368-8c1c-48ae-9cd3-08c7f1623979","system_id":"levelo_inurba_marseille","lat":43.25874,"lon":5.39894,"is_reserved":false,"is_disabled":false,"rental_uris":{"android":"levelo://app?vid=e0650368-8c1c-48ae-9cd3-08c7f1623979","ios":"levelo://app?vid=e0650368-8c1c-48ae-9cd3-08c7f1623979"},"vehicle_type_id":"4","last_reported":1749496093,"current_range_meters":6000,"station_id":"ce4bhl92rcd13ifvqghg","pricing_plan_id":"cebpf4jnsgd1na2vs0mg"},{"bike_id":"27376c83-17b1-4034-8e85-c09f39686de0","system_id":"levelo_inurba_marseille","lat":43.2902,"lon":5.38129,"is_reserved":false,"is_disabled":false,"rental_uris":{"android":"levelo://app?vid=27376c83-17b1-4034-8e85-c09f39686de0","ios":"levelo://app?vid=27376c83-17b1-4034-8e85-c09f39686de0"},"vehicle_type_id":"4","last_reported":1749496093,"current_range_meters":6400,"station_id":"ce4bh4p2rcd13ifvqe1g","pricing_plan_id":"cebpf4jnsgd1na2vs0mg"},{"bike_id":"7bb372dc-7243-4475-ad00-0cfbc5892bb1","system_id":"levelo_inurba_marseille","lat":43.29519,"lon":5.39042,"is_reserved":false,"is_disabled":false,"rental_uris":{"android":"levelo://app?vid=7bb372dc-7243-4475-ad00-0cfbc5892bb1","ios":"levelo://app?vid=7bb372dc-7243-4475-ad00-0cfbc5892bb1"},"vehicle_type_id":"4","last_reported":1749496093,"current_range_meters":6400,"station_id":"ce4bh3p2rcd13ifvqdp0","pricing_plan_id":"cebpf4jnsgd1na2vs0mg"},{"bike_id":"dcfd58bb-08ac-433d-bb9f-e59e74058d3a","system_id":"levelo_inurba_marseille","lat":43.28926,"lon":5.38393,"is_reserved":false,"is_disabled":false,"rental_uris":{"android":"levelo://app?vid=dcfd58bb-08ac-433d-bb9f-e59e74058d3a","ios":"levelo://app?vid=dcfd58bb-08ac-433d-bb9f-e59e74058d3a"},"vehicle_type_id":"4","last_reported":1749496093,"current_range_meters":6800,"station_id":"ce4bh612rcd13ifvqe6g","pricing_plan_id":"cebpf4jnsgd1na2vs0mg"},{"bike_id":"26b898cc-11a0-4c85-a890-8a9bb099fecf","system_id":"levelo_inurba_marseille","lat":43.32307,"lon":5.38251,"is_reserved":false,"is_disabled":false,"rental_uris":{"android":"levelo://app?vid=26b898cc-11a0-4c85-a890-8a9bb099fecf","ios":"levelo://app?vid=26b898cc-11a0-4c85-a890-8a9bb099fecf"},"vehicle_type_id":"4","last_reported":1749496093,"current_range_meters":6800,"station_id":"ce4bhr12rcd13ifvqhqg","pricing_plan_id":"cebpf4jnsgd1na2vs0mg"},{"bike_id":"46ad0958-a2d7-473e-8aeb-a02bfd147679","system_id":"levelo_inurba_marseille","lat":43.23943,"lon":5.36636,"is_reserved":false,"is_disabled":true,"rental_uris":{"android":"levelo://app?vid=46ad0958-a2d7-473e-8aeb-a02bfd147679","ios":"levelo://app?vid=46ad0958-a2d7-473e-8aeb-a02bfd147679"},"vehicle_type_id":"4","last_reported":1749496093,"current_range_meters":6800,"station_id":"ce4bhi12rcd13ifvqfp0","pricing_plan_id":"cebpf4jnsgd1na2vs0mg"},{"bike_id":"9ab6ad19-8ffa-4ae6-bee6-11ab65ddaa04","system_id":"levelo_inurba_marseille","lat":43.24383,"lon":5.37056,"is_reserved":false,"is_disabled":false,"rental_uris":{"android":"levelo://app?vid=9ab6ad19-8ffa-4ae6-bee6-11ab65ddaa04","ios":"levelo://app?vid=9ab6ad19-8ffa-4ae6-bee6-11ab65ddaa04"},"vehicle_type_id":"4","last_reported":1749496093,"current_range_meters":6800,"station_id":"ce4bhhh2rcd13ifvqfk0","pricing_plan_id":"cebpf4jnsgd1na2vs0mg"},{"bike_id":"5f28dac6-6d96-4fc3-9ff8-be790c5261d9","system_id":"levelo_inurba_marseille","lat":43.29364,"lon":5.37851,"is_reserved":false,"is_disabled":false,"rental_uris":{"android":"levelo://app?vid=5f28dac6-6d96-4fc3-9ff8-be790c5261d9","ios":"levelo://app?vid=5f28dac6-6d96-4fc3-9ff8-be790c5261d9"},"vehicle_type_id":"4","last_reported":1749496093,"current_range_meters":7200,"station_id":"ce4bgjh2rcd13ifvqbf0","pricing_plan_id":"cebpf4jnsgd1na2vs0mg"},{"bike_id":"a34aa760-19cf-4750-9133-b676aeeef362","system_id":"levelo_inurba_marseille","lat":43.29523,"lon":5.37512,"is_reserved":false,"is_disabled":true,"rental_uris":{"android":"levelo://app?vid=a34aa760-19cf-4750-9133-b676aeeef362","ios":"levelo://app?vid=a34aa760-19cf-4750-9133-b676aeeef362"},"vehicle_type_id":"4","last_reported":1749496093,"current_range_meters":7200,"station_id":"ce4bgkp2rcd13ifvqbmg","pricing_plan_id":"cebpf4jnsgd1na2vs0mg"},{"bike_id":"85b0dc62-b296-43c9-ac21-4b39eba6041c","system_id":"levelo_inurba_marseille","lat":43.30423,"lon":5.39744,"is_reserved":false,"is_disabled":false,"rental_uris":{"android":"levelo://app?vid=85b0dc62-b296-43c9-ac21-4b39eba6041c","ios":"levelo://app?vid=85b0dc62-b296-43c9-ac21-4b39eba6041c"},"vehicle_type_id":"4","last_reported":1749496093,"current_range_meters":7200,"station_id":"ce4bh092rcd13ifvqd20","pricing_plan_id":"cebpf4jnsgd1na2vs0mg"},{"bike_id":"f9e022f9-eeaf-409f-8151-5bd4d9a3de14","system_id":"levelo_inurba_marseille","lat":43.31379,"lon":5.38493,"is_reserved":false,"is_disabled":false,"rental_uris":{"android":"levelo://app?vid=f9e022f9-eeaf-409f-8151-5bd4d9a3de14","ios":"levelo://app?vid=f9e022f9-eeaf-409f-8151-5bd4d9a3de14"},"vehicle_type_id":"4","last_reported":1749496093,"current_range_meters":7200,"station_id":"ce4bgt92rcd13ifvqcf0","pricing_plan_id":"cebpf4jnsgd1na2vs0mg"},{"bike_id":"5ff7c847-94f1-4642-94ea-e9dc6811d073","system_id":"levelo_inurba_marseille","lat":43.26011,"lon":5.37407,"is_reserved":false,"is_disabled":false,"rental_uris":{"android":"levelo://app?vid=5ff7c847-94f1-4642-94ea-e9dc6811d073","ios":"levelo://app?vid=5ff7c847-94f1-4642-94ea-e9dc6811d073"},"vehicle_type_id":"4","last_reported":1749496093,"current_range_meters":7200,"station_id":"","pricing_plan_id":"cebpf4jnsgd1na2vs0mg"},{"bike_id":"5e868835-5df3-40b3-bfd8-4d419d9f3044","system_id":"levelo_inurba_marseille","lat":43.29973,"lon":5.37177,"is_reserved":false,"is_disabled":false,"rental_uris":{"android":"levelo://app?vid=5e868835-5df3-40b3-bfd8-4d419d9f3044","ios":"levelo://app?vid=5e868835-5df3-40b3-bfd8-4d419d9f3044"},"vehicle_type_id":"4","last_reported":1749496093,"current_range_meters":7200,"station_id":"ce4bgr92rcd13ifvqc7g","pricing_plan_id":"cebpf4jnsgd1na2vs0mg"},{"bike_id":"637c0a93-8e0f-4fdf-9357-683911679fd3","system_id":"levelo_inurba_marseille","lat":43.31685,"lon":5.40476,"is_reserved":false,"is_disabled":false,"rental_uris":{"android":"levelo://app?vid=637c0a93-8e0f-4fdf-9357-683911679fd3","ios":"levelo://app?vid=637c0a93-8e0f-4fdf-9357-683911679fd3"},"vehicle_type_id":"4","last_reported":1749496093,"current_range_meters":7200,"station_id":"ce4bh012rcd13ifvqd00","pricing_plan_id":"cebpf4jnsgd1na2vs0mg"},{"bike_id":"279a92c5-29f9-4406-8ca1-e740c792dbaf","system_id":"levelo_inurba_marseille","lat":43.28571,"lon":5.39497,"is_reserved":false,"is_disabled":false,"rental_uris":{"android":"levelo://app?vid=279a92c5-29f9-4406-8ca1-e740c792dbaf","ios":"levelo://app?vid=279a92c5-29f9-4406-8ca1-e740c792dbaf"},"vehicle_type_id":"4","last_reported":1749496093,"current_range_meters":7200,"station_id":"ce4bh292rcd13ifvqdg0","pricing_plan_id":"cebpf4jnsgd1na2vs0mg"},{"bike_id":"ea037d9a-c04f-4cb8-aea4-5a24a46b8c27","system_id":"levelo_inurba_marseille","lat":43.28411,"lon":5.37513,"is_reserved":false,"is_disabled":false,"rental_uris":{"android":"levelo://app?vid=ea037d9a-c04f-4cb8-aea4-5a24a46b8c27","ios":"levelo://app?vid=ea037d9a-c04f-4cb8-aea4-5a24a46b8c27"},"vehicle_type_id":"4","last_reported":1749496093,"current_range_meters":8000,"station_id":"ce4bh412rcd13ifvqds0","pricing_plan_id":"cebpf4jnsgd1na2vs0mg"},{"bike_id":"781bcf50-52ca-4350-bf0f-8071b3b2b128","system_id":"levelo_inurba_marseille","lat":43.29911,"lon":5.43656,"is_reserved":false,"is_disabled":false,"rental_uris":{"android":"levelo://app?vid=781bcf50-52ca-4350-bf0f-8071b3b2b128","ios":"levelo://app?vid=781bcf50-52ca-4350-bf0f-8071b3b2b128"},"vehicle_type_id":"4","last_reported":1749496093,"current_range_meters":8000,"station_id":"ce4bhpp2rcd13ifvqhfg","pricing_plan_id":"cebpf4jnsgd1na2vs0mg"},{"bike_id":"e859968d-4b9f-43e6-94f6-6bbec03c6988","system_id":"levelo_inurba_marseille","lat":43.29805,"lon":5.38105,"is_reserved":false,"is_disabled":false,"rental_uris":{"android":"levelo://app?vid=e859968d-4b9f-43e6-94f6-6bbec03c6988","ios":"levelo://app?vid=e859968d-4b9f-43e6-94f6-6bbec03c6988"},"vehicle_type_id":"4","last_reported":1749496093,"current_range_meters":8000,"station_id":"ce4bgip2rcd13ifvqbb0","pricing_plan_id":"cebpf4jnsgd1na2vs0mg"},{"bike_id":"89e61be4-479c-4cec-a748-e4051ae578a2","system_id":"levelo_inurba_marseille","lat":43.32373,"lon":5.38869,"is_reserved":false,"is_disabled":false,"rental_uris":{"android":"levelo://app?vid=89e61be4-479c-4cec-a748-e4051ae578a2","ios":"levelo://app?vid=89e61be4-479c-4cec-a748-e4051ae578a2"},"vehicle_type_id":"4","last_reported":1749496093,"current_range_meters":8000,"station_id":"ce4bhqp2rcd13ifvqhog","pricing_plan_id":"cebpf4jnsgd1na2vs0mg"},{"bike_id":"d18a42b0-0af8-416d-ab5d-2c89e4a63472","system_id":"levelo_inurba_marseille","lat":43.29252,"lon":5.38433,"is_reserved":false,"is_disabled":false,"rental_uris":{"android":"levelo://app?vid=d18a42b0-0af8-416d-ab5d-2c89e4a63472","ios":"levelo://app?vid=d18a42b0-0af8-416d-ab5d-2c89e4a63472"},"vehicle_type_id":"4","last_reported":1749496093,"current_range_meters":8400,"station_id":"ce4bh692rcd13ifvqea0","pricing_plan_id":"cebpf4jnsgd1na2vs0mg"},{"bike_id":"5478c1b4-4c7d-476f-b8e4-102490ff70cd","system_id":"levelo_inurba_marseille","lat":43.31661,"lon":5.37318,"is_reserved":false,"is_disabled":false,"rental_uris":{"android":"levelo://app?vid=5478c1b4-4c7d-476f-b8e4-102490ff70cd","ios":"levelo://app?vid=5478c1b4-4c7d-476f-b8e4-102490ff70cd"},"vehicle_type_id":"4","last_reported":1749496093,"current_range_meters":8400,"station_id":"","pricing_plan_id":"cebpf4jnsgd1na2vs0mg"},{"bike_id":"3654e461-cfd5-44d6-9ccb-6b6bfdb20098","system_id":"levelo_inurba_marseille","lat":43.3171,"lon":5.43706,"is_reserved":false,"is_disabled":false,"rental_uris":{"android":"levelo://app?vid=3654e461-cfd5-44d6-9ccb-6b6bfdb20098","ios":"levelo://app?vid=3654e461-cfd5-44d6-9ccb-6b6bfdb20098"},"vehicle_type_id":"4","last_reported":1749496093,"current_range_meters":8000,"station_id":"ce4bhp92rcd13ifvqhcg","pricing_plan_id":"cebpf4jnsgd1na2vs0mg"},{"bike_id":"11d99533-1239-4522-b0b5-f8a3bff696e7","system_id":"levelo_inurba_marseille","lat":43.30155,"lon":5.42442,"is_reserved":false,"is_disabled":false,"rental_uris":{"android":"levelo://app?vid=11d99533-1239-4522-b0b5-f8a3bff696e7","ios":"levelo://app?vid=11d99533-1239-4522-b0b5-f8a3bff696e7"},"vehicle_type_id":"4","last_reported":1749496093,"current_range_meters":8400,"station_id":"","pricing_plan_id":"cebpf4jnsgd1na2vs0mg"},{"bike_id":"00f550d5-d65c-4411-a88d-20a7abb3e591","system_id":"levelo_inurba_marseille","lat":43.29786,"lon":5.39343,"is_reserved":false,"is_disabled":false,"rental_uris":{"android":"levelo://app?vid=00f550d5-d65c-4411-a88d-20a7abb3e591","ios":"levelo://app?vid=00f550d5-d65c-4411-a88d-20a7abb3e591"},"vehicle_type_id":"4","last_reported":1749496093,"current_range_meters":8400,"station_id":"chh1huq6cuj3fo74tm60","pricing_plan_id":"cebpf4jnsgd1na2vs0mg"},{"bike_id":"9ab5dcb2-22af-49e2-b2c1-32117ad578dc","system_id":"levelo_inurba_marseille","lat":43.29506,"lon":5.42555,"is_reserved":false,"is_disabled":false,"rental_uris":{"android":"levelo://app?vid=9ab5dcb2-22af-49e2-b2c1-32117ad578dc","ios":"levelo://app?vid=9ab5dcb2-22af-49e2-b2c1-32117ad578dc"},"vehicle_type_id":"4","last_reported":1749496093,"current_range_meters":8400,"station_id":"","pricing_plan_id":"cebpf4jnsgd1na2vs0mg"},{"bike_id":"8b4caff4-6ee7-47a5-a64f-5ccaa83c132f","system_id":"levelo_inurba_marseille","lat":43.295372,"lon":5.425188,"is_reserved":false,"is_disabled":false,"rental_uris":{"android":"levelo://app?vid=8b4caff4-6ee7-47a5-a64f-5ccaa83c132f","ios":"levelo://app?vid=8b4caff4-6ee7-47a5-a64f-5ccaa83c132f"},"vehicle_type_id":"4","last_reported":1749496093,"current_range_meters":8400,"station_id":"","pricing_plan_id":"cebpf4jnsgd1na2vs0mg"},{"bike_id":"3740405a-2647-4804-bac9-7004c70779a2","system_id":"levelo_inurba_marseille","lat":43.281,"lon":5.37848,"is_reserved":false,"is_disabled":false,"rental_uris":{"android":"levelo://app?vid=3740405a-2647-4804-bac9-7004c70779a2","ios":"levelo://app?vid=3740405a-2647-4804-bac9-7004c70779a2"},"vehicle_type_id":"4","last_reported":1749496093,"current_range_meters":8400,"station_id":"ce4bha12rcd13ifvqee0","pricing_plan_id":"cebpf4jnsgd1na2vs0mg"},{"bike_id":"7b2ff356-fed0-4271-9b1a-25f15c9d2e52","system_id":"levelo_inurba_marseille","lat":43.28079,"lon":5.39659,"is_reserved":false,"is_disabled":false,"rental_uris":{"android":"levelo://app?vid=7b2ff356-fed0-4271-9b1a-25f15c9d2e52","ios":"levelo://app?vid=7b2ff356-fed0-4271-9b1a-25f15c9d2e52"},"vehicle_type_id":"4","last_reported":1749496093,"current_range_meters":8400,"station_id":"ce4bho12rcd13ifvqh2g","pricing_plan_id":"cebpf4jnsgd1na2vs0mg"},{"bike_id":"cc734b6c-6593-4fc7-af95-47506d22191b","system_id":"levelo_inurba_marseille","lat":43.29534,"lon":5.38535,"is_reserved":false,"is_disabled":false,"rental_uris":{"android":"levelo://app?vid=cc734b6c-6593-4fc7-af95-47506d22191b","ios":"levelo://app?vid=cc734b6c-6593-4fc7-af95-47506d22191b"},"vehicle_type_id":"4","last_reported":1749496093,"current_range_meters":8400,"station_id":"ce4bgih2rcd13ifvqba0","pricing_plan_id":"cebpf4jnsgd1na2vs0mg"},{"bike_id":"e3451c0e-68ad-434d-bf95-ec606368817d","system_id":"levelo_inurba_marseille","lat":43.280979,"lon":5.346627,"is_reserved":false,"is_disabled":false,"rental_uris":{"android":"levelo://app?vid=e3451c0e-68ad-434d-bf95-ec606368817d","ios":"levelo://app?vid=e3451c0e-68ad-434d-bf95-ec606368817d"},"vehicle_type_id":"4","last_reported":1749496093,"current_range_meters":8400,"station_id":"ce4bgn92rcd13ifvqbvg","pricing_plan_id":"cebpf4jnsgd1na2vs0mg"},{"bike_id":"9d073130-46db-46c4-affb-6564e2de5a50","system_id":"levelo_inurba_marseille","lat":43.32384,"lon":5.38811,"is_reserved":false,"is_disabled":false,"rental_uris":{"android":"levelo://app?vid=9d073130-46db-46c4-affb-6564e2de5a50","ios":"levelo://app?vid=9d073130-46db-46c4-affb-6564e2de5a50"},"vehicle_type_id":"4","last_reported":1749496093,"current_range_meters":8400,"station_id":"","pricing_plan_id":"cebpf4jnsgd1na2vs0mg"},{"bike_id":"7eedcc0e-33d2-492d-876b-2852803d9891","system_id":"levelo_inurba_marseille","lat":43.26488,"lon":5.39251,"is_reserved":false,"is_disabled":false,"rental_uris":{"android":"levelo://app?vid=7eedcc0e-33d2-492d-876b-2852803d9891","ios":"levelo://app?vid=7eedcc0e-33d2-492d-876b-2852803d9891"},"vehicle_type_id":"4","last_reported":1749496093,"current_range_meters":8400,"station_id":"","pricing_plan_id":"cebpf4jnsgd1na2vs0mg"},{"bike_id":"3bb87db6-8022-418f-a4aa-7c455834f81e","system_id":"levelo_inurba_marseille","lat":43.23561,"lon":5.37909,"is_reserved":false,"is_disabled":false,"rental_uris":{"android":"levelo://app?vid=3bb87db6-8022-418f-a4aa-7c455834f81e","ios":"levelo://app?vid=3bb87db6-8022-418f-a4aa-7c455834f81e"},"vehicle_type_id":"4","last_reported":1749496093,"current_range_meters":8800,"station_id":"","pricing_plan_id":"cebpf4jnsgd1na2vs0mg"},{"bike_id":"77ea7d0e-e5e6-4170-b4fa-9977178f99fa","system_id":"levelo_inurba_marseille","lat":43.28475,"lon":5.38422,"is_reserved":false,"is_disabled":false,"rental_uris":{"android":"levelo://app?vid=77ea7d0e-e5e6-4170-b4fa-9977178f99fa","ios":"levelo://app?vid=77ea7d0e-e5e6-4170-b4fa-9977178f99fa"},"vehicle_type_id":"4","last_reported":1749496093,"current_range_meters":8800,"station_id":"ce4bh512rcd13ifvqe3g","pricing_plan_id":"cebpf4jnsgd1na2vs0mg"},{"bike_id":"024943c5-334c-4e30-9fa1-4e01ad9ec84d","system_id":"levelo_inurba_marseille","lat":43.25823,"lon":5.39437,"is_reserved":false,"is_disabled":false,"rental_uris":{"android":"levelo://app?vid=024943c5-334c-4e30-9fa1-4e01ad9ec84d","ios":"levelo://app?vid=024943c5-334c-4e30-9fa1-4e01ad9ec84d"},"vehicle_type_id":"4","last_reported":1749496093,"current_range_meters":8800,"station_id":"ce4bhip2rcd13ifvqft0","pricing_plan_id":"cebpf4jnsgd1na2vs0mg"},{"bike_id":"dd67f108-95bf-4a1e-b619-4bb77e009c5b","system_id":"levelo_inurba_marseille","lat":43.29091,"lon":5.42751,"is_reserved":false,"is_disabled":false,"rental_uris":{"android":"levelo://app?vid=dd67f108-95bf-4a1e-b619-4bb77e009c5b","ios":"levelo://app?vid=dd67f108-95bf-4a1e-b619-4bb77e009c5b"},"vehicle_type_id":"4","last_reported":1749496093,"current_range_meters":8800,"station_id":"","pricing_plan_id":"cebpf4jnsgd1na2vs0mg"},{"bike_id":"b30cf730-3414-4498-af83-1326e4187219","system_id":"levelo_inurba_marseille","lat":43.27983,"lon":5.38739,"is_reserved":false,"is_disabled":false,"rental_uris":{"android":"levelo://app?vid=b30cf730-3414-4498-af83-1326e4187219","ios":"levelo://app?vid=b30cf730-3414-4498-af83-1326e4187219"},"vehicle_type_id":"4","last_reported":1749496093,"current_range_meters":8800,"station_id":"ce4bhg12rcd13ifvqf80","pricing_plan_id":"cebpf4jnsgd1na2vs0mg"},{"bike_id":"8ff95f47-5d7f-4782-b857-06fbb566b9b0","system_id":"levelo_inurba_marseille","lat":43.29516,"lon":5.39404,"is_reserved":false,"is_disabled":false,"rental_uris":{"android":"levelo://app?vid=8ff95f47-5d7f-4782-b857-06fbb566b9b0","ios":"levelo://app?vid=8ff95f47-5d7f-4782-b857-06fbb566b9b0"},"vehicle_type_id":"4","last_reported":1749496093,"current_range_meters":8800,"station_id":"ce4bh292rcd13ifvqdf0","pricing_plan_id":"cebpf4jnsgd1na2vs0mg"},{"bike_id":"5cab8021-47c8-4131-a2c2-7572304f54a4","system_id":"levelo_inurba_marseille","lat":43.28286,"lon":5.35067,"is_reserved":false,"is_disabled":true,"rental_uris":{"android":"levelo://app?vid=5cab8021-47c8-4131-a2c2-7572304f54a4","ios":"levelo://app?vid=5cab8021-47c8-4131-a2c2-7572304f54a4"},"vehicle_type_id":"4","last_reported":1749496093,"current_range_meters":8800,"station_id":"ce4bhbp2rcd13ifvqerg","pricing_plan_id":"cebpf4jnsgd1na2vs0mg"},{"bike_id":"5b0bb135-cdce-47bf-97a3-e4f84ad8e420","system_id":"levelo_inurba_marseille","lat":43.28097,"lon":5.37876,"is_reserved":false,"is_disabled":false,"rental_uris":{"android":"levelo://app?vid=5b0bb135-cdce-47bf-97a3-e4f84ad8e420","ios":"levelo://app?vid=5b0bb135-cdce-47bf-97a3-e4f84ad8e420"},"vehicle_type_id":"4","last_reported":1749496093,"current_range_meters":8800,"station_id":"ce4bha12rcd13ifvqee0","pricing_plan_id":"cebpf4jnsgd1na2vs0mg"},{"bike_id":"f4a3bae8-06a5-4948-94fa-ab6b0ea8d161","system_id":"levelo_inurba_marseille","lat":43.27994,"lon":5.40029,"is_reserved":false,"is_disabled":false,"rental_uris":{"android":"levelo://app?vid=f4a3bae8-06a5-4948-94fa-ab6b0ea8d161","ios":"levelo://app?vid=f4a3bae8-06a5-4948-94fa-ab6b0ea8d161"},"vehicle_type_id":"4","last_reported":1749496093,"current_range_meters":8800,"station_id":"ce4bho92rcd13ifvqh4g","pricing_plan_id":"cebpf4jnsgd1na2vs0mg"},{"bike_id":"84351d3d-7144-4da1-a310-4760967578db","system_id":"levelo_inurba_marseille","lat":43.29239,"lon":5.40922,"is_reserved":false,"is_disabled":false,"rental_uris":{"android":"levelo://app?vid=84351d3d-7144-4da1-a310-4760967578db","ios":"levelo://app?vid=84351d3d-7144-4da1-a310-4760967578db"},"vehicle_type_id":"4","last_reported":1749496093,"current_range_meters":8800,"station_id":"ce4bh192rcd13ifvqdc0","pricing_plan_id":"cebpf4jnsgd1na2vs0mg"},{"bike_id":"ee7a2e6a-3e65-41f6-b8b3-501fb42682dc","system_id":"levelo_inurba_marseille","lat":43.275485,"lon":5.384373,"is_reserved":false,"is_disabled":true,"rental_uris":{"android":"levelo://app?vid=ee7a2e6a-3e65-41f6-b8b3-501fb42682dc","ios":"levelo://app?vid=ee7a2e6a-3e65-41f6-b8b3-501fb42682dc"},"vehicle_type_id":"4","last_reported":1749496093,"current_range_meters":8800,"station_id":"ce4bhh92rcd13ifvqfi0","pricing_plan_id":"cebpf4jnsgd1na2vs0mg"},{"bike_id":"39cdf7ed-89dc-4de2-aafe-6c9905ce3698","system_id":"levelo_inurba_marseille","lat":43.29781,"lon":5.36778,"is_reserved":false,"is_disabled":false,"rental_uris":{"android":"levelo://app?vid=39cdf7ed-89dc-4de2-aafe-6c9905ce3698","ios":"levelo://app?vid=39cdf7ed-89dc-4de2-aafe-6c9905ce3698"},"vehicle_type_id":"4","last_reported":1749496093,"current_range_meters":9200,"station_id":"","pricing_plan_id":"cebpf4jnsgd1na2vs0mg"},{"bike_id":"74409b08-bd85-44c1-9d58-eabdc81c7d8c","system_id":"levelo_inurba_marseille","lat":43.28478,"lon":5.38422,"is_reserved":false,"is_disabled":false,"rental_uris":{"android":"levelo://app?vid=74409b08-bd85-44c1-9d58-eabdc81c7d8c","ios":"levelo://app?vid=74409b08-bd85-44c1-9d58-eabdc81c7d8c"},"vehicle_type_id":"4","last_reported":1749496093,"current_range_meters":9200,"station_id":"ce4bh512rcd13ifvqe3g","pricing_plan_id":"cebpf4jnsgd1na2vs0mg"},{"bike_id":"924eca47-66ee-4441-91bc-de212f2ea165","system_id":"levelo_inurba_marseille","lat":43.30182,"lon":5.36611,"is_reserved":false,"is_disabled":false,"rental_uris":{"android":"levelo://app?vid=924eca47-66ee-4441-91bc-de212f2ea165","ios":"levelo://app?vid=924eca47-66ee-4441-91bc-de212f2ea165"},"vehicle_type_id":"4","last_reported":1749496093,"current_range_meters":9200,"station_id":"ce4bgrh2rcd13ifvqc8g","pricing_plan_id":"cebpf4jnsgd1na2vs0mg"},{"bike_id":"2b74abfb-1262-40a3-bda3-f22e67504377","system_id":"levelo_inurba_marseille","lat":43.30481,"lon":5.36877,"is_reserved":false,"is_disabled":false,"rental_uris":{"android":"levelo://app?vid=2b74abfb-1262-40a3-bda3-f22e67504377","ios":"levelo://app?vid=2b74abfb-1262-40a3-bda3-f22e67504377"},"vehicle_type_id":"4","last_reported":1749496093,"current_range_meters":9200,"station_id":"","pricing_plan_id":"cebpf4jnsgd1na2vs0mg"},{"bike_id":"cb990818-444e-4c31-908c-0ac881770dbf","system_id":"levelo_inurba_marseille","lat":43.33128,"lon":5.3824,"is_reserved":false,"is_disabled":false,"rental_uris":{"android":"levelo://app?vid=cb990818-444e-4c31-908c-0ac881770dbf","ios":"levelo://app?vid=cb990818-444e-4c31-908c-0ac881770dbf"},"vehicle_type_id":"4","last_reported":1749496093,"current_range_meters":9200,"station_id":"","pricing_plan_id":"cebpf4jnsgd1na2vs0mg"},{"bike_id":"7101e620-cc76-4028-b91a-a52aa997ec1d","system_id":"levelo_inurba_marseille","lat":43.3066,"lon":5.37363,"is_reserved":false,"is_disabled":false,"rental_uris":{"android":"levelo://app?vid=7101e620-cc76-4028-b91a-a52aa997ec1d","ios":"levelo://app?vid=7101e620-cc76-4028-b91a-a52aa997ec1d"},"vehicle_type_id":"4","last_reported":1749496093,"current_range_meters":9200,"station_id":"","pricing_plan_id":"cebpf4jnsgd1na2vs0mg"},{"bike_id":"518c215b-2896-48e0-83ce-ae78f36b4170","system_id":"levelo_inurba_marseille","lat":43.30425,"lon":5.3974,"is_reserved":false,"is_disabled":false,"rental_uris":{"android":"levelo://app?vid=518c215b-2896-48e0-83ce-ae78f36b4170","ios":"levelo://app?vid=518c215b-2896-48e0-83ce-ae78f36b4170"},"vehicle_type_id":"4","last_reported":1749496093,"current_range_meters":9200,"station_id":"ce4bh092rcd13ifvqd20","pricing_plan_id":"cebpf4jnsgd1na2vs0mg"},{"bike_id":"c1d25fc5-5a96-46b8-a04a-ee591b2225c5","system_id":"levelo_inurba_marseille","lat":43.28606,"lon":5.37064,"is_reserved":false,"is_disabled":false,"rental_uris":{"android":"levelo://app?vid=c1d25fc5-5a96-46b8-a04a-ee591b2225c5","ios":"levelo://app?vid=c1d25fc5-5a96-46b8-a04a-ee591b2225c5"},"vehicle_type_id":"4","last_reported":1749496093,"current_range_meters":9200,"station_id":"ce4bht12rcd13ifvqi60","pricing_plan_id":"cebpf4jnsgd1na2vs0mg"},{"bike_id":"1e81a32b-a654-4850-aaa5-a9d684742657","system_id":"levelo_inurba_marseille","lat":43.31667,"lon":5.38247,"is_reserved":false,"is_disabled":false,"rental_uris":{"android":"levelo://app?vid=1e81a32b-a654-4850-aaa5-a9d684742657","ios":"levelo://app?vid=1e81a32b-a654-4850-aaa5-a9d684742657"},"vehicle_type_id":"4","last_reported":1749496093,"current_range_meters":9600,"station_id":"","pricing_plan_id":"cebpf4jnsgd1na2vs0mg"},{"bike_id":"9e690a8e-fc23-4208-b342-bb6408cf943e","system_id":"levelo_inurba_marseille","lat":43.295308,"lon":5.385415,"is_reserved":false,"is_disabled":false,"rental_uris":{"android":"levelo://app?vid=9e690a8e-fc23-4208-b342-bb6408cf943e","ios":"levelo://app?vid=9e690a8e-fc23-4208-b342-bb6408cf943e"},"vehicle_type_id":"4","last_reported":1749496093,"current_range_meters":9600,"station_id":"ce4bgih2rcd13ifvqba0","pricing_plan_id":"cebpf4jnsgd1na2vs0mg"},{"bike_id":"7a286b17-17df-491a-a381-1330c2f7a715","system_id":"levelo_inurba_marseille","lat":43.299074,"lon":5.43669,"is_reserved":false,"is_disabled":false,"rental_uris":{"android":"levelo://app?vid=7a286b17-17df-491a-a381-1330c2f7a715","ios":"levelo://app?vid=7a286b17-17df-491a-a381-1330c2f7a715"},"vehicle_type_id":"4","last_reported":1749496093,"current_range_meters":9600,"station_id":"ce4bhpp2rcd13ifvqhfg","pricing_plan_id":"cebpf4jnsgd1na2vs0mg"},{"bike_id":"6ec3047c-5030-4518-b445-38ca3527de8a","system_id":"levelo_inurba_marseille","lat":43.3136,"lon":5.38487,"is_reserved":false,"is_disabled":false,"rental_uris":{"android":"levelo://app?vid=6ec3047c-5030-4518-b445-38ca3527de8a","ios":"levelo://app?vid=6ec3047c-5030-4518-b445-38ca3527de8a"},"vehicle_type_id":"4","last_reported":1749496093,"current_range_meters":9600,"station_id":"ce4bgt92rcd13ifvqcf0","pricing_plan_id":"cebpf4jnsgd1na2vs0mg"},{"bike_id":"381fe969-e07d-47ee-8602-bcbd18fe70ce","system_id":"levelo_inurba_marseille","lat":43.28697,"lon":5.37374,"is_reserved":false,"is_disabled":false,"rental_uris":{"android":"levelo://app?vid=381fe969-e07d-47ee-8602-bcbd18fe70ce","ios":"levelo://app?vid=381fe969-e07d-47ee-8602-bcbd18fe70ce"},"vehicle_type_id":"4","last_reported":1749496093,"current_range_meters":9600,"station_id":"ce4bh3p2rcd13ifvqdq0","pricing_plan_id":"cebpf4jnsgd1na2vs0mg"},{"bike_id":"7b1a23e4-2a0f-4dda-84d1-7608a173fa4b","system_id":"levelo_inurba_marseille","lat":43.29299,"lon":5.3682,"is_reserved":false,"is_disabled":false,"rental_uris":{"android":"levelo://app?vid=7b1a23e4-2a0f-4dda-84d1-7608a173fa4b","ios":"levelo://app?vid=7b1a23e4-2a0f-4dda-84d1-7608a173fa4b"},"vehicle_type_id":"4","last_reported":1749496093,"current_range_meters":10000,"station_id":"ce4bhbp2rcd13ifvqesg","pricing_plan_id":"cebpf4jnsgd1na2vs0mg"},{"bike_id":"10ac21da-2ec0-4596-9f24-755cffcbc0d4","system_id":"levelo_inurba_marseille","lat":43.29597,"lon":5.381004,"is_reserved":false,"is_disabled":false,"rental_uris":{"android":"levelo://app?vid=10ac21da-2ec0-4596-9f24-755cffcbc0d4","ios":"levelo://app?vid=10ac21da-2ec0-4596-9f24-755cffcbc0d4"},"vehicle_type_id":"4","last_reported":1749496093,"current_range_meters":10000,"station_id":"ce4bgl12rcd13ifvqbo0","pricing_plan_id":"cebpf4jnsgd1na2vs0mg"},{"bike_id":"52d5c0a8-6b11-4615-a281-9636deb83f79","system_id":"levelo_inurba_marseille","lat":43.32337,"lon":5.40611,"is_reserved":false,"is_disabled":false,"rental_uris":{"android":"levelo://app?vid=52d5c0a8-6b11-4615-a281-9636deb83f79","ios":"levelo://app?vid=52d5c0a8-6b11-4615-a281-9636deb83f79"},"vehicle_type_id":"4","last_reported":1749496093,"current_range_meters":10000,"station_id":"ce4bhq92rcd13ifvqhjg","pricing_plan_id":"cebpf4jnsgd1na2vs0mg"},{"bike_id":"6a42c133-f377-4c00-868a-be2faabb2e85","system_id":"levelo_inurba_marseille","lat":43.2931,"lon":5.37169,"is_reserved":false,"is_disabled":false,"rental_uris":{"android":"levelo://app?vid=6a42c133-f377-4c00-868a-be2faabb2e85","ios":"levelo://app?vid=6a42c133-f377-4c00-868a-be2faabb2e85"},"vehicle_type_id":"4","last_reported":1749496093,"current_range_meters":10000,"station_id":"ce4bgh92rcd13ifvqb40","pricing_plan_id":"cebpf4jnsgd1na2vs0mg"},{"bike_id":"da14da1f-7442-42b5-98f6-365f4fbd4c56","system_id":"levelo_inurba_marseille","lat":43.31918,"lon":5.38418,"is_reserved":false,"is_disabled":false,"rental_uris":{"android":"levelo://app?vid=da14da1f-7442-42b5-98f6-365f4fbd4c56","ios":"levelo://app?vid=da14da1f-7442-42b5-98f6-365f4fbd4c56"},"vehicle_type_id":"4","last_reported":1749496093,"current_range_meters":10000,"station_id":"","pricing_plan_id":"cebpf4jnsgd1na2vs0mg"},{"bike_id":"2df636c8-f86a-4e87-bcc8-328056f2d9ca","system_id":"levelo_inurba_marseille","lat":43.28566,"lon":5.39492,"is_reserved":false,"is_disabled":false,"rental_uris":{"android":"levelo://app?vid=2df636c8-f86a-4e87-bcc8-328056f2d9ca","ios":"levelo://app?vid=2df636c8-f86a-4e87-bcc8-328056f2d9ca"},"vehicle_type_id":"4","last_reported":1749496093,"current_range_meters":10000,"station_id":"ce4bh292rcd13ifvqdg0","pricing_plan_id":"cebpf4jnsgd1na2vs0mg"},{"bike_id":"f831a541-b51b-4ed8-9e98-ff65b892661d","system_id":"levelo_inurba_marseille","lat":43.29193,"lon":5.3932,"is_reserved":false,"is_disabled":false,"rental_uris":{"android":"levelo://app?vid=f831a541-b51b-4ed8-9e98-ff65b892661d","ios":"levelo://app?vid=f831a541-b51b-4ed8-9e98-ff65b892661d"},"vehicle_type_id":"4","last_reported":1749496093,"current_range_meters":10000,"station_id":"ce4bh192rcd13ifvqdd0","pricing_plan_id":"cebpf4jnsgd1na2vs0mg"},{"bike_id":"a8fcb642-c8d4-48b7-bc7d-d92da8830f3d","system_id":"levelo_inurba_marseille","lat":43.29976,"lon":5.37158,"is_reserved":false,"is_disabled":true,"rental_uris":{"android":"levelo://app?vid=a8fcb642-c8d4-48b7-bc7d-d92da8830f3d","ios":"levelo://app?vid=a8fcb642-c8d4-48b7-bc7d-d92da8830f3d"},"vehicle_type_id":"4","last_reported":1749496093,"current_range_meters":10800,"station_id":"ce4bgr92rcd13ifvqc7g","pricing_plan_id":"cebpf4jnsgd1na2vs0mg"},{"bike_id":"9d830ab1-4509-4f59-adc8-5d6ffe4a10a9","system_id":"levelo_inurba_marseille","lat":43.29252,"lon":5.38443,"is_reserved":false,"is_disabled":false,"rental_uris":{"android":"levelo://app?vid=9d830ab1-4509-4f59-adc8-5d6ffe4a10a9","ios":"levelo://app?vid=9d830ab1-4509-4f59-adc8-5d6ffe4a10a9"},"vehicle_type_id":"4","last_reported":1749496093,"current_range_meters":10800,"station_id":"ce4bh692rcd13ifvqea0","pricing_plan_id":"cebpf4jnsgd1na2vs0mg"},{"bike_id":"6c242093-56eb-4882-9dc1-0d54a9c20364","system_id":"levelo_inurba_marseille","lat":43.29708,"lon":5.36612,"is_reserved":false,"is_disabled":false,"rental_uris":{"android":"levelo://app?vid=6c242093-56eb-4882-9dc1-0d54a9c20364","ios":"levelo://app?vid=6c242093-56eb-4882-9dc1-0d54a9c20364"},"vehicle_type_id":"4","last_reported":1749496093,"current_range_meters":10800,"station_id":"ce4bgn12rcd13ifvqbt0","pricing_plan_id":"cebpf4jnsgd1na2vs0mg"},{"bike_id":"94556116-69b0-4a40-bc4e-8a8b5dcc6b11","system_id":"levelo_inurba_marseille","lat":43.25868,"lon":5.39894,"is_reserved":false,"is_disabled":false,"rental_uris":{"android":"levelo://app?vid=94556116-69b0-4a40-bc4e-8a8b5dcc6b11","ios":"levelo://app?vid=94556116-69b0-4a40-bc4e-8a8b5dcc6b11"},"vehicle_type_id":"4","last_reported":1749496093,"current_range_meters":10800,"station_id":"ce4bhl92rcd13ifvqghg","pricing_plan_id":"cebpf4jnsgd1na2vs0mg"},{"bike_id":"62bea32f-b147-4070-b162-523f879a2a9c","system_id":"levelo_inurba_marseille","lat":43.25305,"lon":5.39378,"is_reserved":false,"is_disabled":false,"rental_uris":{"android":"levelo://app?vid=62bea32f-b147-4070-b162-523f879a2a9c","ios":"levelo://app?vid=62bea32f-b147-4070-b162-523f879a2a9c"},"vehicle_type_id":"4","last_reported":1749496093,"current_range_meters":10800,"station_id":"","pricing_plan_id":"cebpf4jnsgd1na2vs0mg"},{"bike_id":"c367a46f-8de2-49ae-8b37-a88dd203f209","system_id":"levelo_inurba_marseille","lat":43.28394,"lon":5.37506,"is_reserved":false,"is_disabled":false,"rental_uris":{"android":"levelo://app?vid=c367a46f-8de2-49ae-8b37-a88dd203f209","ios":"levelo://app?vid=c367a46f-8de2-49ae-8b37-a88dd203f209"},"vehicle_type_id":"4","last_reported":1749496093,"current_range_meters":11200,"station_id":"ce4bh412rcd13ifvqds0","pricing_plan_id":"cebpf4jnsgd1na2vs0mg"},{"bike_id":"898adc08-6852-494f-92e0-a15241901b70","system_id":"levelo_inurba_marseille","lat":43.26197,"lon":5.37562,"is_reserved":false,"is_disabled":false,"rental_uris":{"android":"levelo://app?vid=898adc08-6852-494f-92e0-a15241901b70","ios":"levelo://app?vid=898adc08-6852-494f-92e0-a15241901b70"},"vehicle_type_id":"4","last_reported":1749496093,"current_range_meters":11200,"station_id":"","pricing_plan_id":"cebpf4jnsgd1na2vs0mg"},{"bike_id":"c00a88fa-3bb2-4f8e-81c0-06b6f6a5b074","system_id":"levelo_inurba_marseille","lat":43.27556,"lon":5.38431,"is_reserved":false,"is_disabled":false,"rental_uris":{"android":"levelo://app?vid=c00a88fa-3bb2-4f8e-81c0-06b6f6a5b074","ios":"levelo://app?vid=c00a88fa-3bb2-4f8e-81c0-06b6f6a5b074"},"vehicle_type_id":"4","last_reported":1749496093,"current_range_meters":11200,"station_id":"ce4bhh92rcd13ifvqfi0","pricing_plan_id":"cebpf4jnsgd1na2vs0mg"},{"bike_id":"fbb9b34c-7031-4d75-9691-342c610b2101","system_id":"levelo_inurba_marseille","lat":43.28381,"lon":5.36459,"is_reserved":false,"is_disabled":false,"rental_uris":{"android":"levelo://app?vid=fbb9b34c-7031-4d75-9691-342c610b2101","ios":"levelo://app?vid=fbb9b34c-7031-4d75-9691-342c610b2101"},"vehicle_type_id":"4","last_reported":1749496093,"current_range_meters":11200,"station_id":"","pricing_plan_id":"cebpf4jnsgd1na2vs0mg"},{"bike_id":"af33d591-ee19-4f28-8873-2e84ad684f0c","system_id":"levelo_inurba_marseille","lat":43.29189,"lon":5.39314,"is_reserved":false,"is_disabled":false,"rental_uris":{"android":"levelo://app?vid=af33d591-ee19-4f28-8873-2e84ad684f0c","ios":"levelo://app?vid=af33d591-ee19-4f28-8873-2e84ad684f0c"},"vehicle_type_id":"4","last_reported":1749496093,"current_range_meters":11200,"station_id":"ce4bh192rcd13ifvqdd0","pricing_plan_id":"cebpf4jnsgd1na2vs0mg"},{"bike_id":"18775451-c73c-4c37-ad22-47a109bc28e5","system_id":"levelo_inurba_marseille","lat":43.260277,"lon":5.375457,"is_reserved":false,"is_disabled":false,"rental_uris":{"android":"levelo://app?vid=18775451-c73c-4c37-ad22-47a109bc28e5","ios":"levelo://app?vid=18775451-c73c-4c37-ad22-47a109bc28e5"},"vehicle_type_id":"4","last_reported":1749496093,"current_range_meters":11200,"station_id":"ce4bhgh2rcd13ifvqfa0","pricing_plan_id":"cebpf4jnsgd1na2vs0mg"},{"bike_id":"846c1ab8-e2d4-4236-b75a-c286469d92b0","system_id":"levelo_inurba_marseille","lat":43.30315,"lon":5.40438,"is_reserved":false,"is_disabled":false,"rental_uris":{"android":"levelo://app?vid=846c1ab8-e2d4-4236-b75a-c286469d92b0","ios":"levelo://app?vid=846c1ab8-e2d4-4236-b75a-c286469d92b0"},"vehicle_type_id":"4","last_reported":1749496093,"current_range_meters":11200,"station_id":"ce4bh012rcd13ifvqd10","pricing_plan_id":"cebpf4jnsgd1na2vs0mg"},{"bike_id":"c09b1c1e-6d5b-4a72-8f97-eccd430a9e54","system_id":"levelo_inurba_marseille","lat":43.26677,"lon":5.38264,"is_reserved":false,"is_disabled":true,"rental_uris":{"android":"levelo://app?vid=c09b1c1e-6d5b-4a72-8f97-eccd430a9e54","ios":"levelo://app?vid=c09b1c1e-6d5b-4a72-8f97-eccd430a9e54"},"vehicle_type_id":"4","last_reported":1749496093,"current_range_meters":11200,"station_id":"ce4bhgp2rcd13ifvqfc0","pricing_plan_id":"cebpf4jnsgd1na2vs0mg"},{"bike_id":"ccb5bf22-ad94-4d1f-ae27-4053400a5df2","system_id":"levelo_inurba_marseille","lat":43.25095,"lon":5.40334,"is_reserved":false,"is_disabled":false,"rental_uris":{"android":"levelo://app?vid=ccb5bf22-ad94-4d1f-ae27-4053400a5df2","ios":"levelo://app?vid=ccb5bf22-ad94-4d1f-ae27-4053400a5df2"},"vehicle_type_id":"4","last_reported":1749496093,"current_range_meters":11600,"station_id":"ce4bhlh2rcd13ifvqgig","pricing_plan_id":"cebpf4jnsgd1na2vs0mg"},{"bike_id":"ab933fb0-0e42-406d-acff-d73c0d397a14","system_id":"levelo_inurba_marseille","lat":43.28944,"lon":5.36638,"is_reserved":false,"is_disabled":false,"rental_uris":{"android":"levelo://app?vid=ab933fb0-0e42-406d-acff-d73c0d397a14","ios":"levelo://app?vid=ab933fb0-0e42-406d-acff-d73c0d397a14"},"vehicle_type_id":"4","last_reported":1749496093,"current_range_meters":11600,"station_id":"ce4bhap2rcd13ifvqek0","pricing_plan_id":"cebpf4jnsgd1na2vs0mg"},{"bike_id":"2f32b755-3ca4-4102-8e33-37fff5e1ff8d","system_id":"levelo_inurba_marseille","lat":43.27148,"lon":5.4019,"is_reserved":false,"is_disabled":false,"rental_uris":{"android":"levelo://app?vid=2f32b755-3ca4-4102-8e33-37fff5e1ff8d","ios":"levelo://app?vid=2f32b755-3ca4-4102-8e33-37fff5e1ff8d"},"vehicle_type_id":"4","last_reported":1749496093,"current_range_meters":11600,"station_id":"","pricing_plan_id":"cebpf4jnsgd1na2vs0mg"},{"bike_id":"4b29d212-5894-4ede-9882-d3bb36086cc8","system_id":"levelo_inurba_marseille","lat":43.2586,"lon":5.39897,"is_reserved":false,"is_disabled":false,"rental_uris":{"android":"levelo://app?vid=4b29d212-5894-4ede-9882-d3bb36086cc8","ios":"levelo://app?vid=4b29d212-5894-4ede-9882-d3bb36086cc8"},"vehicle_type_id":"4","last_reported":1749496093,"current_range_meters":11600,"station_id":"ce4bhl92rcd13ifvqghg","pricing_plan_id":"cebpf4jnsgd1na2vs0mg"},{"bike_id":"5aee6e98-5d72-4a58-8068-559ee9f9703d","system_id":"levelo_inurba_marseille","lat":43.211929,"lon":5.350675,"is_reserved":false,"is_disabled":false,"rental_uris":{"android":"levelo://app?vid=5aee6e98-5d72-4a58-8068-559ee9f9703d","ios":"levelo://app?vid=5aee6e98-5d72-4a58-8068-559ee9f9703d"},"vehicle_type_id":"4","last_reported":1749496093,"current_range_meters":11600,"station_id":"st_cvj6sg6p6f1abm77japg","pricing_plan_id":"cebpf4jnsgd1na2vs0mg"},{"bike_id":"c8c4af1d-070c-484a-a3f7-babd17d99646","system_id":"levelo_inurba_marseille","lat":43.33713,"lon":5.392,"is_reserved":false,"is_disabled":false,"rental_uris":{"android":"levelo://app?vid=c8c4af1d-070c-484a-a3f7-babd17d99646","ios":"levelo://app?vid=c8c4af1d-070c-484a-a3f7-babd17d99646"},"vehicle_type_id":"4","last_reported":1749496093,"current_range_meters":11600,"station_id":"ce4bhr92rcd13ifvqhsg","pricing_plan_id":"cebpf4jnsgd1na2vs0mg"},{"bike_id":"8990c0d6-b765-466a-beee-1a9dd63c2409","system_id":"levelo_inurba_marseille","lat":43.29249,"lon":5.4092,"is_reserved":false,"is_disabled":false,"rental_uris":{"android":"levelo://app?vid=8990c0d6-b765-466a-beee-1a9dd63c2409","ios":"levelo://app?vid=8990c0d6-b765-466a-beee-1a9dd63c2409"},"vehicle_type_id":"4","last_reported":1749496093,"current_range_meters":11600,"station_id":"ce4bh192rcd13ifvqdc0","pricing_plan_id":"cebpf4jnsgd1na2vs0mg"},{"bike_id":"9c321b1f-5d95-44be-92f0-5a6d215c91ff","system_id":"levelo_inurba_marseille","lat":43.31072,"lon":5.38352,"is_reserved":false,"is_disabled":false,"rental_uris":{"android":"levelo://app?vid=9c321b1f-5d95-44be-92f0-5a6d215c91ff","ios":"levelo://app?vid=9c321b1f-5d95-44be-92f0-5a6d215c91ff"},"vehicle_type_id":"4","last_reported":1749496093,"current_range_meters":11600,"station_id":"ce4bgv92rcd13ifvqcr0","pricing_plan_id":"cebpf4jnsgd1na2vs0mg"},{"bike_id":"e87eb276-2073-4331-8306-167a14e1326b","system_id":"levelo_inurba_marseille","lat":43.30128,"lon":5.39865,"is_reserved":false,"is_disabled":false,"rental_uris":{"android":"levelo://app?vid=e87eb276-2073-4331-8306-167a14e1326b","ios":"levelo://app?vid=e87eb276-2073-4331-8306-167a14e1326b"},"vehicle_type_id":"4","last_reported":1749496093,"current_range_meters":11600,"station_id":"ce4bh0h2rcd13ifvqd40","pricing_plan_id":"cebpf4jnsgd1na2vs0mg"},{"bike_id":"0474488f-a611-4a9f-be3f-7ab0841ddf9d","system_id":"levelo_inurba_marseille","lat":43.29202,"lon":5.39312,"is_reserved":false,"is_disabled":false,"rental_uris":{"android":"levelo://app?vid=0474488f-a611-4a9f-be3f-7ab0841ddf9d","ios":"levelo://app?vid=0474488f-a611-4a9f-be3f-7ab0841ddf9d"},"vehicle_type_id":"4","last_reported":1749496093,"current_range_meters":12000,"station_id":"ce4bh192rcd13ifvqdd0","pricing_plan_id":"cebpf4jnsgd1na2vs0mg"},{"bike_id":"a507e10a-b46e-45dd-a57c-2ec208042aeb","system_id":"levelo_inurba_marseille","lat":43.30335,"lon":5.40428,"is_reserved":false,"is_disabled":false,"rental_uris":{"android":"levelo://app?vid=a507e10a-b46e-45dd-a57c-2ec208042aeb","ios":"levelo://app?vid=a507e10a-b46e-45dd-a57c-2ec208042aeb"},"vehicle_type_id":"4","last_reported":1749496093,"current_range_meters":12000,"station_id":"ce4bh012rcd13ifvqd10","pricing_plan_id":"cebpf4jnsgd1na2vs0mg"},{"bike_id":"dedeea7e-9ff1-41e2-a1ca-3ecca467e74d","system_id":"levelo_inurba_marseille","lat":43.26494,"lon":5.39539,"is_reserved":false,"is_disabled":false,"rental_uris":{"android":"levelo://app?vid=dedeea7e-9ff1-41e2-a1ca-3ecca467e74d","ios":"levelo://app?vid=dedeea7e-9ff1-41e2-a1ca-3ecca467e74d"},"vehicle_type_id":"4","last_reported":1749496093,"current_range_meters":12400,"station_id":"ce4bhi12rcd13ifvqfq0","pricing_plan_id":"cebpf4jnsgd1na2vs0mg"},{"bike_id":"2649ef45-0b6a-4349-a65a-a2f74f74f74f","system_id":"levelo_inurba_marseille","lat":43.26476,"lon":5.39238,"is_reserved":false,"is_disabled":false,"rental_uris":{"android":"levelo://app?vid=2649ef45-0b6a-4349-a65a-a2f74f74f74f","ios":"levelo://app?vid=2649ef45-0b6a-4349-a65a-a2f74f74f74f"},"vehicle_type_id":"4","last_reported":1749496093,"current_range_meters":12000,"station_id":"","pricing_plan_id":"cebpf4jnsgd1na2vs0mg"},{"bike_id":"d3634e03-8245-4200-a2fc-bcd3fe58ad5f","system_id":"levelo_inurba_marseille","lat":43.313345,"lon":5.396936,"is_reserved":false,"is_disabled":false,"rental_uris":{"android":"levelo://app?vid=d3634e03-8245-4200-a2fc-bcd3fe58ad5f","ios":"levelo://app?vid=d3634e03-8245-4200-a2fc-bcd3fe58ad5f"},"vehicle_type_id":"4","last_reported":1749496093,"current_range_meters":11600,"station_id":"ce4bgvp2rcd13ifvqcu0","pricing_plan_id":"cebpf4jnsgd1na2vs0mg"},{"bike_id":"a58723dc-58ee-469d-92f4-f1d757235822","system_id":"levelo_inurba_marseille","lat":43.29532,"lon":5.38558,"is_reserved":false,"is_disabled":false,"rental_uris":{"android":"levelo://app?vid=a58723dc-58ee-469d-92f4-f1d757235822","ios":"levelo://app?vid=a58723dc-58ee-469d-92f4-f1d757235822"},"vehicle_type_id":"4","last_reported":1749496093,"current_range_meters":12000,"station_id":"ce4bgih2rcd13ifvqba0","pricing_plan_id":"cebpf4jnsgd1na2vs0mg"},{"bike_id":"05f647b8-df3c-4264-ac8e-61129fa51dc2","system_id":"levelo_inurba_marseille","lat":43.30934,"lon":5.40137,"is_reserved":false,"is_disabled":false,"rental_uris":{"android":"levelo://app?vid=05f647b8-df3c-4264-ac8e-61129fa51dc2","ios":"levelo://app?vid=05f647b8-df3c-4264-ac8e-61129fa51dc2"},"vehicle_type_id":"4","last_reported":1749496093,"current_range_meters":12400,"station_id":"ce4bgvp2rcd13ifvqct0","pricing_plan_id":"cebpf4jnsgd1na2vs0mg"},{"bike_id":"2aca8f6c-29f3-451a-bbc4-2f87e04c24a0","system_id":"levelo_inurba_marseille","lat":43.28607,"lon":5.35108,"is_reserved":false,"is_disabled":true,"rental_uris":{"android":"levelo://app?vid=2aca8f6c-29f3-451a-bbc4-2f87e04c24a0","ios":"levelo://app?vid=2aca8f6c-29f3-451a-bbc4-2f87e04c24a0"},"vehicle_type_id":"4","last_reported":1749496093,"current_range_meters":12400,"station_id":"ce4bhch2rcd13ifvqeug","pricing_plan_id":"cebpf4jnsgd1na2vs0mg"},{"bike_id":"b9364623-5267-4622-8364-bebf292877e5","system_id":"levelo_inurba_marseille","lat":43.30416,"lon":5.39727,"is_reserved":false,"is_disabled":false,"rental_uris":{"android":"levelo://app?vid=b9364623-5267-4622-8364-bebf292877e5","ios":"levelo://app?vid=b9364623-5267-4622-8364-bebf292877e5"},"vehicle_type_id":"4","last_reported":1749496093,"current_range_meters":12400,"station_id":"ce4bh092rcd13ifvqd20","pricing_plan_id":"cebpf4jnsgd1na2vs0mg"},{"bike_id":"98368eed-d22f-46a0-b6ff-9a5571169625","system_id":"levelo_inurba_marseille","lat":43.24071,"lon":5.37761,"is_reserved":false,"is_disabled":false,"rental_uris":{"android":"levelo://app?vid=98368eed-d22f-46a0-b6ff-9a5571169625","ios":"levelo://app?vid=98368eed-d22f-46a0-b6ff-9a5571169625"},"vehicle_type_id":"4","last_reported":1749496093,"current_range_meters":12800,"station_id":"ce4bhnp2rcd13ifvqgvg","pricing_plan_id":"cebpf4jnsgd1na2vs0mg"},{"bike_id":"9adda8bb-9fca-4ed1-b7c9-9a95b961bdbe","system_id":"levelo_inurba_marseille","lat":43.31185,"lon":5.3871,"is_reserved":false,"is_disabled":false,"rental_uris":{"android":"levelo://app?vid=9adda8bb-9fca-4ed1-b7c9-9a95b961bdbe","ios":"levelo://app?vid=9adda8bb-9fca-4ed1-b7c9-9a95b961bdbe"},"vehicle_type_id":"4","last_reported":1749496093,"current_range_meters":12800,"station_id":"ce4bgv12rcd13ifvqcp0","pricing_plan_id":"cebpf4jnsgd1na2vs0mg"},{"bike_id":"38732871-8503-466e-a980-ace2b8f5936b","system_id":"levelo_inurba_marseille","lat":43.27076,"lon":5.42267,"is_reserved":false,"is_disabled":false,"rental_uris":{"android":"levelo://app?vid=38732871-8503-466e-a980-ace2b8f5936b","ios":"levelo://app?vid=38732871-8503-466e-a980-ace2b8f5936b"},"vehicle_type_id":"4","last_reported":1749496093,"current_range_meters":12800,"station_id":"ce4bhk92rcd13ifvqgb0","pricing_plan_id":"cebpf4jnsgd1na2vs0mg"},{"bike_id":"082831da-f93c-434a-af60-963658fe2d35","system_id":"levelo_inurba_marseille","lat":43.29216,"lon":5.39313,"is_reserved":false,"is_disabled":false,"rental_uris":{"android":"levelo://app?vid=082831da-f93c-434a-af60-963658fe2d35","ios":"levelo://app?vid=082831da-f93c-434a-af60-963658fe2d35"},"vehicle_type_id":"4","last_reported":1749496093,"current_range_meters":12800,"station_id":"ce4bh192rcd13ifvqdd0","pricing_plan_id":"cebpf4jnsgd1na2vs0mg"},{"bike_id":"acf56c95-903d-4e41-b227-6ed213a46e8f","system_id":"levelo_inurba_marseille","lat":43.31363,"lon":5.38503,"is_reserved":false,"is_disabled":false,"rental_uris":{"android":"levelo://app?vid=acf56c95-903d-4e41-b227-6ed213a46e8f","ios":"levelo://app?vid=acf56c95-903d-4e41-b227-6ed213a46e8f"},"vehicle_type_id":"4","last_reported":1749496093,"current_range_meters":12800,"station_id":"ce4bgt92rcd13ifvqcf0","pricing_plan_id":"cebpf4jnsgd1na2vs0mg"},{"bike_id":"164919ed-6ce0-4c17-990d-139a643280f6","system_id":"levelo_inurba_marseille","lat":43.292003,"lon":5.3933,"is_reserved":false,"is_disabled":false,"rental_uris":{"android":"levelo://app?vid=164919ed-6ce0-4c17-990d-139a643280f6","ios":"levelo://app?vid=164919ed-6ce0-4c17-990d-139a643280f6"},"vehicle_type_id":"4","last_reported":1749496093,"current_range_meters":12800,"station_id":"ce4bh192rcd13ifvqdd0","pricing_plan_id":"cebpf4jnsgd1na2vs0mg"},{"bike_id":"468c7875-3475-48e7-95cc-9b4670ee97cc","system_id":"levelo_inurba_marseille","lat":43.31331,"lon":5.39683,"is_reserved":false,"is_disabled":false,"rental_uris":{"android":"levelo://app?vid=468c7875-3475-48e7-95cc-9b4670ee97cc","ios":"levelo://app?vid=468c7875-3475-48e7-95cc-9b4670ee97cc"},"vehicle_type_id":"4","last_reported":1749496093,"current_range_meters":12800,"station_id":"ce4bgvp2rcd13ifvqcu0","pricing_plan_id":"cebpf4jnsgd1na2vs0mg"},{"bike_id":"0d0f7750-e848-43de-8429-9cc0740c9de4","system_id":"levelo_inurba_marseille","lat":43.28982,"lon":5.37839,"is_reserved":false,"is_disabled":false,"rental_uris":{"android":"levelo://app?vid=0d0f7750-e848-43de-8429-9cc0740c9de4","ios":"levelo://app?vid=0d0f7750-e848-43de-8429-9cc0740c9de4"},"vehicle_type_id":"4","last_reported":1749496093,"current_range_meters":12800,"station_id":"ce4bh9p2rcd13ifvqed0","pricing_plan_id":"cebpf4jnsgd1na2vs0mg"},{"bike_id":"7facd0d3-e088-4a5a-a896-d77e8e818ab6","system_id":"levelo_inurba_marseille","lat":43.292304,"lon":5.361098,"is_reserved":false,"is_disabled":true,"rental_uris":{"android":"levelo://app?vid=7facd0d3-e088-4a5a-a896-d77e8e818ab6","ios":"levelo://app?vid=7facd0d3-e088-4a5a-a896-d77e8e818ab6"},"vehicle_type_id":"4","last_reported":1749496093,"current_range_meters":12800,"station_id":"ce4bhbh2rcd13ifvqeqg","pricing_plan_id":"cebpf4jnsgd1na2vs0mg"},{"bike_id":"1dbaabc4-cdbd-49a5-af7d-9dd9fdfa76cc","system_id":"levelo_inurba_marseille","lat":43.29875,"lon":5.38915,"is_reserved":false,"is_disabled":false,"rental_uris":{"android":"levelo://app?vid=1dbaabc4-cdbd-49a5-af7d-9dd9fdfa76cc","ios":"levelo://app?vid=1dbaabc4-cdbd-49a5-af7d-9dd9fdfa76cc"},"vehicle_type_id":"4","last_reported":1749496093,"current_range_meters":12800,"station_id":"ce4bh392rcd13ifvqdl0","pricing_plan_id":"cebpf4jnsgd1na2vs0mg"},{"bike_id":"fea03510-d732-494e-a818-113e6eebaa67","system_id":"levelo_inurba_marseille","lat":43.22922,"lon":5.35371,"is_reserved":false,"is_disabled":true,"rental_uris":{"android":"levelo://app?vid=fea03510-d732-494e-a818-113e6eebaa67","ios":"levelo://app?vid=fea03510-d732-494e-a818-113e6eebaa67"},"vehicle_type_id":"4","last_reported":1749496093,"current_range_meters":12800,"station_id":"cpo3532slgdg3j2ikp40","pricing_plan_id":"cebpf4jnsgd1na2vs0mg"},{"bike_id":"5fda9a87-2b68-4421-b415-520c832f56e9","system_id":"levelo_inurba_marseille","lat":43.21192,"lon":5.35058,"is_reserved":false,"is_disabled":false,"rental_uris":{"android":"levelo://app?vid=5fda9a87-2b68-4421-b415-520c832f56e9","ios":"levelo://app?vid=5fda9a87-2b68-4421-b415-520c832f56e9"},"vehicle_type_id":"4","last_reported":1749496093,"current_range_meters":12800,"station_id":"st_cvj6sg6p6f1abm77japg","pricing_plan_id":"cebpf4jnsgd1na2vs0mg"},{"bike_id":"80c98750-3372-4af0-a64d-981bdf0999ef","system_id":"levelo_inurba_marseille","lat":43.2986,"lon":5.39735,"is_reserved":false,"is_disabled":false,"rental_uris":{"android":"levelo://app?vid=80c98750-3372-4af0-a64d-981bdf0999ef","ios":"levelo://app?vid=80c98750-3372-4af0-a64d-981bdf0999ef"},"vehicle_type_id":"4","last_reported":1749496093,"current_range_meters":13600,"station_id":"ce4bh0h2rcd13ifvqd50","pricing_plan_id":"cebpf4jnsgd1na2vs0mg"},{"bike_id":"b6285f6b-e9e7-470d-9b6d-1afe99ab71bf","system_id":"levelo_inurba_marseille","lat":43.26186,"lon":5.42076,"is_reserved":false,"is_disabled":false,"rental_uris":{"android":"levelo://app?vid=b6285f6b-e9e7-470d-9b6d-1afe99ab71bf","ios":"levelo://app?vid=b6285f6b-e9e7-470d-9b6d-1afe99ab71bf"},"vehicle_type_id":"4","last_reported":1749496093,"current_range_meters":13600,"station_id":"","pricing_plan_id":"cebpf4jnsgd1na2vs0mg"},{"bike_id":"8fcc0914-ec7a-48de-a262-d50eaee5833b","system_id":"levelo_inurba_marseille","lat":43.28664,"lon":5.36341,"is_reserved":false,"is_disabled":false,"rental_uris":{"android":"levelo://app?vid=8fcc0914-ec7a-48de-a262-d50eaee5833b","ios":"levelo://app?vid=8fcc0914-ec7a-48de-a262-d50eaee5833b"},"vehicle_type_id":"4","last_reported":1749496093,"current_range_meters":13600,"station_id":"ce4bhah2rcd13ifvqej0","pricing_plan_id":"cebpf4jnsgd1na2vs0mg"},{"bike_id":"f156dd16-bfc6-4d9c-8774-e71864afe86d","system_id":"levelo_inurba_marseille","lat":43.27989,"lon":5.41676,"is_reserved":false,"is_disabled":true,"rental_uris":{"android":"levelo://app?vid=f156dd16-bfc6-4d9c-8774-e71864afe86d","ios":"levelo://app?vid=f156dd16-bfc6-4d9c-8774-e71864afe86d"},"vehicle_type_id":"4","last_reported":1749496093,"current_range_meters":13600,"station_id":"ce4bho12rcd13ifvqh1g","pricing_plan_id":"cebpf4jnsgd1na2vs0mg"},{"bike_id":"5197bfce-240b-42a5-bc69-e695df34846c","system_id":"levelo_inurba_marseille","lat":43.28662,"lon":5.38669,"is_reserved":false,"is_disabled":false,"rental_uris":{"android":"levelo://app?vid=5197bfce-240b-42a5-bc69-e695df34846c","ios":"levelo://app?vid=5197bfce-240b-42a5-bc69-e695df34846c"},"vehicle_type_id":"4","last_reported":1749496093,"current_range_meters":13600,"station_id":"ce4bh492rcd13ifvqdug","pricing_plan_id":"cebpf4jnsgd1na2vs0mg"},{"bike_id":"85ef08ec-c613-4369-a699-ae6f3993b4af","system_id":"levelo_inurba_marseille","lat":43.24168,"lon":5.364,"is_reserved":false,"is_disabled":false,"rental_uris":{"android":"levelo://app?vid=85ef08ec-c613-4369-a699-ae6f3993b4af","ios":"levelo://app?vid=85ef08ec-c613-4369-a699-ae6f3993b4af"},"vehicle_type_id":"4","last_reported":1749496093,"current_range_meters":13600,"station_id":"cpo36qri1sfpv3e86is0","pricing_plan_id":"cebpf4jnsgd1na2vs0mg"},{"bike_id":"3b33593f-98f0-4b12-b11c-8ecbf0798666","system_id":"levelo_inurba_marseille","lat":43.26866,"lon":5.39394,"is_reserved":false,"is_disabled":false,"rental_uris":{"android":"levelo://app?vid=3b33593f-98f0-4b12-b11c-8ecbf0798666","ios":"levelo://app?vid=3b33593f-98f0-4b12-b11c-8ecbf0798666"},"vehicle_type_id":"4","last_reported":1749496093,"current_range_meters":13600,"station_id":"","pricing_plan_id":"cebpf4jnsgd1na2vs0mg"},{"bike_id":"a7087589-8ca1-46d6-ace2-3bbf08f5a304","system_id":"levelo_inurba_marseille","lat":43.28941,"lon":5.36385,"is_reserved":false,"is_disabled":false,"rental_uris":{"android":"levelo://app?vid=a7087589-8ca1-46d6-ace2-3bbf08f5a304","ios":"levelo://app?vid=a7087589-8ca1-46d6-ace2-3bbf08f5a304"},"vehicle_type_id":"4","last_reported":1749496093,"current_range_meters":13600,"station_id":"ce4bhc92rcd13ifvqetg","pricing_plan_id":"cebpf4jnsgd1na2vs0mg"},{"bike_id":"385d14b5-f07a-4a3d-ad06-3c9a8b9e34a4","system_id":"levelo_inurba_marseille","lat":43.2694,"lon":5.40255,"is_reserved":false,"is_disabled":false,"rental_uris":{"android":"levelo://app?vid=385d14b5-f07a-4a3d-ad06-3c9a8b9e34a4","ios":"levelo://app?vid=385d14b5-f07a-4a3d-ad06-3c9a8b9e34a4"},"vehicle_type_id":"4","last_reported":1749496093,"current_range_meters":13600,"station_id":"cjm6bp8fraef2m0cb0m0","pricing_plan_id":"cebpf4jnsgd1na2vs0mg"},{"bike_id":"c6257330-0123-457e-8e36-d1e8d437f276","system_id":"levelo_inurba_marseille","lat":43.28434,"lon":5.39206,"is_reserved":false,"is_disabled":false,"rental_uris":{"android":"levelo://app?vid=c6257330-0123-457e-8e36-d1e8d437f276","ios":"levelo://app?vid=c6257330-0123-457e-8e36-d1e8d437f276"},"vehicle_type_id":"4","last_reported":1749496093,"current_range_meters":13600,"station_id":"ce4bhoh2rcd13ifvqh5g","pricing_plan_id":"cebpf4jnsgd1na2vs0mg"},{"bike_id":"462b56a3-ed47-4ce1-8819-56491a7066b4","system_id":"levelo_inurba_marseille","lat":43.249908,"lon":5.375373,"is_reserved":false,"is_disabled":false,"rental_uris":{"android":"levelo://app?vid=462b56a3-ed47-4ce1-8819-56491a7066b4","ios":"levelo://app?vid=462b56a3-ed47-4ce1-8819-56491a7066b4"},"vehicle_type_id":"4","last_reported":1749496093,"current_range_meters":14000,"station_id":"ce4bhh92rcd13ifvqfi0","pricing_plan_id":"cebpf4jnsgd1na2vs0mg"},{"bike_id":"660219bc-9f09-49e5-8bb8-0a89276755ae","system_id":"levelo_inurba_marseille","lat":43.29999,"lon":5.37191,"is_reserved":false,"is_disabled":true,"rental_uris":{"android":"levelo://app?vid=660219bc-9f09-49e5-8bb8-0a89276755ae","ios":"levelo://app?vid=660219bc-9f09-49e5-8bb8-0a89276755ae"},"vehicle_type_id":"4","last_reported":1749496093,"current_range_meters":14000,"station_id":"ce4bgr92rcd13ifvqc7g","pricing_plan_id":"cebpf4jnsgd1na2vs0mg"},{"bike_id":"6b343164-84b0-455c-a620-2866ed2a5e18","system_id":"levelo_inurba_marseille","lat":43.25881,"lon":5.39895,"is_reserved":false,"is_disabled":false,"rental_uris":{"android":"levelo://app?vid=6b343164-84b0-455c-a620-2866ed2a5e18","ios":"levelo://app?vid=6b343164-84b0-455c-a620-2866ed2a5e18"},"vehicle_type_id":"4","last_reported":1749496093,"current_range_meters":14000,"station_id":"ce4bhl92rcd13ifvqghg","pricing_plan_id":"cebpf4jnsgd1na2vs0mg"},{"bike_id":"5e415b8a-98a7-4d69-97b3-b00a94b59ca3","system_id":"levelo_inurba_marseille","lat":43.29262,"lon":5.37618,"is_reserved":false,"is_disabled":false,"rental_uris":{"android":"levelo://app?vid=5e415b8a-98a7-4d69-97b3-b00a94b59ca3","ios":"levelo://app?vid=5e415b8a-98a7-4d69-97b3-b00a94b59ca3"},"vehicle_type_id":"4","last_reported":1749496093,"current_range_meters":14000,"station_id":"ce4bgi12rcd13ifvqb80","pricing_plan_id":"cebpf4jnsgd1na2vs0mg"},{"bike_id":"88113087-f0bb-4133-ab2a-bbfce1f3d99a","system_id":"levelo_inurba_marseille","lat":43.31713,"lon":5.40472,"is_reserved":false,"is_disabled":true,"rental_uris":{"android":"levelo://app?vid=88113087-f0bb-4133-ab2a-bbfce1f3d99a","ios":"levelo://app?vid=88113087-f0bb-4133-ab2a-bbfce1f3d99a"},"vehicle_type_id":"4","last_reported":1749496093,"current_range_meters":14000,"station_id":"ce4bh012rcd13ifvqd00","pricing_plan_id":"cebpf4jnsgd1na2vs0mg"},{"bike_id":"8e317286-d121-41fb-88b8-5b957116b9fe","system_id":"levelo_inurba_marseille","lat":43.21201,"lon":5.35051,"is_reserved":false,"is_disabled":false,"rental_uris":{"android":"levelo://app?vid=8e317286-d121-41fb-88b8-5b957116b9fe","ios":"levelo://app?vid=8e317286-d121-41fb-88b8-5b957116b9fe"},"vehicle_type_id":"4","last_reported":1749496093,"current_range_meters":14000,"station_id":"st_cvj6sg6p6f1abm77japg","pricing_plan_id":"cebpf4jnsgd1na2vs0mg"},{"bike_id":"eae143a9-ce6d-4639-a7b2-ecffb8cf0398","system_id":"levelo_inurba_marseille","lat":43.257284,"lon":5.411049,"is_reserved":false,"is_disabled":false,"rental_uris":{"android":"levelo://app?vid=eae143a9-ce6d-4639-a7b2-ecffb8cf0398","ios":"levelo://app?vid=eae143a9-ce6d-4639-a7b2-ecffb8cf0398"},"vehicle_type_id":"4","last_reported":1749496093,"current_range_meters":14000,"station_id":"ce4bhkp2rcd13ifvqgd0","pricing_plan_id":"cebpf4jnsgd1na2vs0mg"},{"bike_id":"ef555bdb-3115-4b1f-9398-9c76776e1204","system_id":"levelo_inurba_marseille","lat":43.26015,"lon":5.37398,"is_reserved":false,"is_disabled":false,"rental_uris":{"android":"levelo://app?vid=ef555bdb-3115-4b1f-9398-9c76776e1204","ios":"levelo://app?vid=ef555bdb-3115-4b1f-9398-9c76776e1204"},"vehicle_type_id":"4","last_reported":1749496093,"current_range_meters":14400,"station_id":"","pricing_plan_id":"cebpf4jnsgd1na2vs0mg"},{"bike_id":"5958541c-d2e7-4fc0-b6e8-efde527d71c5","system_id":"levelo_inurba_marseille","lat":43.3089,"lon":5.39644,"is_reserved":false,"is_disabled":false,"rental_uris":{"android":"levelo://app?vid=5958541c-d2e7-4fc0-b6e8-efde527d71c5","ios":"levelo://app?vid=5958541c-d2e7-4fc0-b6e8-efde527d71c5"},"vehicle_type_id":"4","last_reported":1749496093,"current_range_meters":14400,"station_id":"ce4bh012rcd13ifvqcv0","pricing_plan_id":"cebpf4jnsgd1na2vs0mg"},{"bike_id":"7a5a6a32-398f-4b87-945e-a6a16b752960","system_id":"levelo_inurba_marseille","lat":43.31177,"lon":5.38709,"is_reserved":false,"is_disabled":false,"rental_uris":{"android":"levelo://app?vid=7a5a6a32-398f-4b87-945e-a6a16b752960","ios":"levelo://app?vid=7a5a6a32-398f-4b87-945e-a6a16b752960"},"vehicle_type_id":"4","last_reported":1749496093,"current_range_meters":14400,"station_id":"ce4bgv12rcd13ifvqcp0","pricing_plan_id":"cebpf4jnsgd1na2vs0mg"},{"bike_id":"09ae2d0d-f1c1-464f-92c9-abc0446d6e7e","system_id":"levelo_inurba_marseille","lat":43.315293,"lon":5.380347,"is_reserved":false,"is_disabled":false,"rental_uris":{"android":"levelo://app?vid=09ae2d0d-f1c1-464f-92c9-abc0446d6e7e","ios":"levelo://app?vid=09ae2d0d-f1c1-464f-92c9-abc0446d6e7e"},"vehicle_type_id":"4","last_reported":1749496093,"current_range_meters":14400,"station_id":"ce4bhsp2rcd13ifvqi50","pricing_plan_id":"cebpf4jnsgd1na2vs0mg"},{"bike_id":"0053f0bd-3481-4f8f-a19e-7dd7a6624507","system_id":"levelo_inurba_marseille","lat":43.29898,"lon":5.43682,"is_reserved":false,"is_disabled":false,"rental_uris":{"android":"levelo://app?vid=0053f0bd-3481-4f8f-a19e-7dd7a6624507","ios":"levelo://app?vid=0053f0bd-3481-4f8f-a19e-7dd7a6624507"},"vehicle_type_id":"4","last_reported":1749496093,"current_range_meters":14400,"station_id":"ce4bhpp2rcd13ifvqhfg","pricing_plan_id":"cebpf4jnsgd1na2vs0mg"},{"bike_id":"4d9793f3-7183-46bc-a21b-b9f71b5c9588","system_id":"levelo_inurba_marseille","lat":43.30311,"lon":5.39199,"is_reserved":false,"is_disabled":false,"rental_uris":{"android":"levelo://app?vid=4d9793f3-7183-46bc-a21b-b9f71b5c9588","ios":"levelo://app?vid=4d9793f3-7183-46bc-a21b-b9f71b5c9588"},"vehicle_type_id":"4","last_reported":1749496093,"current_range_meters":14400,"station_id":"ce4bgkh2rcd13ifvqbk0","pricing_plan_id":"cebpf4jnsgd1na2vs0mg"},{"bike_id":"ad6c329c-2135-419b-93d2-3080b8444257","system_id":"levelo_inurba_marseille","lat":43.28342,"lon":5.38108,"is_reserved":false,"is_disabled":true,"rental_uris":{"android":"levelo://app?vid=ad6c329c-2135-419b-93d2-3080b8444257","ios":"levelo://app?vid=ad6c329c-2135-419b-93d2-3080b8444257"},"vehicle_type_id":"4","last_reported":1749496093,"current_range_meters":14400,"station_id":"ce4bh412rcd13ifvqdr0","pricing_plan_id":"cebpf4jnsgd1na2vs0mg"},{"bike_id":"9455d38b-6f8c-4442-87c1-499e849fe884","system_id":"levelo_inurba_marseille","lat":43.28415,"lon":5.34998,"is_reserved":false,"is_disabled":true,"rental_uris":{"android":"levelo://app?vid=9455d38b-6f8c-4442-87c1-499e849fe884","ios":"levelo://app?vid=9455d38b-6f8c-4442-87c1-499e849fe884"},"vehicle_type_id":"4","last_reported":1749496093,"current_range_meters":14400,"station_id":"ce4bhbh2rcd13ifvqepg","pricing_plan_id":"cebpf4jnsgd1na2vs0mg"},{"bike_id":"e360c8f5-bf43-4b53-9f23-51a0be6c1853","system_id":"levelo_inurba_marseille","lat":43.29252,"lon":5.40909,"is_reserved":false,"is_disabled":false,"rental_uris":{"android":"levelo://app?vid=e360c8f5-bf43-4b53-9f23-51a0be6c1853","ios":"levelo://app?vid=e360c8f5-bf43-4b53-9f23-51a0be6c1853"},"vehicle_type_id":"4","last_reported":1749496093,"current_range_meters":14800,"station_id":"ce4bh192rcd13ifvqdc0","pricing_plan_id":"cebpf4jnsgd1na2vs0mg"},{"bike_id":"709e0c40-f85b-4537-b3e9-c921376c503d","system_id":"levelo_inurba_marseille","lat":43.28077,"lon":5.39656,"is_reserved":false,"is_disabled":false,"rental_uris":{"android":"levelo://app?vid=709e0c40-f85b-4537-b3e9-c921376c503d","ios":"levelo://app?vid=709e0c40-f85b-4537-b3e9-c921376c503d"},"vehicle_type_id":"4","last_reported":1749496093,"current_range_meters":14800,"station_id":"ce4bho12rcd13ifvqh2g","pricing_plan_id":"cebpf4jnsgd1na2vs0mg"},{"bike_id":"9c1292b7-16f7-48e7-a577-d8a6c0fd5d04","system_id":"levelo_inurba_marseille","lat":43.28858,"lon":5.39324,"is_reserved":false,"is_disabled":false,"rental_uris":{"android":"levelo://app?vid=9c1292b7-16f7-48e7-a577-d8a6c0fd5d04","ios":"levelo://app?vid=9c1292b7-16f7-48e7-a577-d8a6c0fd5d04"},"vehicle_type_id":"4","last_reported":1749496093,"current_range_meters":14000,"station_id":"ce4bh2p2rcd13ifvqdi0","pricing_plan_id":"cebpf4jnsgd1na2vs0mg"},{"bike_id":"5077581b-cebb-46fc-ba69-4fa8272d4810","system_id":"levelo_inurba_marseille","lat":43.21374,"lon":5.35517,"is_reserved":false,"is_disabled":false,"rental_uris":{"android":"levelo://app?vid=5077581b-cebb-46fc-ba69-4fa8272d4810","ios":"levelo://app?vid=5077581b-cebb-46fc-ba69-4fa8272d4810"},"vehicle_type_id":"4","last_reported":1749496093,"current_range_meters":14800,"station_id":"","pricing_plan_id":"cebpf4jnsgd1na2vs0mg"},{"bike_id":"4eada35f-a65e-4d4e-b60d-b88e9a624416","system_id":"levelo_inurba_marseille","lat":43.24307,"lon":5.37143,"is_reserved":false,"is_disabled":true,"rental_uris":{"android":"levelo://app?vid=4eada35f-a65e-4d4e-b60d-b88e9a624416","ios":"levelo://app?vid=4eada35f-a65e-4d4e-b60d-b88e9a624416"},"vehicle_type_id":"4","last_reported":1749496093,"current_range_meters":14800,"station_id":"ce4bhhh2rcd13ifvqfk0","pricing_plan_id":"cebpf4jnsgd1na2vs0mg"},{"bike_id":"12dfbc36-ad5f-42ab-a77e-d7f78e9faaa4","system_id":"levelo_inurba_marseille","lat":43.29064,"lon":5.37171,"is_reserved":false,"is_disabled":false,"rental_uris":{"android":"levelo://app?vid=12dfbc36-ad5f-42ab-a77e-d7f78e9faaa4","ios":"levelo://app?vid=12dfbc36-ad5f-42ab-a77e-d7f78e9faaa4"},"vehicle_type_id":"4","last_reported":1749496093,"current_range_meters":14800,"station_id":"ce4bh5p2rcd13ifvqe4g","pricing_plan_id":"cebpf4jnsgd1na2vs0mg"},{"bike_id":"c7432800-1b14-4854-84d5-dd3690953cae","system_id":"levelo_inurba_marseille","lat":43.262,"lon":5.37443,"is_reserved":false,"is_disabled":true,"rental_uris":{"android":"levelo://app?vid=c7432800-1b14-4854-84d5-dd3690953cae","ios":"levelo://app?vid=c7432800-1b14-4854-84d5-dd3690953cae"},"vehicle_type_id":"4","last_reported":1749496093,"current_range_meters":14800,"station_id":"ce4bhgp2rcd13ifvqfc0","pricing_plan_id":"cebpf4jnsgd1na2vs0mg"},{"bike_id":"3a20c262-0119-452d-89df-86a1905ef8d7","system_id":"levelo_inurba_marseille","lat":43.28852,"lon":5.39301,"is_reserved":false,"is_disabled":false,"rental_uris":{"android":"levelo://app?vid=3a20c262-0119-452d-89df-86a1905ef8d7","ios":"levelo://app?vid=3a20c262-0119-452d-89df-86a1905ef8d7"},"vehicle_type_id":"4","last_reported":1749496093,"current_range_meters":14400,"station_id":"ce4bh2p2rcd13ifvqdi0","pricing_plan_id":"cebpf4jnsgd1na2vs0mg"},{"bike_id":"e83c1c2a-1fcf-46e1-adbb-09f634aa3f06","system_id":"levelo_inurba_marseille","lat":43.290108,"lon":5.356094,"is_reserved":false,"is_disabled":true,"rental_uris":{"android":"levelo://app?vid=e83c1c2a-1fcf-46e1-adbb-09f634aa3f06","ios":"levelo://app?vid=e83c1c2a-1fcf-46e1-adbb-09f634aa3f06"},"vehicle_type_id":"4","last_reported":1749496093,"current_range_meters":14800,"station_id":"ce4bhb92rcd13ifvqen0","pricing_plan_id":"cebpf4jnsgd1na2vs0mg"},{"bike_id":"0c232e30-20b7-4486-a907-b2ce079334bc","system_id":"levelo_inurba_marseille","lat":43.28924,"lon":5.38388,"is_reserved":false,"is_disabled":false,"rental_uris":{"android":"levelo://app?vid=0c232e30-20b7-4486-a907-b2ce079334bc","ios":"levelo://app?vid=0c232e30-20b7-4486-a907-b2ce079334bc"},"vehicle_type_id":"4","last_reported":1749496093,"current_range_meters":14800,"station_id":"ce4bh612rcd13ifvqe6g","pricing_plan_id":"cebpf4jnsgd1na2vs0mg"},{"bike_id":"31352b00-66f2-474e-9d15-4e99ed8b5a62","system_id":"levelo_inurba_marseille","lat":43.294128,"lon":5.386218,"is_reserved":false,"is_disabled":false,"rental_uris":{"android":"levelo://app?vid=31352b00-66f2-474e-9d15-4e99ed8b5a62","ios":"levelo://app?vid=31352b00-66f2-474e-9d15-4e99ed8b5a62"},"vehicle_type_id":"4","last_reported":1749496093,"current_range_meters":15200,"station_id":"ce4bh2h2rcd13ifvqdh0","pricing_plan_id":"cebpf4jnsgd1na2vs0mg"},{"bike_id":"95d06c20-8c0f-4bc1-a011-68719b869d37","system_id":"levelo_inurba_marseille","lat":43.28698,"lon":5.37392,"is_reserved":false,"is_disabled":false,"rental_uris":{"android":"levelo://app?vid=95d06c20-8c0f-4bc1-a011-68719b869d37","ios":"levelo://app?vid=95d06c20-8c0f-4bc1-a011-68719b869d37"},"vehicle_type_id":"4","last_reported":1749496093,"current_range_meters":15200,"station_id":"ce4bh3p2rcd13ifvqdq0","pricing_plan_id":"cebpf4jnsgd1na2vs0mg"},{"bike_id":"dbade38b-35ad-4b7e-9c03-02b1b011bf3e","system_id":"levelo_inurba_marseille","lat":43.25826,"lon":5.39435,"is_reserved":false,"is_disabled":false,"rental_uris":{"android":"levelo://app?vid=dbade38b-35ad-4b7e-9c03-02b1b011bf3e","ios":"levelo://app?vid=dbade38b-35ad-4b7e-9c03-02b1b011bf3e"},"vehicle_type_id":"4","last_reported":1749496093,"current_range_meters":15200,"station_id":"ce4bhip2rcd13ifvqft0","pricing_plan_id":"cebpf4jnsgd1na2vs0mg"},{"bike_id":"60a8540b-0b97-4e6a-b532-b4cdb1bca662","system_id":"levelo_inurba_marseille","lat":43.26016,"lon":5.38728,"is_reserved":false,"is_disabled":false,"rental_uris":{"android":"levelo://app?vid=60a8540b-0b97-4e6a-b532-b4cdb1bca662","ios":"levelo://app?vid=60a8540b-0b97-4e6a-b532-b4cdb1bca662"},"vehicle_type_id":"4","last_reported":1749496093,"current_range_meters":15200,"station_id":"","pricing_plan_id":"cebpf4jnsgd1na2vs0mg"},{"bike_id":"402b268f-51d8-4319-85da-3f411d4d5d91","system_id":"levelo_inurba_marseille","lat":43.211846,"lon":5.350629,"is_reserved":false,"is_disabled":false,"rental_uris":{"android":"levelo://app?vid=402b268f-51d8-4319-85da-3f411d4d5d91","ios":"levelo://app?vid=402b268f-51d8-4319-85da-3f411d4d5d91"},"vehicle_type_id":"4","last_reported":1749496093,"current_range_meters":15200,"station_id":"st_cvj6sg6p6f1abm77japg","pricing_plan_id":"cebpf4jnsgd1na2vs0mg"},{"bike_id":"35900bc9-c89e-4856-990b-e8a84fd0aaa7","system_id":"levelo_inurba_marseille","lat":43.28706,"lon":5.37393,"is_reserved":false,"is_disabled":false,"rental_uris":{"android":"levelo://app?vid=35900bc9-c89e-4856-990b-e8a84fd0aaa7","ios":"levelo://app?vid=35900bc9-c89e-4856-990b-e8a84fd0aaa7"},"vehicle_type_id":"4","last_reported":1749496093,"current_range_meters":15200,"station_id":"ce4bh3p2rcd13ifvqdq0","pricing_plan_id":"cebpf4jnsgd1na2vs0mg"},{"bike_id":"6fd4cd93-a409-4da9-ad4b-b6025023458d","system_id":"levelo_inurba_marseille","lat":43.30117,"lon":5.37085,"is_reserved":false,"is_disabled":false,"rental_uris":{"android":"levelo://app?vid=6fd4cd93-a409-4da9-ad4b-b6025023458d","ios":"levelo://app?vid=6fd4cd93-a409-4da9-ad4b-b6025023458d"},"vehicle_type_id":"4","last_reported":1749496093,"current_range_meters":16000,"station_id":"","pricing_plan_id":"cebpf4jnsgd1na2vs0mg"},{"bike_id":"ec02e175-aaa4-4066-abe1-304d2d5f3fc5","system_id":"levelo_inurba_marseille","lat":43.24177,"lon":5.39728,"is_reserved":false,"is_disabled":false,"rental_uris":{"android":"levelo://app?vid=ec02e175-aaa4-4066-abe1-304d2d5f3fc5","ios":"levelo://app?vid=ec02e175-aaa4-4066-abe1-304d2d5f3fc5"},"vehicle_type_id":"4","last_reported":1749496093,"current_range_meters":16000,"station_id":"ce4bhn12rcd13ifvqgpg","pricing_plan_id":"cebpf4jnsgd1na2vs0mg"},{"bike_id":"df6e19e4-95d9-41bd-a26c-7e815c305fc0","system_id":"levelo_inurba_marseille","lat":43.29506,"lon":5.3941,"is_reserved":false,"is_disabled":false,"rental_uris":{"android":"levelo://app?vid=df6e19e4-95d9-41bd-a26c-7e815c305fc0","ios":"levelo://app?vid=df6e19e4-95d9-41bd-a26c-7e815c305fc0"},"vehicle_type_id":"4","last_reported":1749496093,"current_range_meters":16000,"station_id":"ce4bh292rcd13ifvqdf0","pricing_plan_id":"cebpf4jnsgd1na2vs0mg"},{"bike_id":"4340148e-b925-4918-9795-3a0ca836b912","system_id":"levelo_inurba_marseille","lat":43.2319,"lon":5.35555,"is_reserved":false,"is_disabled":false,"rental_uris":{"android":"levelo://app?vid=4340148e-b925-4918-9795-3a0ca836b912","ios":"levelo://app?vid=4340148e-b925-4918-9795-3a0ca836b912"},"vehicle_type_id":"4","last_reported":1749496093,"current_range_meters":16000,"station_id":"ce4bhu92rcd13ifvqi70","pricing_plan_id":"cebpf4jnsgd1na2vs0mg"},{"bike_id":"45e250be-f2ab-4fc6-a5d4-92b5167f331d","system_id":"levelo_inurba_marseille","lat":43.25878,"lon":5.3989,"is_reserved":false,"is_disabled":false,"rental_uris":{"android":"levelo://app?vid=45e250be-f2ab-4fc6-a5d4-92b5167f331d","ios":"levelo://app?vid=45e250be-f2ab-4fc6-a5d4-92b5167f331d"},"vehicle_type_id":"4","last_reported":1749496093,"current_range_meters":16000,"station_id":"ce4bhl92rcd13ifvqghg","pricing_plan_id":"cebpf4jnsgd1na2vs0mg"},{"bike_id":"9508da7d-5dc8-430b-abbe-98007997b41c","system_id":"levelo_inurba_marseille","lat":43.28403,"lon":5.37512,"is_reserved":false,"is_disabled":false,"rental_uris":{"android":"levelo://app?vid=9508da7d-5dc8-430b-abbe-98007997b41c","ios":"levelo://app?vid=9508da7d-5dc8-430b-abbe-98007997b41c"},"vehicle_type_id":"4","last_reported":1749496093,"current_range_meters":16000,"station_id":"ce4bh412rcd13ifvqds0","pricing_plan_id":"cebpf4jnsgd1na2vs0mg"},{"bike_id":"73b9a44e-728d-4cc3-8274-3cd631358580","system_id":"levelo_inurba_marseille","lat":43.28838,"lon":5.3932,"is_reserved":false,"is_disabled":false,"rental_uris":{"android":"levelo://app?vid=73b9a44e-728d-4cc3-8274-3cd631358580","ios":"levelo://app?vid=73b9a44e-728d-4cc3-8274-3cd631358580"},"vehicle_type_id":"4","last_reported":1749496093,"current_range_meters":16000,"station_id":"ce4bh2p2rcd13ifvqdi0","pricing_plan_id":"cebpf4jnsgd1na2vs0mg"},{"bike_id":"8ca5dec6-ad71-4c1f-b593-6eb7c47139ce","system_id":"levelo_inurba_marseille","lat":43.28082,"lon":5.39664,"is_reserved":false,"is_disabled":false,"rental_uris":{"android":"levelo://app?vid=8ca5dec6-ad71-4c1f-b593-6eb7c47139ce","ios":"levelo://app?vid=8ca5dec6-ad71-4c1f-b593-6eb7c47139ce"},"vehicle_type_id":"4","last_reported":1749496093,"current_range_meters":16400,"station_id":"ce4bho12rcd13ifvqh2g","pricing_plan_id":"cebpf4jnsgd1na2vs0mg"},{"bike_id":"de8c0736-607b-471e-836f-cc3139fd1b7f","system_id":"levelo_inurba_marseille","lat":43.28001,"lon":5.40016,"is_reserved":false,"is_disabled":false,"rental_uris":{"android":"levelo://app?vid=de8c0736-607b-471e-836f-cc3139fd1b7f","ios":"levelo://app?vid=de8c0736-607b-471e-836f-cc3139fd1b7f"},"vehicle_type_id":"4","last_reported":1749496093,"current_range_meters":16400,"station_id":"ce4bho92rcd13ifvqh4g","pricing_plan_id":"cebpf4jnsgd1na2vs0mg"},{"bike_id":"77d1ffc3-43eb-40e0-b51b-ed818f04e4bd","system_id":"levelo_inurba_marseille","lat":43.2926,"lon":5.38443,"is_reserved":false,"is_disabled":false,"rental_uris":{"android":"levelo://app?vid=77d1ffc3-43eb-40e0-b51b-ed818f04e4bd","ios":"levelo://app?vid=77d1ffc3-43eb-40e0-b51b-ed818f04e4bd"},"vehicle_type_id":"4","last_reported":1749496093,"current_range_meters":16400,"station_id":"ce4bh692rcd13ifvqea0","pricing_plan_id":"cebpf4jnsgd1na2vs0mg"},{"bike_id":"b7651752-8eb3-4b67-91fc-0a6e006c8d1f","system_id":"levelo_inurba_marseille","lat":43.21178,"lon":5.35073,"is_reserved":false,"is_disabled":false,"rental_uris":{"android":"levelo://app?vid=b7651752-8eb3-4b67-91fc-0a6e006c8d1f","ios":"levelo://app?vid=b7651752-8eb3-4b67-91fc-0a6e006c8d1f"},"vehicle_type_id":"4","last_reported":1749496093,"current_range_meters":16400,"station_id":"st_cvj6sg6p6f1abm77japg","pricing_plan_id":"cebpf4jnsgd1na2vs0mg"},{"bike_id":"c46183ac-8cca-4cdf-a8a9-22b7c63cf27e","system_id":"levelo_inurba_marseille","lat":43.28858,"lon":5.35832,"is_reserved":false,"is_disabled":true,"rental_uris":{"android":"levelo://app?vid=c46183ac-8cca-4cdf-a8a9-22b7c63cf27e","ios":"levelo://app?vid=c46183ac-8cca-4cdf-a8a9-22b7c63cf27e"},"vehicle_type_id":"4","last_reported":1749496093,"current_range_meters":16400,"station_id":"ce4bhb12rcd13ifvqem0","pricing_plan_id":"cebpf4jnsgd1na2vs0mg"},{"bike_id":"3bda16d8-90d9-4118-9969-3498193106e5","system_id":"levelo_inurba_marseille","lat":43.28404,"lon":5.37526,"is_reserved":false,"is_disabled":true,"rental_uris":{"android":"levelo://app?vid=3bda16d8-90d9-4118-9969-3498193106e5","ios":"levelo://app?vid=3bda16d8-90d9-4118-9969-3498193106e5"},"vehicle_type_id":"4","last_reported":1749496093,"current_range_meters":16400,"station_id":"ce4bh412rcd13ifvqds0","pricing_plan_id":"cebpf4jnsgd1na2vs0mg"},{"bike_id":"e1d64f00-20b8-48cf-bd7e-016f6bf2c717","system_id":"levelo_inurba_marseille","lat":43.28469,"lon":5.35882,"is_reserved":false,"is_disabled":false,"rental_uris":{"android":"levelo://app?vid=e1d64f00-20b8-48cf-bd7e-016f6bf2c717","ios":"levelo://app?vid=e1d64f00-20b8-48cf-bd7e-016f6bf2c717"},"vehicle_type_id":"4","last_reported":1749496093,"current_range_meters":16400,"station_id":"ce4bhah2rcd13ifvqei0","pricing_plan_id":"cebpf4jnsgd1na2vs0mg"},{"bike_id":"ab972075-b934-4192-879c-9654ca53f78e","system_id":"levelo_inurba_marseille","lat":43.29038,"lon":5.38641,"is_reserved":false,"is_disabled":false,"rental_uris":{"android":"levelo://app?vid=ab972075-b934-4192-879c-9654ca53f78e","ios":"levelo://app?vid=ab972075-b934-4192-879c-9654ca53f78e"},"vehicle_type_id":"4","last_reported":1749496093,"current_range_meters":16400,"station_id":"ce4bh4p2rcd13ifvqe0g","pricing_plan_id":"cebpf4jnsgd1na2vs0mg"},{"bike_id":"ca27e12a-1f2d-4cf2-be29-12a2b9ff1547","system_id":"levelo_inurba_marseille","lat":43.31729,"lon":5.42387,"is_reserved":false,"is_disabled":false,"rental_uris":{"android":"levelo://app?vid=ca27e12a-1f2d-4cf2-be29-12a2b9ff1547","ios":"levelo://app?vid=ca27e12a-1f2d-4cf2-be29-12a2b9ff1547"},"vehicle_type_id":"4","last_reported":1749496093,"current_range_meters":16400,"station_id":"ce4bhp92rcd13ifvqhbg","pricing_plan_id":"cebpf4jnsgd1na2vs0mg"},{"bike_id":"f89320aa-6776-4d93-93bc-0c62c808b8ba","system_id":"levelo_inurba_marseille","lat":43.258687,"lon":5.39893,"is_reserved":false,"is_disabled":false,"rental_uris":{"android":"levelo://app?vid=f89320aa-6776-4d93-93bc-0c62c808b8ba","ios":"levelo://app?vid=f89320aa-6776-4d93-93bc-0c62c808b8ba"},"vehicle_type_id":"4","last_reported":1749496093,"current_range_meters":16400,"station_id":"ce4bhl92rcd13ifvqghg","pricing_plan_id":"cebpf4jnsgd1na2vs0mg"},{"bike_id":"7c2ad8a5-4b30-4eca-a016-b09bc7c4cfd5","system_id":"levelo_inurba_marseille","lat":43.33178,"lon":5.38043,"is_reserved":false,"is_disabled":false,"rental_uris":{"android":"levelo://app?vid=7c2ad8a5-4b30-4eca-a016-b09bc7c4cfd5","ios":"levelo://app?vid=7c2ad8a5-4b30-4eca-a016-b09bc7c4cfd5"},"vehicle_type_id":"4","last_reported":1749496093,"current_range_meters":16800,"station_id":"","pricing_plan_id":"cebpf4jnsgd1na2vs0mg"},{"bike_id":"23e89bac-e2bf-4e89-8e08-1f432b7a4188","system_id":"levelo_inurba_marseille","lat":43.2119,"lon":5.35073,"is_reserved":false,"is_disabled":true,"rental_uris":{"android":"levelo://app?vid=23e89bac-e2bf-4e89-8e08-1f432b7a4188","ios":"levelo://app?vid=23e89bac-e2bf-4e89-8e08-1f432b7a4188"},"vehicle_type_id":"4","last_reported":1749496093,"current_range_meters":16800,"station_id":"st_cvj6sg6p6f1abm77japg","pricing_plan_id":"cebpf4jnsgd1na2vs0mg"},{"bike_id":"a06a5e76-7a40-4637-ae47-ceef6131d43b","system_id":"levelo_inurba_marseille","lat":43.30281,"lon":5.36996,"is_reserved":false,"is_disabled":false,"rental_uris":{"android":"levelo://app?vid=a06a5e76-7a40-4637-ae47-ceef6131d43b","ios":"levelo://app?vid=a06a5e76-7a40-4637-ae47-ceef6131d43b"},"vehicle_type_id":"4","last_reported":1749496093,"current_range_meters":16800,"station_id":"","pricing_plan_id":"cebpf4jnsgd1na2vs0mg"},{"bike_id":"03c0db53-7bee-41cf-9720-4c41e24c0048","system_id":"levelo_inurba_marseille","lat":43.28284,"lon":5.35071,"is_reserved":false,"is_disabled":true,"rental_uris":{"android":"levelo://app?vid=03c0db53-7bee-41cf-9720-4c41e24c0048","ios":"levelo://app?vid=03c0db53-7bee-41cf-9720-4c41e24c0048"},"vehicle_type_id":"4","last_reported":1749496093,"current_range_meters":16800,"station_id":"ce4bhbp2rcd13ifvqerg","pricing_plan_id":"cebpf4jnsgd1na2vs0mg"},{"bike_id":"0f06fca2-9fbe-4867-99b4-b299d726d15c","system_id":"levelo_inurba_marseille","lat":43.298737,"lon":5.397536,"is_reserved":false,"is_disabled":false,"rental_uris":{"android":"levelo://app?vid=0f06fca2-9fbe-4867-99b4-b299d726d15c","ios":"levelo://app?vid=0f06fca2-9fbe-4867-99b4-b299d726d15c"},"vehicle_type_id":"4","last_reported":1749496093,"current_range_meters":16800,"station_id":"ce4bh0h2rcd13ifvqd50","pricing_plan_id":"cebpf4jnsgd1na2vs0mg"},{"bike_id":"57d5b0f7-7b49-4452-b186-d31201fcfd7c","system_id":"levelo_inurba_marseille","lat":43.251111,"lon":5.403337,"is_reserved":false,"is_disabled":false,"rental_uris":{"android":"levelo://app?vid=57d5b0f7-7b49-4452-b186-d31201fcfd7c","ios":"levelo://app?vid=57d5b0f7-7b49-4452-b186-d31201fcfd7c"},"vehicle_type_id":"4","last_reported":1749496093,"current_range_meters":16800,"station_id":"ce4bhlh2rcd13ifvqgig","pricing_plan_id":"cebpf4jnsgd1na2vs0mg"},{"bike_id":"773928d9-9f31-4e1d-92aa-4d02a0688eeb","system_id":"levelo_inurba_marseille","lat":43.28591,"lon":5.3705,"is_reserved":false,"is_disabled":false,"rental_uris":{"android":"levelo://app?vid=773928d9-9f31-4e1d-92aa-4d02a0688eeb","ios":"levelo://app?vid=773928d9-9f31-4e1d-92aa-4d02a0688eeb"},"vehicle_type_id":"4","last_reported":1749496093,"current_range_meters":16800,"station_id":"ce4bht12rcd13ifvqi60","pricing_plan_id":"cebpf4jnsgd1na2vs0mg"},{"bike_id":"b2a55171-9e11-4eba-beeb-f2e7c5d27df2","system_id":"levelo_inurba_marseille","lat":43.212123,"lon":5.3506,"is_reserved":false,"is_disabled":false,"rental_uris":{"android":"levelo://app?vid=b2a55171-9e11-4eba-beeb-f2e7c5d27df2","ios":"levelo://app?vid=b2a55171-9e11-4eba-beeb-f2e7c5d27df2"},"vehicle_type_id":"4","last_reported":1749496093,"current_range_meters":16800,"station_id":"st_cvj6sg6p6f1abm77japg","pricing_plan_id":"cebpf4jnsgd1na2vs0mg"},{"bike_id":"e925ed2b-babc-4cf9-b75b-bac898fd5635","system_id":"levelo_inurba_marseille","lat":43.21182,"lon":5.35069,"is_reserved":false,"is_disabled":false,"rental_uris":{"android":"levelo://app?vid=e925ed2b-babc-4cf9-b75b-bac898fd5635","ios":"levelo://app?vid=e925ed2b-babc-4cf9-b75b-bac898fd5635"},"vehicle_type_id":"4","last_reported":1749496093,"current_range_meters":16800,"station_id":"st_cvj6sg6p6f1abm77japg","pricing_plan_id":"cebpf4jnsgd1na2vs0mg"},{"bike_id":"03f32ba1-1f84-42c7-9f36-723a17040f76","system_id":"levelo_inurba_marseille","lat":43.30461,"lon":5.37904,"is_reserved":false,"is_disabled":false,"rental_uris":{"android":"levelo://app?vid=03f32ba1-1f84-42c7-9f36-723a17040f76","ios":"levelo://app?vid=03f32ba1-1f84-42c7-9f36-723a17040f76"},"vehicle_type_id":"4","last_reported":1749496093,"current_range_meters":17200,"station_id":"ce4bgup2rcd13ifvqcn0","pricing_plan_id":"cebpf4jnsgd1na2vs0mg"},{"bike_id":"03c6743d-1266-4681-8e9d-bd179967ed79","system_id":"levelo_inurba_marseille","lat":43.30326,"lon":5.40439,"is_reserved":false,"is_disabled":false,"rental_uris":{"android":"levelo://app?vid=03c6743d-1266-4681-8e9d-bd179967ed79","ios":"levelo://app?vid=03c6743d-1266-4681-8e9d-bd179967ed79"},"vehicle_type_id":"4","last_reported":1749496093,"current_range_meters":17200,"station_id":"ce4bh012rcd13ifvqd10","pricing_plan_id":"cebpf4jnsgd1na2vs0mg"},{"bike_id":"7fbb8cf5-f563-4c4a-90cf-1a5ac10b01c4","system_id":"levelo_inurba_marseille","lat":43.21202,"lon":5.35095,"is_reserved":false,"is_disabled":false,"rental_uris":{"android":"levelo://app?vid=7fbb8cf5-f563-4c4a-90cf-1a5ac10b01c4","ios":"levelo://app?vid=7fbb8cf5-f563-4c4a-90cf-1a5ac10b01c4"},"vehicle_type_id":"4","last_reported":1749496093,"current_range_meters":17200,"station_id":"st_cvj6sg6p6f1abm77japg","pricing_plan_id":"cebpf4jnsgd1na2vs0mg"},{"bike_id":"c6830c0d-e468-46fa-b9c2-96c1aec56a2d","system_id":"levelo_inurba_marseille","lat":43.27283,"lon":5.43099,"is_reserved":false,"is_disabled":false,"rental_uris":{"android":"levelo://app?vid=c6830c0d-e468-46fa-b9c2-96c1aec56a2d","ios":"levelo://app?vid=c6830c0d-e468-46fa-b9c2-96c1aec56a2d"},"vehicle_type_id":"4","last_reported":1749496093,"current_range_meters":17200,"station_id":"","pricing_plan_id":"cebpf4jnsgd1na2vs0mg"},{"bike_id":"ed19b723-24bc-40b3-b2e8-62f940ce0c06","system_id":"levelo_inurba_marseille","lat":43.30294,"lon":5.37053,"is_reserved":false,"is_disabled":false,"rental_uris":{"android":"levelo://app?vid=ed19b723-24bc-40b3-b2e8-62f940ce0c06","ios":"levelo://app?vid=ed19b723-24bc-40b3-b2e8-62f940ce0c06"},"vehicle_type_id":"4","last_reported":1749496093,"current_range_meters":17200,"station_id":"","pricing_plan_id":"cebpf4jnsgd1na2vs0mg"},{"bike_id":"379d35c9-7752-4ca3-aa2f-43ac43017cd2","system_id":"levelo_inurba_marseille","lat":43.26037,"lon":5.37548,"is_reserved":false,"is_disabled":false,"rental_uris":{"android":"levelo://app?vid=379d35c9-7752-4ca3-aa2f-43ac43017cd2","ios":"levelo://app?vid=379d35c9-7752-4ca3-aa2f-43ac43017cd2"},"vehicle_type_id":"4","last_reported":1749496093,"current_range_meters":17600,"station_id":"ce4bhgh2rcd13ifvqfa0","pricing_plan_id":"cebpf4jnsgd1na2vs0mg"},{"bike_id":"f79292e4-f3c3-4e7a-bd5f-6ad7145387ef","system_id":"levelo_inurba_marseille","lat":43.274198,"lon":5.394087,"is_reserved":false,"is_disabled":true,"rental_uris":{"android":"levelo://app?vid=f79292e4-f3c3-4e7a-bd5f-6ad7145387ef","ios":"levelo://app?vid=f79292e4-f3c3-4e7a-bd5f-6ad7145387ef"},"vehicle_type_id":"4","last_reported":1749496093,"current_range_meters":17600,"station_id":"ce4bhdp2rcd13ifvqf20","pricing_plan_id":"cebpf4jnsgd1na2vs0mg"},{"bike_id":"eca942b4-34e9-4d21-b68a-0dfee2c9821f","system_id":"levelo_inurba_marseille","lat":43.3013,"lon":5.38781,"is_reserved":false,"is_disabled":true,"rental_uris":{"android":"levelo://app?vid=eca942b4-34e9-4d21-b68a-0dfee2c9821f","ios":"levelo://app?vid=eca942b4-34e9-4d21-b68a-0dfee2c9821f"},"vehicle_type_id":"4","last_reported":1749496093,"current_range_meters":17600,"station_id":"ce4bghh2rcd13ifvqb60","pricing_plan_id":"cebpf4jnsgd1na2vs0mg"},{"bike_id":"44dcf47b-d32a-4f38-af44-353bbe17ffe6","system_id":"levelo_inurba_marseille","lat":43.29532,"lon":5.3905,"is_reserved":false,"is_disabled":false,"rental_uris":{"android":"levelo://app?vid=44dcf47b-d32a-4f38-af44-353bbe17ffe6","ios":"levelo://app?vid=44dcf47b-d32a-4f38-af44-353bbe17ffe6"},"vehicle_type_id":"4","last_reported":1749496093,"current_range_meters":17600,"station_id":"ce4bh3p2rcd13ifvqdp0","pricing_plan_id":"cebpf4jnsgd1na2vs0mg"},{"bike_id":"25909464-de48-4519-b5c4-e0f831c11d42","system_id":"levelo_inurba_marseille","lat":43.28725,"lon":5.37944,"is_reserved":false,"is_disabled":false,"rental_uris":{"android":"levelo://app?vid=25909464-de48-4519-b5c4-e0f831c11d42","ios":"levelo://app?vid=25909464-de48-4519-b5c4-e0f831c11d42"},"vehicle_type_id":"4","last_reported":1749496093,"current_range_meters":18000,"station_id":"ce4bh9p2rcd13ifvqec0","pricing_plan_id":"cebpf4jnsgd1na2vs0mg"},{"bike_id":"0a4de2bd-d90e-450f-a56b-af1dbee672b0","system_id":"levelo_inurba_marseille","lat":43.29029,"lon":5.38626,"is_reserved":false,"is_disabled":false,"rental_uris":{"android":"levelo://app?vid=0a4de2bd-d90e-450f-a56b-af1dbee672b0","ios":"levelo://app?vid=0a4de2bd-d90e-450f-a56b-af1dbee672b0"},"vehicle_type_id":"4","last_reported":1749496093,"current_range_meters":18000,"station_id":"ce4bh4p2rcd13ifvqe0g","pricing_plan_id":"cebpf4jnsgd1na2vs0mg"},{"bike_id":"4e02ec6f-8f72-4157-a29f-2270e694c7ba","system_id":"levelo_inurba_marseille","lat":43.29417,"lon":5.38615,"is_reserved":false,"is_disabled":false,"rental_uris":{"android":"levelo://app?vid=4e02ec6f-8f72-4157-a29f-2270e694c7ba","ios":"levelo://app?vid=4e02ec6f-8f72-4157-a29f-2270e694c7ba"},"vehicle_type_id":"4","last_reported":1749496093,"current_range_meters":18000,"station_id":"ce4bh2h2rcd13ifvqdh0","pricing_plan_id":"cebpf4jnsgd1na2vs0mg"},{"bike_id":"007de1b1-bdc7-4f84-ba26-7f192e4a981e","system_id":"levelo_inurba_marseille","lat":43.29898,"lon":5.4367,"is_reserved":false,"is_disabled":false,"rental_uris":{"android":"levelo://app?vid=007de1b1-bdc7-4f84-ba26-7f192e4a981e","ios":"levelo://app?vid=007de1b1-bdc7-4f84-ba26-7f192e4a981e"},"vehicle_type_id":"4","last_reported":1749496093,"current_range_meters":18000,"station_id":"ce4bhpp2rcd13ifvqhfg","pricing_plan_id":"cebpf4jnsgd1na2vs0mg"},{"bike_id":"a6c3c893-8a7e-4f30-b5a4-74b88acbaf92","system_id":"levelo_inurba_marseille","lat":43.28099,"lon":5.37835,"is_reserved":false,"is_disabled":false,"rental_uris":{"android":"levelo://app?vid=a6c3c893-8a7e-4f30-b5a4-74b88acbaf92","ios":"levelo://app?vid=a6c3c893-8a7e-4f30-b5a4-74b88acbaf92"},"vehicle_type_id":"4","last_reported":1749496093,"current_range_meters":18000,"station_id":"ce4bha12rcd13ifvqee0","pricing_plan_id":"cebpf4jnsgd1na2vs0mg"},{"bike_id":"4488a8de-b971-4524-ad28-009ff49fe5be","system_id":"levelo_inurba_marseille","lat":43.29531,"lon":5.38542,"is_reserved":false,"is_disabled":false,"rental_uris":{"android":"levelo://app?vid=4488a8de-b971-4524-ad28-009ff49fe5be","ios":"levelo://app?vid=4488a8de-b971-4524-ad28-009ff49fe5be"},"vehicle_type_id":"4","last_reported":1749496093,"current_range_meters":18000,"station_id":"ce4bgih2rcd13ifvqba0","pricing_plan_id":"cebpf4jnsgd1na2vs0mg"},{"bike_id":"b1e8eb07-82b7-4bcc-af1f-8461c1c89166","system_id":"levelo_inurba_marseille","lat":43.31344,"lon":5.38485,"is_reserved":false,"is_disabled":false,"rental_uris":{"android":"levelo://app?vid=b1e8eb07-82b7-4bcc-af1f-8461c1c89166","ios":"levelo://app?vid=b1e8eb07-82b7-4bcc-af1f-8461c1c89166"},"vehicle_type_id":"4","last_reported":1749496093,"current_range_meters":18000,"station_id":"ce4bgt92rcd13ifvqcf0","pricing_plan_id":"cebpf4jnsgd1na2vs0mg"},