{"last_updated":1738253484,"ttl":60,"version":"2.2","data":{"bikes":[{"bike_id":"36777ac2-81ce-4534-924c-2fafd7d2323c","system_id":"levelo_inurba_marseille","lat":43.30207,"lon":5.39467,"is_reserved":false,"is_disabled":false,"rental_uris":{"android":"levelo://app?vid=36777ac2-81ce-4534-924c-2fafd7d2323c","ios":"levelo://app?vid=36777ac2-81ce-4534-924c-2fafd7d2323c"},"vehicle_type_id":"4","last_reported":1738253484,"current_range_meters":31200,"station_id":"ce4bh0p2rcd13ifvqd70","pricing_plan_id":"cebpf4jnsgd1na2vs0mg"},{"bike_id":"0d72069c-12f4-4000-a8ca-84be6d2ccbcd","system_id":"levelo_inurba_marseille","lat":43.298438,"lon":5.362689,"is_reserved":false,"is_disabled":false,"rental_uris":{"android":"levelo://app?vid=0d72069c-12f4-4000-a8ca-84be6d2ccbcd","ios":"levelo://app?vid=0d72069c-12f4-4000-a8ca-84be6d2ccbcd"},"vehicle_type_id":"4","last_reported":1738253484,"current_range_meters":38800,"station_id":"ce4bgpp2rcd13ifvqc3g","pricing_plan_id":"cebpf4jnsgd1na2vs0mg"},{"bike_id":"30e126ec-fb31-47ef-b1b1-36f92db82904","system_id":"levelo_inurba_marseille","lat":43.31278,"lon":5.40147,"is_reserved":false,"is_disabled":false,"rental_uris":{"android":"levelo://app?vid=30e126ec-fb31-47ef-b1b1-36f92db82904","ios":"levelo://app?vid=30e126ec-fb31-47ef-b1b1-36f92db82904"},"vehicle_type_id":"4","last_reported":1738253484,"current_range_meters":39200,"station_id":"ce4bh092rcd13ifvqd30","pricing_plan_id":"cebpf4jnsgd1na2vs0mg"},{"bike_id":"ed4346d9-3d5d-48e2-b6e7-5b6a628222bd","system_id":"levelo_inurba_marseille","lat":43.28711,"lon":5.37377,"is_reserved":false,"is_disabled":false,"rental_uris":{"android":"levelo://app?vid=ed4346d9-3d5d-48e2-b6e7-5b6a628222bd","ios":"levelo://app?vid=ed4346d9-3d5d-48e2-b6e7-5b6a628222bd"},"vehicle_type_id":"4","last_reported":1738253484,"current_range_meters":37600,"station_id":"ce4bh3p2rcd13ifvqdq0","pricing_plan_id":"cebpf4jnsgd1na2vs0mg"},{"bike_id":"f5ebc243-5464-4f74-9e8f-f3a8963aa58f","system_id":"levelo_inurba_marseille","lat":43.29032,"lon":5.38658,"is_reserved":false,"is_disabled":false,"rental_uris":{"android":"levelo://app?vid=f5ebc243-5464-4f74-9e8f-f3a8963aa58f","ios":"levelo://app?vid=f5ebc243-5464-4f74-9e8f-f3a8963aa58f"},"vehicle_type_id":"4","last_reported":1738253484,"current_range_meters":35200,"station_id":"ce4bh4p2rcd13ifvqe0g","pricing_plan_id":"cebpf4jnsgd1na2vs0mg"},{"bike_id":"2d4740cb-6a71-4b1b-b8cc-957d982cc81f","system_id":"levelo_inurba_marseille","lat":43.27991,"lon":5.41657,"is_reserved":false,"is_disabled":false,"rental_uris":{"android":"levelo://app?vid=2d4740cb-6a71-4b1b-b8cc-957d982cc81f","ios":"levelo://app?vid=2d4740cb-6a71-4b1b-b8cc-957d982cc81f"},"vehicle_type_id":"4","last_reported":1738253484,"current_range_meters":9600,"station_id":"ce4bho12rcd13ifvqh1g","pricing_plan_id":"cebpf4jnsgd1na2vs0mg"},{"bike_id":"3cda397d-8701-45d8-a98c-154e352bab34","system_id":"levelo_inurba_marseille","lat":43.30163,"lon":5.38094,"is_reserved":false,"is_disabled":false,"rental_uris":{"android":"levelo://app?vid=3cda397d-8701-45d8-a98c-154e352bab34","ios":"levelo://app?vid=3cda397d-8701-45d8-a98c-154e352bab34"},"vehicle_type_id":"4","last_reported":1738253484,"current_range_meters":36000,"station_id":"ce4bgjp2rcd13ifvqbh0","pricing_plan_id":"cebpf4jnsgd1na2vs0mg"},{"bike_id":"f7f8117f-03ef-415e-85c6-2eeaf165e4f2","system_id":"levelo_inurba_marseille","lat":43.26218,"lon":5.40435,"is_reserved":false,"is_disabled":true,"rental_uris":{"android":"levelo://app?vid=f7f8117f-03ef-415e-85c6-2eeaf165e4f2","ios":"levelo://app?vid=f7f8117f-03ef-415e-85c6-2eeaf165e4f2"},"vehicle_type_id":"4","last_reported":1738253484,"current_range_meters":25200,"station_id":"ce4bhmh2rcd13ifvqgmg","pricing_plan_id":"cebpf4jnsgd1na2vs0mg"},{"bike_id":"76b57816-ff84-4ecb-88e6-16904dfc9a1a","system_id":"levelo_inurba_marseille","lat":43.29904,"lon":5.3972,"is_reserved":false,"is_disabled":false,"rental_uris":{"android":"levelo://app?vid=76b57816-ff84-4ecb-88e6-16904dfc9a1a","ios":"levelo://app?vid=76b57816-ff84-4ecb-88e6-16904dfc9a1a"},"vehicle_type_id":"4","last_reported":1738253484,"current_range_meters":39200,"station_id":"ce4bh0h2rcd13ifvqd50","pricing_plan_id":"cebpf4jnsgd1na2vs0mg"},{"bike_id":"c638a1eb-b4d3-4a47-88f5-4ffd2e894e36","system_id":"levelo_inurba_marseille","lat":43.28121,"lon":5.37842,"is_reserved":false,"is_disabled":false,"rental_uris":{"android":"levelo://app?vid=c638a1eb-b4d3-4a47-88f5-4ffd2e894e36","ios":"levelo://app?vid=c638a1eb-b4d3-4a47-88f5-4ffd2e894e36"},"vehicle_type_id":"4","last_reported":1738253484,"current_range_meters":36400,"station_id":"ce4bha12rcd13ifvqee0","pricing_plan_id":"cebpf4jnsgd1na2vs0mg"},{"bike_id":"0baa1483-1bd9-4e02-ab05-61cbf4d9e6e6","system_id":"levelo_inurba_marseille","lat":43.29064,"lon":5.37142,"is_reserved":false,"is_disabled":true,"rental_uris":{"android":"levelo://app?vid=0baa1483-1bd9-4e02-ab05-61cbf4d9e6e6","ios":"levelo://app?vid=0baa1483-1bd9-4e02-ab05-61cbf4d9e6e6"},"vehicle_type_id":"4","last_reported":1738253484,"current_range_meters":17600,"station_id":"ce4bh5p2rcd13ifvqe4g","pricing_plan_id":"cebpf4jnsgd1na2vs0mg"},{"bike_id":"f13a138e-8dfa-4504-b223-3f9b1ceeae60","system_id":"levelo_inurba_marseille","lat":43.299,"lon":5.3815,"is_reserved":false,"is_disabled":false,"rental_uris":{"android":"levelo://app?vid=f13a138e-8dfa-4504-b223-3f9b1ceeae60","ios":"levelo://app?vid=f13a138e-8dfa-4504-b223-3f9b1ceeae60"},"vehicle_type_id":"4","last_reported":1738253484,"current_range_meters":28800,"station_id":"ce4bgj12rcd13ifvqbc0","pricing_plan_id":"cebpf4jnsgd1na2vs0mg"},{"bike_id":"9ebdc35e-1568-45ff-aa52-2363402d7b82","system_id":"levelo_inurba_marseille","lat":43.29297,"lon":5.37171,"is_reserved":false,"is_disabled":false,"rental_uris":{"android":"levelo://app?vid=9ebdc35e-1568-45ff-aa52-2363402d7b82","ios":"levelo://app?vid=9ebdc35e-1568-45ff-aa52-2363402d7b82"},"vehicle_type_id":"4","last_reported":1738253484,"current_range_meters":32800,"station_id":"ce4bgh92rcd13ifvqb40","pricing_plan_id":"cebpf4jnsgd1na2vs0mg"},{"bike_id":"2f14a5c6-4089-4afa-a15c-e834c6fe8a65","system_id":"levelo_inurba_marseille","lat":43.27674,"lon":5.38876,"is_reserved":false,"is_disabled":false,"rental_uris":{"android":"levelo://app?vid=2f14a5c6-4089-4afa-a15c-e834c6fe8a65","ios":"levelo://app?vid=2f14a5c6-4089-4afa-a15c-e834c6fe8a65"},"vehicle_type_id":"4","last_reported":1738253484,"current_range_meters":38800,"station_id":"ce4bhi12rcd13ifvqfo0","pricing_plan_id":"cebpf4jnsgd1na2vs0mg"},{"bike_id":"2f746ccc-ce79-4761-824a-b3df5c43e987","system_id":"levelo_inurba_marseille","lat":43.26211,"lon":5.37446,"is_reserved":false,"is_disabled":false,"rental_uris":{"android":"levelo://app?vid=2f746ccc-ce79-4761-824a-b3df5c43e987","ios":"levelo://app?vid=2f746ccc-ce79-4761-824a-b3df5c43e987"},"vehicle_type_id":"4","last_reported":1738253484,"current_range_meters":30000,"station_id":"ce4bhgp2rcd13ifvqfc0","pricing_plan_id":"cebpf4jnsgd1na2vs0mg"},{"bike_id":"ca2fce3d-df4e-4367-b9ef-43ae3724ace7","system_id":"levelo_inurba_marseille","lat":43.2511,"lon":5.40361,"is_reserved":false,"is_disabled":false,"rental_uris":{"android":"levelo://app?vid=ca2fce3d-df4e-4367-b9ef-43ae3724ace7","ios":"levelo://app?vid=ca2fce3d-df4e-4367-b9ef-43ae3724ace7"},"vehicle_type_id":"4","last_reported":1738253484,"current_range_meters":28800,"station_id":"ce4bhlh2rcd13ifvqgig","pricing_plan_id":"cebpf4jnsgd1na2vs0mg"},{"bike_id":"2647b0a0-d74b-4d97-9b33-39a7f96ed5a8","system_id":"levelo_inurba_marseille","lat":43.29985,"lon":5.37169,"is_reserved":false,"is_disabled":false,"rental_uris":{"android":"levelo://app?vid=2647b0a0-d74b-4d97-9b33-39a7f96ed5a8","ios":"levelo://app?vid=2647b0a0-d74b-4d97-9b33-39a7f96ed5a8"},"vehicle_type_id":"4","last_reported":1738253484,"current_range_meters":39200,"station_id":"ce4bgr92rcd13ifvqc7g","pricing_plan_id":"cebpf4jnsgd1na2vs0mg"},{"bike_id":"2414cde6-40b1-43a8-8f48-5d57ea55d3d2","system_id":"levelo_inurba_marseille","lat":43.26795,"lon":5.39412,"is_reserved":false,"is_disabled":false,"rental_uris":{"android":"levelo://app?vid=2414cde6-40b1-43a8-8f48-5d57ea55d3d2","ios":"levelo://app?vid=2414cde6-40b1-43a8-8f48-5d57ea55d3d2"},"vehicle_type_id":"4","last_reported":1738253484,"current_range_meters":39200,"station_id":"ce4bhh12rcd13ifvqfg0","pricing_plan_id":"cebpf4jnsgd1na2vs0mg"},{"bike_id":"a9a12b57-7eb7-49fb-ba95-6c00f1b23d00","system_id":"levelo_inurba_marseille","lat":43.28102,"lon":5.37834,"is_reserved":false,"is_disabled":false,"rental_uris":{"android":"levelo://app?vid=a9a12b57-7eb7-49fb-ba95-6c00f1b23d00","ios":"levelo://app?vid=a9a12b57-7eb7-49fb-ba95-6c00f1b23d00"},"vehicle_type_id":"4","last_reported":1738253484,"current_range_meters":20000,"station_id":"ce4bha12rcd13ifvqee0","pricing_plan_id":"cebpf4jnsgd1na2vs0mg"},{"bike_id":"9a9c3eb4-cc53-457e-9daf-faee2133c523","system_id":"levelo_inurba_marseille","lat":43.30009,"lon":5.4126,"is_reserved":false,"is_disabled":false,"rental_uris":{"android":"levelo://app?vid=9a9c3eb4-cc53-457e-9daf-faee2133c523","ios":"levelo://app?vid=9a9c3eb4-cc53-457e-9daf-faee2133c523"},"vehicle_type_id":"4","last_reported":1738253484,"current_range_meters":30000,"station_id":"ce4bhp12rcd13ifvqh9g","pricing_plan_id":"cebpf4jnsgd1na2vs0mg"},{"bike_id":"cbb77a49-89e2-42f2-8141-0fb6756b89a9","system_id":"levelo_inurba_marseille","lat":43.29818,"lon":5.3809,"is_reserved":false,"is_disabled":false,"rental_uris":{"android":"levelo://app?vid=cbb77a49-89e2-42f2-8141-0fb6756b89a9","ios":"levelo://app?vid=cbb77a49-89e2-42f2-8141-0fb6756b89a9"},"vehicle_type_id":"4","last_reported":1738253484,"current_range_meters":38800,"station_id":"ce4bgip2rcd13ifvqbb0","pricing_plan_id":"cebpf4jnsgd1na2vs0mg"},{"bike_id":"086c7782-679f-4d19-9aaa-d696ab0b8c4e","system_id":"levelo_inurba_marseille","lat":43.27816,"lon":5.40714,"is_reserved":false,"is_disabled":true,"rental_uris":{"android":"levelo://app?vid=086c7782-679f-4d19-9aaa-d696ab0b8c4e","ios":"levelo://app?vid=086c7782-679f-4d19-9aaa-d696ab0b8c4e"},"vehicle_type_id":"4","last_reported":1738253484,"current_range_meters":29600,"station_id":"ce4bhnh2rcd13ifvqgtg","pricing_plan_id":"cebpf4jnsgd1na2vs0mg"},{"bike_id":"ab216bb5-9d44-4972-b16a-001cdf8ad92c","system_id":"levelo_inurba_marseille","lat":43.30437,"lon":5.38888,"is_reserved":false,"is_disabled":false,"rental_uris":{"android":"levelo://app?vid=ab216bb5-9d44-4972-b16a-001cdf8ad92c","ios":"levelo://app?vid=ab216bb5-9d44-4972-b16a-001cdf8ad92c"},"vehicle_type_id":"4","last_reported":1738253484,"current_range_meters":28000,"station_id":"ce4bgk12rcd13ifvqbi0","pricing_plan_id":"cebpf4jnsgd1na2vs0mg"},{"bike_id":"41b6699f-0bea-4b77-b1fe-9163c975786b","system_id":"levelo_inurba_marseille","lat":43.30211,"lon":5.3949,"is_reserved":false,"is_disabled":false,"rental_uris":{"android":"levelo://app?vid=41b6699f-0bea-4b77-b1fe-9163c975786b","ios":"levelo://app?vid=41b6699f-0bea-4b77-b1fe-9163c975786b"},"vehicle_type_id":"4","last_reported":1738253484,"current_range_meters":24400,"station_id":"ce4bh0p2rcd13ifvqd70","pricing_plan_id":"cebpf4jnsgd1na2vs0mg"},{"bike_id":"4b77812e-f553-4096-9e55-aaa4f250aaba","system_id":"levelo_inurba_marseille","lat":43.27926,"lon":5.39569,"is_reserved":false,"is_disabled":false,"rental_uris":{"android":"levelo://app?vid=4b77812e-f553-4096-9e55-aaa4f250aaba","ios":"levelo://app?vid=4b77812e-f553-4096-9e55-aaa4f250aaba"},"vehicle_type_id":"4","last_reported":1738253484,"current_range_meters":38800,"station_id":"ce4bhf92rcd13ifvqf40","pricing_plan_id":"cebpf4jnsgd1na2vs0mg"},{"bike_id":"e9db8041-363d-41b7-b2bb-1e7f1ec4f9ae","system_id":"levelo_inurba_marseille","lat":43.309,"lon":5.39631,"is_reserved":false,"is_disabled":false,"rental_uris":{"android":"levelo://app?vid=e9db8041-363d-41b7-b2bb-1e7f1ec4f9ae","ios":"levelo://app?vid=e9db8041-363d-41b7-b2bb-1e7f1ec4f9ae"},"vehicle_type_id":"4","last_reported":1738253484,"current_range_meters":16800,"station_id":"ce4bh012rcd13ifvqcv0","pricing_plan_id":"cebpf4jnsgd1na2vs0mg"},{"bike_id":"daea43df-d9de-4b24-ae0a-4396d49ee5c1","system_id":"levelo_inurba_marseille","lat":43.32363,"lon":5.3676,"is_reserved":false,"is_disabled":false,"rental_uris":{"android":"levelo://app?vid=daea43df-d9de-4b24-ae0a-4396d49ee5c1","ios":"levelo://app?vid=daea43df-d9de-4b24-ae0a-4396d49ee5c1"},"vehicle_type_id":"4","last_reported":1738253484,"current_range_meters":22800,"station_id":"ce4bhsh2rcd13ifvqi2g","pricing_plan_id":"cebpf4jnsgd1na2vs0mg"},{"bike_id":"91eeaabf-de38-4655-8d4f-f32a3b88d88e","system_id":"levelo_inurba_marseille","lat":43.29228,"lon":5.38468,"is_reserved":false,"is_disabled":true,"rental_uris":{"android":"levelo://app?vid=91eeaabf-de38-4655-8d4f-f32a3b88d88e","ios":"levelo://app?vid=91eeaabf-de38-4655-8d4f-f32a3b88d88e"},"vehicle_type_id":"4","last_reported":1738253484,"current_range_meters":24000,"station_id":"ce4bh692rcd13ifvqea0","pricing_plan_id":"cebpf4jnsgd1na2vs0mg"},{"bike_id":"1c63fa7b-8bb3-4da5-8267-9c40ab75cc0b","system_id":"levelo_inurba_marseille","lat":43.33731,"lon":5.39181,"is_reserved":false,"is_disabled":false,"rental_uris":{"android":"levelo://app?vid=1c63fa7b-8bb3-4da5-8267-9c40ab75cc0b","ios":"levelo://app?vid=1c63fa7b-8bb3-4da5-8267-9c40ab75cc0b"},"vehicle_type_id":"4","last_reported":1738253484,"current_range_meters":39200,"station_id":"ce4bhr92rcd13ifvqhsg","pricing_plan_id":"cebpf4jnsgd1na2vs0mg"},{"bike_id":"e99c90aa-e079-42e2-a963-1534829ba9c7","system_id":"levelo_inurba_marseille","lat":43.26213,"lon":5.37445,"is_reserved":false,"is_disabled":false,"rental_uris":{"android":"levelo://app?vid=e99c90aa-e079-42e2-a963-1534829ba9c7","ios":"levelo://app?vid=e99c90aa-e079-42e2-a963-1534829ba9c7"},"vehicle_type_id":"4","last_reported":1738253484,"current_range_meters":35200,"station_id":"ce4bhgp2rcd13ifvqfc0","pricing_plan_id":"cebpf4jnsgd1na2vs0mg"},{"bike_id":"472815ce-dd78-4e4c-82e8-cea31da48d22","system_id":"levelo_inurba_marseille","lat":43.33722,"lon":5.39187,"is_reserved":false,"is_disabled":false,"rental_uris":{"android":"levelo://app?vid=472815ce-dd78-4e4c-82e8-cea31da48d22","ios":"levelo://app?vid=472815ce-dd78-4e4c-82e8-cea31da48d22"},"vehicle_type_id":"4","last_reported":1738253484,"current_range_meters":27600,"station_id":"ce4bhr92rcd13ifvqhsg","pricing_plan_id":"cebpf4jnsgd1na2vs0mg"},{"bike_id":"cc47836a-b908-432f-8e0e-2f793407f141","system_id":"levelo_inurba_marseille","lat":43.2293,"lon":5.35382,"is_reserved":false,"is_disabled":false,"rental_uris":{"android":"levelo://app?vid=cc47836a-b908-432f-8e0e-2f793407f141","ios":"levelo://app?vid=cc47836a-b908-432f-8e0e-2f793407f141"},"vehicle_type_id":"4","last_reported":1738253484,"current_range_meters":16000,"station_id":"cpo3532slgdg3j2ikp40","pricing_plan_id":"cebpf4jnsgd1na2vs0mg"},{"bike_id":"ff3f903a-ad3e-4df0-b3cc-5480f5b8f953","system_id":"levelo_inurba_marseille","lat":43.29886,"lon":5.39746,"is_reserved":false,"is_disabled":false,"rental_uris":{"android":"levelo://app?vid=ff3f903a-ad3e-4df0-b3cc-5480f5b8f953","ios":"levelo://app?vid=ff3f903a-ad3e-4df0-b3cc-5480f5b8f953"},"vehicle_type_id":"4","last_reported":1738253484,"current_range_meters":35200,"station_id":"ce4bh0h2rcd13ifvqd50","pricing_plan_id":"cebpf4jnsgd1na2vs0mg"},{"bike_id":"115e84b0-1c9a-4efe-a11b-d3139ecfeaeb","system_id":"levelo_inurba_marseille","lat":43.29603,"lon":5.38097,"is_reserved":false,"is_disabled":false,"rental_uris":{"android":"levelo://app?vid=115e84b0-1c9a-4efe-a11b-d3139ecfeaeb","ios":"levelo://app?vid=115e84b0-1c9a-4efe-a11b-d3139ecfeaeb"},"vehicle_type_id":"4","last_reported":1738253484,"current_range_meters":14800,"station_id":"ce4bgl12rcd13ifvqbo0","pricing_plan_id":"cebpf4jnsgd1na2vs0mg"},{"bike_id":"fcfae5ae-a96e-4b04-9c69-5a1b4745ed1c","system_id":"levelo_inurba_marseille","lat":43.30024,"lon":5.40031,"is_reserved":false,"is_disabled":false,"rental_uris":{"android":"levelo://app?vid=fcfae5ae-a96e-4b04-9c69-5a1b4745ed1c","ios":"levelo://app?vid=fcfae5ae-a96e-4b04-9c69-5a1b4745ed1c"},"vehicle_type_id":"4","last_reported":1738253484,"current_range_meters":11200,"station_id":"ce4bgkh2rcd13ifvqbk0","pricing_plan_id":"cebpf4jnsgd1na2vs0mg"},{"bike_id":"cf569e13-e7aa-401b-8646-2031a8977a1b","system_id":"levelo_inurba_marseille","lat":43.29029,"lon":5.38636,"is_reserved":false,"is_disabled":false,"rental_uris":{"android":"levelo://app?vid=cf569e13-e7aa-401b-8646-2031a8977a1b","ios":"levelo://app?vid=cf569e13-e7aa-401b-8646-2031a8977a1b"},"vehicle_type_id":"4","last_reported":1738253484,"current_range_meters":14400,"station_id":"ce4bh4p2rcd13ifvqe0g","pricing_plan_id":"cebpf4jnsgd1na2vs0mg"},{"bike_id":"a890b687-b957-4bca-abb9-2a9ae3773d18","system_id":"levelo_inurba_marseille","lat":43.29938,"lon":5.36555,"is_reserved":false,"is_disabled":false,"rental_uris":{"android":"levelo://app?vid=a890b687-b957-4bca-abb9-2a9ae3773d18","ios":"levelo://app?vid=a890b687-b957-4bca-abb9-2a9ae3773d18"},"vehicle_type_id":"4","last_reported":1738253484,"current_range_meters":19600,"station_id":"ce4bgm92rcd13ifvqbr0","pricing_plan_id":"cebpf4jnsgd1na2vs0mg"},{"bike_id":"7fbc607b-e12b-47bd-a53f-1c18ac62adfd","system_id":"levelo_inurba_marseille","lat":43.2784,"lon":5.40701,"is_reserved":false,"is_disabled":false,"rental_uris":{"android":"levelo://app?vid=7fbc607b-e12b-47bd-a53f-1c18ac62adfd","ios":"levelo://app?vid=7fbc607b-e12b-47bd-a53f-1c18ac62adfd"},"vehicle_type_id":"4","last_reported":1738253484,"current_range_meters":37600,"station_id":"ce4bhnh2rcd13ifvqgtg","pricing_plan_id":"cebpf4jnsgd1na2vs0mg"},{"bike_id":"2dbf3674-522c-44cc-9cec-38a5b0ab0dbb","system_id":"levelo_inurba_marseille","lat":43.25076,"lon":5.39518,"is_reserved":false,"is_disabled":false,"rental_uris":{"android":"levelo://app?vid=2dbf3674-522c-44cc-9cec-38a5b0ab0dbb","ios":"levelo://app?vid=2dbf3674-522c-44cc-9cec-38a5b0ab0dbb"},"vehicle_type_id":"4","last_reported":1738253484,"current_range_meters":38800,"station_id":"ce4bhm12rcd13ifvqgkg","pricing_plan_id":"cebpf4jnsgd1na2vs0mg"},{"bike_id":"f34fcd93-0f66-400a-8f07-aa08bfa23861","system_id":"levelo_inurba_marseille","lat":43.25913,"lon":5.40884,"is_reserved":false,"is_disabled":true,"rental_uris":{"android":"levelo://app?vid=f34fcd93-0f66-400a-8f07-aa08bfa23861","ios":"levelo://app?vid=f34fcd93-0f66-400a-8f07-aa08bfa23861"},"vehicle_type_id":"4","last_reported":1738253484,"current_range_meters":1600,"station_id":"ce4bhm92rcd13ifvqglg","pricing_plan_id":"cebpf4jnsgd1na2vs0mg"},{"bike_id":"606053f9-3da2-4594-b4df-8e24b5fa812c","system_id":"levelo_inurba_marseille","lat":43.269303,"lon":5.402582,"is_reserved":false,"is_disabled":false,"rental_uris":{"android":"levelo://app?vid=606053f9-3da2-4594-b4df-8e24b5fa812c","ios":"levelo://app?vid=606053f9-3da2-4594-b4df-8e24b5fa812c"},"vehicle_type_id":"4","last_reported":1738253484,"current_range_meters":38800,"station_id":"cjm6bp8fraef2m0cb0m0","pricing_plan_id":"cebpf4jnsgd1na2vs0mg"},{"bike_id":"60af63eb-bf77-405b-827e-69f3e312c6bb","system_id":"levelo_inurba_marseille","lat":43.30537,"lon":5.36556,"is_reserved":false,"is_disabled":false,"rental_uris":{"android":"levelo://app?vid=60af63eb-bf77-405b-827e-69f3e312c6bb","ios":"levelo://app?vid=60af63eb-bf77-405b-827e-69f3e312c6bb"},"vehicle_type_id":"4","last_reported":1738253484,"current_range_meters":30000,"station_id":"ce4bgs12rcd13ifvqcag","pricing_plan_id":"cebpf4jnsgd1na2vs0mg"},{"bike_id":"64db0222-3a78-4e5b-a57b-3f63b9aba941","system_id":"levelo_inurba_marseille","lat":43.3237,"lon":5.38877,"is_reserved":false,"is_disabled":false,"rental_uris":{"android":"levelo://app?vid=64db0222-3a78-4e5b-a57b-3f63b9aba941","ios":"levelo://app?vid=64db0222-3a78-4e5b-a57b-3f63b9aba941"},"vehicle_type_id":"4","last_reported":1738253484,"current_range_meters":21600,"station_id":"ce4bhqp2rcd13ifvqhog","pricing_plan_id":"cebpf4jnsgd1na2vs0mg"},{"bike_id":"7bf0b083-5d7a-408e-adaa-18c38cfadd6e","system_id":"levelo_inurba_marseille","lat":43.22933,"lon":5.35379,"is_reserved":false,"is_disabled":false,"rental_uris":{"android":"levelo://app?vid=7bf0b083-5d7a-408e-adaa-18c38cfadd6e","ios":"levelo://app?vid=7bf0b083-5d7a-408e-adaa-18c38cfadd6e"},"vehicle_type_id":"4","last_reported":1738253484,"current_range_meters":16800,"station_id":"cpo3532slgdg3j2ikp40","pricing_plan_id":"cebpf4jnsgd1na2vs0mg"},{"bike_id":"c52ee0d8-fc14-4a91-ad24-eeec1e8e0625","system_id":"levelo_inurba_marseille","lat":43.26202,"lon":5.3745,"is_reserved":false,"is_disabled":false,"rental_uris":{"android":"levelo://app?vid=c52ee0d8-fc14-4a91-ad24-eeec1e8e0625","ios":"levelo://app?vid=c52ee0d8-fc14-4a91-ad24-eeec1e8e0625"},"vehicle_type_id":"4","last_reported":1738253484,"current_range_meters":38800,"station_id":"ce4bhgp2rcd13ifvqfc0","pricing_plan_id":"cebpf4jnsgd1na2vs0mg"},{"bike_id":"db14cd8a-5ba9-45f6-b197-f717b13b5230","system_id":"levelo_inurba_marseille","lat":43.29844,"lon":5.36281,"is_reserved":false,"is_disabled":false,"rental_uris":{"android":"levelo://app?vid=db14cd8a-5ba9-45f6-b197-f717b13b5230","ios":"levelo://app?vid=db14cd8a-5ba9-45f6-b197-f717b13b5230"},"vehicle_type_id":"4","last_reported":1738253484,"current_range_meters":38400,"station_id":"ce4bgpp2rcd13ifvqc3g","pricing_plan_id":"cebpf4jnsgd1na2vs0mg"},{"bike_id":"720742d2-419d-457a-ab4d-f4f9f5327356","system_id":"levelo_inurba_marseille","lat":43.2791,"lon":5.39602,"is_reserved":false,"is_disabled":false,"rental_uris":{"android":"levelo://app?vid=720742d2-419d-457a-ab4d-f4f9f5327356","ios":"levelo://app?vid=720742d2-419d-457a-ab4d-f4f9f5327356"},"vehicle_type_id":"4","last_reported":1738253484,"current_range_meters":38000,"station_id":"ce4bhf92rcd13ifvqf40","pricing_plan_id":"cebpf4jnsgd1na2vs0mg"},{"bike_id":"4ec1a8bd-d923-4f43-a12d-ecfb8179b1eb","system_id":"levelo_inurba_marseille","lat":43.27185,"lon":5.40998,"is_reserved":false,"is_disabled":false,"rental_uris":{"android":"levelo://app?vid=4ec1a8bd-d923-4f43-a12d-ecfb8179b1eb","ios":"levelo://app?vid=4ec1a8bd-d923-4f43-a12d-ecfb8179b1eb"},"vehicle_type_id":"4","last_reported":1738253484,"current_range_meters":10000,"station_id":"ce4bhl12rcd13ifvqgf0","pricing_plan_id":"cebpf4jnsgd1na2vs0mg"},{"bike_id":"63dab48d-6bd1-4b4f-88f7-b4fea737e488","system_id":"levelo_inurba_marseille","lat":43.32472,"lon":5.36555,"is_reserved":false,"is_disabled":false,"rental_uris":{"android":"levelo://app?vid=63dab48d-6bd1-4b4f-88f7-b4fea737e488","ios":"levelo://app?vid=63dab48d-6bd1-4b4f-88f7-b4fea737e488"},"vehicle_type_id":"4","last_reported":1738253484,"current_range_meters":34000,"station_id":"ce4bhs12rcd13ifvqhvg","pricing_plan_id":"cebpf4jnsgd1na2vs0mg"},{"bike_id":"9f7cbc3c-6e0b-4442-8c70-64c0b2a1452e","system_id":"levelo_inurba_marseille","lat":43.23055,"lon":5.35481,"is_reserved":false,"is_disabled":false,"rental_uris":{"android":"levelo://app?vid=9f7cbc3c-6e0b-4442-8c70-64c0b2a1452e","ios":"levelo://app?vid=9f7cbc3c-6e0b-4442-8c70-64c0b2a1452e"},"vehicle_type_id":"4","last_reported":1738253484,"current_range_meters":11200,"station_id":"cpo3342slgdg3j2ifvpg","pricing_plan_id":"cebpf4jnsgd1na2vs0mg"},{"bike_id":"c8a3a0ed-dff2-4f3c-87dc-2e6b47b1ad28","system_id":"levelo_inurba_marseille","lat":43.337444,"lon":5.374475,"is_reserved":false,"is_disabled":true,"rental_uris":{"android":"levelo://app?vid=c8a3a0ed-dff2-4f3c-87dc-2e6b47b1ad28","ios":"levelo://app?vid=c8a3a0ed-dff2-4f3c-87dc-2e6b47b1ad28"},"vehicle_type_id":"4","last_reported":1738253484,"current_range_meters":0,"station_id":"","pricing_plan_id":"cebpf4jnsgd1na2vs0mg"},{"bike_id":"bfda6374-f095-4493-b50e-6ff7d3d22b77","system_id":"levelo_inurba_marseille","lat":43.265,"lon":5.39536,"is_reserved":false,"is_disabled":false,"rental_uris":{"android":"levelo://app?vid=bfda6374-f095-4493-b50e-6ff7d3d22b77","ios":"levelo://app?vid=bfda6374-f095-4493-b50e-6ff7d3d22b77"},"vehicle_type_id":"4","last_reported":1738253484,"current_range_meters":34000,"station_id":"ce4bhi12rcd13ifvqfq0","pricing_plan_id":"cebpf4jnsgd1na2vs0mg"},{"bike_id":"7247902a-635d-4f06-9cf7-f11e089c2d38","system_id":"levelo_inurba_marseille","lat":43.26921,"lon":5.4025,"is_reserved":false,"is_disabled":false,"rental_uris":{"android":"levelo://app?vid=7247902a-635d-4f06-9cf7-f11e089c2d38","ios":"levelo://app?vid=7247902a-635d-4f06-9cf7-f11e089c2d38"},"vehicle_type_id":"4","last_reported":1738253484,"current_range_meters":38800,"station_id":"cjm6bp8fraef2m0cb0m0","pricing_plan_id":"cebpf4jnsgd1na2vs0mg"},{"bike_id":"cedc5859-ff72-4445-ad1d-83f022f5c844","system_id":"levelo_inurba_marseille","lat":43.2893,"lon":5.38385,"is_reserved":false,"is_disabled":false,"rental_uris":{"android":"levelo://app?vid=cedc5859-ff72-4445-ad1d-83f022f5c844","ios":"levelo://app?vid=cedc5859-ff72-4445-ad1d-83f022f5c844"},"vehicle_type_id":"4","last_reported":1738253484,"current_range_meters":39200,"station_id":"ce4bh612rcd13ifvqe6g","pricing_plan_id":"cebpf4jnsgd1na2vs0mg"},{"bike_id":"6cb872dc-f04c-4f48-bb2d-92c035125dda","system_id":"levelo_inurba_marseille","lat":43.29581,"lon":5.36746,"is_reserved":false,"is_disabled":false,"rental_uris":{"android":"levelo://app?vid=6cb872dc-f04c-4f48-bb2d-92c035125dda","ios":"levelo://app?vid=6cb872dc-f04c-4f48-bb2d-92c035125dda"},"vehicle_type_id":"4","last_reported":1738253484,"current_range_meters":38400,"station_id":"ce4bgph2rcd13ifvqc2g","pricing_plan_id":"cebpf4jnsgd1na2vs0mg"},{"bike_id":"dd5af602-8c50-4758-b2a8-ec7a6818b761","system_id":"levelo_inurba_marseille","lat":43.30553,"lon":5.36527,"is_reserved":false,"is_disabled":false,"rental_uris":{"android":"levelo://app?vid=dd5af602-8c50-4758-b2a8-ec7a6818b761","ios":"levelo://app?vid=dd5af602-8c50-4758-b2a8-ec7a6818b761"},"vehicle_type_id":"4","last_reported":1738253484,"current_range_meters":37600,"station_id":"ce4bgs12rcd13ifvqcag","pricing_plan_id":"cebpf4jnsgd1na2vs0mg"},{"bike_id":"9743f014-3ed8-479c-a186-56e21898d624","system_id":"levelo_inurba_marseille","lat":43.28944,"lon":5.36635,"is_reserved":false,"is_disabled":false,"rental_uris":{"android":"levelo://app?vid=9743f014-3ed8-479c-a186-56e21898d624","ios":"levelo://app?vid=9743f014-3ed8-479c-a186-56e21898d624"},"vehicle_type_id":"4","last_reported":1738253484,"current_range_meters":11200,"station_id":"ce4bhap2rcd13ifvqek0","pricing_plan_id":"cebpf4jnsgd1na2vs0mg"},{"bike_id":"05e57a95-2c98-4ceb-9388-74d754669e55","system_id":"levelo_inurba_marseille","lat":43.25878,"lon":5.39893,"is_reserved":false,"is_disabled":false,"rental_uris":{"android":"levelo://app?vid=05e57a95-2c98-4ceb-9388-74d754669e55","ios":"levelo://app?vid=05e57a95-2c98-4ceb-9388-74d754669e55"},"vehicle_type_id":"4","last_reported":1738253484,"current_range_meters":20800,"station_id":"ce4bhl92rcd13ifvqghg","pricing_plan_id":"cebpf4jnsgd1na2vs0mg"},{"bike_id":"32802d31-82e5-49aa-928e-45336ddb5e58","system_id":"levelo_inurba_marseille","lat":43.24998,"lon":5.38929,"is_reserved":false,"is_disabled":false,"rental_uris":{"android":"levelo://app?vid=32802d31-82e5-49aa-928e-45336ddb5e58","ios":"levelo://app?vid=32802d31-82e5-49aa-928e-45336ddb5e58"},"vehicle_type_id":"4","last_reported":1738253484,"current_range_meters":38800,"station_id":"ce4bhgp2rcd13ifvqfd0","pricing_plan_id":"cebpf4jnsgd1na2vs0mg"},{"bike_id":"d06240a3-8895-42e8-9212-5c068d44e9d2","system_id":"levelo_inurba_marseille","lat":43.28617,"lon":5.35098,"is_reserved":false,"is_disabled":false,"rental_uris":{"android":"levelo://app?vid=d06240a3-8895-42e8-9212-5c068d44e9d2","ios":"levelo://app?vid=d06240a3-8895-42e8-9212-5c068d44e9d2"},"vehicle_type_id":"4","last_reported":1738253484,"current_range_meters":29600,"station_id":"ce4bhch2rcd13ifvqeug","pricing_plan_id":"cebpf4jnsgd1na2vs0mg"},{"bike_id":"119a0ace-2413-496b-84f3-db8a6a6c260c","system_id":"levelo_inurba_marseille","lat":43.30559,"lon":5.36529,"is_reserved":false,"is_disabled":false,"rental_uris":{"android":"levelo://app?vid=119a0ace-2413-496b-84f3-db8a6a6c260c","ios":"levelo://app?vid=119a0ace-2413-496b-84f3-db8a6a6c260c"},"vehicle_type_id":"4","last_reported":1738253484,"current_range_meters":30800,"station_id":"ce4bgs12rcd13ifvqcag","pricing_plan_id":"cebpf4jnsgd1na2vs0mg"},{"bike_id":"7906c7e2-c72d-47ac-aee3-fc56e9e2ab96","system_id":"levelo_inurba_marseille","lat":43.30891,"lon":5.39623,"is_reserved":false,"is_disabled":false,"rental_uris":{"android":"levelo://app?vid=7906c7e2-c72d-47ac-aee3-fc56e9e2ab96","ios":"levelo://app?vid=7906c7e2-c72d-47ac-aee3-fc56e9e2ab96"},"vehicle_type_id":"4","last_reported":1738253484,"current_range_meters":38000,"station_id":"ce4bh012rcd13ifvqcv0","pricing_plan_id":"cebpf4jnsgd1na2vs0mg"},{"bike_id":"8a13d15c-2830-4b83-ae20-99ddd7b6838a","system_id":"levelo_inurba_marseille","lat":43.27049,"lon":5.40272,"is_reserved":false,"is_disabled":false,"rental_uris":{"android":"levelo://app?vid=8a13d15c-2830-4b83-ae20-99ddd7b6838a","ios":"levelo://app?vid=8a13d15c-2830-4b83-ae20-99ddd7b6838a"},"vehicle_type_id":"4","last_reported":1738253484,"current_range_meters":3600,"station_id":"ce4bhk92rcd13ifvqgc0","pricing_plan_id":"cebpf4jnsgd1na2vs0mg"},{"bike_id":"d130db0a-48b7-47ee-b133-0a81904f0cda","system_id":"levelo_inurba_marseille","lat":43.28985,"lon":5.3561,"is_reserved":false,"is_disabled":true,"rental_uris":{"android":"levelo://app?vid=d130db0a-48b7-47ee-b133-0a81904f0cda","ios":"levelo://app?vid=d130db0a-48b7-47ee-b133-0a81904f0cda"},"vehicle_type_id":"4","last_reported":1738253484,"current_range_meters":36800,"station_id":"ce4bhb92rcd13ifvqen0","pricing_plan_id":"cebpf4jnsgd1na2vs0mg"},{"bike_id":"3356b1bd-7984-4c06-8cdb-d85ceabf072a","system_id":"levelo_inurba_marseille","lat":43.312593,"lon":5.369033,"is_reserved":false,"is_disabled":false,"rental_uris":{"android":"levelo://app?vid=3356b1bd-7984-4c06-8cdb-d85ceabf072a","ios":"levelo://app?vid=3356b1bd-7984-4c06-8cdb-d85ceabf072a"},"vehicle_type_id":"4","last_reported":1738253484,"current_range_meters":25200,"station_id":"","pricing_plan_id":"cebpf4jnsgd1na2vs0mg"},{"bike_id":"b1baddda-2682-42c8-ae26-29e69f960cd2","system_id":"levelo_inurba_marseille","lat":43.31119,"lon":5.37784,"is_reserved":false,"is_disabled":false,"rental_uris":{"android":"levelo://app?vid=b1baddda-2682-42c8-ae26-29e69f960cd2","ios":"levelo://app?vid=b1baddda-2682-42c8-ae26-29e69f960cd2"},"vehicle_type_id":"4","last_reported":1738253484,"current_range_meters":9200,"station_id":"ce4bgt92rcd13ifvqcg0","pricing_plan_id":"cebpf4jnsgd1na2vs0mg"},{"bike_id":"a36de8bd-2e3e-4fb2-8780-295adcb078f0","system_id":"levelo_inurba_marseille","lat":43.26563,"lon":5.37283,"is_reserved":false,"is_disabled":false,"rental_uris":{"android":"levelo://app?vid=a36de8bd-2e3e-4fb2-8780-295adcb078f0","ios":"levelo://app?vid=a36de8bd-2e3e-4fb2-8780-295adcb078f0"},"vehicle_type_id":"4","last_reported":1738253484,"current_range_meters":36400,"station_id":"ce4bhg12rcd13ifvqf70","pricing_plan_id":"cebpf4jnsgd1na2vs0mg"},{"bike_id":"9838cc78-2b53-49d3-ae13-82df62c4fd64","system_id":"levelo_inurba_marseille","lat":43.28412,"lon":5.40934,"is_reserved":false,"is_disabled":true,"rental_uris":{"android":"levelo://app?vid=9838cc78-2b53-49d3-ae13-82df62c4fd64","ios":"levelo://app?vid=9838cc78-2b53-49d3-ae13-82df62c4fd64"},"vehicle_type_id":"4","last_reported":1738253484,"current_range_meters":0,"station_id":"","pricing_plan_id":"cebpf4jnsgd1na2vs0mg"},{"bike_id":"b5e316c6-84ab-4e74-8a2e-84f5594c5ebd","system_id":"levelo_inurba_marseille","lat":43.28421,"lon":5.37515,"is_reserved":false,"is_disabled":true,"rental_uris":{"android":"levelo://app?vid=b5e316c6-84ab-4e74-8a2e-84f5594c5ebd","ios":"levelo://app?vid=b5e316c6-84ab-4e74-8a2e-84f5594c5ebd"},"vehicle_type_id":"4","last_reported":1738253484,"current_range_meters":13600,"station_id":"ce4bh412rcd13ifvqds0","pricing_plan_id":"cebpf4jnsgd1na2vs0mg"},{"bike_id":"0b1f4817-4c30-44b7-9201-5f8be66aeb19","system_id":"levelo_inurba_marseille","lat":43.28039,"lon":5.36956,"is_reserved":false,"is_disabled":false,"rental_uris":{"android":"levelo://app?vid=0b1f4817-4c30-44b7-9201-5f8be66aeb19","ios":"levelo://app?vid=0b1f4817-4c30-44b7-9201-5f8be66aeb19"},"vehicle_type_id":"4","last_reported":1738253484,"current_range_meters":38800,"station_id":"ce4bha12rcd13ifvqef0","pricing_plan_id":"cebpf4jnsgd1na2vs0mg"},{"bike_id":"3f506122-7e1b-475c-b307-ffbf7a380821","system_id":"levelo_inurba_marseille","lat":43.26215,"lon":5.37442,"is_reserved":false,"is_disabled":false,"rental_uris":{"android":"levelo://app?vid=3f506122-7e1b-475c-b307-ffbf7a380821","ios":"levelo://app?vid=3f506122-7e1b-475c-b307-ffbf7a380821"},"vehicle_type_id":"4","last_reported":1738253484,"current_range_meters":22400,"station_id":"ce4bhgp2rcd13ifvqfc0","pricing_plan_id":"cebpf4jnsgd1na2vs0mg"},{"bike_id":"067719ca-52de-4c51-a2f3-b79cc273bb24","system_id":"levelo_inurba_marseille","lat":43.30298,"lon":5.36916,"is_reserved":false,"is_disabled":false,"rental_uris":{"android":"levelo://app?vid=067719ca-52de-4c51-a2f3-b79cc273bb24","ios":"levelo://app?vid=067719ca-52de-4c51-a2f3-b79cc273bb24"},"vehicle_type_id":"4","last_reported":1738253484,"current_range_meters":9200,"station_id":"ce4bgqh2rcd13ifvqc5g","pricing_plan_id":"cebpf4jnsgd1na2vs0mg"},{"bike_id":"a6b336c6-34d6-4b26-bccf-abefa3771ff1","system_id":"levelo_inurba_marseille","lat":43.2316,"lon":5.43698,"is_reserved":false,"is_disabled":false,"rental_uris":{"android":"levelo://app?vid=a6b336c6-34d6-4b26-bccf-abefa3771ff1","ios":"levelo://app?vid=a6b336c6-34d6-4b26-bccf-abefa3771ff1"},"vehicle_type_id":"4","last_reported":1738253484,"current_range_meters":39200,"station_id":"ce4bhmp2rcd13ifvqgog","pricing_plan_id":"cebpf4jnsgd1na2vs0mg"},{"bike_id":"9f6c79b2-892b-47dd-b852-741b9f20e95f","system_id":"levelo_inurba_marseille","lat":43.25075,"lon":5.39525,"is_reserved":false,"is_disabled":false,"rental_uris":{"android":"levelo://app?vid=9f6c79b2-892b-47dd-b852-741b9f20e95f","ios":"levelo://app?vid=9f6c79b2-892b-47dd-b852-741b9f20e95f"},"vehicle_type_id":"4","last_reported":1738253484,"current_range_meters":36800,"station_id":"ce4bhm12rcd13ifvqgkg","pricing_plan_id":"cebpf4jnsgd1na2vs0mg"},{"bike_id":"7082ec44-cd55-4656-a678-865e2d1b61f0","system_id":"levelo_inurba_marseille","lat":43.29895,"lon":5.43672,"is_reserved":false,"is_disabled":false,"rental_uris":{"android":"levelo://app?vid=7082ec44-cd55-4656-a678-865e2d1b61f0","ios":"levelo://app?vid=7082ec44-cd55-4656-a678-865e2d1b61f0"},"vehicle_type_id":"4","last_reported":1738253484,"current_range_meters":10800,"station_id":"ce4bhpp2rcd13ifvqhfg","pricing_plan_id":"cebpf4jnsgd1na2vs0mg"},{"bike_id":"3d3683d0-6fa2-4625-8b79-882bbb185c30","system_id":"levelo_inurba_marseille","lat":43.3228,"lon":5.38279,"is_reserved":false,"is_disabled":false,"rental_uris":{"android":"levelo://app?vid=3d3683d0-6fa2-4625-8b79-882bbb185c30","ios":"levelo://app?vid=3d3683d0-6fa2-4625-8b79-882bbb185c30"},"vehicle_type_id":"4","last_reported":1738253484,"current_range_meters":30800,"station_id":"ce4bhr12rcd13ifvqhqg","pricing_plan_id":"cebpf4jnsgd1na2vs0mg"},{"bike_id":"4487981e-35de-45fa-89dc-c9471979b027","system_id":"levelo_inurba_marseille","lat":43.24652,"lon":5.38891,"is_reserved":false,"is_disabled":false,"rental_uris":{"android":"levelo://app?vid=4487981e-35de-45fa-89dc-c9471979b027","ios":"levelo://app?vid=4487981e-35de-45fa-89dc-c9471979b027"},"vehicle_type_id":"4","last_reported":1738253484,"current_range_meters":38800,"station_id":"ce4bhg12rcd13ifvqf60","pricing_plan_id":"cebpf4jnsgd1na2vs0mg"},{"bike_id":"8316cb10-023d-4bec-a7d1-c688e60191c8","system_id":"levelo_inurba_marseille","lat":43.28153,"lon":5.426613,"is_reserved":false,"is_disabled":false,"rental_uris":{"android":"levelo://app?vid=8316cb10-023d-4bec-a7d1-c688e60191c8","ios":"levelo://app?vid=8316cb10-023d-4bec-a7d1-c688e60191c8"},"vehicle_type_id":"4","last_reported":1738253484,"current_range_meters":9600,"station_id":"ce4bhnh2rcd13ifvqgug","pricing_plan_id":"cebpf4jnsgd1na2vs0mg"},{"bike_id":"922cf739-4e76-489e-9ca0-5ad7ba4f5544","system_id":"levelo_inurba_marseille","lat":43.25392,"lon":5.39415,"is_reserved":false,"is_disabled":false,"rental_uris":{"android":"levelo://app?vid=922cf739-4e76-489e-9ca0-5ad7ba4f5544","ios":"levelo://app?vid=922cf739-4e76-489e-9ca0-5ad7ba4f5544"},"vehicle_type_id":"4","last_reported":1738253484,"current_range_meters":31200,"station_id":"ce4bhm12rcd13ifvqgkg","pricing_plan_id":"cebpf4jnsgd1na2vs0mg"},{"bike_id":"43cda217-14ed-4801-819f-f1965303a677","system_id":"levelo_inurba_marseille","lat":43.29542,"lon":5.42282,"is_reserved":false,"is_disabled":false,"rental_uris":{"android":"levelo://app?vid=43cda217-14ed-4801-819f-f1965303a677","ios":"levelo://app?vid=43cda217-14ed-4801-819f-f1965303a677"},"vehicle_type_id":"4","last_reported":1738253484,"current_range_meters":14400,"station_id":"ce4bhph2rcd13ifvqhdg","pricing_plan_id":"cebpf4jnsgd1na2vs0mg"},{"bike_id":"2a180ede-2df6-4234-81d1-0820a74e8b66","system_id":"levelo_inurba_marseille","lat":43.29927,"lon":5.37477,"is_reserved":false,"is_disabled":false,"rental_uris":{"android":"levelo://app?vid=2a180ede-2df6-4234-81d1-0820a74e8b66","ios":"levelo://app?vid=2a180ede-2df6-4234-81d1-0820a74e8b66"},"vehicle_type_id":"4","last_reported":1738253484,"current_range_meters":38000,"station_id":"ce4bgjh2rcd13ifvqbg0","pricing_plan_id":"cebpf4jnsgd1na2vs0mg"},{"bike_id":"8522eb74-2313-4dfe-bb3f-8d2802ae8596","system_id":"levelo_inurba_marseille","lat":43.27059,"lon":5.40266,"is_reserved":false,"is_disabled":true,"rental_uris":{"android":"levelo://app?vid=8522eb74-2313-4dfe-bb3f-8d2802ae8596","ios":"levelo://app?vid=8522eb74-2313-4dfe-bb3f-8d2802ae8596"},"vehicle_type_id":"4","last_reported":1738253484,"current_range_meters":0,"station_id":"ce4bhk92rcd13ifvqgc0","pricing_plan_id":"cebpf4jnsgd1na2vs0mg"},{"bike_id":"d979d8d2-ec65-47af-9229-e4270aab279a","system_id":"levelo_inurba_marseille","lat":43.23064,"lon":5.35475,"is_reserved":false,"is_disabled":false,"rental_uris":{"android":"levelo://app?vid=d979d8d2-ec65-47af-9229-e4270aab279a","ios":"levelo://app?vid=d979d8d2-ec65-47af-9229-e4270aab279a"},"vehicle_type_id":"4","last_reported":1738253484,"current_range_meters":13600,"station_id":"cpo3342slgdg3j2ifvpg","pricing_plan_id":"cebpf4jnsgd1na2vs0mg"},{"bike_id":"6d794ab4-8a41-420e-9684-1f49d9f4dedb","system_id":"levelo_inurba_marseille","lat":43.26216,"lon":5.37443,"is_reserved":false,"is_disabled":false,"rental_uris":{"android":"levelo://app?vid=6d794ab4-8a41-420e-9684-1f49d9f4dedb","ios":"levelo://app?vid=6d794ab4-8a41-420e-9684-1f49d9f4dedb"},"vehicle_type_id":"4","last_reported":1738253484,"current_range_meters":38800,"station_id":"ce4bhgp2rcd13ifvqfc0","pricing_plan_id":"cebpf4jnsgd1na2vs0mg"},{"bike_id":"f10d9b40-8520-41ee-b039-cd6e7d066065","system_id":"levelo_inurba_marseille","lat":43.26221,"lon":5.37448,"is_reserved":false,"is_disabled":false,"rental_uris":{"android":"levelo://app?vid=f10d9b40-8520-41ee-b039-cd6e7d066065","ios":"levelo://app?vid=f10d9b40-8520-41ee-b039-cd6e7d066065"},"vehicle_type_id":"4","last_reported":1738253484,"current_range_meters":36800,"station_id":"ce4bhgp2rcd13ifvqfc0","pricing_plan_id":"cebpf4jnsgd1na2vs0mg"},{"bike_id":"4a06f9c3-32a0-4c6f-86c7-ad99d0332fe6","system_id":"levelo_inurba_marseille","lat":43.32365,"lon":5.38882,"is_reserved":false,"is_disabled":false,"rental_uris":{"android":"levelo://app?vid=4a06f9c3-32a0-4c6f-86c7-ad99d0332fe6","ios":"levelo://app?vid=4a06f9c3-32a0-4c6f-86c7-ad99d0332fe6"},"vehicle_type_id":"4","last_reported":1738253484,"current_range_meters":18000,"station_id":"ce4bhqp2rcd13ifvqhog","pricing_plan_id":"cebpf4jnsgd1na2vs0mg"},{"bike_id":"c29472cb-fa90-45f9-a123-f9325cfff80e","system_id":"levelo_inurba_marseille","lat":43.28469,"lon":5.38471,"is_reserved":false,"is_disabled":true,"rental_uris":{"android":"levelo://app?vid=c29472cb-fa90-45f9-a123-f9325cfff80e","ios":"levelo://app?vid=c29472cb-fa90-45f9-a123-f9325cfff80e"},"vehicle_type_id":"4","last_reported":1738253484,"current_range_meters":25600,"station_id":"ce4bh512rcd13ifvqe3g","pricing_plan_id":"cebpf4jnsgd1na2vs0mg"},{"bike_id":"67dfc844-f259-4ebe-b47b-4940c911f1ad","system_id":"levelo_inurba_marseille","lat":43.29096,"lon":5.38128,"is_reserved":false,"is_disabled":false,"rental_uris":{"android":"levelo://app?vid=67dfc844-f259-4ebe-b47b-4940c911f1ad","ios":"levelo://app?vid=67dfc844-f259-4ebe-b47b-4940c911f1ad"},"vehicle_type_id":"4","last_reported":1738253484,"current_range_meters":35600,"station_id":"ce4bh512rcd13ifvqe2g","pricing_plan_id":"cebpf4jnsgd1na2vs0mg"},{"bike_id":"4103f9ea-dc49-40ff-a855-96e33d24e922","system_id":"levelo_inurba_marseille","lat":43.26929,"lon":5.4024,"is_reserved":false,"is_disabled":false,"rental_uris":{"android":"levelo://app?vid=4103f9ea-dc49-40ff-a855-96e33d24e922","ios":"levelo://app?vid=4103f9ea-dc49-40ff-a855-96e33d24e922"},"vehicle_type_id":"4","last_reported":1738253484,"current_range_meters":38800,"station_id":"cjm6bp8fraef2m0cb0m0","pricing_plan_id":"cebpf4jnsgd1na2vs0mg"},{"bike_id":"7d6260ec-6d8c-4d5b-8950-1a493871014c","system_id":"levelo_inurba_marseille","lat":43.29892,"lon":5.43665,"is_reserved":false,"is_disabled":false,"rental_uris":{"android":"levelo://app?vid=7d6260ec-6d8c-4d5b-8950-1a493871014c","ios":"levelo://app?vid=7d6260ec-6d8c-4d5b-8950-1a493871014c"},"vehicle_type_id":"4","last_reported":1738253484,"current_range_meters":33600,"station_id":"ce4bhpp2rcd13ifvqhfg","pricing_plan_id":"cebpf4jnsgd1na2vs0mg"},{"bike_id":"4b9caf7c-f87f-4a67-87ec-7ed626a6b8df","system_id":"levelo_inurba_marseille","lat":43.27192,"lon":5.39193,"is_reserved":false,"is_disabled":false,"rental_uris":{"android":"levelo://app?vid=4b9caf7c-f87f-4a67-87ec-7ed626a6b8df","ios":"levelo://app?vid=4b9caf7c-f87f-4a67-87ec-7ed626a6b8df"},"vehicle_type_id":"4","last_reported":1738253484,"current_range_meters":28000,"station_id":"ce4bhhp2rcd13ifvqfm0","pricing_plan_id":"cebpf4jnsgd1na2vs0mg"},{"bike_id":"1b6fd190-21fa-4758-93db-00b7057d89a9","system_id":"levelo_inurba_marseille","lat":43.25724,"lon":5.41109,"is_reserved":false,"is_disabled":false,"rental_uris":{"android":"levelo://app?vid=1b6fd190-21fa-4758-93db-00b7057d89a9","ios":"levelo://app?vid=1b6fd190-21fa-4758-93db-00b7057d89a9"},"vehicle_type_id":"4","last_reported":1738253484,"current_range_meters":37600,"station_id":"ce4bhkp2rcd13ifvqgd0","pricing_plan_id":"cebpf4jnsgd1na2vs0mg"},{"bike_id":"cf8e57d9-ff02-4e22-9e01-0a3945aabc14","system_id":"levelo_inurba_marseille","lat":43.31315,"lon":5.39704,"is_reserved":false,"is_disabled":false,"rental_uris":{"android":"levelo://app?vid=cf8e57d9-ff02-4e22-9e01-0a3945aabc14","ios":"levelo://app?vid=cf8e57d9-ff02-4e22-9e01-0a3945aabc14"},"vehicle_type_id":"4","last_reported":1738253484,"current_range_meters":14000,"station_id":"ce4bgvp2rcd13ifvqcu0","pricing_plan_id":"cebpf4jnsgd1na2vs0mg"},{"bike_id":"d8b1c3f9-ff6e-4179-8423-4ba0d2a2af0e","system_id":"levelo_inurba_marseille","lat":43.33726,"lon":5.3921,"is_reserved":false,"is_disabled":false,"rental_uris":{"android":"levelo://app?vid=d8b1c3f9-ff6e-4179-8423-4ba0d2a2af0e","ios":"levelo://app?vid=d8b1c3f9-ff6e-4179-8423-4ba0d2a2af0e"},"vehicle_type_id":"4","last_reported":1738253484,"current_range_meters":39200,"station_id":"ce4bhr92rcd13ifvqhsg","pricing_plan_id":"cebpf4jnsgd1na2vs0mg"},{"bike_id":"8de417cf-c344-4c20-b50f-b033320177f0","system_id":"levelo_inurba_marseille","lat":43.29972,"lon":5.38493,"is_reserved":false,"is_disabled":false,"rental_uris":{"android":"levelo://app?vid=8de417cf-c344-4c20-b50f-b033320177f0","ios":"levelo://app?vid=8de417cf-c344-4c20-b50f-b033320177f0"},"vehicle_type_id":"4","last_reported":1738253484,"current_range_meters":36000,"station_id":"ce4bgj92rcd13ifvqbd0","pricing_plan_id":"cebpf4jnsgd1na2vs0mg"},{"bike_id":"ba0dc6f2-b89b-479e-9712-43aaa6d3abd7","system_id":"levelo_inurba_marseille","lat":43.31076,"lon":5.3835,"is_reserved":false,"is_disabled":false,"rental_uris":{"android":"levelo://app?vid=ba0dc6f2-b89b-479e-9712-43aaa6d3abd7","ios":"levelo://app?vid=ba0dc6f2-b89b-479e-9712-43aaa6d3abd7"},"vehicle_type_id":"4","last_reported":1738253484,"current_range_meters":31200,"station_id":"ce4bgv92rcd13ifvqcr0","pricing_plan_id":"cebpf4jnsgd1na2vs0mg"},{"bike_id":"7cd6617d-ef37-4b9a-9114-490e143ce3ab","system_id":"levelo_inurba_marseille","lat":43.31897,"lon":5.40731,"is_reserved":false,"is_disabled":false,"rental_uris":{"android":"levelo://app?vid=7cd6617d-ef37-4b9a-9114-490e143ce3ab","ios":"levelo://app?vid=7cd6617d-ef37-4b9a-9114-490e143ce3ab"},"vehicle_type_id":"4","last_reported":1738253484,"current_range_meters":38800,"station_id":"ce4bhq12rcd13ifvqhig","pricing_plan_id":"cebpf4jnsgd1na2vs0mg"},{"bike_id":"ccb6318c-6994-46f1-b382-d420e97e4a87","system_id":"levelo_inurba_marseille","lat":43.2721,"lon":5.39186,"is_reserved":false,"is_disabled":false,"rental_uris":{"android":"levelo://app?vid=ccb6318c-6994-46f1-b382-d420e97e4a87","ios":"levelo://app?vid=ccb6318c-6994-46f1-b382-d420e97e4a87"},"vehicle_type_id":"4","last_reported":1738253484,"current_range_meters":33600,"station_id":"ce4bhhp2rcd13ifvqfm0","pricing_plan_id":"cebpf4jnsgd1na2vs0mg"},{"bike_id":"f46bb6d5-cca8-4a87-b3fd-9e47555382a7","system_id":"levelo_inurba_marseille","lat":43.246634,"lon":5.38169,"is_reserved":false,"is_disabled":false,"rental_uris":{"android":"levelo://app?vid=f46bb6d5-cca8-4a87-b3fd-9e47555382a7","ios":"levelo://app?vid=f46bb6d5-cca8-4a87-b3fd-9e47555382a7"},"vehicle_type_id":"4","last_reported":1738253484,"current_range_meters":20000,"station_id":"ce4bhih2rcd13ifvqfr0","pricing_plan_id":"cebpf4jnsgd1na2vs0mg"},{"bike_id":"75e5a7c4-bcfe-4b37-a9f1-1e39acaf31f7","system_id":"levelo_inurba_marseille","lat":43.30336,"lon":5.40436,"is_reserved":false,"is_disabled":false,"rental_uris":{"android":"levelo://app?vid=75e5a7c4-bcfe-4b37-a9f1-1e39acaf31f7","ios":"levelo://app?vid=75e5a7c4-bcfe-4b37-a9f1-1e39acaf31f7"},"vehicle_type_id":"4","last_reported":1738253484,"current_range_meters":39200,"station_id":"ce4bh012rcd13ifvqd10","pricing_plan_id":"cebpf4jnsgd1na2vs0mg"},{"bike_id":"7dad5e92-67eb-4e58-97fb-d1030403e60f","system_id":"levelo_inurba_marseille","lat":43.29042,"lon":5.37584,"is_reserved":false,"is_disabled":false,"rental_uris":{"android":"levelo://app?vid=7dad5e92-67eb-4e58-97fb-d1030403e60f","ios":"levelo://app?vid=7dad5e92-67eb-4e58-97fb-d1030403e60f"},"vehicle_type_id":"4","last_reported":1738253484,"current_range_meters":29600,"station_id":"ce4bh692rcd13ifvqe90","pricing_plan_id":"cebpf4jnsgd1na2vs0mg"},{"bike_id":"b56534f8-577f-4250-914f-e0db70a64414","system_id":"levelo_inurba_marseille","lat":43.32489,"lon":5.36562,"is_reserved":false,"is_disabled":false,"rental_uris":{"android":"levelo://app?vid=b56534f8-577f-4250-914f-e0db70a64414","ios":"levelo://app?vid=b56534f8-577f-4250-914f-e0db70a64414"},"vehicle_type_id":"4","last_reported":1738253484,"current_range_meters":24000,"station_id":"ce4bhs12rcd13ifvqhvg","pricing_plan_id":"cebpf4jnsgd1na2vs0mg"},{"bike_id":"5b9dcc5d-6c59-495e-b2f6-f8d55d55a751","system_id":"levelo_inurba_marseille","lat":43.28076,"lon":5.39655,"is_reserved":false,"is_disabled":false,"rental_uris":{"android":"levelo://app?vid=5b9dcc5d-6c59-495e-b2f6-f8d55d55a751","ios":"levelo://app?vid=5b9dcc5d-6c59-495e-b2f6-f8d55d55a751"},"vehicle_type_id":"4","last_reported":1738253484,"current_range_meters":38800,"station_id":"ce4bho12rcd13ifvqh2g","pricing_plan_id":"cebpf4jnsgd1na2vs0mg"},{"bike_id":"a60cb7a8-a89a-4627-975c-41706c55e229","system_id":"levelo_inurba_marseille","lat":43.28156,"lon":5.42648,"is_reserved":false,"is_disabled":false,"rental_uris":{"android":"levelo://app?vid=a60cb7a8-a89a-4627-975c-41706c55e229","ios":"levelo://app?vid=a60cb7a8-a89a-4627-975c-41706c55e229"},"vehicle_type_id":"4","last_reported":1738253484,"current_range_meters":11200,"station_id":"ce4bhnh2rcd13ifvqgug","pricing_plan_id":"cebpf4jnsgd1na2vs0mg"},{"bike_id":"9a6334c1-2529-46f5-9be3-482365ba227d","system_id":"levelo_inurba_marseille","lat":43.30168,"lon":5.38088,"is_reserved":false,"is_disabled":false,"rental_uris":{"android":"levelo://app?vid=9a6334c1-2529-46f5-9be3-482365ba227d","ios":"levelo://app?vid=9a6334c1-2529-46f5-9be3-482365ba227d"},"vehicle_type_id":"4","last_reported":1738253484,"current_range_meters":30000,"station_id":"ce4bgjp2rcd13ifvqbh0","pricing_plan_id":"cebpf4jnsgd1na2vs0mg"},{"bike_id":"fa2f1c21-3bfc-46ef-bcba-588774df180a","system_id":"levelo_inurba_marseille","lat":43.25968,"lon":5.39942,"is_reserved":false,"is_disabled":false,"rental_uris":{"android":"levelo://app?vid=fa2f1c21-3bfc-46ef-bcba-588774df180a","ios":"levelo://app?vid=fa2f1c21-3bfc-46ef-bcba-588774df180a"},"vehicle_type_id":"4","last_reported":1738253484,"current_range_meters":39200,"station_id":"ce4bhl92rcd13ifvqghg","pricing_plan_id":"cebpf4jnsgd1na2vs0mg"},{"bike_id":"6443494e-37c1-42a0-be6c-f1a322b4d6e7","system_id":"levelo_inurba_marseille","lat":43.26682,"lon":5.38256,"is_reserved":false,"is_disabled":false,"rental_uris":{"android":"levelo://app?vid=6443494e-37c1-42a0-be6c-f1a322b4d6e7","ios":"levelo://app?vid=6443494e-37c1-42a0-be6c-f1a322b4d6e7"},"vehicle_type_id":"4","last_reported":1738253484,"current_range_meters":25600,"station_id":"ce4bhg92rcd13ifvqf90","pricing_plan_id":"cebpf4jnsgd1na2vs0mg"},{"bike_id":"14f9660e-3c5a-472b-ad83-9a464b2976e9","system_id":"levelo_inurba_marseille","lat":43.31324,"lon":5.39686,"is_reserved":false,"is_disabled":false,"rental_uris":{"android":"levelo://app?vid=14f9660e-3c5a-472b-ad83-9a464b2976e9","ios":"levelo://app?vid=14f9660e-3c5a-472b-ad83-9a464b2976e9"},"vehicle_type_id":"4","last_reported":1738253484,"current_range_meters":30000,"station_id":"ce4bgvp2rcd13ifvqcu0","pricing_plan_id":"cebpf4jnsgd1na2vs0mg"},{"bike_id":"e74f24e1-add2-4635-a51d-5692fff267ad","system_id":"levelo_inurba_marseille","lat":43.30278,"lon":5.37693,"is_reserved":false,"is_disabled":false,"rental_uris":{"android":"levelo://app?vid=e74f24e1-add2-4635-a51d-5692fff267ad","ios":"levelo://app?vid=e74f24e1-add2-4635-a51d-5692fff267ad"},"vehicle_type_id":"4","last_reported":1738253484,"current_range_meters":30800,"station_id":"ce4bguh2rcd13ifvqcj0","pricing_plan_id":"cebpf4jnsgd1na2vs0mg"},{"bike_id":"80c74444-eb82-4dab-bd21-476dcbfa3c13","system_id":"levelo_inurba_marseille","lat":43.296137,"lon":5.381187,"is_reserved":false,"is_disabled":false,"rental_uris":{"android":"levelo://app?vid=80c74444-eb82-4dab-bd21-476dcbfa3c13","ios":"levelo://app?vid=80c74444-eb82-4dab-bd21-476dcbfa3c13"},"vehicle_type_id":"4","last_reported":1738253484,"current_range_meters":36800,"station_id":"ce4bgl12rcd13ifvqbo0","pricing_plan_id":"cebpf4jnsgd1na2vs0mg"},{"bike_id":"5eb22329-ff09-4a9e-b799-f89a32a3f708","system_id":"levelo_inurba_marseille","lat":43.30147,"lon":5.3742,"is_reserved":false,"is_disabled":false,"rental_uris":{"android":"levelo://app?vid=5eb22329-ff09-4a9e-b799-f89a32a3f708","ios":"levelo://app?vid=5eb22329-ff09-4a9e-b799-f89a32a3f708"},"vehicle_type_id":"4","last_reported":1738253484,"current_range_meters":9200,"station_id":"ce4bgs92rcd13ifvqcc0","pricing_plan_id":"cebpf4jnsgd1na2vs0mg"},{"bike_id":"39fda13f-0f56-4d84-bd3a-f99078c8032f","system_id":"levelo_inurba_marseille","lat":43.29857,"lon":5.36277,"is_reserved":false,"is_disabled":false,"rental_uris":{"android":"levelo://app?vid=39fda13f-0f56-4d84-bd3a-f99078c8032f","ios":"levelo://app?vid=39fda13f-0f56-4d84-bd3a-f99078c8032f"},"vehicle_type_id":"4","last_reported":1738253484,"current_range_meters":39200,"station_id":"ce4bgpp2rcd13ifvqc3g","pricing_plan_id":"cebpf4jnsgd1na2vs0mg"},{"bike_id":"e80fac75-0703-438b-9cb4-cf7aa615d978","system_id":"levelo_inurba_marseille","lat":43.28168,"lon":5.42638,"is_reserved":false,"is_disabled":false,"rental_uris":{"android":"levelo://app?vid=e80fac75-0703-438b-9cb4-cf7aa615d978","ios":"levelo://app?vid=e80fac75-0703-438b-9cb4-cf7aa615d978"},"vehicle_type_id":"4","last_reported":1738253484,"current_range_meters":3600,"station_id":"ce4bhnh2rcd13ifvqgug","pricing_plan_id":"cebpf4jnsgd1na2vs0mg"},{"bike_id":"ed2de8b2-bceb-4115-9fd4-6f4cd5bdef1c","system_id":"levelo_inurba_marseille","lat":43.29273,"lon":5.36853,"is_reserved":false,"is_disabled":false,"rental_uris":{"android":"levelo://app?vid=ed2de8b2-bceb-4115-9fd4-6f4cd5bdef1c","ios":"levelo://app?vid=ed2de8b2-bceb-4115-9fd4-6f4cd5bdef1c"},"vehicle_type_id":"4","last_reported":1738253484,"current_range_meters":38400,"station_id":"ce4bhbp2rcd13ifvqesg","pricing_plan_id":"cebpf4jnsgd1na2vs0mg"},{"bike_id":"146e1d2a-a85d-41e8-b665-fe6ede9dc7fc","system_id":"levelo_inurba_marseille","lat":43.30149,"lon":5.38093,"is_reserved":false,"is_disabled":false,"rental_uris":{"android":"levelo://app?vid=146e1d2a-a85d-41e8-b665-fe6ede9dc7fc","ios":"levelo://app?vid=146e1d2a-a85d-41e8-b665-fe6ede9dc7fc"},"vehicle_type_id":"4","last_reported":1738253484,"current_range_meters":38400,"station_id":"ce4bgjp2rcd13ifvqbh0","pricing_plan_id":"cebpf4jnsgd1na2vs0mg"},{"bike_id":"5e995bf7-c9ed-4dac-99cc-dd1f81921bd9","system_id":"levelo_inurba_marseille","lat":43.26936,"lon":5.40239,"is_reserved":false,"is_disabled":false,"rental_uris":{"android":"levelo://app?vid=5e995bf7-c9ed-4dac-99cc-dd1f81921bd9","ios":"levelo://app?vid=5e995bf7-c9ed-4dac-99cc-dd1f81921bd9"},"vehicle_type_id":"4","last_reported":1738253484,"current_range_meters":38400,"station_id":"cjm6bp8fraef2m0cb0m0","pricing_plan_id":"cebpf4jnsgd1na2vs0mg"},{"bike_id":"cd6b353a-d9ae-47b8-9eb1-cf960e9a39fe","system_id":"levelo_inurba_marseille","lat":43.2929,"lon":5.36835,"is_reserved":false,"is_disabled":false,"rental_uris":{"android":"levelo://app?vid=cd6b353a-d9ae-47b8-9eb1-cf960e9a39fe","ios":"levelo://app?vid=cd6b353a-d9ae-47b8-9eb1-cf960e9a39fe"},"vehicle_type_id":"4","last_reported":1738253484,"current_range_meters":14000,"station_id":"ce4bhbp2rcd13ifvqesg","pricing_plan_id":"cebpf4jnsgd1na2vs0mg"},{"bike_id":"9061c30b-f0f7-46e3-8477-d3c2c36b1f53","system_id":"levelo_inurba_marseille","lat":43.28026,"lon":5.36952,"is_reserved":false,"is_disabled":true,"rental_uris":{"android":"levelo://app?vid=9061c30b-f0f7-46e3-8477-d3c2c36b1f53","ios":"levelo://app?vid=9061c30b-f0f7-46e3-8477-d3c2c36b1f53"},"vehicle_type_id":"4","last_reported":1738253484,"current_range_meters":36400,"station_id":"ce4bha12rcd13ifvqef0","pricing_plan_id":"cebpf4jnsgd1na2vs0mg"},{"bike_id":"b47546f7-90c4-40f8-abd8-4029ca471b85","system_id":"levelo_inurba_marseille","lat":43.27379,"lon":5.36261,"is_reserved":false,"is_disabled":true,"rental_uris":{"android":"levelo://app?vid=b47546f7-90c4-40f8-abd8-4029ca471b85","ios":"levelo://app?vid=b47546f7-90c4-40f8-abd8-4029ca471b85"},"vehicle_type_id":"4","last_reported":1738253484,"current_range_meters":400,"station_id":"ce4bhbh2rcd13ifvqeo0","pricing_plan_id":"cebpf4jnsgd1na2vs0mg"},{"bike_id":"fba05ad0-85c5-4e7a-a917-4b9c8e256fa2","system_id":"levelo_inurba_marseille","lat":43.312079,"lon":5.368456,"is_reserved":false,"is_disabled":false,"rental_uris":{"android":"levelo://app?vid=fba05ad0-85c5-4e7a-a917-4b9c8e256fa2","ios":"levelo://app?vid=fba05ad0-85c5-4e7a-a917-4b9c8e256fa2"},"vehicle_type_id":"4","last_reported":1738253484,"current_range_meters":36800,"station_id":"ce4bgl92rcd13ifvqbq0","pricing_plan_id":"cebpf4jnsgd1na2vs0mg"},{"bike_id":"fb33688a-5a97-4fea-8144-a4bf6b0cf308","system_id":"levelo_inurba_marseille","lat":43.30165,"lon":5.37311,"is_reserved":false,"is_disabled":false,"rental_uris":{"android":"levelo://app?vid=fb33688a-5a97-4fea-8144-a4bf6b0cf308","ios":"levelo://app?vid=fb33688a-5a97-4fea-8144-a4bf6b0cf308"},"vehicle_type_id":"4","last_reported":1738253484,"current_range_meters":37600,"station_id":"","pricing_plan_id":"cebpf4jnsgd1na2vs0mg"},{"bike_id":"d854f42f-be0f-4e9c-af48-6d6249ad000d","system_id":"levelo_inurba_marseille","lat":43.26693,"lon":5.38244,"is_reserved":false,"is_disabled":false,"rental_uris":{"android":"levelo://app?vid=d854f42f-be0f-4e9c-af48-6d6249ad000d","ios":"levelo://app?vid=d854f42f-be0f-4e9c-af48-6d6249ad000d"},"vehicle_type_id":"4","last_reported":1738253484,"current_range_meters":36400,"station_id":"ce4bhg92rcd13ifvqf90","pricing_plan_id":"cebpf4jnsgd1na2vs0mg"},{"bike_id":"ab2c796a-c23b-4a3a-9534-777b873d6a05","system_id":"levelo_inurba_marseille","lat":43.24169,"lon":5.36389,"is_reserved":false,"is_disabled":false,"rental_uris":{"android":"levelo://app?vid=ab2c796a-c23b-4a3a-9534-777b873d6a05","ios":"levelo://app?vid=ab2c796a-c23b-4a3a-9534-777b873d6a05"},"vehicle_type_id":"4","last_reported":1738253484,"current_range_meters":38800,"station_id":"cpo36qri1sfpv3e86is0","pricing_plan_id":"cebpf4jnsgd1na2vs0mg"},{"bike_id":"58feef8f-17b5-470d-8151-c7a13f0dbe24","system_id":"levelo_inurba_marseille","lat":43.28413,"lon":5.37545,"is_reserved":false,"is_disabled":false,"rental_uris":{"android":"levelo://app?vid=58feef8f-17b5-470d-8151-c7a13f0dbe24","ios":"levelo://app?vid=58feef8f-17b5-470d-8151-c7a13f0dbe24"},"vehicle_type_id":"4","last_reported":1738253484,"current_range_meters":6400,"station_id":"ce4bh412rcd13ifvqds0","pricing_plan_id":"cebpf4jnsgd1na2vs0mg"},{"bike_id":"1d53e615-c9c4-447d-9d4f-d5e52b64567e","system_id":"levelo_inurba_marseille","lat":43.2993,"lon":5.37479,"is_reserved":false,"is_disabled":false,"rental_uris":{"android":"levelo://app?vid=1d53e615-c9c4-447d-9d4f-d5e52b64567e","ios":"levelo://app?vid=1d53e615-c9c4-447d-9d4f-d5e52b64567e"},"vehicle_type_id":"4","last_reported":1738253484,"current_range_meters":29600,"station_id":"ce4bgjh2rcd13ifvqbg0","pricing_plan_id":"cebpf4jnsgd1na2vs0mg"},{"bike_id":"3f3de0e8-ee30-4340-ad16-97c288bf4a8f","system_id":"levelo_inurba_marseille","lat":43.31108,"lon":5.37753,"is_reserved":false,"is_disabled":false,"rental_uris":{"android":"levelo://app?vid=3f3de0e8-ee30-4340-ad16-97c288bf4a8f","ios":"levelo://app?vid=3f3de0e8-ee30-4340-ad16-97c288bf4a8f"},"vehicle_type_id":"4","last_reported":1738253484,"current_range_meters":39200,"station_id":"ce4bgt92rcd13ifvqcg0","pricing_plan_id":"cebpf4jnsgd1na2vs0mg"},{"bike_id":"6be69010-294f-42c9-8100-97581dab73cd","system_id":"levelo_inurba_marseille","lat":43.26927,"lon":5.38915,"is_reserved":false,"is_disabled":false,"rental_uris":{"android":"levelo://app?vid=6be69010-294f-42c9-8100-97581dab73cd","ios":"levelo://app?vid=6be69010-294f-42c9-8100-97581dab73cd"},"vehicle_type_id":"4","last_reported":1738253484,"current_range_meters":22400,"station_id":"ce4bhhh2rcd13ifvqfl0","pricing_plan_id":"cebpf4jnsgd1na2vs0mg"},{"bike_id":"b3f9d40e-c6c3-4e70-a1cf-be32056d433c","system_id":"levelo_inurba_marseille","lat":43.24399,"lon":5.37064,"is_reserved":false,"is_disabled":true,"rental_uris":{"android":"levelo://app?vid=b3f9d40e-c6c3-4e70-a1cf-be32056d433c","ios":"levelo://app?vid=b3f9d40e-c6c3-4e70-a1cf-be32056d433c"},"vehicle_type_id":"4","last_reported":1738253484,"current_range_meters":0,"station_id":"ce4bhhh2rcd13ifvqfk0","pricing_plan_id":"cebpf4jnsgd1na2vs0mg"},{"bike_id":"aa8bcedd-7b46-4fd0-85b9-31c95c1fbc27","system_id":"levelo_inurba_marseille","lat":43.25109,"lon":5.39513,"is_reserved":false,"is_disabled":false,"rental_uris":{"android":"levelo://app?vid=aa8bcedd-7b46-4fd0-85b9-31c95c1fbc27","ios":"levelo://app?vid=aa8bcedd-7b46-4fd0-85b9-31c95c1fbc27"},"vehicle_type_id":"4","last_reported":1738253484,"current_range_meters":38800,"station_id":"ce4bhm12rcd13ifvqgkg","pricing_plan_id":"cebpf4jnsgd1na2vs0mg"},{"bike_id":"fc2dee61-6a5e-41ce-a75c-e2029dcb39bc","system_id":"levelo_inurba_marseille","lat":43.2656,"lon":5.3729,"is_reserved":false,"is_disabled":false,"rental_uris":{"android":"levelo://app?vid=fc2dee61-6a5e-41ce-a75c-e2029dcb39bc","ios":"levelo://app?vid=fc2dee61-6a5e-41ce-a75c-e2029dcb39bc"},"vehicle_type_id":"4","last_reported":1738253484,"current_range_meters":18000,"station_id":"ce4bhg12rcd13ifvqf70","pricing_plan_id":"cebpf4jnsgd1na2vs0mg"},{"bike_id":"d4506b2a-3972-4db1-bcb2-0ac3a98014e3","system_id":"levelo_inurba_marseille","lat":43.276605,"lon":5.389207,"is_reserved":false,"is_disabled":false,"rental_uris":{"android":"levelo://app?vid=d4506b2a-3972-4db1-bcb2-0ac3a98014e3","ios":"levelo://app?vid=d4506b2a-3972-4db1-bcb2-0ac3a98014e3"},"vehicle_type_id":"4","last_reported":1738253484,"current_range_meters":38800,"station_id":"ce4bhi12rcd13ifvqfo0","pricing_plan_id":"cebpf4jnsgd1na2vs0mg"},{"bike_id":"3afe2907-14fe-40b0-8ce8-247215ed16c8","system_id":"levelo_inurba_marseille","lat":43.26932,"lon":5.38904,"is_reserved":false,"is_disabled":false,"rental_uris":{"android":"levelo://app?vid=3afe2907-14fe-40b0-8ce8-247215ed16c8","ios":"levelo://app?vid=3afe2907-14fe-40b0-8ce8-247215ed16c8"},"vehicle_type_id":"4","last_reported":1738253484,"current_range_meters":38800,"station_id":"ce4bhhh2rcd13ifvqfl0","pricing_plan_id":"cebpf4jnsgd1na2vs0mg"},{"bike_id":"e8e1f7c6-d773-4c38-bfcc-4a6d773355ce","system_id":"levelo_inurba_marseille","lat":43.22936,"lon":5.35383,"is_reserved":false,"is_disabled":false,"rental_uris":{"android":"levelo://app?vid=e8e1f7c6-d773-4c38-bfcc-4a6d773355ce","ios":"levelo://app?vid=e8e1f7c6-d773-4c38-bfcc-4a6d773355ce"},"vehicle_type_id":"4","last_reported":1738253484,"current_range_meters":38800,"station_id":"cpo3532slgdg3j2ikp40","pricing_plan_id":"cebpf4jnsgd1na2vs0mg"},{"bike_id":"bf35ec4d-b8d4-4fd4-822c-ee9fd7fc548b","system_id":"levelo_inurba_marseille","lat":43.29261,"lon":5.40909,"is_reserved":false,"is_disabled":false,"rental_uris":{"android":"levelo://app?vid=bf35ec4d-b8d4-4fd4-822c-ee9fd7fc548b","ios":"levelo://app?vid=bf35ec4d-b8d4-4fd4-822c-ee9fd7fc548b"},"vehicle_type_id":"4","last_reported":1738253484,"current_range_meters":28800,"station_id":"ce4bh192rcd13ifvqdc0","pricing_plan_id":"cebpf4jnsgd1na2vs0mg"},{"bike_id":"9c577c7e-bb6a-4366-a029-5d396357d344","system_id":"levelo_inurba_marseille","lat":43.29582,"lon":5.36739,"is_reserved":false,"is_disabled":false,"rental_uris":{"android":"levelo://app?vid=9c577c7e-bb6a-4366-a029-5d396357d344","ios":"levelo://app?vid=9c577c7e-bb6a-4366-a029-5d396357d344"},"vehicle_type_id":"4","last_reported":1738253484,"current_range_meters":38800,"station_id":"ce4bgph2rcd13ifvqc2g","pricing_plan_id":"cebpf4jnsgd1na2vs0mg"},{"bike_id":"1d1bc79e-5a7a-435e-91f3-73234fa7b584","system_id":"levelo_inurba_marseille","lat":43.29271,"lon":5.37429,"is_reserved":false,"is_disabled":false,"rental_uris":{"android":"levelo://app?vid=1d1bc79e-5a7a-435e-91f3-73234fa7b584","ios":"levelo://app?vid=1d1bc79e-5a7a-435e-91f3-73234fa7b584"},"vehicle_type_id":"4","last_reported":1738253484,"current_range_meters":34000,"station_id":"ce4bgi12rcd13ifvqb70","pricing_plan_id":"cebpf4jnsgd1na2vs0mg"},{"bike_id":"7b6d01c3-b9c6-4cae-b2e7-64fcc0baeeaa","system_id":"levelo_inurba_marseille","lat":43.25574,"lon":5.38225,"is_reserved":false,"is_disabled":false,"rental_uris":{"android":"levelo://app?vid=7b6d01c3-b9c6-4cae-b2e7-64fcc0baeeaa","ios":"levelo://app?vid=7b6d01c3-b9c6-4cae-b2e7-64fcc0baeeaa"},"vehicle_type_id":"4","last_reported":1738253484,"current_range_meters":16400,"station_id":"ce4bhih2rcd13ifvqfs0","pricing_plan_id":"cebpf4jnsgd1na2vs0mg"},{"bike_id":"260c3224-c3e5-4a9a-a5e4-8a6ee28f69e2","system_id":"levelo_inurba_marseille","lat":43.28117,"lon":5.37849,"is_reserved":false,"is_disabled":false,"rental_uris":{"android":"levelo://app?vid=260c3224-c3e5-4a9a-a5e4-8a6ee28f69e2","ios":"levelo://app?vid=260c3224-c3e5-4a9a-a5e4-8a6ee28f69e2"},"vehicle_type_id":"4","last_reported":1738253484,"current_range_meters":28800,"station_id":"ce4bha12rcd13ifvqee0","pricing_plan_id":"cebpf4jnsgd1na2vs0mg"},{"bike_id":"3679ac45-39e7-46fd-bab9-b059275646e3","system_id":"levelo_inurba_marseille","lat":43.30534,"lon":5.36548,"is_reserved":false,"is_disabled":false,"rental_uris":{"android":"levelo://app?vid=3679ac45-39e7-46fd-bab9-b059275646e3","ios":"levelo://app?vid=3679ac45-39e7-46fd-bab9-b059275646e3"},"vehicle_type_id":"4","last_reported":1738253484,"current_range_meters":20800,"station_id":"ce4bgs12rcd13ifvqcag","pricing_plan_id":"cebpf4jnsgd1na2vs0mg"},{"bike_id":"108a8edc-18fe-4feb-b0f1-8476e345ce77","system_id":"levelo_inurba_marseille","lat":43.29421,"lon":5.38625,"is_reserved":false,"is_disabled":false,"rental_uris":{"android":"levelo://app?vid=108a8edc-18fe-4feb-b0f1-8476e345ce77","ios":"levelo://app?vid=108a8edc-18fe-4feb-b0f1-8476e345ce77"},"vehicle_type_id":"4","last_reported":1738253484,"current_range_meters":24800,"station_id":"ce4bh2h2rcd13ifvqdh0","pricing_plan_id":"cebpf4jnsgd1na2vs0mg"},{"bike_id":"1ff16b94-89e8-4062-999e-69e5d720ef95","system_id":"levelo_inurba_marseille","lat":43.31335,"lon":5.39695,"is_reserved":false,"is_disabled":false,"rental_uris":{"android":"levelo://app?vid=1ff16b94-89e8-4062-999e-69e5d720ef95","ios":"levelo://app?vid=1ff16b94-89e8-4062-999e-69e5d720ef95"},"vehicle_type_id":"4","last_reported":1738253484,"current_range_meters":38800,"station_id":"ce4bgvp2rcd13ifvqcu0","pricing_plan_id":"cebpf4jnsgd1na2vs0mg"},{"bike_id":"0f6fbc83-3299-483e-a948-76efe049f2a7","system_id":"levelo_inurba_marseille","lat":43.30143,"lon":5.39876,"is_reserved":false,"is_disabled":false,"rental_uris":{"android":"levelo://app?vid=0f6fbc83-3299-483e-a948-76efe049f2a7","ios":"levelo://app?vid=0f6fbc83-3299-483e-a948-76efe049f2a7"},"vehicle_type_id":"4","last_reported":1738253484,"current_range_meters":22000,"station_id":"ce4bh0h2rcd13ifvqd40","pricing_plan_id":"cebpf4jnsgd1na2vs0mg"},{"bike_id":"a49a0388-4ae6-4d86-b01e-b6ab994197dd","system_id":"levelo_inurba_marseille","lat":43.30153,"lon":5.3809,"is_reserved":false,"is_disabled":false,"rental_uris":{"android":"levelo://app?vid=a49a0388-4ae6-4d86-b01e-b6ab994197dd","ios":"levelo://app?vid=a49a0388-4ae6-4d86-b01e-b6ab994197dd"},"vehicle_type_id":"4","last_reported":1738253484,"current_range_meters":27600,"station_id":"ce4bgjp2rcd13ifvqbh0","pricing_plan_id":"cebpf4jnsgd1na2vs0mg"},{"bike_id":"fcace56f-d758-4097-ae1a-c24103882696","system_id":"levelo_inurba_marseille","lat":43.29058,"lon":5.37584,"is_reserved":false,"is_disabled":false,"rental_uris":{"android":"levelo://app?vid=fcace56f-d758-4097-ae1a-c24103882696","ios":"levelo://app?vid=fcace56f-d758-4097-ae1a-c24103882696"},"vehicle_type_id":"4","last_reported":1738253484,"current_range_meters":37600,"station_id":"ce4bh692rcd13ifvqe90","pricing_plan_id":"cebpf4jnsgd1na2vs0mg"},{"bike_id":"fa0e78db-e8b1-42c0-99ed-87dc0b435aee","system_id":"levelo_inurba_marseille","lat":43.31072,"lon":5.38355,"is_reserved":false,"is_disabled":false,"rental_uris":{"android":"levelo://app?vid=fa0e78db-e8b1-42c0-99ed-87dc0b435aee","ios":"levelo://app?vid=fa0e78db-e8b1-42c0-99ed-87dc0b435aee"},"vehicle_type_id":"4","last_reported":1738253484,"current_range_meters":28400,"station_id":"ce4bgv92rcd13ifvqcr0","pricing_plan_id":"cebpf4jnsgd1na2vs0mg"},{"bike_id":"e9ec24da-025a-4dfc-8c71-776f8271cad7","system_id":"levelo_inurba_marseille","lat":43.29576,"lon":5.36756,"is_reserved":false,"is_disabled":false,"rental_uris":{"android":"levelo://app?vid=e9ec24da-025a-4dfc-8c71-776f8271cad7","ios":"levelo://app?vid=e9ec24da-025a-4dfc-8c71-776f8271cad7"},"vehicle_type_id":"4","last_reported":1738253484,"current_range_meters":38800,"station_id":"ce4bgph2rcd13ifvqc2g","pricing_plan_id":"cebpf4jnsgd1na2vs0mg"},{"bike_id":"1c7a384f-10e8-4fbc-9897-df5823efdac1","system_id":"levelo_inurba_marseille","lat":43.26944,"lon":5.38638,"is_reserved":false,"is_disabled":false,"rental_uris":{"android":"levelo://app?vid=1c7a384f-10e8-4fbc-9897-df5823efdac1","ios":"levelo://app?vid=1c7a384f-10e8-4fbc-9897-df5823efdac1"},"vehicle_type_id":"4","last_reported":1738253484,"current_range_meters":21600,"station_id":"ce4bhh92rcd13ifvqfh0","pricing_plan_id":"cebpf4jnsgd1na2vs0mg"},{"bike_id":"e0abf7f7-6db9-402c-b482-f9546f448acb","system_id":"levelo_inurba_marseille","lat":43.27494,"lon":5.42454,"is_reserved":false,"is_disabled":false,"rental_uris":{"android":"levelo://app?vid=e0abf7f7-6db9-402c-b482-f9546f448acb","ios":"levelo://app?vid=e0abf7f7-6db9-402c-b482-f9546f448acb"},"vehicle_type_id":"4","last_reported":1738253484,"current_range_meters":24000,"station_id":"ce4bhn92rcd13ifvqgrg","pricing_plan_id":"cebpf4jnsgd1na2vs0mg"},{"bike_id":"f5d8f230-aa71-4573-a57c-d0d8fb342d09","system_id":"levelo_inurba_marseille","lat":43.23155,"lon":5.43714,"is_reserved":false,"is_disabled":false,"rental_uris":{"android":"levelo://app?vid=f5d8f230-aa71-4573-a57c-d0d8fb342d09","ios":"levelo://app?vid=f5d8f230-aa71-4573-a57c-d0d8fb342d09"},"vehicle_type_id":"4","last_reported":1738253484,"current_range_meters":11200,"station_id":"ce4bhmp2rcd13ifvqgog","pricing_plan_id":"cebpf4jnsgd1na2vs0mg"},{"bike_id":"71f34f72-d3b7-46a5-9bd4-1fe057b3152f","system_id":"levelo_inurba_marseille","lat":43.22937,"lon":5.35368,"is_reserved":false,"is_disabled":false,"rental_uris":{"android":"levelo://app?vid=71f34f72-d3b7-46a5-9bd4-1fe057b3152f","ios":"levelo://app?vid=71f34f72-d3b7-46a5-9bd4-1fe057b3152f"},"vehicle_type_id":"4","last_reported":1738253484,"current_range_meters":39200,"station_id":"cpo3532slgdg3j2ikp40","pricing_plan_id":"cebpf4jnsgd1na2vs0mg"},{"bike_id":"66c12baa-9477-443c-ad62-ceeda86c1e58","system_id":"levelo_inurba_marseille","lat":43.25863,"lon":5.39898,"is_reserved":false,"is_disabled":false,"rental_uris":{"android":"levelo://app?vid=66c12baa-9477-443c-ad62-ceeda86c1e58","ios":"levelo://app?vid=66c12baa-9477-443c-ad62-ceeda86c1e58"},"vehicle_type_id":"4","last_reported":1738253484,"current_range_meters":39200,"station_id":"ce4bhl92rcd13ifvqghg","pricing_plan_id":"cebpf4jnsgd1na2vs0mg"},{"bike_id":"20029bdd-9f9c-4ff9-86e4-5ba6ed30f46a","system_id":"levelo_inurba_marseille","lat":43.23148,"lon":5.43705,"is_reserved":false,"is_disabled":true,"rental_uris":{"android":"levelo://app?vid=20029bdd-9f9c-4ff9-86e4-5ba6ed30f46a","ios":"levelo://app?vid=20029bdd-9f9c-4ff9-86e4-5ba6ed30f46a"},"vehicle_type_id":"4","last_reported":1738253484,"current_range_meters":0,"station_id":"ce4bhmp2rcd13ifvqgog","pricing_plan_id":"cebpf4jnsgd1na2vs0mg"},{"bike_id":"b81fd7f3-580b-4bda-8cc9-1816d268f0c3","system_id":"levelo_inurba_marseille","lat":43.30138,"lon":5.38786,"is_reserved":false,"is_disabled":false,"rental_uris":{"android":"levelo://app?vid=b81fd7f3-580b-4bda-8cc9-1816d268f0c3","ios":"levelo://app?vid=b81fd7f3-580b-4bda-8cc9-1816d268f0c3"},"vehicle_type_id":"4","last_reported":1738253484,"current_range_meters":14000,"station_id":"ce4bghh2rcd13ifvqb60","pricing_plan_id":"cebpf4jnsgd1na2vs0mg"},{"bike_id":"a335131c-b12c-433f-9f2c-1edb5549eb18","system_id":"levelo_inurba_marseille","lat":43.30136,"lon":5.38093,"is_reserved":false,"is_disabled":false,"rental_uris":{"android":"levelo://app?vid=a335131c-b12c-433f-9f2c-1edb5549eb18","ios":"levelo://app?vid=a335131c-b12c-433f-9f2c-1edb5549eb18"},"vehicle_type_id":"4","last_reported":1738253484,"current_range_meters":22400,"station_id":"ce4bgjp2rcd13ifvqbh0","pricing_plan_id":"cebpf4jnsgd1na2vs0mg"},{"bike_id":"279becec-4a79-4c20-8a99-f00d2ae395c1","system_id":"levelo_inurba_marseille","lat":43.31072,"lon":5.38341,"is_reserved":false,"is_disabled":false,"rental_uris":{"android":"levelo://app?vid=279becec-4a79-4c20-8a99-f00d2ae395c1","ios":"levelo://app?vid=279becec-4a79-4c20-8a99-f00d2ae395c1"},"vehicle_type_id":"4","last_reported":1738253484,"current_range_meters":11600,"station_id":"ce4bgv92rcd13ifvqcr0","pricing_plan_id":"cebpf4jnsgd1na2vs0mg"},{"bike_id":"7a8503ce-2278-4768-90d1-b87e022c42c6","system_id":"levelo_inurba_marseille","lat":43.28614,"lon":5.3511,"is_reserved":false,"is_disabled":false,"rental_uris":{"android":"levelo://app?vid=7a8503ce-2278-4768-90d1-b87e022c42c6","ios":"levelo://app?vid=7a8503ce-2278-4768-90d1-b87e022c42c6"},"vehicle_type_id":"4","last_reported":1738253484,"current_range_meters":36800,"station_id":"ce4bhch2rcd13ifvqeug","pricing_plan_id":"cebpf4jnsgd1na2vs0mg"},{"bike_id":"69319637-3419-45b1-afe0-d23d6531408a","system_id":"levelo_inurba_marseille","lat":43.28457,"lon":5.35888,"is_reserved":false,"is_disabled":false,"rental_uris":{"android":"levelo://app?vid=69319637-3419-45b1-afe0-d23d6531408a","ios":"levelo://app?vid=69319637-3419-45b1-afe0-d23d6531408a"},"vehicle_type_id":"4","last_reported":1738253484,"current_range_meters":38000,"station_id":"ce4bhah2rcd13ifvqei0","pricing_plan_id":"cebpf4jnsgd1na2vs0mg"},{"bike_id":"26bf92da-d481-4630-a4ae-31c3eafacf03","system_id":"levelo_inurba_marseille","lat":43.27996,"lon":5.40014,"is_reserved":false,"is_disabled":false,"rental_uris":{"android":"levelo://app?vid=26bf92da-d481-4630-a4ae-31c3eafacf03","ios":"levelo://app?vid=26bf92da-d481-4630-a4ae-31c3eafacf03"},"vehicle_type_id":"4","last_reported":1738253484,"current_range_meters":38400,"station_id":"ce4bho92rcd13ifvqh4g","pricing_plan_id":"cebpf4jnsgd1na2vs0mg"},{"bike_id":"45fd4a2a-a5dc-4b7e-962f-4641aedb60dd","system_id":"levelo_inurba_marseille","lat":43.27991,"lon":5.41659,"is_reserved":false,"is_disabled":true,"rental_uris":{"android":"levelo://app?vid=45fd4a2a-a5dc-4b7e-962f-4641aedb60dd","ios":"levelo://app?vid=45fd4a2a-a5dc-4b7e-962f-4641aedb60dd"},"vehicle_type_id":"4","last_reported":1738253484,"current_range_meters":37600,"station_id":"ce4bho12rcd13ifvqh1g","pricing_plan_id":"cebpf4jnsgd1na2vs0mg"},{"bike_id":"bbd37f25-b511-4ba3-9ad8-9c3bb19bb776","system_id":"levelo_inurba_marseille","lat":43.30301,"lon":5.36882,"is_reserved":false,"is_disabled":false,"rental_uris":{"android":"levelo://app?vid=bbd37f25-b511-4ba3-9ad8-9c3bb19bb776","ios":"levelo://app?vid=bbd37f25-b511-4ba3-9ad8-9c3bb19bb776"},"vehicle_type_id":"4","last_reported":1738253484,"current_range_meters":23200,"station_id":"ce4bgqh2rcd13ifvqc5g","pricing_plan_id":"cebpf4jnsgd1na2vs0mg"},{"bike_id":"9f13205d-098f-4241-a5ea-9b7c6466a756","system_id":"levelo_inurba_marseille","lat":43.30326,"lon":5.40429,"is_reserved":false,"is_disabled":false,"rental_uris":{"android":"levelo://app?vid=9f13205d-098f-4241-a5ea-9b7c6466a756","ios":"levelo://app?vid=9f13205d-098f-4241-a5ea-9b7c6466a756"},"vehicle_type_id":"4","last_reported":1738253484,"current_range_meters":4400,"station_id":"ce4bh012rcd13ifvqd10","pricing_plan_id":"cebpf4jnsgd1na2vs0mg"},{"bike_id":"b8cd051c-73e4-43fa-b293-cd513636745c","system_id":"levelo_inurba_marseille","lat":43.29528,"lon":5.38543,"is_reserved":false,"is_disabled":true,"rental_uris":{"android":"levelo://app?vid=b8cd051c-73e4-43fa-b293-cd513636745c","ios":"levelo://app?vid=b8cd051c-73e4-43fa-b293-cd513636745c"},"vehicle_type_id":"4","last_reported":1738253484,"current_range_meters":30400,"station_id":"ce4bgih2rcd13ifvqba0","pricing_plan_id":"cebpf4jnsgd1na2vs0mg"},{"bike_id":"4d213e19-460b-4ffc-abf2-31a900d6c917","system_id":"levelo_inurba_marseille","lat":43.2761,"lon":5.36123,"is_reserved":false,"is_disabled":false,"rental_uris":{"android":"levelo://app?vid=4d213e19-460b-4ffc-abf2-31a900d6c917","ios":"levelo://app?vid=4d213e19-460b-4ffc-abf2-31a900d6c917"},"vehicle_type_id":"4","last_reported":1738253484,"current_range_meters":7200,"station_id":"ce4bgj92rcd13ifvqbe0","pricing_plan_id":"cebpf4jnsgd1na2vs0mg"},{"bike_id":"666f230d-6019-4d3b-a6d8-c50e809537af","system_id":"levelo_inurba_marseille","lat":43.31114,"lon":5.37778,"is_reserved":false,"is_disabled":false,"rental_uris":{"android":"levelo://app?vid=666f230d-6019-4d3b-a6d8-c50e809537af","ios":"levelo://app?vid=666f230d-6019-4d3b-a6d8-c50e809537af"},"vehicle_type_id":"4","last_reported":1738253484,"current_range_meters":36800,"station_id":"ce4bgt92rcd13ifvqcg0","pricing_plan_id":"cebpf4jnsgd1na2vs0mg"},{"bike_id":"31476156-568f-42b7-b523-046829bbd7c5","system_id":"levelo_inurba_marseille","lat":43.31484,"lon":5.37325,"is_reserved":false,"is_disabled":false,"rental_uris":{"android":"levelo://app?vid=31476156-568f-42b7-b523-046829bbd7c5","ios":"levelo://app?vid=31476156-568f-42b7-b523-046829bbd7c5"},"vehicle_type_id":"4","last_reported":1738253484,"current_range_meters":38800,"station_id":"ce4bgt12rcd13ifvqcd0","pricing_plan_id":"cebpf4jnsgd1na2vs0mg"},{"bike_id":"3f8b38bf-d916-41e6-b8d0-97b9ccd9cadc","system_id":"levelo_inurba_marseille","lat":43.29269,"lon":5.36854,"is_reserved":false,"is_disabled":false,"rental_uris":{"android":"levelo://app?vid=3f8b38bf-d916-41e6-b8d0-97b9ccd9cadc","ios":"levelo://app?vid=3f8b38bf-d916-41e6-b8d0-97b9ccd9cadc"},"vehicle_type_id":"4","last_reported":1738253484,"current_range_meters":38800,"station_id":"ce4bhbp2rcd13ifvqesg","pricing_plan_id":"cebpf4jnsgd1na2vs0mg"},{"bike_id":"b7d947df-76c2-45eb-88b2-84c92bd71297","system_id":"levelo_inurba_marseille","lat":43.28155,"lon":5.42634,"is_reserved":false,"is_disabled":false,"rental_uris":{"android":"levelo://app?vid=b7d947df-76c2-45eb-88b2-84c92bd71297","ios":"levelo://app?vid=b7d947df-76c2-45eb-88b2-84c92bd71297"},"vehicle_type_id":"4","last_reported":1738253484,"current_range_meters":4400,"station_id":"ce4bhnh2rcd13ifvqgug","pricing_plan_id":"cebpf4jnsgd1na2vs0mg"},{"bike_id":"0883b683-1c58-4a5a-b73f-ff864686958e","system_id":"levelo_inurba_marseille","lat":43.26052,"lon":5.39388,"is_reserved":false,"is_disabled":false,"rental_uris":{"android":"levelo://app?vid=0883b683-1c58-4a5a-b73f-ff864686958e","ios":"levelo://app?vid=0883b683-1c58-4a5a-b73f-ff864686958e"},"vehicle_type_id":"4","last_reported":1738253484,"current_range_meters":39200,"station_id":"ce4bhh92rcd13ifvqfj0","pricing_plan_id":"cebpf4jnsgd1na2vs0mg"},{"bike_id":"3f3b38da-8d76-49d6-be17-984cf0fc3296","system_id":"levelo_inurba_marseille","lat":43.28714,"lon":5.37956,"is_reserved":false,"is_disabled":true,"rental_uris":{"android":"levelo://app?vid=3f3b38da-8d76-49d6-be17-984cf0fc3296","ios":"levelo://app?vid=3f3b38da-8d76-49d6-be17-984cf0fc3296"},"vehicle_type_id":"4","last_reported":1738253484,"current_range_meters":20400,"station_id":"ce4bh9p2rcd13ifvqec0","pricing_plan_id":"cebpf4jnsgd1na2vs0mg"},{"bike_id":"6c6aee42-b35f-474d-8e8e-3e2db6e8b420","system_id":"levelo_inurba_marseille","lat":43.26218,"lon":5.37435,"is_reserved":false,"is_disabled":false,"rental_uris":{"android":"levelo://app?vid=6c6aee42-b35f-474d-8e8e-3e2db6e8b420","ios":"levelo://app?vid=6c6aee42-b35f-474d-8e8e-3e2db6e8b420"},"vehicle_type_id":"4","last_reported":1738253484,"current_range_meters":38400,"station_id":"ce4bhgp2rcd13ifvqfc0","pricing_plan_id":"cebpf4jnsgd1na2vs0mg"},{"bike_id":"80628cf6-adf9-43d0-bed9-afaa201e09af","system_id":"levelo_inurba_marseille","lat":43.30138,"lon":5.39882,"is_reserved":false,"is_disabled":false,"rental_uris":{"android":"levelo://app?vid=80628cf6-adf9-43d0-bed9-afaa201e09af","ios":"levelo://app?vid=80628cf6-adf9-43d0-bed9-afaa201e09af"},"vehicle_type_id":"4","last_reported":1738253484,"current_range_meters":28000,"station_id":"ce4bh0h2rcd13ifvqd40","pricing_plan_id":"cebpf4jnsgd1na2vs0mg"},{"bike_id":"058f5124-e337-4d4e-9d71-d475e9a79a84","system_id":"levelo_inurba_marseille","lat":43.29786,"lon":5.39359,"is_reserved":false,"is_disabled":false,"rental_uris":{"android":"levelo://app?vid=058f5124-e337-4d4e-9d71-d475e9a79a84","ios":"levelo://app?vid=058f5124-e337-4d4e-9d71-d475e9a79a84"},"vehicle_type_id":"4","last_reported":1738253484,"current_range_meters":12400,"station_id":"chh1huq6cuj3fo74tm60","pricing_plan_id":"cebpf4jnsgd1na2vs0mg"},{"bike_id":"b85acd52-7afe-42a6-a0c7-8f8819191a5a","system_id":"levelo_inurba_marseille","lat":43.25875,"lon":5.39899,"is_reserved":false,"is_disabled":false,"rental_uris":{"android":"levelo://app?vid=b85acd52-7afe-42a6-a0c7-8f8819191a5a","ios":"levelo://app?vid=b85acd52-7afe-42a6-a0c7-8f8819191a5a"},"vehicle_type_id":"4","last_reported":1738253484,"current_range_meters":35200,"station_id":"ce4bhl92rcd13ifvqghg","pricing_plan_id":"cebpf4jnsgd1na2vs0mg"},{"bike_id":"ceea416e-70cd-41d8-9232-b285bf7378bd","system_id":"levelo_inurba_marseille","lat":43.29295,"lon":5.37186,"is_reserved":false,"is_disabled":false,"rental_uris":{"android":"levelo://app?vid=ceea416e-70cd-41d8-9232-b285bf7378bd","ios":"levelo://app?vid=ceea416e-70cd-41d8-9232-b285bf7378bd"},"vehicle_type_id":"4","last_reported":1738253484,"current_range_meters":24400,"station_id":"ce4bgh92rcd13ifvqb40","pricing_plan_id":"cebpf4jnsgd1na2vs0mg"},{"bike_id":"a8498962-d043-420b-a861-8b742904c898","system_id":"levelo_inurba_marseille","lat":43.317165,"lon":5.424,"is_reserved":false,"is_disabled":false,"rental_uris":{"android":"levelo://app?vid=a8498962-d043-420b-a861-8b742904c898","ios":"levelo://app?vid=a8498962-d043-420b-a861-8b742904c898"},"vehicle_type_id":"4","last_reported":1738253484,"current_range_meters":38000,"station_id":"ce4bhp92rcd13ifvqhbg","pricing_plan_id":"cebpf4jnsgd1na2vs0mg"},{"bike_id":"f9d35a32-65b2-4842-bd83-8cbe10324274","system_id":"levelo_inurba_marseille","lat":43.28631,"lon":5.35123,"is_reserved":false,"is_disabled":false,"rental_uris":{"android":"levelo://app?vid=f9d35a32-65b2-4842-bd83-8cbe10324274","ios":"levelo://app?vid=f9d35a32-65b2-4842-bd83-8cbe10324274"},"vehicle_type_id":"4","last_reported":1738253484,"current_range_meters":17200,"station_id":"ce4bhch2rcd13ifvqeug","pricing_plan_id":"cebpf4jnsgd1na2vs0mg"},{"bike_id":"57ea5f77-abf9-41ff-8ffe-e281a2630bfe","system_id":"levelo_inurba_marseille","lat":43.28081,"lon":5.39678,"is_reserved":false,"is_disabled":true,"rental_uris":{"android":"levelo://app?vid=57ea5f77-abf9-41ff-8ffe-e281a2630bfe","ios":"levelo://app?vid=57ea5f77-abf9-41ff-8ffe-e281a2630bfe"},"vehicle_type_id":"4","last_reported":1738253484,"current_range_meters":38800,"station_id":"ce4bho12rcd13ifvqh2g","pricing_plan_id":"cebpf4jnsgd1na2vs0mg"},{"bike_id":"520bc3b8-9430-4df6-a092-483238bde66f","system_id":"levelo_inurba_marseille","lat":43.24556,"lon":5.39513,"is_reserved":false,"is_disabled":true,"rental_uris":{"android":"levelo://app?vid=520bc3b8-9430-4df6-a092-483238bde66f","ios":"levelo://app?vid=520bc3b8-9430-4df6-a092-483238bde66f"},"vehicle_type_id":"4","last_reported":1738253484,"current_range_meters":0,"station_id":"ce4bhlp2rcd13ifvqgjg","pricing_plan_id":"cebpf4jnsgd1na2vs0mg"},{"bike_id":"9b921cbf-acd2-4baf-a8fd-fd0bc1dc69ef","system_id":"levelo_inurba_marseille","lat":43.32288,"lon":5.38292,"is_reserved":false,"is_disabled":false,"rental_uris":{"android":"levelo://app?vid=9b921cbf-acd2-4baf-a8fd-fd0bc1dc69ef","ios":"levelo://app?vid=9b921cbf-acd2-4baf-a8fd-fd0bc1dc69ef"},"vehicle_type_id":"4","last_reported":1738253484,"current_range_meters":22800,"station_id":"ce4bhr12rcd13ifvqhqg","pricing_plan_id":"cebpf4jnsgd1na2vs0mg"},{"bike_id":"88f6e943-379d-4bc6-94a3-a5a74cae73fb","system_id":"levelo_inurba_marseille","lat":43.2791,"lon":5.39575,"is_reserved":false,"is_disabled":false,"rental_uris":{"android":"levelo://app?vid=88f6e943-379d-4bc6-94a3-a5a74cae73fb","ios":"levelo://app?vid=88f6e943-379d-4bc6-94a3-a5a74cae73fb"},"vehicle_type_id":"4","last_reported":1738253484,"current_range_meters":34800,"station_id":"ce4bhf92rcd13ifvqf40","pricing_plan_id":"cebpf4jnsgd1na2vs0mg"},{"bike_id":"5bf67829-0b7e-4405-a3ab-991d574df831","system_id":"levelo_inurba_marseille","lat":43.29421,"lon":5.38629,"is_reserved":false,"is_disabled":false,"rental_uris":{"android":"levelo://app?vid=5bf67829-0b7e-4405-a3ab-991d574df831","ios":"levelo://app?vid=5bf67829-0b7e-4405-a3ab-991d574df831"},"vehicle_type_id":"4","last_reported":1738253484,"current_range_meters":30800,"station_id":"ce4bh2h2rcd13ifvqdh0","pricing_plan_id":"cebpf4jnsgd1na2vs0mg"},{"bike_id":"ca928e35-aa51-46e6-b6d0-7960eae40ef1","system_id":"levelo_inurba_marseille","lat":43.30348,"lon":5.41875,"is_reserved":false,"is_disabled":true,"rental_uris":{"android":"levelo://app?vid=ca928e35-aa51-46e6-b6d0-7960eae40ef1","ios":"levelo://app?vid=ca928e35-aa51-46e6-b6d0-7960eae40ef1"},"vehicle_type_id":"4","last_reported":1738253484,"current_range_meters":2000,"station_id":"ce4bhop2rcd13ifvqh7g","pricing_plan_id":"cebpf4jnsgd1na2vs0mg"},{"bike_id":"56d6b97f-30a2-4c2a-8be6-a12a9fc19507","system_id":"levelo_inurba_marseille","lat":43.31767,"lon":5.38998,"is_reserved":false,"is_disabled":false,"rental_uris":{"android":"levelo://app?vid=56d6b97f-30a2-4c2a-8be6-a12a9fc19507","ios":"levelo://app?vid=56d6b97f-30a2-4c2a-8be6-a12a9fc19507"},"vehicle_type_id":"4","last_reported":1738253484,"current_range_meters":17600,"station_id":"ce4bhqp2rcd13ifvqhng","pricing_plan_id":"cebpf4jnsgd1na2vs0mg"},{"bike_id":"cff52956-c251-4f29-ab4f-a0fa6e935154","system_id":"levelo_inurba_marseille","lat":43.3078,"lon":5.38158,"is_reserved":false,"is_disabled":false,"rental_uris":{"android":"levelo://app?vid=cff52956-c251-4f29-ab4f-a0fa6e935154","ios":"levelo://app?vid=cff52956-c251-4f29-ab4f-a0fa6e935154"},"vehicle_type_id":"4","last_reported":1738253484,"current_range_meters":16800,"station_id":"ce4bgt12rcd13ifvqce0","pricing_plan_id":"cebpf4jnsgd1na2vs0mg"},{"bike_id":"daa98481-85f0-49cf-b544-492787572bfd","system_id":"levelo_inurba_marseille","lat":43.29287,"lon":5.40119,"is_reserved":false,"is_disabled":false,"rental_uris":{"android":"levelo://app?vid=daa98481-85f0-49cf-b544-492787572bfd","ios":"levelo://app?vid=daa98481-85f0-49cf-b544-492787572bfd"},"vehicle_type_id":"4","last_reported":1738253484,"current_range_meters":34000,"station_id":"ce4bh312rcd13ifvqdk0","pricing_plan_id":"cebpf4jnsgd1na2vs0mg"},{"bike_id":"d2a61873-58f7-4bc8-abeb-3ce8c1c55c8d","system_id":"levelo_inurba_marseille","lat":43.27175,"lon":5.40985,"is_reserved":false,"is_disabled":false,"rental_uris":{"android":"levelo://app?vid=d2a61873-58f7-4bc8-abeb-3ce8c1c55c8d","ios":"levelo://app?vid=d2a61873-58f7-4bc8-abeb-3ce8c1c55c8d"},"vehicle_type_id":"4","last_reported":1738253484,"current_range_meters":16000,"station_id":"ce4bhl12rcd13ifvqgf0","pricing_plan_id":"cebpf4jnsgd1na2vs0mg"},{"bike_id":"c7af95c3-5ddf-4254-9144-4e4cd31a7d15","system_id":"levelo_inurba_marseille","lat":43.27986,"lon":5.41657,"is_reserved":false,"is_disabled":false,"rental_uris":{"android":"levelo://app?vid=c7af95c3-5ddf-4254-9144-4e4cd31a7d15","ios":"levelo://app?vid=c7af95c3-5ddf-4254-9144-4e4cd31a7d15"},"vehicle_type_id":"4","last_reported":1738253484,"current_range_meters":25600,"station_id":"ce4bho12rcd13ifvqh1g","pricing_plan_id":"cebpf4jnsgd1na2vs0mg"},{"bike_id":"e17848b0-f3c1-4ee5-ab17-291796faf114","system_id":"levelo_inurba_marseille","lat":43.29935,"lon":5.36497,"is_reserved":false,"is_disabled":false,"rental_uris":{"android":"levelo://app?vid=e17848b0-f3c1-4ee5-ab17-291796faf114","ios":"levelo://app?vid=e17848b0-f3c1-4ee5-ab17-291796faf114"},"vehicle_type_id":"4","last_reported":1738253484,"current_range_meters":38800,"station_id":"ce4bgm92rcd13ifvqbr0","pricing_plan_id":"cebpf4jnsgd1na2vs0mg"},{"bike_id":"0e203b51-79e5-4572-98e9-903e63feafc3","system_id":"levelo_inurba_marseille","lat":43.2799,"lon":5.41655,"is_reserved":false,"is_disabled":false,"rental_uris":{"android":"levelo://app?vid=0e203b51-79e5-4572-98e9-903e63feafc3","ios":"levelo://app?vid=0e203b51-79e5-4572-98e9-903e63feafc3"},"vehicle_type_id":"4","last_reported":1738253484,"current_range_meters":22800,"station_id":"ce4bho12rcd13ifvqh1g","pricing_plan_id":"cebpf4jnsgd1na2vs0mg"},{"bike_id":"82cc75ec-486e-43c8-9e01-9fa047f8e68c","system_id":"levelo_inurba_marseille","lat":43.27571,"lon":5.38421,"is_reserved":false,"is_disabled":false,"rental_uris":{"android":"levelo://app?vid=82cc75ec-486e-43c8-9e01-9fa047f8e68c","ios":"levelo://app?vid=82cc75ec-486e-43c8-9e01-9fa047f8e68c"},"vehicle_type_id":"4","last_reported":1738253484,"current_range_meters":24000,"station_id":"ce4bhh92rcd13ifvqfi0","pricing_plan_id":"cebpf4jnsgd1na2vs0mg"},{"bike_id":"8382186f-0d25-40e6-beca-2632cc8590f2","system_id":"levelo_inurba_marseille","lat":43.29552,"lon":5.42265,"is_reserved":false,"is_disabled":true,"rental_uris":{"android":"levelo://app?vid=8382186f-0d25-40e6-beca-2632cc8590f2","ios":"levelo://app?vid=8382186f-0d25-40e6-beca-2632cc8590f2"},"vehicle_type_id":"4","last_reported":1738253484,"current_range_meters":8400,"station_id":"ce4bhph2rcd13ifvqhdg","pricing_plan_id":"cebpf4jnsgd1na2vs0mg"},{"bike_id":"8e74cb8f-4450-403b-93af-67b02519d86a","system_id":"levelo_inurba_marseille","lat":43.27998,"lon":5.40004,"is_reserved":false,"is_disabled":false,"rental_uris":{"android":"levelo://app?vid=8e74cb8f-4450-403b-93af-67b02519d86a","ios":"levelo://app?vid=8e74cb8f-4450-403b-93af-67b02519d86a"},"vehicle_type_id":"4","last_reported":1738253484,"current_range_meters":28800,"station_id":"ce4bho92rcd13ifvqh4g","pricing_plan_id":"cebpf4jnsgd1na2vs0mg"},{"bike_id":"9080c84b-ec81-43db-ad17-4b19086d8eff","system_id":"levelo_inurba_marseille","lat":43.31065,"lon":5.38345,"is_reserved":false,"is_disabled":false,"rental_uris":{"android":"levelo://app?vid=9080c84b-ec81-43db-ad17-4b19086d8eff","ios":"levelo://app?vid=9080c84b-ec81-43db-ad17-4b19086d8eff"},"vehicle_type_id":"4","last_reported":1738253484,"current_range_meters":9200,"station_id":"ce4bgv92rcd13ifvqcr0","pricing_plan_id":"cebpf4jnsgd1na2vs0mg"},{"bike_id":"da37fe2b-1f30-44d1-acf9-e896f739bd65","system_id":"levelo_inurba_marseille","lat":43.29305,"lon":5.37428,"is_reserved":false,"is_disabled":false,"rental_uris":{"android":"levelo://app?vid=da37fe2b-1f30-44d1-acf9-e896f739bd65","ios":"levelo://app?vid=da37fe2b-1f30-44d1-acf9-e896f739bd65"},"vehicle_type_id":"4","last_reported":1738253484,"current_range_meters":37600,"station_id":"ce4bgi12rcd13ifvqb70","pricing_plan_id":"cebpf4jnsgd1na2vs0mg"},{"bike_id":"f8ea5bfa-8d8c-4d6f-82c9-1c2c4122066b","system_id":"levelo_inurba_marseille","lat":43.25718,"lon":5.41112,"is_reserved":false,"is_disabled":false,"rental_uris":{"android":"levelo://app?vid=f8ea5bfa-8d8c-4d6f-82c9-1c2c4122066b","ios":"levelo://app?vid=f8ea5bfa-8d8c-4d6f-82c9-1c2c4122066b"},"vehicle_type_id":"4","last_reported":1738253484,"current_range_meters":31200,"station_id":"ce4bhkp2rcd13ifvqgd0","pricing_plan_id":"cebpf4jnsgd1na2vs0mg"},{"bike_id":"2edb5e42-f60d-4b47-b50b-65bc4f9cdca8","system_id":"levelo_inurba_marseille","lat":43.27322,"lon":5.39081,"is_reserved":false,"is_disabled":false,"rental_uris":{"android":"levelo://app?vid=2edb5e42-f60d-4b47-b50b-65bc4f9cdca8","ios":"levelo://app?vid=2edb5e42-f60d-4b47-b50b-65bc4f9cdca8"},"vehicle_type_id":"4","last_reported":1738253484,"current_range_meters":6400,"station_id":"ce4bhgp2rcd13ifvqfe0","pricing_plan_id":"cebpf4jnsgd1na2vs0mg"},{"bike_id":"3d8ec5b0-4541-45b0-bf0b-097d9bf10500","system_id":"levelo_inurba_marseille","lat":43.29849,"lon":5.36272,"is_reserved":false,"is_disabled":false,"rental_uris":{"android":"levelo://app?vid=3d8ec5b0-4541-45b0-bf0b-097d9bf10500","ios":"levelo://app?vid=3d8ec5b0-4541-45b0-bf0b-097d9bf10500"},"vehicle_type_id":"4","last_reported":1738253484,"current_range_meters":36800,"station_id":"ce4bgpp2rcd13ifvqc3g","pricing_plan_id":"cebpf4jnsgd1na2vs0mg"},{"bike_id":"ccfbd024-ae69-4c2e-848c-a8428e5be0c6","system_id":"levelo_inurba_marseille","lat":43.29306,"lon":5.37175,"is_reserved":false,"is_disabled":false,"rental_uris":{"android":"levelo://app?vid=ccfbd024-ae69-4c2e-848c-a8428e5be0c6","ios":"levelo://app?vid=ccfbd024-ae69-4c2e-848c-a8428e5be0c6"},"vehicle_type_id":"4","last_reported":1738253484,"current_range_meters":38800,"station_id":"ce4bgh92rcd13ifvqb40","pricing_plan_id":"cebpf4jnsgd1na2vs0mg"},{"bike_id":"c4804f52-68b7-4a7f-b819-d50d9b5d1ef9","system_id":"levelo_inurba_marseille","lat":43.27206,"lon":5.39196,"is_reserved":false,"is_disabled":false,"rental_uris":{"android":"levelo://app?vid=c4804f52-68b7-4a7f-b819-d50d9b5d1ef9","ios":"levelo://app?vid=c4804f52-68b7-4a7f-b819-d50d9b5d1ef9"},"vehicle_type_id":"4","last_reported":1738253484,"current_range_meters":38800,"station_id":"ce4bhhp2rcd13ifvqfm0","pricing_plan_id":"cebpf4jnsgd1na2vs0mg"},{"bike_id":"449d1d99-194d-4ddf-81df-d1b7bcf4968a","system_id":"levelo_inurba_marseille","lat":43.3133,"lon":5.39684,"is_reserved":false,"is_disabled":false,"rental_uris":{"android":"levelo://app?vid=449d1d99-194d-4ddf-81df-d1b7bcf4968a","ios":"levelo://app?vid=449d1d99-194d-4ddf-81df-d1b7bcf4968a"},"vehicle_type_id":"4","last_reported":1738253484,"current_range_meters":32000,"station_id":"ce4bgvp2rcd13ifvqcu0","pricing_plan_id":"cebpf4jnsgd1na2vs0mg"},{"bike_id":"32d9a329-7366-4eb8-8d55-73b5c99c70c3","system_id":"levelo_inurba_marseille","lat":43.23207,"lon":5.35549,"is_reserved":false,"is_disabled":false,"rental_uris":{"android":"levelo://app?vid=32d9a329-7366-4eb8-8d55-73b5c99c70c3","ios":"levelo://app?vid=32d9a329-7366-4eb8-8d55-73b5c99c70c3"},"vehicle_type_id":"4","last_reported":1738253484,"current_range_meters":38800,"station_id":"ce4bhu92rcd13ifvqi70","pricing_plan_id":"cebpf4jnsgd1na2vs0mg"},{"bike_id":"f2cd1694-cbcf-4b6f-9463-8b28ee8d6f4b","system_id":"levelo_inurba_marseille","lat":43.23062,"lon":5.35497,"is_reserved":false,"is_disabled":false,"rental_uris":{"android":"levelo://app?vid=f2cd1694-cbcf-4b6f-9463-8b28ee8d6f4b","ios":"levelo://app?vid=f2cd1694-cbcf-4b6f-9463-8b28ee8d6f4b"},"vehicle_type_id":"4","last_reported":1738253484,"current_range_meters":17200,"station_id":"cpo3342slgdg3j2ifvpg","pricing_plan_id":"cebpf4jnsgd1na2vs0mg"},{"bike_id":"0a2fd205-d616-4064-aa75-d4d529957d90","system_id":"levelo_inurba_marseille","lat":43.23068,"lon":5.35484,"is_reserved":false,"is_disabled":false,"rental_uris":{"android":"levelo://app?vid=0a2fd205-d616-4064-aa75-d4d529957d90","ios":"levelo://app?vid=0a2fd205-d616-4064-aa75-d4d529957d90"},"vehicle_type_id":"4","last_reported":1738253484,"current_range_meters":24800,"station_id":"cpo3342slgdg3j2ifvpg","pricing_plan_id":"cebpf4jnsgd1na2vs0mg"},{"bike_id":"e5213248-6815-4bce-80f0-b90ee5672dc8","system_id":"levelo_inurba_marseille","lat":43.292878,"lon":5.40114,"is_reserved":false,"is_disabled":false,"rental_uris":{"android":"levelo://app?vid=e5213248-6815-4bce-80f0-b90ee5672dc8","ios":"levelo://app?vid=e5213248-6815-4bce-80f0-b90ee5672dc8"},"vehicle_type_id":"4","last_reported":1738253484,"current_range_meters":36000,"station_id":"ce4bh312rcd13ifvqdk0","pricing_plan_id":"cebpf4jnsgd1na2vs0mg"},{"bike_id":"851692c4-6ece-4a71-ba19-f442921d2278","system_id":"levelo_inurba_marseille","lat":43.29888,"lon":5.43668,"is_reserved":false,"is_disabled":false,"rental_uris":{"android":"levelo://app?vid=851692c4-6ece-4a71-ba19-f442921d2278","ios":"levelo://app?vid=851692c4-6ece-4a71-ba19-f442921d2278"},"vehicle_type_id":"4","last_reported":1738253484,"current_range_meters":38800,"station_id":"ce4bhpp2rcd13ifvqhfg","pricing_plan_id":"cebpf4jnsgd1na2vs0mg"},{"bike_id":"e5f3ff7c-37f7-4994-9de9-70e4101a66f2","system_id":"levelo_inurba_marseille","lat":43.28109,"lon":5.37836,"is_reserved":false,"is_disabled":false,"rental_uris":{"android":"levelo://app?vid=e5f3ff7c-37f7-4994-9de9-70e4101a66f2","ios":"levelo://app?vid=e5f3ff7c-37f7-4994-9de9-70e4101a66f2"},"vehicle_type_id":"4","last_reported":1738253484,"current_range_meters":35600,"station_id":"ce4bha12rcd13ifvqee0","pricing_plan_id":"cebpf4jnsgd1na2vs0mg"},{"bike_id":"803e03d8-7d2e-4feb-ac46-774902d16dee","system_id":"levelo_inurba_marseille","lat":43.33731,"lon":5.37442,"is_reserved":false,"is_disabled":true,"rental_uris":{"android":"levelo://app?vid=803e03d8-7d2e-4feb-ac46-774902d16dee","ios":"levelo://app?vid=803e03d8-7d2e-4feb-ac46-774902d16dee"},"vehicle_type_id":"4","last_reported":1738253484,"current_range_meters":28400,"station_id":"","pricing_plan_id":"cebpf4jnsgd1na2vs0mg"},{"bike_id":"baa29b07-c929-4791-93f4-403cf3c9ae74","system_id":"levelo_inurba_marseille","lat":43.29928,"lon":5.37467,"is_reserved":false,"is_disabled":false,"rental_uris":{"android":"levelo://app?vid=baa29b07-c929-4791-93f4-403cf3c9ae74","ios":"levelo://app?vid=baa29b07-c929-4791-93f4-403cf3c9ae74"},"vehicle_type_id":"4","last_reported":1738253484,"current_range_meters":22800,"station_id":"ce4bgjh2rcd13ifvqbg0","pricing_plan_id":"cebpf4jnsgd1na2vs0mg"},{"bike_id":"d775ea22-5400-45a5-b61c-19fbc63a5307","system_id":"levelo_inurba_marseille","lat":43.29204,"lon":5.39313,"is_reserved":false,"is_disabled":false,"rental_uris":{"android":"levelo://app?vid=d775ea22-5400-45a5-b61c-19fbc63a5307","ios":"levelo://app?vid=d775ea22-5400-45a5-b61c-19fbc63a5307"},"vehicle_type_id":"4","last_reported":1738253484,"current_range_meters":24800,"station_id":"ce4bh192rcd13ifvqdd0","pricing_plan_id":"cebpf4jnsgd1na2vs0mg"},{"bike_id":"ea651ce1-944a-423c-81bb-455642563f9d","system_id":"levelo_inurba_marseille","lat":43.30199,"lon":5.39445,"is_reserved":false,"is_disabled":false,"rental_uris":{"android":"levelo://app?vid=ea651ce1-944a-423c-81bb-455642563f9d","ios":"levelo://app?vid=ea651ce1-944a-423c-81bb-455642563f9d"},"vehicle_type_id":"4","last_reported":1738253484,"current_range_meters":27200,"station_id":"ce4bh0p2rcd13ifvqd70","pricing_plan_id":"cebpf4jnsgd1na2vs0mg"},{"bike_id":"bc6caab0-381b-4cff-85cc-4b280eaeec74","system_id":"levelo_inurba_marseille","lat":43.28097,"lon":5.37844,"is_reserved":false,"is_disabled":false,"rental_uris":{"android":"levelo://app?vid=bc6caab0-381b-4cff-85cc-4b280eaeec74","ios":"levelo://app?vid=bc6caab0-381b-4cff-85cc-4b280eaeec74"},"vehicle_type_id":"4","last_reported":1738253484,"current_range_meters":28400,"station_id":"ce4bha12rcd13ifvqee0","pricing_plan_id":"cebpf4jnsgd1na2vs0mg"},{"bike_id":"bd41c94a-9a13-4fc1-92c7-fd4757543207","system_id":"levelo_inurba_marseille","lat":43.26213,"lon":5.37443,"is_reserved":false,"is_disabled":false,"rental_uris":{"android":"levelo://app?vid=bd41c94a-9a13-4fc1-92c7-fd4757543207","ios":"levelo://app?vid=bd41c94a-9a13-4fc1-92c7-fd4757543207"},"vehicle_type_id":"4","last_reported":1738253484,"current_range_meters":8800,"station_id":"ce4bhgp2rcd13ifvqfc0","pricing_plan_id":"cebpf4jnsgd1na2vs0mg"},{"bike_id":"b3b43011-8f76-4e2b-adf8-a2679a5c78ee","system_id":"levelo_inurba_marseille","lat":43.318949,"lon":5.407293,"is_reserved":false,"is_disabled":false,"rental_uris":{"android":"levelo://app?vid=b3b43011-8f76-4e2b-adf8-a2679a5c78ee","ios":"levelo://app?vid=b3b43011-8f76-4e2b-adf8-a2679a5c78ee"},"vehicle_type_id":"4","last_reported":1738253484,"current_range_meters":8800,"station_id":"ce4bhq12rcd13ifvqhig","pricing_plan_id":"cebpf4jnsgd1na2vs0mg"},{"bike_id":"46b8cd3f-7c0c-43e7-84be-8a0da8f63bb3","system_id":"levelo_inurba_marseille","lat":43.302791,"lon":5.376893,"is_reserved":false,"is_disabled":false,"rental_uris":{"android":"levelo://app?vid=46b8cd3f-7c0c-43e7-84be-8a0da8f63bb3","ios":"levelo://app?vid=46b8cd3f-7c0c-43e7-84be-8a0da8f63bb3"},"vehicle_type_id":"4","last_reported":1738253484,"current_range_meters":37600,"station_id":"ce4bguh2rcd13ifvqcj0","pricing_plan_id":"cebpf4jnsgd1na2vs0mg"},{"bike_id":"1886a8f2-4fbd-4af6-8338-058a5841e66f","system_id":"levelo_inurba_marseille","lat":43.26212,"lon":5.37446,"is_reserved":false,"is_disabled":false,"rental_uris":{"android":"levelo://app?vid=1886a8f2-4fbd-4af6-8338-058a5841e66f","ios":"levelo://app?vid=1886a8f2-4fbd-4af6-8338-058a5841e66f"},"vehicle_type_id":"4","last_reported":1738253484,"current_range_meters":36800,"station_id":"ce4bhgp2rcd13ifvqfc0","pricing_plan_id":"cebpf4jnsgd1na2vs0mg"},{"bike_id":"c6e8c185-7651-41da-bdbb-dd9a8d524cf5","system_id":"levelo_inurba_marseille","lat":43.29935,"lon":5.37477,"is_reserved":false,"is_disabled":false,"rental_uris":{"android":"levelo://app?vid=c6e8c185-7651-41da-bdbb-dd9a8d524cf5","ios":"levelo://app?vid=c6e8c185-7651-41da-bdbb-dd9a8d524cf5"},"vehicle_type_id":"4","last_reported":1738253484,"current_range_meters":27600,"station_id":"ce4bgjh2rcd13ifvqbg0","pricing_plan_id":"cebpf4jnsgd1na2vs0mg"},{"bike_id":"b343acfe-d54f-4063-bee9-460788e7b15f","system_id":"levelo_inurba_marseille","lat":43.31535,"lon":5.38033,"is_reserved":false,"is_disabled":false,"rental_uris":{"android":"levelo://app?vid=b343acfe-d54f-4063-bee9-460788e7b15f","ios":"levelo://app?vid=b343acfe-d54f-4063-bee9-460788e7b15f"},"vehicle_type_id":"4","last_reported":1738253484,"current_range_meters":38800,"station_id":"ce4bhsp2rcd13ifvqi50","pricing_plan_id":"cebpf4jnsgd1na2vs0mg"},{"bike_id":"c674a436-815b-471e-be20-1d6405cd1ff1","system_id":"levelo_inurba_marseille","lat":43.23192,"lon":5.35553,"is_reserved":false,"is_disabled":false,"rental_uris":{"android":"levelo://app?vid=c674a436-815b-471e-be20-1d6405cd1ff1","ios":"levelo://app?vid=c674a436-815b-471e-be20-1d6405cd1ff1"},"vehicle_type_id":"4","last_reported":1738253484,"current_range_meters":8000,"station_id":"ce4bhu92rcd13ifvqi70","pricing_plan_id":"cebpf4jnsgd1na2vs0mg"},{"bike_id":"f8b740bb-7e34-4f85-a75f-30ca49d0210a","system_id":"levelo_inurba_marseille","lat":43.28,"lon":5.40011,"is_reserved":false,"is_disabled":false,"rental_uris":{"android":"levelo://app?vid=f8b740bb-7e34-4f85-a75f-30ca49d0210a","ios":"levelo://app?vid=f8b740bb-7e34-4f85-a75f-30ca49d0210a"},"vehicle_type_id":"4","last_reported":1738253484,"current_range_meters":3200,"station_id":"ce4bho92rcd13ifvqh4g","pricing_plan_id":"cebpf4jnsgd1na2vs0mg"},