{"last_updated":1731600724,"ttl":60,"version":"2.2","data":{"bikes":[{"bike_id":"41a28614-f755-4f54-a99a-6011bbf5ecbe","system_id":"levelo_inurba_marseille","lat":43.30609,"lon":5.37228,"is_reserved":false,"is_disabled":false,"rental_uris":{"android":"levelo://app?vid=41a28614-f755-4f54-a99a-6011bbf5ecbe","ios":"levelo://app?vid=41a28614-f755-4f54-a99a-6011bbf5ecbe"},"vehicle_type_id":"4","last_reported":1731600724,"current_range_meters":18800,"station_id":"ce4bgqh2rcd13ifvqc4g","pricing_plan_id":"cebpf4jnsgd1na2vs0mg"},{"bike_id":"7a31ccad-e128-4b35-9644-5978569323b0","system_id":"levelo_inurba_marseille","lat":43.27917,"lon":5.37996,"is_reserved":false,"is_disabled":false,"rental_uris":{"android":"levelo://app?vid=7a31ccad-e128-4b35-9644-5978569323b0","ios":"levelo://app?vid=7a31ccad-e128-4b35-9644-5978569323b0"},"vehicle_type_id":"4","last_reported":1731600724,"current_range_meters":28800,"station_id":"ce4bhf92rcd13ifvqf50","pricing_plan_id":"cebpf4jnsgd1na2vs0mg"},{"bike_id":"1d936b62-1bb8-40f6-afdf-7dac3ed8caa9","system_id":"levelo_inurba_marseille","lat":43.28452,"lon":5.35886,"is_reserved":false,"is_disabled":false,"rental_uris":{"android":"levelo://app?vid=1d936b62-1bb8-40f6-afdf-7dac3ed8caa9","ios":"levelo://app?vid=1d936b62-1bb8-40f6-afdf-7dac3ed8caa9"},"vehicle_type_id":"4","last_reported":1731600724,"current_range_meters":18800,"station_id":"ce4bhah2rcd13ifvqei0","pricing_plan_id":"cebpf4jnsgd1na2vs0mg"},{"bike_id":"d5ec2eed-dd40-4110-93ff-da0f77144934","system_id":"levelo_inurba_marseille","lat":43.29847,"lon":5.36284,"is_reserved":false,"is_disabled":false,"rental_uris":{"android":"levelo://app?vid=d5ec2eed-dd40-4110-93ff-da0f77144934","ios":"levelo://app?vid=d5ec2eed-dd40-4110-93ff-da0f77144934"},"vehicle_type_id":"4","last_reported":1731600724,"current_range_meters":38000,"station_id":"ce4bgpp2rcd13ifvqc3g","pricing_plan_id":"cebpf4jnsgd1na2vs0mg"},{"bike_id":"9f818da2-f7f9-4afa-a95a-5cd1a2c2572f","system_id":"levelo_inurba_marseille","lat":43.30597,"lon":5.37236,"is_reserved":false,"is_disabled":false,"rental_uris":{"android":"levelo://app?vid=9f818da2-f7f9-4afa-a95a-5cd1a2c2572f","ios":"levelo://app?vid=9f818da2-f7f9-4afa-a95a-5cd1a2c2572f"},"vehicle_type_id":"4","last_reported":1731600724,"current_range_meters":26800,"station_id":"ce4bgqh2rcd13ifvqc4g","pricing_plan_id":"cebpf4jnsgd1na2vs0mg"},{"bike_id":"9077f966-b1d1-494c-adb1-8c5416e32d7b","system_id":"levelo_inurba_marseille","lat":43.29711,"lon":5.37694,"is_reserved":false,"is_disabled":false,"rental_uris":{"android":"levelo://app?vid=9077f966-b1d1-494c-adb1-8c5416e32d7b","ios":"levelo://app?vid=9077f966-b1d1-494c-adb1-8c5416e32d7b"},"vehicle_type_id":"4","last_reported":1731600724,"current_range_meters":38800,"station_id":"ce4bgkh2rcd13ifvqbl0","pricing_plan_id":"cebpf4jnsgd1na2vs0mg"},{"bike_id":"3353ae12-136f-4981-b68b-da8072f745b6","system_id":"levelo_inurba_marseille","lat":43.2926,"lon":5.38457,"is_reserved":false,"is_disabled":false,"rental_uris":{"android":"levelo://app?vid=3353ae12-136f-4981-b68b-da8072f745b6","ios":"levelo://app?vid=3353ae12-136f-4981-b68b-da8072f745b6"},"vehicle_type_id":"4","last_reported":1731600724,"current_range_meters":14400,"station_id":"ce4bh692rcd13ifvqea0","pricing_plan_id":"cebpf4jnsgd1na2vs0mg"},{"bike_id":"cd336510-8594-43a4-b1a0-0e3ae9b11327","system_id":"levelo_inurba_marseille","lat":43.24666,"lon":5.38165,"is_reserved":false,"is_disabled":false,"rental_uris":{"android":"levelo://app?vid=cd336510-8594-43a4-b1a0-0e3ae9b11327","ios":"levelo://app?vid=cd336510-8594-43a4-b1a0-0e3ae9b11327"},"vehicle_type_id":"4","last_reported":1731600724,"current_range_meters":22400,"station_id":"ce4bhih2rcd13ifvqfr0","pricing_plan_id":"cebpf4jnsgd1na2vs0mg"},{"bike_id":"c4ab0e21-285c-4d53-aca3-7a12d071e1c8","system_id":"levelo_inurba_marseille","lat":43.31357,"lon":5.38514,"is_reserved":false,"is_disabled":false,"rental_uris":{"android":"levelo://app?vid=c4ab0e21-285c-4d53-aca3-7a12d071e1c8","ios":"levelo://app?vid=c4ab0e21-285c-4d53-aca3-7a12d071e1c8"},"vehicle_type_id":"4","last_reported":1731600724,"current_range_meters":32800,"station_id":"ce4bgt92rcd13ifvqcf0","pricing_plan_id":"cebpf4jnsgd1na2vs0mg"},{"bike_id":"285d8e2e-d995-46c5-85f1-65324547045d","system_id":"levelo_inurba_marseille","lat":43.24667,"lon":5.38172,"is_reserved":false,"is_disabled":false,"rental_uris":{"android":"levelo://app?vid=285d8e2e-d995-46c5-85f1-65324547045d","ios":"levelo://app?vid=285d8e2e-d995-46c5-85f1-65324547045d"},"vehicle_type_id":"4","last_reported":1731600724,"current_range_meters":34800,"station_id":"ce4bhih2rcd13ifvqfr0","pricing_plan_id":"cebpf4jnsgd1na2vs0mg"},{"bike_id":"925c255d-b3a9-44b6-9d8f-71178fff798d","system_id":"levelo_inurba_marseille","lat":43.2318,"lon":5.39999,"is_reserved":false,"is_disabled":false,"rental_uris":{"android":"levelo://app?vid=925c255d-b3a9-44b6-9d8f-71178fff798d","ios":"levelo://app?vid=925c255d-b3a9-44b6-9d8f-71178fff798d"},"vehicle_type_id":"4","last_reported":1731600724,"current_range_meters":7200,"station_id":"ce4bhn12rcd13ifvqgqg","pricing_plan_id":"cebpf4jnsgd1na2vs0mg"},{"bike_id":"cc792d10-5e3a-4b03-849b-38a1e4ffc260","system_id":"levelo_inurba_marseille","lat":43.337444,"lon":5.374475,"is_reserved":false,"is_disabled":false,"rental_uris":{"android":"levelo://app?vid=cc792d10-5e3a-4b03-849b-38a1e4ffc260","ios":"levelo://app?vid=cc792d10-5e3a-4b03-849b-38a1e4ffc260"},"vehicle_type_id":"4","last_reported":1731600724,"current_range_meters":34000,"station_id":"","pricing_plan_id":"cebpf4jnsgd1na2vs0mg"},{"bike_id":"87c53cb9-72b3-4c11-8146-fab6f7f7afed","system_id":"levelo_inurba_marseille","lat":43.28274,"lon":5.35065,"is_reserved":false,"is_disabled":false,"rental_uris":{"android":"levelo://app?vid=87c53cb9-72b3-4c11-8146-fab6f7f7afed","ios":"levelo://app?vid=87c53cb9-72b3-4c11-8146-fab6f7f7afed"},"vehicle_type_id":"4","last_reported":1731600724,"current_range_meters":14400,"station_id":"ce4bhbp2rcd13ifvqerg","pricing_plan_id":"cebpf4jnsgd1na2vs0mg"},{"bike_id":"e9c08c1d-93d7-4a99-8ed0-bfc08fe8d790","system_id":"levelo_inurba_marseille","lat":43.25078,"lon":5.3952,"is_reserved":false,"is_disabled":false,"rental_uris":{"android":"levelo://app?vid=e9c08c1d-93d7-4a99-8ed0-bfc08fe8d790","ios":"levelo://app?vid=e9c08c1d-93d7-4a99-8ed0-bfc08fe8d790"},"vehicle_type_id":"4","last_reported":1731600724,"current_range_meters":35200,"station_id":"ce4bhm12rcd13ifvqgkg","pricing_plan_id":"cebpf4jnsgd1na2vs0mg"},{"bike_id":"4def43c0-b71a-4a90-a651-df386bb63568","system_id":"levelo_inurba_marseille","lat":43.30145,"lon":5.39871,"is_reserved":false,"is_disabled":false,"rental_uris":{"android":"levelo://app?vid=4def43c0-b71a-4a90-a651-df386bb63568","ios":"levelo://app?vid=4def43c0-b71a-4a90-a651-df386bb63568"},"vehicle_type_id":"4","last_reported":1731600724,"current_range_meters":38800,"station_id":"ce4bh0h2rcd13ifvqd40","pricing_plan_id":"cebpf4jnsgd1na2vs0mg"},{"bike_id":"144318c2-74eb-4b5d-9141-575e6fdf53ab","system_id":"levelo_inurba_marseille","lat":43.28976,"lon":5.37847,"is_reserved":false,"is_disabled":false,"rental_uris":{"android":"levelo://app?vid=144318c2-74eb-4b5d-9141-575e6fdf53ab","ios":"levelo://app?vid=144318c2-74eb-4b5d-9141-575e6fdf53ab"},"vehicle_type_id":"4","last_reported":1731600724,"current_range_meters":4400,"station_id":"ce4bh9p2rcd13ifvqed0","pricing_plan_id":"cebpf4jnsgd1na2vs0mg"},{"bike_id":"1c488de0-84fe-422e-8126-c48df5fa0f1c","system_id":"levelo_inurba_marseille","lat":43.267792,"lon":5.394125,"is_reserved":false,"is_disabled":false,"rental_uris":{"android":"levelo://app?vid=1c488de0-84fe-422e-8126-c48df5fa0f1c","ios":"levelo://app?vid=1c488de0-84fe-422e-8126-c48df5fa0f1c"},"vehicle_type_id":"4","last_reported":1731600724,"current_range_meters":9200,"station_id":"ce4bhh12rcd13ifvqfg0","pricing_plan_id":"cebpf4jnsgd1na2vs0mg"},{"bike_id":"7e465898-a890-47d7-a27e-266939b652fb","system_id":"levelo_inurba_marseille","lat":43.25001,"lon":5.38927,"is_reserved":false,"is_disabled":false,"rental_uris":{"android":"levelo://app?vid=7e465898-a890-47d7-a27e-266939b652fb","ios":"levelo://app?vid=7e465898-a890-47d7-a27e-266939b652fb"},"vehicle_type_id":"4","last_reported":1731600724,"current_range_meters":36800,"station_id":"ce4bhgp2rcd13ifvqfd0","pricing_plan_id":"cebpf4jnsgd1na2vs0mg"},{"bike_id":"dcbb276d-d053-4d5c-b90d-fe776102ba13","system_id":"levelo_inurba_marseille","lat":43.30595,"lon":5.3722,"is_reserved":false,"is_disabled":false,"rental_uris":{"android":"levelo://app?vid=dcbb276d-d053-4d5c-b90d-fe776102ba13","ios":"levelo://app?vid=dcbb276d-d053-4d5c-b90d-fe776102ba13"},"vehicle_type_id":"4","last_reported":1731600724,"current_range_meters":15200,"station_id":"ce4bgqh2rcd13ifvqc4g","pricing_plan_id":"cebpf4jnsgd1na2vs0mg"},{"bike_id":"948fa6c3-ebd6-4e10-9d7e-0bd5f3c36308","system_id":"levelo_inurba_marseille","lat":43.29256,"lon":5.40906,"is_reserved":false,"is_disabled":false,"rental_uris":{"android":"levelo://app?vid=948fa6c3-ebd6-4e10-9d7e-0bd5f3c36308","ios":"levelo://app?vid=948fa6c3-ebd6-4e10-9d7e-0bd5f3c36308"},"vehicle_type_id":"4","last_reported":1731600724,"current_range_meters":12800,"station_id":"ce4bh192rcd13ifvqdc0","pricing_plan_id":"cebpf4jnsgd1na2vs0mg"},{"bike_id":"93f6e0a3-b901-4cdc-a44d-96f4e8453cd4","system_id":"levelo_inurba_marseille","lat":43.3377,"lon":5.37446,"is_reserved":false,"is_disabled":false,"rental_uris":{"android":"levelo://app?vid=93f6e0a3-b901-4cdc-a44d-96f4e8453cd4","ios":"levelo://app?vid=93f6e0a3-b901-4cdc-a44d-96f4e8453cd4"},"vehicle_type_id":"4","last_reported":1731600724,"current_range_meters":32800,"station_id":"","pricing_plan_id":"cebpf4jnsgd1na2vs0mg"},{"bike_id":"8700a6f3-6b1e-4745-985f-1126911c0a60","system_id":"levelo_inurba_marseille","lat":43.26206,"lon":5.37925,"is_reserved":false,"is_disabled":false,"rental_uris":{"android":"levelo://app?vid=8700a6f3-6b1e-4745-985f-1126911c0a60","ios":"levelo://app?vid=8700a6f3-6b1e-4745-985f-1126911c0a60"},"vehicle_type_id":"4","last_reported":1731600724,"current_range_meters":37600,"station_id":"ce4bhjp2rcd13ifvqg90","pricing_plan_id":"cebpf4jnsgd1na2vs0mg"},{"bike_id":"77272bf5-9024-44da-9b9c-11d93850e492","system_id":"levelo_inurba_marseille","lat":43.27176,"lon":5.40997,"is_reserved":false,"is_disabled":false,"rental_uris":{"android":"levelo://app?vid=77272bf5-9024-44da-9b9c-11d93850e492","ios":"levelo://app?vid=77272bf5-9024-44da-9b9c-11d93850e492"},"vehicle_type_id":"4","last_reported":1731600724,"current_range_meters":20000,"station_id":"ce4bhl12rcd13ifvqgf0","pricing_plan_id":"cebpf4jnsgd1na2vs0mg"},{"bike_id":"573499d1-0cb4-4690-bede-d5ca1c06b37f","system_id":"levelo_inurba_marseille","lat":43.295751,"lon":5.399791,"is_reserved":false,"is_disabled":false,"rental_uris":{"android":"levelo://app?vid=573499d1-0cb4-4690-bede-d5ca1c06b37f","ios":"levelo://app?vid=573499d1-0cb4-4690-bede-d5ca1c06b37f"},"vehicle_type_id":"4","last_reported":1731600724,"current_range_meters":22400,"station_id":"","pricing_plan_id":"cebpf4jnsgd1na2vs0mg"},{"bike_id":"bbea2c35-ac2e-4275-8fc1-24a10892bc02","system_id":"levelo_inurba_marseille","lat":43.280865,"lon":5.396689,"is_reserved":false,"is_disabled":false,"rental_uris":{"android":"levelo://app?vid=bbea2c35-ac2e-4275-8fc1-24a10892bc02","ios":"levelo://app?vid=bbea2c35-ac2e-4275-8fc1-24a10892bc02"},"vehicle_type_id":"4","last_reported":1731600724,"current_range_meters":38000,"station_id":"ce4bho12rcd13ifvqh2g","pricing_plan_id":"cebpf4jnsgd1na2vs0mg"},{"bike_id":"63f85189-4995-4828-975a-484d991c7539","system_id":"levelo_inurba_marseille","lat":43.29517,"lon":5.39047,"is_reserved":false,"is_disabled":false,"rental_uris":{"android":"levelo://app?vid=63f85189-4995-4828-975a-484d991c7539","ios":"levelo://app?vid=63f85189-4995-4828-975a-484d991c7539"},"vehicle_type_id":"4","last_reported":1731600724,"current_range_meters":38000,"station_id":"ce4bh3p2rcd13ifvqdp0","pricing_plan_id":"cebpf4jnsgd1na2vs0mg"},{"bike_id":"670a2cac-c811-4832-9626-db8abbf9c1c5","system_id":"levelo_inurba_marseille","lat":43.29637,"lon":5.37745,"is_reserved":false,"is_disabled":false,"rental_uris":{"android":"levelo://app?vid=670a2cac-c811-4832-9626-db8abbf9c1c5","ios":"levelo://app?vid=670a2cac-c811-4832-9626-db8abbf9c1c5"},"vehicle_type_id":"4","last_reported":1731600724,"current_range_meters":39200,"station_id":"ce4bgi92rcd13ifvqb90","pricing_plan_id":"cebpf4jnsgd1na2vs0mg"},{"bike_id":"4a74f469-1d99-48ee-a8ca-9199898c00a4","system_id":"levelo_inurba_marseille","lat":43.23199,"lon":5.35547,"is_reserved":false,"is_disabled":false,"rental_uris":{"android":"levelo://app?vid=4a74f469-1d99-48ee-a8ca-9199898c00a4","ios":"levelo://app?vid=4a74f469-1d99-48ee-a8ca-9199898c00a4"},"vehicle_type_id":"4","last_reported":1731600724,"current_range_meters":20000,"station_id":"ce4bhu92rcd13ifvqi70","pricing_plan_id":"cebpf4jnsgd1na2vs0mg"},{"bike_id":"7d22c717-f378-4488-84aa-9e8fa0deeada","system_id":"levelo_inurba_marseille","lat":43.2804,"lon":5.36953,"is_reserved":false,"is_disabled":false,"rental_uris":{"android":"levelo://app?vid=7d22c717-f378-4488-84aa-9e8fa0deeada","ios":"levelo://app?vid=7d22c717-f378-4488-84aa-9e8fa0deeada"},"vehicle_type_id":"4","last_reported":1731600724,"current_range_meters":29600,"station_id":"ce4bha12rcd13ifvqef0","pricing_plan_id":"cebpf4jnsgd1na2vs0mg"},{"bike_id":"590ac49c-1bd1-4498-b0d0-c7dfa1b963cd","system_id":"levelo_inurba_marseille","lat":43.26538,"lon":5.373,"is_reserved":false,"is_disabled":false,"rental_uris":{"android":"levelo://app?vid=590ac49c-1bd1-4498-b0d0-c7dfa1b963cd","ios":"levelo://app?vid=590ac49c-1bd1-4498-b0d0-c7dfa1b963cd"},"vehicle_type_id":"4","last_reported":1731600724,"current_range_meters":38800,"station_id":"ce4bhg12rcd13ifvqf70","pricing_plan_id":"cebpf4jnsgd1na2vs0mg"},{"bike_id":"47c967a5-3c8a-4d73-a522-90111361a0a0","system_id":"levelo_inurba_marseille","lat":43.32485,"lon":5.36582,"is_reserved":false,"is_disabled":false,"rental_uris":{"android":"levelo://app?vid=47c967a5-3c8a-4d73-a522-90111361a0a0","ios":"levelo://app?vid=47c967a5-3c8a-4d73-a522-90111361a0a0"},"vehicle_type_id":"4","last_reported":1731600724,"current_range_meters":38800,"station_id":"ce4bhs12rcd13ifvqhvg","pricing_plan_id":"cebpf4jnsgd1na2vs0mg"},{"bike_id":"b401526e-9797-412b-a024-2aeff2654ce6","system_id":"levelo_inurba_marseille","lat":43.27929,"lon":5.35511,"is_reserved":false,"is_disabled":false,"rental_uris":{"android":"levelo://app?vid=b401526e-9797-412b-a024-2aeff2654ce6","ios":"levelo://app?vid=b401526e-9797-412b-a024-2aeff2654ce6"},"vehicle_type_id":"4","last_reported":1731600724,"current_range_meters":4000,"station_id":"","pricing_plan_id":"cebpf4jnsgd1na2vs0mg"},{"bike_id":"96233930-8393-4834-bcdb-b981b2462f48","system_id":"levelo_inurba_marseille","lat":43.28434,"lon":5.35011,"is_reserved":false,"is_disabled":false,"rental_uris":{"android":"levelo://app?vid=96233930-8393-4834-bcdb-b981b2462f48","ios":"levelo://app?vid=96233930-8393-4834-bcdb-b981b2462f48"},"vehicle_type_id":"4","last_reported":1731600724,"current_range_meters":36800,"station_id":"ce4bhbh2rcd13ifvqepg","pricing_plan_id":"cebpf4jnsgd1na2vs0mg"},{"bike_id":"03829838-9104-4fc2-a922-3274a797c9f7","system_id":"levelo_inurba_marseille","lat":43.28074,"lon":5.39671,"is_reserved":false,"is_disabled":false,"rental_uris":{"android":"levelo://app?vid=03829838-9104-4fc2-a922-3274a797c9f7","ios":"levelo://app?vid=03829838-9104-4fc2-a922-3274a797c9f7"},"vehicle_type_id":"4","last_reported":1731600724,"current_range_meters":39200,"station_id":"ce4bho12rcd13ifvqh2g","pricing_plan_id":"cebpf4jnsgd1na2vs0mg"},{"bike_id":"16763fb8-b53c-4365-9f9c-cead91f4c1f0","system_id":"levelo_inurba_marseille","lat":43.31708,"lon":5.43711,"is_reserved":false,"is_disabled":false,"rental_uris":{"android":"levelo://app?vid=16763fb8-b53c-4365-9f9c-cead91f4c1f0","ios":"levelo://app?vid=16763fb8-b53c-4365-9f9c-cead91f4c1f0"},"vehicle_type_id":"4","last_reported":1731600724,"current_range_meters":38800,"station_id":"ce4bhp92rcd13ifvqhcg","pricing_plan_id":"cebpf4jnsgd1na2vs0mg"},{"bike_id":"2d988347-9c45-4c49-a1fc-7c2979a31818","system_id":"levelo_inurba_marseille","lat":43.28271,"lon":5.35067,"is_reserved":false,"is_disabled":false,"rental_uris":{"android":"levelo://app?vid=2d988347-9c45-4c49-a1fc-7c2979a31818","ios":"levelo://app?vid=2d988347-9c45-4c49-a1fc-7c2979a31818"},"vehicle_type_id":"4","last_reported":1731600724,"current_range_meters":39200,"station_id":"ce4bhbp2rcd13ifvqerg","pricing_plan_id":"cebpf4jnsgd1na2vs0mg"},{"bike_id":"7427f906-074e-419b-9913-72e531b99e24","system_id":"levelo_inurba_marseille","lat":43.26061,"lon":5.39404,"is_reserved":false,"is_disabled":false,"rental_uris":{"android":"levelo://app?vid=7427f906-074e-419b-9913-72e531b99e24","ios":"levelo://app?vid=7427f906-074e-419b-9913-72e531b99e24"},"vehicle_type_id":"4","last_reported":1731600724,"current_range_meters":12000,"station_id":"ce4bhh92rcd13ifvqfj0","pricing_plan_id":"cebpf4jnsgd1na2vs0mg"},{"bike_id":"77b1f55f-20ae-4d9e-ac77-30a1d6c7a490","system_id":"levelo_inurba_marseille","lat":43.2907,"lon":5.37165,"is_reserved":false,"is_disabled":false,"rental_uris":{"android":"levelo://app?vid=77b1f55f-20ae-4d9e-ac77-30a1d6c7a490","ios":"levelo://app?vid=77b1f55f-20ae-4d9e-ac77-30a1d6c7a490"},"vehicle_type_id":"4","last_reported":1731600724,"current_range_meters":4400,"station_id":"ce4bh5p2rcd13ifvqe4g","pricing_plan_id":"cebpf4jnsgd1na2vs0mg"},{"bike_id":"785a4434-c998-4c07-9e49-6240ac8eab46","system_id":"levelo_inurba_marseille","lat":43.33023,"lon":5.39053,"is_reserved":false,"is_disabled":false,"rental_uris":{"android":"levelo://app?vid=785a4434-c998-4c07-9e49-6240ac8eab46","ios":"levelo://app?vid=785a4434-c998-4c07-9e49-6240ac8eab46"},"vehicle_type_id":"4","last_reported":1731600724,"current_range_meters":38800,"station_id":"ce4bhr92rcd13ifvqhrg","pricing_plan_id":"cebpf4jnsgd1na2vs0mg"},{"bike_id":"b4bac4d4-89f0-4bf9-85e0-123c981dbe1f","system_id":"levelo_inurba_marseille","lat":43.29038,"lon":5.38145,"is_reserved":false,"is_disabled":false,"rental_uris":{"android":"levelo://app?vid=b4bac4d4-89f0-4bf9-85e0-123c981dbe1f","ios":"levelo://app?vid=b4bac4d4-89f0-4bf9-85e0-123c981dbe1f"},"vehicle_type_id":"4","last_reported":1731600724,"current_range_meters":16400,"station_id":"ce4bh4p2rcd13ifvqe1g","pricing_plan_id":"cebpf4jnsgd1na2vs0mg"},{"bike_id":"e1a6970f-d408-49cf-a4fe-ef82d2512acf","system_id":"levelo_inurba_marseille","lat":43.32476,"lon":5.36572,"is_reserved":false,"is_disabled":false,"rental_uris":{"android":"levelo://app?vid=e1a6970f-d408-49cf-a4fe-ef82d2512acf","ios":"levelo://app?vid=e1a6970f-d408-49cf-a4fe-ef82d2512acf"},"vehicle_type_id":"4","last_reported":1731600724,"current_range_meters":12400,"station_id":"ce4bhs12rcd13ifvqhvg","pricing_plan_id":"cebpf4jnsgd1na2vs0mg"},{"bike_id":"bd9c9195-b571-4ba2-8e71-039bf58f101f","system_id":"levelo_inurba_marseille","lat":43.27056,"lon":5.4027,"is_reserved":false,"is_disabled":false,"rental_uris":{"android":"levelo://app?vid=bd9c9195-b571-4ba2-8e71-039bf58f101f","ios":"levelo://app?vid=bd9c9195-b571-4ba2-8e71-039bf58f101f"},"vehicle_type_id":"4","last_reported":1731600724,"current_range_meters":8800,"station_id":"ce4bhk92rcd13ifvqgc0","pricing_plan_id":"cebpf4jnsgd1na2vs0mg"},{"bike_id":"7006e856-2ce9-4055-a812-5cb80a2d0764","system_id":"levelo_inurba_marseille","lat":43.28617,"lon":5.35113,"is_reserved":false,"is_disabled":false,"rental_uris":{"android":"levelo://app?vid=7006e856-2ce9-4055-a812-5cb80a2d0764","ios":"levelo://app?vid=7006e856-2ce9-4055-a812-5cb80a2d0764"},"vehicle_type_id":"4","last_reported":1731600724,"current_range_meters":20800,"station_id":"ce4bhch2rcd13ifvqeug","pricing_plan_id":"cebpf4jnsgd1na2vs0mg"},{"bike_id":"a4029197-417c-4716-b418-cbb3ef384a39","system_id":"levelo_inurba_marseille","lat":43.29206,"lon":5.39315,"is_reserved":false,"is_disabled":false,"rental_uris":{"android":"levelo://app?vid=a4029197-417c-4716-b418-cbb3ef384a39","ios":"levelo://app?vid=a4029197-417c-4716-b418-cbb3ef384a39"},"vehicle_type_id":"4","last_reported":1731600724,"current_range_meters":22000,"station_id":"ce4bh192rcd13ifvqdd0","pricing_plan_id":"cebpf4jnsgd1na2vs0mg"},{"bike_id":"a583d3ea-648d-4ca4-ab6d-7c3a4f13bd72","system_id":"levelo_inurba_marseille","lat":43.23967,"lon":5.36632,"is_reserved":false,"is_disabled":false,"rental_uris":{"android":"levelo://app?vid=a583d3ea-648d-4ca4-ab6d-7c3a4f13bd72","ios":"levelo://app?vid=a583d3ea-648d-4ca4-ab6d-7c3a4f13bd72"},"vehicle_type_id":"4","last_reported":1731600724,"current_range_meters":22800,"station_id":"ce4bhi12rcd13ifvqfp0","pricing_plan_id":"cebpf4jnsgd1na2vs0mg"},{"bike_id":"817849d8-25eb-48a4-b155-e11b87f519ff","system_id":"levelo_inurba_marseille","lat":43.30534,"lon":5.36543,"is_reserved":false,"is_disabled":false,"rental_uris":{"android":"levelo://app?vid=817849d8-25eb-48a4-b155-e11b87f519ff","ios":"levelo://app?vid=817849d8-25eb-48a4-b155-e11b87f519ff"},"vehicle_type_id":"4","last_reported":1731600724,"current_range_meters":39200,"station_id":"ce4bgs12rcd13ifvqcag","pricing_plan_id":"cebpf4jnsgd1na2vs0mg"},{"bike_id":"19403e5b-9388-47f8-803d-8d1235a538c6","system_id":"levelo_inurba_marseille","lat":43.23193,"lon":5.35559,"is_reserved":false,"is_disabled":false,"rental_uris":{"android":"levelo://app?vid=19403e5b-9388-47f8-803d-8d1235a538c6","ios":"levelo://app?vid=19403e5b-9388-47f8-803d-8d1235a538c6"},"vehicle_type_id":"4","last_reported":1731600724,"current_range_meters":38000,"station_id":"ce4bhu92rcd13ifvqi70","pricing_plan_id":"cebpf4jnsgd1na2vs0mg"},{"bike_id":"62b779f7-8a27-4afd-8dbe-9aa389d1ca39","system_id":"levelo_inurba_marseille","lat":43.28006,"lon":5.40018,"is_reserved":false,"is_disabled":false,"rental_uris":{"android":"levelo://app?vid=62b779f7-8a27-4afd-8dbe-9aa389d1ca39","ios":"levelo://app?vid=62b779f7-8a27-4afd-8dbe-9aa389d1ca39"},"vehicle_type_id":"4","last_reported":1731600724,"current_range_meters":37600,"station_id":"ce4bho92rcd13ifvqh4g","pricing_plan_id":"cebpf4jnsgd1na2vs0mg"},{"bike_id":"866c4a32-93b9-44c2-af7b-08d2d8bfa7aa","system_id":"levelo_inurba_marseille","lat":43.27995,"lon":5.41667,"is_reserved":false,"is_disabled":false,"rental_uris":{"android":"levelo://app?vid=866c4a32-93b9-44c2-af7b-08d2d8bfa7aa","ios":"levelo://app?vid=866c4a32-93b9-44c2-af7b-08d2d8bfa7aa"},"vehicle_type_id":"4","last_reported":1731600724,"current_range_meters":19200,"station_id":"ce4bho12rcd13ifvqh1g","pricing_plan_id":"cebpf4jnsgd1na2vs0mg"},{"bike_id":"d99bff46-e3e0-4c25-9719-3fa3dd9a1a6e","system_id":"levelo_inurba_marseille","lat":43.31935,"lon":5.37386,"is_reserved":false,"is_disabled":false,"rental_uris":{"android":"levelo://app?vid=d99bff46-e3e0-4c25-9719-3fa3dd9a1a6e","ios":"levelo://app?vid=d99bff46-e3e0-4c25-9719-3fa3dd9a1a6e"},"vehicle_type_id":"4","last_reported":1731600724,"current_range_meters":20000,"station_id":"ce4bgt12rcd13ifvqcd0","pricing_plan_id":"cebpf4jnsgd1na2vs0mg"},{"bike_id":"05d9c569-c83d-4338-b613-93d5a6ff20f8","system_id":"levelo_inurba_marseille","lat":43.28612,"lon":5.35105,"is_reserved":false,"is_disabled":false,"rental_uris":{"android":"levelo://app?vid=05d9c569-c83d-4338-b613-93d5a6ff20f8","ios":"levelo://app?vid=05d9c569-c83d-4338-b613-93d5a6ff20f8"},"vehicle_type_id":"4","last_reported":1731600724,"current_range_meters":29600,"station_id":"ce4bhch2rcd13ifvqeug","pricing_plan_id":"cebpf4jnsgd1na2vs0mg"},{"bike_id":"c6447c43-d0cc-468e-995f-86d29098b762","system_id":"levelo_inurba_marseille","lat":43.31711,"lon":5.42396,"is_reserved":false,"is_disabled":false,"rental_uris":{"android":"levelo://app?vid=c6447c43-d0cc-468e-995f-86d29098b762","ios":"levelo://app?vid=c6447c43-d0cc-468e-995f-86d29098b762"},"vehicle_type_id":"4","last_reported":1731600724,"current_range_meters":38800,"station_id":"ce4bhp92rcd13ifvqhbg","pricing_plan_id":"cebpf4jnsgd1na2vs0mg"},{"bike_id":"63bd93d5-63dd-4683-a5d8-4a155823bc4a","system_id":"levelo_inurba_marseille","lat":43.25087,"lon":5.39525,"is_reserved":false,"is_disabled":false,"rental_uris":{"android":"levelo://app?vid=63bd93d5-63dd-4683-a5d8-4a155823bc4a","ios":"levelo://app?vid=63bd93d5-63dd-4683-a5d8-4a155823bc4a"},"vehicle_type_id":"4","last_reported":1731600724,"current_range_meters":39200,"station_id":"ce4bhm12rcd13ifvqgkg","pricing_plan_id":"cebpf4jnsgd1na2vs0mg"},{"bike_id":"21c3f886-bafe-4236-aa7c-30af499af7f0","system_id":"levelo_inurba_marseille","lat":43.32473,"lon":5.36593,"is_reserved":false,"is_disabled":false,"rental_uris":{"android":"levelo://app?vid=21c3f886-bafe-4236-aa7c-30af499af7f0","ios":"levelo://app?vid=21c3f886-bafe-4236-aa7c-30af499af7f0"},"vehicle_type_id":"4","last_reported":1731600724,"current_range_meters":24800,"station_id":"ce4bhs12rcd13ifvqhvg","pricing_plan_id":"cebpf4jnsgd1na2vs0mg"},{"bike_id":"503caeb9-b055-4b0b-bb4b-f6cedade3be6","system_id":"levelo_inurba_marseille","lat":43.30643,"lon":5.40076,"is_reserved":false,"is_disabled":false,"rental_uris":{"android":"levelo://app?vid=503caeb9-b055-4b0b-bb4b-f6cedade3be6","ios":"levelo://app?vid=503caeb9-b055-4b0b-bb4b-f6cedade3be6"},"vehicle_type_id":"4","last_reported":1731600724,"current_range_meters":20800,"station_id":"ce4bh112rcd13ifvqda0","pricing_plan_id":"cebpf4jnsgd1na2vs0mg"},{"bike_id":"7e68d8eb-008a-41fa-8d76-b35dd2ccf3ff","system_id":"levelo_inurba_marseille","lat":43.25009,"lon":5.38932,"is_reserved":false,"is_disabled":false,"rental_uris":{"android":"levelo://app?vid=7e68d8eb-008a-41fa-8d76-b35dd2ccf3ff","ios":"levelo://app?vid=7e68d8eb-008a-41fa-8d76-b35dd2ccf3ff"},"vehicle_type_id":"4","last_reported":1731600724,"current_range_meters":25200,"station_id":"ce4bhgp2rcd13ifvqfd0","pricing_plan_id":"cebpf4jnsgd1na2vs0mg"},{"bike_id":"f0bb4405-bbbf-4616-bc8b-08a36af6964b","system_id":"levelo_inurba_marseille","lat":43.28278,"lon":5.35072,"is_reserved":false,"is_disabled":false,"rental_uris":{"android":"levelo://app?vid=f0bb4405-bbbf-4616-bc8b-08a36af6964b","ios":"levelo://app?vid=f0bb4405-bbbf-4616-bc8b-08a36af6964b"},"vehicle_type_id":"4","last_reported":1731600724,"current_range_meters":22800,"station_id":"ce4bhbp2rcd13ifvqerg","pricing_plan_id":"cebpf4jnsgd1na2vs0mg"},{"bike_id":"85b50777-edce-4431-9f27-6375e653a617","system_id":"levelo_inurba_marseille","lat":43.293,"lon":5.37187,"is_reserved":false,"is_disabled":false,"rental_uris":{"android":"levelo://app?vid=85b50777-edce-4431-9f27-6375e653a617","ios":"levelo://app?vid=85b50777-edce-4431-9f27-6375e653a617"},"vehicle_type_id":"4","last_reported":1731600724,"current_range_meters":22800,"station_id":"ce4bgh92rcd13ifvqb40","pricing_plan_id":"cebpf4jnsgd1na2vs0mg"},{"bike_id":"213996db-f550-468f-9e1e-c2aa7eed875d","system_id":"levelo_inurba_marseille","lat":43.30929,"lon":5.40148,"is_reserved":false,"is_disabled":false,"rental_uris":{"android":"levelo://app?vid=213996db-f550-468f-9e1e-c2aa7eed875d","ios":"levelo://app?vid=213996db-f550-468f-9e1e-c2aa7eed875d"},"vehicle_type_id":"4","last_reported":1731600724,"current_range_meters":10000,"station_id":"ce4bgvp2rcd13ifvqct0","pricing_plan_id":"cebpf4jnsgd1na2vs0mg"},{"bike_id":"f15f84e3-6119-4797-bcba-f763c86025cb","system_id":"levelo_inurba_marseille","lat":43.337444,"lon":5.374475,"is_reserved":false,"is_disabled":false,"rental_uris":{"android":"levelo://app?vid=f15f84e3-6119-4797-bcba-f763c86025cb","ios":"levelo://app?vid=f15f84e3-6119-4797-bcba-f763c86025cb"},"vehicle_type_id":"4","last_reported":1731600724,"current_range_meters":34800,"station_id":"","pricing_plan_id":"cebpf4jnsgd1na2vs0mg"},{"bike_id":"934be49d-77fa-4bc7-88f0-5afb60d5edf8","system_id":"levelo_inurba_marseille","lat":43.25578,"lon":5.38239,"is_reserved":false,"is_disabled":false,"rental_uris":{"android":"levelo://app?vid=934be49d-77fa-4bc7-88f0-5afb60d5edf8","ios":"levelo://app?vid=934be49d-77fa-4bc7-88f0-5afb60d5edf8"},"vehicle_type_id":"4","last_reported":1731600724,"current_range_meters":26800,"station_id":"ce4bhih2rcd13ifvqfs0","pricing_plan_id":"cebpf4jnsgd1na2vs0mg"},{"bike_id":"a19b42e9-8389-481f-a2ad-c49f0e911961","system_id":"levelo_inurba_marseille","lat":43.30532,"lon":5.3654,"is_reserved":false,"is_disabled":false,"rental_uris":{"android":"levelo://app?vid=a19b42e9-8389-481f-a2ad-c49f0e911961","ios":"levelo://app?vid=a19b42e9-8389-481f-a2ad-c49f0e911961"},"vehicle_type_id":"4","last_reported":1731600724,"current_range_meters":39200,"station_id":"ce4bgs12rcd13ifvqcag","pricing_plan_id":"cebpf4jnsgd1na2vs0mg"},{"bike_id":"61f70be7-b6f9-4297-ba8d-487d69b7ea54","system_id":"levelo_inurba_marseille","lat":43.2893,"lon":5.38412,"is_reserved":false,"is_disabled":false,"rental_uris":{"android":"levelo://app?vid=61f70be7-b6f9-4297-ba8d-487d69b7ea54","ios":"levelo://app?vid=61f70be7-b6f9-4297-ba8d-487d69b7ea54"},"vehicle_type_id":"4","last_reported":1731600724,"current_range_meters":37600,"station_id":"ce4bh612rcd13ifvqe6g","pricing_plan_id":"cebpf4jnsgd1na2vs0mg"},{"bike_id":"f0f5c311-eccb-4b46-8e6f-37005aa162a9","system_id":"levelo_inurba_marseille","lat":43.30654,"lon":5.40085,"is_reserved":false,"is_disabled":false,"rental_uris":{"android":"levelo://app?vid=f0f5c311-eccb-4b46-8e6f-37005aa162a9","ios":"levelo://app?vid=f0f5c311-eccb-4b46-8e6f-37005aa162a9"},"vehicle_type_id":"4","last_reported":1731600724,"current_range_meters":33600,"station_id":"ce4bh112rcd13ifvqda0","pricing_plan_id":"cebpf4jnsgd1na2vs0mg"},{"bike_id":"8843f815-b619-485c-a98f-ddb2596bfa31","system_id":"levelo_inurba_marseille","lat":43.25568,"lon":5.38232,"is_reserved":false,"is_disabled":false,"rental_uris":{"android":"levelo://app?vid=8843f815-b619-485c-a98f-ddb2596bfa31","ios":"levelo://app?vid=8843f815-b619-485c-a98f-ddb2596bfa31"},"vehicle_type_id":"4","last_reported":1731600724,"current_range_meters":38000,"station_id":"ce4bhih2rcd13ifvqfs0","pricing_plan_id":"cebpf4jnsgd1na2vs0mg"},{"bike_id":"6bb4607c-5ac5-46e3-ac0a-de4d96ec0cb1","system_id":"levelo_inurba_marseille","lat":43.30541,"lon":5.36541,"is_reserved":false,"is_disabled":false,"rental_uris":{"android":"levelo://app?vid=6bb4607c-5ac5-46e3-ac0a-de4d96ec0cb1","ios":"levelo://app?vid=6bb4607c-5ac5-46e3-ac0a-de4d96ec0cb1"},"vehicle_type_id":"4","last_reported":1731600724,"current_range_meters":22400,"station_id":"ce4bgs12rcd13ifvqcag","pricing_plan_id":"cebpf4jnsgd1na2vs0mg"},{"bike_id":"8963f262-bdcb-43f5-9e37-237198779ba8","system_id":"levelo_inurba_marseille","lat":43.33773,"lon":5.37442,"is_reserved":false,"is_disabled":false,"rental_uris":{"android":"levelo://app?vid=8963f262-bdcb-43f5-9e37-237198779ba8","ios":"levelo://app?vid=8963f262-bdcb-43f5-9e37-237198779ba8"},"vehicle_type_id":"4","last_reported":1731600724,"current_range_meters":33200,"station_id":"","pricing_plan_id":"cebpf4jnsgd1na2vs0mg"},{"bike_id":"398b47b3-a042-4cec-b1dd-254773a78263","system_id":"levelo_inurba_marseille","lat":43.27399,"lon":5.3896,"is_reserved":false,"is_disabled":false,"rental_uris":{"android":"levelo://app?vid=398b47b3-a042-4cec-b1dd-254773a78263","ios":"levelo://app?vid=398b47b3-a042-4cec-b1dd-254773a78263"},"vehicle_type_id":"4","last_reported":1731600724,"current_range_meters":3600,"station_id":"","pricing_plan_id":"cebpf4jnsgd1na2vs0mg"},{"bike_id":"8917990b-e521-4dd2-be3a-39fb95bd43be","system_id":"levelo_inurba_marseille","lat":43.30419,"lon":5.41286,"is_reserved":false,"is_disabled":false,"rental_uris":{"android":"levelo://app?vid=8917990b-e521-4dd2-be3a-39fb95bd43be","ios":"levelo://app?vid=8917990b-e521-4dd2-be3a-39fb95bd43be"},"vehicle_type_id":"4","last_reported":1731600724,"current_range_meters":28000,"station_id":"ce4bhop2rcd13ifvqh8g","pricing_plan_id":"cebpf4jnsgd1na2vs0mg"},{"bike_id":"ac1081cc-aff5-436e-a11b-24d06190a755","system_id":"levelo_inurba_marseille","lat":43.337444,"lon":5.374475,"is_reserved":false,"is_disabled":false,"rental_uris":{"android":"levelo://app?vid=ac1081cc-aff5-436e-a11b-24d06190a755","ios":"levelo://app?vid=ac1081cc-aff5-436e-a11b-24d06190a755"},"vehicle_type_id":"4","last_reported":1731600724,"current_range_meters":33600,"station_id":"","pricing_plan_id":"cebpf4jnsgd1na2vs0mg"},{"bike_id":"92e3ad17-17c9-4714-a148-ef9436ad6113","system_id":"levelo_inurba_marseille","lat":43.22935,"lon":5.3538,"is_reserved":false,"is_disabled":false,"rental_uris":{"android":"levelo://app?vid=92e3ad17-17c9-4714-a148-ef9436ad6113","ios":"levelo://app?vid=92e3ad17-17c9-4714-a148-ef9436ad6113"},"vehicle_type_id":"4","last_reported":1731600724,"current_range_meters":39200,"station_id":"cpo3532slgdg3j2ikp40","pricing_plan_id":"cebpf4jnsgd1na2vs0mg"},{"bike_id":"3959eab5-15c5-4ed6-a889-9acfe67f1614","system_id":"levelo_inurba_marseille","lat":43.31328,"lon":5.39699,"is_reserved":false,"is_disabled":false,"rental_uris":{"android":"levelo://app?vid=3959eab5-15c5-4ed6-a889-9acfe67f1614","ios":"levelo://app?vid=3959eab5-15c5-4ed6-a889-9acfe67f1614"},"vehicle_type_id":"4","last_reported":1731600724,"current_range_meters":37600,"station_id":"ce4bgvp2rcd13ifvqcu0","pricing_plan_id":"cebpf4jnsgd1na2vs0mg"},{"bike_id":"5326c5f8-bba7-40e6-bfc7-8e986a3bddf3","system_id":"levelo_inurba_marseille","lat":43.32298,"lon":5.38255,"is_reserved":false,"is_disabled":false,"rental_uris":{"android":"levelo://app?vid=5326c5f8-bba7-40e6-bfc7-8e986a3bddf3","ios":"levelo://app?vid=5326c5f8-bba7-40e6-bfc7-8e986a3bddf3"},"vehicle_type_id":"4","last_reported":1731600724,"current_range_meters":23200,"station_id":"ce4bhr12rcd13ifvqhqg","pricing_plan_id":"cebpf4jnsgd1na2vs0mg"},{"bike_id":"82f309e6-c4ae-421f-89cb-1d64a8e0ef10","system_id":"levelo_inurba_marseille","lat":43.337444,"lon":5.374475,"is_reserved":false,"is_disabled":false,"rental_uris":{"android":"levelo://app?vid=82f309e6-c4ae-421f-89cb-1d64a8e0ef10","ios":"levelo://app?vid=82f309e6-c4ae-421f-89cb-1d64a8e0ef10"},"vehicle_type_id":"4","last_reported":1731600724,"current_range_meters":32400,"station_id":"","pricing_plan_id":"cebpf4jnsgd1na2vs0mg"},{"bike_id":"5419d154-3ce9-4c40-9294-d16b9d2b3431","system_id":"levelo_inurba_marseille","lat":43.337444,"lon":5.374475,"is_reserved":false,"is_disabled":false,"rental_uris":{"android":"levelo://app?vid=5419d154-3ce9-4c40-9294-d16b9d2b3431","ios":"levelo://app?vid=5419d154-3ce9-4c40-9294-d16b9d2b3431"},"vehicle_type_id":"4","last_reported":1731600724,"current_range_meters":32400,"station_id":"","pricing_plan_id":"cebpf4jnsgd1na2vs0mg"},{"bike_id":"1d7ed258-ac0f-499e-94e3-30158698c091","system_id":"levelo_inurba_marseille","lat":43.28268,"lon":5.35069,"is_reserved":false,"is_disabled":false,"rental_uris":{"android":"levelo://app?vid=1d7ed258-ac0f-499e-94e3-30158698c091","ios":"levelo://app?vid=1d7ed258-ac0f-499e-94e3-30158698c091"},"vehicle_type_id":"4","last_reported":1731600724,"current_range_meters":38800,"station_id":"ce4bhbp2rcd13ifvqerg","pricing_plan_id":"cebpf4jnsgd1na2vs0mg"},{"bike_id":"6e4ab7d2-c1df-4ea4-bb4b-2f5c43ed5717","system_id":"levelo_inurba_marseille","lat":43.33768,"lon":5.37439,"is_reserved":false,"is_disabled":false,"rental_uris":{"android":"levelo://app?vid=6e4ab7d2-c1df-4ea4-bb4b-2f5c43ed5717","ios":"levelo://app?vid=6e4ab7d2-c1df-4ea4-bb4b-2f5c43ed5717"},"vehicle_type_id":"4","last_reported":1731600724,"current_range_meters":32000,"station_id":"","pricing_plan_id":"cebpf4jnsgd1na2vs0mg"},{"bike_id":"bd465249-964f-4479-968e-5f6e32af60f1","system_id":"levelo_inurba_marseille","lat":43.337444,"lon":5.374475,"is_reserved":false,"is_disabled":false,"rental_uris":{"android":"levelo://app?vid=bd465249-964f-4479-968e-5f6e32af60f1","ios":"levelo://app?vid=bd465249-964f-4479-968e-5f6e32af60f1"},"vehicle_type_id":"4","last_reported":1731600724,"current_range_meters":34000,"station_id":"","pricing_plan_id":"cebpf4jnsgd1na2vs0mg"},{"bike_id":"edc8be6c-01b6-4f15-a3aa-9bd61d4ae148","system_id":"levelo_inurba_marseille","lat":43.25086,"lon":5.39523,"is_reserved":false,"is_disabled":false,"rental_uris":{"android":"levelo://app?vid=edc8be6c-01b6-4f15-a3aa-9bd61d4ae148","ios":"levelo://app?vid=edc8be6c-01b6-4f15-a3aa-9bd61d4ae148"},"vehicle_type_id":"4","last_reported":1731600724,"current_range_meters":4800,"station_id":"ce4bhm12rcd13ifvqgkg","pricing_plan_id":"cebpf4jnsgd1na2vs0mg"},{"bike_id":"49545d7d-6d73-4e95-82cd-b80cd82c3b7d","system_id":"levelo_inurba_marseille","lat":43.3148,"lon":5.37314,"is_reserved":false,"is_disabled":false,"rental_uris":{"android":"levelo://app?vid=49545d7d-6d73-4e95-82cd-b80cd82c3b7d","ios":"levelo://app?vid=49545d7d-6d73-4e95-82cd-b80cd82c3b7d"},"vehicle_type_id":"4","last_reported":1731600724,"current_range_meters":18800,"station_id":"ce4bgt12rcd13ifvqcd0","pricing_plan_id":"cebpf4jnsgd1na2vs0mg"},{"bike_id":"d63407c7-63de-4050-b2d8-cee63ecdce3c","system_id":"levelo_inurba_marseille","lat":43.29996,"lon":5.38493,"is_reserved":false,"is_disabled":false,"rental_uris":{"android":"levelo://app?vid=d63407c7-63de-4050-b2d8-cee63ecdce3c","ios":"levelo://app?vid=d63407c7-63de-4050-b2d8-cee63ecdce3c"},"vehicle_type_id":"4","last_reported":1731600724,"current_range_meters":16400,"station_id":"ce4bgj92rcd13ifvqbd0","pricing_plan_id":"cebpf4jnsgd1na2vs0mg"},{"bike_id":"ee397f7c-9f4e-4f1f-9b8a-f770b3796fd7","system_id":"levelo_inurba_marseille","lat":43.31178,"lon":5.38719,"is_reserved":false,"is_disabled":false,"rental_uris":{"android":"levelo://app?vid=ee397f7c-9f4e-4f1f-9b8a-f770b3796fd7","ios":"levelo://app?vid=ee397f7c-9f4e-4f1f-9b8a-f770b3796fd7"},"vehicle_type_id":"4","last_reported":1731600724,"current_range_meters":38800,"station_id":"ce4bgv12rcd13ifvqcp0","pricing_plan_id":"cebpf4jnsgd1na2vs0mg"},{"bike_id":"630dc839-de13-4f4b-b6d2-9eb004ba7503","system_id":"levelo_inurba_marseille","lat":43.2847,"lon":5.359,"is_reserved":false,"is_disabled":false,"rental_uris":{"android":"levelo://app?vid=630dc839-de13-4f4b-b6d2-9eb004ba7503","ios":"levelo://app?vid=630dc839-de13-4f4b-b6d2-9eb004ba7503"},"vehicle_type_id":"4","last_reported":1731600724,"current_range_meters":7200,"station_id":"ce4bhah2rcd13ifvqei0","pricing_plan_id":"cebpf4jnsgd1na2vs0mg"},{"bike_id":"6406f7b0-e2d9-446f-b79f-4b7dff955240","system_id":"levelo_inurba_marseille","lat":43.2841,"lon":5.34993,"is_reserved":false,"is_disabled":false,"rental_uris":{"android":"levelo://app?vid=6406f7b0-e2d9-446f-b79f-4b7dff955240","ios":"levelo://app?vid=6406f7b0-e2d9-446f-b79f-4b7dff955240"},"vehicle_type_id":"4","last_reported":1731600724,"current_range_meters":38800,"station_id":"ce4bhbh2rcd13ifvqepg","pricing_plan_id":"cebpf4jnsgd1na2vs0mg"},{"bike_id":"c9d041c0-acec-4cf4-bba2-e01a92441368","system_id":"levelo_inurba_marseille","lat":43.337444,"lon":5.374475,"is_reserved":false,"is_disabled":false,"rental_uris":{"android":"levelo://app?vid=c9d041c0-acec-4cf4-bba2-e01a92441368","ios":"levelo://app?vid=c9d041c0-acec-4cf4-bba2-e01a92441368"},"vehicle_type_id":"4","last_reported":1731600724,"current_range_meters":33600,"station_id":"","pricing_plan_id":"cebpf4jnsgd1na2vs0mg"},{"bike_id":"7be47c27-5026-494e-b3e3-02e6592c6480","system_id":"levelo_inurba_marseille","lat":43.32492,"lon":5.36573,"is_reserved":false,"is_disabled":false,"rental_uris":{"android":"levelo://app?vid=7be47c27-5026-494e-b3e3-02e6592c6480","ios":"levelo://app?vid=7be47c27-5026-494e-b3e3-02e6592c6480"},"vehicle_type_id":"4","last_reported":1731600724,"current_range_meters":20800,"station_id":"ce4bhs12rcd13ifvqhvg","pricing_plan_id":"cebpf4jnsgd1na2vs0mg"},{"bike_id":"f23d7eb7-573b-4968-b65c-7a15b2abdff0","system_id":"levelo_inurba_marseille","lat":43.2817,"lon":5.36927,"is_reserved":false,"is_disabled":false,"rental_uris":{"android":"levelo://app?vid=f23d7eb7-573b-4968-b65c-7a15b2abdff0","ios":"levelo://app?vid=f23d7eb7-573b-4968-b65c-7a15b2abdff0"},"vehicle_type_id":"4","last_reported":1731600724,"current_range_meters":4000,"station_id":"ce4bh192rcd13ifvqdd0","pricing_plan_id":"cebpf4jnsgd1na2vs0mg"},{"bike_id":"e85c83cc-9eb4-4dbe-a8d8-c7f6d54a0be4","system_id":"levelo_inurba_marseille","lat":43.29273,"lon":5.36851,"is_reserved":false,"is_disabled":false,"rental_uris":{"android":"levelo://app?vid=e85c83cc-9eb4-4dbe-a8d8-c7f6d54a0be4","ios":"levelo://app?vid=e85c83cc-9eb4-4dbe-a8d8-c7f6d54a0be4"},"vehicle_type_id":"4","last_reported":1731600724,"current_range_meters":32400,"station_id":"ce4bhbp2rcd13ifvqesg","pricing_plan_id":"cebpf4jnsgd1na2vs0mg"},{"bike_id":"4e193abe-4a99-4a9a-a7a2-f4faddb687a4","system_id":"levelo_inurba_marseille","lat":43.28728,"lon":5.36083,"is_reserved":false,"is_disabled":false,"rental_uris":{"android":"levelo://app?vid=4e193abe-4a99-4a9a-a7a2-f4faddb687a4","ios":"levelo://app?vid=4e193abe-4a99-4a9a-a7a2-f4faddb687a4"},"vehicle_type_id":"4","last_reported":1731600724,"current_range_meters":18800,"station_id":"cki0cbj6b192h4jlfktg","pricing_plan_id":"cebpf4jnsgd1na2vs0mg"},{"bike_id":"92eef5a4-7413-4712-aa62-eb761eb3479d","system_id":"levelo_inurba_marseille","lat":43.28129,"lon":5.37871,"is_reserved":false,"is_disabled":false,"rental_uris":{"android":"levelo://app?vid=92eef5a4-7413-4712-aa62-eb761eb3479d","ios":"levelo://app?vid=92eef5a4-7413-4712-aa62-eb761eb3479d"},"vehicle_type_id":"4","last_reported":1731600724,"current_range_meters":36800,"station_id":"ce4bha12rcd13ifvqee0","pricing_plan_id":"cebpf4jnsgd1na2vs0mg"},{"bike_id":"d1badb2f-ae8e-4081-9eb6-03a47653d796","system_id":"levelo_inurba_marseille","lat":43.29264,"lon":5.38443,"is_reserved":false,"is_disabled":false,"rental_uris":{"android":"levelo://app?vid=d1badb2f-ae8e-4081-9eb6-03a47653d796","ios":"levelo://app?vid=d1badb2f-ae8e-4081-9eb6-03a47653d796"},"vehicle_type_id":"4","last_reported":1731600724,"current_range_meters":38800,"station_id":"ce4bh692rcd13ifvqea0","pricing_plan_id":"cebpf4jnsgd1na2vs0mg"},{"bike_id":"2086ae47-afbb-4d7c-bb44-c532b4720227","system_id":"levelo_inurba_marseille","lat":43.30141,"lon":5.37429,"is_reserved":false,"is_disabled":false,"rental_uris":{"android":"levelo://app?vid=2086ae47-afbb-4d7c-bb44-c532b4720227","ios":"levelo://app?vid=2086ae47-afbb-4d7c-bb44-c532b4720227"},"vehicle_type_id":"4","last_reported":1731600724,"current_range_meters":38000,"station_id":"ce4bgs92rcd13ifvqcc0","pricing_plan_id":"cebpf4jnsgd1na2vs0mg"},{"bike_id":"e9a7bb2c-bca6-4fca-9a07-19b08c8f59df","system_id":"levelo_inurba_marseille","lat":43.28666,"lon":5.38674,"is_reserved":false,"is_disabled":false,"rental_uris":{"android":"levelo://app?vid=e9a7bb2c-bca6-4fca-9a07-19b08c8f59df","ios":"levelo://app?vid=e9a7bb2c-bca6-4fca-9a07-19b08c8f59df"},"vehicle_type_id":"4","last_reported":1731600724,"current_range_meters":20000,"station_id":"ce4bh492rcd13ifvqdug","pricing_plan_id":"cebpf4jnsgd1na2vs0mg"},{"bike_id":"3bc7c932-c9ee-4ce7-a923-4ae60356d621","system_id":"levelo_inurba_marseille","lat":43.25006,"lon":5.38932,"is_reserved":false,"is_disabled":false,"rental_uris":{"android":"levelo://app?vid=3bc7c932-c9ee-4ce7-a923-4ae60356d621","ios":"levelo://app?vid=3bc7c932-c9ee-4ce7-a923-4ae60356d621"},"vehicle_type_id":"4","last_reported":1731600724,"current_range_meters":26000,"station_id":"ce4bhgp2rcd13ifvqfd0","pricing_plan_id":"cebpf4jnsgd1na2vs0mg"},{"bike_id":"45e5e803-1f13-4426-83a8-c791b88f3588","system_id":"levelo_inurba_marseille","lat":43.30642,"lon":5.40068,"is_reserved":false,"is_disabled":false,"rental_uris":{"android":"levelo://app?vid=45e5e803-1f13-4426-83a8-c791b88f3588","ios":"levelo://app?vid=45e5e803-1f13-4426-83a8-c791b88f3588"},"vehicle_type_id":"4","last_reported":1731600724,"current_range_meters":38800,"station_id":"ce4bh112rcd13ifvqda0","pricing_plan_id":"cebpf4jnsgd1na2vs0mg"},{"bike_id":"4f403e37-a8c3-4d70-a9e9-789f448b0b15","system_id":"levelo_inurba_marseille","lat":43.31997,"lon":5.38171,"is_reserved":false,"is_disabled":false,"rental_uris":{"android":"levelo://app?vid=4f403e37-a8c3-4d70-a9e9-789f448b0b15","ios":"levelo://app?vid=4f403e37-a8c3-4d70-a9e9-789f448b0b15"},"vehicle_type_id":"4","last_reported":1731600724,"current_range_meters":24000,"station_id":"ce4bhr12rcd13ifvqhpg","pricing_plan_id":"cebpf4jnsgd1na2vs0mg"},{"bike_id":"e7b34d0d-e771-413c-ba68-ffe977cdc9fc","system_id":"levelo_inurba_marseille","lat":43.28943,"lon":5.36419,"is_reserved":false,"is_disabled":false,"rental_uris":{"android":"levelo://app?vid=e7b34d0d-e771-413c-ba68-ffe977cdc9fc","ios":"levelo://app?vid=e7b34d0d-e771-413c-ba68-ffe977cdc9fc"},"vehicle_type_id":"4","last_reported":1731600724,"current_range_meters":38000,"station_id":"ce4bhc92rcd13ifvqetg","pricing_plan_id":"cebpf4jnsgd1na2vs0mg"},{"bike_id":"02393de3-8f18-49b0-9b13-1464fa31a2e3","system_id":"levelo_inurba_marseille","lat":43.30785,"lon":5.3766,"is_reserved":false,"is_disabled":false,"rental_uris":{"android":"levelo://app?vid=02393de3-8f18-49b0-9b13-1464fa31a2e3","ios":"levelo://app?vid=02393de3-8f18-49b0-9b13-1464fa31a2e3"},"vehicle_type_id":"4","last_reported":1731600724,"current_range_meters":38000,"station_id":"ce4bgv92rcd13ifvqcq0","pricing_plan_id":"cebpf4jnsgd1na2vs0mg"},{"bike_id":"e307f104-aa5b-4f39-8ddf-e0afe1d36e89","system_id":"levelo_inurba_marseille","lat":43.28461,"lon":5.35881,"is_reserved":false,"is_disabled":false,"rental_uris":{"android":"levelo://app?vid=e307f104-aa5b-4f39-8ddf-e0afe1d36e89","ios":"levelo://app?vid=e307f104-aa5b-4f39-8ddf-e0afe1d36e89"},"vehicle_type_id":"4","last_reported":1731600724,"current_range_meters":18800,"station_id":"ce4bhah2rcd13ifvqei0","pricing_plan_id":"cebpf4jnsgd1na2vs0mg"},{"bike_id":"96982182-a7c7-450e-8433-0ac9d985aed2","system_id":"levelo_inurba_marseille","lat":43.33725,"lon":5.39188,"is_reserved":false,"is_disabled":false,"rental_uris":{"android":"levelo://app?vid=96982182-a7c7-450e-8433-0ac9d985aed2","ios":"levelo://app?vid=96982182-a7c7-450e-8433-0ac9d985aed2"},"vehicle_type_id":"4","last_reported":1731600724,"current_range_meters":38800,"station_id":"ce4bhr92rcd13ifvqhsg","pricing_plan_id":"cebpf4jnsgd1na2vs0mg"},{"bike_id":"37212eb8-cfa6-47ba-9ed7-bfed51287466","system_id":"levelo_inurba_marseille","lat":43.31458,"lon":5.37389,"is_reserved":false,"is_disabled":false,"rental_uris":{"android":"levelo://app?vid=37212eb8-cfa6-47ba-9ed7-bfed51287466","ios":"levelo://app?vid=37212eb8-cfa6-47ba-9ed7-bfed51287466"},"vehicle_type_id":"4","last_reported":1731600724,"current_range_meters":37600,"station_id":"","pricing_plan_id":"cebpf4jnsgd1na2vs0mg"},{"bike_id":"0a7a7ac5-f54c-44af-a6b9-bff324764339","system_id":"levelo_inurba_marseille","lat":43.23056,"lon":5.35494,"is_reserved":false,"is_disabled":false,"rental_uris":{"android":"levelo://app?vid=0a7a7ac5-f54c-44af-a6b9-bff324764339","ios":"levelo://app?vid=0a7a7ac5-f54c-44af-a6b9-bff324764339"},"vehicle_type_id":"4","last_reported":1731600724,"current_range_meters":20000,"station_id":"cpo3342slgdg3j2ifvpg","pricing_plan_id":"cebpf4jnsgd1na2vs0mg"},{"bike_id":"c7f984cf-e1fa-4383-ab1b-5be19e090e1b","system_id":"levelo_inurba_marseille","lat":43.33773,"lon":5.37437,"is_reserved":false,"is_disabled":false,"rental_uris":{"android":"levelo://app?vid=c7f984cf-e1fa-4383-ab1b-5be19e090e1b","ios":"levelo://app?vid=c7f984cf-e1fa-4383-ab1b-5be19e090e1b"},"vehicle_type_id":"4","last_reported":1731600724,"current_range_meters":33600,"station_id":"","pricing_plan_id":"cebpf4jnsgd1na2vs0mg"},{"bike_id":"a13c7708-d87b-4218-8927-329742d4f8b9","system_id":"levelo_inurba_marseille","lat":43.31996,"lon":5.38154,"is_reserved":false,"is_disabled":false,"rental_uris":{"android":"levelo://app?vid=a13c7708-d87b-4218-8927-329742d4f8b9","ios":"levelo://app?vid=a13c7708-d87b-4218-8927-329742d4f8b9"},"vehicle_type_id":"4","last_reported":1731600724,"current_range_meters":39200,"station_id":"ce4bhr12rcd13ifvqhpg","pricing_plan_id":"cebpf4jnsgd1na2vs0mg"},{"bike_id":"bef7ca68-0ccd-456c-a245-4471193ed987","system_id":"levelo_inurba_marseille","lat":43.26058,"lon":5.39404,"is_reserved":false,"is_disabled":false,"rental_uris":{"android":"levelo://app?vid=bef7ca68-0ccd-456c-a245-4471193ed987","ios":"levelo://app?vid=bef7ca68-0ccd-456c-a245-4471193ed987"},"vehicle_type_id":"4","last_reported":1731600724,"current_range_meters":26000,"station_id":"ce4bhh92rcd13ifvqfj0","pricing_plan_id":"cebpf4jnsgd1na2vs0mg"},{"bike_id":"27267f0f-7ce6-4cc8-ad2d-1885a16e3ea7","system_id":"levelo_inurba_marseille","lat":43.26944,"lon":5.40261,"is_reserved":false,"is_disabled":false,"rental_uris":{"android":"levelo://app?vid=27267f0f-7ce6-4cc8-ad2d-1885a16e3ea7","ios":"levelo://app?vid=27267f0f-7ce6-4cc8-ad2d-1885a16e3ea7"},"vehicle_type_id":"4","last_reported":1731600724,"current_range_meters":36800,"station_id":"cjm6bp8fraef2m0cb0m0","pricing_plan_id":"cebpf4jnsgd1na2vs0mg"},{"bike_id":"7fd0953d-1bf7-448f-8450-677880c3fed8","system_id":"levelo_inurba_marseille","lat":43.29709,"lon":5.36614,"is_reserved":false,"is_disabled":false,"rental_uris":{"android":"levelo://app?vid=7fd0953d-1bf7-448f-8450-677880c3fed8","ios":"levelo://app?vid=7fd0953d-1bf7-448f-8450-677880c3fed8"},"vehicle_type_id":"4","last_reported":1731600724,"current_range_meters":38800,"station_id":"ce4bgn12rcd13ifvqbt0","pricing_plan_id":"cebpf4jnsgd1na2vs0mg"},{"bike_id":"62dc2caf-3524-444a-975a-88666a2b0cdb","system_id":"levelo_inurba_marseille","lat":43.29521,"lon":5.3854,"is_reserved":false,"is_disabled":false,"rental_uris":{"android":"levelo://app?vid=62dc2caf-3524-444a-975a-88666a2b0cdb","ios":"levelo://app?vid=62dc2caf-3524-444a-975a-88666a2b0cdb"},"vehicle_type_id":"4","last_reported":1731600724,"current_range_meters":38400,"station_id":"ce4bgih2rcd13ifvqba0","pricing_plan_id":"cebpf4jnsgd1na2vs0mg"},{"bike_id":"b64339bc-d06f-458b-b745-cbdb375ef170","system_id":"levelo_inurba_marseille","lat":43.29537,"lon":5.3855,"is_reserved":false,"is_disabled":false,"rental_uris":{"android":"levelo://app?vid=b64339bc-d06f-458b-b745-cbdb375ef170","ios":"levelo://app?vid=b64339bc-d06f-458b-b745-cbdb375ef170"},"vehicle_type_id":"4","last_reported":1731600724,"current_range_meters":38800,"station_id":"ce4bgih2rcd13ifvqba0","pricing_plan_id":"cebpf4jnsgd1na2vs0mg"},{"bike_id":"6d757fef-4f26-43f9-ac2c-ffab39bf7dae","system_id":"levelo_inurba_marseille","lat":43.32249,"lon":5.36901,"is_reserved":false,"is_disabled":false,"rental_uris":{"android":"levelo://app?vid=6d757fef-4f26-43f9-ac2c-ffab39bf7dae","ios":"levelo://app?vid=6d757fef-4f26-43f9-ac2c-ffab39bf7dae"},"vehicle_type_id":"4","last_reported":1731600724,"current_range_meters":28000,"station_id":"","pricing_plan_id":"cebpf4jnsgd1na2vs0mg"},{"bike_id":"e216e8fa-6a96-4bd4-ac43-a50c02110f51","system_id":"levelo_inurba_marseille","lat":43.31332,"lon":5.39693,"is_reserved":false,"is_disabled":false,"rental_uris":{"android":"levelo://app?vid=e216e8fa-6a96-4bd4-ac43-a50c02110f51","ios":"levelo://app?vid=e216e8fa-6a96-4bd4-ac43-a50c02110f51"},"vehicle_type_id":"4","last_reported":1731600724,"current_range_meters":36000,"station_id":"ce4bgvp2rcd13ifvqcu0","pricing_plan_id":"cebpf4jnsgd1na2vs0mg"},{"bike_id":"8d06e41d-acbb-422d-9c3f-49462f4119df","system_id":"levelo_inurba_marseille","lat":43.33756,"lon":5.37453,"is_reserved":false,"is_disabled":false,"rental_uris":{"android":"levelo://app?vid=8d06e41d-acbb-422d-9c3f-49462f4119df","ios":"levelo://app?vid=8d06e41d-acbb-422d-9c3f-49462f4119df"},"vehicle_type_id":"4","last_reported":1731600724,"current_range_meters":20400,"station_id":"","pricing_plan_id":"cebpf4jnsgd1na2vs0mg"},{"bike_id":"0ef0137a-ce88-4ea5-bb9d-766c21a14d0c","system_id":"levelo_inurba_marseille","lat":43.25578,"lon":5.38235,"is_reserved":false,"is_disabled":false,"rental_uris":{"android":"levelo://app?vid=0ef0137a-ce88-4ea5-bb9d-766c21a14d0c","ios":"levelo://app?vid=0ef0137a-ce88-4ea5-bb9d-766c21a14d0c"},"vehicle_type_id":"4","last_reported":1731600724,"current_range_meters":30800,"station_id":"ce4bhih2rcd13ifvqfs0","pricing_plan_id":"cebpf4jnsgd1na2vs0mg"},{"bike_id":"992bd31a-5df9-46d3-83cb-b0b47c6977a8","system_id":"levelo_inurba_marseille","lat":43.29712,"lon":5.36611,"is_reserved":false,"is_disabled":false,"rental_uris":{"android":"levelo://app?vid=992bd31a-5df9-46d3-83cb-b0b47c6977a8","ios":"levelo://app?vid=992bd31a-5df9-46d3-83cb-b0b47c6977a8"},"vehicle_type_id":"4","last_reported":1731600724,"current_range_meters":37600,"station_id":"ce4bgn12rcd13ifvqbt0","pricing_plan_id":"cebpf4jnsgd1na2vs0mg"},{"bike_id":"070aae14-a984-4613-8ade-edb7cfd29691","system_id":"levelo_inurba_marseille","lat":43.30419,"lon":5.41291,"is_reserved":false,"is_disabled":false,"rental_uris":{"android":"levelo://app?vid=070aae14-a984-4613-8ade-edb7cfd29691","ios":"levelo://app?vid=070aae14-a984-4613-8ade-edb7cfd29691"},"vehicle_type_id":"4","last_reported":1731600724,"current_range_meters":38800,"station_id":"ce4bhop2rcd13ifvqh8g","pricing_plan_id":"cebpf4jnsgd1na2vs0mg"},{"bike_id":"fc992a78-96c0-4575-bb3d-4b9fd49c9617","system_id":"levelo_inurba_marseille","lat":43.29708,"lon":5.36609,"is_reserved":false,"is_disabled":false,"rental_uris":{"android":"levelo://app?vid=fc992a78-96c0-4575-bb3d-4b9fd49c9617","ios":"levelo://app?vid=fc992a78-96c0-4575-bb3d-4b9fd49c9617"},"vehicle_type_id":"4","last_reported":1731600724,"current_range_meters":39200,"station_id":"ce4bgn12rcd13ifvqbt0","pricing_plan_id":"cebpf4jnsgd1na2vs0mg"},{"bike_id":"0a9af57f-b4b5-4cc6-83e8-c02347bf074f","system_id":"levelo_inurba_marseille","lat":43.29381,"lon":5.37868,"is_reserved":false,"is_disabled":false,"rental_uris":{"android":"levelo://app?vid=0a9af57f-b4b5-4cc6-83e8-c02347bf074f","ios":"levelo://app?vid=0a9af57f-b4b5-4cc6-83e8-c02347bf074f"},"vehicle_type_id":"4","last_reported":1731600724,"current_range_meters":34000,"station_id":"ce4bgjh2rcd13ifvqbf0","pricing_plan_id":"cebpf4jnsgd1na2vs0mg"},{"bike_id":"c3b9ced7-2951-4845-9c00-c49c8c3e851f","system_id":"levelo_inurba_marseille","lat":43.27678,"lon":5.38901,"is_reserved":false,"is_disabled":false,"rental_uris":{"android":"levelo://app?vid=c3b9ced7-2951-4845-9c00-c49c8c3e851f","ios":"levelo://app?vid=c3b9ced7-2951-4845-9c00-c49c8c3e851f"},"vehicle_type_id":"4","last_reported":1731600724,"current_range_meters":38800,"station_id":"ce4bhi12rcd13ifvqfo0","pricing_plan_id":"cebpf4jnsgd1na2vs0mg"},{"bike_id":"168dc38a-c833-44ff-9402-297d16c8ffe8","system_id":"levelo_inurba_marseille","lat":43.30322,"lon":5.40434,"is_reserved":false,"is_disabled":false,"rental_uris":{"android":"levelo://app?vid=168dc38a-c833-44ff-9402-297d16c8ffe8","ios":"levelo://app?vid=168dc38a-c833-44ff-9402-297d16c8ffe8"},"vehicle_type_id":"4","last_reported":1731600724,"current_range_meters":38800,"station_id":"ce4bh012rcd13ifvqd10","pricing_plan_id":"cebpf4jnsgd1na2vs0mg"},{"bike_id":"2ba01715-3170-4a7e-ae00-4a8868ac1042","system_id":"levelo_inurba_marseille","lat":43.25088,"lon":5.39512,"is_reserved":false,"is_disabled":false,"rental_uris":{"android":"levelo://app?vid=2ba01715-3170-4a7e-ae00-4a8868ac1042","ios":"levelo://app?vid=2ba01715-3170-4a7e-ae00-4a8868ac1042"},"vehicle_type_id":"4","last_reported":1731600724,"current_range_meters":28400,"station_id":"ce4bhm12rcd13ifvqgkg","pricing_plan_id":"cebpf4jnsgd1na2vs0mg"},{"bike_id":"b9dea78b-c3d8-4ada-a6b2-be33015b8779","system_id":"levelo_inurba_marseille","lat":43.29716,"lon":5.36622,"is_reserved":false,"is_disabled":false,"rental_uris":{"android":"levelo://app?vid=b9dea78b-c3d8-4ada-a6b2-be33015b8779","ios":"levelo://app?vid=b9dea78b-c3d8-4ada-a6b2-be33015b8779"},"vehicle_type_id":"4","last_reported":1731600724,"current_range_meters":18800,"station_id":"ce4bgn12rcd13ifvqbt0","pricing_plan_id":"cebpf4jnsgd1na2vs0mg"},{"bike_id":"a484f2db-8af7-4aa7-ae79-b587f724e391","system_id":"levelo_inurba_marseille","lat":43.302204,"lon":5.369068,"is_reserved":false,"is_disabled":false,"rental_uris":{"android":"levelo://app?vid=a484f2db-8af7-4aa7-ae79-b587f724e391","ios":"levelo://app?vid=a484f2db-8af7-4aa7-ae79-b587f724e391"},"vehicle_type_id":"4","last_reported":1731600724,"current_range_meters":16000,"station_id":"ce4bh0p2rcd13ifvqd70","pricing_plan_id":"cebpf4jnsgd1na2vs0mg"},{"bike_id":"890394d9-d027-42d8-8d4b-306c8879b0e0","system_id":"levelo_inurba_marseille","lat":43.337444,"lon":5.374475,"is_reserved":false,"is_disabled":false,"rental_uris":{"android":"levelo://app?vid=890394d9-d027-42d8-8d4b-306c8879b0e0","ios":"levelo://app?vid=890394d9-d027-42d8-8d4b-306c8879b0e0"},"vehicle_type_id":"4","last_reported":1731600724,"current_range_meters":33600,"station_id":"","pricing_plan_id":"cebpf4jnsgd1na2vs0mg"},{"bike_id":"448e8e0f-8ee3-40da-9ed3-e58f8c8811c5","system_id":"levelo_inurba_marseille","lat":43.293705,"lon":5.378425,"is_reserved":false,"is_disabled":false,"rental_uris":{"android":"levelo://app?vid=448e8e0f-8ee3-40da-9ed3-e58f8c8811c5","ios":"levelo://app?vid=448e8e0f-8ee3-40da-9ed3-e58f8c8811c5"},"vehicle_type_id":"4","last_reported":1731600724,"current_range_meters":8000,"station_id":"ce4bgjh2rcd13ifvqbf0","pricing_plan_id":"cebpf4jnsgd1na2vs0mg"},{"bike_id":"091eb32d-10f2-483a-a4b8-bb3a3125a200","system_id":"levelo_inurba_marseille","lat":43.31688,"lon":5.40476,"is_reserved":false,"is_disabled":false,"rental_uris":{"android":"levelo://app?vid=091eb32d-10f2-483a-a4b8-bb3a3125a200","ios":"levelo://app?vid=091eb32d-10f2-483a-a4b8-bb3a3125a200"},"vehicle_type_id":"4","last_reported":1731600724,"current_range_meters":33600,"station_id":"ce4bh012rcd13ifvqd00","pricing_plan_id":"cebpf4jnsgd1na2vs0mg"},{"bike_id":"75a62bc6-35c9-4c50-b1cf-a4607b7f5083","system_id":"levelo_inurba_marseille","lat":43.264832,"lon":5.395426,"is_reserved":false,"is_disabled":false,"rental_uris":{"android":"levelo://app?vid=75a62bc6-35c9-4c50-b1cf-a4607b7f5083","ios":"levelo://app?vid=75a62bc6-35c9-4c50-b1cf-a4607b7f5083"},"vehicle_type_id":"4","last_reported":1731600724,"current_range_meters":12000,"station_id":"ce4bhi12rcd13ifvqfq0","pricing_plan_id":"cebpf4jnsgd1na2vs0mg"},{"bike_id":"38a3f15f-4d5c-4d70-9a7a-d0737c2f75f7","system_id":"levelo_inurba_marseille","lat":43.32348,"lon":5.40625,"is_reserved":false,"is_disabled":false,"rental_uris":{"android":"levelo://app?vid=38a3f15f-4d5c-4d70-9a7a-d0737c2f75f7","ios":"levelo://app?vid=38a3f15f-4d5c-4d70-9a7a-d0737c2f75f7"},"vehicle_type_id":"4","last_reported":1731600724,"current_range_meters":30000,"station_id":"ce4bhq92rcd13ifvqhjg","pricing_plan_id":"cebpf4jnsgd1na2vs0mg"},{"bike_id":"db614f2f-7065-4d45-a7e2-427b3be440b8","system_id":"levelo_inurba_marseille","lat":43.29026,"lon":5.38646,"is_reserved":false,"is_disabled":false,"rental_uris":{"android":"levelo://app?vid=db614f2f-7065-4d45-a7e2-427b3be440b8","ios":"levelo://app?vid=db614f2f-7065-4d45-a7e2-427b3be440b8"},"vehicle_type_id":"4","last_reported":1731600724,"current_range_meters":30000,"station_id":"ce4bh4p2rcd13ifvqe0g","pricing_plan_id":"cebpf4jnsgd1na2vs0mg"},{"bike_id":"28db0c02-3ab6-4a46-8ec6-844d0aeb664a","system_id":"levelo_inurba_marseille","lat":43.28417,"lon":5.34999,"is_reserved":false,"is_disabled":false,"rental_uris":{"android":"levelo://app?vid=28db0c02-3ab6-4a46-8ec6-844d0aeb664a","ios":"levelo://app?vid=28db0c02-3ab6-4a46-8ec6-844d0aeb664a"},"vehicle_type_id":"4","last_reported":1731600724,"current_range_meters":29600,"station_id":"ce4bhbh2rcd13ifvqepg","pricing_plan_id":"cebpf4jnsgd1na2vs0mg"},{"bike_id":"caf8a065-cd52-4b6e-a824-acd2bb21f269","system_id":"levelo_inurba_marseille","lat":43.32661,"lon":5.40994,"is_reserved":false,"is_disabled":false,"rental_uris":{"android":"levelo://app?vid=caf8a065-cd52-4b6e-a824-acd2bb21f269","ios":"levelo://app?vid=caf8a065-cd52-4b6e-a824-acd2bb21f269"},"vehicle_type_id":"4","last_reported":1731600724,"current_range_meters":24000,"station_id":"ce4bhpp2rcd13ifvqhgg","pricing_plan_id":"cebpf4jnsgd1na2vs0mg"},{"bike_id":"9dc80be6-695d-4188-a434-688c75207833","system_id":"levelo_inurba_marseille","lat":43.28493,"lon":5.38577,"is_reserved":false,"is_disabled":false,"rental_uris":{"android":"levelo://app?vid=9dc80be6-695d-4188-a434-688c75207833","ios":"levelo://app?vid=9dc80be6-695d-4188-a434-688c75207833"},"vehicle_type_id":"4","last_reported":1731600724,"current_range_meters":28400,"station_id":"ce4bh8p2rcd13ifvqeb0","pricing_plan_id":"cebpf4jnsgd1na2vs0mg"},{"bike_id":"93d6c297-7c46-46a8-8d3c-035bc78abd5e","system_id":"levelo_inurba_marseille","lat":43.27207,"lon":5.39182,"is_reserved":false,"is_disabled":false,"rental_uris":{"android":"levelo://app?vid=93d6c297-7c46-46a8-8d3c-035bc78abd5e","ios":"levelo://app?vid=93d6c297-7c46-46a8-8d3c-035bc78abd5e"},"vehicle_type_id":"4","last_reported":1731600724,"current_range_meters":16400,"station_id":"ce4bhhp2rcd13ifvqfm0","pricing_plan_id":"cebpf4jnsgd1na2vs0mg"},{"bike_id":"6a6ea60f-2251-4c20-a3fd-b8dbfc3cb31a","system_id":"levelo_inurba_marseille","lat":43.33764,"lon":5.37473,"is_reserved":false,"is_disabled":false,"rental_uris":{"android":"levelo://app?vid=6a6ea60f-2251-4c20-a3fd-b8dbfc3cb31a","ios":"levelo://app?vid=6a6ea60f-2251-4c20-a3fd-b8dbfc3cb31a"},"vehicle_type_id":"4","last_reported":1731600724,"current_range_meters":34000,"station_id":"","pricing_plan_id":"cebpf4jnsgd1na2vs0mg"},{"bike_id":"99addb58-bf6d-41a4-889b-e79286a47ecd","system_id":"levelo_inurba_marseille","lat":43.28076,"lon":5.39668,"is_reserved":false,"is_disabled":false,"rental_uris":{"android":"levelo://app?vid=99addb58-bf6d-41a4-889b-e79286a47ecd","ios":"levelo://app?vid=99addb58-bf6d-41a4-889b-e79286a47ecd"},"vehicle_type_id":"4","last_reported":1731600724,"current_range_meters":38800,"station_id":"ce4bho12rcd13ifvqh2g","pricing_plan_id":"cebpf4jnsgd1na2vs0mg"},{"bike_id":"70dbac14-4ff1-4ee8-9da1-31cf9c0d2e62","system_id":"levelo_inurba_marseille","lat":43.27189,"lon":5.41,"is_reserved":false,"is_disabled":false,"rental_uris":{"android":"levelo://app?vid=70dbac14-4ff1-4ee8-9da1-31cf9c0d2e62","ios":"levelo://app?vid=70dbac14-4ff1-4ee8-9da1-31cf9c0d2e62"},"vehicle_type_id":"4","last_reported":1731600724,"current_range_meters":24000,"station_id":"ce4bhl12rcd13ifvqgf0","pricing_plan_id":"cebpf4jnsgd1na2vs0mg"},{"bike_id":"1311c692-6e9d-4afb-b7b0-20686564fe7a","system_id":"levelo_inurba_marseille","lat":43.337444,"lon":5.374475,"is_reserved":false,"is_disabled":false,"rental_uris":{"android":"levelo://app?vid=1311c692-6e9d-4afb-b7b0-20686564fe7a","ios":"levelo://app?vid=1311c692-6e9d-4afb-b7b0-20686564fe7a"},"vehicle_type_id":"4","last_reported":1731600724,"current_range_meters":32400,"station_id":"","pricing_plan_id":"cebpf4jnsgd1na2vs0mg"},{"bike_id":"7c473840-22b7-4574-9a0e-2c0d8460c9f6","system_id":"levelo_inurba_marseille","lat":43.25863,"lon":5.39902,"is_reserved":false,"is_disabled":false,"rental_uris":{"android":"levelo://app?vid=7c473840-22b7-4574-9a0e-2c0d8460c9f6","ios":"levelo://app?vid=7c473840-22b7-4574-9a0e-2c0d8460c9f6"},"vehicle_type_id":"4","last_reported":1731600724,"current_range_meters":38800,"station_id":"ce4bhl92rcd13ifvqghg","pricing_plan_id":"cebpf4jnsgd1na2vs0mg"},{"bike_id":"07a4be1c-5cf0-4f3e-8c27-4c3e24078daa","system_id":"levelo_inurba_marseille","lat":43.24818,"lon":5.37465,"is_reserved":false,"is_disabled":false,"rental_uris":{"android":"levelo://app?vid=07a4be1c-5cf0-4f3e-8c27-4c3e24078daa","ios":"levelo://app?vid=07a4be1c-5cf0-4f3e-8c27-4c3e24078daa"},"vehicle_type_id":"4","last_reported":1731600724,"current_range_meters":38000,"station_id":"ce4bhgh2rcd13ifvqfb0","pricing_plan_id":"cebpf4jnsgd1na2vs0mg"},{"bike_id":"f5d1f9a8-dee4-4b92-8a8e-3b784768392f","system_id":"levelo_inurba_marseille","lat":43.31709,"lon":5.4371,"is_reserved":false,"is_disabled":false,"rental_uris":{"android":"levelo://app?vid=f5d1f9a8-dee4-4b92-8a8e-3b784768392f","ios":"levelo://app?vid=f5d1f9a8-dee4-4b92-8a8e-3b784768392f"},"vehicle_type_id":"4","last_reported":1731600724,"current_range_meters":19200,"station_id":"ce4bhp92rcd13ifvqhcg","pricing_plan_id":"cebpf4jnsgd1na2vs0mg"},{"bike_id":"92105ee8-3251-4c21-84cf-a07b91471c12","system_id":"levelo_inurba_marseille","lat":43.29719,"lon":5.36622,"is_reserved":false,"is_disabled":false,"rental_uris":{"android":"levelo://app?vid=92105ee8-3251-4c21-84cf-a07b91471c12","ios":"levelo://app?vid=92105ee8-3251-4c21-84cf-a07b91471c12"},"vehicle_type_id":"4","last_reported":1731600724,"current_range_meters":10800,"station_id":"ce4bgn12rcd13ifvqbt0","pricing_plan_id":"cebpf4jnsgd1na2vs0mg"},{"bike_id":"805aef12-8df9-4428-9e6a-7c9b8dcc8c7b","system_id":"levelo_inurba_marseille","lat":43.25085,"lon":5.39524,"is_reserved":false,"is_disabled":false,"rental_uris":{"android":"levelo://app?vid=805aef12-8df9-4428-9e6a-7c9b8dcc8c7b","ios":"levelo://app?vid=805aef12-8df9-4428-9e6a-7c9b8dcc8c7b"},"vehicle_type_id":"4","last_reported":1731600724,"current_range_meters":24400,"station_id":"ce4bhm12rcd13ifvqgkg","pricing_plan_id":"cebpf4jnsgd1na2vs0mg"},{"bike_id":"364a3e51-c429-496f-b185-3a9a6cbb2f33","system_id":"levelo_inurba_marseille","lat":43.30932,"lon":5.40146,"is_reserved":false,"is_disabled":false,"rental_uris":{"android":"levelo://app?vid=364a3e51-c429-496f-b185-3a9a6cbb2f33","ios":"levelo://app?vid=364a3e51-c429-496f-b185-3a9a6cbb2f33"},"vehicle_type_id":"4","last_reported":1731600724,"current_range_meters":34800,"station_id":"ce4bgvp2rcd13ifvqct0","pricing_plan_id":"cebpf4jnsgd1na2vs0mg"},{"bike_id":"b8578e77-81ca-4099-9c8a-4999e074d0a4","system_id":"levelo_inurba_marseille","lat":43.29961,"lon":5.37166,"is_reserved":false,"is_disabled":false,"rental_uris":{"android":"levelo://app?vid=b8578e77-81ca-4099-9c8a-4999e074d0a4","ios":"levelo://app?vid=b8578e77-81ca-4099-9c8a-4999e074d0a4"},"vehicle_type_id":"4","last_reported":1731600724,"current_range_meters":20400,"station_id":"ce4bgr92rcd13ifvqc7g","pricing_plan_id":"cebpf4jnsgd1na2vs0mg"},{"bike_id":"a6b8c285-acc9-4039-9531-1aae39136a33","system_id":"levelo_inurba_marseille","lat":43.312042,"lon":5.367348,"is_reserved":false,"is_disabled":false,"rental_uris":{"android":"levelo://app?vid=a6b8c285-acc9-4039-9531-1aae39136a33","ios":"levelo://app?vid=a6b8c285-acc9-4039-9531-1aae39136a33"},"vehicle_type_id":"4","last_reported":1731600724,"current_range_meters":23200,"station_id":"","pricing_plan_id":"cebpf4jnsgd1na2vs0mg"},{"bike_id":"47921f34-00c8-4dfa-81d3-f6ccbc96affc","system_id":"levelo_inurba_marseille","lat":43.298859,"lon":5.389176,"is_reserved":false,"is_disabled":false,"rental_uris":{"android":"levelo://app?vid=47921f34-00c8-4dfa-81d3-f6ccbc96affc","ios":"levelo://app?vid=47921f34-00c8-4dfa-81d3-f6ccbc96affc"},"vehicle_type_id":"4","last_reported":1731600724,"current_range_meters":26800,"station_id":"ce4bh312rcd13ifvqdk0","pricing_plan_id":"cebpf4jnsgd1na2vs0mg"},{"bike_id":"12153399-affb-4792-941a-1804af21fa79","system_id":"levelo_inurba_marseille","lat":43.29767,"lon":5.37112,"is_reserved":false,"is_disabled":false,"rental_uris":{"android":"levelo://app?vid=12153399-affb-4792-941a-1804af21fa79","ios":"levelo://app?vid=12153399-affb-4792-941a-1804af21fa79"},"vehicle_type_id":"4","last_reported":1731600724,"current_range_meters":39200,"station_id":"ce4bgop2rcd13ifvqc1g","pricing_plan_id":"cebpf4jnsgd1na2vs0mg"},{"bike_id":"b85e2758-34f8-4fe9-a03c-9a483eadd874","system_id":"levelo_inurba_marseille","lat":43.30653,"lon":5.40106,"is_reserved":false,"is_disabled":false,"rental_uris":{"android":"levelo://app?vid=b85e2758-34f8-4fe9-a03c-9a483eadd874","ios":"levelo://app?vid=b85e2758-34f8-4fe9-a03c-9a483eadd874"},"vehicle_type_id":"4","last_reported":1731600724,"current_range_meters":14800,"station_id":"ce4bh112rcd13ifvqda0","pricing_plan_id":"cebpf4jnsgd1na2vs0mg"},{"bike_id":"4989e54b-66aa-4b28-87d0-766456e94de4","system_id":"levelo_inurba_marseille","lat":43.291565,"lon":5.382977,"is_reserved":false,"is_disabled":false,"rental_uris":{"android":"levelo://app?vid=4989e54b-66aa-4b28-87d0-766456e94de4","ios":"levelo://app?vid=4989e54b-66aa-4b28-87d0-766456e94de4"},"vehicle_type_id":"4","last_reported":1731600724,"current_range_meters":8800,"station_id":"ce4bgv12rcd13ifvqcp0","pricing_plan_id":"cebpf4jnsgd1na2vs0mg"},{"bike_id":"30579d2d-afec-421e-bd07-fe577ab81dba","system_id":"levelo_inurba_marseille","lat":43.337444,"lon":5.374475,"is_reserved":false,"is_disabled":false,"rental_uris":{"android":"levelo://app?vid=30579d2d-afec-421e-bd07-fe577ab81dba","ios":"levelo://app?vid=30579d2d-afec-421e-bd07-fe577ab81dba"},"vehicle_type_id":"4","last_reported":1731600724,"current_range_meters":34800,"station_id":"","pricing_plan_id":"cebpf4jnsgd1na2vs0mg"},{"bike_id":"2f594272-8d2c-4ec7-b16f-236e8107ba58","system_id":"levelo_inurba_marseille","lat":43.24166,"lon":5.36393,"is_reserved":false,"is_disabled":false,"rental_uris":{"android":"levelo://app?vid=2f594272-8d2c-4ec7-b16f-236e8107ba58","ios":"levelo://app?vid=2f594272-8d2c-4ec7-b16f-236e8107ba58"},"vehicle_type_id":"4","last_reported":1731600724,"current_range_meters":20800,"station_id":"cpo36qri1sfpv3e86is0","pricing_plan_id":"cebpf4jnsgd1na2vs0mg"},{"bike_id":"a5cdcb05-7a55-4b6d-ab0b-73b101d8d645","system_id":"levelo_inurba_marseille","lat":43.29207,"lon":5.39327,"is_reserved":false,"is_disabled":false,"rental_uris":{"android":"levelo://app?vid=a5cdcb05-7a55-4b6d-ab0b-73b101d8d645","ios":"levelo://app?vid=a5cdcb05-7a55-4b6d-ab0b-73b101d8d645"},"vehicle_type_id":"4","last_reported":1731600724,"current_range_meters":16800,"station_id":"ce4bh192rcd13ifvqdd0","pricing_plan_id":"cebpf4jnsgd1na2vs0mg"},{"bike_id":"0adbe115-1e2e-4f19-aaa6-64977261b7d0","system_id":"levelo_inurba_marseille","lat":43.33748,"lon":5.3748,"is_reserved":false,"is_disabled":false,"rental_uris":{"android":"levelo://app?vid=0adbe115-1e2e-4f19-aaa6-64977261b7d0","ios":"levelo://app?vid=0adbe115-1e2e-4f19-aaa6-64977261b7d0"},"vehicle_type_id":"4","last_reported":1731600724,"current_range_meters":33200,"station_id":"","pricing_plan_id":"cebpf4jnsgd1na2vs0mg"},{"bike_id":"d90b63c1-fb2f-4dc4-b0c5-6e6cf9107d93","system_id":"levelo_inurba_marseille","lat":43.30647,"lon":5.40085,"is_reserved":false,"is_disabled":false,"rental_uris":{"android":"levelo://app?vid=d90b63c1-fb2f-4dc4-b0c5-6e6cf9107d93","ios":"levelo://app?vid=d90b63c1-fb2f-4dc4-b0c5-6e6cf9107d93"},"vehicle_type_id":"4","last_reported":1731600724,"current_range_meters":36800,"station_id":"ce4bh112rcd13ifvqda0","pricing_plan_id":"cebpf4jnsgd1na2vs0mg"},{"bike_id":"92ac4858-87d6-4ceb-8f6e-004635a816a8","system_id":"levelo_inurba_marseille","lat":43.27789,"lon":5.40737,"is_reserved":false,"is_disabled":false,"rental_uris":{"android":"levelo://app?vid=92ac4858-87d6-4ceb-8f6e-004635a816a8","ios":"levelo://app?vid=92ac4858-87d6-4ceb-8f6e-004635a816a8"},"vehicle_type_id":"4","last_reported":1731600724,"current_range_meters":38800,"station_id":"ce4bhnh2rcd13ifvqgtg","pricing_plan_id":"cebpf4jnsgd1na2vs0mg"},{"bike_id":"7c76a875-124b-4ce1-820e-22e76d43affb","system_id":"levelo_inurba_marseille","lat":43.28422,"lon":5.34998,"is_reserved":false,"is_disabled":false,"rental_uris":{"android":"levelo://app?vid=7c76a875-124b-4ce1-820e-22e76d43affb","ios":"levelo://app?vid=7c76a875-124b-4ce1-820e-22e76d43affb"},"vehicle_type_id":"4","last_reported":1731600724,"current_range_meters":30400,"station_id":"ce4bhbh2rcd13ifvqepg","pricing_plan_id":"cebpf4jnsgd1na2vs0mg"},{"bike_id":"96580690-3f2b-42f2-a59f-c350b41c5f75","system_id":"levelo_inurba_marseille","lat":43.26196,"lon":5.37936,"is_reserved":false,"is_disabled":false,"rental_uris":{"android":"levelo://app?vid=96580690-3f2b-42f2-a59f-c350b41c5f75","ios":"levelo://app?vid=96580690-3f2b-42f2-a59f-c350b41c5f75"},"vehicle_type_id":"4","last_reported":1731600724,"current_range_meters":32000,"station_id":"ce4bhjp2rcd13ifvqg90","pricing_plan_id":"cebpf4jnsgd1na2vs0mg"},{"bike_id":"1bda1f07-b7d4-4dea-acbc-bba7a290c9cc","system_id":"levelo_inurba_marseille","lat":43.2985,"lon":5.36281,"is_reserved":false,"is_disabled":false,"rental_uris":{"android":"levelo://app?vid=1bda1f07-b7d4-4dea-acbc-bba7a290c9cc","ios":"levelo://app?vid=1bda1f07-b7d4-4dea-acbc-bba7a290c9cc"},"vehicle_type_id":"4","last_reported":1731600724,"current_range_meters":32000,"station_id":"ce4bgpp2rcd13ifvqc3g","pricing_plan_id":"cebpf4jnsgd1na2vs0mg"},{"bike_id":"f8b117cb-a9f2-40c2-a899-6e4e8ea5b2d9","system_id":"levelo_inurba_marseille","lat":43.28619,"lon":5.35108,"is_reserved":false,"is_disabled":false,"rental_uris":{"android":"levelo://app?vid=f8b117cb-a9f2-40c2-a899-6e4e8ea5b2d9","ios":"levelo://app?vid=f8b117cb-a9f2-40c2-a899-6e4e8ea5b2d9"},"vehicle_type_id":"4","last_reported":1731600724,"current_range_meters":24800,"station_id":"ce4bhch2rcd13ifvqeug","pricing_plan_id":"cebpf4jnsgd1na2vs0mg"},{"bike_id":"9bcfd93a-6161-4fca-ac69-4c7ed3a1542e","system_id":"levelo_inurba_marseille","lat":43.31334,"lon":5.397,"is_reserved":false,"is_disabled":false,"rental_uris":{"android":"levelo://app?vid=9bcfd93a-6161-4fca-ac69-4c7ed3a1542e","ios":"levelo://app?vid=9bcfd93a-6161-4fca-ac69-4c7ed3a1542e"},"vehicle_type_id":"4","last_reported":1731600724,"current_range_meters":36000,"station_id":"ce4bgvp2rcd13ifvqcu0","pricing_plan_id":"cebpf4jnsgd1na2vs0mg"},{"bike_id":"69f9b38d-3ad5-42d8-8371-16594a68671f","system_id":"levelo_inurba_marseille","lat":43.292823,"lon":5.401155,"is_reserved":false,"is_disabled":false,"rental_uris":{"android":"levelo://app?vid=69f9b38d-3ad5-42d8-8371-16594a68671f","ios":"levelo://app?vid=69f9b38d-3ad5-42d8-8371-16594a68671f"},"vehicle_type_id":"4","last_reported":1731600724,"current_range_meters":35600,"station_id":"ce4bh312rcd13ifvqdk0","pricing_plan_id":"cebpf4jnsgd1na2vs0mg"},{"bike_id":"fbcf3c4a-d774-4942-b41d-8640c39035f5","system_id":"levelo_inurba_marseille","lat":43.26195,"lon":5.37925,"is_reserved":false,"is_disabled":false,"rental_uris":{"android":"levelo://app?vid=fbcf3c4a-d774-4942-b41d-8640c39035f5","ios":"levelo://app?vid=fbcf3c4a-d774-4942-b41d-8640c39035f5"},"vehicle_type_id":"4","last_reported":1731600724,"current_range_meters":38800,"station_id":"ce4bhjp2rcd13ifvqg90","pricing_plan_id":"cebpf4jnsgd1na2vs0mg"},{"bike_id":"0f433459-e074-4293-bfa5-3b5b113abeb1","system_id":"levelo_inurba_marseille","lat":43.33727,"lon":5.39188,"is_reserved":false,"is_disabled":false,"rental_uris":{"android":"levelo://app?vid=0f433459-e074-4293-bfa5-3b5b113abeb1","ios":"levelo://app?vid=0f433459-e074-4293-bfa5-3b5b113abeb1"},"vehicle_type_id":"4","last_reported":1731600724,"current_range_meters":38800,"station_id":"ce4bhr92rcd13ifvqhsg","pricing_plan_id":"cebpf4jnsgd1na2vs0mg"},{"bike_id":"b6bca026-1efe-4754-928d-9042ba992b22","system_id":"levelo_inurba_marseille","lat":43.28427,"lon":5.35001,"is_reserved":false,"is_disabled":false,"rental_uris":{"android":"levelo://app?vid=b6bca026-1efe-4754-928d-9042ba992b22","ios":"levelo://app?vid=b6bca026-1efe-4754-928d-9042ba992b22"},"vehicle_type_id":"4","last_reported":1731600724,"current_range_meters":36400,"station_id":"ce4bhbh2rcd13ifvqepg","pricing_plan_id":"cebpf4jnsgd1na2vs0mg"},{"bike_id":"ed5c2c20-724b-499a-9e0c-9babe0ad9c1d","system_id":"levelo_inurba_marseille","lat":43.31993,"lon":5.38173,"is_reserved":false,"is_disabled":false,"rental_uris":{"android":"levelo://app?vid=ed5c2c20-724b-499a-9e0c-9babe0ad9c1d","ios":"levelo://app?vid=ed5c2c20-724b-499a-9e0c-9babe0ad9c1d"},"vehicle_type_id":"4","last_reported":1731600724,"current_range_meters":38800,"station_id":"ce4bhr12rcd13ifvqhpg","pricing_plan_id":"cebpf4jnsgd1na2vs0mg"},{"bike_id":"db41e345-d82f-47a5-986c-e103f77ed184","system_id":"levelo_inurba_marseille","lat":43.29969,"lon":5.37173,"is_reserved":false,"is_disabled":false,"rental_uris":{"android":"levelo://app?vid=db41e345-d82f-47a5-986c-e103f77ed184","ios":"levelo://app?vid=db41e345-d82f-47a5-986c-e103f77ed184"},"vehicle_type_id":"4","last_reported":1731600724,"current_range_meters":9200,"station_id":"ce4bgr92rcd13ifvqc7g","pricing_plan_id":"cebpf4jnsgd1na2vs0mg"},{"bike_id":"6aedef21-ed16-4e31-9f3f-248577ad1205","system_id":"levelo_inurba_marseille","lat":43.3079,"lon":5.37654,"is_reserved":false,"is_disabled":false,"rental_uris":{"android":"levelo://app?vid=6aedef21-ed16-4e31-9f3f-248577ad1205","ios":"levelo://app?vid=6aedef21-ed16-4e31-9f3f-248577ad1205"},"vehicle_type_id":"4","last_reported":1731600724,"current_range_meters":20800,"station_id":"ce4bgv92rcd13ifvqcq0","pricing_plan_id":"cebpf4jnsgd1na2vs0mg"},{"bike_id":"2260b08b-e51a-4f71-aab9-a20c91cd8504","system_id":"levelo_inurba_marseille","lat":43.2738,"lon":5.36272,"is_reserved":false,"is_disabled":false,"rental_uris":{"android":"levelo://app?vid=2260b08b-e51a-4f71-aab9-a20c91cd8504","ios":"levelo://app?vid=2260b08b-e51a-4f71-aab9-a20c91cd8504"},"vehicle_type_id":"4","last_reported":1731600724,"current_range_meters":38800,"station_id":"ce4bhbh2rcd13ifvqeo0","pricing_plan_id":"cebpf4jnsgd1na2vs0mg"},{"bike_id":"b448c76e-6a85-4e4e-8af8-7d9249501502","system_id":"levelo_inurba_marseille","lat":43.337444,"lon":5.374475,"is_reserved":false,"is_disabled":false,"rental_uris":{"android":"levelo://app?vid=b448c76e-6a85-4e4e-8af8-7d9249501502","ios":"levelo://app?vid=b448c76e-6a85-4e4e-8af8-7d9249501502"},"vehicle_type_id":"4","last_reported":1731600724,"current_range_meters":32400,"station_id":"","pricing_plan_id":"cebpf4jnsgd1na2vs0mg"},{"bike_id":"27180a1a-1e8e-44cf-be67-76727484dd68","system_id":"levelo_inurba_marseille","lat":43.32354,"lon":5.38887,"is_reserved":false,"is_disabled":false,"rental_uris":{"android":"levelo://app?vid=27180a1a-1e8e-44cf-be67-76727484dd68","ios":"levelo://app?vid=27180a1a-1e8e-44cf-be67-76727484dd68"},"vehicle_type_id":"4","last_reported":1731600724,"current_range_meters":38800,"station_id":"ce4bhqp2rcd13ifvqhog","pricing_plan_id":"cebpf4jnsgd1na2vs0mg"},{"bike_id":"6f271b2d-98c5-4d3a-a9f9-a71fd4e99476","system_id":"levelo_inurba_marseille","lat":43.260999,"lon":5.375087,"is_reserved":false,"is_disabled":false,"rental_uris":{"android":"levelo://app?vid=6f271b2d-98c5-4d3a-a9f9-a71fd4e99476","ios":"levelo://app?vid=6f271b2d-98c5-4d3a-a9f9-a71fd4e99476"},"vehicle_type_id":"4","last_reported":1731600724,"current_range_meters":14800,"station_id":"ce4bho92rcd13ifvqh4g","pricing_plan_id":"cebpf4jnsgd1na2vs0mg"},{"bike_id":"5e76ea6b-8929-47f1-b6b5-b7445e2b25a2","system_id":"levelo_inurba_marseille","lat":43.31494,"lon":5.37308,"is_reserved":false,"is_disabled":false,"rental_uris":{"android":"levelo://app?vid=5e76ea6b-8929-47f1-b6b5-b7445e2b25a2","ios":"levelo://app?vid=5e76ea6b-8929-47f1-b6b5-b7445e2b25a2"},"vehicle_type_id":"4","last_reported":1731600724,"current_range_meters":23200,"station_id":"ce4bgt12rcd13ifvqcd0","pricing_plan_id":"cebpf4jnsgd1na2vs0mg"},{"bike_id":"278733e2-8687-49b6-8768-d51b8ee6e84e","system_id":"levelo_inurba_marseille","lat":43.27074,"lon":5.42284,"is_reserved":false,"is_disabled":false,"rental_uris":{"android":"levelo://app?vid=278733e2-8687-49b6-8768-d51b8ee6e84e","ios":"levelo://app?vid=278733e2-8687-49b6-8768-d51b8ee6e84e"},"vehicle_type_id":"4","last_reported":1731600724,"current_range_meters":5600,"station_id":"ce4bhk92rcd13ifvqgb0","pricing_plan_id":"cebpf4jnsgd1na2vs0mg"},{"bike_id":"f1c99675-2c49-4289-80f0-32bfbceff089","system_id":"levelo_inurba_marseille","lat":43.29568,"lon":5.37518,"is_reserved":false,"is_disabled":false,"rental_uris":{"android":"levelo://app?vid=f1c99675-2c49-4289-80f0-32bfbceff089","ios":"levelo://app?vid=f1c99675-2c49-4289-80f0-32bfbceff089"},"vehicle_type_id":"4","last_reported":1731600724,"current_range_meters":16800,"station_id":"ce4bgh92rcd13ifvqb50","pricing_plan_id":"cebpf4jnsgd1na2vs0mg"},{"bike_id":"d262577e-2799-4e37-955b-fb9a56dace09","system_id":"levelo_inurba_marseille","lat":43.3133,"lon":5.39692,"is_reserved":false,"is_disabled":false,"rental_uris":{"android":"levelo://app?vid=d262577e-2799-4e37-955b-fb9a56dace09","ios":"levelo://app?vid=d262577e-2799-4e37-955b-fb9a56dace09"},"vehicle_type_id":"4","last_reported":1731600724,"current_range_meters":38000,"station_id":"ce4bgvp2rcd13ifvqcu0","pricing_plan_id":"cebpf4jnsgd1na2vs0mg"},{"bike_id":"414dea06-0073-498d-8e43-6a1238984f59","system_id":"levelo_inurba_marseille","lat":43.337444,"lon":5.374475,"is_reserved":false,"is_disabled":false,"rental_uris":{"android":"levelo://app?vid=414dea06-0073-498d-8e43-6a1238984f59","ios":"levelo://app?vid=414dea06-0073-498d-8e43-6a1238984f59"},"vehicle_type_id":"4","last_reported":1731600724,"current_range_meters":34800,"station_id":"","pricing_plan_id":"cebpf4jnsgd1na2vs0mg"},{"bike_id":"784c32a1-e293-4f83-9cdd-3531ee0a0bfe","system_id":"levelo_inurba_marseille","lat":43.2985,"lon":5.36291,"is_reserved":false,"is_disabled":false,"rental_uris":{"android":"levelo://app?vid=784c32a1-e293-4f83-9cdd-3531ee0a0bfe","ios":"levelo://app?vid=784c32a1-e293-4f83-9cdd-3531ee0a0bfe"},"vehicle_type_id":"4","last_reported":1731600724,"current_range_meters":38800,"station_id":"ce4bgpp2rcd13ifvqc3g","pricing_plan_id":"cebpf4jnsgd1na2vs0mg"},{"bike_id":"1ab4ca46-89d8-4a5e-8e0d-668da77398dd","system_id":"levelo_inurba_marseille","lat":43.273237,"lon":5.39087,"is_reserved":false,"is_disabled":false,"rental_uris":{"android":"levelo://app?vid=1ab4ca46-89d8-4a5e-8e0d-668da77398dd","ios":"levelo://app?vid=1ab4ca46-89d8-4a5e-8e0d-668da77398dd"},"vehicle_type_id":"4","last_reported":1731600724,"current_range_meters":2000,"station_id":"ce4bhgp2rcd13ifvqfe0","pricing_plan_id":"cebpf4jnsgd1na2vs0mg"},{"bike_id":"5bf307d4-4858-4422-af2b-3408af2082f7","system_id":"levelo_inurba_marseille","lat":43.29576,"lon":5.37512,"is_reserved":false,"is_disabled":false,"rental_uris":{"android":"levelo://app?vid=5bf307d4-4858-4422-af2b-3408af2082f7","ios":"levelo://app?vid=5bf307d4-4858-4422-af2b-3408af2082f7"},"vehicle_type_id":"4","last_reported":1731600724,"current_range_meters":36000,"station_id":"ce4bgh92rcd13ifvqb50","pricing_plan_id":"cebpf4jnsgd1na2vs0mg"},{"bike_id":"b613702c-21b0-4c7d-8000-0fe3d104d85f","system_id":"levelo_inurba_marseille","lat":43.337444,"lon":5.374475,"is_reserved":false,"is_disabled":false,"rental_uris":{"android":"levelo://app?vid=b613702c-21b0-4c7d-8000-0fe3d104d85f","ios":"levelo://app?vid=b613702c-21b0-4c7d-8000-0fe3d104d85f"},"vehicle_type_id":"4","last_reported":1731600724,"current_range_meters":36000,"station_id":"","pricing_plan_id":"cebpf4jnsgd1na2vs0mg"},{"bike_id":"71675479-65a3-432e-900f-c13f815182ff","system_id":"levelo_inurba_marseille","lat":43.29657,"lon":5.40621,"is_reserved":false,"is_disabled":false,"rental_uris":{"android":"levelo://app?vid=71675479-65a3-432e-900f-c13f815182ff","ios":"levelo://app?vid=71675479-65a3-432e-900f-c13f815182ff"},"vehicle_type_id":"4","last_reported":1731600724,"current_range_meters":16800,"station_id":"ce4bh0h2rcd13ifvqd60","pricing_plan_id":"cebpf4jnsgd1na2vs0mg"},{"bike_id":"d016a293-647b-4a56-9e6a-a54a6a310cdd","system_id":"levelo_inurba_marseille","lat":43.337444,"lon":5.374475,"is_reserved":false,"is_disabled":false,"rental_uris":{"android":"levelo://app?vid=d016a293-647b-4a56-9e6a-a54a6a310cdd","ios":"levelo://app?vid=d016a293-647b-4a56-9e6a-a54a6a310cdd"},"vehicle_type_id":"4","last_reported":1731600724,"current_range_meters":36800,"station_id":"","pricing_plan_id":"cebpf4jnsgd1na2vs0mg"},{"bike_id":"bf8877aa-4e3b-4217-ae53-5d8001def350","system_id":"levelo_inurba_marseille","lat":43.3248,"lon":5.36566,"is_reserved":false,"is_disabled":false,"rental_uris":{"android":"levelo://app?vid=bf8877aa-4e3b-4217-ae53-5d8001def350","ios":"levelo://app?vid=bf8877aa-4e3b-4217-ae53-5d8001def350"},"vehicle_type_id":"4","last_reported":1731600724,"current_range_meters":20000,"station_id":"ce4bhs12rcd13ifvqhvg","pricing_plan_id":"cebpf4jnsgd1na2vs0mg"},{"bike_id":"67490669-2103-4321-b491-4abd147f964e","system_id":"levelo_inurba_marseille","lat":43.28151,"lon":5.42653,"is_reserved":false,"is_disabled":false,"rental_uris":{"android":"levelo://app?vid=67490669-2103-4321-b491-4abd147f964e","ios":"levelo://app?vid=67490669-2103-4321-b491-4abd147f964e"},"vehicle_type_id":"4","last_reported":1731600724,"current_range_meters":9200,"station_id":"ce4bhnh2rcd13ifvqgug","pricing_plan_id":"cebpf4jnsgd1na2vs0mg"},{"bike_id":"51dfc62a-c40c-4a49-aacb-cdbfb4131a6b","system_id":"levelo_inurba_marseille","lat":43.29649,"lon":5.37648,"is_reserved":false,"is_disabled":false,"rental_uris":{"android":"levelo://app?vid=51dfc62a-c40c-4a49-aacb-cdbfb4131a6b","ios":"levelo://app?vid=51dfc62a-c40c-4a49-aacb-cdbfb4131a6b"},"vehicle_type_id":"4","last_reported":1731600724,"current_range_meters":20800,"station_id":"","pricing_plan_id":"cebpf4jnsgd1na2vs0mg"},{"bike_id":"a76b863f-9834-4d26-be94-f421ea17d585","system_id":"levelo_inurba_marseille","lat":43.2587,"lon":5.39899,"is_reserved":false,"is_disabled":false,"rental_uris":{"android":"levelo://app?vid=a76b863f-9834-4d26-be94-f421ea17d585","ios":"levelo://app?vid=a76b863f-9834-4d26-be94-f421ea17d585"},"vehicle_type_id":"4","last_reported":1731600724,"current_range_meters":39200,"station_id":"ce4bhl92rcd13ifvqghg","pricing_plan_id":"cebpf4jnsgd1na2vs0mg"},{"bike_id":"38c21ad1-31ab-44e7-aac0-60ca961933b4","system_id":"levelo_inurba_marseille","lat":43.30396,"lon":5.42784,"is_reserved":false,"is_disabled":false,"rental_uris":{"android":"levelo://app?vid=38c21ad1-31ab-44e7-aac0-60ca961933b4","ios":"levelo://app?vid=38c21ad1-31ab-44e7-aac0-60ca961933b4"},"vehicle_type_id":"4","last_reported":1731600724,"current_range_meters":10800,"station_id":"ce4bhp12rcd13ifvqh9g","pricing_plan_id":"cebpf4jnsgd1na2vs0mg"},{"bike_id":"9d594b81-6d70-4738-a736-9fd38e9ad548","system_id":"levelo_inurba_marseille","lat":43.29555,"lon":5.42295,"is_reserved":false,"is_disabled":false,"rental_uris":{"android":"levelo://app?vid=9d594b81-6d70-4738-a736-9fd38e9ad548","ios":"levelo://app?vid=9d594b81-6d70-4738-a736-9fd38e9ad548"},"vehicle_type_id":"4","last_reported":1731600724,"current_range_meters":22400,"station_id":"ce4bhph2rcd13ifvqhdg","pricing_plan_id":"cebpf4jnsgd1na2vs0mg"},{"bike_id":"9e063b5c-2dc4-4287-94ca-34bdf39f31ac","system_id":"levelo_inurba_marseille","lat":43.31617,"lon":5.36898,"is_reserved":false,"is_disabled":false,"rental_uris":{"android":"levelo://app?vid=9e063b5c-2dc4-4287-94ca-34bdf39f31ac","ios":"levelo://app?vid=9e063b5c-2dc4-4287-94ca-34bdf39f31ac"},"vehicle_type_id":"4","last_reported":1731600724,"current_range_meters":38000,"station_id":"ce4bgkh2rcd13ifvqbl0","pricing_plan_id":"cebpf4jnsgd1na2vs0mg"},{"bike_id":"346f3491-8b9f-4fcd-99cb-14459b30ea8e","system_id":"levelo_inurba_marseille","lat":43.292593,"lon":5.38443,"is_reserved":false,"is_disabled":false,"rental_uris":{"android":"levelo://app?vid=346f3491-8b9f-4fcd-99cb-14459b30ea8e","ios":"levelo://app?vid=346f3491-8b9f-4fcd-99cb-14459b30ea8e"},"vehicle_type_id":"4","last_reported":1731600724,"current_range_meters":12000,"station_id":"ce4bh692rcd13ifvqea0","pricing_plan_id":"cebpf4jnsgd1na2vs0mg"},{"bike_id":"2873b09d-6fee-4a49-b0c1-41e546e4cbab","system_id":"levelo_inurba_marseille","lat":43.307996,"lon":5.381639,"is_reserved":false,"is_disabled":false,"rental_uris":{"android":"levelo://app?vid=2873b09d-6fee-4a49-b0c1-41e546e4cbab","ios":"levelo://app?vid=2873b09d-6fee-4a49-b0c1-41e546e4cbab"},"vehicle_type_id":"4","last_reported":1731600724,"current_range_meters":0,"station_id":"ce4bgt12rcd13ifvqce0","pricing_plan_id":"cebpf4jnsgd1na2vs0mg"},{"bike_id":"711c5d8a-4b5b-411c-9636-440ba333bcfd","system_id":"levelo_inurba_marseille","lat":43.31168,"lon":5.38721,"is_reserved":false,"is_disabled":false,"rental_uris":{"android":"levelo://app?vid=711c5d8a-4b5b-411c-9636-440ba333bcfd","ios":"levelo://app?vid=711c5d8a-4b5b-411c-9636-440ba333bcfd"},"vehicle_type_id":"4","last_reported":1731600724,"current_range_meters":30800,"station_id":"ce4bgv12rcd13ifvqcp0","pricing_plan_id":"cebpf4jnsgd1na2vs0mg"},{"bike_id":"4339e395-c01a-433c-a054-7238009dc025","system_id":"levelo_inurba_marseille","lat":43.25004,"lon":5.38934,"is_reserved":false,"is_disabled":false,"rental_uris":{"android":"levelo://app?vid=4339e395-c01a-433c-a054-7238009dc025","ios":"levelo://app?vid=4339e395-c01a-433c-a054-7238009dc025"},"vehicle_type_id":"4","last_reported":1731600724,"current_range_meters":19200,"station_id":"ce4bhgp2rcd13ifvqfd0","pricing_plan_id":"cebpf4jnsgd1na2vs0mg"},{"bike_id":"588d2962-d319-46f0-8ea6-055d7df41d63","system_id":"levelo_inurba_marseille","lat":43.30649,"lon":5.4008,"is_reserved":false,"is_disabled":false,"rental_uris":{"android":"levelo://app?vid=588d2962-d319-46f0-8ea6-055d7df41d63","ios":"levelo://app?vid=588d2962-d319-46f0-8ea6-055d7df41d63"},"vehicle_type_id":"4","last_reported":1731600724,"current_range_meters":39200,"station_id":"ce4bh112rcd13ifvqda0","pricing_plan_id":"cebpf4jnsgd1na2vs0mg"},{"bike_id":"e43f30db-eac4-444e-97a3-d723978f1748","system_id":"levelo_inurba_marseille","lat":43.30135,"lon":5.3879,"is_reserved":false,"is_disabled":false,"rental_uris":{"android":"levelo://app?vid=e43f30db-eac4-444e-97a3-d723978f1748","ios":"levelo://app?vid=e43f30db-eac4-444e-97a3-d723978f1748"},"vehicle_type_id":"4","last_reported":1731600724,"current_range_meters":28400,"station_id":"ce4bghh2rcd13ifvqb60","pricing_plan_id":"cebpf4jnsgd1na2vs0mg"},{"bike_id":"fbc21456-51cf-4582-8707-874e259712d9","system_id":"levelo_inurba_marseille","lat":43.29525,"lon":5.38547,"is_reserved":false,"is_disabled":false,"rental_uris":{"android":"levelo://app?vid=fbc21456-51cf-4582-8707-874e259712d9","ios":"levelo://app?vid=fbc21456-51cf-4582-8707-874e259712d9"},"vehicle_type_id":"4","last_reported":1731600724,"current_range_meters":30000,"station_id":"ce4bgih2rcd13ifvqba0","pricing_plan_id":"cebpf4jnsgd1na2vs0mg"},{"bike_id":"867f8e24-0b78-4fa8-b858-44c8f50814ec","system_id":"levelo_inurba_marseille","lat":43.29271,"lon":5.36843,"is_reserved":false,"is_disabled":false,"rental_uris":{"android":"levelo://app?vid=867f8e24-0b78-4fa8-b858-44c8f50814ec","ios":"levelo://app?vid=867f8e24-0b78-4fa8-b858-44c8f50814ec"},"vehicle_type_id":"4","last_reported":1731600724,"current_range_meters":28000,"station_id":"ce4bhbp2rcd13ifvqesg","pricing_plan_id":"cebpf4jnsgd1na2vs0mg"},{"bike_id":"653ad339-5ed5-4b74-a326-3b5f1bd97bf6","system_id":"levelo_inurba_marseille","lat":43.323218,"lon":5.406295,"is_reserved":false,"is_disabled":false,"rental_uris":{"android":"levelo://app?vid=653ad339-5ed5-4b74-a326-3b5f1bd97bf6","ios":"levelo://app?vid=653ad339-5ed5-4b74-a326-3b5f1bd97bf6"},"vehicle_type_id":"4","last_reported":1731600724,"current_range_meters":39200,"station_id":"ce4bhq92rcd13ifvqhjg","pricing_plan_id":"cebpf4jnsgd1na2vs0mg"},{"bike_id":"0cad5a7d-5aed-4ec1-b410-637b567df6b8","system_id":"levelo_inurba_marseille","lat":43.33726,"lon":5.39192,"is_reserved":false,"is_disabled":false,"rental_uris":{"android":"levelo://app?vid=0cad5a7d-5aed-4ec1-b410-637b567df6b8","ios":"levelo://app?vid=0cad5a7d-5aed-4ec1-b410-637b567df6b8"},"vehicle_type_id":"4","last_reported":1731600724,"current_range_meters":8800,"station_id":"ce4bhr92rcd13ifvqhsg","pricing_plan_id":"cebpf4jnsgd1na2vs0mg"},{"bike_id":"f6ccec43-3e72-4225-a1e7-d05faee26b91","system_id":"levelo_inurba_marseille","lat":43.2417,"lon":5.36402,"is_reserved":false,"is_disabled":false,"rental_uris":{"android":"levelo://app?vid=f6ccec43-3e72-4225-a1e7-d05faee26b91","ios":"levelo://app?vid=f6ccec43-3e72-4225-a1e7-d05faee26b91"},"vehicle_type_id":"4","last_reported":1731600724,"current_range_meters":27600,"station_id":"cpo36qri1sfpv3e86is0","pricing_plan_id":"cebpf4jnsgd1na2vs0mg"},{"bike_id":"9a2a8f3e-abc5-425f-a3a6-279cf2747c5e","system_id":"levelo_inurba_marseille","lat":43.2962,"lon":5.37158,"is_reserved":false,"is_disabled":false,"rental_uris":{"android":"levelo://app?vid=9a2a8f3e-abc5-425f-a3a6-279cf2747c5e","ios":"levelo://app?vid=9a2a8f3e-abc5-425f-a3a6-279cf2747c5e"},"vehicle_type_id":"4","last_reported":1731600724,"current_range_meters":26000,"station_id":"ce4bgnh2rcd13ifvqc0g","pricing_plan_id":"cebpf4jnsgd1na2vs0mg"},{"bike_id":"14fdbe1e-933b-4dcc-a9a5-0645e7191f1a","system_id":"levelo_inurba_marseille","lat":43.30432,"lon":5.39757,"is_reserved":false,"is_disabled":false,"rental_uris":{"android":"levelo://app?vid=14fdbe1e-933b-4dcc-a9a5-0645e7191f1a","ios":"levelo://app?vid=14fdbe1e-933b-4dcc-a9a5-0645e7191f1a"},"vehicle_type_id":"4","last_reported":1731600724,"current_range_meters":30800,"station_id":"ce4bh092rcd13ifvqd20","pricing_plan_id":"cebpf4jnsgd1na2vs0mg"},{"bike_id":"d7098fe7-f5b3-4015-afaf-edcb26d669dc","system_id":"levelo_inurba_marseille","lat":43.32102,"lon":5.36776,"is_reserved":false,"is_disabled":false,"rental_uris":{"android":"levelo://app?vid=d7098fe7-f5b3-4015-afaf-edcb26d669dc","ios":"levelo://app?vid=d7098fe7-f5b3-4015-afaf-edcb26d669dc"},"vehicle_type_id":"4","last_reported":1731600724,"current_range_meters":36800,"station_id":"ce4bhrh2rcd13ifvqhug","pricing_plan_id":"cebpf4jnsgd1na2vs0mg"},{"bike_id":"52519200-9ffb-4289-a44d-986fbbe19179","system_id":"levelo_inurba_marseille","lat":43.28727,"lon":5.36097,"is_reserved":false,"is_disabled":false,"rental_uris":{"android":"levelo://app?vid=52519200-9ffb-4289-a44d-986fbbe19179","ios":"levelo://app?vid=52519200-9ffb-4289-a44d-986fbbe19179"},"vehicle_type_id":"4","last_reported":1731600724,"current_range_meters":33600,"station_id":"cki0cbj6b192h4jlfktg","pricing_plan_id":"cebpf4jnsgd1na2vs0mg"},{"bike_id":"433c5a1f-116a-48e5-bd4f-ba3034e2b38b","system_id":"levelo_inurba_marseille","lat":43.28617,"lon":5.35105,"is_reserved":false,"is_disabled":false,"rental_uris":{"android":"levelo://app?vid=433c5a1f-116a-48e5-bd4f-ba3034e2b38b","ios":"levelo://app?vid=433c5a1f-116a-48e5-bd4f-ba3034e2b38b"},"vehicle_type_id":"4","last_reported":1731600724,"current_range_meters":33600,"station_id":"ce4bhch2rcd13ifvqeug","pricing_plan_id":"cebpf4jnsgd1na2vs0mg"},{"bike_id":"87b5e3ed-add6-40ac-948c-740ba25eca80","system_id":"levelo_inurba_marseille","lat":43.294164,"lon":5.386313,"is_reserved":false,"is_disabled":false,"rental_uris":{"android":"levelo://app?vid=87b5e3ed-add6-40ac-948c-740ba25eca80","ios":"levelo://app?vid=87b5e3ed-add6-40ac-948c-740ba25eca80"},"vehicle_type_id":"4","last_reported":1731600724,"current_range_meters":23200,"station_id":"ce4bh2h2rcd13ifvqdh0","pricing_plan_id":"cebpf4jnsgd1na2vs0mg"},{"bike_id":"59996b99-d06b-4ff6-853d-58c7cd4553a7","system_id":"levelo_inurba_marseille","lat":43.337444,"lon":5.374475,"is_reserved":false,"is_disabled":false,"rental_uris":{"android":"levelo://app?vid=59996b99-d06b-4ff6-853d-58c7cd4553a7","ios":"levelo://app?vid=59996b99-d06b-4ff6-853d-58c7cd4553a7"},"vehicle_type_id":"4","last_reported":1731600724,"current_range_meters":37600,"station_id":"","pricing_plan_id":"cebpf4jnsgd1na2vs0mg"},{"bike_id":"a42afae6-7bce-49f3-90b2-7e7acf29f60b","system_id":"levelo_inurba_marseille","lat":43.299467,"lon":5.365463,"is_reserved":false,"is_disabled":false,"rental_uris":{"android":"levelo://app?vid=a42afae6-7bce-49f3-90b2-7e7acf29f60b","ios":"levelo://app?vid=a42afae6-7bce-49f3-90b2-7e7acf29f60b"},"vehicle_type_id":"4","last_reported":1731600724,"current_range_meters":28000,"station_id":"ce4bgm92rcd13ifvqbr0","pricing_plan_id":"cebpf4jnsgd1na2vs0mg"},{"bike_id":"7a852c01-7e21-4f49-a45d-60382e4601b8","system_id":"levelo_inurba_marseille","lat":43.33722,"lon":5.39185,"is_reserved":false,"is_disabled":false,"rental_uris":{"android":"levelo://app?vid=7a852c01-7e21-4f49-a45d-60382e4601b8","ios":"levelo://app?vid=7a852c01-7e21-4f49-a45d-60382e4601b8"},"vehicle_type_id":"4","last_reported":1731600724,"current_range_meters":39200,"station_id":"ce4bhr92rcd13ifvqhsg","pricing_plan_id":"cebpf4jnsgd1na2vs0mg"},{"bike_id":"93103263-cd1f-4c3f-baaa-5f2edf3215e7","system_id":"levelo_inurba_marseille","lat":43.30417,"lon":5.41286,"is_reserved":false,"is_disabled":false,"rental_uris":{"android":"levelo://app?vid=93103263-cd1f-4c3f-baaa-5f2edf3215e7","ios":"levelo://app?vid=93103263-cd1f-4c3f-baaa-5f2edf3215e7"},"vehicle_type_id":"4","last_reported":1731600724,"current_range_meters":27600,"station_id":"ce4bhop2rcd13ifvqh8g","pricing_plan_id":"cebpf4jnsgd1na2vs0mg"},{"bike_id":"1f3b31e6-01db-471e-a3b7-57747f21813f","system_id":"levelo_inurba_marseille","lat":43.31118,"lon":5.3777,"is_reserved":false,"is_disabled":false,"rental_uris":{"android":"levelo://app?vid=1f3b31e6-01db-471e-a3b7-57747f21813f","ios":"levelo://app?vid=1f3b31e6-01db-471e-a3b7-57747f21813f"},"vehicle_type_id":"4","last_reported":1731600724,"current_range_meters":33600,"station_id":"ce4bgt92rcd13ifvqcg0","pricing_plan_id":"cebpf4jnsgd1na2vs0mg"},{"bike_id":"6c985a24-ba94-4113-a891-e9835602ca34","system_id":"levelo_inurba_marseille","lat":43.30326,"lon":5.40443,"is_reserved":false,"is_disabled":false,"rental_uris":{"android":"levelo://app?vid=6c985a24-ba94-4113-a891-e9835602ca34","ios":"levelo://app?vid=6c985a24-ba94-4113-a891-e9835602ca34"},"vehicle_type_id":"4","last_reported":1731600724,"current_range_meters":38800,"station_id":"ce4bh012rcd13ifvqd10","pricing_plan_id":"cebpf4jnsgd1na2vs0mg"},{"bike_id":"af3913db-c21e-437d-8c6c-3739f8574cfa","system_id":"levelo_inurba_marseille","lat":43.292799,"lon":5.401146,"is_reserved":false,"is_disabled":false,"rental_uris":{"android":"levelo://app?vid=af3913db-c21e-437d-8c6c-3739f8574cfa","ios":"levelo://app?vid=af3913db-c21e-437d-8c6c-3739f8574cfa"},"vehicle_type_id":"4","last_reported":1731600724,"current_range_meters":24800,"station_id":"","pricing_plan_id":"cebpf4jnsgd1na2vs0mg"},{"bike_id":"9072d310-e8fc-4728-9ff3-fc2446940f45","system_id":"levelo_inurba_marseille","lat":43.33741,"lon":5.37483,"is_reserved":false,"is_disabled":false,"rental_uris":{"android":"levelo://app?vid=9072d310-e8fc-4728-9ff3-fc2446940f45","ios":"levelo://app?vid=9072d310-e8fc-4728-9ff3-fc2446940f45"},"vehicle_type_id":"4","last_reported":1731600724,"current_range_meters":34800,"station_id":"","pricing_plan_id":"cebpf4jnsgd1na2vs0mg"},{"bike_id":"a3cc90e3-a0bd-4047-a7d9-3fb3b691d136","system_id":"levelo_inurba_marseille","lat":43.30139,"lon":5.39864,"is_reserved":false,"is_disabled":false,"rental_uris":{"android":"levelo://app?vid=a3cc90e3-a0bd-4047-a7d9-3fb3b691d136","ios":"levelo://app?vid=a3cc90e3-a0bd-4047-a7d9-3fb3b691d136"},"vehicle_type_id":"4","last_reported":1731600724,"current_range_meters":19200,"station_id":"ce4bh0h2rcd13ifvqd40","pricing_plan_id":"cebpf4jnsgd1na2vs0mg"},{"bike_id":"d4cde2ca-7e67-44e0-9540-4275241f41e0","system_id":"levelo_inurba_marseille","lat":43.32363,"lon":5.3889,"is_reserved":false,"is_disabled":false,"rental_uris":{"android":"levelo://app?vid=d4cde2ca-7e67-44e0-9540-4275241f41e0","ios":"levelo://app?vid=d4cde2ca-7e67-44e0-9540-4275241f41e0"},"vehicle_type_id":"4","last_reported":1731600724,"current_range_meters":36000,"station_id":"ce4bhqp2rcd13ifvqhog","pricing_plan_id":"cebpf4jnsgd1na2vs0mg"},{"bike_id":"1d17d879-510c-43b8-8ec7-824ac5f8f21e","system_id":"levelo_inurba_marseille","lat":43.29717,"lon":5.36618,"is_reserved":false,"is_disabled":false,"rental_uris":{"android":"levelo://app?vid=1d17d879-510c-43b8-8ec7-824ac5f8f21e","ios":"levelo://app?vid=1d17d879-510c-43b8-8ec7-824ac5f8f21e"},"vehicle_type_id":"4","last_reported":1731600724,"current_range_meters":36400,"station_id":"ce4bgn12rcd13ifvqbt0","pricing_plan_id":"cebpf4jnsgd1na2vs0mg"},{"bike_id":"d4ac671d-b65e-4d6e-a623-2c790f22e062","system_id":"levelo_inurba_marseille","lat":43.31889,"lon":5.40742,"is_reserved":false,"is_disabled":false,"rental_uris":{"android":"levelo://app?vid=d4ac671d-b65e-4d6e-a623-2c790f22e062","ios":"levelo://app?vid=d4ac671d-b65e-4d6e-a623-2c790f22e062"},"vehicle_type_id":"4","last_reported":1731600724,"current_range_meters":28800,"station_id":"ce4bhq12rcd13ifvqhig","pricing_plan_id":"cebpf4jnsgd1na2vs0mg"},{"bike_id":"8d32c387-800c-4e8c-bbd5-b4fe89204c18","system_id":"levelo_inurba_marseille","lat":43.28457,"lon":5.35892,"is_reserved":false,"is_disabled":false,"rental_uris":{"android":"levelo://app?vid=8d32c387-800c-4e8c-bbd5-b4fe89204c18","ios":"levelo://app?vid=8d32c387-800c-4e8c-bbd5-b4fe89204c18"},"vehicle_type_id":"4","last_reported":1731600724,"current_range_meters":18800,"station_id":"ce4bhah2rcd13ifvqei0","pricing_plan_id":"cebpf4jnsgd1na2vs0mg"},{"bike_id":"4fff6634-0435-43e3-8bc4-78e627e5bbf9","system_id":"levelo_inurba_marseille","lat":43.30811,"lon":5.3815,"is_reserved":false,"is_disabled":false,"rental_uris":{"android":"levelo://app?vid=4fff6634-0435-43e3-8bc4-78e627e5bbf9","ios":"levelo://app?vid=4fff6634-0435-43e3-8bc4-78e627e5bbf9"},"vehicle_type_id":"4","last_reported":1731600724,"current_range_meters":31200,"station_id":"ce4bgt12rcd13ifvqce0","pricing_plan_id":"cebpf4jnsgd1na2vs0mg"},{"bike_id":"cfafa0d6-b7a1-4ebf-9845-d3c379d7044b","system_id":"levelo_inurba_marseille","lat":43.31536,"lon":5.38037,"is_reserved":false,"is_disabled":false,"rental_uris":{"android":"levelo://app?vid=cfafa0d6-b7a1-4ebf-9845-d3c379d7044b","ios":"levelo://app?vid=cfafa0d6-b7a1-4ebf-9845-d3c379d7044b"},"vehicle_type_id":"4","last_reported":1731600724,"current_range_meters":32800,"station_id":"ce4bhsp2rcd13ifvqi50","pricing_plan_id":"cebpf4jnsgd1na2vs0mg"},