{"last_updated":1749920881,"ttl":60,"version":"2.2","data":{"bikes":[{"bike_id":"b31f0139-170f-4194-984f-4386218a1e9d","system_id":"levelo_inurba_marseille","lat":43.33771,"lon":5.37424,"is_reserved":false,"is_disabled":true,"rental_uris":{"android":"levelo://app?vid=b31f0139-170f-4194-984f-4386218a1e9d","ios":"levelo://app?vid=b31f0139-170f-4194-984f-4386218a1e9d"},"vehicle_type_id":"4","last_reported":1749920881,"current_range_meters":0,"station_id":"","pricing_plan_id":"cebpf4jnsgd1na2vs0mg"},{"bike_id":"1acfb620-cad7-48c0-8901-d7a5b74a5b65","system_id":"levelo_inurba_marseille","lat":43.33751,"lon":5.37456,"is_reserved":false,"is_disabled":true,"rental_uris":{"android":"levelo://app?vid=1acfb620-cad7-48c0-8901-d7a5b74a5b65","ios":"levelo://app?vid=1acfb620-cad7-48c0-8901-d7a5b74a5b65"},"vehicle_type_id":"4","last_reported":1749920881,"current_range_meters":0,"station_id":"","pricing_plan_id":"cebpf4jnsgd1na2vs0mg"},{"bike_id":"9b91606c-287a-4145-9d47-18cb28000a68","system_id":"levelo_inurba_marseille","lat":43.29372,"lon":5.38208,"is_reserved":false,"is_disabled":true,"rental_uris":{"android":"levelo://app?vid=9b91606c-287a-4145-9d47-18cb28000a68","ios":"levelo://app?vid=9b91606c-287a-4145-9d47-18cb28000a68"},"vehicle_type_id":"4","last_reported":1749920881,"current_range_meters":0,"station_id":"","pricing_plan_id":"cebpf4jnsgd1na2vs0mg"},{"bike_id":"bf89d78c-eb96-40d5-beb0-f402ef102cc1","system_id":"levelo_inurba_marseille","lat":43.337444,"lon":5.374475,"is_reserved":false,"is_disabled":true,"rental_uris":{"android":"levelo://app?vid=bf89d78c-eb96-40d5-beb0-f402ef102cc1","ios":"levelo://app?vid=bf89d78c-eb96-40d5-beb0-f402ef102cc1"},"vehicle_type_id":"4","last_reported":1749920881,"current_range_meters":0,"station_id":"","pricing_plan_id":"cebpf4jnsgd1na2vs0mg"},{"bike_id":"5077581b-cebb-46fc-ba69-4fa8272d4810","system_id":"levelo_inurba_marseille","lat":43.21382,"lon":5.35521,"is_reserved":false,"is_disabled":true,"rental_uris":{"android":"levelo://app?vid=5077581b-cebb-46fc-ba69-4fa8272d4810","ios":"levelo://app?vid=5077581b-cebb-46fc-ba69-4fa8272d4810"},"vehicle_type_id":"4","last_reported":1749920881,"current_range_meters":0,"station_id":"","pricing_plan_id":"cebpf4jnsgd1na2vs0mg"},{"bike_id":"8631c4e3-7e45-4b01-8538-d64c8499eb1d","system_id":"levelo_inurba_marseille","lat":43.28639,"lon":5.38367,"is_reserved":false,"is_disabled":true,"rental_uris":{"android":"levelo://app?vid=8631c4e3-7e45-4b01-8538-d64c8499eb1d","ios":"levelo://app?vid=8631c4e3-7e45-4b01-8538-d64c8499eb1d"},"vehicle_type_id":"4","last_reported":1749920881,"current_range_meters":0,"station_id":"","pricing_plan_id":"cebpf4jnsgd1na2vs0mg"},{"bike_id":"d54d31b5-e2db-4fc9-931d-9af2a90eeb91","system_id":"levelo_inurba_marseille","lat":43.29844,"lon":5.37838,"is_reserved":false,"is_disabled":true,"rental_uris":{"android":"levelo://app?vid=d54d31b5-e2db-4fc9-931d-9af2a90eeb91","ios":"levelo://app?vid=d54d31b5-e2db-4fc9-931d-9af2a90eeb91"},"vehicle_type_id":"4","last_reported":1749920881,"current_range_meters":0,"station_id":"","pricing_plan_id":"cebpf4jnsgd1na2vs0mg"},{"bike_id":"718908ad-5540-4930-b134-cec6229c8d1c","system_id":"levelo_inurba_marseille","lat":43.265529,"lon":5.372828,"is_reserved":false,"is_disabled":true,"rental_uris":{"android":"levelo://app?vid=718908ad-5540-4930-b134-cec6229c8d1c","ios":"levelo://app?vid=718908ad-5540-4930-b134-cec6229c8d1c"},"vehicle_type_id":"4","last_reported":1749920881,"current_range_meters":0,"station_id":"","pricing_plan_id":"cebpf4jnsgd1na2vs0mg"},{"bike_id":"ebf89cec-3e1a-4275-9cd0-a3d19d69b5cf","system_id":"levelo_inurba_marseille","lat":43.279795,"lon":5.384858,"is_reserved":false,"is_disabled":true,"rental_uris":{"android":"levelo://app?vid=ebf89cec-3e1a-4275-9cd0-a3d19d69b5cf","ios":"levelo://app?vid=ebf89cec-3e1a-4275-9cd0-a3d19d69b5cf"},"vehicle_type_id":"4","last_reported":1749920881,"current_range_meters":0,"station_id":"","pricing_plan_id":"cebpf4jnsgd1na2vs0mg"},{"bike_id":"492f4bbd-1190-4ef2-b66a-479ffe91b09b","system_id":"levelo_inurba_marseille","lat":43.337444,"lon":5.374475,"is_reserved":false,"is_disabled":true,"rental_uris":{"android":"levelo://app?vid=492f4bbd-1190-4ef2-b66a-479ffe91b09b","ios":"levelo://app?vid=492f4bbd-1190-4ef2-b66a-479ffe91b09b"},"vehicle_type_id":"4","last_reported":1749920881,"current_range_meters":0,"station_id":"","pricing_plan_id":"cebpf4jnsgd1na2vs0mg"},{"bike_id":"a9b6bf99-4070-4437-bb20-72962ae30b90","system_id":"levelo_inurba_marseille","lat":43.27451,"lon":5.36406,"is_reserved":false,"is_disabled":true,"rental_uris":{"android":"levelo://app?vid=a9b6bf99-4070-4437-bb20-72962ae30b90","ios":"levelo://app?vid=a9b6bf99-4070-4437-bb20-72962ae30b90"},"vehicle_type_id":"4","last_reported":1749920881,"current_range_meters":0,"station_id":"","pricing_plan_id":"cebpf4jnsgd1na2vs0mg"},{"bike_id":"22e3052f-4d0e-4c5d-8449-17615ab2de52","system_id":"levelo_inurba_marseille","lat":43.29306,"lon":5.37164,"is_reserved":false,"is_disabled":true,"rental_uris":{"android":"levelo://app?vid=22e3052f-4d0e-4c5d-8449-17615ab2de52","ios":"levelo://app?vid=22e3052f-4d0e-4c5d-8449-17615ab2de52"},"vehicle_type_id":"4","last_reported":1749920881,"current_range_meters":0,"station_id":"ce4bgh92rcd13ifvqb40","pricing_plan_id":"cebpf4jnsgd1na2vs0mg"},{"bike_id":"5aa71da1-cb89-434d-976f-3509bcfcf725","system_id":"levelo_inurba_marseille","lat":43.29575,"lon":5.37513,"is_reserved":false,"is_disabled":true,"rental_uris":{"android":"levelo://app?vid=5aa71da1-cb89-434d-976f-3509bcfcf725","ios":"levelo://app?vid=5aa71da1-cb89-434d-976f-3509bcfcf725"},"vehicle_type_id":"4","last_reported":1749920881,"current_range_meters":0,"station_id":"ce4bgh92rcd13ifvqb50","pricing_plan_id":"cebpf4jnsgd1na2vs0mg"},{"bike_id":"fe909eec-57cb-4f6d-9797-191bc789bd7d","system_id":"levelo_inurba_marseille","lat":43.31196,"lon":5.36865,"is_reserved":false,"is_disabled":true,"rental_uris":{"android":"levelo://app?vid=fe909eec-57cb-4f6d-9797-191bc789bd7d","ios":"levelo://app?vid=fe909eec-57cb-4f6d-9797-191bc789bd7d"},"vehicle_type_id":"4","last_reported":1749920881,"current_range_meters":0,"station_id":"ce4bgl92rcd13ifvqbq0","pricing_plan_id":"cebpf4jnsgd1na2vs0mg"},{"bike_id":"c61094cd-d0da-4e1f-a7e3-103c4cdf5687","system_id":"levelo_inurba_marseille","lat":43.30543,"lon":5.36595,"is_reserved":false,"is_disabled":true,"rental_uris":{"android":"levelo://app?vid=c61094cd-d0da-4e1f-a7e3-103c4cdf5687","ios":"levelo://app?vid=c61094cd-d0da-4e1f-a7e3-103c4cdf5687"},"vehicle_type_id":"4","last_reported":1749920881,"current_range_meters":0,"station_id":"ce4bgs12rcd13ifvqcag","pricing_plan_id":"cebpf4jnsgd1na2vs0mg"},{"bike_id":"58fa2680-c248-4018-a59e-9affc0c60d4a","system_id":"levelo_inurba_marseille","lat":43.30597,"lon":5.39352,"is_reserved":false,"is_disabled":true,"rental_uris":{"android":"levelo://app?vid=58fa2680-c248-4018-a59e-9affc0c60d4a","ios":"levelo://app?vid=58fa2680-c248-4018-a59e-9affc0c60d4a"},"vehicle_type_id":"4","last_reported":1749920881,"current_range_meters":0,"station_id":"ce4bh0p2rcd13ifvqd80","pricing_plan_id":"cebpf4jnsgd1na2vs0mg"},{"bike_id":"b6556661-acc0-42f4-acc1-b6c6d5ff004d","system_id":"levelo_inurba_marseille","lat":43.2942,"lon":5.38618,"is_reserved":false,"is_disabled":true,"rental_uris":{"android":"levelo://app?vid=b6556661-acc0-42f4-acc1-b6c6d5ff004d","ios":"levelo://app?vid=b6556661-acc0-42f4-acc1-b6c6d5ff004d"},"vehicle_type_id":"4","last_reported":1749920881,"current_range_meters":0,"station_id":"ce4bh2h2rcd13ifvqdh0","pricing_plan_id":"cebpf4jnsgd1na2vs0mg"},{"bike_id":"8527512b-c904-4b70-9249-4aaa7ea7eea5","system_id":"levelo_inurba_marseille","lat":43.28409,"lon":5.37504,"is_reserved":false,"is_disabled":true,"rental_uris":{"android":"levelo://app?vid=8527512b-c904-4b70-9249-4aaa7ea7eea5","ios":"levelo://app?vid=8527512b-c904-4b70-9249-4aaa7ea7eea5"},"vehicle_type_id":"4","last_reported":1749920881,"current_range_meters":0,"station_id":"ce4bh412rcd13ifvqds0","pricing_plan_id":"cebpf4jnsgd1na2vs0mg"},{"bike_id":"02d40cf4-a627-4e77-b30e-cbf294009169","system_id":"levelo_inurba_marseille","lat":43.28931,"lon":5.36629,"is_reserved":false,"is_disabled":true,"rental_uris":{"android":"levelo://app?vid=02d40cf4-a627-4e77-b30e-cbf294009169","ios":"levelo://app?vid=02d40cf4-a627-4e77-b30e-cbf294009169"},"vehicle_type_id":"4","last_reported":1749920881,"current_range_meters":0,"station_id":"ce4bhap2rcd13ifvqek0","pricing_plan_id":"cebpf4jnsgd1na2vs0mg"},{"bike_id":"df6d0505-d51d-45a9-b0df-8b8e9273a002","system_id":"levelo_inurba_marseille","lat":43.28628,"lon":5.35065,"is_reserved":false,"is_disabled":true,"rental_uris":{"android":"levelo://app?vid=df6d0505-d51d-45a9-b0df-8b8e9273a002","ios":"levelo://app?vid=df6d0505-d51d-45a9-b0df-8b8e9273a002"},"vehicle_type_id":"4","last_reported":1749920881,"current_range_meters":0,"station_id":"ce4bhch2rcd13ifvqeug","pricing_plan_id":"cebpf4jnsgd1na2vs0mg"},{"bike_id":"ea894696-cd8f-4bfc-ba23-056e75b800db","system_id":"levelo_inurba_marseille","lat":43.27918,"lon":5.3958,"is_reserved":false,"is_disabled":false,"rental_uris":{"android":"levelo://app?vid=ea894696-cd8f-4bfc-ba23-056e75b800db","ios":"levelo://app?vid=ea894696-cd8f-4bfc-ba23-056e75b800db"},"vehicle_type_id":"4","last_reported":1749920881,"current_range_meters":0,"station_id":"ce4bhf92rcd13ifvqf40","pricing_plan_id":"cebpf4jnsgd1na2vs0mg"},{"bike_id":"4043f4d5-9c24-42b2-b972-a0c69391f374","system_id":"levelo_inurba_marseille","lat":43.26688,"lon":5.3827,"is_reserved":false,"is_disabled":true,"rental_uris":{"android":"levelo://app?vid=4043f4d5-9c24-42b2-b972-a0c69391f374","ios":"levelo://app?vid=4043f4d5-9c24-42b2-b972-a0c69391f374"},"vehicle_type_id":"4","last_reported":1749920881,"current_range_meters":0,"station_id":"ce4bhg92rcd13ifvqf90","pricing_plan_id":"cebpf4jnsgd1na2vs0mg"},{"bike_id":"63ed89b0-650a-4ecd-b560-efa75cc58d36","system_id":"levelo_inurba_marseille","lat":43.26684,"lon":5.38275,"is_reserved":false,"is_disabled":true,"rental_uris":{"android":"levelo://app?vid=63ed89b0-650a-4ecd-b560-efa75cc58d36","ios":"levelo://app?vid=63ed89b0-650a-4ecd-b560-efa75cc58d36"},"vehicle_type_id":"4","last_reported":1749920881,"current_range_meters":0,"station_id":"ce4bhg92rcd13ifvqf90","pricing_plan_id":"cebpf4jnsgd1na2vs0mg"},{"bike_id":"da759166-fb87-4ba1-9586-41a6c5260cf8","system_id":"levelo_inurba_marseille","lat":43.261891,"lon":5.374505,"is_reserved":false,"is_disabled":true,"rental_uris":{"android":"levelo://app?vid=da759166-fb87-4ba1-9586-41a6c5260cf8","ios":"levelo://app?vid=da759166-fb87-4ba1-9586-41a6c5260cf8"},"vehicle_type_id":"4","last_reported":1749920881,"current_range_meters":0,"station_id":"ce4bhgp2rcd13ifvqfc0","pricing_plan_id":"cebpf4jnsgd1na2vs0mg"},{"bike_id":"8a0f8047-5730-4a33-94df-16a461dbd5ba","system_id":"levelo_inurba_marseille","lat":43.27574,"lon":5.38415,"is_reserved":false,"is_disabled":true,"rental_uris":{"android":"levelo://app?vid=8a0f8047-5730-4a33-94df-16a461dbd5ba","ios":"levelo://app?vid=8a0f8047-5730-4a33-94df-16a461dbd5ba"},"vehicle_type_id":"4","last_reported":1749920881,"current_range_meters":0,"station_id":"ce4bhh92rcd13ifvqfi0","pricing_plan_id":"cebpf4jnsgd1na2vs0mg"},{"bike_id":"88231356-1d33-4b09-8176-0c6090c85479","system_id":"levelo_inurba_marseille","lat":43.28733,"lon":5.39968,"is_reserved":false,"is_disabled":true,"rental_uris":{"android":"levelo://app?vid=88231356-1d33-4b09-8176-0c6090c85479","ios":"levelo://app?vid=88231356-1d33-4b09-8176-0c6090c85479"},"vehicle_type_id":"4","last_reported":1749920881,"current_range_meters":0,"station_id":"ce4bho92rcd13ifvqh3g","pricing_plan_id":"cebpf4jnsgd1na2vs0mg"},{"bike_id":"5f0abf0a-82ae-4835-b115-2fcb5f47d843","system_id":"levelo_inurba_marseille","lat":43.2798,"lon":5.40011,"is_reserved":false,"is_disabled":true,"rental_uris":{"android":"levelo://app?vid=5f0abf0a-82ae-4835-b115-2fcb5f47d843","ios":"levelo://app?vid=5f0abf0a-82ae-4835-b115-2fcb5f47d843"},"vehicle_type_id":"4","last_reported":1749920881,"current_range_meters":0,"station_id":"ce4bho92rcd13ifvqh4g","pricing_plan_id":"cebpf4jnsgd1na2vs0mg"},{"bike_id":"dd758e83-43cb-478f-b19e-e4c3f45b020d","system_id":"levelo_inurba_marseille","lat":43.32362,"lon":5.40601,"is_reserved":false,"is_disabled":true,"rental_uris":{"android":"levelo://app?vid=dd758e83-43cb-478f-b19e-e4c3f45b020d","ios":"levelo://app?vid=dd758e83-43cb-478f-b19e-e4c3f45b020d"},"vehicle_type_id":"4","last_reported":1749920881,"current_range_meters":0,"station_id":"ce4bhq92rcd13ifvqhjg","pricing_plan_id":"cebpf4jnsgd1na2vs0mg"},{"bike_id":"01e40565-997b-414c-8ffb-12964976c775","system_id":"levelo_inurba_marseille","lat":43.32045,"lon":5.41542,"is_reserved":false,"is_disabled":true,"rental_uris":{"android":"levelo://app?vid=01e40565-997b-414c-8ffb-12964976c775","ios":"levelo://app?vid=01e40565-997b-414c-8ffb-12964976c775"},"vehicle_type_id":"4","last_reported":1749920881,"current_range_meters":0,"station_id":"ce4bhq92rcd13ifvqhkg","pricing_plan_id":"cebpf4jnsgd1na2vs0mg"},{"bike_id":"688990d8-c9ce-490a-af7e-21862bb7ff58","system_id":"levelo_inurba_marseille","lat":43.32073,"lon":5.41531,"is_reserved":false,"is_disabled":true,"rental_uris":{"android":"levelo://app?vid=688990d8-c9ce-490a-af7e-21862bb7ff58","ios":"levelo://app?vid=688990d8-c9ce-490a-af7e-21862bb7ff58"},"vehicle_type_id":"4","last_reported":1749920881,"current_range_meters":0,"station_id":"ce4bhq92rcd13ifvqhkg","pricing_plan_id":"cebpf4jnsgd1na2vs0mg"},{"bike_id":"decb9266-83c3-47b3-a7fc-a36ac1347761","system_id":"levelo_inurba_marseille","lat":43.3248,"lon":5.36592,"is_reserved":false,"is_disabled":true,"rental_uris":{"android":"levelo://app?vid=decb9266-83c3-47b3-a7fc-a36ac1347761","ios":"levelo://app?vid=decb9266-83c3-47b3-a7fc-a36ac1347761"},"vehicle_type_id":"4","last_reported":1749920881,"current_range_meters":0,"station_id":"ce4bhs12rcd13ifvqhvg","pricing_plan_id":"cebpf4jnsgd1na2vs0mg"},{"bike_id":"0f50c2eb-d288-4d90-a9a3-cd0743222590","system_id":"levelo_inurba_marseille","lat":43.22503,"lon":5.34779,"is_reserved":false,"is_disabled":true,"rental_uris":{"android":"levelo://app?vid=0f50c2eb-d288-4d90-a9a3-cd0743222590","ios":"levelo://app?vid=0f50c2eb-d288-4d90-a9a3-cd0743222590"},"vehicle_type_id":"4","last_reported":1749920881,"current_range_meters":0,"station_id":"st_cvj5dfep6f1abm77gieg","pricing_plan_id":"cebpf4jnsgd1na2vs0mg"},{"bike_id":"77e1b72a-e412-4bf7-b26d-9074f78abf68","system_id":"levelo_inurba_marseille","lat":43.22528,"lon":5.34774,"is_reserved":false,"is_disabled":true,"rental_uris":{"android":"levelo://app?vid=77e1b72a-e412-4bf7-b26d-9074f78abf68","ios":"levelo://app?vid=77e1b72a-e412-4bf7-b26d-9074f78abf68"},"vehicle_type_id":"4","last_reported":1749920881,"current_range_meters":0,"station_id":"st_cvj5dfep6f1abm77gieg","pricing_plan_id":"cebpf4jnsgd1na2vs0mg"},{"bike_id":"fe5a9aaf-2d36-4b9d-abdd-dc360a59de38","system_id":"levelo_inurba_marseille","lat":43.21746,"lon":5.34591,"is_reserved":false,"is_disabled":true,"rental_uris":{"android":"levelo://app?vid=fe5a9aaf-2d36-4b9d-abdd-dc360a59de38","ios":"levelo://app?vid=fe5a9aaf-2d36-4b9d-abdd-dc360a59de38"},"vehicle_type_id":"4","last_reported":1749920881,"current_range_meters":0,"station_id":"st_cvj6r9ubvosntc0bgbag","pricing_plan_id":"cebpf4jnsgd1na2vs0mg"},{"bike_id":"ceed8e49-424f-4eba-95a3-d0aed3600067","system_id":"levelo_inurba_marseille","lat":43.21187,"lon":5.35066,"is_reserved":false,"is_disabled":true,"rental_uris":{"android":"levelo://app?vid=ceed8e49-424f-4eba-95a3-d0aed3600067","ios":"levelo://app?vid=ceed8e49-424f-4eba-95a3-d0aed3600067"},"vehicle_type_id":"4","last_reported":1749920881,"current_range_meters":0,"station_id":"st_cvj6sg6p6f1abm77japg","pricing_plan_id":"cebpf4jnsgd1na2vs0mg"},{"bike_id":"3f118b66-302e-4bd1-a9ad-d314d34b8b24","system_id":"levelo_inurba_marseille","lat":43.28348,"lon":5.38101,"is_reserved":false,"is_disabled":true,"rental_uris":{"android":"levelo://app?vid=3f118b66-302e-4bd1-a9ad-d314d34b8b24","ios":"levelo://app?vid=3f118b66-302e-4bd1-a9ad-d314d34b8b24"},"vehicle_type_id":"4","last_reported":1749920881,"current_range_meters":400,"station_id":"ce4bh412rcd13ifvqdr0","pricing_plan_id":"cebpf4jnsgd1na2vs0mg"},{"bike_id":"038ba639-649f-4697-ac36-6533c3e52a06","system_id":"levelo_inurba_marseille","lat":43.27369,"lon":5.36263,"is_reserved":false,"is_disabled":true,"rental_uris":{"android":"levelo://app?vid=038ba639-649f-4697-ac36-6533c3e52a06","ios":"levelo://app?vid=038ba639-649f-4697-ac36-6533c3e52a06"},"vehicle_type_id":"4","last_reported":1749920881,"current_range_meters":400,"station_id":"ce4bhbh2rcd13ifvqeo0","pricing_plan_id":"cebpf4jnsgd1na2vs0mg"},{"bike_id":"e04eff78-979c-482a-a910-b3713eabac4e","system_id":"levelo_inurba_marseille","lat":43.28406,"lon":5.34983,"is_reserved":false,"is_disabled":true,"rental_uris":{"android":"levelo://app?vid=e04eff78-979c-482a-a910-b3713eabac4e","ios":"levelo://app?vid=e04eff78-979c-482a-a910-b3713eabac4e"},"vehicle_type_id":"4","last_reported":1749920881,"current_range_meters":400,"station_id":"ce4bhbh2rcd13ifvqepg","pricing_plan_id":"cebpf4jnsgd1na2vs0mg"},{"bike_id":"9be92a5f-104f-4489-a344-b9cb0252a918","system_id":"levelo_inurba_marseille","lat":43.29225,"lon":5.36062,"is_reserved":false,"is_disabled":true,"rental_uris":{"android":"levelo://app?vid=9be92a5f-104f-4489-a344-b9cb0252a918","ios":"levelo://app?vid=9be92a5f-104f-4489-a344-b9cb0252a918"},"vehicle_type_id":"4","last_reported":1749920881,"current_range_meters":400,"station_id":"ce4bhbh2rcd13ifvqeqg","pricing_plan_id":"cebpf4jnsgd1na2vs0mg"},{"bike_id":"0424d871-008b-4436-886b-c54c8df8376c","system_id":"levelo_inurba_marseille","lat":43.29273,"lon":5.36846,"is_reserved":false,"is_disabled":true,"rental_uris":{"android":"levelo://app?vid=0424d871-008b-4436-886b-c54c8df8376c","ios":"levelo://app?vid=0424d871-008b-4436-886b-c54c8df8376c"},"vehicle_type_id":"4","last_reported":1749920881,"current_range_meters":400,"station_id":"ce4bhbp2rcd13ifvqesg","pricing_plan_id":"cebpf4jnsgd1na2vs0mg"},{"bike_id":"91e853b6-46e7-4ad1-98d5-8a56dee4d06e","system_id":"levelo_inurba_marseille","lat":43.26213,"lon":5.37449,"is_reserved":false,"is_disabled":true,"rental_uris":{"android":"levelo://app?vid=91e853b6-46e7-4ad1-98d5-8a56dee4d06e","ios":"levelo://app?vid=91e853b6-46e7-4ad1-98d5-8a56dee4d06e"},"vehicle_type_id":"4","last_reported":1749920881,"current_range_meters":400,"station_id":"ce4bhgp2rcd13ifvqfc0","pricing_plan_id":"cebpf4jnsgd1na2vs0mg"},{"bike_id":"86b9fe18-6237-49df-a5a8-701a168d66ec","system_id":"levelo_inurba_marseille","lat":43.272107,"lon":5.391793,"is_reserved":false,"is_disabled":true,"rental_uris":{"android":"levelo://app?vid=86b9fe18-6237-49df-a5a8-701a168d66ec","ios":"levelo://app?vid=86b9fe18-6237-49df-a5a8-701a168d66ec"},"vehicle_type_id":"4","last_reported":1749920881,"current_range_meters":400,"station_id":"ce4bhhp2rcd13ifvqfm0","pricing_plan_id":"cebpf4jnsgd1na2vs0mg"},{"bike_id":"34a5b2c4-65e3-4dff-a5d2-e21c992718b2","system_id":"levelo_inurba_marseille","lat":43.27642,"lon":5.38901,"is_reserved":false,"is_disabled":true,"rental_uris":{"android":"levelo://app?vid=34a5b2c4-65e3-4dff-a5d2-e21c992718b2","ios":"levelo://app?vid=34a5b2c4-65e3-4dff-a5d2-e21c992718b2"},"vehicle_type_id":"4","last_reported":1749920881,"current_range_meters":400,"station_id":"ce4bhi12rcd13ifvqfo0","pricing_plan_id":"cebpf4jnsgd1na2vs0mg"},{"bike_id":"9403d242-760c-4bfc-bcd5-6446102ecc34","system_id":"levelo_inurba_marseille","lat":43.27996,"lon":5.40008,"is_reserved":false,"is_disabled":true,"rental_uris":{"android":"levelo://app?vid=9403d242-760c-4bfc-bcd5-6446102ecc34","ios":"levelo://app?vid=9403d242-760c-4bfc-bcd5-6446102ecc34"},"vehicle_type_id":"4","last_reported":1749920881,"current_range_meters":400,"station_id":"ce4bho92rcd13ifvqh4g","pricing_plan_id":"cebpf4jnsgd1na2vs0mg"},{"bike_id":"a7267547-25f4-45a6-8689-6b9f466cdc75","system_id":"levelo_inurba_marseille","lat":43.30357,"lon":5.41879,"is_reserved":false,"is_disabled":true,"rental_uris":{"android":"levelo://app?vid=a7267547-25f4-45a6-8689-6b9f466cdc75","ios":"levelo://app?vid=a7267547-25f4-45a6-8689-6b9f466cdc75"},"vehicle_type_id":"4","last_reported":1749920881,"current_range_meters":400,"station_id":"ce4bhop2rcd13ifvqh7g","pricing_plan_id":"cebpf4jnsgd1na2vs0mg"},{"bike_id":"2094adc2-853b-46f6-a83b-e614cfc310c7","system_id":"levelo_inurba_marseille","lat":43.29869,"lon":5.39738,"is_reserved":false,"is_disabled":true,"rental_uris":{"android":"levelo://app?vid=2094adc2-853b-46f6-a83b-e614cfc310c7","ios":"levelo://app?vid=2094adc2-853b-46f6-a83b-e614cfc310c7"},"vehicle_type_id":"4","last_reported":1749920881,"current_range_meters":800,"station_id":"ce4bh0h2rcd13ifvqd50","pricing_plan_id":"cebpf4jnsgd1na2vs0mg"},{"bike_id":"06e90533-f9bc-4b2b-a21c-7f0af51f5296","system_id":"levelo_inurba_marseille","lat":43.29624,"lon":5.40606,"is_reserved":false,"is_disabled":true,"rental_uris":{"android":"levelo://app?vid=06e90533-f9bc-4b2b-a21c-7f0af51f5296","ios":"levelo://app?vid=06e90533-f9bc-4b2b-a21c-7f0af51f5296"},"vehicle_type_id":"4","last_reported":1749920881,"current_range_meters":800,"station_id":"ce4bh0h2rcd13ifvqd60","pricing_plan_id":"cebpf4jnsgd1na2vs0mg"},{"bike_id":"2a36f208-bb46-47f1-980f-ae953d109980","system_id":"levelo_inurba_marseille","lat":43.29569,"lon":5.39985,"is_reserved":false,"is_disabled":true,"rental_uris":{"android":"levelo://app?vid=2a36f208-bb46-47f1-980f-ae953d109980","ios":"levelo://app?vid=2a36f208-bb46-47f1-980f-ae953d109980"},"vehicle_type_id":"4","last_reported":1749920881,"current_range_meters":800,"station_id":"ce4bh312rcd13ifvqdj0","pricing_plan_id":"cebpf4jnsgd1na2vs0mg"},{"bike_id":"267d3de5-d536-46b0-86e0-03ba931e70eb","system_id":"levelo_inurba_marseille","lat":43.292664,"lon":5.38432,"is_reserved":false,"is_disabled":false,"rental_uris":{"android":"levelo://app?vid=267d3de5-d536-46b0-86e0-03ba931e70eb","ios":"levelo://app?vid=267d3de5-d536-46b0-86e0-03ba931e70eb"},"vehicle_type_id":"4","last_reported":1749920881,"current_range_meters":800,"station_id":"ce4bh692rcd13ifvqea0","pricing_plan_id":"cebpf4jnsgd1na2vs0mg"},{"bike_id":"3545eba6-12e2-418d-a971-dd7b779d42af","system_id":"levelo_inurba_marseille","lat":43.28265,"lon":5.35049,"is_reserved":false,"is_disabled":true,"rental_uris":{"android":"levelo://app?vid=3545eba6-12e2-418d-a971-dd7b779d42af","ios":"levelo://app?vid=3545eba6-12e2-418d-a971-dd7b779d42af"},"vehicle_type_id":"4","last_reported":1749920881,"current_range_meters":800,"station_id":"ce4bhbp2rcd13ifvqerg","pricing_plan_id":"cebpf4jnsgd1na2vs0mg"},{"bike_id":"ea4f4d4a-cdb8-4c69-8207-1f9681a74e6f","system_id":"levelo_inurba_marseille","lat":43.27231,"lon":5.39202,"is_reserved":false,"is_disabled":true,"rental_uris":{"android":"levelo://app?vid=ea4f4d4a-cdb8-4c69-8207-1f9681a74e6f","ios":"levelo://app?vid=ea4f4d4a-cdb8-4c69-8207-1f9681a74e6f"},"vehicle_type_id":"4","last_reported":1749920881,"current_range_meters":800,"station_id":"ce4bhhp2rcd13ifvqfm0","pricing_plan_id":"cebpf4jnsgd1na2vs0mg"},{"bike_id":"b4a92fba-7f80-43db-b5e0-afbd294bec5f","system_id":"levelo_inurba_marseille","lat":43.30418,"lon":5.41274,"is_reserved":false,"is_disabled":true,"rental_uris":{"android":"levelo://app?vid=b4a92fba-7f80-43db-b5e0-afbd294bec5f","ios":"levelo://app?vid=b4a92fba-7f80-43db-b5e0-afbd294bec5f"},"vehicle_type_id":"4","last_reported":1749920881,"current_range_meters":800,"station_id":"ce4bhop2rcd13ifvqh8g","pricing_plan_id":"cebpf4jnsgd1na2vs0mg"},{"bike_id":"04005531-52ef-4a8c-a6d8-546a39325ee5","system_id":"levelo_inurba_marseille","lat":43.2252,"lon":5.34774,"is_reserved":false,"is_disabled":true,"rental_uris":{"android":"levelo://app?vid=04005531-52ef-4a8c-a6d8-546a39325ee5","ios":"levelo://app?vid=04005531-52ef-4a8c-a6d8-546a39325ee5"},"vehicle_type_id":"4","last_reported":1749920881,"current_range_meters":800,"station_id":"st_cvj5dfep6f1abm77gieg","pricing_plan_id":"cebpf4jnsgd1na2vs0mg"},{"bike_id":"8d60347d-541c-40fb-90ca-203bf6bd520a","system_id":"levelo_inurba_marseille","lat":43.271225,"lon":5.364037,"is_reserved":false,"is_disabled":true,"rental_uris":{"android":"levelo://app?vid=8d60347d-541c-40fb-90ca-203bf6bd520a","ios":"levelo://app?vid=8d60347d-541c-40fb-90ca-203bf6bd520a"},"vehicle_type_id":"4","last_reported":1749920881,"current_range_meters":1200,"station_id":"","pricing_plan_id":"cebpf4jnsgd1na2vs0mg"},{"bike_id":"9567a0ab-4a21-40d7-98a4-00053449fd62","system_id":"levelo_inurba_marseille","lat":43.29254,"lon":5.36418,"is_reserved":false,"is_disabled":true,"rental_uris":{"android":"levelo://app?vid=9567a0ab-4a21-40d7-98a4-00053449fd62","ios":"levelo://app?vid=9567a0ab-4a21-40d7-98a4-00053449fd62"},"vehicle_type_id":"4","last_reported":1749920881,"current_range_meters":1200,"station_id":"","pricing_plan_id":"cebpf4jnsgd1na2vs0mg"},{"bike_id":"c3e54c2b-d0a3-481d-affe-05706f420eb6","system_id":"levelo_inurba_marseille","lat":43.30283,"lon":5.40044,"is_reserved":false,"is_disabled":true,"rental_uris":{"android":"levelo://app?vid=c3e54c2b-d0a3-481d-affe-05706f420eb6","ios":"levelo://app?vid=c3e54c2b-d0a3-481d-affe-05706f420eb6"},"vehicle_type_id":"4","last_reported":1749920881,"current_range_meters":1200,"station_id":"ce4bgvh2rcd13ifvqcs0","pricing_plan_id":"cebpf4jnsgd1na2vs0mg"},{"bike_id":"788e4d15-c378-489a-a047-b96346571f58","system_id":"levelo_inurba_marseille","lat":43.29626,"lon":5.40595,"is_reserved":false,"is_disabled":true,"rental_uris":{"android":"levelo://app?vid=788e4d15-c378-489a-a047-b96346571f58","ios":"levelo://app?vid=788e4d15-c378-489a-a047-b96346571f58"},"vehicle_type_id":"4","last_reported":1749920881,"current_range_meters":1200,"station_id":"ce4bh0h2rcd13ifvqd60","pricing_plan_id":"cebpf4jnsgd1na2vs0mg"},{"bike_id":"264d7b52-b661-4173-9192-3dccd9e4ca26","system_id":"levelo_inurba_marseille","lat":43.28267,"lon":5.35072,"is_reserved":false,"is_disabled":true,"rental_uris":{"android":"levelo://app?vid=264d7b52-b661-4173-9192-3dccd9e4ca26","ios":"levelo://app?vid=264d7b52-b661-4173-9192-3dccd9e4ca26"},"vehicle_type_id":"4","last_reported":1749920881,"current_range_meters":1200,"station_id":"ce4bhbp2rcd13ifvqerg","pricing_plan_id":"cebpf4jnsgd1na2vs0mg"},{"bike_id":"631db17b-178b-4d98-b7af-ecc5a45e5056","system_id":"levelo_inurba_marseille","lat":43.26569,"lon":5.3901,"is_reserved":false,"is_disabled":true,"rental_uris":{"android":"levelo://app?vid=631db17b-178b-4d98-b7af-ecc5a45e5056","ios":"levelo://app?vid=631db17b-178b-4d98-b7af-ecc5a45e5056"},"vehicle_type_id":"4","last_reported":1749920881,"current_range_meters":1200,"station_id":"ce4bhe12rcd13ifvqf30","pricing_plan_id":"cebpf4jnsgd1na2vs0mg"},{"bike_id":"8a59681b-4625-44b2-9a9a-cd2ddcf45298","system_id":"levelo_inurba_marseille","lat":43.30212,"lon":5.39471,"is_reserved":false,"is_disabled":true,"rental_uris":{"android":"levelo://app?vid=8a59681b-4625-44b2-9a9a-cd2ddcf45298","ios":"levelo://app?vid=8a59681b-4625-44b2-9a9a-cd2ddcf45298"},"vehicle_type_id":"4","last_reported":1749920881,"current_range_meters":1600,"station_id":"ce4bh0p2rcd13ifvqd70","pricing_plan_id":"cebpf4jnsgd1na2vs0mg"},{"bike_id":"315d7fc9-f719-4bd7-bb64-f6b13c6cf6d4","system_id":"levelo_inurba_marseille","lat":43.29038,"lon":5.375649,"is_reserved":false,"is_disabled":true,"rental_uris":{"android":"levelo://app?vid=315d7fc9-f719-4bd7-bb64-f6b13c6cf6d4","ios":"levelo://app?vid=315d7fc9-f719-4bd7-bb64-f6b13c6cf6d4"},"vehicle_type_id":"4","last_reported":1749920881,"current_range_meters":1600,"station_id":"ce4bh692rcd13ifvqe90","pricing_plan_id":"cebpf4jnsgd1na2vs0mg"},{"bike_id":"76176349-2d24-4a91-814f-05e852f680b0","system_id":"levelo_inurba_marseille","lat":43.27377,"lon":5.36257,"is_reserved":false,"is_disabled":true,"rental_uris":{"android":"levelo://app?vid=76176349-2d24-4a91-814f-05e852f680b0","ios":"levelo://app?vid=76176349-2d24-4a91-814f-05e852f680b0"},"vehicle_type_id":"4","last_reported":1749920881,"current_range_meters":1600,"station_id":"ce4bhbh2rcd13ifvqeo0","pricing_plan_id":"cebpf4jnsgd1na2vs0mg"},{"bike_id":"1dfeb354-2d21-4ac5-a28b-d907215afbcf","system_id":"levelo_inurba_marseille","lat":43.26554,"lon":5.37281,"is_reserved":false,"is_disabled":true,"rental_uris":{"android":"levelo://app?vid=1dfeb354-2d21-4ac5-a28b-d907215afbcf","ios":"levelo://app?vid=1dfeb354-2d21-4ac5-a28b-d907215afbcf"},"vehicle_type_id":"4","last_reported":1749920881,"current_range_meters":1600,"station_id":"ce4bhg12rcd13ifvqf70","pricing_plan_id":"cebpf4jnsgd1na2vs0mg"},{"bike_id":"0e3ea83e-e73d-40ce-9112-b17acaf390ef","system_id":"levelo_inurba_marseille","lat":43.26365,"lon":5.37803,"is_reserved":false,"is_disabled":true,"rental_uris":{"android":"levelo://app?vid=0e3ea83e-e73d-40ce-9112-b17acaf390ef","ios":"levelo://app?vid=0e3ea83e-e73d-40ce-9112-b17acaf390ef"},"vehicle_type_id":"4","last_reported":1749920881,"current_range_meters":1600,"station_id":"st_d163nis0mtpqnht9uue0","pricing_plan_id":"cebpf4jnsgd1na2vs0mg"},{"bike_id":"bd5b737a-574b-4c47-8197-a1084542a0f2","system_id":"levelo_inurba_marseille","lat":43.29528,"lon":5.38543,"is_reserved":false,"is_disabled":true,"rental_uris":{"android":"levelo://app?vid=bd5b737a-574b-4c47-8197-a1084542a0f2","ios":"levelo://app?vid=bd5b737a-574b-4c47-8197-a1084542a0f2"},"vehicle_type_id":"4","last_reported":1749920881,"current_range_meters":2000,"station_id":"ce4bgih2rcd13ifvqba0","pricing_plan_id":"cebpf4jnsgd1na2vs0mg"},{"bike_id":"919161e0-bd20-4f9a-bbb7-4ac83825284e","system_id":"levelo_inurba_marseille","lat":43.289761,"lon":5.378414,"is_reserved":false,"is_disabled":false,"rental_uris":{"android":"levelo://app?vid=919161e0-bd20-4f9a-bbb7-4ac83825284e","ios":"levelo://app?vid=919161e0-bd20-4f9a-bbb7-4ac83825284e"},"vehicle_type_id":"4","last_reported":1749920881,"current_range_meters":2000,"station_id":"ce4bh9p2rcd13ifvqed0","pricing_plan_id":"cebpf4jnsgd1na2vs0mg"},{"bike_id":"85924973-e5bb-4029-955b-0245b83a67ef","system_id":"levelo_inurba_marseille","lat":43.2668,"lon":5.38269,"is_reserved":false,"is_disabled":true,"rental_uris":{"android":"levelo://app?vid=85924973-e5bb-4029-955b-0245b83a67ef","ios":"levelo://app?vid=85924973-e5bb-4029-955b-0245b83a67ef"},"vehicle_type_id":"4","last_reported":1749920881,"current_range_meters":2000,"station_id":"ce4bhg92rcd13ifvqf90","pricing_plan_id":"cebpf4jnsgd1na2vs0mg"},{"bike_id":"aaf569d9-4a50-4d54-b8a7-a9b1238a31ef","system_id":"levelo_inurba_marseille","lat":43.24794,"lon":5.37451,"is_reserved":false,"is_disabled":false,"rental_uris":{"android":"levelo://app?vid=aaf569d9-4a50-4d54-b8a7-a9b1238a31ef","ios":"levelo://app?vid=aaf569d9-4a50-4d54-b8a7-a9b1238a31ef"},"vehicle_type_id":"4","last_reported":1749920881,"current_range_meters":2000,"station_id":"ce4bhgh2rcd13ifvqfb0","pricing_plan_id":"cebpf4jnsgd1na2vs0mg"},{"bike_id":"38def5dd-d809-4adb-bd1d-955356d73dea","system_id":"levelo_inurba_marseille","lat":43.23961,"lon":5.36628,"is_reserved":false,"is_disabled":true,"rental_uris":{"android":"levelo://app?vid=38def5dd-d809-4adb-bd1d-955356d73dea","ios":"levelo://app?vid=38def5dd-d809-4adb-bd1d-955356d73dea"},"vehicle_type_id":"4","last_reported":1749920881,"current_range_meters":2000,"station_id":"ce4bhi12rcd13ifvqfp0","pricing_plan_id":"cebpf4jnsgd1na2vs0mg"},{"bike_id":"3606d17c-8bad-4cd8-9500-dc9a4f198b88","system_id":"levelo_inurba_marseille","lat":43.24681,"lon":5.38144,"is_reserved":false,"is_disabled":true,"rental_uris":{"android":"levelo://app?vid=3606d17c-8bad-4cd8-9500-dc9a4f198b88","ios":"levelo://app?vid=3606d17c-8bad-4cd8-9500-dc9a4f198b88"},"vehicle_type_id":"4","last_reported":1749920881,"current_range_meters":2000,"station_id":"ce4bhih2rcd13ifvqfr0","pricing_plan_id":"cebpf4jnsgd1na2vs0mg"},{"bike_id":"ebd93357-9bde-4bca-94d4-5325cf80feeb","system_id":"levelo_inurba_marseille","lat":43.281482,"lon":5.426526,"is_reserved":false,"is_disabled":true,"rental_uris":{"android":"levelo://app?vid=ebd93357-9bde-4bca-94d4-5325cf80feeb","ios":"levelo://app?vid=ebd93357-9bde-4bca-94d4-5325cf80feeb"},"vehicle_type_id":"4","last_reported":1749920881,"current_range_meters":2000,"station_id":"ce4bhnh2rcd13ifvqgug","pricing_plan_id":"cebpf4jnsgd1na2vs0mg"},{"bike_id":"1eae1358-1bbd-4c90-b289-c461bea836ff","system_id":"levelo_inurba_marseille","lat":43.30879,"lon":5.37197,"is_reserved":false,"is_disabled":true,"rental_uris":{"android":"levelo://app?vid=1eae1358-1bbd-4c90-b289-c461bea836ff","ios":"levelo://app?vid=1eae1358-1bbd-4c90-b289-c461bea836ff"},"vehicle_type_id":"4","last_reported":1749920881,"current_range_meters":2800,"station_id":"ce4bguh2rcd13ifvqckg","pricing_plan_id":"cebpf4jnsgd1na2vs0mg"},{"bike_id":"d7d54a43-ff28-4777-ba51-568bffc88d74","system_id":"levelo_inurba_marseille","lat":43.26683,"lon":5.3827,"is_reserved":false,"is_disabled":false,"rental_uris":{"android":"levelo://app?vid=d7d54a43-ff28-4777-ba51-568bffc88d74","ios":"levelo://app?vid=d7d54a43-ff28-4777-ba51-568bffc88d74"},"vehicle_type_id":"4","last_reported":1749920881,"current_range_meters":2800,"station_id":"ce4bhg92rcd13ifvqf90","pricing_plan_id":"cebpf4jnsgd1na2vs0mg"},{"bike_id":"4d110186-150d-4429-8ddf-bed63aa104ab","system_id":"levelo_inurba_marseille","lat":43.25115,"lon":5.40315,"is_reserved":false,"is_disabled":false,"rental_uris":{"android":"levelo://app?vid=4d110186-150d-4429-8ddf-bed63aa104ab","ios":"levelo://app?vid=4d110186-150d-4429-8ddf-bed63aa104ab"},"vehicle_type_id":"4","last_reported":1749920881,"current_range_meters":2800,"station_id":"ce4bhlh2rcd13ifvqgig","pricing_plan_id":"cebpf4jnsgd1na2vs0mg"},{"bike_id":"9d1972fa-6dbb-497a-bcd4-3c0c521e9081","system_id":"levelo_inurba_marseille","lat":43.26802,"lon":5.40263,"is_reserved":false,"is_disabled":false,"rental_uris":{"android":"levelo://app?vid=9d1972fa-6dbb-497a-bcd4-3c0c521e9081","ios":"levelo://app?vid=9d1972fa-6dbb-497a-bcd4-3c0c521e9081"},"vehicle_type_id":"4","last_reported":1749920881,"current_range_meters":2800,"station_id":"ce501612rcd8frsf0b60","pricing_plan_id":"cebpf4jnsgd1na2vs0mg"},{"bike_id":"97421c04-2630-4fc1-9da9-b17d88602c5f","system_id":"levelo_inurba_marseille","lat":43.337682,"lon":5.374519,"is_reserved":false,"is_disabled":false,"rental_uris":{"android":"levelo://app?vid=97421c04-2630-4fc1-9da9-b17d88602c5f","ios":"levelo://app?vid=97421c04-2630-4fc1-9da9-b17d88602c5f"},"vehicle_type_id":"4","last_reported":1749920881,"current_range_meters":3200,"station_id":"","pricing_plan_id":"cebpf4jnsgd1na2vs0mg"},{"bike_id":"9a99521c-c044-41b6-bbd8-04e52c5df8ac","system_id":"levelo_inurba_marseille","lat":43.30247,"lon":5.40069,"is_reserved":false,"is_disabled":false,"rental_uris":{"android":"levelo://app?vid=9a99521c-c044-41b6-bbd8-04e52c5df8ac","ios":"levelo://app?vid=9a99521c-c044-41b6-bbd8-04e52c5df8ac"},"vehicle_type_id":"4","last_reported":1749920881,"current_range_meters":3200,"station_id":"ce4bgvh2rcd13ifvqcs0","pricing_plan_id":"cebpf4jnsgd1na2vs0mg"},{"bike_id":"bccec117-c99a-4659-89d0-1d3385710b7a","system_id":"levelo_inurba_marseille","lat":43.28921,"lon":5.38396,"is_reserved":false,"is_disabled":false,"rental_uris":{"android":"levelo://app?vid=bccec117-c99a-4659-89d0-1d3385710b7a","ios":"levelo://app?vid=bccec117-c99a-4659-89d0-1d3385710b7a"},"vehicle_type_id":"4","last_reported":1749920881,"current_range_meters":3200,"station_id":"ce4bh612rcd13ifvqe6g","pricing_plan_id":"cebpf4jnsgd1na2vs0mg"},{"bike_id":"0367ef8b-b7c1-476d-ad83-30b5933ca34f","system_id":"levelo_inurba_marseille","lat":43.28273,"lon":5.35067,"is_reserved":false,"is_disabled":false,"rental_uris":{"android":"levelo://app?vid=0367ef8b-b7c1-476d-ad83-30b5933ca34f","ios":"levelo://app?vid=0367ef8b-b7c1-476d-ad83-30b5933ca34f"},"vehicle_type_id":"4","last_reported":1749920881,"current_range_meters":3200,"station_id":"ce4bhbp2rcd13ifvqerg","pricing_plan_id":"cebpf4jnsgd1na2vs0mg"},{"bike_id":"760ce6be-87c8-4df2-b484-892a770584e8","system_id":"levelo_inurba_marseille","lat":43.279662,"lon":5.387391,"is_reserved":false,"is_disabled":false,"rental_uris":{"android":"levelo://app?vid=760ce6be-87c8-4df2-b484-892a770584e8","ios":"levelo://app?vid=760ce6be-87c8-4df2-b484-892a770584e8"},"vehicle_type_id":"4","last_reported":1749920881,"current_range_meters":3200,"station_id":"ce4bhg12rcd13ifvqf80","pricing_plan_id":"cebpf4jnsgd1na2vs0mg"},{"bike_id":"2b2b60fb-c523-4a4c-ac06-be4278a60b4a","system_id":"levelo_inurba_marseille","lat":43.29912,"lon":5.3813,"is_reserved":false,"is_disabled":false,"rental_uris":{"android":"levelo://app?vid=2b2b60fb-c523-4a4c-ac06-be4278a60b4a","ios":"levelo://app?vid=2b2b60fb-c523-4a4c-ac06-be4278a60b4a"},"vehicle_type_id":"4","last_reported":1749920881,"current_range_meters":3600,"station_id":"ce4bgj12rcd13ifvqbc0","pricing_plan_id":"cebpf4jnsgd1na2vs0mg"},{"bike_id":"47defc8b-739f-4350-8ca3-9e1bf707f0ec","system_id":"levelo_inurba_marseille","lat":43.28672,"lon":5.38665,"is_reserved":false,"is_disabled":false,"rental_uris":{"android":"levelo://app?vid=47defc8b-739f-4350-8ca3-9e1bf707f0ec","ios":"levelo://app?vid=47defc8b-739f-4350-8ca3-9e1bf707f0ec"},"vehicle_type_id":"4","last_reported":1749920881,"current_range_meters":3600,"station_id":"ce4bh492rcd13ifvqdug","pricing_plan_id":"cebpf4jnsgd1na2vs0mg"},{"bike_id":"73f3fbb1-b4a5-4104-8e0d-d1cc347e7d3b","system_id":"levelo_inurba_marseille","lat":43.27423,"lon":5.39413,"is_reserved":false,"is_disabled":false,"rental_uris":{"android":"levelo://app?vid=73f3fbb1-b4a5-4104-8e0d-d1cc347e7d3b","ios":"levelo://app?vid=73f3fbb1-b4a5-4104-8e0d-d1cc347e7d3b"},"vehicle_type_id":"4","last_reported":1749920881,"current_range_meters":3600,"station_id":"ce4bhdp2rcd13ifvqf20","pricing_plan_id":"cebpf4jnsgd1na2vs0mg"},{"bike_id":"c58b9db4-7d3f-4b86-a5b3-831604a28d47","system_id":"levelo_inurba_marseille","lat":43.26804,"lon":5.40257,"is_reserved":false,"is_disabled":false,"rental_uris":{"android":"levelo://app?vid=c58b9db4-7d3f-4b86-a5b3-831604a28d47","ios":"levelo://app?vid=c58b9db4-7d3f-4b86-a5b3-831604a28d47"},"vehicle_type_id":"4","last_reported":1749920881,"current_range_meters":3600,"station_id":"ce501612rcd8frsf0b60","pricing_plan_id":"cebpf4jnsgd1na2vs0mg"},{"bike_id":"c8e69db0-f09c-4989-ab07-59b40e5edf94","system_id":"levelo_inurba_marseille","lat":43.21739,"lon":5.34602,"is_reserved":false,"is_disabled":false,"rental_uris":{"android":"levelo://app?vid=c8e69db0-f09c-4989-ab07-59b40e5edf94","ios":"levelo://app?vid=c8e69db0-f09c-4989-ab07-59b40e5edf94"},"vehicle_type_id":"4","last_reported":1749920881,"current_range_meters":3600,"station_id":"st_cvj6r9ubvosntc0bgbag","pricing_plan_id":"cebpf4jnsgd1na2vs0mg"},{"bike_id":"16d8d838-889b-4912-997a-48cbb047b04b","system_id":"levelo_inurba_marseille","lat":43.3315,"lon":5.38168,"is_reserved":false,"is_disabled":false,"rental_uris":{"android":"levelo://app?vid=16d8d838-889b-4912-997a-48cbb047b04b","ios":"levelo://app?vid=16d8d838-889b-4912-997a-48cbb047b04b"},"vehicle_type_id":"4","last_reported":1749920881,"current_range_meters":4000,"station_id":"","pricing_plan_id":"cebpf4jnsgd1na2vs0mg"},{"bike_id":"88e432b8-54ce-4387-8c6f-5cf2f6e9fb67","system_id":"levelo_inurba_marseille","lat":43.26956,"lon":5.38634,"is_reserved":false,"is_disabled":false,"rental_uris":{"android":"levelo://app?vid=88e432b8-54ce-4387-8c6f-5cf2f6e9fb67","ios":"levelo://app?vid=88e432b8-54ce-4387-8c6f-5cf2f6e9fb67"},"vehicle_type_id":"4","last_reported":1749920881,"current_range_meters":4000,"station_id":"ce4bhh92rcd13ifvqfh0","pricing_plan_id":"cebpf4jnsgd1na2vs0mg"},{"bike_id":"a15ed74e-c704-4ece-8571-5287be009521","system_id":"levelo_inurba_marseille","lat":43.29368,"lon":5.37865,"is_reserved":false,"is_disabled":false,"rental_uris":{"android":"levelo://app?vid=a15ed74e-c704-4ece-8571-5287be009521","ios":"levelo://app?vid=a15ed74e-c704-4ece-8571-5287be009521"},"vehicle_type_id":"4","last_reported":1749920881,"current_range_meters":4400,"station_id":"ce4bgjh2rcd13ifvqbf0","pricing_plan_id":"cebpf4jnsgd1na2vs0mg"},{"bike_id":"506cab45-df67-4a13-81da-76c5e7389a29","system_id":"levelo_inurba_marseille","lat":43.26563,"lon":5.39005,"is_reserved":false,"is_disabled":false,"rental_uris":{"android":"levelo://app?vid=506cab45-df67-4a13-81da-76c5e7389a29","ios":"levelo://app?vid=506cab45-df67-4a13-81da-76c5e7389a29"},"vehicle_type_id":"4","last_reported":1749920881,"current_range_meters":4400,"station_id":"ce4bhe12rcd13ifvqf30","pricing_plan_id":"cebpf4jnsgd1na2vs0mg"},{"bike_id":"90ef40a1-f9ab-4b54-a03c-f952883286a8","system_id":"levelo_inurba_marseille","lat":43.26683,"lon":5.38272,"is_reserved":false,"is_disabled":false,"rental_uris":{"android":"levelo://app?vid=90ef40a1-f9ab-4b54-a03c-f952883286a8","ios":"levelo://app?vid=90ef40a1-f9ab-4b54-a03c-f952883286a8"},"vehicle_type_id":"4","last_reported":1749920881,"current_range_meters":4400,"station_id":"ce4bhg92rcd13ifvqf90","pricing_plan_id":"cebpf4jnsgd1na2vs0mg"},{"bike_id":"2e49c5b2-ef7c-4eb0-8e15-77dc601666d8","system_id":"levelo_inurba_marseille","lat":43.3204,"lon":5.41529,"is_reserved":false,"is_disabled":false,"rental_uris":{"android":"levelo://app?vid=2e49c5b2-ef7c-4eb0-8e15-77dc601666d8","ios":"levelo://app?vid=2e49c5b2-ef7c-4eb0-8e15-77dc601666d8"},"vehicle_type_id":"4","last_reported":1749920881,"current_range_meters":4400,"station_id":"ce4bhq92rcd13ifvqhkg","pricing_plan_id":"cebpf4jnsgd1na2vs0mg"},{"bike_id":"952b941c-2570-4f2c-b581-5a26968baacb","system_id":"levelo_inurba_marseille","lat":43.30152,"lon":5.38097,"is_reserved":false,"is_disabled":false,"rental_uris":{"android":"levelo://app?vid=952b941c-2570-4f2c-b581-5a26968baacb","ios":"levelo://app?vid=952b941c-2570-4f2c-b581-5a26968baacb"},"vehicle_type_id":"4","last_reported":1749920881,"current_range_meters":4800,"station_id":"ce4bgjp2rcd13ifvqbh0","pricing_plan_id":"cebpf4jnsgd1na2vs0mg"},{"bike_id":"56eba065-7299-43e8-96d2-4bfb7c4e7af5","system_id":"levelo_inurba_marseille","lat":43.2828,"lon":5.35057,"is_reserved":false,"is_disabled":false,"rental_uris":{"android":"levelo://app?vid=56eba065-7299-43e8-96d2-4bfb7c4e7af5","ios":"levelo://app?vid=56eba065-7299-43e8-96d2-4bfb7c4e7af5"},"vehicle_type_id":"4","last_reported":1749920881,"current_range_meters":4800,"station_id":"ce4bhbp2rcd13ifvqerg","pricing_plan_id":"cebpf4jnsgd1na2vs0mg"},{"bike_id":"f23ceec5-1ef2-4620-ac5f-4a1176e8b471","system_id":"levelo_inurba_marseille","lat":43.26689,"lon":5.38264,"is_reserved":false,"is_disabled":false,"rental_uris":{"android":"levelo://app?vid=f23ceec5-1ef2-4620-ac5f-4a1176e8b471","ios":"levelo://app?vid=f23ceec5-1ef2-4620-ac5f-4a1176e8b471"},"vehicle_type_id":"4","last_reported":1749920881,"current_range_meters":4800,"station_id":"ce4bhg92rcd13ifvqf90","pricing_plan_id":"cebpf4jnsgd1na2vs0mg"},{"bike_id":"0aa9d68d-7510-409b-857f-9b5d63ca0bb6","system_id":"levelo_inurba_marseille","lat":43.24809,"lon":5.37452,"is_reserved":false,"is_disabled":false,"rental_uris":{"android":"levelo://app?vid=0aa9d68d-7510-409b-857f-9b5d63ca0bb6","ios":"levelo://app?vid=0aa9d68d-7510-409b-857f-9b5d63ca0bb6"},"vehicle_type_id":"4","last_reported":1749920881,"current_range_meters":4800,"station_id":"ce4bhgh2rcd13ifvqfb0","pricing_plan_id":"cebpf4jnsgd1na2vs0mg"},{"bike_id":"d29255c3-a371-43e9-a080-a24e6261a8e0","system_id":"levelo_inurba_marseille","lat":43.268238,"lon":5.389251,"is_reserved":false,"is_disabled":false,"rental_uris":{"android":"levelo://app?vid=d29255c3-a371-43e9-a080-a24e6261a8e0","ios":"levelo://app?vid=d29255c3-a371-43e9-a080-a24e6261a8e0"},"vehicle_type_id":"4","last_reported":1749920881,"current_range_meters":4800,"station_id":"ce4bhhh2rcd13ifvqfl0","pricing_plan_id":"cebpf4jnsgd1na2vs0mg"},{"bike_id":"082289a8-14be-470a-bfe5-2d03eb9b6f7b","system_id":"levelo_inurba_marseille","lat":43.24665,"lon":5.3815,"is_reserved":false,"is_disabled":false,"rental_uris":{"android":"levelo://app?vid=082289a8-14be-470a-bfe5-2d03eb9b6f7b","ios":"levelo://app?vid=082289a8-14be-470a-bfe5-2d03eb9b6f7b"},"vehicle_type_id":"4","last_reported":1749920881,"current_range_meters":4800,"station_id":"ce4bhih2rcd13ifvqfr0","pricing_plan_id":"cebpf4jnsgd1na2vs0mg"},{"bike_id":"e67291d5-9c2a-43d6-a856-806c29fee7fd","system_id":"levelo_inurba_marseille","lat":43.25721,"lon":5.41109,"is_reserved":false,"is_disabled":false,"rental_uris":{"android":"levelo://app?vid=e67291d5-9c2a-43d6-a856-806c29fee7fd","ios":"levelo://app?vid=e67291d5-9c2a-43d6-a856-806c29fee7fd"},"vehicle_type_id":"4","last_reported":1749920881,"current_range_meters":4800,"station_id":"ce4bhkp2rcd13ifvqgd0","pricing_plan_id":"cebpf4jnsgd1na2vs0mg"},{"bike_id":"bd1a4c12-c161-4a90-85a2-b25d52e4e6df","system_id":"levelo_inurba_marseille","lat":43.28158,"lon":5.42651,"is_reserved":false,"is_disabled":false,"rental_uris":{"android":"levelo://app?vid=bd1a4c12-c161-4a90-85a2-b25d52e4e6df","ios":"levelo://app?vid=bd1a4c12-c161-4a90-85a2-b25d52e4e6df"},"vehicle_type_id":"4","last_reported":1749920881,"current_range_meters":4800,"station_id":"ce4bhnh2rcd13ifvqgug","pricing_plan_id":"cebpf4jnsgd1na2vs0mg"},{"bike_id":"f5b2ffae-c086-4e1b-b0fd-043d6026a577","system_id":"levelo_inurba_marseille","lat":43.33753,"lon":5.39155,"is_reserved":false,"is_disabled":false,"rental_uris":{"android":"levelo://app?vid=f5b2ffae-c086-4e1b-b0fd-043d6026a577","ios":"levelo://app?vid=f5b2ffae-c086-4e1b-b0fd-043d6026a577"},"vehicle_type_id":"4","last_reported":1749920881,"current_range_meters":4800,"station_id":"ce4bhr92rcd13ifvqhsg","pricing_plan_id":"cebpf4jnsgd1na2vs0mg"},{"bike_id":"fdf9ba6a-d144-49cc-83a9-1704e11a3f90","system_id":"levelo_inurba_marseille","lat":43.23065,"lon":5.35484,"is_reserved":false,"is_disabled":false,"rental_uris":{"android":"levelo://app?vid=fdf9ba6a-d144-49cc-83a9-1704e11a3f90","ios":"levelo://app?vid=fdf9ba6a-d144-49cc-83a9-1704e11a3f90"},"vehicle_type_id":"4","last_reported":1749920881,"current_range_meters":4800,"station_id":"cpo3342slgdg3j2ifvpg","pricing_plan_id":"cebpf4jnsgd1na2vs0mg"},{"bike_id":"a24fa23a-baeb-4309-b1b5-90dde73961fe","system_id":"levelo_inurba_marseille","lat":43.291934,"lon":5.357991,"is_reserved":false,"is_disabled":false,"rental_uris":{"android":"levelo://app?vid=a24fa23a-baeb-4309-b1b5-90dde73961fe","ios":"levelo://app?vid=a24fa23a-baeb-4309-b1b5-90dde73961fe"},"vehicle_type_id":"4","last_reported":1749920881,"current_range_meters":5600,"station_id":"ce4bhb12rcd13ifvqel0","pricing_plan_id":"cebpf4jnsgd1na2vs0mg"},{"bike_id":"90369988-8695-4285-9605-85348dc16c40","system_id":"levelo_inurba_marseille","lat":43.24662,"lon":5.38149,"is_reserved":false,"is_disabled":false,"rental_uris":{"android":"levelo://app?vid=90369988-8695-4285-9605-85348dc16c40","ios":"levelo://app?vid=90369988-8695-4285-9605-85348dc16c40"},"vehicle_type_id":"4","last_reported":1749920881,"current_range_meters":5600,"station_id":"ce4bhih2rcd13ifvqfr0","pricing_plan_id":"cebpf4jnsgd1na2vs0mg"},{"bike_id":"e55c9df2-0e41-4078-9307-7ef12cc9c940","system_id":"levelo_inurba_marseille","lat":43.26363,"lon":5.37806,"is_reserved":false,"is_disabled":false,"rental_uris":{"android":"levelo://app?vid=e55c9df2-0e41-4078-9307-7ef12cc9c940","ios":"levelo://app?vid=e55c9df2-0e41-4078-9307-7ef12cc9c940"},"vehicle_type_id":"4","last_reported":1749920881,"current_range_meters":5600,"station_id":"st_d163nis0mtpqnht9uue0","pricing_plan_id":"cebpf4jnsgd1na2vs0mg"},{"bike_id":"a36f488b-4ea0-4614-9a4b-d320634964b6","system_id":"levelo_inurba_marseille","lat":43.30947,"lon":5.39031,"is_reserved":false,"is_disabled":false,"rental_uris":{"android":"levelo://app?vid=a36f488b-4ea0-4614-9a4b-d320634964b6","ios":"levelo://app?vid=a36f488b-4ea0-4614-9a4b-d320634964b6"},"vehicle_type_id":"4","last_reported":1749920881,"current_range_meters":6000,"station_id":"ce4bgup2rcd13ifvqco0","pricing_plan_id":"cebpf4jnsgd1na2vs0mg"},{"bike_id":"a4482412-44df-4992-914f-93fc4335e78f","system_id":"levelo_inurba_marseille","lat":43.30945,"lon":5.39039,"is_reserved":false,"is_disabled":false,"rental_uris":{"android":"levelo://app?vid=a4482412-44df-4992-914f-93fc4335e78f","ios":"levelo://app?vid=a4482412-44df-4992-914f-93fc4335e78f"},"vehicle_type_id":"4","last_reported":1749920881,"current_range_meters":6000,"station_id":"ce4bgup2rcd13ifvqco0","pricing_plan_id":"cebpf4jnsgd1na2vs0mg"},{"bike_id":"1a02737e-1ddf-475d-9950-54127761b49d","system_id":"levelo_inurba_marseille","lat":43.29558,"lon":5.42331,"is_reserved":false,"is_disabled":false,"rental_uris":{"android":"levelo://app?vid=1a02737e-1ddf-475d-9950-54127761b49d","ios":"levelo://app?vid=1a02737e-1ddf-475d-9950-54127761b49d"},"vehicle_type_id":"4","last_reported":1749920881,"current_range_meters":6000,"station_id":"ce4bhph2rcd13ifvqhdg","pricing_plan_id":"cebpf4jnsgd1na2vs0mg"},{"bike_id":"d08ceb6e-bb09-4d96-a815-acf4b6b23ab7","system_id":"levelo_inurba_marseille","lat":43.26389,"lon":5.37788,"is_reserved":false,"is_disabled":false,"rental_uris":{"android":"levelo://app?vid=d08ceb6e-bb09-4d96-a815-acf4b6b23ab7","ios":"levelo://app?vid=d08ceb6e-bb09-4d96-a815-acf4b6b23ab7"},"vehicle_type_id":"4","last_reported":1749920881,"current_range_meters":6000,"station_id":"st_d163nis0mtpqnht9uue0","pricing_plan_id":"cebpf4jnsgd1na2vs0mg"},{"bike_id":"9c88b122-aacf-42b3-9c68-67e40453b511","system_id":"levelo_inurba_marseille","lat":43.26362,"lon":5.37804,"is_reserved":false,"is_disabled":false,"rental_uris":{"android":"levelo://app?vid=9c88b122-aacf-42b3-9c68-67e40453b511","ios":"levelo://app?vid=9c88b122-aacf-42b3-9c68-67e40453b511"},"vehicle_type_id":"4","last_reported":1749920881,"current_range_meters":6000,"station_id":"st_d163nis0mtpqnht9uue0","pricing_plan_id":"cebpf4jnsgd1na2vs0mg"},{"bike_id":"04662dcf-38d2-48b7-940e-fb8585602239","system_id":"levelo_inurba_marseille","lat":43.29306,"lon":5.37172,"is_reserved":false,"is_disabled":false,"rental_uris":{"android":"levelo://app?vid=04662dcf-38d2-48b7-940e-fb8585602239","ios":"levelo://app?vid=04662dcf-38d2-48b7-940e-fb8585602239"},"vehicle_type_id":"4","last_reported":1749920881,"current_range_meters":6400,"station_id":"ce4bgh92rcd13ifvqb40","pricing_plan_id":"cebpf4jnsgd1na2vs0mg"},{"bike_id":"a869031c-3395-403a-bbb3-09bff579b246","system_id":"levelo_inurba_marseille","lat":43.29267,"lon":5.36847,"is_reserved":false,"is_disabled":false,"rental_uris":{"android":"levelo://app?vid=a869031c-3395-403a-bbb3-09bff579b246","ios":"levelo://app?vid=a869031c-3395-403a-bbb3-09bff579b246"},"vehicle_type_id":"4","last_reported":1749920881,"current_range_meters":6400,"station_id":"ce4bhbp2rcd13ifvqesg","pricing_plan_id":"cebpf4jnsgd1na2vs0mg"},{"bike_id":"57e8efe0-8728-49b7-8909-b80892fa49a7","system_id":"levelo_inurba_marseille","lat":43.27956,"lon":5.38718,"is_reserved":false,"is_disabled":false,"rental_uris":{"android":"levelo://app?vid=57e8efe0-8728-49b7-8909-b80892fa49a7","ios":"levelo://app?vid=57e8efe0-8728-49b7-8909-b80892fa49a7"},"vehicle_type_id":"4","last_reported":1749920881,"current_range_meters":6400,"station_id":"ce4bhg12rcd13ifvqf80","pricing_plan_id":"cebpf4jnsgd1na2vs0mg"},{"bike_id":"8770dbef-e8bd-43f8-bdb5-b4e3167a38af","system_id":"levelo_inurba_marseille","lat":43.25509,"lon":5.37637,"is_reserved":false,"is_disabled":false,"rental_uris":{"android":"levelo://app?vid=8770dbef-e8bd-43f8-bdb5-b4e3167a38af","ios":"levelo://app?vid=8770dbef-e8bd-43f8-bdb5-b4e3167a38af"},"vehicle_type_id":"4","last_reported":1749920881,"current_range_meters":6400,"station_id":"ce4bhh12rcd13ifvqff0","pricing_plan_id":"cebpf4jnsgd1na2vs0mg"},{"bike_id":"5a26f250-af79-4c3e-882a-d886fa905b84","system_id":"levelo_inurba_marseille","lat":43.32039,"lon":5.41546,"is_reserved":false,"is_disabled":false,"rental_uris":{"android":"levelo://app?vid=5a26f250-af79-4c3e-882a-d886fa905b84","ios":"levelo://app?vid=5a26f250-af79-4c3e-882a-d886fa905b84"},"vehicle_type_id":"4","last_reported":1749920881,"current_range_meters":6400,"station_id":"ce4bhq92rcd13ifvqhkg","pricing_plan_id":"cebpf4jnsgd1na2vs0mg"},{"bike_id":"a6ad01d0-efb1-4f14-a5fd-e22386289e67","system_id":"levelo_inurba_marseille","lat":43.32375,"lon":5.36757,"is_reserved":false,"is_disabled":false,"rental_uris":{"android":"levelo://app?vid=a6ad01d0-efb1-4f14-a5fd-e22386289e67","ios":"levelo://app?vid=a6ad01d0-efb1-4f14-a5fd-e22386289e67"},"vehicle_type_id":"4","last_reported":1749920881,"current_range_meters":6400,"station_id":"ce4bhsh2rcd13ifvqi2g","pricing_plan_id":"cebpf4jnsgd1na2vs0mg"},{"bike_id":"035a0130-e5e6-4a6c-be63-5d98c317603c","system_id":"levelo_inurba_marseille","lat":43.26355,"lon":5.37808,"is_reserved":false,"is_disabled":false,"rental_uris":{"android":"levelo://app?vid=035a0130-e5e6-4a6c-be63-5d98c317603c","ios":"levelo://app?vid=035a0130-e5e6-4a6c-be63-5d98c317603c"},"vehicle_type_id":"4","last_reported":1749920881,"current_range_meters":6400,"station_id":"st_d163nis0mtpqnht9uue0","pricing_plan_id":"cebpf4jnsgd1na2vs0mg"},{"bike_id":"cfefedb8-6ef2-45f6-9e81-8133ed4f8527","system_id":"levelo_inurba_marseille","lat":43.27703,"lon":5.35694,"is_reserved":false,"is_disabled":false,"rental_uris":{"android":"levelo://app?vid=cfefedb8-6ef2-45f6-9e81-8133ed4f8527","ios":"levelo://app?vid=cfefedb8-6ef2-45f6-9e81-8133ed4f8527"},"vehicle_type_id":"4","last_reported":1749920881,"current_range_meters":6800,"station_id":"","pricing_plan_id":"cebpf4jnsgd1na2vs0mg"},{"bike_id":"0bfae8ed-ea72-4cc9-99bb-fd62aacb1727","system_id":"levelo_inurba_marseille","lat":43.30928,"lon":5.4015,"is_reserved":false,"is_disabled":false,"rental_uris":{"android":"levelo://app?vid=0bfae8ed-ea72-4cc9-99bb-fd62aacb1727","ios":"levelo://app?vid=0bfae8ed-ea72-4cc9-99bb-fd62aacb1727"},"vehicle_type_id":"4","last_reported":1749920881,"current_range_meters":6800,"station_id":"ce4bgvp2rcd13ifvqct0","pricing_plan_id":"cebpf4jnsgd1na2vs0mg"},{"bike_id":"25df5f4b-9e80-42c7-a27a-fd204310ae63","system_id":"levelo_inurba_marseille","lat":43.23962,"lon":5.36631,"is_reserved":false,"is_disabled":false,"rental_uris":{"android":"levelo://app?vid=25df5f4b-9e80-42c7-a27a-fd204310ae63","ios":"levelo://app?vid=25df5f4b-9e80-42c7-a27a-fd204310ae63"},"vehicle_type_id":"4","last_reported":1749920881,"current_range_meters":6800,"station_id":"ce4bhi12rcd13ifvqfp0","pricing_plan_id":"cebpf4jnsgd1na2vs0mg"},{"bike_id":"3ebcb526-9195-4257-ae10-ca7e45e1829a","system_id":"levelo_inurba_marseille","lat":43.2319,"lon":5.39989,"is_reserved":false,"is_disabled":false,"rental_uris":{"android":"levelo://app?vid=3ebcb526-9195-4257-ae10-ca7e45e1829a","ios":"levelo://app?vid=3ebcb526-9195-4257-ae10-ca7e45e1829a"},"vehicle_type_id":"4","last_reported":1749920881,"current_range_meters":6800,"station_id":"ce4bhn12rcd13ifvqgqg","pricing_plan_id":"cebpf4jnsgd1na2vs0mg"},{"bike_id":"5d32a5ab-bdfa-4606-b9ac-4567794954e9","system_id":"levelo_inurba_marseille","lat":43.27815,"lon":5.40715,"is_reserved":false,"is_disabled":false,"rental_uris":{"android":"levelo://app?vid=5d32a5ab-bdfa-4606-b9ac-4567794954e9","ios":"levelo://app?vid=5d32a5ab-bdfa-4606-b9ac-4567794954e9"},"vehicle_type_id":"4","last_reported":1749920881,"current_range_meters":6800,"station_id":"ce4bhnh2rcd13ifvqgtg","pricing_plan_id":"cebpf4jnsgd1na2vs0mg"},{"bike_id":"369fd396-8470-499d-9567-9ed9f9efbc87","system_id":"levelo_inurba_marseille","lat":43.21756,"lon":5.34596,"is_reserved":false,"is_disabled":false,"rental_uris":{"android":"levelo://app?vid=369fd396-8470-499d-9567-9ed9f9efbc87","ios":"levelo://app?vid=369fd396-8470-499d-9567-9ed9f9efbc87"},"vehicle_type_id":"4","last_reported":1749920881,"current_range_meters":8000,"station_id":"","pricing_plan_id":"cebpf4jnsgd1na2vs0mg"},{"bike_id":"6facbc0d-f1b5-4dc3-86d4-5c1204834925","system_id":"levelo_inurba_marseille","lat":43.2804,"lon":5.34798,"is_reserved":false,"is_disabled":false,"rental_uris":{"android":"levelo://app?vid=6facbc0d-f1b5-4dc3-86d4-5c1204834925","ios":"levelo://app?vid=6facbc0d-f1b5-4dc3-86d4-5c1204834925"},"vehicle_type_id":"4","last_reported":1749920881,"current_range_meters":8000,"station_id":"","pricing_plan_id":"cebpf4jnsgd1na2vs0mg"},{"bike_id":"4ceb5922-0614-474b-b300-814169157c59","system_id":"levelo_inurba_marseille","lat":43.27965,"lon":5.38727,"is_reserved":false,"is_disabled":false,"rental_uris":{"android":"levelo://app?vid=4ceb5922-0614-474b-b300-814169157c59","ios":"levelo://app?vid=4ceb5922-0614-474b-b300-814169157c59"},"vehicle_type_id":"4","last_reported":1749920881,"current_range_meters":8000,"station_id":"ce4bhg12rcd13ifvqf80","pricing_plan_id":"cebpf4jnsgd1na2vs0mg"},{"bike_id":"86cf3aa6-2b63-4930-b9bf-9367a5aa0168","system_id":"levelo_inurba_marseille","lat":43.29894,"lon":5.43663,"is_reserved":false,"is_disabled":false,"rental_uris":{"android":"levelo://app?vid=86cf3aa6-2b63-4930-b9bf-9367a5aa0168","ios":"levelo://app?vid=86cf3aa6-2b63-4930-b9bf-9367a5aa0168"},"vehicle_type_id":"4","last_reported":1749920881,"current_range_meters":8000,"station_id":"ce4bhpp2rcd13ifvqhfg","pricing_plan_id":"cebpf4jnsgd1na2vs0mg"},{"bike_id":"59433d30-f3f9-4cbe-a83b-65d8901bb628","system_id":"levelo_inurba_marseille","lat":43.29938,"lon":5.36549,"is_reserved":false,"is_disabled":false,"rental_uris":{"android":"levelo://app?vid=59433d30-f3f9-4cbe-a83b-65d8901bb628","ios":"levelo://app?vid=59433d30-f3f9-4cbe-a83b-65d8901bb628"},"vehicle_type_id":"4","last_reported":1749920881,"current_range_meters":8400,"station_id":"ce4bgm92rcd13ifvqbr0","pricing_plan_id":"cebpf4jnsgd1na2vs0mg"},{"bike_id":"3236cfab-530e-4413-b1e2-a3c1205775ad","system_id":"levelo_inurba_marseille","lat":43.29797,"lon":5.40393,"is_reserved":false,"is_disabled":false,"rental_uris":{"android":"levelo://app?vid=3236cfab-530e-4413-b1e2-a3c1205775ad","ios":"levelo://app?vid=3236cfab-530e-4413-b1e2-a3c1205775ad"},"vehicle_type_id":"4","last_reported":1749920881,"current_range_meters":8400,"station_id":"ce4bh112rcd13ifvqd90","pricing_plan_id":"cebpf4jnsgd1na2vs0mg"},{"bike_id":"e0179c3b-b5e9-4d0c-b6d2-19ab01f3bec9","system_id":"levelo_inurba_marseille","lat":43.24674,"lon":5.38148,"is_reserved":false,"is_disabled":false,"rental_uris":{"android":"levelo://app?vid=e0179c3b-b5e9-4d0c-b6d2-19ab01f3bec9","ios":"levelo://app?vid=e0179c3b-b5e9-4d0c-b6d2-19ab01f3bec9"},"vehicle_type_id":"4","last_reported":1749920881,"current_range_meters":8400,"station_id":"ce4bhih2rcd13ifvqfr0","pricing_plan_id":"cebpf4jnsgd1na2vs0mg"},{"bike_id":"f053ee2f-b0a9-4944-9983-ac7f640159db","system_id":"levelo_inurba_marseille","lat":43.275,"lon":5.42437,"is_reserved":false,"is_disabled":false,"rental_uris":{"android":"levelo://app?vid=f053ee2f-b0a9-4944-9983-ac7f640159db","ios":"levelo://app?vid=f053ee2f-b0a9-4944-9983-ac7f640159db"},"vehicle_type_id":"4","last_reported":1749920881,"current_range_meters":8400,"station_id":"ce4bhn92rcd13ifvqgrg","pricing_plan_id":"cebpf4jnsgd1na2vs0mg"},{"bike_id":"0dd00f6f-359b-401a-a930-fefa4580045b","system_id":"levelo_inurba_marseille","lat":43.32365,"lon":5.36755,"is_reserved":false,"is_disabled":false,"rental_uris":{"android":"levelo://app?vid=0dd00f6f-359b-401a-a930-fefa4580045b","ios":"levelo://app?vid=0dd00f6f-359b-401a-a930-fefa4580045b"},"vehicle_type_id":"4","last_reported":1749920881,"current_range_meters":8400,"station_id":"ce4bhsh2rcd13ifvqi2g","pricing_plan_id":"cebpf4jnsgd1na2vs0mg"},{"bike_id":"9af96dee-393d-4a13-96ea-8d431f6f7f03","system_id":"levelo_inurba_marseille","lat":43.246327,"lon":5.379257,"is_reserved":false,"is_disabled":false,"rental_uris":{"android":"levelo://app?vid=9af96dee-393d-4a13-96ea-8d431f6f7f03","ios":"levelo://app?vid=9af96dee-393d-4a13-96ea-8d431f6f7f03"},"vehicle_type_id":"4","last_reported":1749920881,"current_range_meters":8800,"station_id":"","pricing_plan_id":"cebpf4jnsgd1na2vs0mg"},{"bike_id":"ab935c45-1791-4d36-b7f5-92b402b46134","system_id":"levelo_inurba_marseille","lat":43.30949,"lon":5.39033,"is_reserved":false,"is_disabled":false,"rental_uris":{"android":"levelo://app?vid=ab935c45-1791-4d36-b7f5-92b402b46134","ios":"levelo://app?vid=ab935c45-1791-4d36-b7f5-92b402b46134"},"vehicle_type_id":"4","last_reported":1749920881,"current_range_meters":8800,"station_id":"ce4bgup2rcd13ifvqco0","pricing_plan_id":"cebpf4jnsgd1na2vs0mg"},{"bike_id":"9b5d71f9-5511-4cfd-810f-2bda3970527b","system_id":"levelo_inurba_marseille","lat":43.25565,"lon":5.38242,"is_reserved":false,"is_disabled":false,"rental_uris":{"android":"levelo://app?vid=9b5d71f9-5511-4cfd-810f-2bda3970527b","ios":"levelo://app?vid=9b5d71f9-5511-4cfd-810f-2bda3970527b"},"vehicle_type_id":"4","last_reported":1749920881,"current_range_meters":8800,"station_id":"ce4bhih2rcd13ifvqfs0","pricing_plan_id":"cebpf4jnsgd1na2vs0mg"},{"bike_id":"af8efff2-283f-4833-a9a2-6c33bc6032c9","system_id":"levelo_inurba_marseille","lat":43.31365,"lon":5.37103,"is_reserved":false,"is_disabled":false,"rental_uris":{"android":"levelo://app?vid=af8efff2-283f-4833-a9a2-6c33bc6032c9","ios":"levelo://app?vid=af8efff2-283f-4833-a9a2-6c33bc6032c9"},"vehicle_type_id":"4","last_reported":1749920881,"current_range_meters":9200,"station_id":"","pricing_plan_id":"cebpf4jnsgd1na2vs0mg"},{"bike_id":"87c270dc-4fcf-4263-8f57-a07ca944f869","system_id":"levelo_inurba_marseille","lat":43.31268,"lon":5.39435,"is_reserved":false,"is_disabled":false,"rental_uris":{"android":"levelo://app?vid=87c270dc-4fcf-4263-8f57-a07ca944f869","ios":"levelo://app?vid=87c270dc-4fcf-4263-8f57-a07ca944f869"},"vehicle_type_id":"4","last_reported":1749920881,"current_range_meters":9600,"station_id":"","pricing_plan_id":"cebpf4jnsgd1na2vs0mg"},{"bike_id":"e2f78d64-1e6c-4f14-bd5b-5fd3482a2e35","system_id":"levelo_inurba_marseille","lat":43.29029,"lon":5.38642,"is_reserved":false,"is_disabled":false,"rental_uris":{"android":"levelo://app?vid=e2f78d64-1e6c-4f14-bd5b-5fd3482a2e35","ios":"levelo://app?vid=e2f78d64-1e6c-4f14-bd5b-5fd3482a2e35"},"vehicle_type_id":"4","last_reported":1749920881,"current_range_meters":9600,"station_id":"ce4bh4p2rcd13ifvqe0g","pricing_plan_id":"cebpf4jnsgd1na2vs0mg"},{"bike_id":"a2f36015-21f2-481d-bdf5-2ff7bc0351b0","system_id":"levelo_inurba_marseille","lat":43.268,"lon":5.40288,"is_reserved":false,"is_disabled":false,"rental_uris":{"android":"levelo://app?vid=a2f36015-21f2-481d-bdf5-2ff7bc0351b0","ios":"levelo://app?vid=a2f36015-21f2-481d-bdf5-2ff7bc0351b0"},"vehicle_type_id":"4","last_reported":1749920881,"current_range_meters":9600,"station_id":"ce501612rcd8frsf0b60","pricing_plan_id":"cebpf4jnsgd1na2vs0mg"},{"bike_id":"2f0c6462-fbb1-4d3d-94cc-77e53667d1e9","system_id":"levelo_inurba_marseille","lat":43.26354,"lon":5.37812,"is_reserved":false,"is_disabled":false,"rental_uris":{"android":"levelo://app?vid=2f0c6462-fbb1-4d3d-94cc-77e53667d1e9","ios":"levelo://app?vid=2f0c6462-fbb1-4d3d-94cc-77e53667d1e9"},"vehicle_type_id":"4","last_reported":1749920881,"current_range_meters":9600,"station_id":"st_d163nis0mtpqnht9uue0","pricing_plan_id":"cebpf4jnsgd1na2vs0mg"},{"bike_id":"2ab31527-f915-4286-b3a0-0beafd2cdd50","system_id":"levelo_inurba_marseille","lat":43.3002,"lon":5.37099,"is_reserved":false,"is_disabled":false,"rental_uris":{"android":"levelo://app?vid=2ab31527-f915-4286-b3a0-0beafd2cdd50","ios":"levelo://app?vid=2ab31527-f915-4286-b3a0-0beafd2cdd50"},"vehicle_type_id":"4","last_reported":1749920881,"current_range_meters":10000,"station_id":"","pricing_plan_id":"cebpf4jnsgd1na2vs0mg"},{"bike_id":"32d60524-d26a-42c8-8922-fa877ac9b4aa","system_id":"levelo_inurba_marseille","lat":43.265564,"lon":5.372826,"is_reserved":false,"is_disabled":false,"rental_uris":{"android":"levelo://app?vid=32d60524-d26a-42c8-8922-fa877ac9b4aa","ios":"levelo://app?vid=32d60524-d26a-42c8-8922-fa877ac9b4aa"},"vehicle_type_id":"4","last_reported":1749920881,"current_range_meters":10000,"station_id":"","pricing_plan_id":"cebpf4jnsgd1na2vs0mg"},{"bike_id":"9755c3e1-5a54-43c7-ba1c-0086dfeba34d","system_id":"levelo_inurba_marseille","lat":43.28483,"lon":5.38415,"is_reserved":false,"is_disabled":false,"rental_uris":{"android":"levelo://app?vid=9755c3e1-5a54-43c7-ba1c-0086dfeba34d","ios":"levelo://app?vid=9755c3e1-5a54-43c7-ba1c-0086dfeba34d"},"vehicle_type_id":"4","last_reported":1749920881,"current_range_meters":10000,"station_id":"ce4bh512rcd13ifvqe3g","pricing_plan_id":"cebpf4jnsgd1na2vs0mg"},{"bike_id":"0a176c0c-78a3-474b-b917-3fc9a4ed2ff7","system_id":"levelo_inurba_marseille","lat":43.25572,"lon":5.38227,"is_reserved":false,"is_disabled":false,"rental_uris":{"android":"levelo://app?vid=0a176c0c-78a3-474b-b917-3fc9a4ed2ff7","ios":"levelo://app?vid=0a176c0c-78a3-474b-b917-3fc9a4ed2ff7"},"vehicle_type_id":"4","last_reported":1749920881,"current_range_meters":10000,"station_id":"ce4bhih2rcd13ifvqfs0","pricing_plan_id":"cebpf4jnsgd1na2vs0mg"},{"bike_id":"6d8176a2-acf7-47f4-8256-cdf2966d719f","system_id":"levelo_inurba_marseille","lat":43.27949,"lon":5.4105,"is_reserved":false,"is_disabled":false,"rental_uris":{"android":"levelo://app?vid=6d8176a2-acf7-47f4-8256-cdf2966d719f","ios":"levelo://app?vid=6d8176a2-acf7-47f4-8256-cdf2966d719f"},"vehicle_type_id":"4","last_reported":1749920881,"current_range_meters":10000,"station_id":"ce4bhnp2rcd13ifvqh0g","pricing_plan_id":"cebpf4jnsgd1na2vs0mg"},{"bike_id":"44249392-feeb-4626-a977-7955b0c1143c","system_id":"levelo_inurba_marseille","lat":43.322611,"lon":5.382656,"is_reserved":false,"is_disabled":false,"rental_uris":{"android":"levelo://app?vid=44249392-feeb-4626-a977-7955b0c1143c","ios":"levelo://app?vid=44249392-feeb-4626-a977-7955b0c1143c"},"vehicle_type_id":"4","last_reported":1749920881,"current_range_meters":10000,"station_id":"ce4bhr12rcd13ifvqhqg","pricing_plan_id":"cebpf4jnsgd1na2vs0mg"},{"bike_id":"061b51dc-6943-4523-8eed-b536ad391319","system_id":"levelo_inurba_marseille","lat":43.26366,"lon":5.3781,"is_reserved":false,"is_disabled":false,"rental_uris":{"android":"levelo://app?vid=061b51dc-6943-4523-8eed-b536ad391319","ios":"levelo://app?vid=061b51dc-6943-4523-8eed-b536ad391319"},"vehicle_type_id":"4","last_reported":1749920881,"current_range_meters":10000,"station_id":"st_d163nis0mtpqnht9uue0","pricing_plan_id":"cebpf4jnsgd1na2vs0mg"},{"bike_id":"adf83dc5-0a6a-429f-adc8-9919acc04255","system_id":"levelo_inurba_marseille","lat":43.26498,"lon":5.39538,"is_reserved":false,"is_disabled":false,"rental_uris":{"android":"levelo://app?vid=adf83dc5-0a6a-429f-adc8-9919acc04255","ios":"levelo://app?vid=adf83dc5-0a6a-429f-adc8-9919acc04255"},"vehicle_type_id":"4","last_reported":1749920881,"current_range_meters":10800,"station_id":"ce4bhi12rcd13ifvqfq0","pricing_plan_id":"cebpf4jnsgd1na2vs0mg"},{"bike_id":"8712911d-c186-4974-911c-556ff2b605ba","system_id":"levelo_inurba_marseille","lat":43.24064,"lon":5.37756,"is_reserved":false,"is_disabled":false,"rental_uris":{"android":"levelo://app?vid=8712911d-c186-4974-911c-556ff2b605ba","ios":"levelo://app?vid=8712911d-c186-4974-911c-556ff2b605ba"},"vehicle_type_id":"4","last_reported":1749920881,"current_range_meters":10800,"station_id":"ce4bhnp2rcd13ifvqgvg","pricing_plan_id":"cebpf4jnsgd1na2vs0mg"},{"bike_id":"26849f89-c2a8-43c4-a89d-170b9eeee123","system_id":"levelo_inurba_marseille","lat":43.268,"lon":5.40274,"is_reserved":false,"is_disabled":false,"rental_uris":{"android":"levelo://app?vid=26849f89-c2a8-43c4-a89d-170b9eeee123","ios":"levelo://app?vid=26849f89-c2a8-43c4-a89d-170b9eeee123"},"vehicle_type_id":"4","last_reported":1749920881,"current_range_meters":10800,"station_id":"ce501612rcd8frsf0b60","pricing_plan_id":"cebpf4jnsgd1na2vs0mg"},{"bike_id":"c35fa280-4ea9-4bfe-a666-92ebbcc89bbc","system_id":"levelo_inurba_marseille","lat":43.25501,"lon":5.37665,"is_reserved":false,"is_disabled":false,"rental_uris":{"android":"levelo://app?vid=c35fa280-4ea9-4bfe-a666-92ebbcc89bbc","ios":"levelo://app?vid=c35fa280-4ea9-4bfe-a666-92ebbcc89bbc"},"vehicle_type_id":"4","last_reported":1749920881,"current_range_meters":11200,"station_id":"ce4bhh12rcd13ifvqff0","pricing_plan_id":"cebpf4jnsgd1na2vs0mg"},{"bike_id":"e6b0b40d-4027-43af-9d9c-4538e9417958","system_id":"levelo_inurba_marseille","lat":43.2638,"lon":5.37813,"is_reserved":false,"is_disabled":false,"rental_uris":{"android":"levelo://app?vid=e6b0b40d-4027-43af-9d9c-4538e9417958","ios":"levelo://app?vid=e6b0b40d-4027-43af-9d9c-4538e9417958"},"vehicle_type_id":"4","last_reported":1749920881,"current_range_meters":11200,"station_id":"st_d163nis0mtpqnht9uue0","pricing_plan_id":"cebpf4jnsgd1na2vs0mg"},{"bike_id":"b3fc16c9-b887-4638-b8bd-19ef31bcbe0a","system_id":"levelo_inurba_marseille","lat":43.29064,"lon":5.37161,"is_reserved":false,"is_disabled":false,"rental_uris":{"android":"levelo://app?vid=b3fc16c9-b887-4638-b8bd-19ef31bcbe0a","ios":"levelo://app?vid=b3fc16c9-b887-4638-b8bd-19ef31bcbe0a"},"vehicle_type_id":"4","last_reported":1749920881,"current_range_meters":11600,"station_id":"ce4bh5p2rcd13ifvqe4g","pricing_plan_id":"cebpf4jnsgd1na2vs0mg"},{"bike_id":"b663916b-cc0a-4bff-a033-e4835b58cc0c","system_id":"levelo_inurba_marseille","lat":43.239474,"lon":5.366611,"is_reserved":false,"is_disabled":false,"rental_uris":{"android":"levelo://app?vid=b663916b-cc0a-4bff-a033-e4835b58cc0c","ios":"levelo://app?vid=b663916b-cc0a-4bff-a033-e4835b58cc0c"},"vehicle_type_id":"4","last_reported":1749920881,"current_range_meters":11600,"station_id":"ce4bhi12rcd13ifvqfp0","pricing_plan_id":"cebpf4jnsgd1na2vs0mg"},{"bike_id":"33a5ae76-fedf-41f8-94fe-0f03745d1877","system_id":"levelo_inurba_marseille","lat":43.25575,"lon":5.38236,"is_reserved":false,"is_disabled":false,"rental_uris":{"android":"levelo://app?vid=33a5ae76-fedf-41f8-94fe-0f03745d1877","ios":"levelo://app?vid=33a5ae76-fedf-41f8-94fe-0f03745d1877"},"vehicle_type_id":"4","last_reported":1749920881,"current_range_meters":11600,"station_id":"ce4bhih2rcd13ifvqfs0","pricing_plan_id":"cebpf4jnsgd1na2vs0mg"},{"bike_id":"82551209-aaee-43ad-bdab-52d4c665fc66","system_id":"levelo_inurba_marseille","lat":43.269422,"lon":5.402418,"is_reserved":false,"is_disabled":false,"rental_uris":{"android":"levelo://app?vid=82551209-aaee-43ad-bdab-52d4c665fc66","ios":"levelo://app?vid=82551209-aaee-43ad-bdab-52d4c665fc66"},"vehicle_type_id":"4","last_reported":1749920881,"current_range_meters":11600,"station_id":"cjm6bp8fraef2m0cb0m0","pricing_plan_id":"cebpf4jnsgd1na2vs0mg"},{"bike_id":"2286a3b6-7b2a-4eb5-8469-27018dbe3012","system_id":"levelo_inurba_marseille","lat":43.29933,"lon":5.36556,"is_reserved":false,"is_disabled":false,"rental_uris":{"android":"levelo://app?vid=2286a3b6-7b2a-4eb5-8469-27018dbe3012","ios":"levelo://app?vid=2286a3b6-7b2a-4eb5-8469-27018dbe3012"},"vehicle_type_id":"4","last_reported":1749920881,"current_range_meters":12000,"station_id":"ce4bgm92rcd13ifvqbr0","pricing_plan_id":"cebpf4jnsgd1na2vs0mg"},{"bike_id":"bd6a90a9-ff3b-478b-823e-14d0ad3ee7ed","system_id":"levelo_inurba_marseille","lat":43.2667,"lon":5.38275,"is_reserved":false,"is_disabled":false,"rental_uris":{"android":"levelo://app?vid=bd6a90a9-ff3b-478b-823e-14d0ad3ee7ed","ios":"levelo://app?vid=bd6a90a9-ff3b-478b-823e-14d0ad3ee7ed"},"vehicle_type_id":"4","last_reported":1749920881,"current_range_meters":12000,"station_id":"ce4bhg92rcd13ifvqf90","pricing_plan_id":"cebpf4jnsgd1na2vs0mg"},{"bike_id":"779b112c-734e-4cec-97ae-0c88bd51db1b","system_id":"levelo_inurba_marseille","lat":43.239747,"lon":5.366295,"is_reserved":false,"is_disabled":false,"rental_uris":{"android":"levelo://app?vid=779b112c-734e-4cec-97ae-0c88bd51db1b","ios":"levelo://app?vid=779b112c-734e-4cec-97ae-0c88bd51db1b"},"vehicle_type_id":"4","last_reported":1749920881,"current_range_meters":12000,"station_id":"ce4bhi12rcd13ifvqfp0","pricing_plan_id":"cebpf4jnsgd1na2vs0mg"},{"bike_id":"2eb2516b-5f9f-4f58-8493-07049b393727","system_id":"levelo_inurba_marseille","lat":43.337334,"lon":5.391907,"is_reserved":false,"is_disabled":false,"rental_uris":{"android":"levelo://app?vid=2eb2516b-5f9f-4f58-8493-07049b393727","ios":"levelo://app?vid=2eb2516b-5f9f-4f58-8493-07049b393727"},"vehicle_type_id":"4","last_reported":1749920881,"current_range_meters":12000,"station_id":"ce4bhr92rcd13ifvqhsg","pricing_plan_id":"cebpf4jnsgd1na2vs0mg"},{"bike_id":"7afac99f-c8c4-495c-8e8b-7988d3d73e66","system_id":"levelo_inurba_marseille","lat":43.26363,"lon":5.37802,"is_reserved":false,"is_disabled":false,"rental_uris":{"android":"levelo://app?vid=7afac99f-c8c4-495c-8e8b-7988d3d73e66","ios":"levelo://app?vid=7afac99f-c8c4-495c-8e8b-7988d3d73e66"},"vehicle_type_id":"4","last_reported":1749920881,"current_range_meters":12400,"station_id":"st_d163nis0mtpqnht9uue0","pricing_plan_id":"cebpf4jnsgd1na2vs0mg"},{"bike_id":"38f69d32-c07d-4e5d-b2be-a045ca5ffeb4","system_id":"levelo_inurba_marseille","lat":43.24992,"lon":5.38939,"is_reserved":false,"is_disabled":false,"rental_uris":{"android":"levelo://app?vid=38f69d32-c07d-4e5d-b2be-a045ca5ffeb4","ios":"levelo://app?vid=38f69d32-c07d-4e5d-b2be-a045ca5ffeb4"},"vehicle_type_id":"4","last_reported":1749920881,"current_range_meters":12800,"station_id":"","pricing_plan_id":"cebpf4jnsgd1na2vs0mg"},{"bike_id":"77ab6a28-7bf3-45de-b335-8264034a150f","system_id":"levelo_inurba_marseille","lat":43.26685,"lon":5.3827,"is_reserved":false,"is_disabled":false,"rental_uris":{"android":"levelo://app?vid=77ab6a28-7bf3-45de-b335-8264034a150f","ios":"levelo://app?vid=77ab6a28-7bf3-45de-b335-8264034a150f"},"vehicle_type_id":"4","last_reported":1749920881,"current_range_meters":12800,"station_id":"ce4bhg92rcd13ifvqf90","pricing_plan_id":"cebpf4jnsgd1na2vs0mg"},{"bike_id":"28ffd6c6-9401-4ae2-8cf8-4898d22c49eb","system_id":"levelo_inurba_marseille","lat":43.29528,"lon":5.39026,"is_reserved":false,"is_disabled":false,"rental_uris":{"android":"levelo://app?vid=28ffd6c6-9401-4ae2-8cf8-4898d22c49eb","ios":"levelo://app?vid=28ffd6c6-9401-4ae2-8cf8-4898d22c49eb"},"vehicle_type_id":"4","last_reported":1749920881,"current_range_meters":13600,"station_id":"ce4bh3p2rcd13ifvqdp0","pricing_plan_id":"cebpf4jnsgd1na2vs0mg"},{"bike_id":"d5970e58-fc9f-483d-9986-7dbc1671b355","system_id":"levelo_inurba_marseille","lat":43.27492,"lon":5.42449,"is_reserved":false,"is_disabled":false,"rental_uris":{"android":"levelo://app?vid=d5970e58-fc9f-483d-9986-7dbc1671b355","ios":"levelo://app?vid=d5970e58-fc9f-483d-9986-7dbc1671b355"},"vehicle_type_id":"4","last_reported":1749920881,"current_range_meters":13600,"station_id":"ce4bhn92rcd13ifvqgrg","pricing_plan_id":"cebpf4jnsgd1na2vs0mg"},{"bike_id":"5a21e497-33bb-4066-baf7-e010c7ab35fe","system_id":"levelo_inurba_marseille","lat":43.24069,"lon":5.37748,"is_reserved":false,"is_disabled":false,"rental_uris":{"android":"levelo://app?vid=5a21e497-33bb-4066-baf7-e010c7ab35fe","ios":"levelo://app?vid=5a21e497-33bb-4066-baf7-e010c7ab35fe"},"vehicle_type_id":"4","last_reported":1749920881,"current_range_meters":13600,"station_id":"ce4bhnp2rcd13ifvqgvg","pricing_plan_id":"cebpf4jnsgd1na2vs0mg"},{"bike_id":"62132a0a-ca03-4421-b805-1ac0c0248c03","system_id":"levelo_inurba_marseille","lat":43.23207,"lon":5.3555,"is_reserved":false,"is_disabled":false,"rental_uris":{"android":"levelo://app?vid=62132a0a-ca03-4421-b805-1ac0c0248c03","ios":"levelo://app?vid=62132a0a-ca03-4421-b805-1ac0c0248c03"},"vehicle_type_id":"4","last_reported":1749920881,"current_range_meters":13600,"station_id":"ce4bhu92rcd13ifvqi70","pricing_plan_id":"cebpf4jnsgd1na2vs0mg"},{"bike_id":"769efce4-375c-4934-a7cd-61de7e676910","system_id":"levelo_inurba_marseille","lat":43.21186,"lon":5.35097,"is_reserved":false,"is_disabled":false,"rental_uris":{"android":"levelo://app?vid=769efce4-375c-4934-a7cd-61de7e676910","ios":"levelo://app?vid=769efce4-375c-4934-a7cd-61de7e676910"},"vehicle_type_id":"4","last_reported":1749920881,"current_range_meters":13600,"station_id":"st_cvj6sg6p6f1abm77japg","pricing_plan_id":"cebpf4jnsgd1na2vs0mg"},{"bike_id":"2ed7fed2-5ab1-4a16-a553-4fc3d91f055c","system_id":"levelo_inurba_marseille","lat":43.30132,"lon":5.38785,"is_reserved":false,"is_disabled":false,"rental_uris":{"android":"levelo://app?vid=2ed7fed2-5ab1-4a16-a553-4fc3d91f055c","ios":"levelo://app?vid=2ed7fed2-5ab1-4a16-a553-4fc3d91f055c"},"vehicle_type_id":"4","last_reported":1749920881,"current_range_meters":14000,"station_id":"ce4bghh2rcd13ifvqb60","pricing_plan_id":"cebpf4jnsgd1na2vs0mg"},{"bike_id":"85d1b937-8dd9-4e0e-9878-9759ad34c9a0","system_id":"levelo_inurba_marseille","lat":43.28938,"lon":5.36395,"is_reserved":false,"is_disabled":false,"rental_uris":{"android":"levelo://app?vid=85d1b937-8dd9-4e0e-9878-9759ad34c9a0","ios":"levelo://app?vid=85d1b937-8dd9-4e0e-9878-9759ad34c9a0"},"vehicle_type_id":"4","last_reported":1749920881,"current_range_meters":14000,"station_id":"ce4bhc92rcd13ifvqetg","pricing_plan_id":"cebpf4jnsgd1na2vs0mg"},{"bike_id":"da2d73a1-8504-4c2a-aefd-9e64e08c6387","system_id":"levelo_inurba_marseille","lat":43.26686,"lon":5.38272,"is_reserved":false,"is_disabled":false,"rental_uris":{"android":"levelo://app?vid=da2d73a1-8504-4c2a-aefd-9e64e08c6387","ios":"levelo://app?vid=da2d73a1-8504-4c2a-aefd-9e64e08c6387"},"vehicle_type_id":"4","last_reported":1749920881,"current_range_meters":14000,"station_id":"ce4bhg92rcd13ifvqf90","pricing_plan_id":"cebpf4jnsgd1na2vs0mg"},{"bike_id":"53439750-2f55-40ad-b103-7f195bfed790","system_id":"levelo_inurba_marseille","lat":43.250042,"lon":5.389136,"is_reserved":false,"is_disabled":false,"rental_uris":{"android":"levelo://app?vid=53439750-2f55-40ad-b103-7f195bfed790","ios":"levelo://app?vid=53439750-2f55-40ad-b103-7f195bfed790"},"vehicle_type_id":"4","last_reported":1749920881,"current_range_meters":14000,"station_id":"ce4bhgp2rcd13ifvqfd0","pricing_plan_id":"cebpf4jnsgd1na2vs0mg"},{"bike_id":"ade5c8b1-c3ce-4f19-9e5c-978723a267e8","system_id":"levelo_inurba_marseille","lat":43.23178,"lon":5.39988,"is_reserved":false,"is_disabled":false,"rental_uris":{"android":"levelo://app?vid=ade5c8b1-c3ce-4f19-9e5c-978723a267e8","ios":"levelo://app?vid=ade5c8b1-c3ce-4f19-9e5c-978723a267e8"},"vehicle_type_id":"4","last_reported":1749920881,"current_range_meters":14000,"station_id":"ce4bhn12rcd13ifvqgqg","pricing_plan_id":"cebpf4jnsgd1na2vs0mg"},{"bike_id":"d2729172-f4bf-4eb8-9964-c217269a3492","system_id":"levelo_inurba_marseille","lat":43.21197,"lon":5.35074,"is_reserved":false,"is_disabled":false,"rental_uris":{"android":"levelo://app?vid=d2729172-f4bf-4eb8-9964-c217269a3492","ios":"levelo://app?vid=d2729172-f4bf-4eb8-9964-c217269a3492"},"vehicle_type_id":"4","last_reported":1749920881,"current_range_meters":14000,"station_id":"st_cvj6sg6p6f1abm77japg","pricing_plan_id":"cebpf4jnsgd1na2vs0mg"},{"bike_id":"b210a2ef-7e7f-4927-9600-0e46d7dc9b69","system_id":"levelo_inurba_marseille","lat":43.28412,"lon":5.37508,"is_reserved":false,"is_disabled":false,"rental_uris":{"android":"levelo://app?vid=b210a2ef-7e7f-4927-9600-0e46d7dc9b69","ios":"levelo://app?vid=b210a2ef-7e7f-4927-9600-0e46d7dc9b69"},"vehicle_type_id":"4","last_reported":1749920881,"current_range_meters":14400,"station_id":"ce4bh412rcd13ifvqds0","pricing_plan_id":"cebpf4jnsgd1na2vs0mg"},{"bike_id":"bd081d41-5eed-4495-82ed-9e27cd112239","system_id":"levelo_inurba_marseille","lat":43.249488,"lon":5.396613,"is_reserved":false,"is_disabled":false,"rental_uris":{"android":"levelo://app?vid=bd081d41-5eed-4495-82ed-9e27cd112239","ios":"levelo://app?vid=bd081d41-5eed-4495-82ed-9e27cd112239"},"vehicle_type_id":"4","last_reported":1749920881,"current_range_meters":14800,"station_id":"","pricing_plan_id":"cebpf4jnsgd1na2vs0mg"},{"bike_id":"64468254-e091-42dc-b66f-fcb6885ce4b4","system_id":"levelo_inurba_marseille","lat":43.29876,"lon":5.38911,"is_reserved":false,"is_disabled":false,"rental_uris":{"android":"levelo://app?vid=64468254-e091-42dc-b66f-fcb6885ce4b4","ios":"levelo://app?vid=64468254-e091-42dc-b66f-fcb6885ce4b4"},"vehicle_type_id":"4","last_reported":1749920881,"current_range_meters":14800,"station_id":"ce4bh392rcd13ifvqdl0","pricing_plan_id":"cebpf4jnsgd1na2vs0mg"},{"bike_id":"ca9f3f0e-ea96-41b0-bda4-04855c08f5dc","system_id":"levelo_inurba_marseille","lat":43.33605,"lon":5.41029,"is_reserved":false,"is_disabled":false,"rental_uris":{"android":"levelo://app?vid=ca9f3f0e-ea96-41b0-bda4-04855c08f5dc","ios":"levelo://app?vid=ca9f3f0e-ea96-41b0-bda4-04855c08f5dc"},"vehicle_type_id":"4","last_reported":1749920881,"current_range_meters":14800,"station_id":"ce4bhqh2rcd13ifvqhmg","pricing_plan_id":"cebpf4jnsgd1na2vs0mg"},{"bike_id":"dd2c554f-0c41-4aa0-a7c2-2fab2aadfc93","system_id":"levelo_inurba_marseille","lat":43.2304,"lon":5.3548,"is_reserved":false,"is_disabled":false,"rental_uris":{"android":"levelo://app?vid=dd2c554f-0c41-4aa0-a7c2-2fab2aadfc93","ios":"levelo://app?vid=dd2c554f-0c41-4aa0-a7c2-2fab2aadfc93"},"vehicle_type_id":"4","last_reported":1749920881,"current_range_meters":14800,"station_id":"cpo3342slgdg3j2ifvpg","pricing_plan_id":"cebpf4jnsgd1na2vs0mg"},{"bike_id":"df1254ac-0833-4d4e-87e1-bdd09ea2bd36","system_id":"levelo_inurba_marseille","lat":43.29518,"lon":5.3845,"is_reserved":false,"is_disabled":false,"rental_uris":{"android":"levelo://app?vid=df1254ac-0833-4d4e-87e1-bdd09ea2bd36","ios":"levelo://app?vid=df1254ac-0833-4d4e-87e1-bdd09ea2bd36"},"vehicle_type_id":"4","last_reported":1749920881,"current_range_meters":15200,"station_id":"","pricing_plan_id":"cebpf4jnsgd1na2vs0mg"},{"bike_id":"94f684e4-3eef-46c8-8ba6-370571c53085","system_id":"levelo_inurba_marseille","lat":43.31686,"lon":5.40472,"is_reserved":false,"is_disabled":false,"rental_uris":{"android":"levelo://app?vid=94f684e4-3eef-46c8-8ba6-370571c53085","ios":"levelo://app?vid=94f684e4-3eef-46c8-8ba6-370571c53085"},"vehicle_type_id":"4","last_reported":1749920881,"current_range_meters":15200,"station_id":"ce4bh012rcd13ifvqd00","pricing_plan_id":"cebpf4jnsgd1na2vs0mg"},{"bike_id":"275650b4-6857-4d90-94af-4214a47f9e71","system_id":"levelo_inurba_marseille","lat":43.25489,"lon":5.37658,"is_reserved":false,"is_disabled":false,"rental_uris":{"android":"levelo://app?vid=275650b4-6857-4d90-94af-4214a47f9e71","ios":"levelo://app?vid=275650b4-6857-4d90-94af-4214a47f9e71"},"vehicle_type_id":"4","last_reported":1749920881,"current_range_meters":15200,"station_id":"ce4bhh12rcd13ifvqff0","pricing_plan_id":"cebpf4jnsgd1na2vs0mg"},{"bike_id":"3ba53083-f560-4fb5-b3cc-01a71156c6ba","system_id":"levelo_inurba_marseille","lat":43.23187,"lon":5.35554,"is_reserved":false,"is_disabled":false,"rental_uris":{"android":"levelo://app?vid=3ba53083-f560-4fb5-b3cc-01a71156c6ba","ios":"levelo://app?vid=3ba53083-f560-4fb5-b3cc-01a71156c6ba"},"vehicle_type_id":"4","last_reported":1749920881,"current_range_meters":15200,"station_id":"ce4bhu92rcd13ifvqi70","pricing_plan_id":"cebpf4jnsgd1na2vs0mg"},{"bike_id":"0b2ee1f9-abd4-4b22-a42f-952f3d444257","system_id":"levelo_inurba_marseille","lat":43.2694,"lon":5.40253,"is_reserved":false,"is_disabled":false,"rental_uris":{"android":"levelo://app?vid=0b2ee1f9-abd4-4b22-a42f-952f3d444257","ios":"levelo://app?vid=0b2ee1f9-abd4-4b22-a42f-952f3d444257"},"vehicle_type_id":"4","last_reported":1749920881,"current_range_meters":15200,"station_id":"cjm6bp8fraef2m0cb0m0","pricing_plan_id":"cebpf4jnsgd1na2vs0mg"},{"bike_id":"decbbf6a-5803-4b9b-8dba-489f5abb76c8","system_id":"levelo_inurba_marseille","lat":43.263601,"lon":5.37818,"is_reserved":false,"is_disabled":false,"rental_uris":{"android":"levelo://app?vid=decbbf6a-5803-4b9b-8dba-489f5abb76c8","ios":"levelo://app?vid=decbbf6a-5803-4b9b-8dba-489f5abb76c8"},"vehicle_type_id":"4","last_reported":1749920881,"current_range_meters":15200,"station_id":"st_d163nis0mtpqnht9uue0","pricing_plan_id":"cebpf4jnsgd1na2vs0mg"},{"bike_id":"51c5518e-76de-4264-b70a-dd60046df65b","system_id":"levelo_inurba_marseille","lat":43.26368,"lon":5.37819,"is_reserved":false,"is_disabled":false,"rental_uris":{"android":"levelo://app?vid=51c5518e-76de-4264-b70a-dd60046df65b","ios":"levelo://app?vid=51c5518e-76de-4264-b70a-dd60046df65b"},"vehicle_type_id":"4","last_reported":1749920881,"current_range_meters":15200,"station_id":"st_d163nis0mtpqnht9uue0","pricing_plan_id":"cebpf4jnsgd1na2vs0mg"},{"bike_id":"a5ee4afe-a8c2-43ea-a8c6-a0a152038509","system_id":"levelo_inurba_marseille","lat":43.26031,"lon":5.3755,"is_reserved":false,"is_disabled":false,"rental_uris":{"android":"levelo://app?vid=a5ee4afe-a8c2-43ea-a8c6-a0a152038509","ios":"levelo://app?vid=a5ee4afe-a8c2-43ea-a8c6-a0a152038509"},"vehicle_type_id":"4","last_reported":1749920881,"current_range_meters":16000,"station_id":"ce4bhgh2rcd13ifvqfa0","pricing_plan_id":"cebpf4jnsgd1na2vs0mg"},{"bike_id":"b0a11372-6531-402e-9f9c-f0dda1eae534","system_id":"levelo_inurba_marseille","lat":43.24999,"lon":5.38943,"is_reserved":false,"is_disabled":false,"rental_uris":{"android":"levelo://app?vid=b0a11372-6531-402e-9f9c-f0dda1eae534","ios":"levelo://app?vid=b0a11372-6531-402e-9f9c-f0dda1eae534"},"vehicle_type_id":"4","last_reported":1749920881,"current_range_meters":16000,"station_id":"ce4bhgp2rcd13ifvqfd0","pricing_plan_id":"cebpf4jnsgd1na2vs0mg"},{"bike_id":"b2a39d69-7123-480f-b5f0-3477ae80b9dc","system_id":"levelo_inurba_marseille","lat":43.23076,"lon":5.35506,"is_reserved":false,"is_disabled":false,"rental_uris":{"android":"levelo://app?vid=b2a39d69-7123-480f-b5f0-3477ae80b9dc","ios":"levelo://app?vid=b2a39d69-7123-480f-b5f0-3477ae80b9dc"},"vehicle_type_id":"4","last_reported":1749920881,"current_range_meters":16000,"station_id":"cpo3342slgdg3j2ifvpg","pricing_plan_id":"cebpf4jnsgd1na2vs0mg"},{"bike_id":"a8283606-6fdf-49b2-991a-62bc6fc9988a","system_id":"levelo_inurba_marseille","lat":43.22522,"lon":5.3478,"is_reserved":false,"is_disabled":false,"rental_uris":{"android":"levelo://app?vid=a8283606-6fdf-49b2-991a-62bc6fc9988a","ios":"levelo://app?vid=a8283606-6fdf-49b2-991a-62bc6fc9988a"},"vehicle_type_id":"4","last_reported":1749920881,"current_range_meters":16000,"station_id":"st_cvj5dfep6f1abm77gieg","pricing_plan_id":"cebpf4jnsgd1na2vs0mg"},{"bike_id":"7240a984-bb6d-4c3b-ab8d-aef55ac0bce8","system_id":"levelo_inurba_marseille","lat":43.21214,"lon":5.35052,"is_reserved":false,"is_disabled":false,"rental_uris":{"android":"levelo://app?vid=7240a984-bb6d-4c3b-ab8d-aef55ac0bce8","ios":"levelo://app?vid=7240a984-bb6d-4c3b-ab8d-aef55ac0bce8"},"vehicle_type_id":"4","last_reported":1749920881,"current_range_meters":16000,"station_id":"st_cvj6sg6p6f1abm77japg","pricing_plan_id":"cebpf4jnsgd1na2vs0mg"},{"bike_id":"d447cba0-7fb5-49f3-8779-75658d4e552d","system_id":"levelo_inurba_marseille","lat":43.27697,"lon":5.35699,"is_reserved":false,"is_disabled":false,"rental_uris":{"android":"levelo://app?vid=d447cba0-7fb5-49f3-8779-75658d4e552d","ios":"levelo://app?vid=d447cba0-7fb5-49f3-8779-75658d4e552d"},"vehicle_type_id":"4","last_reported":1749920881,"current_range_meters":16400,"station_id":"","pricing_plan_id":"cebpf4jnsgd1na2vs0mg"},{"bike_id":"9d799b3f-3ea3-4da6-98cf-ee40900f6564","system_id":"levelo_inurba_marseille","lat":43.28561,"lon":5.39493,"is_reserved":false,"is_disabled":false,"rental_uris":{"android":"levelo://app?vid=9d799b3f-3ea3-4da6-98cf-ee40900f6564","ios":"levelo://app?vid=9d799b3f-3ea3-4da6-98cf-ee40900f6564"},"vehicle_type_id":"4","last_reported":1749920881,"current_range_meters":16400,"station_id":"ce4bh292rcd13ifvqdg0","pricing_plan_id":"cebpf4jnsgd1na2vs0mg"},{"bike_id":"63ae3123-63ee-44bd-8633-70935ffb2f7b","system_id":"levelo_inurba_marseille","lat":43.26556,"lon":5.38999,"is_reserved":false,"is_disabled":false,"rental_uris":{"android":"levelo://app?vid=63ae3123-63ee-44bd-8633-70935ffb2f7b","ios":"levelo://app?vid=63ae3123-63ee-44bd-8633-70935ffb2f7b"},"vehicle_type_id":"4","last_reported":1749920881,"current_range_meters":16400,"station_id":"ce4bhe12rcd13ifvqf30","pricing_plan_id":"cebpf4jnsgd1na2vs0mg"},{"bike_id":"789ff402-498a-4ecb-b51f-05392c7f3ba2","system_id":"levelo_inurba_marseille","lat":43.24388,"lon":5.37058,"is_reserved":false,"is_disabled":false,"rental_uris":{"android":"levelo://app?vid=789ff402-498a-4ecb-b51f-05392c7f3ba2","ios":"levelo://app?vid=789ff402-498a-4ecb-b51f-05392c7f3ba2"},"vehicle_type_id":"4","last_reported":1749920881,"current_range_meters":16400,"station_id":"ce4bhhh2rcd13ifvqfk0","pricing_plan_id":"cebpf4jnsgd1na2vs0mg"},{"bike_id":"ca345dc9-fdcd-4cd0-9db5-3a56151bb4ad","system_id":"levelo_inurba_marseille","lat":43.26359,"lon":5.3782,"is_reserved":false,"is_disabled":false,"rental_uris":{"android":"levelo://app?vid=ca345dc9-fdcd-4cd0-9db5-3a56151bb4ad","ios":"levelo://app?vid=ca345dc9-fdcd-4cd0-9db5-3a56151bb4ad"},"vehicle_type_id":"4","last_reported":1749920881,"current_range_meters":16400,"station_id":"st_d163nis0mtpqnht9uue0","pricing_plan_id":"cebpf4jnsgd1na2vs0mg"},{"bike_id":"28bcca19-390d-4e7a-859e-3c98cbbf6f8f","system_id":"levelo_inurba_marseille","lat":43.2927,"lon":5.38455,"is_reserved":false,"is_disabled":false,"rental_uris":{"android":"levelo://app?vid=28bcca19-390d-4e7a-859e-3c98cbbf6f8f","ios":"levelo://app?vid=28bcca19-390d-4e7a-859e-3c98cbbf6f8f"},"vehicle_type_id":"4","last_reported":1749920881,"current_range_meters":16800,"station_id":"ce4bh692rcd13ifvqea0","pricing_plan_id":"cebpf4jnsgd1na2vs0mg"},{"bike_id":"7e55265f-af08-4274-a924-78b7fea6ed7d","system_id":"levelo_inurba_marseille","lat":43.31744,"lon":5.43686,"is_reserved":false,"is_disabled":false,"rental_uris":{"android":"levelo://app?vid=7e55265f-af08-4274-a924-78b7fea6ed7d","ios":"levelo://app?vid=7e55265f-af08-4274-a924-78b7fea6ed7d"},"vehicle_type_id":"4","last_reported":1749920881,"current_range_meters":16800,"station_id":"ce4bhp92rcd13ifvqhcg","pricing_plan_id":"cebpf4jnsgd1na2vs0mg"},{"bike_id":"a123e9fa-df7d-41fb-b2d5-2e4e345456f9","system_id":"levelo_inurba_marseille","lat":43.25308,"lon":5.37475,"is_reserved":false,"is_disabled":false,"rental_uris":{"android":"levelo://app?vid=a123e9fa-df7d-41fb-b2d5-2e4e345456f9","ios":"levelo://app?vid=a123e9fa-df7d-41fb-b2d5-2e4e345456f9"},"vehicle_type_id":"4","last_reported":1749920881,"current_range_meters":17200,"station_id":"","pricing_plan_id":"cebpf4jnsgd1na2vs0mg"},{"bike_id":"2d369eca-f849-4f94-b1b1-26c4d39020a6","system_id":"levelo_inurba_marseille","lat":43.28375,"lon":5.38621,"is_reserved":false,"is_disabled":false,"rental_uris":{"android":"levelo://app?vid=2d369eca-f849-4f94-b1b1-26c4d39020a6","ios":"levelo://app?vid=2d369eca-f849-4f94-b1b1-26c4d39020a6"},"vehicle_type_id":"4","last_reported":1749920881,"current_range_meters":17200,"station_id":"ce4bh492rcd13ifvqdvg","pricing_plan_id":"cebpf4jnsgd1na2vs0mg"},{"bike_id":"529d1f7c-b5c5-40bf-9472-1ac2b9f75ca0","system_id":"levelo_inurba_marseille","lat":43.250087,"lon":5.38924,"is_reserved":false,"is_disabled":false,"rental_uris":{"android":"levelo://app?vid=529d1f7c-b5c5-40bf-9472-1ac2b9f75ca0","ios":"levelo://app?vid=529d1f7c-b5c5-40bf-9472-1ac2b9f75ca0"},"vehicle_type_id":"4","last_reported":1749920881,"current_range_meters":17200,"station_id":"ce4bhgp2rcd13ifvqfd0","pricing_plan_id":"cebpf4jnsgd1na2vs0mg"},{"bike_id":"4101138a-9cbb-40b9-a7e7-ed70ed85abc3","system_id":"levelo_inurba_marseille","lat":43.23955,"lon":5.36662,"is_reserved":false,"is_disabled":false,"rental_uris":{"android":"levelo://app?vid=4101138a-9cbb-40b9-a7e7-ed70ed85abc3","ios":"levelo://app?vid=4101138a-9cbb-40b9-a7e7-ed70ed85abc3"},"vehicle_type_id":"4","last_reported":1749920881,"current_range_meters":17200,"station_id":"ce4bhi12rcd13ifvqfp0","pricing_plan_id":"cebpf4jnsgd1na2vs0mg"},{"bike_id":"4f92c944-2dbb-4e96-a389-7a33732a442b","system_id":"levelo_inurba_marseille","lat":43.2318,"lon":5.39981,"is_reserved":false,"is_disabled":false,"rental_uris":{"android":"levelo://app?vid=4f92c944-2dbb-4e96-a389-7a33732a442b","ios":"levelo://app?vid=4f92c944-2dbb-4e96-a389-7a33732a442b"},"vehicle_type_id":"4","last_reported":1749920881,"current_range_meters":17200,"station_id":"ce4bhn12rcd13ifvqgqg","pricing_plan_id":"cebpf4jnsgd1na2vs0mg"},{"bike_id":"89a34dab-f317-46d7-a13c-d09da82f1991","system_id":"levelo_inurba_marseille","lat":43.23188,"lon":5.39983,"is_reserved":false,"is_disabled":false,"rental_uris":{"android":"levelo://app?vid=89a34dab-f317-46d7-a13c-d09da82f1991","ios":"levelo://app?vid=89a34dab-f317-46d7-a13c-d09da82f1991"},"vehicle_type_id":"4","last_reported":1749920881,"current_range_meters":17200,"station_id":"ce4bhn12rcd13ifvqgqg","pricing_plan_id":"cebpf4jnsgd1na2vs0mg"},{"bike_id":"e5b62466-ff9e-49e2-bd3e-be88bf15cda8","system_id":"levelo_inurba_marseille","lat":43.21169,"lon":5.35078,"is_reserved":false,"is_disabled":false,"rental_uris":{"android":"levelo://app?vid=e5b62466-ff9e-49e2-bd3e-be88bf15cda8","ios":"levelo://app?vid=e5b62466-ff9e-49e2-bd3e-be88bf15cda8"},"vehicle_type_id":"4","last_reported":1749920881,"current_range_meters":17200,"station_id":"st_cvj6sg6p6f1abm77japg","pricing_plan_id":"cebpf4jnsgd1na2vs0mg"},{"bike_id":"1a9a89d7-f201-46eb-9e56-f83a9f45eebf","system_id":"levelo_inurba_marseille","lat":43.26347,"lon":5.378134,"is_reserved":false,"is_disabled":false,"rental_uris":{"android":"levelo://app?vid=1a9a89d7-f201-46eb-9e56-f83a9f45eebf","ios":"levelo://app?vid=1a9a89d7-f201-46eb-9e56-f83a9f45eebf"},"vehicle_type_id":"4","last_reported":1749920881,"current_range_meters":17200,"station_id":"st_d163nis0mtpqnht9uue0","pricing_plan_id":"cebpf4jnsgd1na2vs0mg"},{"bike_id":"f7d6ece8-bb72-43c9-8af8-580fc89d40f7","system_id":"levelo_inurba_marseille","lat":43.26661,"lon":5.38233,"is_reserved":false,"is_disabled":false,"rental_uris":{"android":"levelo://app?vid=f7d6ece8-bb72-43c9-8af8-580fc89d40f7","ios":"levelo://app?vid=f7d6ece8-bb72-43c9-8af8-580fc89d40f7"},"vehicle_type_id":"4","last_reported":1749920881,"current_range_meters":17600,"station_id":"ce4bhg92rcd13ifvqf90","pricing_plan_id":"cebpf4jnsgd1na2vs0mg"},{"bike_id":"3647ed47-981e-455c-a56d-cd8817bf96d5","system_id":"levelo_inurba_marseille","lat":43.23962,"lon":5.36629,"is_reserved":false,"is_disabled":false,"rental_uris":{"android":"levelo://app?vid=3647ed47-981e-455c-a56d-cd8817bf96d5","ios":"levelo://app?vid=3647ed47-981e-455c-a56d-cd8817bf96d5"},"vehicle_type_id":"4","last_reported":1749920881,"current_range_meters":17600,"station_id":"ce4bhi12rcd13ifvqfp0","pricing_plan_id":"cebpf4jnsgd1na2vs0mg"},{"bike_id":"bcf8c37a-3b2c-4b4b-a33b-3ca9193b3a10","system_id":"levelo_inurba_marseille","lat":43.26385,"lon":5.37806,"is_reserved":false,"is_disabled":false,"rental_uris":{"android":"levelo://app?vid=bcf8c37a-3b2c-4b4b-a33b-3ca9193b3a10","ios":"levelo://app?vid=bcf8c37a-3b2c-4b4b-a33b-3ca9193b3a10"},"vehicle_type_id":"4","last_reported":1749920881,"current_range_meters":17600,"station_id":"st_d163nis0mtpqnht9uue0","pricing_plan_id":"cebpf4jnsgd1na2vs0mg"},{"bike_id":"5e7b60df-e8be-4a9e-806b-ffe82e954588","system_id":"levelo_inurba_marseille","lat":43.263526,"lon":5.378219,"is_reserved":false,"is_disabled":false,"rental_uris":{"android":"levelo://app?vid=5e7b60df-e8be-4a9e-806b-ffe82e954588","ios":"levelo://app?vid=5e7b60df-e8be-4a9e-806b-ffe82e954588"},"vehicle_type_id":"4","last_reported":1749920881,"current_range_meters":17600,"station_id":"st_d163nis0mtpqnht9uue0","pricing_plan_id":"cebpf4jnsgd1na2vs0mg"},{"bike_id":"c78d3428-9a54-4158-bcde-576d5f82207f","system_id":"levelo_inurba_marseille","lat":43.2636,"lon":5.37814,"is_reserved":false,"is_disabled":false,"rental_uris":{"android":"levelo://app?vid=c78d3428-9a54-4158-bcde-576d5f82207f","ios":"levelo://app?vid=c78d3428-9a54-4158-bcde-576d5f82207f"},"vehicle_type_id":"4","last_reported":1749920881,"current_range_meters":17600,"station_id":"st_d163nis0mtpqnht9uue0","pricing_plan_id":"cebpf4jnsgd1na2vs0mg"},{"bike_id":"3b98ea2c-81c6-4e60-9a2a-cafb0f3fcdc4","system_id":"levelo_inurba_marseille","lat":43.2638,"lon":5.37844,"is_reserved":false,"is_disabled":false,"rental_uris":{"android":"levelo://app?vid=3b98ea2c-81c6-4e60-9a2a-cafb0f3fcdc4","ios":"levelo://app?vid=3b98ea2c-81c6-4e60-9a2a-cafb0f3fcdc4"},"vehicle_type_id":"4","last_reported":1749920881,"current_range_meters":17600,"station_id":"st_d163nis0mtpqnht9uue0","pricing_plan_id":"cebpf4jnsgd1na2vs0mg"},{"bike_id":"2c7ba036-532a-4552-b7f1-5cd9cc98ab0b","system_id":"levelo_inurba_marseille","lat":43.2639,"lon":5.37783,"is_reserved":false,"is_disabled":false,"rental_uris":{"android":"levelo://app?vid=2c7ba036-532a-4552-b7f1-5cd9cc98ab0b","ios":"levelo://app?vid=2c7ba036-532a-4552-b7f1-5cd9cc98ab0b"},"vehicle_type_id":"4","last_reported":1749920881,"current_range_meters":17600,"station_id":"st_d163nis0mtpqnht9uue0","pricing_plan_id":"cebpf4jnsgd1na2vs0mg"},{"bike_id":"b54178a0-19a7-4d5f-8a67-14cfe500be78","system_id":"levelo_inurba_marseille","lat":43.297029,"lon":5.366259,"is_reserved":false,"is_disabled":false,"rental_uris":{"android":"levelo://app?vid=b54178a0-19a7-4d5f-8a67-14cfe500be78","ios":"levelo://app?vid=b54178a0-19a7-4d5f-8a67-14cfe500be78"},"vehicle_type_id":"4","last_reported":1749920881,"current_range_meters":18000,"station_id":"ce4bgn12rcd13ifvqbt0","pricing_plan_id":"cebpf4jnsgd1na2vs0mg"},{"bike_id":"dc5471db-4651-4b8c-92c2-2b4d3f8afa04","system_id":"levelo_inurba_marseille","lat":43.28476,"lon":5.38431,"is_reserved":false,"is_disabled":false,"rental_uris":{"android":"levelo://app?vid=dc5471db-4651-4b8c-92c2-2b4d3f8afa04","ios":"levelo://app?vid=dc5471db-4651-4b8c-92c2-2b4d3f8afa04"},"vehicle_type_id":"4","last_reported":1749920881,"current_range_meters":18000,"station_id":"ce4bh512rcd13ifvqe3g","pricing_plan_id":"cebpf4jnsgd1na2vs0mg"},{"bike_id":"2793d607-d86f-4752-8cc5-bc807dde8ee9","system_id":"levelo_inurba_marseille","lat":43.28834,"lon":5.35863,"is_reserved":false,"is_disabled":false,"rental_uris":{"android":"levelo://app?vid=2793d607-d86f-4752-8cc5-bc807dde8ee9","ios":"levelo://app?vid=2793d607-d86f-4752-8cc5-bc807dde8ee9"},"vehicle_type_id":"4","last_reported":1749920881,"current_range_meters":18000,"station_id":"ce4bhb12rcd13ifvqem0","pricing_plan_id":"cebpf4jnsgd1na2vs0mg"},{"bike_id":"af54e57f-f161-4317-9bd4-1d43f8702955","system_id":"levelo_inurba_marseille","lat":43.23193,"lon":5.35556,"is_reserved":false,"is_disabled":false,"rental_uris":{"android":"levelo://app?vid=af54e57f-f161-4317-9bd4-1d43f8702955","ios":"levelo://app?vid=af54e57f-f161-4317-9bd4-1d43f8702955"},"vehicle_type_id":"4","last_reported":1749920881,"current_range_meters":18000,"station_id":"ce4bhu92rcd13ifvqi70","pricing_plan_id":"cebpf4jnsgd1na2vs0mg"},{"bike_id":"3e232180-096e-45c2-8101-145150acb1d5","system_id":"levelo_inurba_marseille","lat":43.2118,"lon":5.35076,"is_reserved":false,"is_disabled":false,"rental_uris":{"android":"levelo://app?vid=3e232180-096e-45c2-8101-145150acb1d5","ios":"levelo://app?vid=3e232180-096e-45c2-8101-145150acb1d5"},"vehicle_type_id":"4","last_reported":1749920881,"current_range_meters":18000,"station_id":"st_cvj6sg6p6f1abm77japg","pricing_plan_id":"cebpf4jnsgd1na2vs0mg"},{"bike_id":"0b5f4564-1867-461b-85ee-6882d0d9f1fa","system_id":"levelo_inurba_marseille","lat":43.263534,"lon":5.37821,"is_reserved":false,"is_disabled":false,"rental_uris":{"android":"levelo://app?vid=0b5f4564-1867-461b-85ee-6882d0d9f1fa","ios":"levelo://app?vid=0b5f4564-1867-461b-85ee-6882d0d9f1fa"},"vehicle_type_id":"4","last_reported":1749920881,"current_range_meters":18000,"station_id":"st_d163nis0mtpqnht9uue0","pricing_plan_id":"cebpf4jnsgd1na2vs0mg"},{"bike_id":"fa22d237-93a7-40ad-88be-9f0c52199243","system_id":"levelo_inurba_marseille","lat":43.27576,"lon":5.38425,"is_reserved":false,"is_disabled":false,"rental_uris":{"android":"levelo://app?vid=fa22d237-93a7-40ad-88be-9f0c52199243","ios":"levelo://app?vid=fa22d237-93a7-40ad-88be-9f0c52199243"},"vehicle_type_id":"4","last_reported":1749920881,"current_range_meters":18800,"station_id":"ce4bhh92rcd13ifvqfi0","pricing_plan_id":"cebpf4jnsgd1na2vs0mg"},{"bike_id":"b59e873c-f2a3-434c-b699-80fd6fd5dbae","system_id":"levelo_inurba_marseille","lat":43.24075,"lon":5.37773,"is_reserved":false,"is_disabled":false,"rental_uris":{"android":"levelo://app?vid=b59e873c-f2a3-434c-b699-80fd6fd5dbae","ios":"levelo://app?vid=b59e873c-f2a3-434c-b699-80fd6fd5dbae"},"vehicle_type_id":"4","last_reported":1749920881,"current_range_meters":18800,"station_id":"ce4bhnp2rcd13ifvqgvg","pricing_plan_id":"cebpf4jnsgd1na2vs0mg"},{"bike_id":"15ca4f83-8df1-4b73-bad2-b0f1f9fd9e02","system_id":"levelo_inurba_marseille","lat":43.23054,"lon":5.35488,"is_reserved":false,"is_disabled":false,"rental_uris":{"android":"levelo://app?vid=15ca4f83-8df1-4b73-bad2-b0f1f9fd9e02","ios":"levelo://app?vid=15ca4f83-8df1-4b73-bad2-b0f1f9fd9e02"},"vehicle_type_id":"4","last_reported":1749920881,"current_range_meters":18800,"station_id":"cpo3342slgdg3j2ifvpg","pricing_plan_id":"cebpf4jnsgd1na2vs0mg"},