{"last_updated":1714918014,"ttl":30,"version":"2.2","data":{"bikes":[{"bike_id":"a28fb4f2-3e28-4e42-a7ca-7e7d7dd0ee10","system_id":"levelo_inurba_marseille","lat":43.312239,"lon":5.368562,"is_reserved":false,"is_disabled":false,"rental_uris":{"android":"levelo://app?vid=a28fb4f2-3e28-4e42-a7ca-7e7d7dd0ee10","ios":"levelo://app?vid=a28fb4f2-3e28-4e42-a7ca-7e7d7dd0ee10"},"vehicle_type_id":"4","last_reported":1714918014,"current_range_meters":10000,"station_id":"ce4bgl92rcd13ifvqbq0","pricing_plan_id":"cebpf4jnsgd1na2vs0mg"},{"bike_id":"4e493e08-8476-4c6a-8fea-6966e792005e","system_id":"levelo_inurba_marseille","lat":43.312239,"lon":5.368562,"is_reserved":false,"is_disabled":false,"rental_uris":{"android":"levelo://app?vid=4e493e08-8476-4c6a-8fea-6966e792005e","ios":"levelo://app?vid=4e493e08-8476-4c6a-8fea-6966e792005e"},"vehicle_type_id":"4","last_reported":1714918014,"current_range_meters":800,"station_id":"ce4bgl92rcd13ifvqbq0","pricing_plan_id":"cebpf4jnsgd1na2vs0mg"},{"bike_id":"221951d1-63e8-4937-8d15-535c68623384","system_id":"levelo_inurba_marseille","lat":43.312239,"lon":5.368562,"is_reserved":false,"is_disabled":false,"rental_uris":{"android":"levelo://app?vid=221951d1-63e8-4937-8d15-535c68623384","ios":"levelo://app?vid=221951d1-63e8-4937-8d15-535c68623384"},"vehicle_type_id":"4","last_reported":1714918014,"current_range_meters":6000,"station_id":"ce4bgl92rcd13ifvqbq0","pricing_plan_id":"cebpf4jnsgd1na2vs0mg"},{"bike_id":"98fb75b6-2ab3-4e66-b67c-cd7ab183cb32","system_id":"levelo_inurba_marseille","lat":43.312239,"lon":5.368562,"is_reserved":false,"is_disabled":false,"rental_uris":{"android":"levelo://app?vid=98fb75b6-2ab3-4e66-b67c-cd7ab183cb32","ios":"levelo://app?vid=98fb75b6-2ab3-4e66-b67c-cd7ab183cb32"},"vehicle_type_id":"4","last_reported":1714918014,"current_range_meters":0,"station_id":"ce4bgl92rcd13ifvqbq0","pricing_plan_id":"cebpf4jnsgd1na2vs0mg"},{"bike_id":"83238e40-aed0-4c3c-840e-0d53f6ce86ef","system_id":"levelo_inurba_marseille","lat":43.312239,"lon":5.368562,"is_reserved":false,"is_disabled":false,"rental_uris":{"android":"levelo://app?vid=83238e40-aed0-4c3c-840e-0d53f6ce86ef","ios":"levelo://app?vid=83238e40-aed0-4c3c-840e-0d53f6ce86ef"},"vehicle_type_id":"4","last_reported":1714918014,"current_range_meters":30400,"station_id":"ce4bgl92rcd13ifvqbq0","pricing_plan_id":"cebpf4jnsgd1na2vs0mg"},{"bike_id":"0ec48161-6bfe-458e-bf81-49b3c1bff76b","system_id":"levelo_inurba_marseille","lat":43.312239,"lon":5.368562,"is_reserved":false,"is_disabled":false,"rental_uris":{"android":"levelo://app?vid=0ec48161-6bfe-458e-bf81-49b3c1bff76b","ios":"levelo://app?vid=0ec48161-6bfe-458e-bf81-49b3c1bff76b"},"vehicle_type_id":"4","last_reported":1714918014,"current_range_meters":14400,"station_id":"ce4bgl92rcd13ifvqbq0","pricing_plan_id":"cebpf4jnsgd1na2vs0mg"},{"bike_id":"e1fc26ea-6acd-4b1f-9a86-553c9fc16858","system_id":"levelo_inurba_marseille","lat":43.312239,"lon":5.368562,"is_reserved":false,"is_disabled":false,"rental_uris":{"android":"levelo://app?vid=e1fc26ea-6acd-4b1f-9a86-553c9fc16858","ios":"levelo://app?vid=e1fc26ea-6acd-4b1f-9a86-553c9fc16858"},"vehicle_type_id":"4","last_reported":1714918014,"current_range_meters":27200,"station_id":"ce4bgl92rcd13ifvqbq0","pricing_plan_id":"cebpf4jnsgd1na2vs0mg"},{"bike_id":"e8d88a4d-b1de-45d4-b054-f4a59c538ec0","system_id":"levelo_inurba_marseille","lat":43.309076,"lon":5.368465,"is_reserved":false,"is_disabled":false,"rental_uris":{"android":"levelo://app?vid=e8d88a4d-b1de-45d4-b054-f4a59c538ec0","ios":"levelo://app?vid=e8d88a4d-b1de-45d4-b054-f4a59c538ec0"},"vehicle_type_id":"4","last_reported":1714918014,"current_range_meters":5600,"station_id":"ce4bgn92rcd13ifvqbvg","pricing_plan_id":"cebpf4jnsgd1na2vs0mg"},{"bike_id":"d0bf17f5-5606-4ec6-8315-8556744ae454","system_id":"levelo_inurba_marseille","lat":43.309076,"lon":5.368465,"is_reserved":false,"is_disabled":false,"rental_uris":{"android":"levelo://app?vid=d0bf17f5-5606-4ec6-8315-8556744ae454","ios":"levelo://app?vid=d0bf17f5-5606-4ec6-8315-8556744ae454"},"vehicle_type_id":"4","last_reported":1714918014,"current_range_meters":32000,"station_id":"ce4bgn92rcd13ifvqbvg","pricing_plan_id":"cebpf4jnsgd1na2vs0mg"},{"bike_id":"643232d6-4b91-4934-98e8-e33c91ce2099","system_id":"levelo_inurba_marseille","lat":43.309076,"lon":5.368465,"is_reserved":false,"is_disabled":false,"rental_uris":{"android":"levelo://app?vid=643232d6-4b91-4934-98e8-e33c91ce2099","ios":"levelo://app?vid=643232d6-4b91-4934-98e8-e33c91ce2099"},"vehicle_type_id":"4","last_reported":1714918014,"current_range_meters":23600,"station_id":"ce4bgn92rcd13ifvqbvg","pricing_plan_id":"cebpf4jnsgd1na2vs0mg"},{"bike_id":"84819771-838b-451e-b61f-aed8442b3369","system_id":"levelo_inurba_marseille","lat":43.309076,"lon":5.368465,"is_reserved":false,"is_disabled":false,"rental_uris":{"android":"levelo://app?vid=84819771-838b-451e-b61f-aed8442b3369","ios":"levelo://app?vid=84819771-838b-451e-b61f-aed8442b3369"},"vehicle_type_id":"4","last_reported":1714918014,"current_range_meters":24400,"station_id":"ce4bgn92rcd13ifvqbvg","pricing_plan_id":"cebpf4jnsgd1na2vs0mg"},{"bike_id":"f37b6a0b-f8a3-4303-89bc-a712b27d0d14","system_id":"levelo_inurba_marseille","lat":43.314811,"lon":5.373103,"is_reserved":false,"is_disabled":false,"rental_uris":{"android":"levelo://app?vid=f37b6a0b-f8a3-4303-89bc-a712b27d0d14","ios":"levelo://app?vid=f37b6a0b-f8a3-4303-89bc-a712b27d0d14"},"vehicle_type_id":"4","last_reported":1714918014,"current_range_meters":22800,"station_id":"ce4bgt12rcd13ifvqcd0","pricing_plan_id":"cebpf4jnsgd1na2vs0mg"},{"bike_id":"54a818d3-aef5-4c03-b070-192e53e9d9a7","system_id":"levelo_inurba_marseille","lat":43.305368,"lon":5.367343,"is_reserved":false,"is_disabled":false,"rental_uris":{"android":"levelo://app?vid=54a818d3-aef5-4c03-b070-192e53e9d9a7","ios":"levelo://app?vid=54a818d3-aef5-4c03-b070-192e53e9d9a7"},"vehicle_type_id":"4","last_reported":1714918014,"current_range_meters":20800,"station_id":"ce4bgrp2rcd13ifvqc9g","pricing_plan_id":"cebpf4jnsgd1na2vs0mg"},{"bike_id":"2d860f12-a84d-4e67-8271-dab7b284ef4c","system_id":"levelo_inurba_marseille","lat":43.305714,"lon":5.365633,"is_reserved":false,"is_disabled":false,"rental_uris":{"android":"levelo://app?vid=2d860f12-a84d-4e67-8271-dab7b284ef4c","ios":"levelo://app?vid=2d860f12-a84d-4e67-8271-dab7b284ef4c"},"vehicle_type_id":"4","last_reported":1714918014,"current_range_meters":26400,"station_id":"ce4bgs12rcd13ifvqcag","pricing_plan_id":"cebpf4jnsgd1na2vs0mg"},{"bike_id":"098ca026-98f8-4ec7-973e-5c9f2d0abd15","system_id":"levelo_inurba_marseille","lat":43.32014,"lon":5.36552,"is_reserved":false,"is_disabled":false,"rental_uris":{"android":"levelo://app?vid=098ca026-98f8-4ec7-973e-5c9f2d0abd15","ios":"levelo://app?vid=098ca026-98f8-4ec7-973e-5c9f2d0abd15"},"vehicle_type_id":"4","last_reported":1714918014,"current_range_meters":15600,"station_id":"","pricing_plan_id":"cebpf4jnsgd1na2vs0mg"},{"bike_id":"406f8841-fb5d-4696-aaa9-4c02d597d13d","system_id":"levelo_inurba_marseille","lat":43.305989,"lon":5.37225,"is_reserved":false,"is_disabled":false,"rental_uris":{"android":"levelo://app?vid=406f8841-fb5d-4696-aaa9-4c02d597d13d","ios":"levelo://app?vid=406f8841-fb5d-4696-aaa9-4c02d597d13d"},"vehicle_type_id":"4","last_reported":1714918014,"current_range_meters":800,"station_id":"ce4bgqh2rcd13ifvqc4g","pricing_plan_id":"cebpf4jnsgd1na2vs0mg"},{"bike_id":"51299775-9ff4-46b6-a2ff-193acc5a6cb2","system_id":"levelo_inurba_marseille","lat":43.305989,"lon":5.37225,"is_reserved":false,"is_disabled":false,"rental_uris":{"android":"levelo://app?vid=51299775-9ff4-46b6-a2ff-193acc5a6cb2","ios":"levelo://app?vid=51299775-9ff4-46b6-a2ff-193acc5a6cb2"},"vehicle_type_id":"4","last_reported":1714918014,"current_range_meters":9600,"station_id":"ce4bgqh2rcd13ifvqc4g","pricing_plan_id":"cebpf4jnsgd1na2vs0mg"},{"bike_id":"fbe4636b-ab58-44ec-99de-b0ea737eef01","system_id":"levelo_inurba_marseille","lat":43.305989,"lon":5.37225,"is_reserved":false,"is_disabled":false,"rental_uris":{"android":"levelo://app?vid=fbe4636b-ab58-44ec-99de-b0ea737eef01","ios":"levelo://app?vid=fbe4636b-ab58-44ec-99de-b0ea737eef01"},"vehicle_type_id":"4","last_reported":1714918014,"current_range_meters":6800,"station_id":"ce4bgqh2rcd13ifvqc4g","pricing_plan_id":"cebpf4jnsgd1na2vs0mg"},{"bike_id":"825fdafd-4f55-46f3-901d-a4766ec3a049","system_id":"levelo_inurba_marseille","lat":43.311125,"lon":5.377624,"is_reserved":false,"is_disabled":false,"rental_uris":{"android":"levelo://app?vid=825fdafd-4f55-46f3-901d-a4766ec3a049","ios":"levelo://app?vid=825fdafd-4f55-46f3-901d-a4766ec3a049"},"vehicle_type_id":"4","last_reported":1714918014,"current_range_meters":25600,"station_id":"ce4bgt92rcd13ifvqcg0","pricing_plan_id":"cebpf4jnsgd1na2vs0mg"},{"bike_id":"66167c71-b507-4839-8556-e6ac10677fd5","system_id":"levelo_inurba_marseille","lat":43.307945,"lon":5.376487,"is_reserved":false,"is_disabled":false,"rental_uris":{"android":"levelo://app?vid=66167c71-b507-4839-8556-e6ac10677fd5","ios":"levelo://app?vid=66167c71-b507-4839-8556-e6ac10677fd5"},"vehicle_type_id":"4","last_reported":1714918014,"current_range_meters":6800,"station_id":"ce4bgv92rcd13ifvqcq0","pricing_plan_id":"cebpf4jnsgd1na2vs0mg"},{"bike_id":"99e868c0-7b59-439b-b0f5-d685b850c670","system_id":"levelo_inurba_marseille","lat":43.30491,"lon":5.37349,"is_reserved":false,"is_disabled":false,"rental_uris":{"android":"levelo://app?vid=99e868c0-7b59-439b-b0f5-d685b850c670","ios":"levelo://app?vid=99e868c0-7b59-439b-b0f5-d685b850c670"},"vehicle_type_id":"4","last_reported":1714918014,"current_range_meters":25600,"station_id":"","pricing_plan_id":"cebpf4jnsgd1na2vs0mg"},{"bike_id":"c3c0c803-d135-4e0f-a88c-91cfb2e2eb6f","system_id":"levelo_inurba_marseille","lat":43.31921,"lon":5.37613,"is_reserved":false,"is_disabled":false,"rental_uris":{"android":"levelo://app?vid=c3c0c803-d135-4e0f-a88c-91cfb2e2eb6f","ios":"levelo://app?vid=c3c0c803-d135-4e0f-a88c-91cfb2e2eb6f"},"vehicle_type_id":"4","last_reported":1714918014,"current_range_meters":0,"station_id":"","pricing_plan_id":"cebpf4jnsgd1na2vs0mg"},{"bike_id":"4ab5672d-b6a8-4cf0-8451-386f2f7f2b6a","system_id":"levelo_inurba_marseille","lat":43.312494,"lon":5.379743,"is_reserved":false,"is_disabled":false,"rental_uris":{"android":"levelo://app?vid=4ab5672d-b6a8-4cf0-8451-386f2f7f2b6a","ios":"levelo://app?vid=4ab5672d-b6a8-4cf0-8451-386f2f7f2b6a"},"vehicle_type_id":"4","last_reported":1714918014,"current_range_meters":4000,"station_id":"","pricing_plan_id":"cebpf4jnsgd1na2vs0mg"},{"bike_id":"83d686ca-154c-4765-8578-d7f68feb88c6","system_id":"levelo_inurba_marseille","lat":43.30304,"lon":5.368987,"is_reserved":false,"is_disabled":false,"rental_uris":{"android":"levelo://app?vid=83d686ca-154c-4765-8578-d7f68feb88c6","ios":"levelo://app?vid=83d686ca-154c-4765-8578-d7f68feb88c6"},"vehicle_type_id":"4","last_reported":1714918014,"current_range_meters":400,"station_id":"ce4bgqh2rcd13ifvqc5g","pricing_plan_id":"cebpf4jnsgd1na2vs0mg"},{"bike_id":"1f12fd8b-172a-4e3a-94eb-9b01f4001b6a","system_id":"levelo_inurba_marseille","lat":43.30304,"lon":5.368987,"is_reserved":false,"is_disabled":false,"rental_uris":{"android":"levelo://app?vid=1f12fd8b-172a-4e3a-94eb-9b01f4001b6a","ios":"levelo://app?vid=1f12fd8b-172a-4e3a-94eb-9b01f4001b6a"},"vehicle_type_id":"4","last_reported":1714918014,"current_range_meters":7200,"station_id":"ce4bgqh2rcd13ifvqc5g","pricing_plan_id":"cebpf4jnsgd1na2vs0mg"},{"bike_id":"995c2f9c-29ed-450b-abb3-3c436d20a67a","system_id":"levelo_inurba_marseille","lat":43.30215,"lon":5.36637,"is_reserved":false,"is_disabled":false,"rental_uris":{"android":"levelo://app?vid=995c2f9c-29ed-450b-abb3-3c436d20a67a","ios":"levelo://app?vid=995c2f9c-29ed-450b-abb3-3c436d20a67a"},"vehicle_type_id":"4","last_reported":1714918014,"current_range_meters":6400,"station_id":"ce4bgrh2rcd13ifvqc8g","pricing_plan_id":"cebpf4jnsgd1na2vs0mg"},{"bike_id":"19d0df23-b0c0-42ae-a1b4-a4ddb00c5b6c","system_id":"levelo_inurba_marseille","lat":43.308012,"lon":5.381511,"is_reserved":false,"is_disabled":false,"rental_uris":{"android":"levelo://app?vid=19d0df23-b0c0-42ae-a1b4-a4ddb00c5b6c","ios":"levelo://app?vid=19d0df23-b0c0-42ae-a1b4-a4ddb00c5b6c"},"vehicle_type_id":"4","last_reported":1714918014,"current_range_meters":19200,"station_id":"ce4bgt12rcd13ifvqce0","pricing_plan_id":"cebpf4jnsgd1na2vs0mg"},{"bike_id":"bb80e2b3-3254-4eec-a6fb-864a656484b4","system_id":"levelo_inurba_marseille","lat":43.308012,"lon":5.381511,"is_reserved":false,"is_disabled":false,"rental_uris":{"android":"levelo://app?vid=bb80e2b3-3254-4eec-a6fb-864a656484b4","ios":"levelo://app?vid=bb80e2b3-3254-4eec-a6fb-864a656484b4"},"vehicle_type_id":"4","last_reported":1714918014,"current_range_meters":16000,"station_id":"ce4bgt12rcd13ifvqce0","pricing_plan_id":"cebpf4jnsgd1na2vs0mg"},{"bike_id":"8d0db16b-d2bb-472e-81ce-7ec963ca1a3c","system_id":"levelo_inurba_marseille","lat":43.308012,"lon":5.381511,"is_reserved":false,"is_disabled":false,"rental_uris":{"android":"levelo://app?vid=8d0db16b-d2bb-472e-81ce-7ec963ca1a3c","ios":"levelo://app?vid=8d0db16b-d2bb-472e-81ce-7ec963ca1a3c"},"vehicle_type_id":"4","last_reported":1714918014,"current_range_meters":27600,"station_id":"ce4bgt12rcd13ifvqce0","pricing_plan_id":"cebpf4jnsgd1na2vs0mg"},{"bike_id":"68060aaa-90af-44cc-8a71-68a2def82662","system_id":"levelo_inurba_marseille","lat":43.304606,"lon":5.379026,"is_reserved":false,"is_disabled":false,"rental_uris":{"android":"levelo://app?vid=68060aaa-90af-44cc-8a71-68a2def82662","ios":"levelo://app?vid=68060aaa-90af-44cc-8a71-68a2def82662"},"vehicle_type_id":"4","last_reported":1714918014,"current_range_meters":5200,"station_id":"ce4bgup2rcd13ifvqcn0","pricing_plan_id":"cebpf4jnsgd1na2vs0mg"},{"bike_id":"8a8b0ccb-ec4d-4b68-b8e2-9254ae8e32f3","system_id":"levelo_inurba_marseille","lat":43.324852,"lon":5.36575,"is_reserved":false,"is_disabled":false,"rental_uris":{"android":"levelo://app?vid=8a8b0ccb-ec4d-4b68-b8e2-9254ae8e32f3","ios":"levelo://app?vid=8a8b0ccb-ec4d-4b68-b8e2-9254ae8e32f3"},"vehicle_type_id":"4","last_reported":1714918014,"current_range_meters":0,"station_id":"ce4bhs12rcd13ifvqhvg","pricing_plan_id":"cebpf4jnsgd1na2vs0mg"},{"bike_id":"8909905b-9e5a-4374-b2f5-fb360420b558","system_id":"levelo_inurba_marseille","lat":43.324771,"lon":5.36557,"is_reserved":false,"is_disabled":false,"rental_uris":{"android":"levelo://app?vid=8909905b-9e5a-4374-b2f5-fb360420b558","ios":"levelo://app?vid=8909905b-9e5a-4374-b2f5-fb360420b558"},"vehicle_type_id":"4","last_reported":1714918014,"current_range_meters":10000,"station_id":"ce4bhs12rcd13ifvqhvg","pricing_plan_id":"cebpf4jnsgd1na2vs0mg"},{"bike_id":"1b36ce78-22de-4bc1-8332-0b964fdec04e","system_id":"levelo_inurba_marseille","lat":43.324771,"lon":5.36557,"is_reserved":false,"is_disabled":false,"rental_uris":{"android":"levelo://app?vid=1b36ce78-22de-4bc1-8332-0b964fdec04e","ios":"levelo://app?vid=1b36ce78-22de-4bc1-8332-0b964fdec04e"},"vehicle_type_id":"4","last_reported":1714918014,"current_range_meters":19200,"station_id":"ce4bhs12rcd13ifvqhvg","pricing_plan_id":"cebpf4jnsgd1na2vs0mg"},{"bike_id":"7c74ce3a-6d64-431d-bf86-aaedcb3c2c19","system_id":"levelo_inurba_marseille","lat":43.299222,"lon":5.365554,"is_reserved":false,"is_disabled":false,"rental_uris":{"android":"levelo://app?vid=7c74ce3a-6d64-431d-bf86-aaedcb3c2c19","ios":"levelo://app?vid=7c74ce3a-6d64-431d-bf86-aaedcb3c2c19"},"vehicle_type_id":"4","last_reported":1714918014,"current_range_meters":0,"station_id":"ce4bgm92rcd13ifvqbr0","pricing_plan_id":"cebpf4jnsgd1na2vs0mg"},{"bike_id":"20fcf338-9b1e-420a-b2b8-77140b4f4aca","system_id":"levelo_inurba_marseille","lat":43.299222,"lon":5.365554,"is_reserved":false,"is_disabled":false,"rental_uris":{"android":"levelo://app?vid=20fcf338-9b1e-420a-b2b8-77140b4f4aca","ios":"levelo://app?vid=20fcf338-9b1e-420a-b2b8-77140b4f4aca"},"vehicle_type_id":"4","last_reported":1714918014,"current_range_meters":26400,"station_id":"ce4bgm92rcd13ifvqbr0","pricing_plan_id":"cebpf4jnsgd1na2vs0mg"},{"bike_id":"b05f9967-5996-45c4-bc18-c33cba268f27","system_id":"levelo_inurba_marseille","lat":43.299724,"lon":5.371829,"is_reserved":false,"is_disabled":false,"rental_uris":{"android":"levelo://app?vid=b05f9967-5996-45c4-bc18-c33cba268f27","ios":"levelo://app?vid=b05f9967-5996-45c4-bc18-c33cba268f27"},"vehicle_type_id":"4","last_reported":1714918014,"current_range_meters":22400,"station_id":"ce4bgr92rcd13ifvqc7g","pricing_plan_id":"cebpf4jnsgd1na2vs0mg"},{"bike_id":"6c860c7a-1b39-4514-a1e6-98fac0450396","system_id":"levelo_inurba_marseille","lat":43.298433,"lon":5.362774,"is_reserved":false,"is_disabled":false,"rental_uris":{"android":"levelo://app?vid=6c860c7a-1b39-4514-a1e6-98fac0450396","ios":"levelo://app?vid=6c860c7a-1b39-4514-a1e6-98fac0450396"},"vehicle_type_id":"4","last_reported":1714918014,"current_range_meters":0,"station_id":"ce4bgpp2rcd13ifvqc3g","pricing_plan_id":"cebpf4jnsgd1na2vs0mg"},{"bike_id":"d6c3c9fb-e61a-4420-9bcf-cf9882cf03ab","system_id":"levelo_inurba_marseille","lat":43.29849,"lon":5.36276,"is_reserved":false,"is_disabled":false,"rental_uris":{"android":"levelo://app?vid=d6c3c9fb-e61a-4420-9bcf-cf9882cf03ab","ios":"levelo://app?vid=d6c3c9fb-e61a-4420-9bcf-cf9882cf03ab"},"vehicle_type_id":"4","last_reported":1714918014,"current_range_meters":1200,"station_id":"ce4bgpp2rcd13ifvqc3g","pricing_plan_id":"cebpf4jnsgd1na2vs0mg"},{"bike_id":"5ea9dec2-0d74-400a-9601-ebce81ad74c8","system_id":"levelo_inurba_marseille","lat":43.298433,"lon":5.362774,"is_reserved":false,"is_disabled":false,"rental_uris":{"android":"levelo://app?vid=5ea9dec2-0d74-400a-9601-ebce81ad74c8","ios":"levelo://app?vid=5ea9dec2-0d74-400a-9601-ebce81ad74c8"},"vehicle_type_id":"4","last_reported":1714918014,"current_range_meters":12800,"station_id":"ce4bgpp2rcd13ifvqc3g","pricing_plan_id":"cebpf4jnsgd1na2vs0mg"},{"bike_id":"f0d1ae59-e0fd-48f8-9493-1ab51416d252","system_id":"levelo_inurba_marseille","lat":43.298433,"lon":5.362774,"is_reserved":false,"is_disabled":false,"rental_uris":{"android":"levelo://app?vid=f0d1ae59-e0fd-48f8-9493-1ab51416d252","ios":"levelo://app?vid=f0d1ae59-e0fd-48f8-9493-1ab51416d252"},"vehicle_type_id":"4","last_reported":1714918014,"current_range_meters":400,"station_id":"ce4bgpp2rcd13ifvqc3g","pricing_plan_id":"cebpf4jnsgd1na2vs0mg"},{"bike_id":"dfbcc3d7-1028-4db4-acdb-00ac97fdd35a","system_id":"levelo_inurba_marseille","lat":43.298433,"lon":5.362774,"is_reserved":false,"is_disabled":false,"rental_uris":{"android":"levelo://app?vid=dfbcc3d7-1028-4db4-acdb-00ac97fdd35a","ios":"levelo://app?vid=dfbcc3d7-1028-4db4-acdb-00ac97fdd35a"},"vehicle_type_id":"4","last_reported":1714918014,"current_range_meters":6400,"station_id":"ce4bgpp2rcd13ifvqc3g","pricing_plan_id":"cebpf4jnsgd1na2vs0mg"},{"bike_id":"1ecf0ee7-1872-406d-b817-855a048bedfe","system_id":"levelo_inurba_marseille","lat":43.298433,"lon":5.362774,"is_reserved":false,"is_disabled":false,"rental_uris":{"android":"levelo://app?vid=1ecf0ee7-1872-406d-b817-855a048bedfe","ios":"levelo://app?vid=1ecf0ee7-1872-406d-b817-855a048bedfe"},"vehicle_type_id":"4","last_reported":1714918014,"current_range_meters":7200,"station_id":"ce4bgpp2rcd13ifvqc3g","pricing_plan_id":"cebpf4jnsgd1na2vs0mg"},{"bike_id":"5d72c1df-8031-4429-b4fd-f512a2f2aee2","system_id":"levelo_inurba_marseille","lat":43.298433,"lon":5.362774,"is_reserved":false,"is_disabled":false,"rental_uris":{"android":"levelo://app?vid=5d72c1df-8031-4429-b4fd-f512a2f2aee2","ios":"levelo://app?vid=5d72c1df-8031-4429-b4fd-f512a2f2aee2"},"vehicle_type_id":"4","last_reported":1714918014,"current_range_meters":23200,"station_id":"ce4bgpp2rcd13ifvqc3g","pricing_plan_id":"cebpf4jnsgd1na2vs0mg"},{"bike_id":"2d18849e-032d-4d81-b5a4-9ad147339139","system_id":"levelo_inurba_marseille","lat":43.29824,"lon":5.36244,"is_reserved":false,"is_disabled":false,"rental_uris":{"android":"levelo://app?vid=2d18849e-032d-4d81-b5a4-9ad147339139","ios":"levelo://app?vid=2d18849e-032d-4d81-b5a4-9ad147339139"},"vehicle_type_id":"4","last_reported":1714918014,"current_range_meters":13600,"station_id":"ce4bgpp2rcd13ifvqc3g","pricing_plan_id":"cebpf4jnsgd1na2vs0mg"},{"bike_id":"864f6bde-6d1c-4e7e-87a3-bcf48e4767ec","system_id":"levelo_inurba_marseille","lat":43.297163,"lon":5.365866,"is_reserved":false,"is_disabled":false,"rental_uris":{"android":"levelo://app?vid=864f6bde-6d1c-4e7e-87a3-bcf48e4767ec","ios":"levelo://app?vid=864f6bde-6d1c-4e7e-87a3-bcf48e4767ec"},"vehicle_type_id":"4","last_reported":1714918014,"current_range_meters":12800,"station_id":"ce4bgn12rcd13ifvqbt0","pricing_plan_id":"cebpf4jnsgd1na2vs0mg"},{"bike_id":"1f701b43-8046-441e-9b56-0afcde08550d","system_id":"levelo_inurba_marseille","lat":43.296131,"lon":5.370791,"is_reserved":false,"is_disabled":false,"rental_uris":{"android":"levelo://app?vid=1f701b43-8046-441e-9b56-0afcde08550d","ios":"levelo://app?vid=1f701b43-8046-441e-9b56-0afcde08550d"},"vehicle_type_id":"4","last_reported":1714918014,"current_range_meters":0,"station_id":"ce4bgnh2rcd13ifvqc0g","pricing_plan_id":"cebpf4jnsgd1na2vs0mg"},{"bike_id":"34ed3acf-f35e-4d2c-9f4f-d4401206897b","system_id":"levelo_inurba_marseille","lat":43.29622,"lon":5.37155,"is_reserved":false,"is_disabled":false,"rental_uris":{"android":"levelo://app?vid=34ed3acf-f35e-4d2c-9f4f-d4401206897b","ios":"levelo://app?vid=34ed3acf-f35e-4d2c-9f4f-d4401206897b"},"vehicle_type_id":"4","last_reported":1714918014,"current_range_meters":9200,"station_id":"","pricing_plan_id":"cebpf4jnsgd1na2vs0mg"},{"bike_id":"e62c26cd-c960-44c6-ab91-2aacab9266a2","system_id":"levelo_inurba_marseille","lat":43.29585,"lon":5.36744,"is_reserved":false,"is_disabled":false,"rental_uris":{"android":"levelo://app?vid=e62c26cd-c960-44c6-ab91-2aacab9266a2","ios":"levelo://app?vid=e62c26cd-c960-44c6-ab91-2aacab9266a2"},"vehicle_type_id":"4","last_reported":1714918014,"current_range_meters":0,"station_id":"ce4bgph2rcd13ifvqc2g","pricing_plan_id":"cebpf4jnsgd1na2vs0mg"},{"bike_id":"0a440bd2-3ecb-48c0-8de8-302bed50a579","system_id":"levelo_inurba_marseille","lat":43.29579,"lon":5.36734,"is_reserved":false,"is_disabled":false,"rental_uris":{"android":"levelo://app?vid=0a440bd2-3ecb-48c0-8de8-302bed50a579","ios":"levelo://app?vid=0a440bd2-3ecb-48c0-8de8-302bed50a579"},"vehicle_type_id":"4","last_reported":1714918014,"current_range_meters":0,"station_id":"ce4bgph2rcd13ifvqc2g","pricing_plan_id":"cebpf4jnsgd1na2vs0mg"},{"bike_id":"1784a509-6592-42df-b774-232a6fdb039e","system_id":"levelo_inurba_marseille","lat":43.299028,"lon":5.381509,"is_reserved":false,"is_disabled":false,"rental_uris":{"android":"levelo://app?vid=1784a509-6592-42df-b774-232a6fdb039e","ios":"levelo://app?vid=1784a509-6592-42df-b774-232a6fdb039e"},"vehicle_type_id":"4","last_reported":1714918014,"current_range_meters":14800,"station_id":"ce4bgj12rcd13ifvqbc0","pricing_plan_id":"cebpf4jnsgd1na2vs0mg"},{"bike_id":"3d315f48-dcba-402c-8802-9154e15291fb","system_id":"levelo_inurba_marseille","lat":43.309589,"lon":5.390258,"is_reserved":false,"is_disabled":false,"rental_uris":{"android":"levelo://app?vid=3d315f48-dcba-402c-8802-9154e15291fb","ios":"levelo://app?vid=3d315f48-dcba-402c-8802-9154e15291fb"},"vehicle_type_id":"4","last_reported":1714918014,"current_range_meters":0,"station_id":"ce4bgup2rcd13ifvqco0","pricing_plan_id":"cebpf4jnsgd1na2vs0mg"},{"bike_id":"47caa1f3-0043-4b8b-a6b5-8ebd0c7b286f","system_id":"levelo_inurba_marseille","lat":43.30954,"lon":5.3903,"is_reserved":false,"is_disabled":false,"rental_uris":{"android":"levelo://app?vid=47caa1f3-0043-4b8b-a6b5-8ebd0c7b286f","ios":"levelo://app?vid=47caa1f3-0043-4b8b-a6b5-8ebd0c7b286f"},"vehicle_type_id":"4","last_reported":1714918014,"current_range_meters":20800,"station_id":"ce4bgup2rcd13ifvqco0","pricing_plan_id":"cebpf4jnsgd1na2vs0mg"},{"bike_id":"442e0814-c931-4ff6-93fa-d360f15dec82","system_id":"levelo_inurba_marseille","lat":43.309589,"lon":5.390258,"is_reserved":false,"is_disabled":false,"rental_uris":{"android":"levelo://app?vid=442e0814-c931-4ff6-93fa-d360f15dec82","ios":"levelo://app?vid=442e0814-c931-4ff6-93fa-d360f15dec82"},"vehicle_type_id":"4","last_reported":1714918014,"current_range_meters":22400,"station_id":"ce4bgup2rcd13ifvqco0","pricing_plan_id":"cebpf4jnsgd1na2vs0mg"},{"bike_id":"58588f55-118f-49c3-9b4a-2ddecd8e8961","system_id":"levelo_inurba_marseille","lat":43.30952,"lon":5.39031,"is_reserved":false,"is_disabled":false,"rental_uris":{"android":"levelo://app?vid=58588f55-118f-49c3-9b4a-2ddecd8e8961","ios":"levelo://app?vid=58588f55-118f-49c3-9b4a-2ddecd8e8961"},"vehicle_type_id":"4","last_reported":1714918014,"current_range_meters":18000,"station_id":"ce4bgup2rcd13ifvqco0","pricing_plan_id":"cebpf4jnsgd1na2vs0mg"},{"bike_id":"d0586795-5e39-474e-952c-3f7b5188700f","system_id":"levelo_inurba_marseille","lat":43.30948,"lon":5.39034,"is_reserved":false,"is_disabled":false,"rental_uris":{"android":"levelo://app?vid=d0586795-5e39-474e-952c-3f7b5188700f","ios":"levelo://app?vid=d0586795-5e39-474e-952c-3f7b5188700f"},"vehicle_type_id":"4","last_reported":1714918014,"current_range_meters":800,"station_id":"ce4bgup2rcd13ifvqco0","pricing_plan_id":"cebpf4jnsgd1na2vs0mg"},{"bike_id":"4e55dc77-a61f-4deb-87d5-558b1574e467","system_id":"levelo_inurba_marseille","lat":43.30961,"lon":5.39038,"is_reserved":false,"is_disabled":false,"rental_uris":{"android":"levelo://app?vid=4e55dc77-a61f-4deb-87d5-558b1574e467","ios":"levelo://app?vid=4e55dc77-a61f-4deb-87d5-558b1574e467"},"vehicle_type_id":"4","last_reported":1714918014,"current_range_meters":12000,"station_id":"ce4bgup2rcd13ifvqco0","pricing_plan_id":"cebpf4jnsgd1na2vs0mg"},{"bike_id":"cbd7dc33-b578-4c37-8b1c-6a24e2046c53","system_id":"levelo_inurba_marseille","lat":43.30957,"lon":5.39037,"is_reserved":false,"is_disabled":false,"rental_uris":{"android":"levelo://app?vid=cbd7dc33-b578-4c37-8b1c-6a24e2046c53","ios":"levelo://app?vid=cbd7dc33-b578-4c37-8b1c-6a24e2046c53"},"vehicle_type_id":"4","last_reported":1714918014,"current_range_meters":0,"station_id":"ce4bgup2rcd13ifvqco0","pricing_plan_id":"cebpf4jnsgd1na2vs0mg"},{"bike_id":"3a57ef19-b2a4-4c2e-a6ba-f602554b5a29","system_id":"levelo_inurba_marseille","lat":43.309531,"lon":5.390374,"is_reserved":false,"is_disabled":false,"rental_uris":{"android":"levelo://app?vid=3a57ef19-b2a4-4c2e-a6ba-f602554b5a29","ios":"levelo://app?vid=3a57ef19-b2a4-4c2e-a6ba-f602554b5a29"},"vehicle_type_id":"4","last_reported":1714918014,"current_range_meters":19600,"station_id":"ce4bgup2rcd13ifvqco0","pricing_plan_id":"cebpf4jnsgd1na2vs0mg"},{"bike_id":"a6273e01-fa52-4583-9f4e-704faf6a8248","system_id":"levelo_inurba_marseille","lat":43.30956,"lon":5.39041,"is_reserved":false,"is_disabled":false,"rental_uris":{"android":"levelo://app?vid=a6273e01-fa52-4583-9f4e-704faf6a8248","ios":"levelo://app?vid=a6273e01-fa52-4583-9f4e-704faf6a8248"},"vehicle_type_id":"4","last_reported":1714918014,"current_range_meters":20800,"station_id":"ce4bgup2rcd13ifvqco0","pricing_plan_id":"cebpf4jnsgd1na2vs0mg"},{"bike_id":"45607523-3287-4322-bc2b-bfa8476dcd43","system_id":"levelo_inurba_marseille","lat":43.309567,"lon":5.390434,"is_reserved":false,"is_disabled":false,"rental_uris":{"android":"levelo://app?vid=45607523-3287-4322-bc2b-bfa8476dcd43","ios":"levelo://app?vid=45607523-3287-4322-bc2b-bfa8476dcd43"},"vehicle_type_id":"4","last_reported":1714918014,"current_range_meters":18800,"station_id":"ce4bgup2rcd13ifvqco0","pricing_plan_id":"cebpf4jnsgd1na2vs0mg"},{"bike_id":"461040f6-73b6-4d68-bef6-19045e7ee1fb","system_id":"levelo_inurba_marseille","lat":43.317557,"lon":5.390173,"is_reserved":false,"is_disabled":false,"rental_uris":{"android":"levelo://app?vid=461040f6-73b6-4d68-bef6-19045e7ee1fb","ios":"levelo://app?vid=461040f6-73b6-4d68-bef6-19045e7ee1fb"},"vehicle_type_id":"4","last_reported":1714918014,"current_range_meters":2000,"station_id":"ce4bhqp2rcd13ifvqhng","pricing_plan_id":"cebpf4jnsgd1na2vs0mg"},{"bike_id":"af343ce5-3f03-4817-8c5a-c2e4571d4d39","system_id":"levelo_inurba_marseille","lat":43.317557,"lon":5.390173,"is_reserved":false,"is_disabled":false,"rental_uris":{"android":"levelo://app?vid=af343ce5-3f03-4817-8c5a-c2e4571d4d39","ios":"levelo://app?vid=af343ce5-3f03-4817-8c5a-c2e4571d4d39"},"vehicle_type_id":"4","last_reported":1714918014,"current_range_meters":0,"station_id":"ce4bhqp2rcd13ifvqhng","pricing_plan_id":"cebpf4jnsgd1na2vs0mg"},{"bike_id":"35b70ffc-51ea-402e-93f7-932f466d751f","system_id":"levelo_inurba_marseille","lat":43.317557,"lon":5.390173,"is_reserved":false,"is_disabled":false,"rental_uris":{"android":"levelo://app?vid=35b70ffc-51ea-402e-93f7-932f466d751f","ios":"levelo://app?vid=35b70ffc-51ea-402e-93f7-932f466d751f"},"vehicle_type_id":"4","last_reported":1714918014,"current_range_meters":32000,"station_id":"ce4bhqp2rcd13ifvqhng","pricing_plan_id":"cebpf4jnsgd1na2vs0mg"},{"bike_id":"02cc71ca-0648-493d-a894-89798fc75d13","system_id":"levelo_inurba_marseille","lat":43.29786,"lon":5.38098,"is_reserved":false,"is_disabled":false,"rental_uris":{"android":"levelo://app?vid=02cc71ca-0648-493d-a894-89798fc75d13","ios":"levelo://app?vid=02cc71ca-0648-493d-a894-89798fc75d13"},"vehicle_type_id":"4","last_reported":1714918014,"current_range_meters":0,"station_id":"ce4bgip2rcd13ifvqbb0","pricing_plan_id":"cebpf4jnsgd1na2vs0mg"},{"bike_id":"d9d1f3c3-2863-4d27-80c2-4a8f9c7189d2","system_id":"levelo_inurba_marseille","lat":43.29625,"lon":5.37718,"is_reserved":false,"is_disabled":false,"rental_uris":{"android":"levelo://app?vid=d9d1f3c3-2863-4d27-80c2-4a8f9c7189d2","ios":"levelo://app?vid=d9d1f3c3-2863-4d27-80c2-4a8f9c7189d2"},"vehicle_type_id":"4","last_reported":1714918014,"current_range_meters":0,"station_id":"ce4bgi92rcd13ifvqb90","pricing_plan_id":"cebpf4jnsgd1na2vs0mg"},{"bike_id":"1b4cd03f-864d-41ce-a483-7c0cd09addd3","system_id":"levelo_inurba_marseille","lat":43.2962,"lon":5.37718,"is_reserved":false,"is_disabled":false,"rental_uris":{"android":"levelo://app?vid=1b4cd03f-864d-41ce-a483-7c0cd09addd3","ios":"levelo://app?vid=1b4cd03f-864d-41ce-a483-7c0cd09addd3"},"vehicle_type_id":"4","last_reported":1714918014,"current_range_meters":0,"station_id":"ce4bgi92rcd13ifvqb90","pricing_plan_id":"cebpf4jnsgd1na2vs0mg"},{"bike_id":"bec453f2-5edf-43bd-83ca-7b6c0bb10375","system_id":"levelo_inurba_marseille","lat":43.29609,"lon":5.37712,"is_reserved":false,"is_disabled":false,"rental_uris":{"android":"levelo://app?vid=bec453f2-5edf-43bd-83ca-7b6c0bb10375","ios":"levelo://app?vid=bec453f2-5edf-43bd-83ca-7b6c0bb10375"},"vehicle_type_id":"4","last_reported":1714918014,"current_range_meters":0,"station_id":"ce4bgi92rcd13ifvqb90","pricing_plan_id":"cebpf4jnsgd1na2vs0mg"},{"bike_id":"5a450c04-7228-459b-bcfa-ab80d0ceff5a","system_id":"levelo_inurba_marseille","lat":43.29608,"lon":5.3772,"is_reserved":false,"is_disabled":false,"rental_uris":{"android":"levelo://app?vid=5a450c04-7228-459b-bcfa-ab80d0ceff5a","ios":"levelo://app?vid=5a450c04-7228-459b-bcfa-ab80d0ceff5a"},"vehicle_type_id":"4","last_reported":1714918014,"current_range_meters":0,"station_id":"ce4bgi92rcd13ifvqb90","pricing_plan_id":"cebpf4jnsgd1na2vs0mg"},{"bike_id":"3c255c16-31ed-4083-8109-2964ba423bc6","system_id":"levelo_inurba_marseille","lat":43.295383,"lon":5.374939,"is_reserved":false,"is_disabled":false,"rental_uris":{"android":"levelo://app?vid=3c255c16-31ed-4083-8109-2964ba423bc6","ios":"levelo://app?vid=3c255c16-31ed-4083-8109-2964ba423bc6"},"vehicle_type_id":"4","last_reported":1714918014,"current_range_meters":0,"station_id":"ce4bgkp2rcd13ifvqbmg","pricing_plan_id":"cebpf4jnsgd1na2vs0mg"},{"bike_id":"f91015ff-39f2-4a5e-8597-44085cd12baf","system_id":"levelo_inurba_marseille","lat":43.29535,"lon":5.37501,"is_reserved":false,"is_disabled":false,"rental_uris":{"android":"levelo://app?vid=f91015ff-39f2-4a5e-8597-44085cd12baf","ios":"levelo://app?vid=f91015ff-39f2-4a5e-8597-44085cd12baf"},"vehicle_type_id":"4","last_reported":1714918014,"current_range_meters":0,"station_id":"ce4bgkp2rcd13ifvqbmg","pricing_plan_id":"cebpf4jnsgd1na2vs0mg"},{"bike_id":"6b3c0e30-9bf4-4ec3-9a36-51726de15fcd","system_id":"levelo_inurba_marseille","lat":43.295279,"lon":5.375048,"is_reserved":false,"is_disabled":false,"rental_uris":{"android":"levelo://app?vid=6b3c0e30-9bf4-4ec3-9a36-51726de15fcd","ios":"levelo://app?vid=6b3c0e30-9bf4-4ec3-9a36-51726de15fcd"},"vehicle_type_id":"4","last_reported":1714918014,"current_range_meters":14400,"station_id":"ce4bgkp2rcd13ifvqbmg","pricing_plan_id":"cebpf4jnsgd1na2vs0mg"},{"bike_id":"999015c2-08a4-40a8-a63b-de302b34340d","system_id":"levelo_inurba_marseille","lat":43.299724,"lon":5.384848,"is_reserved":false,"is_disabled":false,"rental_uris":{"android":"levelo://app?vid=999015c2-08a4-40a8-a63b-de302b34340d","ios":"levelo://app?vid=999015c2-08a4-40a8-a63b-de302b34340d"},"vehicle_type_id":"4","last_reported":1714918014,"current_range_meters":14800,"station_id":"ce4bgj92rcd13ifvqbd0","pricing_plan_id":"cebpf4jnsgd1na2vs0mg"},{"bike_id":"4aea2e82-0cdf-4153-b564-ca9dc509ca6b","system_id":"levelo_inurba_marseille","lat":43.32363,"lon":5.38876,"is_reserved":false,"is_disabled":false,"rental_uris":{"android":"levelo://app?vid=4aea2e82-0cdf-4153-b564-ca9dc509ca6b","ios":"levelo://app?vid=4aea2e82-0cdf-4153-b564-ca9dc509ca6b"},"vehicle_type_id":"4","last_reported":1714918014,"current_range_meters":10800,"station_id":"ce4bhqp2rcd13ifvqhog","pricing_plan_id":"cebpf4jnsgd1na2vs0mg"},{"bike_id":"4176ad1d-d0ba-4624-b243-38b4c50f7116","system_id":"levelo_inurba_marseille","lat":43.32361,"lon":5.38881,"is_reserved":false,"is_disabled":false,"rental_uris":{"android":"levelo://app?vid=4176ad1d-d0ba-4624-b243-38b4c50f7116","ios":"levelo://app?vid=4176ad1d-d0ba-4624-b243-38b4c50f7116"},"vehicle_type_id":"4","last_reported":1714918014,"current_range_meters":800,"station_id":"ce4bhqp2rcd13ifvqhog","pricing_plan_id":"cebpf4jnsgd1na2vs0mg"},{"bike_id":"3626cecc-3bd7-4b94-a430-9363a451aeff","system_id":"levelo_inurba_marseille","lat":43.32367,"lon":5.3888,"is_reserved":false,"is_disabled":false,"rental_uris":{"android":"levelo://app?vid=3626cecc-3bd7-4b94-a430-9363a451aeff","ios":"levelo://app?vid=3626cecc-3bd7-4b94-a430-9363a451aeff"},"vehicle_type_id":"4","last_reported":1714918014,"current_range_meters":25600,"station_id":"ce4bhqp2rcd13ifvqhog","pricing_plan_id":"cebpf4jnsgd1na2vs0mg"},{"bike_id":"c168d4ea-235d-4dbb-9844-b3ebe44d593c","system_id":"levelo_inurba_marseille","lat":43.32367,"lon":5.388836,"is_reserved":false,"is_disabled":false,"rental_uris":{"android":"levelo://app?vid=c168d4ea-235d-4dbb-9844-b3ebe44d593c","ios":"levelo://app?vid=c168d4ea-235d-4dbb-9844-b3ebe44d593c"},"vehicle_type_id":"4","last_reported":1714918014,"current_range_meters":26400,"station_id":"ce4bhqp2rcd13ifvqhog","pricing_plan_id":"cebpf4jnsgd1na2vs0mg"},{"bike_id":"b11db906-28de-42cd-b6c4-7a2b7a5989ab","system_id":"levelo_inurba_marseille","lat":43.32366,"lon":5.38884,"is_reserved":false,"is_disabled":false,"rental_uris":{"android":"levelo://app?vid=b11db906-28de-42cd-b6c4-7a2b7a5989ab","ios":"levelo://app?vid=b11db906-28de-42cd-b6c4-7a2b7a5989ab"},"vehicle_type_id":"4","last_reported":1714918014,"current_range_meters":4800,"station_id":"ce4bhqp2rcd13ifvqhog","pricing_plan_id":"cebpf4jnsgd1na2vs0mg"},{"bike_id":"4a39b302-b5a2-4539-b586-f66857dbb7c6","system_id":"levelo_inurba_marseille","lat":43.32367,"lon":5.38886,"is_reserved":false,"is_disabled":false,"rental_uris":{"android":"levelo://app?vid=4a39b302-b5a2-4539-b586-f66857dbb7c6","ios":"levelo://app?vid=4a39b302-b5a2-4539-b586-f66857dbb7c6"},"vehicle_type_id":"4","last_reported":1714918014,"current_range_meters":0,"station_id":"ce4bhqp2rcd13ifvqhog","pricing_plan_id":"cebpf4jnsgd1na2vs0mg"},{"bike_id":"98d87a27-b1a6-4043-aefb-2529fd5f5e5c","system_id":"levelo_inurba_marseille","lat":43.32367,"lon":5.388836,"is_reserved":false,"is_disabled":false,"rental_uris":{"android":"levelo://app?vid=98d87a27-b1a6-4043-aefb-2529fd5f5e5c","ios":"levelo://app?vid=98d87a27-b1a6-4043-aefb-2529fd5f5e5c"},"vehicle_type_id":"4","last_reported":1714918014,"current_range_meters":13200,"station_id":"ce4bhqp2rcd13ifvqhog","pricing_plan_id":"cebpf4jnsgd1na2vs0mg"},{"bike_id":"e9af87f4-5874-4594-983d-759b34aaf584","system_id":"levelo_inurba_marseille","lat":43.292749,"lon":5.368402,"is_reserved":false,"is_disabled":false,"rental_uris":{"android":"levelo://app?vid=e9af87f4-5874-4594-983d-759b34aaf584","ios":"levelo://app?vid=e9af87f4-5874-4594-983d-759b34aaf584"},"vehicle_type_id":"4","last_reported":1714918014,"current_range_meters":0,"station_id":"ce4bhbp2rcd13ifvqesg","pricing_plan_id":"cebpf4jnsgd1na2vs0mg"},{"bike_id":"8cf26ad3-60d0-4c7e-afcd-62e5f896f2b8","system_id":"levelo_inurba_marseille","lat":43.293259,"lon":5.371586,"is_reserved":false,"is_disabled":false,"rental_uris":{"android":"levelo://app?vid=8cf26ad3-60d0-4c7e-afcd-62e5f896f2b8","ios":"levelo://app?vid=8cf26ad3-60d0-4c7e-afcd-62e5f896f2b8"},"vehicle_type_id":"4","last_reported":1714918014,"current_range_meters":27600,"station_id":"ce4bgh92rcd13ifvqb40","pricing_plan_id":"cebpf4jnsgd1na2vs0mg"},{"bike_id":"0c702de5-b73c-4281-b005-3a30b580e5c0","system_id":"levelo_inurba_marseille","lat":43.29307,"lon":5.37173,"is_reserved":false,"is_disabled":false,"rental_uris":{"android":"levelo://app?vid=0c702de5-b73c-4281-b005-3a30b580e5c0","ios":"levelo://app?vid=0c702de5-b73c-4281-b005-3a30b580e5c0"},"vehicle_type_id":"4","last_reported":1714918014,"current_range_meters":0,"station_id":"ce4bgh92rcd13ifvqb40","pricing_plan_id":"cebpf4jnsgd1na2vs0mg"},{"bike_id":"09f7cb5d-9edd-47d2-a04e-f1b90dc48fc4","system_id":"levelo_inurba_marseille","lat":43.292749,"lon":5.368402,"is_reserved":false,"is_disabled":false,"rental_uris":{"android":"levelo://app?vid=09f7cb5d-9edd-47d2-a04e-f1b90dc48fc4","ios":"levelo://app?vid=09f7cb5d-9edd-47d2-a04e-f1b90dc48fc4"},"vehicle_type_id":"4","last_reported":1714918014,"current_range_meters":21200,"station_id":"ce4bhbp2rcd13ifvqesg","pricing_plan_id":"cebpf4jnsgd1na2vs0mg"},{"bike_id":"3024b810-a278-43bf-ace0-8c81c9d5a390","system_id":"levelo_inurba_marseille","lat":43.292749,"lon":5.368402,"is_reserved":false,"is_disabled":false,"rental_uris":{"android":"levelo://app?vid=3024b810-a278-43bf-ace0-8c81c9d5a390","ios":"levelo://app?vid=3024b810-a278-43bf-ace0-8c81c9d5a390"},"vehicle_type_id":"4","last_reported":1714918014,"current_range_meters":14000,"station_id":"ce4bhbp2rcd13ifvqesg","pricing_plan_id":"cebpf4jnsgd1na2vs0mg"},{"bike_id":"189a56ac-8462-4387-9f09-b4c0be73ffd5","system_id":"levelo_inurba_marseille","lat":43.292311,"lon":5.360731,"is_reserved":false,"is_disabled":false,"rental_uris":{"android":"levelo://app?vid=189a56ac-8462-4387-9f09-b4c0be73ffd5","ios":"levelo://app?vid=189a56ac-8462-4387-9f09-b4c0be73ffd5"},"vehicle_type_id":"4","last_reported":1714918014,"current_range_meters":19600,"station_id":"ce4bhbh2rcd13ifvqeqg","pricing_plan_id":"cebpf4jnsgd1na2vs0mg"},{"bike_id":"5e441e44-c6ee-426d-88ca-8044a1a00ed0","system_id":"levelo_inurba_marseille","lat":43.2936,"lon":5.37835,"is_reserved":false,"is_disabled":false,"rental_uris":{"android":"levelo://app?vid=5e441e44-c6ee-426d-88ca-8044a1a00ed0","ios":"levelo://app?vid=5e441e44-c6ee-426d-88ca-8044a1a00ed0"},"vehicle_type_id":"4","last_reported":1714918014,"current_range_meters":26400,"station_id":"ce4bgjh2rcd13ifvqbf0","pricing_plan_id":"cebpf4jnsgd1na2vs0mg"},{"bike_id":"d253fde2-6b9b-4fb1-bfd8-1c87173ad795","system_id":"levelo_inurba_marseille","lat":43.302992,"lon":5.392136,"is_reserved":false,"is_disabled":false,"rental_uris":{"android":"levelo://app?vid=d253fde2-6b9b-4fb1-bfd8-1c87173ad795","ios":"levelo://app?vid=d253fde2-6b9b-4fb1-bfd8-1c87173ad795"},"vehicle_type_id":"4","last_reported":1714918014,"current_range_meters":20000,"station_id":"ce4bgkh2rcd13ifvqbk0","pricing_plan_id":"cebpf4jnsgd1na2vs0mg"},{"bike_id":"8c0ab9ff-6480-40fd-a5ce-cdd3c0dea5fd","system_id":"levelo_inurba_marseille","lat":43.292384,"lon":5.360387,"is_reserved":false,"is_disabled":false,"rental_uris":{"android":"levelo://app?vid=8c0ab9ff-6480-40fd-a5ce-cdd3c0dea5fd","ios":"levelo://app?vid=8c0ab9ff-6480-40fd-a5ce-cdd3c0dea5fd"},"vehicle_type_id":"4","last_reported":1714918014,"current_range_meters":12000,"station_id":"ce4bhbh2rcd13ifvqeqg","pricing_plan_id":"cebpf4jnsgd1na2vs0mg"},{"bike_id":"563cee3a-02c6-491f-a39b-8f380cabefab","system_id":"levelo_inurba_marseille","lat":43.292311,"lon":5.360731,"is_reserved":false,"is_disabled":false,"rental_uris":{"android":"levelo://app?vid=563cee3a-02c6-491f-a39b-8f380cabefab","ios":"levelo://app?vid=563cee3a-02c6-491f-a39b-8f380cabefab"},"vehicle_type_id":"4","last_reported":1714918014,"current_range_meters":5200,"station_id":"ce4bhbh2rcd13ifvqeqg","pricing_plan_id":"cebpf4jnsgd1na2vs0mg"},{"bike_id":"c04dc79f-7a88-4b6a-9bc0-e61d050d71e2","system_id":"levelo_inurba_marseille","lat":43.292311,"lon":5.360731,"is_reserved":false,"is_disabled":false,"rental_uris":{"android":"levelo://app?vid=c04dc79f-7a88-4b6a-9bc0-e61d050d71e2","ios":"levelo://app?vid=c04dc79f-7a88-4b6a-9bc0-e61d050d71e2"},"vehicle_type_id":"4","last_reported":1714918014,"current_range_meters":26800,"station_id":"ce4bhbh2rcd13ifvqeqg","pricing_plan_id":"cebpf4jnsgd1na2vs0mg"},{"bike_id":"105d1cb1-958a-4c3e-8261-63fea4bd1c84","system_id":"levelo_inurba_marseille","lat":43.29228,"lon":5.36059,"is_reserved":false,"is_disabled":false,"rental_uris":{"android":"levelo://app?vid=105d1cb1-958a-4c3e-8261-63fea4bd1c84","ios":"levelo://app?vid=105d1cb1-958a-4c3e-8261-63fea4bd1c84"},"vehicle_type_id":"4","last_reported":1714918014,"current_range_meters":23200,"station_id":"ce4bhbh2rcd13ifvqeqg","pricing_plan_id":"cebpf4jnsgd1na2vs0mg"},{"bike_id":"731dc0ce-2381-43b5-b9e7-6663c78a0233","system_id":"levelo_inurba_marseille","lat":43.29229,"lon":5.36052,"is_reserved":false,"is_disabled":false,"rental_uris":{"android":"levelo://app?vid=731dc0ce-2381-43b5-b9e7-6663c78a0233","ios":"levelo://app?vid=731dc0ce-2381-43b5-b9e7-6663c78a0233"},"vehicle_type_id":"4","last_reported":1714918014,"current_range_meters":6400,"station_id":"ce4bhbh2rcd13ifvqeqg","pricing_plan_id":"cebpf4jnsgd1na2vs0mg"},{"bike_id":"b3dbf2f6-6dbc-42e4-ab60-2e1525564a2f","system_id":"levelo_inurba_marseille","lat":43.29228,"lon":5.36056,"is_reserved":false,"is_disabled":false,"rental_uris":{"android":"levelo://app?vid=b3dbf2f6-6dbc-42e4-ab60-2e1525564a2f","ios":"levelo://app?vid=b3dbf2f6-6dbc-42e4-ab60-2e1525564a2f"},"vehicle_type_id":"4","last_reported":1714918014,"current_range_meters":14400,"station_id":"ce4bhbh2rcd13ifvqeqg","pricing_plan_id":"cebpf4jnsgd1na2vs0mg"},{"bike_id":"b85a0d91-c51f-49d5-bf19-6a5ac7e88fc2","system_id":"levelo_inurba_marseille","lat":43.292276,"lon":5.360581,"is_reserved":false,"is_disabled":false,"rental_uris":{"android":"levelo://app?vid=b85a0d91-c51f-49d5-bf19-6a5ac7e88fc2","ios":"levelo://app?vid=b85a0d91-c51f-49d5-bf19-6a5ac7e88fc2"},"vehicle_type_id":"4","last_reported":1714918014,"current_range_meters":14800,"station_id":"ce4bhbh2rcd13ifvqeqg","pricing_plan_id":"cebpf4jnsgd1na2vs0mg"},{"bike_id":"e7bec4df-fa19-4b20-b178-1a84cab50e28","system_id":"levelo_inurba_marseille","lat":43.292311,"lon":5.360731,"is_reserved":false,"is_disabled":false,"rental_uris":{"android":"levelo://app?vid=e7bec4df-fa19-4b20-b178-1a84cab50e28","ios":"levelo://app?vid=e7bec4df-fa19-4b20-b178-1a84cab50e28"},"vehicle_type_id":"4","last_reported":1714918014,"current_range_meters":6400,"station_id":"ce4bhbh2rcd13ifvqeqg","pricing_plan_id":"cebpf4jnsgd1na2vs0mg"},{"bike_id":"ba603a1c-1a7c-41a2-9b07-7a254f9e0799","system_id":"levelo_inurba_marseille","lat":43.292236,"lon":5.360466,"is_reserved":false,"is_disabled":false,"rental_uris":{"android":"levelo://app?vid=ba603a1c-1a7c-41a2-9b07-7a254f9e0799","ios":"levelo://app?vid=ba603a1c-1a7c-41a2-9b07-7a254f9e0799"},"vehicle_type_id":"4","last_reported":1714918014,"current_range_meters":26000,"station_id":"ce4bhbh2rcd13ifvqeqg","pricing_plan_id":"cebpf4jnsgd1na2vs0mg"},{"bike_id":"fd5d6575-6b80-4b6b-b1b3-402e63c9fb12","system_id":"levelo_inurba_marseille","lat":43.292116,"lon":5.360423,"is_reserved":false,"is_disabled":false,"rental_uris":{"android":"levelo://app?vid=fd5d6575-6b80-4b6b-b1b3-402e63c9fb12","ios":"levelo://app?vid=fd5d6575-6b80-4b6b-b1b3-402e63c9fb12"},"vehicle_type_id":"4","last_reported":1714918014,"current_range_meters":28800,"station_id":"ce4bhbh2rcd13ifvqeqg","pricing_plan_id":"cebpf4jnsgd1na2vs0mg"},{"bike_id":"83a4a090-70f6-4680-8063-2b5365337912","system_id":"levelo_inurba_marseille","lat":43.298764,"lon":5.388973,"is_reserved":false,"is_disabled":false,"rental_uris":{"android":"levelo://app?vid=83a4a090-70f6-4680-8063-2b5365337912","ios":"levelo://app?vid=83a4a090-70f6-4680-8063-2b5365337912"},"vehicle_type_id":"4","last_reported":1714918014,"current_range_meters":0,"station_id":"ce4bh392rcd13ifvqdl0","pricing_plan_id":"cebpf4jnsgd1na2vs0mg"},{"bike_id":"01b66590-4eb2-4322-87d8-4c7d14634968","system_id":"levelo_inurba_marseille","lat":43.292005,"lon":5.357875,"is_reserved":false,"is_disabled":false,"rental_uris":{"android":"levelo://app?vid=01b66590-4eb2-4322-87d8-4c7d14634968","ios":"levelo://app?vid=01b66590-4eb2-4322-87d8-4c7d14634968"},"vehicle_type_id":"4","last_reported":1714918014,"current_range_meters":12000,"station_id":"ce4bhb12rcd13ifvqel0","pricing_plan_id":"cebpf4jnsgd1na2vs0mg"},{"bike_id":"abeac8c3-5bd2-4c98-b05d-9ef061fe2038","system_id":"levelo_inurba_marseille","lat":43.291994,"lon":5.357886,"is_reserved":false,"is_disabled":false,"rental_uris":{"android":"levelo://app?vid=abeac8c3-5bd2-4c98-b05d-9ef061fe2038","ios":"levelo://app?vid=abeac8c3-5bd2-4c98-b05d-9ef061fe2038"},"vehicle_type_id":"4","last_reported":1714918014,"current_range_meters":0,"station_id":"ce4bhb12rcd13ifvqel0","pricing_plan_id":"cebpf4jnsgd1na2vs0mg"},{"bike_id":"da62dfac-332f-4a1c-b037-b7bc9d12aa56","system_id":"levelo_inurba_marseille","lat":43.30889,"lon":5.39645,"is_reserved":false,"is_disabled":false,"rental_uris":{"android":"levelo://app?vid=da62dfac-332f-4a1c-b037-b7bc9d12aa56","ios":"levelo://app?vid=da62dfac-332f-4a1c-b037-b7bc9d12aa56"},"vehicle_type_id":"4","last_reported":1714918014,"current_range_meters":0,"station_id":"ce4bh012rcd13ifvqcv0","pricing_plan_id":"cebpf4jnsgd1na2vs0mg"},{"bike_id":"a4c9b74f-ceac-4155-800a-692384a8d69e","system_id":"levelo_inurba_marseille","lat":43.313291,"lon":5.396838,"is_reserved":false,"is_disabled":false,"rental_uris":{"android":"levelo://app?vid=a4c9b74f-ceac-4155-800a-692384a8d69e","ios":"levelo://app?vid=a4c9b74f-ceac-4155-800a-692384a8d69e"},"vehicle_type_id":"4","last_reported":1714918014,"current_range_meters":0,"station_id":"ce4bgvp2rcd13ifvqcu0","pricing_plan_id":"cebpf4jnsgd1na2vs0mg"},{"bike_id":"17a5ee7c-e052-4f8b-abcb-cc5140d4e46f","system_id":"levelo_inurba_marseille","lat":43.290779,"lon":5.371482,"is_reserved":false,"is_disabled":false,"rental_uris":{"android":"levelo://app?vid=17a5ee7c-e052-4f8b-abcb-cc5140d4e46f","ios":"levelo://app?vid=17a5ee7c-e052-4f8b-abcb-cc5140d4e46f"},"vehicle_type_id":"4","last_reported":1714918014,"current_range_meters":10000,"station_id":"ce4bh5p2rcd13ifvqe4g","pricing_plan_id":"cebpf4jnsgd1na2vs0mg"},{"bike_id":"49db9a99-0d32-41ba-8914-72474a32c4eb","system_id":"levelo_inurba_marseille","lat":43.290103,"lon":5.372473,"is_reserved":false,"is_disabled":false,"rental_uris":{"android":"levelo://app?vid=49db9a99-0d32-41ba-8914-72474a32c4eb","ios":"levelo://app?vid=49db9a99-0d32-41ba-8914-72474a32c4eb"},"vehicle_type_id":"4","last_reported":1714918014,"current_range_meters":24800,"station_id":"","pricing_plan_id":"cebpf4jnsgd1na2vs0mg"},{"bike_id":"d608af47-7df7-44ec-8f4b-579e11738c36","system_id":"levelo_inurba_marseille","lat":43.290631,"lon":5.359244,"is_reserved":false,"is_disabled":false,"rental_uris":{"android":"levelo://app?vid=d608af47-7df7-44ec-8f4b-579e11738c36","ios":"levelo://app?vid=d608af47-7df7-44ec-8f4b-579e11738c36"},"vehicle_type_id":"4","last_reported":1714918014,"current_range_meters":28400,"station_id":"ce4bha92rcd13ifvqeg0","pricing_plan_id":"cebpf4jnsgd1na2vs0mg"},{"bike_id":"130689c4-c8d8-474e-9c92-82f1b52e016d","system_id":"levelo_inurba_marseille","lat":43.294162,"lon":5.386292,"is_reserved":false,"is_disabled":false,"rental_uris":{"android":"levelo://app?vid=130689c4-c8d8-474e-9c92-82f1b52e016d","ios":"levelo://app?vid=130689c4-c8d8-474e-9c92-82f1b52e016d"},"vehicle_type_id":"4","last_reported":1714918014,"current_range_meters":0,"station_id":"ce4bh2h2rcd13ifvqdh0","pricing_plan_id":"cebpf4jnsgd1na2vs0mg"},{"bike_id":"802f1cc5-d865-4218-bc66-a7602189cd22","system_id":"levelo_inurba_marseille","lat":43.2894,"lon":5.36636,"is_reserved":false,"is_disabled":false,"rental_uris":{"android":"levelo://app?vid=802f1cc5-d865-4218-bc66-a7602189cd22","ios":"levelo://app?vid=802f1cc5-d865-4218-bc66-a7602189cd22"},"vehicle_type_id":"4","last_reported":1714918014,"current_range_meters":0,"station_id":"ce4bhap2rcd13ifvqek0","pricing_plan_id":"cebpf4jnsgd1na2vs0mg"},{"bike_id":"9f0f963e-e4d3-470c-b9f0-d49a4f5d5c38","system_id":"levelo_inurba_marseille","lat":43.289383,"lon":5.366398,"is_reserved":false,"is_disabled":false,"rental_uris":{"android":"levelo://app?vid=9f0f963e-e4d3-470c-b9f0-d49a4f5d5c38","ios":"levelo://app?vid=9f0f963e-e4d3-470c-b9f0-d49a4f5d5c38"},"vehicle_type_id":"4","last_reported":1714918014,"current_range_meters":0,"station_id":"ce4bhap2rcd13ifvqek0","pricing_plan_id":"cebpf4jnsgd1na2vs0mg"},{"bike_id":"18659ab3-07ec-48ef-859a-c4a77b78c50f","system_id":"levelo_inurba_marseille","lat":43.28942,"lon":5.36406,"is_reserved":false,"is_disabled":false,"rental_uris":{"android":"levelo://app?vid=18659ab3-07ec-48ef-859a-c4a77b78c50f","ios":"levelo://app?vid=18659ab3-07ec-48ef-859a-c4a77b78c50f"},"vehicle_type_id":"4","last_reported":1714918014,"current_range_meters":0,"station_id":"ce4bhc92rcd13ifvqetg","pricing_plan_id":"cebpf4jnsgd1na2vs0mg"},{"bike_id":"a25c8fd7-5cca-4648-a52b-ff0ab6bec77e","system_id":"levelo_inurba_marseille","lat":43.292644,"lon":5.384257,"is_reserved":false,"is_disabled":false,"rental_uris":{"android":"levelo://app?vid=a25c8fd7-5cca-4648-a52b-ff0ab6bec77e","ios":"levelo://app?vid=a25c8fd7-5cca-4648-a52b-ff0ab6bec77e"},"vehicle_type_id":"4","last_reported":1714918014,"current_range_meters":1600,"station_id":"ce4bh692rcd13ifvqea0","pricing_plan_id":"cebpf4jnsgd1na2vs0mg"},{"bike_id":"ff4fe821-728f-4e97-bd91-b67fe92e8b6f","system_id":"levelo_inurba_marseille","lat":43.292644,"lon":5.384257,"is_reserved":false,"is_disabled":false,"rental_uris":{"android":"levelo://app?vid=ff4fe821-728f-4e97-bd91-b67fe92e8b6f","ios":"levelo://app?vid=ff4fe821-728f-4e97-bd91-b67fe92e8b6f"},"vehicle_type_id":"4","last_reported":1714918014,"current_range_meters":6800,"station_id":"ce4bh692rcd13ifvqea0","pricing_plan_id":"cebpf4jnsgd1na2vs0mg"},{"bike_id":"d89ce487-15d4-426f-953a-4a07d10c09c2","system_id":"levelo_inurba_marseille","lat":43.304274,"lon":5.397513,"is_reserved":false,"is_disabled":false,"rental_uris":{"android":"levelo://app?vid=d89ce487-15d4-426f-953a-4a07d10c09c2","ios":"levelo://app?vid=d89ce487-15d4-426f-953a-4a07d10c09c2"},"vehicle_type_id":"4","last_reported":1714918014,"current_range_meters":27200,"station_id":"ce4bh092rcd13ifvqd20","pricing_plan_id":"cebpf4jnsgd1na2vs0mg"},{"bike_id":"bbe84023-91f7-498c-b455-af8090f4b000","system_id":"levelo_inurba_marseille","lat":43.290199,"lon":5.356159,"is_reserved":false,"is_disabled":false,"rental_uris":{"android":"levelo://app?vid=bbe84023-91f7-498c-b455-af8090f4b000","ios":"levelo://app?vid=bbe84023-91f7-498c-b455-af8090f4b000"},"vehicle_type_id":"4","last_reported":1714918014,"current_range_meters":0,"station_id":"ce4bhb92rcd13ifvqen0","pricing_plan_id":"cebpf4jnsgd1na2vs0mg"},{"bike_id":"8f646215-1508-4a88-b290-e16e21dc55f8","system_id":"levelo_inurba_marseille","lat":43.290104,"lon":5.356111,"is_reserved":false,"is_disabled":false,"rental_uris":{"android":"levelo://app?vid=8f646215-1508-4a88-b290-e16e21dc55f8","ios":"levelo://app?vid=8f646215-1508-4a88-b290-e16e21dc55f8"},"vehicle_type_id":"4","last_reported":1714918014,"current_range_meters":0,"station_id":"ce4bhb92rcd13ifvqen0","pricing_plan_id":"cebpf4jnsgd1na2vs0mg"},{"bike_id":"a1f10908-6e16-41eb-9f42-ddaa82c8bc32","system_id":"levelo_inurba_marseille","lat":43.29008,"lon":5.35609,"is_reserved":false,"is_disabled":false,"rental_uris":{"android":"levelo://app?vid=a1f10908-6e16-41eb-9f42-ddaa82c8bc32","ios":"levelo://app?vid=a1f10908-6e16-41eb-9f42-ddaa82c8bc32"},"vehicle_type_id":"4","last_reported":1714918014,"current_range_meters":0,"station_id":"ce4bhb92rcd13ifvqen0","pricing_plan_id":"cebpf4jnsgd1na2vs0mg"},{"bike_id":"ed44ac37-c4a6-47db-90d0-0d2764ec6157","system_id":"levelo_inurba_marseille","lat":43.290104,"lon":5.356111,"is_reserved":false,"is_disabled":false,"rental_uris":{"android":"levelo://app?vid=ed44ac37-c4a6-47db-90d0-0d2764ec6157","ios":"levelo://app?vid=ed44ac37-c4a6-47db-90d0-0d2764ec6157"},"vehicle_type_id":"4","last_reported":1714918014,"current_range_meters":20800,"station_id":"ce4bhb92rcd13ifvqen0","pricing_plan_id":"cebpf4jnsgd1na2vs0mg"},{"bike_id":"a966d9df-2ec6-4ba1-aa22-0443b06ee6b5","system_id":"levelo_inurba_marseille","lat":43.290104,"lon":5.356111,"is_reserved":false,"is_disabled":false,"rental_uris":{"android":"levelo://app?vid=a966d9df-2ec6-4ba1-aa22-0443b06ee6b5","ios":"levelo://app?vid=a966d9df-2ec6-4ba1-aa22-0443b06ee6b5"},"vehicle_type_id":"4","last_reported":1714918014,"current_range_meters":0,"station_id":"ce4bhb92rcd13ifvqen0","pricing_plan_id":"cebpf4jnsgd1na2vs0mg"},{"bike_id":"06c0461b-eac0-4653-bcc5-8c70ee7bf8cf","system_id":"levelo_inurba_marseille","lat":43.290103,"lon":5.356114,"is_reserved":false,"is_disabled":false,"rental_uris":{"android":"levelo://app?vid=06c0461b-eac0-4653-bcc5-8c70ee7bf8cf","ios":"levelo://app?vid=06c0461b-eac0-4653-bcc5-8c70ee7bf8cf"},"vehicle_type_id":"4","last_reported":1714918014,"current_range_meters":14400,"station_id":"ce4bhb92rcd13ifvqen0","pricing_plan_id":"cebpf4jnsgd1na2vs0mg"},{"bike_id":"aba03401-6373-4ce4-a501-b80e4f25e91a","system_id":"levelo_inurba_marseille","lat":43.290104,"lon":5.356111,"is_reserved":false,"is_disabled":false,"rental_uris":{"android":"levelo://app?vid=aba03401-6373-4ce4-a501-b80e4f25e91a","ios":"levelo://app?vid=aba03401-6373-4ce4-a501-b80e4f25e91a"},"vehicle_type_id":"4","last_reported":1714918014,"current_range_meters":26400,"station_id":"ce4bhb92rcd13ifvqen0","pricing_plan_id":"cebpf4jnsgd1na2vs0mg"},{"bike_id":"594fdbf8-2bad-49aa-9e46-379e3d6c8c36","system_id":"levelo_inurba_marseille","lat":43.290103,"lon":5.356114,"is_reserved":false,"is_disabled":false,"rental_uris":{"android":"levelo://app?vid=594fdbf8-2bad-49aa-9e46-379e3d6c8c36","ios":"levelo://app?vid=594fdbf8-2bad-49aa-9e46-379e3d6c8c36"},"vehicle_type_id":"4","last_reported":1714918014,"current_range_meters":400,"station_id":"ce4bhb92rcd13ifvqen0","pricing_plan_id":"cebpf4jnsgd1na2vs0mg"},{"bike_id":"112755d0-00e9-4418-80f1-f500951974fb","system_id":"levelo_inurba_marseille","lat":43.290995,"lon":5.381361,"is_reserved":false,"is_disabled":false,"rental_uris":{"android":"levelo://app?vid=112755d0-00e9-4418-80f1-f500951974fb","ios":"levelo://app?vid=112755d0-00e9-4418-80f1-f500951974fb"},"vehicle_type_id":"4","last_reported":1714918014,"current_range_meters":1600,"station_id":"ce4bh512rcd13ifvqe2g","pricing_plan_id":"cebpf4jnsgd1na2vs0mg"},{"bike_id":"3f8d7d95-8d8b-4780-b441-987155f3da43","system_id":"levelo_inurba_marseille","lat":43.290995,"lon":5.381361,"is_reserved":false,"is_disabled":false,"rental_uris":{"android":"levelo://app?vid=3f8d7d95-8d8b-4780-b441-987155f3da43","ios":"levelo://app?vid=3f8d7d95-8d8b-4780-b441-987155f3da43"},"vehicle_type_id":"4","last_reported":1714918014,"current_range_meters":3600,"station_id":"ce4bh512rcd13ifvqe2g","pricing_plan_id":"cebpf4jnsgd1na2vs0mg"},{"bike_id":"55267d83-016e-4a7f-9868-224a2fd14979","system_id":"levelo_inurba_marseille","lat":43.290995,"lon":5.381361,"is_reserved":false,"is_disabled":false,"rental_uris":{"android":"levelo://app?vid=55267d83-016e-4a7f-9868-224a2fd14979","ios":"levelo://app?vid=55267d83-016e-4a7f-9868-224a2fd14979"},"vehicle_type_id":"4","last_reported":1714918014,"current_range_meters":15200,"station_id":"ce4bh512rcd13ifvqe2g","pricing_plan_id":"cebpf4jnsgd1na2vs0mg"},{"bike_id":"ed3b3f30-f8a7-4b2c-b404-20fa114a949e","system_id":"levelo_inurba_marseille","lat":43.29779,"lon":5.393347,"is_reserved":false,"is_disabled":false,"rental_uris":{"android":"levelo://app?vid=ed3b3f30-f8a7-4b2c-b404-20fa114a949e","ios":"levelo://app?vid=ed3b3f30-f8a7-4b2c-b404-20fa114a949e"},"vehicle_type_id":"4","last_reported":1714918014,"current_range_meters":20400,"station_id":"chh1huq6cuj3fo74tm60","pricing_plan_id":"cebpf4jnsgd1na2vs0mg"},{"bike_id":"7d3e02ce-e098-4342-88d6-1bde6554e414","system_id":"levelo_inurba_marseille","lat":43.281044,"lon":5.378308,"is_reserved":false,"is_disabled":false,"rental_uris":{"android":"levelo://app?vid=7d3e02ce-e098-4342-88d6-1bde6554e414","ios":"levelo://app?vid=7d3e02ce-e098-4342-88d6-1bde6554e414"},"vehicle_type_id":"4","last_reported":1714918014,"current_range_meters":22400,"station_id":"ce4bha12rcd13ifvqee0","pricing_plan_id":"cebpf4jnsgd1na2vs0mg"},{"bike_id":"35f86c37-f8ed-4e9b-a5d1-6c032de14145","system_id":"levelo_inurba_marseille","lat":43.330442,"lon":5.389148,"is_reserved":false,"is_disabled":false,"rental_uris":{"android":"levelo://app?vid=35f86c37-f8ed-4e9b-a5d1-6c032de14145","ios":"levelo://app?vid=35f86c37-f8ed-4e9b-a5d1-6c032de14145"},"vehicle_type_id":"4","last_reported":1714918014,"current_range_meters":21600,"station_id":"ce4bhr92rcd13ifvqhrg","pricing_plan_id":"cebpf4jnsgd1na2vs0mg"},{"bike_id":"f37175a6-1d85-4387-9ebe-7ef8dc352bd4","system_id":"levelo_inurba_marseille","lat":43.330442,"lon":5.389148,"is_reserved":false,"is_disabled":false,"rental_uris":{"android":"levelo://app?vid=f37175a6-1d85-4387-9ebe-7ef8dc352bd4","ios":"levelo://app?vid=f37175a6-1d85-4387-9ebe-7ef8dc352bd4"},"vehicle_type_id":"4","last_reported":1714918014,"current_range_meters":13200,"station_id":"ce4bhr92rcd13ifvqhrg","pricing_plan_id":"cebpf4jnsgd1na2vs0mg"},{"bike_id":"fb50930e-d9ab-4c58-9038-8b368f6ef1ce","system_id":"levelo_inurba_marseille","lat":43.33026,"lon":5.39045,"is_reserved":false,"is_disabled":false,"rental_uris":{"android":"levelo://app?vid=fb50930e-d9ab-4c58-9038-8b368f6ef1ce","ios":"levelo://app?vid=fb50930e-d9ab-4c58-9038-8b368f6ef1ce"},"vehicle_type_id":"4","last_reported":1714918014,"current_range_meters":14000,"station_id":"ce4bhr92rcd13ifvqhrg","pricing_plan_id":"cebpf4jnsgd1na2vs0mg"},{"bike_id":"b80adbaf-5a2f-4032-a08c-76c81560f0a1","system_id":"levelo_inurba_marseille","lat":43.28856,"lon":5.358371,"is_reserved":false,"is_disabled":false,"rental_uris":{"android":"levelo://app?vid=b80adbaf-5a2f-4032-a08c-76c81560f0a1","ios":"levelo://app?vid=b80adbaf-5a2f-4032-a08c-76c81560f0a1"},"vehicle_type_id":"4","last_reported":1714918014,"current_range_meters":4800,"station_id":"ce4bhb12rcd13ifvqem0","pricing_plan_id":"cebpf4jnsgd1na2vs0mg"},{"bike_id":"6d2095b4-5c81-412f-a8bc-d143bf2fd710","system_id":"levelo_inurba_marseille","lat":43.28856,"lon":5.358433,"is_reserved":false,"is_disabled":false,"rental_uris":{"android":"levelo://app?vid=6d2095b4-5c81-412f-a8bc-d143bf2fd710","ios":"levelo://app?vid=6d2095b4-5c81-412f-a8bc-d143bf2fd710"},"vehicle_type_id":"4","last_reported":1714918014,"current_range_meters":0,"station_id":"ce4bhb12rcd13ifvqem0","pricing_plan_id":"cebpf4jnsgd1na2vs0mg"},{"bike_id":"9dfb7702-a4a7-4d8b-80b4-0ffba0e9ee6d","system_id":"levelo_inurba_marseille","lat":43.28856,"lon":5.358371,"is_reserved":false,"is_disabled":false,"rental_uris":{"android":"levelo://app?vid=9dfb7702-a4a7-4d8b-80b4-0ffba0e9ee6d","ios":"levelo://app?vid=9dfb7702-a4a7-4d8b-80b4-0ffba0e9ee6d"},"vehicle_type_id":"4","last_reported":1714918014,"current_range_meters":27200,"station_id":"ce4bhb12rcd13ifvqem0","pricing_plan_id":"cebpf4jnsgd1na2vs0mg"},{"bike_id":"22cf14a4-f3a1-429f-ad5d-16b162b67729","system_id":"levelo_inurba_marseille","lat":43.3375,"lon":5.37453,"is_reserved":false,"is_disabled":false,"rental_uris":{"android":"levelo://app?vid=22cf14a4-f3a1-429f-ad5d-16b162b67729","ios":"levelo://app?vid=22cf14a4-f3a1-429f-ad5d-16b162b67729"},"vehicle_type_id":"4","last_reported":1714918014,"current_range_meters":4400,"station_id":"","pricing_plan_id":"cebpf4jnsgd1na2vs0mg"},{"bike_id":"01b1b7bd-5dbd-4411-9455-bdf092035ec7","system_id":"levelo_inurba_marseille","lat":43.33747,"lon":5.3748,"is_reserved":false,"is_disabled":false,"rental_uris":{"android":"levelo://app?vid=01b1b7bd-5dbd-4411-9455-bdf092035ec7","ios":"levelo://app?vid=01b1b7bd-5dbd-4411-9455-bdf092035ec7"},"vehicle_type_id":"4","last_reported":1714918014,"current_range_meters":20800,"station_id":"","pricing_plan_id":"cebpf4jnsgd1na2vs0mg"},{"bike_id":"c2965c40-030a-407b-a472-fca5d0db2691","system_id":"levelo_inurba_marseille","lat":43.33747,"lon":5.37484,"is_reserved":false,"is_disabled":false,"rental_uris":{"android":"levelo://app?vid=c2965c40-030a-407b-a472-fca5d0db2691","ios":"levelo://app?vid=c2965c40-030a-407b-a472-fca5d0db2691"},"vehicle_type_id":"4","last_reported":1714918014,"current_range_meters":21200,"station_id":"","pricing_plan_id":"cebpf4jnsgd1na2vs0mg"},{"bike_id":"b7173264-767a-4600-82d6-2fe1ae1d4552","system_id":"levelo_inurba_marseille","lat":43.33755,"lon":5.37485,"is_reserved":false,"is_disabled":false,"rental_uris":{"android":"levelo://app?vid=b7173264-767a-4600-82d6-2fe1ae1d4552","ios":"levelo://app?vid=b7173264-767a-4600-82d6-2fe1ae1d4552"},"vehicle_type_id":"4","last_reported":1714918014,"current_range_meters":30800,"station_id":"","pricing_plan_id":"cebpf4jnsgd1na2vs0mg"},{"bike_id":"ca8ccd4d-487c-497a-8708-408020f6855c","system_id":"levelo_inurba_marseille","lat":43.337669,"lon":5.374325,"is_reserved":false,"is_disabled":false,"rental_uris":{"android":"levelo://app?vid=ca8ccd4d-487c-497a-8708-408020f6855c","ios":"levelo://app?vid=ca8ccd4d-487c-497a-8708-408020f6855c"},"vehicle_type_id":"4","last_reported":1714918014,"current_range_meters":18800,"station_id":"","pricing_plan_id":"cebpf4jnsgd1na2vs0mg"},{"bike_id":"147797e9-3595-4a8b-8009-12cd180a8125","system_id":"levelo_inurba_marseille","lat":43.301117,"lon":5.398795,"is_reserved":false,"is_disabled":false,"rental_uris":{"android":"levelo://app?vid=147797e9-3595-4a8b-8009-12cd180a8125","ios":"levelo://app?vid=147797e9-3595-4a8b-8009-12cd180a8125"},"vehicle_type_id":"4","last_reported":1714918014,"current_range_meters":24000,"station_id":"ce4bh0h2rcd13ifvqd40","pricing_plan_id":"cebpf4jnsgd1na2vs0mg"},{"bike_id":"acf9b246-1080-44be-931a-b56bb9b9c00a","system_id":"levelo_inurba_marseille","lat":43.286961,"lon":5.373785,"is_reserved":false,"is_disabled":false,"rental_uris":{"android":"levelo://app?vid=acf9b246-1080-44be-931a-b56bb9b9c00a","ios":"levelo://app?vid=acf9b246-1080-44be-931a-b56bb9b9c00a"},"vehicle_type_id":"4","last_reported":1714918014,"current_range_meters":10400,"station_id":"ce4bh3p2rcd13ifvqdq0","pricing_plan_id":"cebpf4jnsgd1na2vs0mg"},{"bike_id":"f3cad44c-f0ca-484d-b08b-3708e23d4468","system_id":"levelo_inurba_marseille","lat":43.28727,"lon":5.36078,"is_reserved":false,"is_disabled":false,"rental_uris":{"android":"levelo://app?vid=f3cad44c-f0ca-484d-b08b-3708e23d4468","ios":"levelo://app?vid=f3cad44c-f0ca-484d-b08b-3708e23d4468"},"vehicle_type_id":"4","last_reported":1714918014,"current_range_meters":3600,"station_id":"cki0cbj6b192h4jlfktg","pricing_plan_id":"cebpf4jnsgd1na2vs0mg"},{"bike_id":"99ca4869-d399-4ed9-84f6-0e181ccf7598","system_id":"levelo_inurba_marseille","lat":43.286961,"lon":5.373785,"is_reserved":false,"is_disabled":false,"rental_uris":{"android":"levelo://app?vid=99ca4869-d399-4ed9-84f6-0e181ccf7598","ios":"levelo://app?vid=99ca4869-d399-4ed9-84f6-0e181ccf7598"},"vehicle_type_id":"4","last_reported":1714918014,"current_range_meters":400,"station_id":"ce4bh3p2rcd13ifvqdq0","pricing_plan_id":"cebpf4jnsgd1na2vs0mg"},{"bike_id":"669d17aa-bc2e-413a-a83b-684d2c24ddbe","system_id":"levelo_inurba_marseille","lat":43.289307,"lon":5.38406,"is_reserved":false,"is_disabled":false,"rental_uris":{"android":"levelo://app?vid=669d17aa-bc2e-413a-a83b-684d2c24ddbe","ios":"levelo://app?vid=669d17aa-bc2e-413a-a83b-684d2c24ddbe"},"vehicle_type_id":"4","last_reported":1714918014,"current_range_meters":2000,"station_id":"ce4bh612rcd13ifvqe6g","pricing_plan_id":"cebpf4jnsgd1na2vs0mg"},{"bike_id":"b7ad3c0f-eba8-4fe9-a055-b4d36e52c69e","system_id":"levelo_inurba_marseille","lat":43.289307,"lon":5.38406,"is_reserved":false,"is_disabled":false,"rental_uris":{"android":"levelo://app?vid=b7ad3c0f-eba8-4fe9-a055-b4d36e52c69e","ios":"levelo://app?vid=b7ad3c0f-eba8-4fe9-a055-b4d36e52c69e"},"vehicle_type_id":"4","last_reported":1714918014,"current_range_meters":14800,"station_id":"ce4bh612rcd13ifvqe6g","pricing_plan_id":"cebpf4jnsgd1na2vs0mg"},{"bike_id":"c22e906c-3e92-4858-b0ed-b7c5e4e311bf","system_id":"levelo_inurba_marseille","lat":43.286039,"lon":5.370681,"is_reserved":false,"is_disabled":false,"rental_uris":{"android":"levelo://app?vid=c22e906c-3e92-4858-b0ed-b7c5e4e311bf","ios":"levelo://app?vid=c22e906c-3e92-4858-b0ed-b7c5e4e311bf"},"vehicle_type_id":"4","last_reported":1714918014,"current_range_meters":24800,"station_id":"ce4bht12rcd13ifvqi60","pricing_plan_id":"cebpf4jnsgd1na2vs0mg"},{"bike_id":"c2f1a0b3-8f19-4cf9-a826-8717fa588337","system_id":"levelo_inurba_marseille","lat":43.286039,"lon":5.370681,"is_reserved":false,"is_disabled":false,"rental_uris":{"android":"levelo://app?vid=c2f1a0b3-8f19-4cf9-a826-8717fa588337","ios":"levelo://app?vid=c2f1a0b3-8f19-4cf9-a826-8717fa588337"},"vehicle_type_id":"4","last_reported":1714918014,"current_range_meters":25200,"station_id":"ce4bht12rcd13ifvqi60","pricing_plan_id":"cebpf4jnsgd1na2vs0mg"},{"bike_id":"ac19dea2-60f1-4f3a-a06a-fcb22265daef","system_id":"levelo_inurba_marseille","lat":43.287997,"lon":5.382708,"is_reserved":false,"is_disabled":false,"rental_uris":{"android":"levelo://app?vid=ac19dea2-60f1-4f3a-a06a-fcb22265daef","ios":"levelo://app?vid=ac19dea2-60f1-4f3a-a06a-fcb22265daef"},"vehicle_type_id":"4","last_reported":1714918014,"current_range_meters":15200,"station_id":"","pricing_plan_id":"cebpf4jnsgd1na2vs0mg"},{"bike_id":"1fd3bb7f-a20f-48fe-8859-bed1edbf0290","system_id":"levelo_inurba_marseille","lat":43.317093,"lon":5.40469,"is_reserved":false,"is_disabled":false,"rental_uris":{"android":"levelo://app?vid=1fd3bb7f-a20f-48fe-8859-bed1edbf0290","ios":"levelo://app?vid=1fd3bb7f-a20f-48fe-8859-bed1edbf0290"},"vehicle_type_id":"4","last_reported":1714918014,"current_range_meters":29200,"station_id":"ce4bh012rcd13ifvqd00","pricing_plan_id":"cebpf4jnsgd1na2vs0mg"},{"bike_id":"6ea4711d-21b6-40ef-a966-ce2b1fd2da17","system_id":"levelo_inurba_marseille","lat":43.291994,"lon":5.392907,"is_reserved":false,"is_disabled":false,"rental_uris":{"android":"levelo://app?vid=6ea4711d-21b6-40ef-a966-ce2b1fd2da17","ios":"levelo://app?vid=6ea4711d-21b6-40ef-a966-ce2b1fd2da17"},"vehicle_type_id":"4","last_reported":1714918014,"current_range_meters":30000,"station_id":"ce4bh192rcd13ifvqdd0","pricing_plan_id":"cebpf4jnsgd1na2vs0mg"},{"bike_id":"41e8a0ff-0399-4c51-be98-40d71603cf12","system_id":"levelo_inurba_marseille","lat":43.291994,"lon":5.392907,"is_reserved":false,"is_disabled":false,"rental_uris":{"android":"levelo://app?vid=41e8a0ff-0399-4c51-be98-40d71603cf12","ios":"levelo://app?vid=41e8a0ff-0399-4c51-be98-40d71603cf12"},"vehicle_type_id":"4","last_reported":1714918014,"current_range_meters":5600,"station_id":"ce4bh192rcd13ifvqdd0","pricing_plan_id":"cebpf4jnsgd1na2vs0mg"},{"bike_id":"83612e3e-03e6-4f3b-a2b5-7889dc0ca787","system_id":"levelo_inurba_marseille","lat":43.284538,"lon":5.358657,"is_reserved":false,"is_disabled":false,"rental_uris":{"android":"levelo://app?vid=83612e3e-03e6-4f3b-a2b5-7889dc0ca787","ios":"levelo://app?vid=83612e3e-03e6-4f3b-a2b5-7889dc0ca787"},"vehicle_type_id":"4","last_reported":1714918014,"current_range_meters":22000,"station_id":"ce4bhah2rcd13ifvqei0","pricing_plan_id":"cebpf4jnsgd1na2vs0mg"},{"bike_id":"1c796bb7-e6a0-4a56-8994-3bd27a84bb1d","system_id":"levelo_inurba_marseille","lat":43.284534,"lon":5.358662,"is_reserved":false,"is_disabled":false,"rental_uris":{"android":"levelo://app?vid=1c796bb7-e6a0-4a56-8994-3bd27a84bb1d","ios":"levelo://app?vid=1c796bb7-e6a0-4a56-8994-3bd27a84bb1d"},"vehicle_type_id":"4","last_reported":1714918014,"current_range_meters":6000,"station_id":"ce4bhah2rcd13ifvqei0","pricing_plan_id":"cebpf4jnsgd1na2vs0mg"},{"bike_id":"ee221e6b-a0b4-41f9-a38b-e16658cc60b9","system_id":"levelo_inurba_marseille","lat":43.29446,"lon":5.39745,"is_reserved":false,"is_disabled":false,"rental_uris":{"android":"levelo://app?vid=ee221e6b-a0b4-41f9-a38b-e16658cc60b9","ios":"levelo://app?vid=ee221e6b-a0b4-41f9-a38b-e16658cc60b9"},"vehicle_type_id":"4","last_reported":1714918014,"current_range_meters":0,"station_id":"ce4bh3h2rcd13ifvqdo0","pricing_plan_id":"cebpf4jnsgd1na2vs0mg"},{"bike_id":"2a516363-259e-445e-868c-cc36ff5fb6a2","system_id":"levelo_inurba_marseille","lat":43.294314,"lon":5.397498,"is_reserved":false,"is_disabled":false,"rental_uris":{"android":"levelo://app?vid=2a516363-259e-445e-868c-cc36ff5fb6a2","ios":"levelo://app?vid=2a516363-259e-445e-868c-cc36ff5fb6a2"},"vehicle_type_id":"4","last_reported":1714918014,"current_range_meters":0,"station_id":"ce4bh3h2rcd13ifvqdo0","pricing_plan_id":"cebpf4jnsgd1na2vs0mg"},{"bike_id":"739fbaa2-b697-4282-b0bd-cc4ed6739a3f","system_id":"levelo_inurba_marseille","lat":43.2944,"lon":5.39757,"is_reserved":false,"is_disabled":false,"rental_uris":{"android":"levelo://app?vid=739fbaa2-b697-4282-b0bd-cc4ed6739a3f","ios":"levelo://app?vid=739fbaa2-b697-4282-b0bd-cc4ed6739a3f"},"vehicle_type_id":"4","last_reported":1714918014,"current_range_meters":0,"station_id":"ce4bh3h2rcd13ifvqdo0","pricing_plan_id":"cebpf4jnsgd1na2vs0mg"},{"bike_id":"71d30e49-ac07-4f2f-9812-3c02f2ec0121","system_id":"levelo_inurba_marseille","lat":43.285848,"lon":5.350787,"is_reserved":false,"is_disabled":false,"rental_uris":{"android":"levelo://app?vid=71d30e49-ac07-4f2f-9812-3c02f2ec0121","ios":"levelo://app?vid=71d30e49-ac07-4f2f-9812-3c02f2ec0121"},"vehicle_type_id":"4","last_reported":1714918014,"current_range_meters":20000,"station_id":"ce4bhch2rcd13ifvqeug","pricing_plan_id":"cebpf4jnsgd1na2vs0mg"},{"bike_id":"3a7a20fd-789b-442f-948b-ccebf4e1e6a3","system_id":"levelo_inurba_marseille","lat":43.285848,"lon":5.350787,"is_reserved":false,"is_disabled":false,"rental_uris":{"android":"levelo://app?vid=3a7a20fd-789b-442f-948b-ccebf4e1e6a3","ios":"levelo://app?vid=3a7a20fd-789b-442f-948b-ccebf4e1e6a3"},"vehicle_type_id":"4","last_reported":1714918014,"current_range_meters":19600,"station_id":"ce4bhch2rcd13ifvqeug","pricing_plan_id":"cebpf4jnsgd1na2vs0mg"},{"bike_id":"273e31e4-0f7e-49d0-8638-dc76c0ae35bd","system_id":"levelo_inurba_marseille","lat":43.285848,"lon":5.350787,"is_reserved":false,"is_disabled":false,"rental_uris":{"android":"levelo://app?vid=273e31e4-0f7e-49d0-8638-dc76c0ae35bd","ios":"levelo://app?vid=273e31e4-0f7e-49d0-8638-dc76c0ae35bd"},"vehicle_type_id":"4","last_reported":1714918014,"current_range_meters":3200,"station_id":"ce4bhch2rcd13ifvqeug","pricing_plan_id":"cebpf4jnsgd1na2vs0mg"},{"bike_id":"a505032f-0222-4124-94b3-bf98204fd377","system_id":"levelo_inurba_marseille","lat":43.285848,"lon":5.350787,"is_reserved":false,"is_disabled":false,"rental_uris":{"android":"levelo://app?vid=a505032f-0222-4124-94b3-bf98204fd377","ios":"levelo://app?vid=a505032f-0222-4124-94b3-bf98204fd377"},"vehicle_type_id":"4","last_reported":1714918014,"current_range_meters":8800,"station_id":"ce4bhch2rcd13ifvqeug","pricing_plan_id":"cebpf4jnsgd1na2vs0mg"},{"bike_id":"1e9151dc-cb8f-4107-b786-14190c503277","system_id":"levelo_inurba_marseille","lat":43.285856,"lon":5.350771,"is_reserved":false,"is_disabled":false,"rental_uris":{"android":"levelo://app?vid=1e9151dc-cb8f-4107-b786-14190c503277","ios":"levelo://app?vid=1e9151dc-cb8f-4107-b786-14190c503277"},"vehicle_type_id":"4","last_reported":1714918014,"current_range_meters":6400,"station_id":"ce4bhch2rcd13ifvqeug","pricing_plan_id":"cebpf4jnsgd1na2vs0mg"},{"bike_id":"f0b8c1f5-dc5c-4a53-8d17-94bf79a7cb4f","system_id":"levelo_inurba_marseille","lat":43.285848,"lon":5.350787,"is_reserved":false,"is_disabled":false,"rental_uris":{"android":"levelo://app?vid=f0b8c1f5-dc5c-4a53-8d17-94bf79a7cb4f","ios":"levelo://app?vid=f0b8c1f5-dc5c-4a53-8d17-94bf79a7cb4f"},"vehicle_type_id":"4","last_reported":1714918014,"current_range_meters":400,"station_id":"ce4bhch2rcd13ifvqeug","pricing_plan_id":"cebpf4jnsgd1na2vs0mg"},{"bike_id":"91c4bf5c-6936-416d-baa0-1480e122f548","system_id":"levelo_inurba_marseille","lat":43.285856,"lon":5.350771,"is_reserved":false,"is_disabled":false,"rental_uris":{"android":"levelo://app?vid=91c4bf5c-6936-416d-baa0-1480e122f548","ios":"levelo://app?vid=91c4bf5c-6936-416d-baa0-1480e122f548"},"vehicle_type_id":"4","last_reported":1714918014,"current_range_meters":16400,"station_id":"ce4bhch2rcd13ifvqeug","pricing_plan_id":"cebpf4jnsgd1na2vs0mg"},{"bike_id":"f19b2e91-1351-47e2-abb0-21f95006ea05","system_id":"levelo_inurba_marseille","lat":43.28618,"lon":5.35108,"is_reserved":false,"is_disabled":false,"rental_uris":{"android":"levelo://app?vid=f19b2e91-1351-47e2-abb0-21f95006ea05","ios":"levelo://app?vid=f19b2e91-1351-47e2-abb0-21f95006ea05"},"vehicle_type_id":"4","last_reported":1714918014,"current_range_meters":29600,"station_id":"ce4bhch2rcd13ifvqeug","pricing_plan_id":"cebpf4jnsgd1na2vs0mg"},{"bike_id":"3c7adba3-d10e-4cbe-89d9-31ba1e672205","system_id":"levelo_inurba_marseille","lat":43.285848,"lon":5.350787,"is_reserved":false,"is_disabled":false,"rental_uris":{"android":"levelo://app?vid=3c7adba3-d10e-4cbe-89d9-31ba1e672205","ios":"levelo://app?vid=3c7adba3-d10e-4cbe-89d9-31ba1e672205"},"vehicle_type_id":"4","last_reported":1714918014,"current_range_meters":14800,"station_id":"ce4bhch2rcd13ifvqeug","pricing_plan_id":"cebpf4jnsgd1na2vs0mg"},{"bike_id":"08bfcac3-2bb8-4550-9c0b-702ffaaaa7d6","system_id":"levelo_inurba_marseille","lat":43.28617,"lon":5.35105,"is_reserved":false,"is_disabled":false,"rental_uris":{"android":"levelo://app?vid=08bfcac3-2bb8-4550-9c0b-702ffaaaa7d6","ios":"levelo://app?vid=08bfcac3-2bb8-4550-9c0b-702ffaaaa7d6"},"vehicle_type_id":"4","last_reported":1714918014,"current_range_meters":8400,"station_id":"ce4bhch2rcd13ifvqeug","pricing_plan_id":"cebpf4jnsgd1na2vs0mg"},{"bike_id":"e8375c96-7379-4b9e-9511-2c80c7693724","system_id":"levelo_inurba_marseille","lat":43.285856,"lon":5.350771,"is_reserved":false,"is_disabled":false,"rental_uris":{"android":"levelo://app?vid=e8375c96-7379-4b9e-9511-2c80c7693724","ios":"levelo://app?vid=e8375c96-7379-4b9e-9511-2c80c7693724"},"vehicle_type_id":"4","last_reported":1714918014,"current_range_meters":23200,"station_id":"ce4bhch2rcd13ifvqeug","pricing_plan_id":"cebpf4jnsgd1na2vs0mg"},{"bike_id":"3a3c8550-dc84-4c98-97c3-cd862d032290","system_id":"levelo_inurba_marseille","lat":43.285848,"lon":5.350787,"is_reserved":false,"is_disabled":false,"rental_uris":{"android":"levelo://app?vid=3a3c8550-dc84-4c98-97c3-cd862d032290","ios":"levelo://app?vid=3a3c8550-dc84-4c98-97c3-cd862d032290"},"vehicle_type_id":"4","last_reported":1714918014,"current_range_meters":13200,"station_id":"ce4bhch2rcd13ifvqeug","pricing_plan_id":"cebpf4jnsgd1na2vs0mg"},{"bike_id":"18d78b59-3080-4ff7-befd-b7dfd50012fc","system_id":"levelo_inurba_marseille","lat":43.28616,"lon":5.35106,"is_reserved":false,"is_disabled":false,"rental_uris":{"android":"levelo://app?vid=18d78b59-3080-4ff7-befd-b7dfd50012fc","ios":"levelo://app?vid=18d78b59-3080-4ff7-befd-b7dfd50012fc"},"vehicle_type_id":"4","last_reported":1714918014,"current_range_meters":6000,"station_id":"ce4bhch2rcd13ifvqeug","pricing_plan_id":"cebpf4jnsgd1na2vs0mg"},{"bike_id":"2108404f-1316-4a1f-bff9-5b5e0a824d99","system_id":"levelo_inurba_marseille","lat":43.285848,"lon":5.350787,"is_reserved":false,"is_disabled":false,"rental_uris":{"android":"levelo://app?vid=2108404f-1316-4a1f-bff9-5b5e0a824d99","ios":"levelo://app?vid=2108404f-1316-4a1f-bff9-5b5e0a824d99"},"vehicle_type_id":"4","last_reported":1714918014,"current_range_meters":16400,"station_id":"ce4bhch2rcd13ifvqeug","pricing_plan_id":"cebpf4jnsgd1na2vs0mg"},{"bike_id":"9aaba4af-3920-4527-a15b-3c9399479851","system_id":"levelo_inurba_marseille","lat":43.28617,"lon":5.35102,"is_reserved":false,"is_disabled":false,"rental_uris":{"android":"levelo://app?vid=9aaba4af-3920-4527-a15b-3c9399479851","ios":"levelo://app?vid=9aaba4af-3920-4527-a15b-3c9399479851"},"vehicle_type_id":"4","last_reported":1714918014,"current_range_meters":25600,"station_id":"ce4bhch2rcd13ifvqeug","pricing_plan_id":"cebpf4jnsgd1na2vs0mg"},{"bike_id":"d1cde66f-969d-4195-96bd-3806aa4aa7bd","system_id":"levelo_inurba_marseille","lat":43.28616,"lon":5.35103,"is_reserved":false,"is_disabled":false,"rental_uris":{"android":"levelo://app?vid=d1cde66f-969d-4195-96bd-3806aa4aa7bd","ios":"levelo://app?vid=d1cde66f-969d-4195-96bd-3806aa4aa7bd"},"vehicle_type_id":"4","last_reported":1714918014,"current_range_meters":11200,"station_id":"ce4bhch2rcd13ifvqeug","pricing_plan_id":"cebpf4jnsgd1na2vs0mg"},{"bike_id":"f0fa5ace-247f-4e60-ae7b-5389311ed38a","system_id":"levelo_inurba_marseille","lat":43.28616,"lon":5.35101,"is_reserved":false,"is_disabled":false,"rental_uris":{"android":"levelo://app?vid=f0fa5ace-247f-4e60-ae7b-5389311ed38a","ios":"levelo://app?vid=f0fa5ace-247f-4e60-ae7b-5389311ed38a"},"vehicle_type_id":"4","last_reported":1714918014,"current_range_meters":6400,"station_id":"ce4bhch2rcd13ifvqeug","pricing_plan_id":"cebpf4jnsgd1na2vs0mg"},{"bike_id":"c0f92431-0e88-439e-80dc-81b74e4bcb1f","system_id":"levelo_inurba_marseille","lat":43.28614,"lon":5.35105,"is_reserved":false,"is_disabled":false,"rental_uris":{"android":"levelo://app?vid=c0f92431-0e88-439e-80dc-81b74e4bcb1f","ios":"levelo://app?vid=c0f92431-0e88-439e-80dc-81b74e4bcb1f"},"vehicle_type_id":"4","last_reported":1714918014,"current_range_meters":23600,"station_id":"ce4bhch2rcd13ifvqeug","pricing_plan_id":"cebpf4jnsgd1na2vs0mg"},{"bike_id":"a09a0214-d5bd-4f14-ac8f-9ff113215a6e","system_id":"levelo_inurba_marseille","lat":43.28613,"lon":5.35108,"is_reserved":false,"is_disabled":false,"rental_uris":{"android":"levelo://app?vid=a09a0214-d5bd-4f14-ac8f-9ff113215a6e","ios":"levelo://app?vid=a09a0214-d5bd-4f14-ac8f-9ff113215a6e"},"vehicle_type_id":"4","last_reported":1714918014,"current_range_meters":21200,"station_id":"ce4bhch2rcd13ifvqeug","pricing_plan_id":"cebpf4jnsgd1na2vs0mg"},{"bike_id":"c0e4a321-c998-4319-9f20-671270fb87b4","system_id":"levelo_inurba_marseille","lat":43.28614,"lon":5.35104,"is_reserved":false,"is_disabled":false,"rental_uris":{"android":"levelo://app?vid=c0e4a321-c998-4319-9f20-671270fb87b4","ios":"levelo://app?vid=c0e4a321-c998-4319-9f20-671270fb87b4"},"vehicle_type_id":"4","last_reported":1714918014,"current_range_meters":11600,"station_id":"ce4bhch2rcd13ifvqeug","pricing_plan_id":"cebpf4jnsgd1na2vs0mg"},{"bike_id":"7e406677-23d2-46a0-af1b-0c60df9538ea","system_id":"levelo_inurba_marseille","lat":43.28614,"lon":5.35103,"is_reserved":false,"is_disabled":false,"rental_uris":{"android":"levelo://app?vid=7e406677-23d2-46a0-af1b-0c60df9538ea","ios":"levelo://app?vid=7e406677-23d2-46a0-af1b-0c60df9538ea"},"vehicle_type_id":"4","last_reported":1714918014,"current_range_meters":25600,"station_id":"ce4bhch2rcd13ifvqeug","pricing_plan_id":"cebpf4jnsgd1na2vs0mg"},{"bike_id":"24ed8290-2e8f-423b-ab0f-162682fe39be","system_id":"levelo_inurba_marseille","lat":43.285848,"lon":5.350787,"is_reserved":false,"is_disabled":false,"rental_uris":{"android":"levelo://app?vid=24ed8290-2e8f-423b-ab0f-162682fe39be","ios":"levelo://app?vid=24ed8290-2e8f-423b-ab0f-162682fe39be"},"vehicle_type_id":"4","last_reported":1714918014,"current_range_meters":20800,"station_id":"ce4bhch2rcd13ifvqeug","pricing_plan_id":"cebpf4jnsgd1na2vs0mg"},{"bike_id":"d482cfe5-df3d-4600-9cee-b8ef46d41162","system_id":"levelo_inurba_marseille","lat":43.28613,"lon":5.35104,"is_reserved":false,"is_disabled":false,"rental_uris":{"android":"levelo://app?vid=d482cfe5-df3d-4600-9cee-b8ef46d41162","ios":"levelo://app?vid=d482cfe5-df3d-4600-9cee-b8ef46d41162"},"vehicle_type_id":"4","last_reported":1714918014,"current_range_meters":18000,"station_id":"ce4bhch2rcd13ifvqeug","pricing_plan_id":"cebpf4jnsgd1na2vs0mg"},{"bike_id":"a8f11267-e3f4-4314-b6e3-6868ebd0102d","system_id":"levelo_inurba_marseille","lat":43.28613,"lon":5.35101,"is_reserved":false,"is_disabled":false,"rental_uris":{"android":"levelo://app?vid=a8f11267-e3f4-4314-b6e3-6868ebd0102d","ios":"levelo://app?vid=a8f11267-e3f4-4314-b6e3-6868ebd0102d"},"vehicle_type_id":"4","last_reported":1714918014,"current_range_meters":25600,"station_id":"ce4bhch2rcd13ifvqeug","pricing_plan_id":"cebpf4jnsgd1na2vs0mg"},{"bike_id":"2f3e4a61-0986-4f4f-a4bd-242fdde135b5","system_id":"levelo_inurba_marseille","lat":43.28613,"lon":5.351,"is_reserved":false,"is_disabled":false,"rental_uris":{"android":"levelo://app?vid=2f3e4a61-0986-4f4f-a4bd-242fdde135b5","ios":"levelo://app?vid=2f3e4a61-0986-4f4f-a4bd-242fdde135b5"},"vehicle_type_id":"4","last_reported":1714918014,"current_range_meters":27600,"station_id":"ce4bhch2rcd13ifvqeug","pricing_plan_id":"cebpf4jnsgd1na2vs0mg"},{"bike_id":"93fdb550-70f8-4a36-b8df-c12a196a471d","system_id":"levelo_inurba_marseille","lat":43.28612,"lon":5.35101,"is_reserved":false,"is_disabled":false,"rental_uris":{"android":"levelo://app?vid=93fdb550-70f8-4a36-b8df-c12a196a471d","ios":"levelo://app?vid=93fdb550-70f8-4a36-b8df-c12a196a471d"},"vehicle_type_id":"4","last_reported":1714918014,"current_range_meters":12000,"station_id":"ce4bhch2rcd13ifvqeug","pricing_plan_id":"cebpf4jnsgd1na2vs0mg"},{"bike_id":"ce8d3300-f431-48a8-8543-6a296c72d55a","system_id":"levelo_inurba_marseille","lat":43.2861,"lon":5.35107,"is_reserved":false,"is_disabled":false,"rental_uris":{"android":"levelo://app?vid=ce8d3300-f431-48a8-8543-6a296c72d55a","ios":"levelo://app?vid=ce8d3300-f431-48a8-8543-6a296c72d55a"},"vehicle_type_id":"4","last_reported":1714918014,"current_range_meters":16400,"station_id":"ce4bhch2rcd13ifvqeug","pricing_plan_id":"cebpf4jnsgd1na2vs0mg"},{"bike_id":"2b2c3797-8ca3-4fed-8bef-6cf5f6331b41","system_id":"levelo_inurba_marseille","lat":43.28608,"lon":5.35108,"is_reserved":false,"is_disabled":false,"rental_uris":{"android":"levelo://app?vid=2b2c3797-8ca3-4fed-8bef-6cf5f6331b41","ios":"levelo://app?vid=2b2c3797-8ca3-4fed-8bef-6cf5f6331b41"},"vehicle_type_id":"4","last_reported":1714918014,"current_range_meters":0,"station_id":"ce4bhch2rcd13ifvqeug","pricing_plan_id":"cebpf4jnsgd1na2vs0mg"},{"bike_id":"67f587bb-d5d5-4e0a-865d-64c8ceeeec3c","system_id":"levelo_inurba_marseille","lat":43.28611,"lon":5.35097,"is_reserved":false,"is_disabled":false,"rental_uris":{"android":"levelo://app?vid=67f587bb-d5d5-4e0a-865d-64c8ceeeec3c","ios":"levelo://app?vid=67f587bb-d5d5-4e0a-865d-64c8ceeeec3c"},"vehicle_type_id":"4","last_reported":1714918014,"current_range_meters":25200,"station_id":"ce4bhch2rcd13ifvqeug","pricing_plan_id":"cebpf4jnsgd1na2vs0mg"},{"bike_id":"b95ad190-153a-484c-933f-2ffceb22b381","system_id":"levelo_inurba_marseille","lat":43.28609,"lon":5.35102,"is_reserved":false,"is_disabled":false,"rental_uris":{"android":"levelo://app?vid=b95ad190-153a-484c-933f-2ffceb22b381","ios":"levelo://app?vid=b95ad190-153a-484c-933f-2ffceb22b381"},"vehicle_type_id":"4","last_reported":1714918014,"current_range_meters":16000,"station_id":"ce4bhch2rcd13ifvqeug","pricing_plan_id":"cebpf4jnsgd1na2vs0mg"},{"bike_id":"588beccb-ca24-4f04-b763-b62047090229","system_id":"levelo_inurba_marseille","lat":43.2861,"lon":5.35096,"is_reserved":false,"is_disabled":false,"rental_uris":{"android":"levelo://app?vid=588beccb-ca24-4f04-b763-b62047090229","ios":"levelo://app?vid=588beccb-ca24-4f04-b763-b62047090229"},"vehicle_type_id":"4","last_reported":1714918014,"current_range_meters":1600,"station_id":"ce4bhch2rcd13ifvqeug","pricing_plan_id":"cebpf4jnsgd1na2vs0mg"},{"bike_id":"132c681a-3017-46ff-bc9d-fcbbf41af4ae","system_id":"levelo_inurba_marseille","lat":43.28413,"lon":5.37516,"is_reserved":false,"is_disabled":false,"rental_uris":{"android":"levelo://app?vid=132c681a-3017-46ff-bc9d-fcbbf41af4ae","ios":"levelo://app?vid=132c681a-3017-46ff-bc9d-fcbbf41af4ae"},"vehicle_type_id":"4","last_reported":1714918014,"current_range_meters":4000,"station_id":"ce4bh412rcd13ifvqds0","pricing_plan_id":"cebpf4jnsgd1na2vs0mg"},{"bike_id":"2e47b63b-53e8-4a8f-a54f-25cbf2651654","system_id":"levelo_inurba_marseille","lat":43.295713,"lon":5.399639,"is_reserved":false,"is_disabled":false,"rental_uris":{"android":"levelo://app?vid=2e47b63b-53e8-4a8f-a54f-25cbf2651654","ios":"levelo://app?vid=2e47b63b-53e8-4a8f-a54f-25cbf2651654"},"vehicle_type_id":"4","last_reported":1714918014,"current_range_meters":9200,"station_id":"ce4bh312rcd13ifvqdj0","pricing_plan_id":"cebpf4jnsgd1na2vs0mg"},{"bike_id":"3f8c3428-a51b-4211-b50d-8bf39990d3f1","system_id":"levelo_inurba_marseille","lat":43.286595,"lon":5.386795,"is_reserved":false,"is_disabled":false,"rental_uris":{"android":"levelo://app?vid=3f8c3428-a51b-4211-b50d-8bf39990d3f1","ios":"levelo://app?vid=3f8c3428-a51b-4211-b50d-8bf39990d3f1"},"vehicle_type_id":"4","last_reported":1714918014,"current_range_meters":28400,"station_id":"ce4bh492rcd13ifvqdug","pricing_plan_id":"cebpf4jnsgd1na2vs0mg"},{"bike_id":"593e1fa3-79e3-418b-89a4-0814ac29f28c","system_id":"levelo_inurba_marseille","lat":43.273613,"lon":5.362705,"is_reserved":false,"is_disabled":false,"rental_uris":{"android":"levelo://app?vid=593e1fa3-79e3-418b-89a4-0814ac29f28c","ios":"levelo://app?vid=593e1fa3-79e3-418b-89a4-0814ac29f28c"},"vehicle_type_id":"4","last_reported":1714918014,"current_range_meters":7200,"station_id":"ce4bhbh2rcd13ifvqeo0","pricing_plan_id":"cebpf4jnsgd1na2vs0mg"},{"bike_id":"6059b312-b15d-4086-a16f-023054f17366","system_id":"levelo_inurba_marseille","lat":43.33717,"lon":5.391857,"is_reserved":false,"is_disabled":false,"rental_uris":{"android":"levelo://app?vid=6059b312-b15d-4086-a16f-023054f17366","ios":"levelo://app?vid=6059b312-b15d-4086-a16f-023054f17366"},"vehicle_type_id":"4","last_reported":1714918014,"current_range_meters":31600,"station_id":"ce4bhr92rcd13ifvqhsg","pricing_plan_id":"cebpf4jnsgd1na2vs0mg"},{"bike_id":"1148216d-3cf9-466a-a863-a8013f843238","system_id":"levelo_inurba_marseille","lat":43.337168,"lon":5.391825,"is_reserved":false,"is_disabled":false,"rental_uris":{"android":"levelo://app?vid=1148216d-3cf9-466a-a863-a8013f843238","ios":"levelo://app?vid=1148216d-3cf9-466a-a863-a8013f843238"},"vehicle_type_id":"4","last_reported":1714918014,"current_range_meters":26400,"station_id":"ce4bhr92rcd13ifvqhsg","pricing_plan_id":"cebpf4jnsgd1na2vs0mg"},{"bike_id":"c22b5bdc-3e4f-4c6c-81f4-34a07d5d5230","system_id":"levelo_inurba_marseille","lat":43.323464,"lon":5.406297,"is_reserved":false,"is_disabled":false,"rental_uris":{"android":"levelo://app?vid=c22b5bdc-3e4f-4c6c-81f4-34a07d5d5230","ios":"levelo://app?vid=c22b5bdc-3e4f-4c6c-81f4-34a07d5d5230"},"vehicle_type_id":"4","last_reported":1714918014,"current_range_meters":26400,"station_id":"ce4bhq92rcd13ifvqhjg","pricing_plan_id":"cebpf4jnsgd1na2vs0mg"},{"bike_id":"e3c953d0-0922-4a54-bc10-c50e72d06476","system_id":"levelo_inurba_marseille","lat":43.33717,"lon":5.391857,"is_reserved":false,"is_disabled":false,"rental_uris":{"android":"levelo://app?vid=e3c953d0-0922-4a54-bc10-c50e72d06476","ios":"levelo://app?vid=e3c953d0-0922-4a54-bc10-c50e72d06476"},"vehicle_type_id":"4","last_reported":1714918014,"current_range_meters":28000,"station_id":"ce4bhr92rcd13ifvqhsg","pricing_plan_id":"cebpf4jnsgd1na2vs0mg"},{"bike_id":"a0cd3279-0201-4e0b-9ffd-13db88ed7c6a","system_id":"levelo_inurba_marseille","lat":43.28481,"lon":5.38411,"is_reserved":false,"is_disabled":false,"rental_uris":{"android":"levelo://app?vid=a0cd3279-0201-4e0b-9ffd-13db88ed7c6a","ios":"levelo://app?vid=a0cd3279-0201-4e0b-9ffd-13db88ed7c6a"},"vehicle_type_id":"4","last_reported":1714918014,"current_range_meters":29600,"station_id":"ce4bh512rcd13ifvqe3g","pricing_plan_id":"cebpf4jnsgd1na2vs0mg"},{"bike_id":"929fa4cb-4926-45b3-9e1c-eb63c53f280d","system_id":"levelo_inurba_marseille","lat":43.284793,"lon":5.384119,"is_reserved":false,"is_disabled":false,"rental_uris":{"android":"levelo://app?vid=929fa4cb-4926-45b3-9e1c-eb63c53f280d","ios":"levelo://app?vid=929fa4cb-4926-45b3-9e1c-eb63c53f280d"},"vehicle_type_id":"4","last_reported":1714918014,"current_range_meters":14400,"station_id":"ce4bh512rcd13ifvqe3g","pricing_plan_id":"cebpf4jnsgd1na2vs0mg"},{"bike_id":"b06fafab-5db3-4b84-abf1-62cef2d834dd","system_id":"levelo_inurba_marseille","lat":43.284214,"lon":5.349706,"is_reserved":false,"is_disabled":false,"rental_uris":{"android":"levelo://app?vid=b06fafab-5db3-4b84-abf1-62cef2d834dd","ios":"levelo://app?vid=b06fafab-5db3-4b84-abf1-62cef2d834dd"},"vehicle_type_id":"4","last_reported":1714918014,"current_range_meters":28000,"station_id":"ce4bhbh2rcd13ifvqepg","pricing_plan_id":"cebpf4jnsgd1na2vs0mg"},{"bike_id":"59187297-c103-4b07-8cff-13400905b02e","system_id":"levelo_inurba_marseille","lat":43.284214,"lon":5.349706,"is_reserved":false,"is_disabled":false,"rental_uris":{"android":"levelo://app?vid=59187297-c103-4b07-8cff-13400905b02e","ios":"levelo://app?vid=59187297-c103-4b07-8cff-13400905b02e"},"vehicle_type_id":"4","last_reported":1714918014,"current_range_meters":30800,"station_id":"ce4bhbh2rcd13ifvqepg","pricing_plan_id":"cebpf4jnsgd1na2vs0mg"},{"bike_id":"3d309068-b882-4238-87cc-4932a4ab6851","system_id":"levelo_inurba_marseille","lat":43.284219,"lon":5.3497,"is_reserved":false,"is_disabled":false,"rental_uris":{"android":"levelo://app?vid=3d309068-b882-4238-87cc-4932a4ab6851","ios":"levelo://app?vid=3d309068-b882-4238-87cc-4932a4ab6851"},"vehicle_type_id":"4","last_reported":1714918014,"current_range_meters":22800,"station_id":"ce4bhbh2rcd13ifvqepg","pricing_plan_id":"cebpf4jnsgd1na2vs0mg"},{"bike_id":"0139a917-92ed-45cc-b348-e3e2556b6e15","system_id":"levelo_inurba_marseille","lat":43.284219,"lon":5.3497,"is_reserved":false,"is_disabled":false,"rental_uris":{"android":"levelo://app?vid=0139a917-92ed-45cc-b348-e3e2556b6e15","ios":"levelo://app?vid=0139a917-92ed-45cc-b348-e3e2556b6e15"},"vehicle_type_id":"4","last_reported":1714918014,"current_range_meters":22000,"station_id":"ce4bhbh2rcd13ifvqepg","pricing_plan_id":"cebpf4jnsgd1na2vs0mg"},{"bike_id":"330eab23-742e-43be-a83b-27ef7f3faf29","system_id":"levelo_inurba_marseille","lat":43.284219,"lon":5.3497,"is_reserved":false,"is_disabled":false,"rental_uris":{"android":"levelo://app?vid=330eab23-742e-43be-a83b-27ef7f3faf29","ios":"levelo://app?vid=330eab23-742e-43be-a83b-27ef7f3faf29"},"vehicle_type_id":"4","last_reported":1714918014,"current_range_meters":23200,"station_id":"ce4bhbh2rcd13ifvqepg","pricing_plan_id":"cebpf4jnsgd1na2vs0mg"},{"bike_id":"9ed05be6-8609-4e47-b946-fb116575cfbf","system_id":"levelo_inurba_marseille","lat":43.284219,"lon":5.3497,"is_reserved":false,"is_disabled":false,"rental_uris":{"android":"levelo://app?vid=9ed05be6-8609-4e47-b946-fb116575cfbf","ios":"levelo://app?vid=9ed05be6-8609-4e47-b946-fb116575cfbf"},"vehicle_type_id":"4","last_reported":1714918014,"current_range_meters":16800,"station_id":"ce4bhbh2rcd13ifvqepg","pricing_plan_id":"cebpf4jnsgd1na2vs0mg"},{"bike_id":"2360abf6-3b9d-44d0-97cb-d76713146b83","system_id":"levelo_inurba_marseille","lat":43.28417,"lon":5.35004,"is_reserved":false,"is_disabled":false,"rental_uris":{"android":"levelo://app?vid=2360abf6-3b9d-44d0-97cb-d76713146b83","ios":"levelo://app?vid=2360abf6-3b9d-44d0-97cb-d76713146b83"},"vehicle_type_id":"4","last_reported":1714918014,"current_range_meters":30400,"station_id":"ce4bhbh2rcd13ifvqepg","pricing_plan_id":"cebpf4jnsgd1na2vs0mg"},{"bike_id":"d3b8ae4e-6cd6-40ca-92db-427450b2d791","system_id":"levelo_inurba_marseille","lat":43.284219,"lon":5.3497,"is_reserved":false,"is_disabled":false,"rental_uris":{"android":"levelo://app?vid=d3b8ae4e-6cd6-40ca-92db-427450b2d791","ios":"levelo://app?vid=d3b8ae4e-6cd6-40ca-92db-427450b2d791"},"vehicle_type_id":"4","last_reported":1714918014,"current_range_meters":23200,"station_id":"ce4bhbh2rcd13ifvqepg","pricing_plan_id":"cebpf4jnsgd1na2vs0mg"},{"bike_id":"e753100e-354c-4b37-8d55-93dd1ee14e94","system_id":"levelo_inurba_marseille","lat":43.284219,"lon":5.3497,"is_reserved":false,"is_disabled":false,"rental_uris":{"android":"levelo://app?vid=e753100e-354c-4b37-8d55-93dd1ee14e94","ios":"levelo://app?vid=e753100e-354c-4b37-8d55-93dd1ee14e94"},"vehicle_type_id":"4","last_reported":1714918014,"current_range_meters":6800,"station_id":"ce4bhbh2rcd13ifvqepg","pricing_plan_id":"cebpf4jnsgd1na2vs0mg"},{"bike_id":"42b19938-0bde-4b43-b913-bd5c4bbe75fa","system_id":"levelo_inurba_marseille","lat":43.284219,"lon":5.3497,"is_reserved":false,"is_disabled":false,"rental_uris":{"android":"levelo://app?vid=42b19938-0bde-4b43-b913-bd5c4bbe75fa","ios":"levelo://app?vid=42b19938-0bde-4b43-b913-bd5c4bbe75fa"},"vehicle_type_id":"4","last_reported":1714918014,"current_range_meters":21600,"station_id":"ce4bhbh2rcd13ifvqepg","pricing_plan_id":"cebpf4jnsgd1na2vs0mg"},{"bike_id":"8d2601cd-19da-42d2-8064-4626881e90e4","system_id":"levelo_inurba_marseille","lat":43.284214,"lon":5.349706,"is_reserved":false,"is_disabled":false,"rental_uris":{"android":"levelo://app?vid=8d2601cd-19da-42d2-8064-4626881e90e4","ios":"levelo://app?vid=8d2601cd-19da-42d2-8064-4626881e90e4"},"vehicle_type_id":"4","last_reported":1714918014,"current_range_meters":22400,"station_id":"ce4bhbh2rcd13ifvqepg","pricing_plan_id":"cebpf4jnsgd1na2vs0mg"},{"bike_id":"bf9569fd-1202-414e-9441-0f7fc39e645b","system_id":"levelo_inurba_marseille","lat":43.28417,"lon":5.34997,"is_reserved":false,"is_disabled":false,"rental_uris":{"android":"levelo://app?vid=bf9569fd-1202-414e-9441-0f7fc39e645b","ios":"levelo://app?vid=bf9569fd-1202-414e-9441-0f7fc39e645b"},"vehicle_type_id":"4","last_reported":1714918014,"current_range_meters":5200,"station_id":"ce4bhbh2rcd13ifvqepg","pricing_plan_id":"cebpf4jnsgd1na2vs0mg"},{"bike_id":"1ae01d60-3bef-4a36-b109-f616e009ca7d","system_id":"levelo_inurba_marseille","lat":43.284217,"lon":5.349697,"is_reserved":false,"is_disabled":false,"rental_uris":{"android":"levelo://app?vid=1ae01d60-3bef-4a36-b109-f616e009ca7d","ios":"levelo://app?vid=1ae01d60-3bef-4a36-b109-f616e009ca7d"},"vehicle_type_id":"4","last_reported":1714918014,"current_range_meters":15600,"station_id":"ce4bhbh2rcd13ifvqepg","pricing_plan_id":"cebpf4jnsgd1na2vs0mg"},{"bike_id":"a9455852-3531-430e-9c68-872f6d33bed4","system_id":"levelo_inurba_marseille","lat":43.28416,"lon":5.34997,"is_reserved":false,"is_disabled":false,"rental_uris":{"android":"levelo://app?vid=a9455852-3531-430e-9c68-872f6d33bed4","ios":"levelo://app?vid=a9455852-3531-430e-9c68-872f6d33bed4"},"vehicle_type_id":"4","last_reported":1714918014,"current_range_meters":30800,"station_id":"ce4bhbh2rcd13ifvqepg","pricing_plan_id":"cebpf4jnsgd1na2vs0mg"},{"bike_id":"5ff8e275-ceee-4770-a714-7019b9091b30","system_id":"levelo_inurba_marseille","lat":43.284219,"lon":5.3497,"is_reserved":false,"is_disabled":false,"rental_uris":{"android":"levelo://app?vid=5ff8e275-ceee-4770-a714-7019b9091b30","ios":"levelo://app?vid=5ff8e275-ceee-4770-a714-7019b9091b30"},"vehicle_type_id":"4","last_reported":1714918014,"current_range_meters":6800,"station_id":"ce4bhbh2rcd13ifvqepg","pricing_plan_id":"cebpf4jnsgd1na2vs0mg"},{"bike_id":"1cb725a9-7f5f-42aa-b8c0-3c3cd764593f","system_id":"levelo_inurba_marseille","lat":43.284219,"lon":5.3497,"is_reserved":false,"is_disabled":false,"rental_uris":{"android":"levelo://app?vid=1cb725a9-7f5f-42aa-b8c0-3c3cd764593f","ios":"levelo://app?vid=1cb725a9-7f5f-42aa-b8c0-3c3cd764593f"},"vehicle_type_id":"4","last_reported":1714918014,"current_range_meters":9600,"station_id":"ce4bhbh2rcd13ifvqepg","pricing_plan_id":"cebpf4jnsgd1na2vs0mg"},{"bike_id":"0a1001ce-9655-4653-a2de-1307f46437d3","system_id":"levelo_inurba_marseille","lat":43.284174,"lon":5.34991,"is_reserved":false,"is_disabled":false,"rental_uris":{"android":"levelo://app?vid=0a1001ce-9655-4653-a2de-1307f46437d3","ios":"levelo://app?vid=0a1001ce-9655-4653-a2de-1307f46437d3"},"vehicle_type_id":"4","last_reported":1714918014,"current_range_meters":30800,"station_id":"ce4bhbh2rcd13ifvqepg","pricing_plan_id":"cebpf4jnsgd1na2vs0mg"},{"bike_id":"cdca0fec-01eb-4dfa-b74e-b515f0b1dd3b","system_id":"levelo_inurba_marseille","lat":43.28418,"lon":5.34989,"is_reserved":false,"is_disabled":false,"rental_uris":{"android":"levelo://app?vid=cdca0fec-01eb-4dfa-b74e-b515f0b1dd3b","ios":"levelo://app?vid=cdca0fec-01eb-4dfa-b74e-b515f0b1dd3b"},"vehicle_type_id":"4","last_reported":1714918014,"current_range_meters":15200,"station_id":"ce4bhbh2rcd13ifvqepg","pricing_plan_id":"cebpf4jnsgd1na2vs0mg"},{"bike_id":"305503cb-a014-4d70-9069-f6b93c222101","system_id":"levelo_inurba_marseille","lat":43.284214,"lon":5.349706,"is_reserved":false,"is_disabled":false,"rental_uris":{"android":"levelo://app?vid=305503cb-a014-4d70-9069-f6b93c222101","ios":"levelo://app?vid=305503cb-a014-4d70-9069-f6b93c222101"},"vehicle_type_id":"4","last_reported":1714918014,"current_range_meters":22800,"station_id":"ce4bhbh2rcd13ifvqepg","pricing_plan_id":"cebpf4jnsgd1na2vs0mg"},{"bike_id":"1287e8b0-79f3-4847-ae2d-c6739d603456","system_id":"levelo_inurba_marseille","lat":43.284217,"lon":5.349697,"is_reserved":false,"is_disabled":false,"rental_uris":{"android":"levelo://app?vid=1287e8b0-79f3-4847-ae2d-c6739d603456","ios":"levelo://app?vid=1287e8b0-79f3-4847-ae2d-c6739d603456"},"vehicle_type_id":"4","last_reported":1714918014,"current_range_meters":25200,"station_id":"ce4bhbh2rcd13ifvqepg","pricing_plan_id":"cebpf4jnsgd1na2vs0mg"},{"bike_id":"c7474e7a-843e-4a0f-be93-7fb455905171","system_id":"levelo_inurba_marseille","lat":43.284219,"lon":5.3497,"is_reserved":false,"is_disabled":false,"rental_uris":{"android":"levelo://app?vid=c7474e7a-843e-4a0f-be93-7fb455905171","ios":"levelo://app?vid=c7474e7a-843e-4a0f-be93-7fb455905171"},"vehicle_type_id":"4","last_reported":1714918014,"current_range_meters":12000,"station_id":"ce4bhbh2rcd13ifvqepg","pricing_plan_id":"cebpf4jnsgd1na2vs0mg"},{"bike_id":"5dde1f94-05ba-4aee-9189-af722f04f06b","system_id":"levelo_inurba_marseille","lat":43.28417,"lon":5.34989,"is_reserved":false,"is_disabled":false,"rental_uris":{"android":"levelo://app?vid=5dde1f94-05ba-4aee-9189-af722f04f06b","ios":"levelo://app?vid=5dde1f94-05ba-4aee-9189-af722f04f06b"},"vehicle_type_id":"4","last_reported":1714918014,"current_range_meters":14000,"station_id":"ce4bhbh2rcd13ifvqepg","pricing_plan_id":"cebpf4jnsgd1na2vs0mg"},{"bike_id":"493a20e9-dc3d-41b6-830e-65c5057a4418","system_id":"levelo_inurba_marseille","lat":43.28417,"lon":5.34989,"is_reserved":false,"is_disabled":false,"rental_uris":{"android":"levelo://app?vid=493a20e9-dc3d-41b6-830e-65c5057a4418","ios":"levelo://app?vid=493a20e9-dc3d-41b6-830e-65c5057a4418"},"vehicle_type_id":"4","last_reported":1714918014,"current_range_meters":26000,"station_id":"ce4bhbh2rcd13ifvqepg","pricing_plan_id":"cebpf4jnsgd1na2vs0mg"},{"bike_id":"2c0754b3-43a5-4902-8cb8-075e7b07f08c","system_id":"levelo_inurba_marseille","lat":43.284154,"lon":5.349934,"is_reserved":false,"is_disabled":false,"rental_uris":{"android":"levelo://app?vid=2c0754b3-43a5-4902-8cb8-075e7b07f08c","ios":"levelo://app?vid=2c0754b3-43a5-4902-8cb8-075e7b07f08c"},"vehicle_type_id":"4","last_reported":1714918014,"current_range_meters":8400,"station_id":"ce4bhbh2rcd13ifvqepg","pricing_plan_id":"cebpf4jnsgd1na2vs0mg"},{"bike_id":"4e4f3435-283e-4d54-b154-dd4cd929c546","system_id":"levelo_inurba_marseille","lat":43.284219,"lon":5.3497,"is_reserved":false,"is_disabled":false,"rental_uris":{"android":"levelo://app?vid=4e4f3435-283e-4d54-b154-dd4cd929c546","ios":"levelo://app?vid=4e4f3435-283e-4d54-b154-dd4cd929c546"},"vehicle_type_id":"4","last_reported":1714918014,"current_range_meters":16000,"station_id":"ce4bhbh2rcd13ifvqepg","pricing_plan_id":"cebpf4jnsgd1na2vs0mg"},