{"last_updated":1721506102,"ttl":30,"version":"2.2","data":{"bikes":[{"bike_id":"d1d81e54-fed9-443c-944a-6820c8a62e66","system_id":"levelo_inurba_marseille","lat":43.31251,"lon":5.36793,"is_reserved":false,"is_disabled":false,"rental_uris":{"android":"levelo://app?vid=d1d81e54-fed9-443c-944a-6820c8a62e66","ios":"levelo://app?vid=d1d81e54-fed9-443c-944a-6820c8a62e66"},"vehicle_type_id":"4","last_reported":1721506102,"current_range_meters":0,"station_id":"","pricing_plan_id":"cebpf4jnsgd1na2vs0mg"},{"bike_id":"edc703c3-8682-43b0-9faa-f8390ba06701","system_id":"levelo_inurba_marseille","lat":43.31224,"lon":5.3685,"is_reserved":false,"is_disabled":false,"rental_uris":{"android":"levelo://app?vid=edc703c3-8682-43b0-9faa-f8390ba06701","ios":"levelo://app?vid=edc703c3-8682-43b0-9faa-f8390ba06701"},"vehicle_type_id":"4","last_reported":1721506102,"current_range_meters":0,"station_id":"ce4bgl92rcd13ifvqbq0","pricing_plan_id":"cebpf4jnsgd1na2vs0mg"},{"bike_id":"b827a96d-5cc7-4ded-94fa-6674005475af","system_id":"levelo_inurba_marseille","lat":43.314811,"lon":5.373103,"is_reserved":false,"is_disabled":false,"rental_uris":{"android":"levelo://app?vid=b827a96d-5cc7-4ded-94fa-6674005475af","ios":"levelo://app?vid=b827a96d-5cc7-4ded-94fa-6674005475af"},"vehicle_type_id":"4","last_reported":1721506102,"current_range_meters":4000,"station_id":"ce4bgt12rcd13ifvqcd0","pricing_plan_id":"cebpf4jnsgd1na2vs0mg"},{"bike_id":"545374ff-a9e7-4717-a92f-fb3575203ef0","system_id":"levelo_inurba_marseille","lat":43.314811,"lon":5.373104,"is_reserved":false,"is_disabled":false,"rental_uris":{"android":"levelo://app?vid=545374ff-a9e7-4717-a92f-fb3575203ef0","ios":"levelo://app?vid=545374ff-a9e7-4717-a92f-fb3575203ef0"},"vehicle_type_id":"4","last_reported":1721506102,"current_range_meters":0,"station_id":"ce4bgt12rcd13ifvqcd0","pricing_plan_id":"cebpf4jnsgd1na2vs0mg"},{"bike_id":"c7bb8ae6-8faa-46ca-bbdb-7cd7d1a4dca5","system_id":"levelo_inurba_marseille","lat":43.309039,"lon":5.371797,"is_reserved":false,"is_disabled":false,"rental_uris":{"android":"levelo://app?vid=c7bb8ae6-8faa-46ca-bbdb-7cd7d1a4dca5","ios":"levelo://app?vid=c7bb8ae6-8faa-46ca-bbdb-7cd7d1a4dca5"},"vehicle_type_id":"4","last_reported":1721506102,"current_range_meters":4800,"station_id":"ce4bguh2rcd13ifvqckg","pricing_plan_id":"cebpf4jnsgd1na2vs0mg"},{"bike_id":"5f94e1f4-c135-4188-ae23-8f2d9fb27191","system_id":"levelo_inurba_marseille","lat":43.309034,"lon":5.371783,"is_reserved":false,"is_disabled":false,"rental_uris":{"android":"levelo://app?vid=5f94e1f4-c135-4188-ae23-8f2d9fb27191","ios":"levelo://app?vid=5f94e1f4-c135-4188-ae23-8f2d9fb27191"},"vehicle_type_id":"4","last_reported":1721506102,"current_range_meters":24000,"station_id":"ce4bguh2rcd13ifvqckg","pricing_plan_id":"cebpf4jnsgd1na2vs0mg"},{"bike_id":"32bf86fb-39c7-4520-b12e-60e8f91c25e9","system_id":"levelo_inurba_marseille","lat":43.30643,"lon":5.36802,"is_reserved":false,"is_disabled":false,"rental_uris":{"android":"levelo://app?vid=32bf86fb-39c7-4520-b12e-60e8f91c25e9","ios":"levelo://app?vid=32bf86fb-39c7-4520-b12e-60e8f91c25e9"},"vehicle_type_id":"4","last_reported":1721506102,"current_range_meters":30000,"station_id":"","pricing_plan_id":"cebpf4jnsgd1na2vs0mg"},{"bike_id":"c31062aa-13bb-4a59-bbe9-f5902f07b6e1","system_id":"levelo_inurba_marseille","lat":43.3056,"lon":5.36529,"is_reserved":false,"is_disabled":false,"rental_uris":{"android":"levelo://app?vid=c31062aa-13bb-4a59-bbe9-f5902f07b6e1","ios":"levelo://app?vid=c31062aa-13bb-4a59-bbe9-f5902f07b6e1"},"vehicle_type_id":"4","last_reported":1721506102,"current_range_meters":29600,"station_id":"ce4bgs12rcd13ifvqcag","pricing_plan_id":"cebpf4jnsgd1na2vs0mg"},{"bike_id":"de704770-3340-439b-bd01-3fb0936ca0c2","system_id":"levelo_inurba_marseille","lat":43.30537,"lon":5.367345,"is_reserved":false,"is_disabled":false,"rental_uris":{"android":"levelo://app?vid=de704770-3340-439b-bd01-3fb0936ca0c2","ios":"levelo://app?vid=de704770-3340-439b-bd01-3fb0936ca0c2"},"vehicle_type_id":"4","last_reported":1721506102,"current_range_meters":24800,"station_id":"ce4bgrp2rcd13ifvqc9g","pricing_plan_id":"cebpf4jnsgd1na2vs0mg"},{"bike_id":"82fce48d-7fce-4877-876e-dbf3b911aa30","system_id":"levelo_inurba_marseille","lat":43.305368,"lon":5.367343,"is_reserved":false,"is_disabled":false,"rental_uris":{"android":"levelo://app?vid=82fce48d-7fce-4877-876e-dbf3b911aa30","ios":"levelo://app?vid=82fce48d-7fce-4877-876e-dbf3b911aa30"},"vehicle_type_id":"4","last_reported":1721506102,"current_range_meters":3600,"station_id":"ce4bgrp2rcd13ifvqc9g","pricing_plan_id":"cebpf4jnsgd1na2vs0mg"},{"bike_id":"8d87a287-a8b0-4855-90f3-43c005a54446","system_id":"levelo_inurba_marseille","lat":43.30602,"lon":5.37234,"is_reserved":false,"is_disabled":false,"rental_uris":{"android":"levelo://app?vid=8d87a287-a8b0-4855-90f3-43c005a54446","ios":"levelo://app?vid=8d87a287-a8b0-4855-90f3-43c005a54446"},"vehicle_type_id":"4","last_reported":1721506102,"current_range_meters":26000,"station_id":"ce4bgqh2rcd13ifvqc4g","pricing_plan_id":"cebpf4jnsgd1na2vs0mg"},{"bike_id":"a5647cad-9a9f-406a-b4b3-7a7a47e15ff6","system_id":"levelo_inurba_marseille","lat":43.31111,"lon":5.37761,"is_reserved":false,"is_disabled":false,"rental_uris":{"android":"levelo://app?vid=a5647cad-9a9f-406a-b4b3-7a7a47e15ff6","ios":"levelo://app?vid=a5647cad-9a9f-406a-b4b3-7a7a47e15ff6"},"vehicle_type_id":"4","last_reported":1721506102,"current_range_meters":0,"station_id":"ce4bgt92rcd13ifvqcg0","pricing_plan_id":"cebpf4jnsgd1na2vs0mg"},{"bike_id":"0b9f8edd-fecf-488e-8ba2-709a7ca02099","system_id":"levelo_inurba_marseille","lat":43.307945,"lon":5.376487,"is_reserved":false,"is_disabled":false,"rental_uris":{"android":"levelo://app?vid=0b9f8edd-fecf-488e-8ba2-709a7ca02099","ios":"levelo://app?vid=0b9f8edd-fecf-488e-8ba2-709a7ca02099"},"vehicle_type_id":"4","last_reported":1721506102,"current_range_meters":29200,"station_id":"ce4bgv92rcd13ifvqcq0","pricing_plan_id":"cebpf4jnsgd1na2vs0mg"},{"bike_id":"e9033f08-602c-48c9-9d76-4f87ac1b23fe","system_id":"levelo_inurba_marseille","lat":43.307945,"lon":5.376487,"is_reserved":false,"is_disabled":false,"rental_uris":{"android":"levelo://app?vid=e9033f08-602c-48c9-9d76-4f87ac1b23fe","ios":"levelo://app?vid=e9033f08-602c-48c9-9d76-4f87ac1b23fe"},"vehicle_type_id":"4","last_reported":1721506102,"current_range_meters":6000,"station_id":"ce4bgv92rcd13ifvqcq0","pricing_plan_id":"cebpf4jnsgd1na2vs0mg"},{"bike_id":"0f0da58a-3316-4d42-be25-999f8d92becd","system_id":"levelo_inurba_marseille","lat":43.3078,"lon":5.37653,"is_reserved":false,"is_disabled":false,"rental_uris":{"android":"levelo://app?vid=0f0da58a-3316-4d42-be25-999f8d92becd","ios":"levelo://app?vid=0f0da58a-3316-4d42-be25-999f8d92becd"},"vehicle_type_id":"4","last_reported":1721506102,"current_range_meters":31200,"station_id":"","pricing_plan_id":"cebpf4jnsgd1na2vs0mg"},{"bike_id":"c4aedaa5-da71-45c2-9c98-e5a7a07ddeff","system_id":"levelo_inurba_marseille","lat":43.315289,"lon":5.380349,"is_reserved":false,"is_disabled":false,"rental_uris":{"android":"levelo://app?vid=c4aedaa5-da71-45c2-9c98-e5a7a07ddeff","ios":"levelo://app?vid=c4aedaa5-da71-45c2-9c98-e5a7a07ddeff"},"vehicle_type_id":"4","last_reported":1721506102,"current_range_meters":12000,"station_id":"ce4bhsp2rcd13ifvqi50","pricing_plan_id":"cebpf4jnsgd1na2vs0mg"},{"bike_id":"a8cecd93-f7da-4fb8-9aa9-56f472262cc4","system_id":"levelo_inurba_marseille","lat":43.30808,"lon":5.38156,"is_reserved":false,"is_disabled":false,"rental_uris":{"android":"levelo://app?vid=a8cecd93-f7da-4fb8-9aa9-56f472262cc4","ios":"levelo://app?vid=a8cecd93-f7da-4fb8-9aa9-56f472262cc4"},"vehicle_type_id":"4","last_reported":1721506102,"current_range_meters":31200,"station_id":"ce4bgt12rcd13ifvqce0","pricing_plan_id":"cebpf4jnsgd1na2vs0mg"},{"bike_id":"d232091b-d56d-467b-afe7-f23bc5106011","system_id":"levelo_inurba_marseille","lat":43.308012,"lon":5.381511,"is_reserved":false,"is_disabled":false,"rental_uris":{"android":"levelo://app?vid=d232091b-d56d-467b-afe7-f23bc5106011","ios":"levelo://app?vid=d232091b-d56d-467b-afe7-f23bc5106011"},"vehicle_type_id":"4","last_reported":1721506102,"current_range_meters":29200,"station_id":"ce4bgt12rcd13ifvqce0","pricing_plan_id":"cebpf4jnsgd1na2vs0mg"},{"bike_id":"602d215f-4397-43dc-949d-cda073665da9","system_id":"levelo_inurba_marseille","lat":43.308012,"lon":5.381511,"is_reserved":false,"is_disabled":false,"rental_uris":{"android":"levelo://app?vid=602d215f-4397-43dc-949d-cda073665da9","ios":"levelo://app?vid=602d215f-4397-43dc-949d-cda073665da9"},"vehicle_type_id":"4","last_reported":1721506102,"current_range_meters":29600,"station_id":"ce4bgt12rcd13ifvqce0","pricing_plan_id":"cebpf4jnsgd1na2vs0mg"},{"bike_id":"9d99935d-f02f-4fdc-a816-2589ed3fa0be","system_id":"levelo_inurba_marseille","lat":43.308012,"lon":5.381511,"is_reserved":false,"is_disabled":false,"rental_uris":{"android":"levelo://app?vid=9d99935d-f02f-4fdc-a816-2589ed3fa0be","ios":"levelo://app?vid=9d99935d-f02f-4fdc-a816-2589ed3fa0be"},"vehicle_type_id":"4","last_reported":1721506102,"current_range_meters":3200,"station_id":"ce4bgt12rcd13ifvqce0","pricing_plan_id":"cebpf4jnsgd1na2vs0mg"},{"bike_id":"96190691-5c79-4f2a-af95-3f66f23d1b5b","system_id":"levelo_inurba_marseille","lat":43.32475,"lon":5.36584,"is_reserved":false,"is_disabled":false,"rental_uris":{"android":"levelo://app?vid=96190691-5c79-4f2a-af95-3f66f23d1b5b","ios":"levelo://app?vid=96190691-5c79-4f2a-af95-3f66f23d1b5b"},"vehicle_type_id":"4","last_reported":1721506102,"current_range_meters":800,"station_id":"ce4bhs12rcd13ifvqhvg","pricing_plan_id":"cebpf4jnsgd1na2vs0mg"},{"bike_id":"b32653a6-eced-4061-82a4-11bf0d00e36c","system_id":"levelo_inurba_marseille","lat":43.32477,"lon":5.36565,"is_reserved":false,"is_disabled":false,"rental_uris":{"android":"levelo://app?vid=b32653a6-eced-4061-82a4-11bf0d00e36c","ios":"levelo://app?vid=b32653a6-eced-4061-82a4-11bf0d00e36c"},"vehicle_type_id":"4","last_reported":1721506102,"current_range_meters":6000,"station_id":"ce4bhs12rcd13ifvqhvg","pricing_plan_id":"cebpf4jnsgd1na2vs0mg"},{"bike_id":"751b495a-ded5-440d-924d-2bf060460f69","system_id":"levelo_inurba_marseille","lat":43.324824,"lon":5.365778,"is_reserved":false,"is_disabled":false,"rental_uris":{"android":"levelo://app?vid=751b495a-ded5-440d-924d-2bf060460f69","ios":"levelo://app?vid=751b495a-ded5-440d-924d-2bf060460f69"},"vehicle_type_id":"4","last_reported":1721506102,"current_range_meters":16800,"station_id":"ce4bhs12rcd13ifvqhvg","pricing_plan_id":"cebpf4jnsgd1na2vs0mg"},{"bike_id":"2baca4ef-0d69-4564-91f0-6aa88a9ace5b","system_id":"levelo_inurba_marseille","lat":43.32484,"lon":5.365772,"is_reserved":false,"is_disabled":false,"rental_uris":{"android":"levelo://app?vid=2baca4ef-0d69-4564-91f0-6aa88a9ace5b","ios":"levelo://app?vid=2baca4ef-0d69-4564-91f0-6aa88a9ace5b"},"vehicle_type_id":"4","last_reported":1721506102,"current_range_meters":10800,"station_id":"ce4bhs12rcd13ifvqhvg","pricing_plan_id":"cebpf4jnsgd1na2vs0mg"},{"bike_id":"feefa1db-43c9-45bf-adaf-8904865759cc","system_id":"levelo_inurba_marseille","lat":43.32485,"lon":5.36573,"is_reserved":false,"is_disabled":false,"rental_uris":{"android":"levelo://app?vid=feefa1db-43c9-45bf-adaf-8904865759cc","ios":"levelo://app?vid=feefa1db-43c9-45bf-adaf-8904865759cc"},"vehicle_type_id":"4","last_reported":1721506102,"current_range_meters":6400,"station_id":"ce4bhs12rcd13ifvqhvg","pricing_plan_id":"cebpf4jnsgd1na2vs0mg"},{"bike_id":"96442150-d32c-44ac-a637-519fd25b0f97","system_id":"levelo_inurba_marseille","lat":43.324847,"lon":5.365665,"is_reserved":false,"is_disabled":false,"rental_uris":{"android":"levelo://app?vid=96442150-d32c-44ac-a637-519fd25b0f97","ios":"levelo://app?vid=96442150-d32c-44ac-a637-519fd25b0f97"},"vehicle_type_id":"4","last_reported":1721506102,"current_range_meters":18800,"station_id":"ce4bhs12rcd13ifvqhvg","pricing_plan_id":"cebpf4jnsgd1na2vs0mg"},{"bike_id":"e1a875e6-14e4-474c-84f3-1c47f3390dd5","system_id":"levelo_inurba_marseille","lat":43.310804,"lon":5.38359,"is_reserved":false,"is_disabled":false,"rental_uris":{"android":"levelo://app?vid=e1a875e6-14e4-474c-84f3-1c47f3390dd5","ios":"levelo://app?vid=e1a875e6-14e4-474c-84f3-1c47f3390dd5"},"vehicle_type_id":"4","last_reported":1721506102,"current_range_meters":5200,"station_id":"ce4bgv92rcd13ifvqcr0","pricing_plan_id":"cebpf4jnsgd1na2vs0mg"},{"bike_id":"b3414686-b118-41e2-b345-6fc6e19bca15","system_id":"levelo_inurba_marseille","lat":43.310804,"lon":5.38359,"is_reserved":false,"is_disabled":false,"rental_uris":{"android":"levelo://app?vid=b3414686-b118-41e2-b345-6fc6e19bca15","ios":"levelo://app?vid=b3414686-b118-41e2-b345-6fc6e19bca15"},"vehicle_type_id":"4","last_reported":1721506102,"current_range_meters":5200,"station_id":"ce4bgv92rcd13ifvqcr0","pricing_plan_id":"cebpf4jnsgd1na2vs0mg"},{"bike_id":"9a431f80-fdac-4dba-80ea-97acbec0d604","system_id":"levelo_inurba_marseille","lat":43.30179,"lon":5.3745,"is_reserved":false,"is_disabled":false,"rental_uris":{"android":"levelo://app?vid=9a431f80-fdac-4dba-80ea-97acbec0d604","ios":"levelo://app?vid=9a431f80-fdac-4dba-80ea-97acbec0d604"},"vehicle_type_id":"4","last_reported":1721506102,"current_range_meters":10800,"station_id":"","pricing_plan_id":"cebpf4jnsgd1na2vs0mg"},{"bike_id":"018e4707-8e87-424c-945c-a6e58ee691a3","system_id":"levelo_inurba_marseille","lat":43.310804,"lon":5.38359,"is_reserved":false,"is_disabled":false,"rental_uris":{"android":"levelo://app?vid=018e4707-8e87-424c-945c-a6e58ee691a3","ios":"levelo://app?vid=018e4707-8e87-424c-945c-a6e58ee691a3"},"vehicle_type_id":"4","last_reported":1721506102,"current_range_meters":2000,"station_id":"ce4bgv92rcd13ifvqcr0","pricing_plan_id":"cebpf4jnsgd1na2vs0mg"},{"bike_id":"07679c85-5596-4e11-acfb-6841509b53e1","system_id":"levelo_inurba_marseille","lat":43.313571,"lon":5.384829,"is_reserved":false,"is_disabled":false,"rental_uris":{"android":"levelo://app?vid=07679c85-5596-4e11-acfb-6841509b53e1","ios":"levelo://app?vid=07679c85-5596-4e11-acfb-6841509b53e1"},"vehicle_type_id":"4","last_reported":1721506102,"current_range_meters":0,"station_id":"ce4bgt92rcd13ifvqcf0","pricing_plan_id":"cebpf4jnsgd1na2vs0mg"},{"bike_id":"639350f5-70e6-48f5-b44c-1bfab11aeb95","system_id":"levelo_inurba_marseille","lat":43.31364,"lon":5.38483,"is_reserved":false,"is_disabled":false,"rental_uris":{"android":"levelo://app?vid=639350f5-70e6-48f5-b44c-1bfab11aeb95","ios":"levelo://app?vid=639350f5-70e6-48f5-b44c-1bfab11aeb95"},"vehicle_type_id":"4","last_reported":1721506102,"current_range_meters":0,"station_id":"ce4bgt92rcd13ifvqcf0","pricing_plan_id":"cebpf4jnsgd1na2vs0mg"},{"bike_id":"4a7b3249-24c3-476a-abba-95c81f8b9a71","system_id":"levelo_inurba_marseille","lat":43.313571,"lon":5.384829,"is_reserved":false,"is_disabled":false,"rental_uris":{"android":"levelo://app?vid=4a7b3249-24c3-476a-abba-95c81f8b9a71","ios":"levelo://app?vid=4a7b3249-24c3-476a-abba-95c81f8b9a71"},"vehicle_type_id":"4","last_reported":1721506102,"current_range_meters":20800,"station_id":"ce4bgt92rcd13ifvqcf0","pricing_plan_id":"cebpf4jnsgd1na2vs0mg"},{"bike_id":"8fc3e5a0-896d-4d15-803d-978458b3206c","system_id":"levelo_inurba_marseille","lat":43.32145,"lon":5.38039,"is_reserved":false,"is_disabled":false,"rental_uris":{"android":"levelo://app?vid=8fc3e5a0-896d-4d15-803d-978458b3206c","ios":"levelo://app?vid=8fc3e5a0-896d-4d15-803d-978458b3206c"},"vehicle_type_id":"4","last_reported":1721506102,"current_range_meters":7600,"station_id":"","pricing_plan_id":"cebpf4jnsgd1na2vs0mg"},{"bike_id":"13b51f3d-ae20-4b1e-8672-0f5b88aeb3cf","system_id":"levelo_inurba_marseille","lat":43.313571,"lon":5.384829,"is_reserved":false,"is_disabled":false,"rental_uris":{"android":"levelo://app?vid=13b51f3d-ae20-4b1e-8672-0f5b88aeb3cf","ios":"levelo://app?vid=13b51f3d-ae20-4b1e-8672-0f5b88aeb3cf"},"vehicle_type_id":"4","last_reported":1721506102,"current_range_meters":10000,"station_id":"ce4bgt92rcd13ifvqcf0","pricing_plan_id":"cebpf4jnsgd1na2vs0mg"},{"bike_id":"834ae887-00f6-435d-90c1-6f2d087bd1f5","system_id":"levelo_inurba_marseille","lat":43.29954,"lon":5.366333,"is_reserved":false,"is_disabled":false,"rental_uris":{"android":"levelo://app?vid=834ae887-00f6-435d-90c1-6f2d087bd1f5","ios":"levelo://app?vid=834ae887-00f6-435d-90c1-6f2d087bd1f5"},"vehicle_type_id":"4","last_reported":1721506102,"current_range_meters":21200,"station_id":"","pricing_plan_id":"cebpf4jnsgd1na2vs0mg"},{"bike_id":"da320b8b-8399-414b-9370-7263c0626b0c","system_id":"levelo_inurba_marseille","lat":43.2999,"lon":5.37173,"is_reserved":false,"is_disabled":false,"rental_uris":{"android":"levelo://app?vid=da320b8b-8399-414b-9370-7263c0626b0c","ios":"levelo://app?vid=da320b8b-8399-414b-9370-7263c0626b0c"},"vehicle_type_id":"4","last_reported":1721506102,"current_range_meters":27600,"station_id":"ce4bgr92rcd13ifvqc7g","pricing_plan_id":"cebpf4jnsgd1na2vs0mg"},{"bike_id":"5ea2b58f-802a-49f4-ba88-a97b7d73f64b","system_id":"levelo_inurba_marseille","lat":43.299222,"lon":5.365554,"is_reserved":false,"is_disabled":false,"rental_uris":{"android":"levelo://app?vid=5ea2b58f-802a-49f4-ba88-a97b7d73f64b","ios":"levelo://app?vid=5ea2b58f-802a-49f4-ba88-a97b7d73f64b"},"vehicle_type_id":"4","last_reported":1721506102,"current_range_meters":6800,"station_id":"ce4bgm92rcd13ifvqbr0","pricing_plan_id":"cebpf4jnsgd1na2vs0mg"},{"bike_id":"78614521-8ab1-45d6-86ab-baae7c3809fe","system_id":"levelo_inurba_marseille","lat":43.299222,"lon":5.365554,"is_reserved":false,"is_disabled":false,"rental_uris":{"android":"levelo://app?vid=78614521-8ab1-45d6-86ab-baae7c3809fe","ios":"levelo://app?vid=78614521-8ab1-45d6-86ab-baae7c3809fe"},"vehicle_type_id":"4","last_reported":1721506102,"current_range_meters":26800,"station_id":"ce4bgm92rcd13ifvqbr0","pricing_plan_id":"cebpf4jnsgd1na2vs0mg"},{"bike_id":"6b451776-a2eb-4e25-a4c1-e9b91537ff49","system_id":"levelo_inurba_marseille","lat":43.299222,"lon":5.365554,"is_reserved":false,"is_disabled":false,"rental_uris":{"android":"levelo://app?vid=6b451776-a2eb-4e25-a4c1-e9b91537ff49","ios":"levelo://app?vid=6b451776-a2eb-4e25-a4c1-e9b91537ff49"},"vehicle_type_id":"4","last_reported":1721506102,"current_range_meters":24400,"station_id":"ce4bgm92rcd13ifvqbr0","pricing_plan_id":"cebpf4jnsgd1na2vs0mg"},{"bike_id":"2f80560a-01f7-4654-a9c7-93cfa5f58e94","system_id":"levelo_inurba_marseille","lat":43.29973,"lon":5.37186,"is_reserved":false,"is_disabled":false,"rental_uris":{"android":"levelo://app?vid=2f80560a-01f7-4654-a9c7-93cfa5f58e94","ios":"levelo://app?vid=2f80560a-01f7-4654-a9c7-93cfa5f58e94"},"vehicle_type_id":"4","last_reported":1721506102,"current_range_meters":21200,"station_id":"ce4bgr92rcd13ifvqc7g","pricing_plan_id":"cebpf4jnsgd1na2vs0mg"},{"bike_id":"69e59f59-9523-4774-872b-f7c0e40d193b","system_id":"levelo_inurba_marseille","lat":43.298433,"lon":5.362774,"is_reserved":false,"is_disabled":false,"rental_uris":{"android":"levelo://app?vid=69e59f59-9523-4774-872b-f7c0e40d193b","ios":"levelo://app?vid=69e59f59-9523-4774-872b-f7c0e40d193b"},"vehicle_type_id":"4","last_reported":1721506102,"current_range_meters":7600,"station_id":"ce4bgpp2rcd13ifvqc3g","pricing_plan_id":"cebpf4jnsgd1na2vs0mg"},{"bike_id":"d0a21491-5a5d-47db-81f2-46b514c84727","system_id":"levelo_inurba_marseille","lat":43.298433,"lon":5.362774,"is_reserved":false,"is_disabled":false,"rental_uris":{"android":"levelo://app?vid=d0a21491-5a5d-47db-81f2-46b514c84727","ios":"levelo://app?vid=d0a21491-5a5d-47db-81f2-46b514c84727"},"vehicle_type_id":"4","last_reported":1721506102,"current_range_meters":0,"station_id":"ce4bgpp2rcd13ifvqc3g","pricing_plan_id":"cebpf4jnsgd1na2vs0mg"},{"bike_id":"1f65f29b-e89d-4b77-8fa1-429e1c9bf6c6","system_id":"levelo_inurba_marseille","lat":43.298433,"lon":5.362774,"is_reserved":false,"is_disabled":false,"rental_uris":{"android":"levelo://app?vid=1f65f29b-e89d-4b77-8fa1-429e1c9bf6c6","ios":"levelo://app?vid=1f65f29b-e89d-4b77-8fa1-429e1c9bf6c6"},"vehicle_type_id":"4","last_reported":1721506102,"current_range_meters":1600,"station_id":"ce4bgpp2rcd13ifvqc3g","pricing_plan_id":"cebpf4jnsgd1na2vs0mg"},{"bike_id":"53cfa062-4851-488c-af93-93d3d13ce703","system_id":"levelo_inurba_marseille","lat":43.298433,"lon":5.362774,"is_reserved":false,"is_disabled":false,"rental_uris":{"android":"levelo://app?vid=53cfa062-4851-488c-af93-93d3d13ce703","ios":"levelo://app?vid=53cfa062-4851-488c-af93-93d3d13ce703"},"vehicle_type_id":"4","last_reported":1721506102,"current_range_meters":4000,"station_id":"ce4bgpp2rcd13ifvqc3g","pricing_plan_id":"cebpf4jnsgd1na2vs0mg"},{"bike_id":"9a9e67a3-eb53-4eed-b0de-ef501cd0a63e","system_id":"levelo_inurba_marseille","lat":43.298433,"lon":5.362774,"is_reserved":false,"is_disabled":false,"rental_uris":{"android":"levelo://app?vid=9a9e67a3-eb53-4eed-b0de-ef501cd0a63e","ios":"levelo://app?vid=9a9e67a3-eb53-4eed-b0de-ef501cd0a63e"},"vehicle_type_id":"4","last_reported":1721506102,"current_range_meters":0,"station_id":"ce4bgpp2rcd13ifvqc3g","pricing_plan_id":"cebpf4jnsgd1na2vs0mg"},{"bike_id":"ad03c32f-e4ff-47b9-8cff-ef90dc1206f9","system_id":"levelo_inurba_marseille","lat":43.298433,"lon":5.362774,"is_reserved":false,"is_disabled":false,"rental_uris":{"android":"levelo://app?vid=ad03c32f-e4ff-47b9-8cff-ef90dc1206f9","ios":"levelo://app?vid=ad03c32f-e4ff-47b9-8cff-ef90dc1206f9"},"vehicle_type_id":"4","last_reported":1721506102,"current_range_meters":31200,"station_id":"ce4bgpp2rcd13ifvqc3g","pricing_plan_id":"cebpf4jnsgd1na2vs0mg"},{"bike_id":"5375c2b9-c426-475c-a449-a02053b5970e","system_id":"levelo_inurba_marseille","lat":43.298433,"lon":5.362774,"is_reserved":false,"is_disabled":false,"rental_uris":{"android":"levelo://app?vid=5375c2b9-c426-475c-a449-a02053b5970e","ios":"levelo://app?vid=5375c2b9-c426-475c-a449-a02053b5970e"},"vehicle_type_id":"4","last_reported":1721506102,"current_range_meters":22800,"station_id":"ce4bgpp2rcd13ifvqc3g","pricing_plan_id":"cebpf4jnsgd1na2vs0mg"},{"bike_id":"de5e1513-bdd3-4962-9969-4cd4498d33a7","system_id":"levelo_inurba_marseille","lat":43.298433,"lon":5.362774,"is_reserved":false,"is_disabled":false,"rental_uris":{"android":"levelo://app?vid=de5e1513-bdd3-4962-9969-4cd4498d33a7","ios":"levelo://app?vid=de5e1513-bdd3-4962-9969-4cd4498d33a7"},"vehicle_type_id":"4","last_reported":1721506102,"current_range_meters":31200,"station_id":"ce4bgpp2rcd13ifvqc3g","pricing_plan_id":"cebpf4jnsgd1na2vs0mg"},{"bike_id":"12a5c065-59d2-4804-b080-6f1c8fdb3197","system_id":"levelo_inurba_marseille","lat":43.311722,"lon":5.387247,"is_reserved":false,"is_disabled":false,"rental_uris":{"android":"levelo://app?vid=12a5c065-59d2-4804-b080-6f1c8fdb3197","ios":"levelo://app?vid=12a5c065-59d2-4804-b080-6f1c8fdb3197"},"vehicle_type_id":"4","last_reported":1721506102,"current_range_meters":22000,"station_id":"ce4bgv12rcd13ifvqcp0","pricing_plan_id":"cebpf4jnsgd1na2vs0mg"},{"bike_id":"329e3387-1b78-4791-ad80-95a50bdcb480","system_id":"levelo_inurba_marseille","lat":43.311722,"lon":5.387247,"is_reserved":false,"is_disabled":false,"rental_uris":{"android":"levelo://app?vid=329e3387-1b78-4791-ad80-95a50bdcb480","ios":"levelo://app?vid=329e3387-1b78-4791-ad80-95a50bdcb480"},"vehicle_type_id":"4","last_reported":1721506102,"current_range_meters":27600,"station_id":"ce4bgv12rcd13ifvqcp0","pricing_plan_id":"cebpf4jnsgd1na2vs0mg"},{"bike_id":"1b510991-e61d-4bdb-a3a5-9b4656edadcd","system_id":"levelo_inurba_marseille","lat":43.297794,"lon":5.370888,"is_reserved":false,"is_disabled":false,"rental_uris":{"android":"levelo://app?vid=1b510991-e61d-4bdb-a3a5-9b4656edadcd","ios":"levelo://app?vid=1b510991-e61d-4bdb-a3a5-9b4656edadcd"},"vehicle_type_id":"4","last_reported":1721506102,"current_range_meters":31200,"station_id":"ce4bgop2rcd13ifvqc1g","pricing_plan_id":"cebpf4jnsgd1na2vs0mg"},{"bike_id":"de566955-5a6b-4de8-ae6b-4c44e94d7109","system_id":"levelo_inurba_marseille","lat":43.297794,"lon":5.370888,"is_reserved":false,"is_disabled":false,"rental_uris":{"android":"levelo://app?vid=de566955-5a6b-4de8-ae6b-4c44e94d7109","ios":"levelo://app?vid=de566955-5a6b-4de8-ae6b-4c44e94d7109"},"vehicle_type_id":"4","last_reported":1721506102,"current_range_meters":8000,"station_id":"ce4bgop2rcd13ifvqc1g","pricing_plan_id":"cebpf4jnsgd1na2vs0mg"},{"bike_id":"e11e1101-f4f0-4974-84de-fc036c868c04","system_id":"levelo_inurba_marseille","lat":43.297834,"lon":5.371042,"is_reserved":false,"is_disabled":false,"rental_uris":{"android":"levelo://app?vid=e11e1101-f4f0-4974-84de-fc036c868c04","ios":"levelo://app?vid=e11e1101-f4f0-4974-84de-fc036c868c04"},"vehicle_type_id":"4","last_reported":1721506102,"current_range_meters":0,"station_id":"","pricing_plan_id":"cebpf4jnsgd1na2vs0mg"},{"bike_id":"4916fd50-85ca-4439-a374-490407bf4b9d","system_id":"levelo_inurba_marseille","lat":43.29781,"lon":5.37089,"is_reserved":false,"is_disabled":false,"rental_uris":{"android":"levelo://app?vid=4916fd50-85ca-4439-a374-490407bf4b9d","ios":"levelo://app?vid=4916fd50-85ca-4439-a374-490407bf4b9d"},"vehicle_type_id":"4","last_reported":1721506102,"current_range_meters":4800,"station_id":"ce4bgop2rcd13ifvqc1g","pricing_plan_id":"cebpf4jnsgd1na2vs0mg"},{"bike_id":"fd19526c-fddb-4fce-8d32-321bbfb4322c","system_id":"levelo_inurba_marseille","lat":43.322872,"lon":5.382756,"is_reserved":false,"is_disabled":false,"rental_uris":{"android":"levelo://app?vid=fd19526c-fddb-4fce-8d32-321bbfb4322c","ios":"levelo://app?vid=fd19526c-fddb-4fce-8d32-321bbfb4322c"},"vehicle_type_id":"4","last_reported":1721506102,"current_range_meters":7600,"station_id":"ce4bhr12rcd13ifvqhqg","pricing_plan_id":"cebpf4jnsgd1na2vs0mg"},{"bike_id":"858f6f60-f61f-4736-bcfe-fdd84d67dc9f","system_id":"levelo_inurba_marseille","lat":43.322872,"lon":5.382756,"is_reserved":false,"is_disabled":false,"rental_uris":{"android":"levelo://app?vid=858f6f60-f61f-4736-bcfe-fdd84d67dc9f","ios":"levelo://app?vid=858f6f60-f61f-4736-bcfe-fdd84d67dc9f"},"vehicle_type_id":"4","last_reported":1721506102,"current_range_meters":4800,"station_id":"ce4bhr12rcd13ifvqhqg","pricing_plan_id":"cebpf4jnsgd1na2vs0mg"},{"bike_id":"46920590-0dbc-44b5-aa87-4201002b7d17","system_id":"levelo_inurba_marseille","lat":43.322872,"lon":5.382756,"is_reserved":false,"is_disabled":false,"rental_uris":{"android":"levelo://app?vid=46920590-0dbc-44b5-aa87-4201002b7d17","ios":"levelo://app?vid=46920590-0dbc-44b5-aa87-4201002b7d17"},"vehicle_type_id":"4","last_reported":1721506102,"current_range_meters":10000,"station_id":"ce4bhr12rcd13ifvqhqg","pricing_plan_id":"cebpf4jnsgd1na2vs0mg"},{"bike_id":"88ebadc9-bddf-4495-b922-95c571a06da1","system_id":"levelo_inurba_marseille","lat":43.297163,"lon":5.365866,"is_reserved":false,"is_disabled":false,"rental_uris":{"android":"levelo://app?vid=88ebadc9-bddf-4495-b922-95c571a06da1","ios":"levelo://app?vid=88ebadc9-bddf-4495-b922-95c571a06da1"},"vehicle_type_id":"4","last_reported":1721506102,"current_range_meters":4000,"station_id":"ce4bgn12rcd13ifvqbt0","pricing_plan_id":"cebpf4jnsgd1na2vs0mg"},{"bike_id":"de4a830d-aac8-4662-a8fe-2c7bc1ab3be6","system_id":"levelo_inurba_marseille","lat":43.297163,"lon":5.365866,"is_reserved":false,"is_disabled":false,"rental_uris":{"android":"levelo://app?vid=de4a830d-aac8-4662-a8fe-2c7bc1ab3be6","ios":"levelo://app?vid=de4a830d-aac8-4662-a8fe-2c7bc1ab3be6"},"vehicle_type_id":"4","last_reported":1721506102,"current_range_meters":12800,"station_id":"ce4bgn12rcd13ifvqbt0","pricing_plan_id":"cebpf4jnsgd1na2vs0mg"},{"bike_id":"15321639-8068-412a-8361-aaafd71eadbf","system_id":"levelo_inurba_marseille","lat":43.297163,"lon":5.365866,"is_reserved":false,"is_disabled":false,"rental_uris":{"android":"levelo://app?vid=15321639-8068-412a-8361-aaafd71eadbf","ios":"levelo://app?vid=15321639-8068-412a-8361-aaafd71eadbf"},"vehicle_type_id":"4","last_reported":1721506102,"current_range_meters":15200,"station_id":"ce4bgn12rcd13ifvqbt0","pricing_plan_id":"cebpf4jnsgd1na2vs0mg"},{"bike_id":"9b9d53c6-2148-4c41-a51d-8f12d366f47b","system_id":"levelo_inurba_marseille","lat":43.297163,"lon":5.365866,"is_reserved":false,"is_disabled":false,"rental_uris":{"android":"levelo://app?vid=9b9d53c6-2148-4c41-a51d-8f12d366f47b","ios":"levelo://app?vid=9b9d53c6-2148-4c41-a51d-8f12d366f47b"},"vehicle_type_id":"4","last_reported":1721506102,"current_range_meters":16400,"station_id":"ce4bgn12rcd13ifvqbt0","pricing_plan_id":"cebpf4jnsgd1na2vs0mg"},{"bike_id":"d949e83a-7910-4735-853e-f80c69f6cdaa","system_id":"levelo_inurba_marseille","lat":43.29707,"lon":5.36618,"is_reserved":false,"is_disabled":false,"rental_uris":{"android":"levelo://app?vid=d949e83a-7910-4735-853e-f80c69f6cdaa","ios":"levelo://app?vid=d949e83a-7910-4735-853e-f80c69f6cdaa"},"vehicle_type_id":"4","last_reported":1721506102,"current_range_meters":31200,"station_id":"ce4bgn12rcd13ifvqbt0","pricing_plan_id":"cebpf4jnsgd1na2vs0mg"},{"bike_id":"8685c198-af2d-428e-9013-e4de515249d2","system_id":"levelo_inurba_marseille","lat":43.29704,"lon":5.36616,"is_reserved":false,"is_disabled":false,"rental_uris":{"android":"levelo://app?vid=8685c198-af2d-428e-9013-e4de515249d2","ios":"levelo://app?vid=8685c198-af2d-428e-9013-e4de515249d2"},"vehicle_type_id":"4","last_reported":1721506102,"current_range_meters":31200,"station_id":"ce4bgn12rcd13ifvqbt0","pricing_plan_id":"cebpf4jnsgd1na2vs0mg"},{"bike_id":"6e7a5f43-2bfc-4b79-a492-239c527fb546","system_id":"levelo_inurba_marseille","lat":43.2968,"lon":5.37291,"is_reserved":false,"is_disabled":false,"rental_uris":{"android":"levelo://app?vid=6e7a5f43-2bfc-4b79-a492-239c527fb546","ios":"levelo://app?vid=6e7a5f43-2bfc-4b79-a492-239c527fb546"},"vehicle_type_id":"4","last_reported":1721506102,"current_range_meters":14000,"station_id":"ce4bgk12rcd13ifvqbj0","pricing_plan_id":"cebpf4jnsgd1na2vs0mg"},{"bike_id":"05bdae84-1067-465f-ae1f-1f8e13b8e143","system_id":"levelo_inurba_marseille","lat":43.32905,"lon":5.36705,"is_reserved":false,"is_disabled":false,"rental_uris":{"android":"levelo://app?vid=05bdae84-1067-465f-ae1f-1f8e13b8e143","ios":"levelo://app?vid=05bdae84-1067-465f-ae1f-1f8e13b8e143"},"vehicle_type_id":"4","last_reported":1721506102,"current_range_meters":2400,"station_id":"","pricing_plan_id":"cebpf4jnsgd1na2vs0mg"},{"bike_id":"4fe8f272-486b-4977-8f85-739296f8933a","system_id":"levelo_inurba_marseille","lat":43.297035,"lon":5.37345,"is_reserved":false,"is_disabled":false,"rental_uris":{"android":"levelo://app?vid=4fe8f272-486b-4977-8f85-739296f8933a","ios":"levelo://app?vid=4fe8f272-486b-4977-8f85-739296f8933a"},"vehicle_type_id":"4","last_reported":1721506102,"current_range_meters":0,"station_id":"","pricing_plan_id":"cebpf4jnsgd1na2vs0mg"},{"bike_id":"c9c1e805-a8d7-4950-89ad-2d7e1246eb80","system_id":"levelo_inurba_marseille","lat":43.2968,"lon":5.37291,"is_reserved":false,"is_disabled":false,"rental_uris":{"android":"levelo://app?vid=c9c1e805-a8d7-4950-89ad-2d7e1246eb80","ios":"levelo://app?vid=c9c1e805-a8d7-4950-89ad-2d7e1246eb80"},"vehicle_type_id":"4","last_reported":1721506102,"current_range_meters":20400,"station_id":"ce4bgk12rcd13ifvqbj0","pricing_plan_id":"cebpf4jnsgd1na2vs0mg"},{"bike_id":"773d902b-2b0e-4f31-b970-a9fcdcc5fe93","system_id":"levelo_inurba_marseille","lat":43.30898,"lon":5.38921,"is_reserved":false,"is_disabled":false,"rental_uris":{"android":"levelo://app?vid=773d902b-2b0e-4f31-b970-a9fcdcc5fe93","ios":"levelo://app?vid=773d902b-2b0e-4f31-b970-a9fcdcc5fe93"},"vehicle_type_id":"4","last_reported":1721506102,"current_range_meters":21200,"station_id":"","pricing_plan_id":"cebpf4jnsgd1na2vs0mg"},{"bike_id":"9efbe4e4-95d0-4dfa-9f15-77b83b6ece3b","system_id":"levelo_inurba_marseille","lat":43.296131,"lon":5.370791,"is_reserved":false,"is_disabled":false,"rental_uris":{"android":"levelo://app?vid=9efbe4e4-95d0-4dfa-9f15-77b83b6ece3b","ios":"levelo://app?vid=9efbe4e4-95d0-4dfa-9f15-77b83b6ece3b"},"vehicle_type_id":"4","last_reported":1721506102,"current_range_meters":30800,"station_id":"ce4bgnh2rcd13ifvqc0g","pricing_plan_id":"cebpf4jnsgd1na2vs0mg"},{"bike_id":"6139fec1-c793-40bd-905a-e72d111d6ecc","system_id":"levelo_inurba_marseille","lat":43.296131,"lon":5.370773,"is_reserved":false,"is_disabled":false,"rental_uris":{"android":"levelo://app?vid=6139fec1-c793-40bd-905a-e72d111d6ecc","ios":"levelo://app?vid=6139fec1-c793-40bd-905a-e72d111d6ecc"},"vehicle_type_id":"4","last_reported":1721506102,"current_range_meters":18000,"station_id":"ce4bgnh2rcd13ifvqc0g","pricing_plan_id":"cebpf4jnsgd1na2vs0mg"},{"bike_id":"3bf82f40-cb4f-4427-ae35-1450e61b7058","system_id":"levelo_inurba_marseille","lat":43.296131,"lon":5.370773,"is_reserved":false,"is_disabled":false,"rental_uris":{"android":"levelo://app?vid=3bf82f40-cb4f-4427-ae35-1450e61b7058","ios":"levelo://app?vid=3bf82f40-cb4f-4427-ae35-1450e61b7058"},"vehicle_type_id":"4","last_reported":1721506102,"current_range_meters":26400,"station_id":"ce4bgnh2rcd13ifvqc0g","pricing_plan_id":"cebpf4jnsgd1na2vs0mg"},{"bike_id":"a58ade34-84b3-4706-b3cd-90675adc9cac","system_id":"levelo_inurba_marseille","lat":43.296131,"lon":5.370791,"is_reserved":false,"is_disabled":false,"rental_uris":{"android":"levelo://app?vid=a58ade34-84b3-4706-b3cd-90675adc9cac","ios":"levelo://app?vid=a58ade34-84b3-4706-b3cd-90675adc9cac"},"vehicle_type_id":"4","last_reported":1721506102,"current_range_meters":18800,"station_id":"ce4bgnh2rcd13ifvqc0g","pricing_plan_id":"cebpf4jnsgd1na2vs0mg"},{"bike_id":"6b826753-1d59-423c-9490-67533a4b818a","system_id":"levelo_inurba_marseille","lat":43.29573,"lon":5.367355,"is_reserved":false,"is_disabled":false,"rental_uris":{"android":"levelo://app?vid=6b826753-1d59-423c-9490-67533a4b818a","ios":"levelo://app?vid=6b826753-1d59-423c-9490-67533a4b818a"},"vehicle_type_id":"4","last_reported":1721506102,"current_range_meters":7200,"station_id":"ce4bgph2rcd13ifvqc2g","pricing_plan_id":"cebpf4jnsgd1na2vs0mg"},{"bike_id":"0b2cf045-10ca-439e-8055-03e1ae8db2a2","system_id":"levelo_inurba_marseille","lat":43.29573,"lon":5.367355,"is_reserved":false,"is_disabled":false,"rental_uris":{"android":"levelo://app?vid=0b2cf045-10ca-439e-8055-03e1ae8db2a2","ios":"levelo://app?vid=0b2cf045-10ca-439e-8055-03e1ae8db2a2"},"vehicle_type_id":"4","last_reported":1721506102,"current_range_meters":29200,"station_id":"ce4bgph2rcd13ifvqc2g","pricing_plan_id":"cebpf4jnsgd1na2vs0mg"},{"bike_id":"24b2bd52-d538-4c8c-8a4c-f14dadf34d94","system_id":"levelo_inurba_marseille","lat":43.296935,"lon":5.376544,"is_reserved":false,"is_disabled":false,"rental_uris":{"android":"levelo://app?vid=24b2bd52-d538-4c8c-8a4c-f14dadf34d94","ios":"levelo://app?vid=24b2bd52-d538-4c8c-8a4c-f14dadf34d94"},"vehicle_type_id":"4","last_reported":1721506102,"current_range_meters":0,"station_id":"ce4bgkh2rcd13ifvqbl0","pricing_plan_id":"cebpf4jnsgd1na2vs0mg"},{"bike_id":"34d04bed-a263-4b07-b4c3-e40ea20df35e","system_id":"levelo_inurba_marseille","lat":43.309589,"lon":5.390258,"is_reserved":false,"is_disabled":false,"rental_uris":{"android":"levelo://app?vid=34d04bed-a263-4b07-b4c3-e40ea20df35e","ios":"levelo://app?vid=34d04bed-a263-4b07-b4c3-e40ea20df35e"},"vehicle_type_id":"4","last_reported":1721506102,"current_range_meters":26800,"station_id":"ce4bgup2rcd13ifvqco0","pricing_plan_id":"cebpf4jnsgd1na2vs0mg"},{"bike_id":"fff566f2-16e2-4b4b-939f-b3d9fd18d309","system_id":"levelo_inurba_marseille","lat":43.29711,"lon":5.37694,"is_reserved":false,"is_disabled":false,"rental_uris":{"android":"levelo://app?vid=fff566f2-16e2-4b4b-939f-b3d9fd18d309","ios":"levelo://app?vid=fff566f2-16e2-4b4b-939f-b3d9fd18d309"},"vehicle_type_id":"4","last_reported":1721506102,"current_range_meters":18000,"station_id":"ce4bgkh2rcd13ifvqbl0","pricing_plan_id":"cebpf4jnsgd1na2vs0mg"},{"bike_id":"55229fe6-5c67-4283-8b86-be963dd46776","system_id":"levelo_inurba_marseille","lat":43.309495,"lon":5.390225,"is_reserved":false,"is_disabled":false,"rental_uris":{"android":"levelo://app?vid=55229fe6-5c67-4283-8b86-be963dd46776","ios":"levelo://app?vid=55229fe6-5c67-4283-8b86-be963dd46776"},"vehicle_type_id":"4","last_reported":1721506102,"current_range_meters":18000,"station_id":"ce4bgup2rcd13ifvqco0","pricing_plan_id":"cebpf4jnsgd1na2vs0mg"},{"bike_id":"f610f0ac-f89a-4358-bde1-8a8359331b18","system_id":"levelo_inurba_marseille","lat":43.30952,"lon":5.39027,"is_reserved":false,"is_disabled":false,"rental_uris":{"android":"levelo://app?vid=f610f0ac-f89a-4358-bde1-8a8359331b18","ios":"levelo://app?vid=f610f0ac-f89a-4358-bde1-8a8359331b18"},"vehicle_type_id":"4","last_reported":1721506102,"current_range_meters":4800,"station_id":"ce4bgup2rcd13ifvqco0","pricing_plan_id":"cebpf4jnsgd1na2vs0mg"},{"bike_id":"32ea673f-5aad-45bc-a7fe-b60ddf8c9101","system_id":"levelo_inurba_marseille","lat":43.30952,"lon":5.39029,"is_reserved":false,"is_disabled":false,"rental_uris":{"android":"levelo://app?vid=32ea673f-5aad-45bc-a7fe-b60ddf8c9101","ios":"levelo://app?vid=32ea673f-5aad-45bc-a7fe-b60ddf8c9101"},"vehicle_type_id":"4","last_reported":1721506102,"current_range_meters":0,"station_id":"ce4bgup2rcd13ifvqco0","pricing_plan_id":"cebpf4jnsgd1na2vs0mg"},{"bike_id":"630efb08-8bb0-465a-b8be-881f5569d832","system_id":"levelo_inurba_marseille","lat":43.296921,"lon":5.376579,"is_reserved":false,"is_disabled":false,"rental_uris":{"android":"levelo://app?vid=630efb08-8bb0-465a-b8be-881f5569d832","ios":"levelo://app?vid=630efb08-8bb0-465a-b8be-881f5569d832"},"vehicle_type_id":"4","last_reported":1721506102,"current_range_meters":31200,"station_id":"ce4bgkh2rcd13ifvqbl0","pricing_plan_id":"cebpf4jnsgd1na2vs0mg"},{"bike_id":"14b8da56-a0c8-450f-8e32-caa28ffae636","system_id":"levelo_inurba_marseille","lat":43.309589,"lon":5.390258,"is_reserved":false,"is_disabled":false,"rental_uris":{"android":"levelo://app?vid=14b8da56-a0c8-450f-8e32-caa28ffae636","ios":"levelo://app?vid=14b8da56-a0c8-450f-8e32-caa28ffae636"},"vehicle_type_id":"4","last_reported":1721506102,"current_range_meters":16800,"station_id":"ce4bgup2rcd13ifvqco0","pricing_plan_id":"cebpf4jnsgd1na2vs0mg"},{"bike_id":"091af877-a5ce-43de-960d-bba79d79a625","system_id":"levelo_inurba_marseille","lat":43.30953,"lon":5.39032,"is_reserved":false,"is_disabled":false,"rental_uris":{"android":"levelo://app?vid=091af877-a5ce-43de-960d-bba79d79a625","ios":"levelo://app?vid=091af877-a5ce-43de-960d-bba79d79a625"},"vehicle_type_id":"4","last_reported":1721506102,"current_range_meters":0,"station_id":"ce4bgup2rcd13ifvqco0","pricing_plan_id":"cebpf4jnsgd1na2vs0mg"},{"bike_id":"aad326e9-7979-41e7-b56f-1885908bfb57","system_id":"levelo_inurba_marseille","lat":43.30953,"lon":5.39032,"is_reserved":false,"is_disabled":false,"rental_uris":{"android":"levelo://app?vid=aad326e9-7979-41e7-b56f-1885908bfb57","ios":"levelo://app?vid=aad326e9-7979-41e7-b56f-1885908bfb57"},"vehicle_type_id":"4","last_reported":1721506102,"current_range_meters":4000,"station_id":"ce4bgup2rcd13ifvqco0","pricing_plan_id":"cebpf4jnsgd1na2vs0mg"},{"bike_id":"f9add01e-b56b-4289-b17b-217415a0ab34","system_id":"levelo_inurba_marseille","lat":43.309589,"lon":5.390258,"is_reserved":false,"is_disabled":false,"rental_uris":{"android":"levelo://app?vid=f9add01e-b56b-4289-b17b-217415a0ab34","ios":"levelo://app?vid=f9add01e-b56b-4289-b17b-217415a0ab34"},"vehicle_type_id":"4","last_reported":1721506102,"current_range_meters":19200,"station_id":"ce4bgup2rcd13ifvqco0","pricing_plan_id":"cebpf4jnsgd1na2vs0mg"},{"bike_id":"724d32ec-4e8e-4b16-ad90-6513912d1d70","system_id":"levelo_inurba_marseille","lat":43.309589,"lon":5.390258,"is_reserved":false,"is_disabled":false,"rental_uris":{"android":"levelo://app?vid=724d32ec-4e8e-4b16-ad90-6513912d1d70","ios":"levelo://app?vid=724d32ec-4e8e-4b16-ad90-6513912d1d70"},"vehicle_type_id":"4","last_reported":1721506102,"current_range_meters":14800,"station_id":"ce4bgup2rcd13ifvqco0","pricing_plan_id":"cebpf4jnsgd1na2vs0mg"},{"bike_id":"e76ee844-607d-46b0-ae79-9133e249f079","system_id":"levelo_inurba_marseille","lat":43.3095,"lon":5.39033,"is_reserved":false,"is_disabled":false,"rental_uris":{"android":"levelo://app?vid=e76ee844-607d-46b0-ae79-9133e249f079","ios":"levelo://app?vid=e76ee844-607d-46b0-ae79-9133e249f079"},"vehicle_type_id":"4","last_reported":1721506102,"current_range_meters":22800,"station_id":"ce4bgup2rcd13ifvqco0","pricing_plan_id":"cebpf4jnsgd1na2vs0mg"},{"bike_id":"940d55ed-53a4-40d6-bb55-1f86c23245cf","system_id":"levelo_inurba_marseille","lat":43.30946,"lon":5.39032,"is_reserved":false,"is_disabled":false,"rental_uris":{"android":"levelo://app?vid=940d55ed-53a4-40d6-bb55-1f86c23245cf","ios":"levelo://app?vid=940d55ed-53a4-40d6-bb55-1f86c23245cf"},"vehicle_type_id":"4","last_reported":1721506102,"current_range_meters":0,"station_id":"ce4bgup2rcd13ifvqco0","pricing_plan_id":"cebpf4jnsgd1na2vs0mg"},{"bike_id":"cec4391b-664e-40be-8c62-f0f6a627ed64","system_id":"levelo_inurba_marseille","lat":43.309589,"lon":5.390258,"is_reserved":false,"is_disabled":false,"rental_uris":{"android":"levelo://app?vid=cec4391b-664e-40be-8c62-f0f6a627ed64","ios":"levelo://app?vid=cec4391b-664e-40be-8c62-f0f6a627ed64"},"vehicle_type_id":"4","last_reported":1721506102,"current_range_meters":28400,"station_id":"ce4bgup2rcd13ifvqco0","pricing_plan_id":"cebpf4jnsgd1na2vs0mg"},{"bike_id":"9389ba00-e9c3-49b9-affb-1d4f077c53bf","system_id":"levelo_inurba_marseille","lat":43.309589,"lon":5.390258,"is_reserved":false,"is_disabled":false,"rental_uris":{"android":"levelo://app?vid=9389ba00-e9c3-49b9-affb-1d4f077c53bf","ios":"levelo://app?vid=9389ba00-e9c3-49b9-affb-1d4f077c53bf"},"vehicle_type_id":"4","last_reported":1721506102,"current_range_meters":8400,"station_id":"ce4bgup2rcd13ifvqco0","pricing_plan_id":"cebpf4jnsgd1na2vs0mg"},{"bike_id":"469a29e9-3a53-4718-ab96-a2480ce8c429","system_id":"levelo_inurba_marseille","lat":43.309589,"lon":5.390258,"is_reserved":false,"is_disabled":false,"rental_uris":{"android":"levelo://app?vid=469a29e9-3a53-4718-ab96-a2480ce8c429","ios":"levelo://app?vid=469a29e9-3a53-4718-ab96-a2480ce8c429"},"vehicle_type_id":"4","last_reported":1721506102,"current_range_meters":10400,"station_id":"ce4bgup2rcd13ifvqco0","pricing_plan_id":"cebpf4jnsgd1na2vs0mg"},{"bike_id":"3da75c95-f3e9-48b0-a8cb-648aa9cc0b3b","system_id":"levelo_inurba_marseille","lat":43.309589,"lon":5.390258,"is_reserved":false,"is_disabled":false,"rental_uris":{"android":"levelo://app?vid=3da75c95-f3e9-48b0-a8cb-648aa9cc0b3b","ios":"levelo://app?vid=3da75c95-f3e9-48b0-a8cb-648aa9cc0b3b"},"vehicle_type_id":"4","last_reported":1721506102,"current_range_meters":6400,"station_id":"ce4bgup2rcd13ifvqco0","pricing_plan_id":"cebpf4jnsgd1na2vs0mg"},{"bike_id":"6b6f62f6-17a0-485b-ac41-19ce074c43ef","system_id":"levelo_inurba_marseille","lat":43.309589,"lon":5.390258,"is_reserved":false,"is_disabled":false,"rental_uris":{"android":"levelo://app?vid=6b6f62f6-17a0-485b-ac41-19ce074c43ef","ios":"levelo://app?vid=6b6f62f6-17a0-485b-ac41-19ce074c43ef"},"vehicle_type_id":"4","last_reported":1721506102,"current_range_meters":0,"station_id":"ce4bgup2rcd13ifvqco0","pricing_plan_id":"cebpf4jnsgd1na2vs0mg"},{"bike_id":"ebb531ac-8160-4045-a6d9-424175f80b01","system_id":"levelo_inurba_marseille","lat":43.309589,"lon":5.390258,"is_reserved":false,"is_disabled":false,"rental_uris":{"android":"levelo://app?vid=ebb531ac-8160-4045-a6d9-424175f80b01","ios":"levelo://app?vid=ebb531ac-8160-4045-a6d9-424175f80b01"},"vehicle_type_id":"4","last_reported":1721506102,"current_range_meters":8000,"station_id":"ce4bgup2rcd13ifvqco0","pricing_plan_id":"cebpf4jnsgd1na2vs0mg"},{"bike_id":"06de800e-6c64-450b-9ac9-fe17a6e7e1e7","system_id":"levelo_inurba_marseille","lat":43.309589,"lon":5.390258,"is_reserved":false,"is_disabled":false,"rental_uris":{"android":"levelo://app?vid=06de800e-6c64-450b-9ac9-fe17a6e7e1e7","ios":"levelo://app?vid=06de800e-6c64-450b-9ac9-fe17a6e7e1e7"},"vehicle_type_id":"4","last_reported":1721506102,"current_range_meters":6800,"station_id":"ce4bgup2rcd13ifvqco0","pricing_plan_id":"cebpf4jnsgd1na2vs0mg"},{"bike_id":"cf358a63-5b8c-4bba-8023-26a50d5db6ba","system_id":"levelo_inurba_marseille","lat":43.309589,"lon":5.390258,"is_reserved":false,"is_disabled":false,"rental_uris":{"android":"levelo://app?vid=cf358a63-5b8c-4bba-8023-26a50d5db6ba","ios":"levelo://app?vid=cf358a63-5b8c-4bba-8023-26a50d5db6ba"},"vehicle_type_id":"4","last_reported":1721506102,"current_range_meters":31200,"station_id":"ce4bgup2rcd13ifvqco0","pricing_plan_id":"cebpf4jnsgd1na2vs0mg"},{"bike_id":"58770c48-df64-4702-8df8-55b10ce92e56","system_id":"levelo_inurba_marseille","lat":43.309589,"lon":5.390258,"is_reserved":false,"is_disabled":false,"rental_uris":{"android":"levelo://app?vid=58770c48-df64-4702-8df8-55b10ce92e56","ios":"levelo://app?vid=58770c48-df64-4702-8df8-55b10ce92e56"},"vehicle_type_id":"4","last_reported":1721506102,"current_range_meters":31600,"station_id":"ce4bgup2rcd13ifvqco0","pricing_plan_id":"cebpf4jnsgd1na2vs0mg"},{"bike_id":"396180e1-487c-40ac-9f07-a01a68a78fc2","system_id":"levelo_inurba_marseille","lat":43.309589,"lon":5.390258,"is_reserved":false,"is_disabled":false,"rental_uris":{"android":"levelo://app?vid=396180e1-487c-40ac-9f07-a01a68a78fc2","ios":"levelo://app?vid=396180e1-487c-40ac-9f07-a01a68a78fc2"},"vehicle_type_id":"4","last_reported":1721506102,"current_range_meters":6000,"station_id":"ce4bgup2rcd13ifvqco0","pricing_plan_id":"cebpf4jnsgd1na2vs0mg"},{"bike_id":"e8dc7ea3-49f1-4ff8-b31e-93acf8c004f0","system_id":"levelo_inurba_marseille","lat":43.309589,"lon":5.390258,"is_reserved":false,"is_disabled":false,"rental_uris":{"android":"levelo://app?vid=e8dc7ea3-49f1-4ff8-b31e-93acf8c004f0","ios":"levelo://app?vid=e8dc7ea3-49f1-4ff8-b31e-93acf8c004f0"},"vehicle_type_id":"4","last_reported":1721506102,"current_range_meters":0,"station_id":"ce4bgup2rcd13ifvqco0","pricing_plan_id":"cebpf4jnsgd1na2vs0mg"},{"bike_id":"183d913a-5725-4ad9-97f8-fa939119866d","system_id":"levelo_inurba_marseille","lat":43.317557,"lon":5.390173,"is_reserved":false,"is_disabled":false,"rental_uris":{"android":"levelo://app?vid=183d913a-5725-4ad9-97f8-fa939119866d","ios":"levelo://app?vid=183d913a-5725-4ad9-97f8-fa939119866d"},"vehicle_type_id":"4","last_reported":1721506102,"current_range_meters":800,"station_id":"ce4bhqp2rcd13ifvqhng","pricing_plan_id":"cebpf4jnsgd1na2vs0mg"},{"bike_id":"bce84415-d8e8-4cd0-b98f-fff1c895c9cb","system_id":"levelo_inurba_marseille","lat":43.295748,"lon":5.37522,"is_reserved":false,"is_disabled":false,"rental_uris":{"android":"levelo://app?vid=bce84415-d8e8-4cd0-b98f-fff1c895c9cb","ios":"levelo://app?vid=bce84415-d8e8-4cd0-b98f-fff1c895c9cb"},"vehicle_type_id":"4","last_reported":1721506102,"current_range_meters":29600,"station_id":"ce4bgh92rcd13ifvqb50","pricing_plan_id":"cebpf4jnsgd1na2vs0mg"},{"bike_id":"9009d8c0-954c-488b-bd23-9a59c02b5d90","system_id":"levelo_inurba_marseille","lat":43.29786,"lon":5.38086,"is_reserved":false,"is_disabled":false,"rental_uris":{"android":"levelo://app?vid=9009d8c0-954c-488b-bd23-9a59c02b5d90","ios":"levelo://app?vid=9009d8c0-954c-488b-bd23-9a59c02b5d90"},"vehicle_type_id":"4","last_reported":1721506102,"current_range_meters":0,"station_id":"ce4bgip2rcd13ifvqbb0","pricing_plan_id":"cebpf4jnsgd1na2vs0mg"},{"bike_id":"f175eaa7-94f5-49b8-9451-a5627956c325","system_id":"levelo_inurba_marseille","lat":43.29574,"lon":5.37511,"is_reserved":false,"is_disabled":false,"rental_uris":{"android":"levelo://app?vid=f175eaa7-94f5-49b8-9451-a5627956c325","ios":"levelo://app?vid=f175eaa7-94f5-49b8-9451-a5627956c325"},"vehicle_type_id":"4","last_reported":1721506102,"current_range_meters":0,"station_id":"ce4bgh92rcd13ifvqb50","pricing_plan_id":"cebpf4jnsgd1na2vs0mg"},{"bike_id":"36536f83-88ed-40e5-9481-a3c682b499d0","system_id":"levelo_inurba_marseille","lat":43.295748,"lon":5.37522,"is_reserved":false,"is_disabled":false,"rental_uris":{"android":"levelo://app?vid=36536f83-88ed-40e5-9481-a3c682b499d0","ios":"levelo://app?vid=36536f83-88ed-40e5-9481-a3c682b499d0"},"vehicle_type_id":"4","last_reported":1721506102,"current_range_meters":16400,"station_id":"ce4bgh92rcd13ifvqb50","pricing_plan_id":"cebpf4jnsgd1na2vs0mg"},{"bike_id":"3779f880-dfeb-4c83-ae11-a4fbc5251481","system_id":"levelo_inurba_marseille","lat":43.30431,"lon":5.38888,"is_reserved":false,"is_disabled":false,"rental_uris":{"android":"levelo://app?vid=3779f880-dfeb-4c83-ae11-a4fbc5251481","ios":"levelo://app?vid=3779f880-dfeb-4c83-ae11-a4fbc5251481"},"vehicle_type_id":"4","last_reported":1721506102,"current_range_meters":31200,"station_id":"ce4bgk12rcd13ifvqbi0","pricing_plan_id":"cebpf4jnsgd1na2vs0mg"},{"bike_id":"bb72bb30-c494-4bf6-b814-695b0ae969a9","system_id":"levelo_inurba_marseille","lat":43.3192,"lon":5.39019,"is_reserved":false,"is_disabled":false,"rental_uris":{"android":"levelo://app?vid=bb72bb30-c494-4bf6-b814-695b0ae969a9","ios":"levelo://app?vid=bb72bb30-c494-4bf6-b814-695b0ae969a9"},"vehicle_type_id":"4","last_reported":1721506102,"current_range_meters":22000,"station_id":"","pricing_plan_id":"cebpf4jnsgd1na2vs0mg"},{"bike_id":"4d21bfb5-fb6b-4f0c-8e75-f6c332cabbd4","system_id":"levelo_inurba_marseille","lat":43.296277,"lon":5.377108,"is_reserved":false,"is_disabled":false,"rental_uris":{"android":"levelo://app?vid=4d21bfb5-fb6b-4f0c-8e75-f6c332cabbd4","ios":"levelo://app?vid=4d21bfb5-fb6b-4f0c-8e75-f6c332cabbd4"},"vehicle_type_id":"4","last_reported":1721506102,"current_range_meters":22800,"station_id":"ce4bgi92rcd13ifvqb90","pricing_plan_id":"cebpf4jnsgd1na2vs0mg"},{"bike_id":"904c64ef-f0fb-402d-8250-37123fb226d0","system_id":"levelo_inurba_marseille","lat":43.29615,"lon":5.37719,"is_reserved":false,"is_disabled":false,"rental_uris":{"android":"levelo://app?vid=904c64ef-f0fb-402d-8250-37123fb226d0","ios":"levelo://app?vid=904c64ef-f0fb-402d-8250-37123fb226d0"},"vehicle_type_id":"4","last_reported":1721506102,"current_range_meters":0,"station_id":"ce4bgi92rcd13ifvqb90","pricing_plan_id":"cebpf4jnsgd1na2vs0mg"},{"bike_id":"6c314f6c-86e6-4ae9-b033-f149c58bf4f1","system_id":"levelo_inurba_marseille","lat":43.299724,"lon":5.384848,"is_reserved":false,"is_disabled":false,"rental_uris":{"android":"levelo://app?vid=6c314f6c-86e6-4ae9-b033-f149c58bf4f1","ios":"levelo://app?vid=6c314f6c-86e6-4ae9-b033-f149c58bf4f1"},"vehicle_type_id":"4","last_reported":1721506102,"current_range_meters":31200,"station_id":"ce4bgj92rcd13ifvqbd0","pricing_plan_id":"cebpf4jnsgd1na2vs0mg"},{"bike_id":"bef6e13f-8895-478a-bbb3-09f8643e5f4b","system_id":"levelo_inurba_marseille","lat":43.295279,"lon":5.375048,"is_reserved":false,"is_disabled":false,"rental_uris":{"android":"levelo://app?vid=bef6e13f-8895-478a-bbb3-09f8643e5f4b","ios":"levelo://app?vid=bef6e13f-8895-478a-bbb3-09f8643e5f4b"},"vehicle_type_id":"4","last_reported":1721506102,"current_range_meters":25600,"station_id":"ce4bgkp2rcd13ifvqbmg","pricing_plan_id":"cebpf4jnsgd1na2vs0mg"},{"bike_id":"78980916-bff7-440e-8f86-69b725bd49e7","system_id":"levelo_inurba_marseille","lat":43.299707,"lon":5.384859,"is_reserved":false,"is_disabled":false,"rental_uris":{"android":"levelo://app?vid=78980916-bff7-440e-8f86-69b725bd49e7","ios":"levelo://app?vid=78980916-bff7-440e-8f86-69b725bd49e7"},"vehicle_type_id":"4","last_reported":1721506102,"current_range_meters":0,"station_id":"ce4bgj92rcd13ifvqbd0","pricing_plan_id":"cebpf4jnsgd1na2vs0mg"},{"bike_id":"d50d56b3-af81-4166-8c6b-04f7297bd3ea","system_id":"levelo_inurba_marseille","lat":43.29968,"lon":5.38506,"is_reserved":false,"is_disabled":false,"rental_uris":{"android":"levelo://app?vid=d50d56b3-af81-4166-8c6b-04f7297bd3ea","ios":"levelo://app?vid=d50d56b3-af81-4166-8c6b-04f7297bd3ea"},"vehicle_type_id":"4","last_reported":1721506102,"current_range_meters":31200,"station_id":"ce4bgj92rcd13ifvqbd0","pricing_plan_id":"cebpf4jnsgd1na2vs0mg"},{"bike_id":"18491e9b-089a-423d-92a6-2224fb4ac1cb","system_id":"levelo_inurba_marseille","lat":43.30473,"lon":5.39011,"is_reserved":false,"is_disabled":false,"rental_uris":{"android":"levelo://app?vid=18491e9b-089a-423d-92a6-2224fb4ac1cb","ios":"levelo://app?vid=18491e9b-089a-423d-92a6-2224fb4ac1cb"},"vehicle_type_id":"4","last_reported":1721506102,"current_range_meters":2400,"station_id":"","pricing_plan_id":"cebpf4jnsgd1na2vs0mg"},{"bike_id":"64c83d4a-b449-4397-b3e7-b3b6831f5742","system_id":"levelo_inurba_marseille","lat":43.309589,"lon":5.390258,"is_reserved":false,"is_disabled":false,"rental_uris":{"android":"levelo://app?vid=64c83d4a-b449-4397-b3e7-b3b6831f5742","ios":"levelo://app?vid=64c83d4a-b449-4397-b3e7-b3b6831f5742"},"vehicle_type_id":"4","last_reported":1721506102,"current_range_meters":0,"station_id":"ce4bgup2rcd13ifvqco0","pricing_plan_id":"cebpf4jnsgd1na2vs0mg"},{"bike_id":"d6200662-59a3-4bfc-83b2-5618347457ad","system_id":"levelo_inurba_marseille","lat":43.292644,"lon":5.384257,"is_reserved":false,"is_disabled":false,"rental_uris":{"android":"levelo://app?vid=d6200662-59a3-4bfc-83b2-5618347457ad","ios":"levelo://app?vid=d6200662-59a3-4bfc-83b2-5618347457ad"},"vehicle_type_id":"4","last_reported":1721506102,"current_range_meters":800,"station_id":"ce4bh692rcd13ifvqea0","pricing_plan_id":"cebpf4jnsgd1na2vs0mg"},{"bike_id":"30d4fdbe-ecdb-4530-8f43-00e699561871","system_id":"levelo_inurba_marseille","lat":43.32367,"lon":5.388836,"is_reserved":false,"is_disabled":false,"rental_uris":{"android":"levelo://app?vid=30d4fdbe-ecdb-4530-8f43-00e699561871","ios":"levelo://app?vid=30d4fdbe-ecdb-4530-8f43-00e699561871"},"vehicle_type_id":"4","last_reported":1721506102,"current_range_meters":8000,"station_id":"ce4bhqp2rcd13ifvqhog","pricing_plan_id":"cebpf4jnsgd1na2vs0mg"},{"bike_id":"5b46c555-81a4-4d11-bec8-11588f937b4c","system_id":"levelo_inurba_marseille","lat":43.32367,"lon":5.388836,"is_reserved":false,"is_disabled":false,"rental_uris":{"android":"levelo://app?vid=5b46c555-81a4-4d11-bec8-11588f937b4c","ios":"levelo://app?vid=5b46c555-81a4-4d11-bec8-11588f937b4c"},"vehicle_type_id":"4","last_reported":1721506102,"current_range_meters":22400,"station_id":"ce4bhqp2rcd13ifvqhog","pricing_plan_id":"cebpf4jnsgd1na2vs0mg"},{"bike_id":"a714632d-44c0-4d33-8aa9-55a02a942e0d","system_id":"levelo_inurba_marseille","lat":43.324985,"lon":5.387865,"is_reserved":false,"is_disabled":false,"rental_uris":{"android":"levelo://app?vid=a714632d-44c0-4d33-8aa9-55a02a942e0d","ios":"levelo://app?vid=a714632d-44c0-4d33-8aa9-55a02a942e0d"},"vehicle_type_id":"4","last_reported":1721506102,"current_range_meters":12000,"station_id":"","pricing_plan_id":"cebpf4jnsgd1na2vs0mg"},{"bike_id":"3e530205-d3c3-48f4-80af-9b19a9884bda","system_id":"levelo_inurba_marseille","lat":43.29602,"lon":5.381084,"is_reserved":false,"is_disabled":false,"rental_uris":{"android":"levelo://app?vid=3e530205-d3c3-48f4-80af-9b19a9884bda","ios":"levelo://app?vid=3e530205-d3c3-48f4-80af-9b19a9884bda"},"vehicle_type_id":"4","last_reported":1721506102,"current_range_meters":27200,"station_id":"ce4bgl12rcd13ifvqbo0","pricing_plan_id":"cebpf4jnsgd1na2vs0mg"},{"bike_id":"2dffea84-66f0-4cb1-a4f7-85c5db3a037a","system_id":"levelo_inurba_marseille","lat":43.293259,"lon":5.371586,"is_reserved":false,"is_disabled":false,"rental_uris":{"android":"levelo://app?vid=2dffea84-66f0-4cb1-a4f7-85c5db3a037a","ios":"levelo://app?vid=2dffea84-66f0-4cb1-a4f7-85c5db3a037a"},"vehicle_type_id":"4","last_reported":1721506102,"current_range_meters":0,"station_id":"ce4bgh92rcd13ifvqb40","pricing_plan_id":"cebpf4jnsgd1na2vs0mg"},{"bike_id":"27667a25-9da7-45ce-80f0-c3e1e40b5ab9","system_id":"levelo_inurba_marseille","lat":43.293015,"lon":5.371754,"is_reserved":false,"is_disabled":false,"rental_uris":{"android":"levelo://app?vid=27667a25-9da7-45ce-80f0-c3e1e40b5ab9","ios":"levelo://app?vid=27667a25-9da7-45ce-80f0-c3e1e40b5ab9"},"vehicle_type_id":"4","last_reported":1721506102,"current_range_meters":0,"station_id":"ce4bgh92rcd13ifvqb40","pricing_plan_id":"cebpf4jnsgd1na2vs0mg"},{"bike_id":"aeac798a-4c40-4378-a04e-85262a68d773","system_id":"levelo_inurba_marseille","lat":43.292749,"lon":5.368402,"is_reserved":false,"is_disabled":false,"rental_uris":{"android":"levelo://app?vid=aeac798a-4c40-4378-a04e-85262a68d773","ios":"levelo://app?vid=aeac798a-4c40-4378-a04e-85262a68d773"},"vehicle_type_id":"4","last_reported":1721506102,"current_range_meters":9600,"station_id":"ce4bhbp2rcd13ifvqesg","pricing_plan_id":"cebpf4jnsgd1na2vs0mg"},{"bike_id":"2bb6f90a-bf1e-486b-8751-7df49e5f89de","system_id":"levelo_inurba_marseille","lat":43.332733,"lon":5.362483,"is_reserved":false,"is_disabled":false,"rental_uris":{"android":"levelo://app?vid=2bb6f90a-bf1e-486b-8751-7df49e5f89de","ios":"levelo://app?vid=2bb6f90a-bf1e-486b-8751-7df49e5f89de"},"vehicle_type_id":"4","last_reported":1721506102,"current_range_meters":7200,"station_id":"","pricing_plan_id":"cebpf4jnsgd1na2vs0mg"},{"bike_id":"5baad4d0-b7a4-4bd0-8096-dc17cca95299","system_id":"levelo_inurba_marseille","lat":43.293025,"lon":5.37444,"is_reserved":false,"is_disabled":false,"rental_uris":{"android":"levelo://app?vid=5baad4d0-b7a4-4bd0-8096-dc17cca95299","ios":"levelo://app?vid=5baad4d0-b7a4-4bd0-8096-dc17cca95299"},"vehicle_type_id":"4","last_reported":1721506102,"current_range_meters":31200,"station_id":"ce4bgi12rcd13ifvqb70","pricing_plan_id":"cebpf4jnsgd1na2vs0mg"},{"bike_id":"d36c1422-12c5-49e7-9ebe-224afa2b8443","system_id":"levelo_inurba_marseille","lat":43.293009,"lon":5.374584,"is_reserved":false,"is_disabled":false,"rental_uris":{"android":"levelo://app?vid=d36c1422-12c5-49e7-9ebe-224afa2b8443","ios":"levelo://app?vid=d36c1422-12c5-49e7-9ebe-224afa2b8443"},"vehicle_type_id":"4","last_reported":1721506102,"current_range_meters":400,"station_id":"ce4bgi12rcd13ifvqb70","pricing_plan_id":"cebpf4jnsgd1na2vs0mg"},{"bike_id":"385586c0-6630-4c77-854f-e960f2f49f4f","system_id":"levelo_inurba_marseille","lat":43.292958,"lon":5.374506,"is_reserved":false,"is_disabled":false,"rental_uris":{"android":"levelo://app?vid=385586c0-6630-4c77-854f-e960f2f49f4f","ios":"levelo://app?vid=385586c0-6630-4c77-854f-e960f2f49f4f"},"vehicle_type_id":"4","last_reported":1721506102,"current_range_meters":31200,"station_id":"ce4bgi12rcd13ifvqb70","pricing_plan_id":"cebpf4jnsgd1na2vs0mg"},{"bike_id":"ba7689a7-7883-4ca4-a854-238f0cef5ae5","system_id":"levelo_inurba_marseille","lat":43.303282,"lon":5.391992,"is_reserved":false,"is_disabled":false,"rental_uris":{"android":"levelo://app?vid=ba7689a7-7883-4ca4-a854-238f0cef5ae5","ios":"levelo://app?vid=ba7689a7-7883-4ca4-a854-238f0cef5ae5"},"vehicle_type_id":"4","last_reported":1721506102,"current_range_meters":8400,"station_id":"","pricing_plan_id":"cebpf4jnsgd1na2vs0mg"},{"bike_id":"0fe67bd6-c0a8-479f-b302-7343d69947d3","system_id":"levelo_inurba_marseille","lat":43.305994,"lon":5.393687,"is_reserved":false,"is_disabled":false,"rental_uris":{"android":"levelo://app?vid=0fe67bd6-c0a8-479f-b302-7343d69947d3","ios":"levelo://app?vid=0fe67bd6-c0a8-479f-b302-7343d69947d3"},"vehicle_type_id":"4","last_reported":1721506102,"current_range_meters":31200,"station_id":"ce4bh0p2rcd13ifvqd80","pricing_plan_id":"cebpf4jnsgd1na2vs0mg"},{"bike_id":"9d44e425-a787-4130-bde6-23c8f664272b","system_id":"levelo_inurba_marseille","lat":43.303002,"lon":5.392142,"is_reserved":false,"is_disabled":false,"rental_uris":{"android":"levelo://app?vid=9d44e425-a787-4130-bde6-23c8f664272b","ios":"levelo://app?vid=9d44e425-a787-4130-bde6-23c8f664272b"},"vehicle_type_id":"4","last_reported":1721506102,"current_range_meters":6800,"station_id":"ce4bgkh2rcd13ifvqbk0","pricing_plan_id":"cebpf4jnsgd1na2vs0mg"},{"bike_id":"9feca6be-13e8-4146-91b9-15c210fd411b","system_id":"levelo_inurba_marseille","lat":43.303002,"lon":5.392142,"is_reserved":false,"is_disabled":false,"rental_uris":{"android":"levelo://app?vid=9feca6be-13e8-4146-91b9-15c210fd411b","ios":"levelo://app?vid=9feca6be-13e8-4146-91b9-15c210fd411b"},"vehicle_type_id":"4","last_reported":1721506102,"current_range_meters":2400,"station_id":"ce4bgkh2rcd13ifvqbk0","pricing_plan_id":"cebpf4jnsgd1na2vs0mg"},{"bike_id":"c75d7b41-0c0a-4d7a-a064-ca7e99b0574d","system_id":"levelo_inurba_marseille","lat":43.303002,"lon":5.392142,"is_reserved":false,"is_disabled":false,"rental_uris":{"android":"levelo://app?vid=c75d7b41-0c0a-4d7a-a064-ca7e99b0574d","ios":"levelo://app?vid=c75d7b41-0c0a-4d7a-a064-ca7e99b0574d"},"vehicle_type_id":"4","last_reported":1721506102,"current_range_meters":2000,"station_id":"ce4bgkh2rcd13ifvqbk0","pricing_plan_id":"cebpf4jnsgd1na2vs0mg"},{"bike_id":"a6cde5d2-437a-42de-adb9-50b488cfdabe","system_id":"levelo_inurba_marseille","lat":43.303,"lon":5.39209,"is_reserved":false,"is_disabled":false,"rental_uris":{"android":"levelo://app?vid=a6cde5d2-437a-42de-adb9-50b488cfdabe","ios":"levelo://app?vid=a6cde5d2-437a-42de-adb9-50b488cfdabe"},"vehicle_type_id":"4","last_reported":1721506102,"current_range_meters":4800,"station_id":"ce4bgkh2rcd13ifvqbk0","pricing_plan_id":"cebpf4jnsgd1na2vs0mg"},{"bike_id":"75a40883-dd3b-434d-b278-0af5e209bd65","system_id":"levelo_inurba_marseille","lat":43.30297,"lon":5.39209,"is_reserved":false,"is_disabled":false,"rental_uris":{"android":"levelo://app?vid=75a40883-dd3b-434d-b278-0af5e209bd65","ios":"levelo://app?vid=75a40883-dd3b-434d-b278-0af5e209bd65"},"vehicle_type_id":"4","last_reported":1721506102,"current_range_meters":1200,"station_id":"ce4bgkh2rcd13ifvqbk0","pricing_plan_id":"cebpf4jnsgd1na2vs0mg"},{"bike_id":"c33ca63d-cadd-4d0b-82db-76b0c377babc","system_id":"levelo_inurba_marseille","lat":43.29368,"lon":5.37831,"is_reserved":false,"is_disabled":false,"rental_uris":{"android":"levelo://app?vid=c33ca63d-cadd-4d0b-82db-76b0c377babc","ios":"levelo://app?vid=c33ca63d-cadd-4d0b-82db-76b0c377babc"},"vehicle_type_id":"4","last_reported":1721506102,"current_range_meters":0,"station_id":"ce4bgjh2rcd13ifvqbf0","pricing_plan_id":"cebpf4jnsgd1na2vs0mg"},{"bike_id":"431e3059-646b-4ae6-aa72-26e2279770c2","system_id":"levelo_inurba_marseille","lat":43.2936,"lon":5.37835,"is_reserved":false,"is_disabled":false,"rental_uris":{"android":"levelo://app?vid=431e3059-646b-4ae6-aa72-26e2279770c2","ios":"levelo://app?vid=431e3059-646b-4ae6-aa72-26e2279770c2"},"vehicle_type_id":"4","last_reported":1721506102,"current_range_meters":2000,"station_id":"ce4bgjh2rcd13ifvqbf0","pricing_plan_id":"cebpf4jnsgd1na2vs0mg"},{"bike_id":"8c449df3-8faf-4ed9-a503-6c1ba764be0e","system_id":"levelo_inurba_marseille","lat":43.293768,"lon":5.378611,"is_reserved":false,"is_disabled":false,"rental_uris":{"android":"levelo://app?vid=8c449df3-8faf-4ed9-a503-6c1ba764be0e","ios":"levelo://app?vid=8c449df3-8faf-4ed9-a503-6c1ba764be0e"},"vehicle_type_id":"4","last_reported":1721506102,"current_range_meters":0,"station_id":"ce4bgjh2rcd13ifvqbf0","pricing_plan_id":"cebpf4jnsgd1na2vs0mg"},{"bike_id":"ba5805ae-30b2-43b6-9fa6-e9861f217d82","system_id":"levelo_inurba_marseille","lat":43.29364,"lon":5.37834,"is_reserved":false,"is_disabled":false,"rental_uris":{"android":"levelo://app?vid=ba5805ae-30b2-43b6-9fa6-e9861f217d82","ios":"levelo://app?vid=ba5805ae-30b2-43b6-9fa6-e9861f217d82"},"vehicle_type_id":"4","last_reported":1721506102,"current_range_meters":0,"station_id":"ce4bgjh2rcd13ifvqbf0","pricing_plan_id":"cebpf4jnsgd1na2vs0mg"},{"bike_id":"887b52d3-f5f7-4eea-8624-21514b624c04","system_id":"levelo_inurba_marseille","lat":43.29876,"lon":5.38915,"is_reserved":false,"is_disabled":false,"rental_uris":{"android":"levelo://app?vid=887b52d3-f5f7-4eea-8624-21514b624c04","ios":"levelo://app?vid=887b52d3-f5f7-4eea-8624-21514b624c04"},"vehicle_type_id":"4","last_reported":1721506102,"current_range_meters":31200,"station_id":"ce4bh392rcd13ifvqdl0","pricing_plan_id":"cebpf4jnsgd1na2vs0mg"},{"bike_id":"26b3988c-50fc-4ab0-a24a-938a0a208cf8","system_id":"levelo_inurba_marseille","lat":43.292311,"lon":5.360731,"is_reserved":false,"is_disabled":false,"rental_uris":{"android":"levelo://app?vid=26b3988c-50fc-4ab0-a24a-938a0a208cf8","ios":"levelo://app?vid=26b3988c-50fc-4ab0-a24a-938a0a208cf8"},"vehicle_type_id":"4","last_reported":1721506102,"current_range_meters":800,"station_id":"ce4bhbh2rcd13ifvqeqg","pricing_plan_id":"cebpf4jnsgd1na2vs0mg"},{"bike_id":"39a15ae0-73f8-4577-9505-3fd879878d5f","system_id":"levelo_inurba_marseille","lat":43.309038,"lon":5.396546,"is_reserved":false,"is_disabled":false,"rental_uris":{"android":"levelo://app?vid=39a15ae0-73f8-4577-9505-3fd879878d5f","ios":"levelo://app?vid=39a15ae0-73f8-4577-9505-3fd879878d5f"},"vehicle_type_id":"4","last_reported":1721506102,"current_range_meters":20800,"station_id":"ce4bh012rcd13ifvqcv0","pricing_plan_id":"cebpf4jnsgd1na2vs0mg"},{"bike_id":"411a8b4f-6dc1-497d-9a00-f755e7343cc0","system_id":"levelo_inurba_marseille","lat":43.309038,"lon":5.396546,"is_reserved":false,"is_disabled":false,"rental_uris":{"android":"levelo://app?vid=411a8b4f-6dc1-497d-9a00-f755e7343cc0","ios":"levelo://app?vid=411a8b4f-6dc1-497d-9a00-f755e7343cc0"},"vehicle_type_id":"4","last_reported":1721506102,"current_range_meters":4800,"station_id":"ce4bh012rcd13ifvqcv0","pricing_plan_id":"cebpf4jnsgd1na2vs0mg"},{"bike_id":"52558ca6-e30c-44f5-a845-60501bc926b7","system_id":"levelo_inurba_marseille","lat":43.31324,"lon":5.39686,"is_reserved":false,"is_disabled":false,"rental_uris":{"android":"levelo://app?vid=52558ca6-e30c-44f5-a845-60501bc926b7","ios":"levelo://app?vid=52558ca6-e30c-44f5-a845-60501bc926b7"},"vehicle_type_id":"4","last_reported":1721506102,"current_range_meters":28000,"station_id":"ce4bgvp2rcd13ifvqcu0","pricing_plan_id":"cebpf4jnsgd1na2vs0mg"},{"bike_id":"411f227a-967b-4e3a-891c-a5cff59963f8","system_id":"levelo_inurba_marseille","lat":43.309047,"lon":5.396551,"is_reserved":false,"is_disabled":false,"rental_uris":{"android":"levelo://app?vid=411f227a-967b-4e3a-891c-a5cff59963f8","ios":"levelo://app?vid=411f227a-967b-4e3a-891c-a5cff59963f8"},"vehicle_type_id":"4","last_reported":1721506102,"current_range_meters":28400,"station_id":"ce4bh012rcd13ifvqcv0","pricing_plan_id":"cebpf4jnsgd1na2vs0mg"},{"bike_id":"d7a5a590-f34a-4c9a-90c9-c85e12fe1ed3","system_id":"levelo_inurba_marseille","lat":43.313291,"lon":5.396838,"is_reserved":false,"is_disabled":false,"rental_uris":{"android":"levelo://app?vid=d7a5a590-f34a-4c9a-90c9-c85e12fe1ed3","ios":"levelo://app?vid=d7a5a590-f34a-4c9a-90c9-c85e12fe1ed3"},"vehicle_type_id":"4","last_reported":1721506102,"current_range_meters":12000,"station_id":"ce4bgvp2rcd13ifvqcu0","pricing_plan_id":"cebpf4jnsgd1na2vs0mg"},{"bike_id":"940b5027-55e6-465b-810b-d398b04da51d","system_id":"levelo_inurba_marseille","lat":43.29194,"lon":5.3579,"is_reserved":false,"is_disabled":false,"rental_uris":{"android":"levelo://app?vid=940b5027-55e6-465b-810b-d398b04da51d","ios":"levelo://app?vid=940b5027-55e6-465b-810b-d398b04da51d"},"vehicle_type_id":"4","last_reported":1721506102,"current_range_meters":0,"station_id":"ce4bhb12rcd13ifvqel0","pricing_plan_id":"cebpf4jnsgd1na2vs0mg"},{"bike_id":"920caefd-62a6-47dd-b538-1d86025d0922","system_id":"levelo_inurba_marseille","lat":43.309038,"lon":5.396546,"is_reserved":false,"is_disabled":false,"rental_uris":{"android":"levelo://app?vid=920caefd-62a6-47dd-b538-1d86025d0922","ios":"levelo://app?vid=920caefd-62a6-47dd-b538-1d86025d0922"},"vehicle_type_id":"4","last_reported":1721506102,"current_range_meters":26800,"station_id":"ce4bh012rcd13ifvqcv0","pricing_plan_id":"cebpf4jnsgd1na2vs0mg"},{"bike_id":"f1783930-7eca-48c5-b2bb-a79eebf93e3b","system_id":"levelo_inurba_marseille","lat":43.309047,"lon":5.396551,"is_reserved":false,"is_disabled":false,"rental_uris":{"android":"levelo://app?vid=f1783930-7eca-48c5-b2bb-a79eebf93e3b","ios":"levelo://app?vid=f1783930-7eca-48c5-b2bb-a79eebf93e3b"},"vehicle_type_id":"4","last_reported":1721506102,"current_range_meters":0,"station_id":"ce4bh012rcd13ifvqcv0","pricing_plan_id":"cebpf4jnsgd1na2vs0mg"},{"bike_id":"8662de68-5d67-44e7-b23f-72a716632025","system_id":"levelo_inurba_marseille","lat":43.31334,"lon":5.39694,"is_reserved":false,"is_disabled":false,"rental_uris":{"android":"levelo://app?vid=8662de68-5d67-44e7-b23f-72a716632025","ios":"levelo://app?vid=8662de68-5d67-44e7-b23f-72a716632025"},"vehicle_type_id":"4","last_reported":1721506102,"current_range_meters":28000,"station_id":"ce4bgvp2rcd13ifvqcu0","pricing_plan_id":"cebpf4jnsgd1na2vs0mg"},{"bike_id":"e8b64f63-5e05-4b6a-a30b-26d8d07dff59","system_id":"levelo_inurba_marseille","lat":43.309038,"lon":5.396546,"is_reserved":false,"is_disabled":false,"rental_uris":{"android":"levelo://app?vid=e8b64f63-5e05-4b6a-a30b-26d8d07dff59","ios":"levelo://app?vid=e8b64f63-5e05-4b6a-a30b-26d8d07dff59"},"vehicle_type_id":"4","last_reported":1721506102,"current_range_meters":6800,"station_id":"ce4bh012rcd13ifvqcv0","pricing_plan_id":"cebpf4jnsgd1na2vs0mg"},{"bike_id":"961c4b48-5ae3-45ec-97c5-e044da07324a","system_id":"levelo_inurba_marseille","lat":43.309038,"lon":5.396546,"is_reserved":false,"is_disabled":false,"rental_uris":{"android":"levelo://app?vid=961c4b48-5ae3-45ec-97c5-e044da07324a","ios":"levelo://app?vid=961c4b48-5ae3-45ec-97c5-e044da07324a"},"vehicle_type_id":"4","last_reported":1721506102,"current_range_meters":22400,"station_id":"ce4bh012rcd13ifvqcv0","pricing_plan_id":"cebpf4jnsgd1na2vs0mg"},{"bike_id":"dbce3027-f1b1-46a4-a3d3-fd7e93c1d4ba","system_id":"levelo_inurba_marseille","lat":43.332406,"lon":5.380534,"is_reserved":false,"is_disabled":false,"rental_uris":{"android":"levelo://app?vid=dbce3027-f1b1-46a4-a3d3-fd7e93c1d4ba","ios":"levelo://app?vid=dbce3027-f1b1-46a4-a3d3-fd7e93c1d4ba"},"vehicle_type_id":"4","last_reported":1721506102,"current_range_meters":0,"station_id":"","pricing_plan_id":"cebpf4jnsgd1na2vs0mg"},{"bike_id":"c4b8c7e9-46e0-4639-a6ad-de496bf84ca9","system_id":"levelo_inurba_marseille","lat":43.29531,"lon":5.38542,"is_reserved":false,"is_disabled":false,"rental_uris":{"android":"levelo://app?vid=c4b8c7e9-46e0-4639-a6ad-de496bf84ca9","ios":"levelo://app?vid=c4b8c7e9-46e0-4639-a6ad-de496bf84ca9"},"vehicle_type_id":"4","last_reported":1721506102,"current_range_meters":3600,"station_id":"ce4bgih2rcd13ifvqba0","pricing_plan_id":"cebpf4jnsgd1na2vs0mg"},{"bike_id":"90de69ee-e304-41ce-b3b7-81cd9579387e","system_id":"levelo_inurba_marseille","lat":43.29528,"lon":5.38546,"is_reserved":false,"is_disabled":false,"rental_uris":{"android":"levelo://app?vid=90de69ee-e304-41ce-b3b7-81cd9579387e","ios":"levelo://app?vid=90de69ee-e304-41ce-b3b7-81cd9579387e"},"vehicle_type_id":"4","last_reported":1721506102,"current_range_meters":800,"station_id":"ce4bgih2rcd13ifvqba0","pricing_plan_id":"cebpf4jnsgd1na2vs0mg"},{"bike_id":"86f6d1de-26f0-4ec9-a29d-bb317ff31753","system_id":"levelo_inurba_marseille","lat":43.29068,"lon":5.3716,"is_reserved":false,"is_disabled":false,"rental_uris":{"android":"levelo://app?vid=86f6d1de-26f0-4ec9-a29d-bb317ff31753","ios":"levelo://app?vid=86f6d1de-26f0-4ec9-a29d-bb317ff31753"},"vehicle_type_id":"4","last_reported":1721506102,"current_range_meters":400,"station_id":"ce4bh5p2rcd13ifvqe4g","pricing_plan_id":"cebpf4jnsgd1na2vs0mg"},{"bike_id":"db2b582a-6f32-42ad-8d87-120983a8ea09","system_id":"levelo_inurba_marseille","lat":43.294153,"lon":5.386305,"is_reserved":false,"is_disabled":false,"rental_uris":{"android":"levelo://app?vid=db2b582a-6f32-42ad-8d87-120983a8ea09","ios":"levelo://app?vid=db2b582a-6f32-42ad-8d87-120983a8ea09"},"vehicle_type_id":"4","last_reported":1721506102,"current_range_meters":8400,"station_id":"ce4bh2h2rcd13ifvqdh0","pricing_plan_id":"cebpf4jnsgd1na2vs0mg"},{"bike_id":"05d49a91-7a3c-4b94-bd65-81e5fa21324d","system_id":"levelo_inurba_marseille","lat":43.29113,"lon":5.37765,"is_reserved":false,"is_disabled":false,"rental_uris":{"android":"levelo://app?vid=05d49a91-7a3c-4b94-bd65-81e5fa21324d","ios":"levelo://app?vid=05d49a91-7a3c-4b94-bd65-81e5fa21324d"},"vehicle_type_id":"4","last_reported":1721506102,"current_range_meters":0,"station_id":"","pricing_plan_id":"cebpf4jnsgd1na2vs0mg"},{"bike_id":"4d8eac3c-8a13-457e-bb05-912549e26d95","system_id":"levelo_inurba_marseille","lat":43.290385,"lon":5.375024,"is_reserved":false,"is_disabled":false,"rental_uris":{"android":"levelo://app?vid=4d8eac3c-8a13-457e-bb05-912549e26d95","ios":"levelo://app?vid=4d8eac3c-8a13-457e-bb05-912549e26d95"},"vehicle_type_id":"4","last_reported":1721506102,"current_range_meters":4400,"station_id":"","pricing_plan_id":"cebpf4jnsgd1na2vs0mg"},{"bike_id":"ee9e0efb-0668-49d4-8226-b5500b44a236","system_id":"levelo_inurba_marseille","lat":43.294162,"lon":5.386292,"is_reserved":false,"is_disabled":false,"rental_uris":{"android":"levelo://app?vid=ee9e0efb-0668-49d4-8226-b5500b44a236","ios":"levelo://app?vid=ee9e0efb-0668-49d4-8226-b5500b44a236"},"vehicle_type_id":"4","last_reported":1721506102,"current_range_meters":17200,"station_id":"ce4bh2h2rcd13ifvqdh0","pricing_plan_id":"cebpf4jnsgd1na2vs0mg"},{"bike_id":"83444bd3-5e40-4ec8-b103-6fc29aae8e2c","system_id":"levelo_inurba_marseille","lat":43.294162,"lon":5.386292,"is_reserved":false,"is_disabled":false,"rental_uris":{"android":"levelo://app?vid=83444bd3-5e40-4ec8-b103-6fc29aae8e2c","ios":"levelo://app?vid=83444bd3-5e40-4ec8-b103-6fc29aae8e2c"},"vehicle_type_id":"4","last_reported":1721506102,"current_range_meters":2400,"station_id":"ce4bh2h2rcd13ifvqdh0","pricing_plan_id":"cebpf4jnsgd1na2vs0mg"},{"bike_id":"f2c58331-2447-4996-8884-fa7bde2addfd","system_id":"levelo_inurba_marseille","lat":43.294153,"lon":5.386305,"is_reserved":false,"is_disabled":false,"rental_uris":{"android":"levelo://app?vid=f2c58331-2447-4996-8884-fa7bde2addfd","ios":"levelo://app?vid=f2c58331-2447-4996-8884-fa7bde2addfd"},"vehicle_type_id":"4","last_reported":1721506102,"current_range_meters":4800,"station_id":"ce4bh2h2rcd13ifvqdh0","pricing_plan_id":"cebpf4jnsgd1na2vs0mg"},{"bike_id":"e7c30797-bc14-4f20-a8b2-0d18fb1c6785","system_id":"levelo_inurba_marseille","lat":43.29418,"lon":5.38614,"is_reserved":false,"is_disabled":false,"rental_uris":{"android":"levelo://app?vid=e7c30797-bc14-4f20-a8b2-0d18fb1c6785","ios":"levelo://app?vid=e7c30797-bc14-4f20-a8b2-0d18fb1c6785"},"vehicle_type_id":"4","last_reported":1721506102,"current_range_meters":0,"station_id":"ce4bh2h2rcd13ifvqdh0","pricing_plan_id":"cebpf4jnsgd1na2vs0mg"},{"bike_id":"0223f733-d846-4d59-a516-dfebe8ac9857","system_id":"levelo_inurba_marseille","lat":43.294162,"lon":5.386292,"is_reserved":false,"is_disabled":false,"rental_uris":{"android":"levelo://app?vid=0223f733-d846-4d59-a516-dfebe8ac9857","ios":"levelo://app?vid=0223f733-d846-4d59-a516-dfebe8ac9857"},"vehicle_type_id":"4","last_reported":1721506102,"current_range_meters":3600,"station_id":"ce4bh2h2rcd13ifvqdh0","pricing_plan_id":"cebpf4jnsgd1na2vs0mg"},{"bike_id":"5d7f75fa-bd1b-4e9b-8595-89b0cf7485b6","system_id":"levelo_inurba_marseille","lat":43.294153,"lon":5.386305,"is_reserved":false,"is_disabled":false,"rental_uris":{"android":"levelo://app?vid=5d7f75fa-bd1b-4e9b-8595-89b0cf7485b6","ios":"levelo://app?vid=5d7f75fa-bd1b-4e9b-8595-89b0cf7485b6"},"vehicle_type_id":"4","last_reported":1721506102,"current_range_meters":0,"station_id":"ce4bh2h2rcd13ifvqdh0","pricing_plan_id":"cebpf4jnsgd1na2vs0mg"},{"bike_id":"dd80f704-9e27-44bf-a5c2-6b2b9588999a","system_id":"levelo_inurba_marseille","lat":43.29417,"lon":5.38618,"is_reserved":false,"is_disabled":false,"rental_uris":{"android":"levelo://app?vid=dd80f704-9e27-44bf-a5c2-6b2b9588999a","ios":"levelo://app?vid=dd80f704-9e27-44bf-a5c2-6b2b9588999a"},"vehicle_type_id":"4","last_reported":1721506102,"current_range_meters":0,"station_id":"ce4bh2h2rcd13ifvqdh0","pricing_plan_id":"cebpf4jnsgd1na2vs0mg"},{"bike_id":"3af85171-f845-4763-9d4d-71696a24e6cb","system_id":"levelo_inurba_marseille","lat":43.29417,"lon":5.3862,"is_reserved":false,"is_disabled":false,"rental_uris":{"android":"levelo://app?vid=3af85171-f845-4763-9d4d-71696a24e6cb","ios":"levelo://app?vid=3af85171-f845-4763-9d4d-71696a24e6cb"},"vehicle_type_id":"4","last_reported":1721506102,"current_range_meters":21600,"station_id":"ce4bh2h2rcd13ifvqdh0","pricing_plan_id":"cebpf4jnsgd1na2vs0mg"},{"bike_id":"1a4cf38d-9ab4-4ce0-a6e8-7d3ca1116d66","system_id":"levelo_inurba_marseille","lat":43.294153,"lon":5.386305,"is_reserved":false,"is_disabled":false,"rental_uris":{"android":"levelo://app?vid=1a4cf38d-9ab4-4ce0-a6e8-7d3ca1116d66","ios":"levelo://app?vid=1a4cf38d-9ab4-4ce0-a6e8-7d3ca1116d66"},"vehicle_type_id":"4","last_reported":1721506102,"current_range_meters":10000,"station_id":"ce4bh2h2rcd13ifvqdh0","pricing_plan_id":"cebpf4jnsgd1na2vs0mg"},{"bike_id":"b3a42b9d-13db-42d9-a916-72b68a16cad2","system_id":"levelo_inurba_marseille","lat":43.294162,"lon":5.386292,"is_reserved":false,"is_disabled":false,"rental_uris":{"android":"levelo://app?vid=b3a42b9d-13db-42d9-a916-72b68a16cad2","ios":"levelo://app?vid=b3a42b9d-13db-42d9-a916-72b68a16cad2"},"vehicle_type_id":"4","last_reported":1721506102,"current_range_meters":0,"station_id":"ce4bh2h2rcd13ifvqdh0","pricing_plan_id":"cebpf4jnsgd1na2vs0mg"},{"bike_id":"42cab582-8b3c-4064-b973-0628aab143c8","system_id":"levelo_inurba_marseille","lat":43.29418,"lon":5.38623,"is_reserved":false,"is_disabled":false,"rental_uris":{"android":"levelo://app?vid=42cab582-8b3c-4064-b973-0628aab143c8","ios":"levelo://app?vid=42cab582-8b3c-4064-b973-0628aab143c8"},"vehicle_type_id":"4","last_reported":1721506102,"current_range_meters":21200,"station_id":"ce4bh2h2rcd13ifvqdh0","pricing_plan_id":"cebpf4jnsgd1na2vs0mg"},{"bike_id":"639b967f-4346-4602-b1ed-9198455db282","system_id":"levelo_inurba_marseille","lat":43.294162,"lon":5.386292,"is_reserved":false,"is_disabled":false,"rental_uris":{"android":"levelo://app?vid=639b967f-4346-4602-b1ed-9198455db282","ios":"levelo://app?vid=639b967f-4346-4602-b1ed-9198455db282"},"vehicle_type_id":"4","last_reported":1721506102,"current_range_meters":0,"station_id":"ce4bh2h2rcd13ifvqdh0","pricing_plan_id":"cebpf4jnsgd1na2vs0mg"},{"bike_id":"76ba53af-b00b-4354-849c-d2c216e20599","system_id":"levelo_inurba_marseille","lat":43.2942,"lon":5.38629,"is_reserved":false,"is_disabled":false,"rental_uris":{"android":"levelo://app?vid=76ba53af-b00b-4354-849c-d2c216e20599","ios":"levelo://app?vid=76ba53af-b00b-4354-849c-d2c216e20599"},"vehicle_type_id":"4","last_reported":1721506102,"current_range_meters":0,"station_id":"ce4bh2h2rcd13ifvqdh0","pricing_plan_id":"cebpf4jnsgd1na2vs0mg"},{"bike_id":"10ba4bb6-abc3-49c4-af8d-604591f33be5","system_id":"levelo_inurba_marseille","lat":43.29413,"lon":5.38617,"is_reserved":false,"is_disabled":false,"rental_uris":{"android":"levelo://app?vid=10ba4bb6-abc3-49c4-af8d-604591f33be5","ios":"levelo://app?vid=10ba4bb6-abc3-49c4-af8d-604591f33be5"},"vehicle_type_id":"4","last_reported":1721506102,"current_range_meters":0,"station_id":"ce4bh2h2rcd13ifvqdh0","pricing_plan_id":"cebpf4jnsgd1na2vs0mg"},{"bike_id":"1b27b325-c61c-4868-8876-ce163ca5e4e6","system_id":"levelo_inurba_marseille","lat":43.289468,"lon":5.363719,"is_reserved":false,"is_disabled":false,"rental_uris":{"android":"levelo://app?vid=1b27b325-c61c-4868-8876-ce163ca5e4e6","ios":"levelo://app?vid=1b27b325-c61c-4868-8876-ce163ca5e4e6"},"vehicle_type_id":"4","last_reported":1721506102,"current_range_meters":26400,"station_id":"ce4bhc92rcd13ifvqetg","pricing_plan_id":"cebpf4jnsgd1na2vs0mg"},{"bike_id":"114737d0-c124-49e3-baed-03b162508d0a","system_id":"levelo_inurba_marseille","lat":43.291473,"lon":5.381141,"is_reserved":false,"is_disabled":false,"rental_uris":{"android":"levelo://app?vid=114737d0-c124-49e3-baed-03b162508d0a","ios":"levelo://app?vid=114737d0-c124-49e3-baed-03b162508d0a"},"vehicle_type_id":"4","last_reported":1721506102,"current_range_meters":16000,"station_id":"ce4bh512rcd13ifvqe2g","pricing_plan_id":"cebpf4jnsgd1na2vs0mg"},{"bike_id":"92ff9b48-9b6b-4a5e-bf94-b52c4bf8f093","system_id":"levelo_inurba_marseille","lat":43.304274,"lon":5.397513,"is_reserved":false,"is_disabled":false,"rental_uris":{"android":"levelo://app?vid=92ff9b48-9b6b-4a5e-bf94-b52c4bf8f093","ios":"levelo://app?vid=92ff9b48-9b6b-4a5e-bf94-b52c4bf8f093"},"vehicle_type_id":"4","last_reported":1721506102,"current_range_meters":2000,"station_id":"ce4bh092rcd13ifvqd20","pricing_plan_id":"cebpf4jnsgd1na2vs0mg"},{"bike_id":"a3c79648-b897-4d73-9efc-2190e9018747","system_id":"levelo_inurba_marseille","lat":43.304274,"lon":5.397513,"is_reserved":false,"is_disabled":false,"rental_uris":{"android":"levelo://app?vid=a3c79648-b897-4d73-9efc-2190e9018747","ios":"levelo://app?vid=a3c79648-b897-4d73-9efc-2190e9018747"},"vehicle_type_id":"4","last_reported":1721506102,"current_range_meters":28800,"station_id":"ce4bh092rcd13ifvqd20","pricing_plan_id":"cebpf4jnsgd1na2vs0mg"},{"bike_id":"765ce260-32a5-4de2-82f7-a7e01594fbb0","system_id":"levelo_inurba_marseille","lat":43.292644,"lon":5.384257,"is_reserved":false,"is_disabled":false,"rental_uris":{"android":"levelo://app?vid=765ce260-32a5-4de2-82f7-a7e01594fbb0","ios":"levelo://app?vid=765ce260-32a5-4de2-82f7-a7e01594fbb0"},"vehicle_type_id":"4","last_reported":1721506102,"current_range_meters":0,"station_id":"ce4bh692rcd13ifvqea0","pricing_plan_id":"cebpf4jnsgd1na2vs0mg"},{"bike_id":"bfdf10ca-77c4-41a9-b2e4-3df1abc8df70","system_id":"levelo_inurba_marseille","lat":43.292644,"lon":5.384257,"is_reserved":false,"is_disabled":false,"rental_uris":{"android":"levelo://app?vid=bfdf10ca-77c4-41a9-b2e4-3df1abc8df70","ios":"levelo://app?vid=bfdf10ca-77c4-41a9-b2e4-3df1abc8df70"},"vehicle_type_id":"4","last_reported":1721506102,"current_range_meters":31200,"station_id":"ce4bh692rcd13ifvqea0","pricing_plan_id":"cebpf4jnsgd1na2vs0mg"},{"bike_id":"852fa2af-bee1-4430-ac10-d138fae08f20","system_id":"levelo_inurba_marseille","lat":43.292644,"lon":5.384257,"is_reserved":false,"is_disabled":false,"rental_uris":{"android":"levelo://app?vid=852fa2af-bee1-4430-ac10-d138fae08f20","ios":"levelo://app?vid=852fa2af-bee1-4430-ac10-d138fae08f20"},"vehicle_type_id":"4","last_reported":1721506102,"current_range_meters":26000,"station_id":"ce4bh692rcd13ifvqea0","pricing_plan_id":"cebpf4jnsgd1na2vs0mg"},{"bike_id":"17b88c1e-4ce8-4312-973b-9d7ba48ceedf","system_id":"levelo_inurba_marseille","lat":43.292645,"lon":5.38444,"is_reserved":false,"is_disabled":false,"rental_uris":{"android":"levelo://app?vid=17b88c1e-4ce8-4312-973b-9d7ba48ceedf","ios":"levelo://app?vid=17b88c1e-4ce8-4312-973b-9d7ba48ceedf"},"vehicle_type_id":"4","last_reported":1721506102,"current_range_meters":0,"station_id":"ce4bh692rcd13ifvqea0","pricing_plan_id":"cebpf4jnsgd1na2vs0mg"},{"bike_id":"56e8fef7-3f95-42bb-8555-174d076a08ab","system_id":"levelo_inurba_marseille","lat":43.2926,"lon":5.38436,"is_reserved":false,"is_disabled":false,"rental_uris":{"android":"levelo://app?vid=56e8fef7-3f95-42bb-8555-174d076a08ab","ios":"levelo://app?vid=56e8fef7-3f95-42bb-8555-174d076a08ab"},"vehicle_type_id":"4","last_reported":1721506102,"current_range_meters":0,"station_id":"ce4bh692rcd13ifvqea0","pricing_plan_id":"cebpf4jnsgd1na2vs0mg"},{"bike_id":"930120a9-a464-49e2-ae9f-3c7c10129c35","system_id":"levelo_inurba_marseille","lat":43.29261,"lon":5.38439,"is_reserved":false,"is_disabled":false,"rental_uris":{"android":"levelo://app?vid=930120a9-a464-49e2-ae9f-3c7c10129c35","ios":"levelo://app?vid=930120a9-a464-49e2-ae9f-3c7c10129c35"},"vehicle_type_id":"4","last_reported":1721506102,"current_range_meters":0,"station_id":"ce4bh692rcd13ifvqea0","pricing_plan_id":"cebpf4jnsgd1na2vs0mg"},{"bike_id":"91d2ff07-4591-4253-96e7-b5b90d449cde","system_id":"levelo_inurba_marseille","lat":43.292644,"lon":5.384257,"is_reserved":false,"is_disabled":false,"rental_uris":{"android":"levelo://app?vid=91d2ff07-4591-4253-96e7-b5b90d449cde","ios":"levelo://app?vid=91d2ff07-4591-4253-96e7-b5b90d449cde"},"vehicle_type_id":"4","last_reported":1721506102,"current_range_meters":6800,"station_id":"ce4bh692rcd13ifvqea0","pricing_plan_id":"cebpf4jnsgd1na2vs0mg"},{"bike_id":"eac3b175-73df-4b4c-b3cb-e04e6597eb2f","system_id":"levelo_inurba_marseille","lat":43.29005,"lon":5.35614,"is_reserved":false,"is_disabled":false,"rental_uris":{"android":"levelo://app?vid=eac3b175-73df-4b4c-b3cb-e04e6597eb2f","ios":"levelo://app?vid=eac3b175-73df-4b4c-b3cb-e04e6597eb2f"},"vehicle_type_id":"4","last_reported":1721506102,"current_range_meters":28000,"station_id":"ce4bhb92rcd13ifvqen0","pricing_plan_id":"cebpf4jnsgd1na2vs0mg"},{"bike_id":"7dd95504-2883-481a-9b37-dbab7f8fcf2e","system_id":"levelo_inurba_marseille","lat":43.290995,"lon":5.381361,"is_reserved":false,"is_disabled":false,"rental_uris":{"android":"levelo://app?vid=7dd95504-2883-481a-9b37-dbab7f8fcf2e","ios":"levelo://app?vid=7dd95504-2883-481a-9b37-dbab7f8fcf2e"},"vehicle_type_id":"4","last_reported":1721506102,"current_range_meters":25200,"station_id":"ce4bh512rcd13ifvqe2g","pricing_plan_id":"cebpf4jnsgd1na2vs0mg"},{"bike_id":"77cf18d0-2a79-46d0-97c3-34e1c8073d7d","system_id":"levelo_inurba_marseille","lat":43.29097,"lon":5.381365,"is_reserved":false,"is_disabled":false,"rental_uris":{"android":"levelo://app?vid=77cf18d0-2a79-46d0-97c3-34e1c8073d7d","ios":"levelo://app?vid=77cf18d0-2a79-46d0-97c3-34e1c8073d7d"},"vehicle_type_id":"4","last_reported":1721506102,"current_range_meters":0,"station_id":"ce4bh512rcd13ifvqe2g","pricing_plan_id":"cebpf4jnsgd1na2vs0mg"},{"bike_id":"3ef1b171-7486-48e7-87fc-25e00c17442a","system_id":"levelo_inurba_marseille","lat":43.297807,"lon":5.393533,"is_reserved":false,"is_disabled":false,"rental_uris":{"android":"levelo://app?vid=3ef1b171-7486-48e7-87fc-25e00c17442a","ios":"levelo://app?vid=3ef1b171-7486-48e7-87fc-25e00c17442a"},"vehicle_type_id":"4","last_reported":1721506102,"current_range_meters":28800,"station_id":"chh1huq6cuj3fo74tm60","pricing_plan_id":"cebpf4jnsgd1na2vs0mg"},{"bike_id":"25beb0d5-6c08-4ddb-b3ab-f764b897906d","system_id":"levelo_inurba_marseille","lat":43.297815,"lon":5.393548,"is_reserved":false,"is_disabled":false,"rental_uris":{"android":"levelo://app?vid=25beb0d5-6c08-4ddb-b3ab-f764b897906d","ios":"levelo://app?vid=25beb0d5-6c08-4ddb-b3ab-f764b897906d"},"vehicle_type_id":"4","last_reported":1721506102,"current_range_meters":14400,"station_id":"chh1huq6cuj3fo74tm60","pricing_plan_id":"cebpf4jnsgd1na2vs0mg"},{"bike_id":"d2243257-aea1-466c-b691-6a134058c058","system_id":"levelo_inurba_marseille","lat":43.295169,"lon":5.390426,"is_reserved":false,"is_disabled":false,"rental_uris":{"android":"levelo://app?vid=d2243257-aea1-466c-b691-6a134058c058","ios":"levelo://app?vid=d2243257-aea1-466c-b691-6a134058c058"},"vehicle_type_id":"4","last_reported":1721506102,"current_range_meters":3200,"station_id":"ce4bh3p2rcd13ifvqdp0","pricing_plan_id":"cebpf4jnsgd1na2vs0mg"},{"bike_id":"c1a6a751-03bb-4abe-aac8-0f7435ea6cd0","system_id":"levelo_inurba_marseille","lat":43.330442,"lon":5.389148,"is_reserved":false,"is_disabled":false,"rental_uris":{"android":"levelo://app?vid=c1a6a751-03bb-4abe-aac8-0f7435ea6cd0","ios":"levelo://app?vid=c1a6a751-03bb-4abe-aac8-0f7435ea6cd0"},"vehicle_type_id":"4","last_reported":1721506102,"current_range_meters":22800,"station_id":"ce4bhr92rcd13ifvqhrg","pricing_plan_id":"cebpf4jnsgd1na2vs0mg"},{"bike_id":"873bd8e6-81c9-4ac9-bcd8-7efc0d23213e","system_id":"levelo_inurba_marseille","lat":43.330442,"lon":5.389148,"is_reserved":false,"is_disabled":false,"rental_uris":{"android":"levelo://app?vid=873bd8e6-81c9-4ac9-bcd8-7efc0d23213e","ios":"levelo://app?vid=873bd8e6-81c9-4ac9-bcd8-7efc0d23213e"},"vehicle_type_id":"4","last_reported":1721506102,"current_range_meters":1200,"station_id":"ce4bhr92rcd13ifvqhrg","pricing_plan_id":"cebpf4jnsgd1na2vs0mg"},{"bike_id":"e9175177-cdd8-49d2-b31c-883f492f1a3d","system_id":"levelo_inurba_marseille","lat":43.33023,"lon":5.39041,"is_reserved":false,"is_disabled":false,"rental_uris":{"android":"levelo://app?vid=e9175177-cdd8-49d2-b31c-883f492f1a3d","ios":"levelo://app?vid=e9175177-cdd8-49d2-b31c-883f492f1a3d"},"vehicle_type_id":"4","last_reported":1721506102,"current_range_meters":6000,"station_id":"ce4bhr92rcd13ifvqhrg","pricing_plan_id":"cebpf4jnsgd1na2vs0mg"},{"bike_id":"db9ac6ea-0606-4282-9282-729a1b21dcb0","system_id":"levelo_inurba_marseille","lat":43.330442,"lon":5.389148,"is_reserved":false,"is_disabled":false,"rental_uris":{"android":"levelo://app?vid=db9ac6ea-0606-4282-9282-729a1b21dcb0","ios":"levelo://app?vid=db9ac6ea-0606-4282-9282-729a1b21dcb0"},"vehicle_type_id":"4","last_reported":1721506102,"current_range_meters":5600,"station_id":"ce4bhr92rcd13ifvqhrg","pricing_plan_id":"cebpf4jnsgd1na2vs0mg"},{"bike_id":"d777bf93-27fe-4596-b6d5-dd0a93e5e8d4","system_id":"levelo_inurba_marseille","lat":43.312609,"lon":5.401662,"is_reserved":false,"is_disabled":false,"rental_uris":{"android":"levelo://app?vid=d777bf93-27fe-4596-b6d5-dd0a93e5e8d4","ios":"levelo://app?vid=d777bf93-27fe-4596-b6d5-dd0a93e5e8d4"},"vehicle_type_id":"4","last_reported":1721506102,"current_range_meters":22000,"station_id":"ce4bh092rcd13ifvqd30","pricing_plan_id":"cebpf4jnsgd1na2vs0mg"},{"bike_id":"6ebebc9c-659d-4b85-b7c3-ef8a864c7f4e","system_id":"levelo_inurba_marseille","lat":43.28856,"lon":5.358371,"is_reserved":false,"is_disabled":false,"rental_uris":{"android":"levelo://app?vid=6ebebc9c-659d-4b85-b7c3-ef8a864c7f4e","ios":"levelo://app?vid=6ebebc9c-659d-4b85-b7c3-ef8a864c7f4e"},"vehicle_type_id":"4","last_reported":1721506102,"current_range_meters":5200,"station_id":"ce4bhb12rcd13ifvqem0","pricing_plan_id":"cebpf4jnsgd1na2vs0mg"},{"bike_id":"072629c3-6d0f-4a59-a5af-80ebe0873b7d","system_id":"levelo_inurba_marseille","lat":43.309371,"lon":5.401449,"is_reserved":false,"is_disabled":false,"rental_uris":{"android":"levelo://app?vid=072629c3-6d0f-4a59-a5af-80ebe0873b7d","ios":"levelo://app?vid=072629c3-6d0f-4a59-a5af-80ebe0873b7d"},"vehicle_type_id":"4","last_reported":1721506102,"current_range_meters":29600,"station_id":"ce4bgvp2rcd13ifvqct0","pricing_plan_id":"cebpf4jnsgd1na2vs0mg"},{"bike_id":"76974679-eaf5-41fa-8633-acc82d773d44","system_id":"levelo_inurba_marseille","lat":43.312609,"lon":5.401662,"is_reserved":false,"is_disabled":false,"rental_uris":{"android":"levelo://app?vid=76974679-eaf5-41fa-8633-acc82d773d44","ios":"levelo://app?vid=76974679-eaf5-41fa-8633-acc82d773d44"},"vehicle_type_id":"4","last_reported":1721506102,"current_range_meters":31600,"station_id":"ce4bh092rcd13ifvqd30","pricing_plan_id":"cebpf4jnsgd1na2vs0mg"},{"bike_id":"8c4ed729-f159-4178-9c24-ecf948d2b598","system_id":"levelo_inurba_marseille","lat":43.30935,"lon":5.40137,"is_reserved":false,"is_disabled":false,"rental_uris":{"android":"levelo://app?vid=8c4ed729-f159-4178-9c24-ecf948d2b598","ios":"levelo://app?vid=8c4ed729-f159-4178-9c24-ecf948d2b598"},"vehicle_type_id":"4","last_reported":1721506102,"current_range_meters":0,"station_id":"ce4bgvp2rcd13ifvqct0","pricing_plan_id":"cebpf4jnsgd1na2vs0mg"},{"bike_id":"9458a255-a47a-41f1-849e-755dc4612ffe","system_id":"levelo_inurba_marseille","lat":43.337454,"lon":5.374516,"is_reserved":false,"is_disabled":false,"rental_uris":{"android":"levelo://app?vid=9458a255-a47a-41f1-849e-755dc4612ffe","ios":"levelo://app?vid=9458a255-a47a-41f1-849e-755dc4612ffe"},"vehicle_type_id":"4","last_reported":1721506102,"current_range_meters":20800,"station_id":"","pricing_plan_id":"cebpf4jnsgd1na2vs0mg"},{"bike_id":"da1ef795-4411-4787-a704-e9710fe27f7e","system_id":"levelo_inurba_marseille","lat":43.337472,"lon":5.374599,"is_reserved":false,"is_disabled":false,"rental_uris":{"android":"levelo://app?vid=da1ef795-4411-4787-a704-e9710fe27f7e","ios":"levelo://app?vid=da1ef795-4411-4787-a704-e9710fe27f7e"},"vehicle_type_id":"4","last_reported":1721506102,"current_range_meters":21600,"station_id":"","pricing_plan_id":"cebpf4jnsgd1na2vs0mg"},{"bike_id":"0ad3db73-21e8-41b5-aad3-7f410c37748d","system_id":"levelo_inurba_marseille","lat":43.33754,"lon":5.37454,"is_reserved":false,"is_disabled":false,"rental_uris":{"android":"levelo://app?vid=0ad3db73-21e8-41b5-aad3-7f410c37748d","ios":"levelo://app?vid=0ad3db73-21e8-41b5-aad3-7f410c37748d"},"vehicle_type_id":"4","last_reported":1721506102,"current_range_meters":13200,"station_id":"","pricing_plan_id":"cebpf4jnsgd1na2vs0mg"},{"bike_id":"9fd23b8b-c7c3-4b5a-b11d-8284b8e4dfa2","system_id":"levelo_inurba_marseille","lat":43.337578,"lon":5.374428,"is_reserved":false,"is_disabled":false,"rental_uris":{"android":"levelo://app?vid=9fd23b8b-c7c3-4b5a-b11d-8284b8e4dfa2","ios":"levelo://app?vid=9fd23b8b-c7c3-4b5a-b11d-8284b8e4dfa2"},"vehicle_type_id":"4","last_reported":1721506102,"current_range_meters":25200,"station_id":"","pricing_plan_id":"cebpf4jnsgd1na2vs0mg"},{"bike_id":"d0723523-f35a-472e-b198-a5153fc33bb6","system_id":"levelo_inurba_marseille","lat":43.337596,"lon":5.37479,"is_reserved":false,"is_disabled":false,"rental_uris":{"android":"levelo://app?vid=d0723523-f35a-472e-b198-a5153fc33bb6","ios":"levelo://app?vid=d0723523-f35a-472e-b198-a5153fc33bb6"},"vehicle_type_id":"4","last_reported":1721506102,"current_range_meters":20800,"station_id":"","pricing_plan_id":"cebpf4jnsgd1na2vs0mg"},{"bike_id":"ac377a63-6a02-42fa-8a70-d5bb9b7546c9","system_id":"levelo_inurba_marseille","lat":43.337676,"lon":5.374366,"is_reserved":false,"is_disabled":false,"rental_uris":{"android":"levelo://app?vid=ac377a63-6a02-42fa-8a70-d5bb9b7546c9","ios":"levelo://app?vid=ac377a63-6a02-42fa-8a70-d5bb9b7546c9"},"vehicle_type_id":"4","last_reported":1721506102,"current_range_meters":19600,"station_id":"","pricing_plan_id":"cebpf4jnsgd1na2vs0mg"},{"bike_id":"f7087e66-be76-4f42-baf3-f9a0e6a123f7","system_id":"levelo_inurba_marseille","lat":43.301117,"lon":5.398795,"is_reserved":false,"is_disabled":false,"rental_uris":{"android":"levelo://app?vid=f7087e66-be76-4f42-baf3-f9a0e6a123f7","ios":"levelo://app?vid=f7087e66-be76-4f42-baf3-f9a0e6a123f7"},"vehicle_type_id":"4","last_reported":1721506102,"current_range_meters":24400,"station_id":"ce4bh0h2rcd13ifvqd40","pricing_plan_id":"cebpf4jnsgd1na2vs0mg"},{"bike_id":"60cbad40-7d1d-4ced-8939-fd0adaa7074b","system_id":"levelo_inurba_marseille","lat":43.30147,"lon":5.39873,"is_reserved":false,"is_disabled":false,"rental_uris":{"android":"levelo://app?vid=60cbad40-7d1d-4ced-8939-fd0adaa7074b","ios":"levelo://app?vid=60cbad40-7d1d-4ced-8939-fd0adaa7074b"},"vehicle_type_id":"4","last_reported":1721506102,"current_range_meters":0,"station_id":"ce4bh0h2rcd13ifvqd40","pricing_plan_id":"cebpf4jnsgd1na2vs0mg"},{"bike_id":"ab4c7ed7-7f23-4216-80e6-d8ce5ca1175d","system_id":"levelo_inurba_marseille","lat":43.301117,"lon":5.398795,"is_reserved":false,"is_disabled":false,"rental_uris":{"android":"levelo://app?vid=ab4c7ed7-7f23-4216-80e6-d8ce5ca1175d","ios":"levelo://app?vid=ab4c7ed7-7f23-4216-80e6-d8ce5ca1175d"},"vehicle_type_id":"4","last_reported":1721506102,"current_range_meters":400,"station_id":"ce4bh0h2rcd13ifvqd40","pricing_plan_id":"cebpf4jnsgd1na2vs0mg"},{"bike_id":"58957321-a71e-4ba3-898d-70b3ca0e0483","system_id":"levelo_inurba_marseille","lat":43.28727,"lon":5.36078,"is_reserved":false,"is_disabled":false,"rental_uris":{"android":"levelo://app?vid=58957321-a71e-4ba3-898d-70b3ca0e0483","ios":"levelo://app?vid=58957321-a71e-4ba3-898d-70b3ca0e0483"},"vehicle_type_id":"4","last_reported":1721506102,"current_range_meters":6400,"station_id":"cki0cbj6b192h4jlfktg","pricing_plan_id":"cebpf4jnsgd1na2vs0mg"},{"bike_id":"a8e460da-6726-4e11-a86b-1fd2fcf0e11b","system_id":"levelo_inurba_marseille","lat":43.298681,"lon":5.397225,"is_reserved":false,"is_disabled":false,"rental_uris":{"android":"levelo://app?vid=a8e460da-6726-4e11-a86b-1fd2fcf0e11b","ios":"levelo://app?vid=a8e460da-6726-4e11-a86b-1fd2fcf0e11b"},"vehicle_type_id":"4","last_reported":1721506102,"current_range_meters":28400,"station_id":"ce4bh0h2rcd13ifvqd50","pricing_plan_id":"cebpf4jnsgd1na2vs0mg"},{"bike_id":"98eba859-a08e-4d0b-be2f-d00f21e1f962","system_id":"levelo_inurba_marseille","lat":43.286961,"lon":5.373785,"is_reserved":false,"is_disabled":false,"rental_uris":{"android":"levelo://app?vid=98eba859-a08e-4d0b-be2f-d00f21e1f962","ios":"levelo://app?vid=98eba859-a08e-4d0b-be2f-d00f21e1f962"},"vehicle_type_id":"4","last_reported":1721506102,"current_range_meters":3600,"station_id":"ce4bh3p2rcd13ifvqdq0","pricing_plan_id":"cebpf4jnsgd1na2vs0mg"},{"bike_id":"76cac496-8c8e-46d4-9fe7-6975c65e46fa","system_id":"levelo_inurba_marseille","lat":43.286961,"lon":5.373785,"is_reserved":false,"is_disabled":false,"rental_uris":{"android":"levelo://app?vid=76cac496-8c8e-46d4-9fe7-6975c65e46fa","ios":"levelo://app?vid=76cac496-8c8e-46d4-9fe7-6975c65e46fa"},"vehicle_type_id":"4","last_reported":1721506102,"current_range_meters":12000,"station_id":"ce4bh3p2rcd13ifvqdq0","pricing_plan_id":"cebpf4jnsgd1na2vs0mg"},{"bike_id":"a8cb3bc8-804e-4f72-8d96-3c83c46cb078","system_id":"levelo_inurba_marseille","lat":43.32608,"lon":5.3984,"is_reserved":false,"is_disabled":false,"rental_uris":{"android":"levelo://app?vid=a8cb3bc8-804e-4f72-8d96-3c83c46cb078","ios":"levelo://app?vid=a8cb3bc8-804e-4f72-8d96-3c83c46cb078"},"vehicle_type_id":"4","last_reported":1721506102,"current_range_meters":28400,"station_id":"","pricing_plan_id":"cebpf4jnsgd1na2vs0mg"},{"bike_id":"81d2d3a8-8bad-4765-afb4-30180f75efb8","system_id":"levelo_inurba_marseille","lat":43.28934,"lon":5.384027,"is_reserved":false,"is_disabled":false,"rental_uris":{"android":"levelo://app?vid=81d2d3a8-8bad-4765-afb4-30180f75efb8","ios":"levelo://app?vid=81d2d3a8-8bad-4765-afb4-30180f75efb8"},"vehicle_type_id":"4","last_reported":1721506102,"current_range_meters":0,"station_id":"ce4bh612rcd13ifvqe6g","pricing_plan_id":"cebpf4jnsgd1na2vs0mg"},{"bike_id":"2f14054c-a582-40be-89b4-1b3cfbd65c63","system_id":"levelo_inurba_marseille","lat":43.290336,"lon":5.386425,"is_reserved":false,"is_disabled":false,"rental_uris":{"android":"levelo://app?vid=2f14054c-a582-40be-89b4-1b3cfbd65c63","ios":"levelo://app?vid=2f14054c-a582-40be-89b4-1b3cfbd65c63"},"vehicle_type_id":"4","last_reported":1721506102,"current_range_meters":3200,"station_id":"ce4bh4p2rcd13ifvqe0g","pricing_plan_id":"cebpf4jnsgd1na2vs0mg"},{"bike_id":"04ecbfb5-193b-440c-a6e1-e5acc7a0baeb","system_id":"levelo_inurba_marseille","lat":43.289307,"lon":5.38406,"is_reserved":false,"is_disabled":false,"rental_uris":{"android":"levelo://app?vid=04ecbfb5-193b-440c-a6e1-e5acc7a0baeb","ios":"levelo://app?vid=04ecbfb5-193b-440c-a6e1-e5acc7a0baeb"},"vehicle_type_id":"4","last_reported":1721506102,"current_range_meters":15200,"station_id":"ce4bh612rcd13ifvqe6g","pricing_plan_id":"cebpf4jnsgd1na2vs0mg"},{"bike_id":"157752a0-d0d6-4ade-8231-5ff6c1387828","system_id":"levelo_inurba_marseille","lat":43.289307,"lon":5.38406,"is_reserved":false,"is_disabled":false,"rental_uris":{"android":"levelo://app?vid=157752a0-d0d6-4ade-8231-5ff6c1387828","ios":"levelo://app?vid=157752a0-d0d6-4ade-8231-5ff6c1387828"},"vehicle_type_id":"4","last_reported":1721506102,"current_range_meters":2400,"station_id":"ce4bh612rcd13ifvqe6g","pricing_plan_id":"cebpf4jnsgd1na2vs0mg"},{"bike_id":"c962f2fb-de24-4eb9-a335-a6d6135aee80","system_id":"levelo_inurba_marseille","lat":43.29029,"lon":5.38645,"is_reserved":false,"is_disabled":false,"rental_uris":{"android":"levelo://app?vid=c962f2fb-de24-4eb9-a335-a6d6135aee80","ios":"levelo://app?vid=c962f2fb-de24-4eb9-a335-a6d6135aee80"},"vehicle_type_id":"4","last_reported":1721506102,"current_range_meters":0,"station_id":"ce4bh4p2rcd13ifvqe0g","pricing_plan_id":"cebpf4jnsgd1na2vs0mg"},{"bike_id":"50ab06a1-455d-49c1-b5e0-e325a3cb2621","system_id":"levelo_inurba_marseille","lat":43.302759,"lon":5.400793,"is_reserved":false,"is_disabled":false,"rental_uris":{"android":"levelo://app?vid=50ab06a1-455d-49c1-b5e0-e325a3cb2621","ios":"levelo://app?vid=50ab06a1-455d-49c1-b5e0-e325a3cb2621"},"vehicle_type_id":"4","last_reported":1721506102,"current_range_meters":12800,"station_id":"ce4bgvh2rcd13ifvqcs0","pricing_plan_id":"cebpf4jnsgd1na2vs0mg"},{"bike_id":"9b4d3593-ac77-4213-b7a2-2023264cfd31","system_id":"levelo_inurba_marseille","lat":43.29024,"lon":5.38653,"is_reserved":false,"is_disabled":false,"rental_uris":{"android":"levelo://app?vid=9b4d3593-ac77-4213-b7a2-2023264cfd31","ios":"levelo://app?vid=9b4d3593-ac77-4213-b7a2-2023264cfd31"},"vehicle_type_id":"4","last_reported":1721506102,"current_range_meters":0,"station_id":"ce4bh4p2rcd13ifvqe0g","pricing_plan_id":"cebpf4jnsgd1na2vs0mg"},{"bike_id":"78b45363-683a-4f85-82df-b3aeb55745d3","system_id":"levelo_inurba_marseille","lat":43.302759,"lon":5.400793,"is_reserved":false,"is_disabled":false,"rental_uris":{"android":"levelo://app?vid=78b45363-683a-4f85-82df-b3aeb55745d3","ios":"levelo://app?vid=78b45363-683a-4f85-82df-b3aeb55745d3"},