{"last_updated":1685127900,"ttl":30,"version":"2.2","data":{"bikes":[{"bike_id":"dae14076-258d-4f26-a508-60c5cece88b9","system_id":"levelo_inurba_marseille","lat":43.31226,"lon":5.36853,"is_reserved":false,"is_disabled":false,"rental_uris":{"android":"levelo://app?vid=dae14076-258d-4f26-a508-60c5cece88b9","ios":"levelo://app?vid=dae14076-258d-4f26-a508-60c5cece88b9"},"vehicle_type_id":"4","last_reported":1685127900,"current_range_meters":0,"station_id":"ce4bgl92rcd13ifvqbq0","pricing_plan_id":"free"},{"bike_id":"27ebec05-7d83-41c9-93fd-057314bd90e5","system_id":"levelo_inurba_marseille","lat":43.312239,"lon":5.368562,"is_reserved":false,"is_disabled":false,"rental_uris":{"android":"levelo://app?vid=27ebec05-7d83-41c9-93fd-057314bd90e5","ios":"levelo://app?vid=27ebec05-7d83-41c9-93fd-057314bd90e5"},"vehicle_type_id":"4","last_reported":1685127900,"current_range_meters":27200,"station_id":"ce4bgl92rcd13ifvqbq0","pricing_plan_id":"free"},{"bike_id":"4a3eaee6-4a57-4b94-8492-46080f5b7b0d","system_id":"levelo_inurba_marseille","lat":43.312239,"lon":5.368562,"is_reserved":false,"is_disabled":false,"rental_uris":{"android":"levelo://app?vid=4a3eaee6-4a57-4b94-8492-46080f5b7b0d","ios":"levelo://app?vid=4a3eaee6-4a57-4b94-8492-46080f5b7b0d"},"vehicle_type_id":"4","last_reported":1685127900,"current_range_meters":17600,"station_id":"ce4bgl92rcd13ifvqbq0","pricing_plan_id":"free"},{"bike_id":"8d8b581d-1788-460b-b79c-fd60b3cf7b2a","system_id":"levelo_inurba_marseille","lat":43.309076,"lon":5.368465,"is_reserved":false,"is_disabled":false,"rental_uris":{"android":"levelo://app?vid=8d8b581d-1788-460b-b79c-fd60b3cf7b2a","ios":"levelo://app?vid=8d8b581d-1788-460b-b79c-fd60b3cf7b2a"},"vehicle_type_id":"4","last_reported":1685127900,"current_range_meters":3200,"station_id":"ce4bgn92rcd13ifvqbvg","pricing_plan_id":"free"},{"bike_id":"4a43cb14-17bc-40fd-b050-96f01de8fec1","system_id":"levelo_inurba_marseille","lat":43.314811,"lon":5.373103,"is_reserved":false,"is_disabled":false,"rental_uris":{"android":"levelo://app?vid=4a43cb14-17bc-40fd-b050-96f01de8fec1","ios":"levelo://app?vid=4a43cb14-17bc-40fd-b050-96f01de8fec1"},"vehicle_type_id":"4","last_reported":1685127900,"current_range_meters":25600,"station_id":"ce4bgt12rcd13ifvqcd0","pricing_plan_id":"free"},{"bike_id":"58423705-bf5c-48a2-abb2-e628d20d7204","system_id":"levelo_inurba_marseille","lat":43.314811,"lon":5.373103,"is_reserved":false,"is_disabled":false,"rental_uris":{"android":"levelo://app?vid=58423705-bf5c-48a2-abb2-e628d20d7204","ios":"levelo://app?vid=58423705-bf5c-48a2-abb2-e628d20d7204"},"vehicle_type_id":"4","last_reported":1685127900,"current_range_meters":0,"station_id":"ce4bgt12rcd13ifvqcd0","pricing_plan_id":"free"},{"bike_id":"e51a32dc-c886-4058-8288-1f9690633a4b","system_id":"levelo_inurba_marseille","lat":43.314811,"lon":5.373103,"is_reserved":false,"is_disabled":false,"rental_uris":{"android":"levelo://app?vid=e51a32dc-c886-4058-8288-1f9690633a4b","ios":"levelo://app?vid=e51a32dc-c886-4058-8288-1f9690633a4b"},"vehicle_type_id":"4","last_reported":1685127900,"current_range_meters":15200,"station_id":"ce4bgt12rcd13ifvqcd0","pricing_plan_id":"free"},{"bike_id":"0e382877-a916-41a5-9ae9-e0c715693ad4","system_id":"levelo_inurba_marseille","lat":43.308614,"lon":5.372098,"is_reserved":false,"is_disabled":false,"rental_uris":{"android":"levelo://app?vid=0e382877-a916-41a5-9ae9-e0c715693ad4","ios":"levelo://app?vid=0e382877-a916-41a5-9ae9-e0c715693ad4"},"vehicle_type_id":"4","last_reported":1685127900,"current_range_meters":2400,"station_id":"ce4bguh2rcd13ifvqckg","pricing_plan_id":"free"},{"bike_id":"c345a3e6-1e32-4c83-a871-144971d67ba2","system_id":"levelo_inurba_marseille","lat":43.308614,"lon":5.372098,"is_reserved":false,"is_disabled":false,"rental_uris":{"android":"levelo://app?vid=c345a3e6-1e32-4c83-a871-144971d67ba2","ios":"levelo://app?vid=c345a3e6-1e32-4c83-a871-144971d67ba2"},"vehicle_type_id":"4","last_reported":1685127900,"current_range_meters":11600,"station_id":"ce4bguh2rcd13ifvqckg","pricing_plan_id":"free"},{"bike_id":"fe0d9493-b8be-4420-b673-d1b6474fcc3f","system_id":"levelo_inurba_marseille","lat":43.305706,"lon":5.365654,"is_reserved":false,"is_disabled":false,"rental_uris":{"android":"levelo://app?vid=fe0d9493-b8be-4420-b673-d1b6474fcc3f","ios":"levelo://app?vid=fe0d9493-b8be-4420-b673-d1b6474fcc3f"},"vehicle_type_id":"4","last_reported":1685127900,"current_range_meters":20400,"station_id":"ce4bgs12rcd13ifvqcag","pricing_plan_id":"free"},{"bike_id":"5141ee90-58ff-4f07-959a-76fc7817d892","system_id":"levelo_inurba_marseille","lat":43.305368,"lon":5.367343,"is_reserved":false,"is_disabled":false,"rental_uris":{"android":"levelo://app?vid=5141ee90-58ff-4f07-959a-76fc7817d892","ios":"levelo://app?vid=5141ee90-58ff-4f07-959a-76fc7817d892"},"vehicle_type_id":"4","last_reported":1685127900,"current_range_meters":0,"station_id":"ce4bgrp2rcd13ifvqc9g","pricing_plan_id":"free"},{"bike_id":"0e22ce3b-c4bd-4856-919d-fede1ee8e798","system_id":"levelo_inurba_marseille","lat":43.305368,"lon":5.367343,"is_reserved":false,"is_disabled":false,"rental_uris":{"android":"levelo://app?vid=0e22ce3b-c4bd-4856-919d-fede1ee8e798","ios":"levelo://app?vid=0e22ce3b-c4bd-4856-919d-fede1ee8e798"},"vehicle_type_id":"4","last_reported":1685127900,"current_range_meters":2800,"station_id":"ce4bgrp2rcd13ifvqc9g","pricing_plan_id":"free"},{"bike_id":"2c71a046-da47-4e0c-a963-6e84c7a13208","system_id":"levelo_inurba_marseille","lat":43.305706,"lon":5.365654,"is_reserved":false,"is_disabled":false,"rental_uris":{"android":"levelo://app?vid=2c71a046-da47-4e0c-a963-6e84c7a13208","ios":"levelo://app?vid=2c71a046-da47-4e0c-a963-6e84c7a13208"},"vehicle_type_id":"4","last_reported":1685127900,"current_range_meters":0,"station_id":"ce4bgs12rcd13ifvqcag","pricing_plan_id":"free"},{"bike_id":"6860879e-43a9-45cc-b56f-53148f5653d2","system_id":"levelo_inurba_marseille","lat":43.305706,"lon":5.365654,"is_reserved":false,"is_disabled":false,"rental_uris":{"android":"levelo://app?vid=6860879e-43a9-45cc-b56f-53148f5653d2","ios":"levelo://app?vid=6860879e-43a9-45cc-b56f-53148f5653d2"},"vehicle_type_id":"4","last_reported":1685127900,"current_range_meters":1600,"station_id":"ce4bgs12rcd13ifvqcag","pricing_plan_id":"free"},{"bike_id":"cf65faa7-a0ab-4745-8075-e719e6f90791","system_id":"levelo_inurba_marseille","lat":43.305706,"lon":5.365654,"is_reserved":false,"is_disabled":false,"rental_uris":{"android":"levelo://app?vid=cf65faa7-a0ab-4745-8075-e719e6f90791","ios":"levelo://app?vid=cf65faa7-a0ab-4745-8075-e719e6f90791"},"vehicle_type_id":"4","last_reported":1685127900,"current_range_meters":10000,"station_id":"ce4bgs12rcd13ifvqcag","pricing_plan_id":"free"},{"bike_id":"54f009d6-0cf1-4acd-afb5-0e2fb349439d","system_id":"levelo_inurba_marseille","lat":43.305706,"lon":5.365654,"is_reserved":false,"is_disabled":false,"rental_uris":{"android":"levelo://app?vid=54f009d6-0cf1-4acd-afb5-0e2fb349439d","ios":"levelo://app?vid=54f009d6-0cf1-4acd-afb5-0e2fb349439d"},"vehicle_type_id":"4","last_reported":1685127900,"current_range_meters":800,"station_id":"ce4bgs12rcd13ifvqcag","pricing_plan_id":"free"},{"bike_id":"9228354f-aee1-4f6d-bf9a-8f82b491c6d3","system_id":"levelo_inurba_marseille","lat":43.317075,"lon":5.377367,"is_reserved":false,"is_disabled":false,"rental_uris":{"android":"levelo://app?vid=9228354f-aee1-4f6d-bf9a-8f82b491c6d3","ios":"levelo://app?vid=9228354f-aee1-4f6d-bf9a-8f82b491c6d3"},"vehicle_type_id":"4","last_reported":1685127900,"current_range_meters":14400,"station_id":"ce4bgth2rcd13ifvqch0","pricing_plan_id":"free"},{"bike_id":"f47b8c93-abbd-42bc-9979-f8f6f8e17204","system_id":"levelo_inurba_marseille","lat":43.317075,"lon":5.377367,"is_reserved":false,"is_disabled":false,"rental_uris":{"android":"levelo://app?vid=f47b8c93-abbd-42bc-9979-f8f6f8e17204","ios":"levelo://app?vid=f47b8c93-abbd-42bc-9979-f8f6f8e17204"},"vehicle_type_id":"4","last_reported":1685127900,"current_range_meters":12000,"station_id":"ce4bgth2rcd13ifvqch0","pricing_plan_id":"free"},{"bike_id":"c0b0d062-8275-40cf-8874-7d9d55ab7e88","system_id":"levelo_inurba_marseille","lat":43.31713,"lon":5.37832,"is_reserved":false,"is_disabled":false,"rental_uris":{"android":"levelo://app?vid=c0b0d062-8275-40cf-8874-7d9d55ab7e88","ios":"levelo://app?vid=c0b0d062-8275-40cf-8874-7d9d55ab7e88"},"vehicle_type_id":"4","last_reported":1685127900,"current_range_meters":23600,"station_id":"","pricing_plan_id":"free"},{"bike_id":"f3e7fce9-5edd-4b52-b2e3-b62fae0f14e7","system_id":"levelo_inurba_marseille","lat":43.315293,"lon":5.380349,"is_reserved":false,"is_disabled":false,"rental_uris":{"android":"levelo://app?vid=f3e7fce9-5edd-4b52-b2e3-b62fae0f14e7","ios":"levelo://app?vid=f3e7fce9-5edd-4b52-b2e3-b62fae0f14e7"},"vehicle_type_id":"4","last_reported":1685127900,"current_range_meters":23600,"station_id":"ce4bhsp2rcd13ifvqi50","pricing_plan_id":"free"},{"bike_id":"64602abe-04ef-4ac0-99ce-f9cafd0c7ce9","system_id":"levelo_inurba_marseille","lat":43.315289,"lon":5.380349,"is_reserved":false,"is_disabled":false,"rental_uris":{"android":"levelo://app?vid=64602abe-04ef-4ac0-99ce-f9cafd0c7ce9","ios":"levelo://app?vid=64602abe-04ef-4ac0-99ce-f9cafd0c7ce9"},"vehicle_type_id":"4","last_reported":1685127900,"current_range_meters":24400,"station_id":"ce4bhsp2rcd13ifvqi50","pricing_plan_id":"free"},{"bike_id":"d3652b4f-714a-47d1-8a77-cb9281e30f33","system_id":"levelo_inurba_marseille","lat":43.307921,"lon":5.381548,"is_reserved":false,"is_disabled":false,"rental_uris":{"android":"levelo://app?vid=d3652b4f-714a-47d1-8a77-cb9281e30f33","ios":"levelo://app?vid=d3652b4f-714a-47d1-8a77-cb9281e30f33"},"vehicle_type_id":"4","last_reported":1685127900,"current_range_meters":6000,"station_id":"","pricing_plan_id":"free"},{"bike_id":"69839d8f-6270-4561-95b4-990b84bd32c0","system_id":"levelo_inurba_marseille","lat":43.308012,"lon":5.381511,"is_reserved":false,"is_disabled":false,"rental_uris":{"android":"levelo://app?vid=69839d8f-6270-4561-95b4-990b84bd32c0","ios":"levelo://app?vid=69839d8f-6270-4561-95b4-990b84bd32c0"},"vehicle_type_id":"4","last_reported":1685127900,"current_range_meters":6400,"station_id":"ce4bgt12rcd13ifvqce0","pricing_plan_id":"free"},{"bike_id":"9b1f372f-47c0-490e-a875-eb3740a72d12","system_id":"levelo_inurba_marseille","lat":43.30136,"lon":5.37419,"is_reserved":false,"is_disabled":false,"rental_uris":{"android":"levelo://app?vid=9b1f372f-47c0-490e-a875-eb3740a72d12","ios":"levelo://app?vid=9b1f372f-47c0-490e-a875-eb3740a72d12"},"vehicle_type_id":"4","last_reported":1685127900,"current_range_meters":0,"station_id":"","pricing_plan_id":"free"},{"bike_id":"15085faf-94d1-454c-8de1-c9482918e24b","system_id":"levelo_inurba_marseille","lat":43.31992,"lon":5.38151,"is_reserved":false,"is_disabled":false,"rental_uris":{"android":"levelo://app?vid=15085faf-94d1-454c-8de1-c9482918e24b","ios":"levelo://app?vid=15085faf-94d1-454c-8de1-c9482918e24b"},"vehicle_type_id":"4","last_reported":1685127900,"current_range_meters":8000,"station_id":"ce4bhr12rcd13ifvqhpg","pricing_plan_id":"free"},{"bike_id":"e5571f58-adb6-49b7-8c86-2d757ae8e1a0","system_id":"levelo_inurba_marseille","lat":43.319935,"lon":5.381699,"is_reserved":false,"is_disabled":false,"rental_uris":{"android":"levelo://app?vid=e5571f58-adb6-49b7-8c86-2d757ae8e1a0","ios":"levelo://app?vid=e5571f58-adb6-49b7-8c86-2d757ae8e1a0"},"vehicle_type_id":"4","last_reported":1685127900,"current_range_meters":17200,"station_id":"ce4bhr12rcd13ifvqhpg","pricing_plan_id":"free"},{"bike_id":"46349676-80ed-44a7-9bea-3a55a4175303","system_id":"levelo_inurba_marseille","lat":43.319935,"lon":5.381699,"is_reserved":false,"is_disabled":false,"rental_uris":{"android":"levelo://app?vid=46349676-80ed-44a7-9bea-3a55a4175303","ios":"levelo://app?vid=46349676-80ed-44a7-9bea-3a55a4175303"},"vehicle_type_id":"4","last_reported":1685127900,"current_range_meters":8800,"station_id":"ce4bhr12rcd13ifvqhpg","pricing_plan_id":"free"},{"bike_id":"997ad684-aae1-44c9-b5b6-77cbbded2048","system_id":"levelo_inurba_marseille","lat":43.299222,"lon":5.365554,"is_reserved":false,"is_disabled":false,"rental_uris":{"android":"levelo://app?vid=997ad684-aae1-44c9-b5b6-77cbbded2048","ios":"levelo://app?vid=997ad684-aae1-44c9-b5b6-77cbbded2048"},"vehicle_type_id":"4","last_reported":1685127900,"current_range_meters":4800,"station_id":"ce4bgm92rcd13ifvqbr0","pricing_plan_id":"free"},{"bike_id":"a4ee24f2-be5b-4b5c-a809-b5e29367423b","system_id":"levelo_inurba_marseille","lat":43.299222,"lon":5.365554,"is_reserved":false,"is_disabled":false,"rental_uris":{"android":"levelo://app?vid=a4ee24f2-be5b-4b5c-a809-b5e29367423b","ios":"levelo://app?vid=a4ee24f2-be5b-4b5c-a809-b5e29367423b"},"vehicle_type_id":"4","last_reported":1685127900,"current_range_meters":0,"station_id":"ce4bgm92rcd13ifvqbr0","pricing_plan_id":"free"},{"bike_id":"bc860d95-5f3f-40ca-8754-795cfbc117ed","system_id":"levelo_inurba_marseille","lat":43.299222,"lon":5.365554,"is_reserved":false,"is_disabled":false,"rental_uris":{"android":"levelo://app?vid=bc860d95-5f3f-40ca-8754-795cfbc117ed","ios":"levelo://app?vid=bc860d95-5f3f-40ca-8754-795cfbc117ed"},"vehicle_type_id":"4","last_reported":1685127900,"current_range_meters":1600,"station_id":"ce4bgm92rcd13ifvqbr0","pricing_plan_id":"free"},{"bike_id":"c42389c5-2551-4255-864f-06be5777feef","system_id":"levelo_inurba_marseille","lat":43.30569,"lon":5.38424,"is_reserved":false,"is_disabled":false,"rental_uris":{"android":"levelo://app?vid=c42389c5-2551-4255-864f-06be5777feef","ios":"levelo://app?vid=c42389c5-2551-4255-864f-06be5777feef"},"vehicle_type_id":"4","last_reported":1685127900,"current_range_meters":0,"station_id":"ce4bgg92rcd13ifvqb30","pricing_plan_id":"free"},{"bike_id":"7bbc6741-24b5-4937-af39-409308b0c6e3","system_id":"levelo_inurba_marseille","lat":43.298433,"lon":5.362774,"is_reserved":false,"is_disabled":false,"rental_uris":{"android":"levelo://app?vid=7bbc6741-24b5-4937-af39-409308b0c6e3","ios":"levelo://app?vid=7bbc6741-24b5-4937-af39-409308b0c6e3"},"vehicle_type_id":"4","last_reported":1685127900,"current_range_meters":19600,"station_id":"ce4bgpp2rcd13ifvqc3g","pricing_plan_id":"free"},{"bike_id":"e55b1f61-b777-4c10-82dc-87faace13c02","system_id":"levelo_inurba_marseille","lat":43.298433,"lon":5.362774,"is_reserved":false,"is_disabled":false,"rental_uris":{"android":"levelo://app?vid=e55b1f61-b777-4c10-82dc-87faace13c02","ios":"levelo://app?vid=e55b1f61-b777-4c10-82dc-87faace13c02"},"vehicle_type_id":"4","last_reported":1685127900,"current_range_meters":25200,"station_id":"ce4bgpp2rcd13ifvqc3g","pricing_plan_id":"free"},{"bike_id":"9f948a23-285b-4653-8d87-e3d7a4379f3b","system_id":"levelo_inurba_marseille","lat":43.297832,"lon":5.370982,"is_reserved":false,"is_disabled":false,"rental_uris":{"android":"levelo://app?vid=9f948a23-285b-4653-8d87-e3d7a4379f3b","ios":"levelo://app?vid=9f948a23-285b-4653-8d87-e3d7a4379f3b"},"vehicle_type_id":"4","last_reported":1685127900,"current_range_meters":26000,"station_id":"ce4bgop2rcd13ifvqc1g","pricing_plan_id":"free"},{"bike_id":"dc46d1a8-1691-481c-b80a-64311f3a1e81","system_id":"levelo_inurba_marseille","lat":43.328371,"lon":5.366912,"is_reserved":false,"is_disabled":false,"rental_uris":{"android":"levelo://app?vid=dc46d1a8-1691-481c-b80a-64311f3a1e81","ios":"levelo://app?vid=dc46d1a8-1691-481c-b80a-64311f3a1e81"},"vehicle_type_id":"4","last_reported":1685127900,"current_range_meters":22400,"station_id":"ce4bhs92rcd13ifvqi0g","pricing_plan_id":"free"},{"bike_id":"b5387c8b-1aeb-4c0b-bf7e-29bd1cef36b6","system_id":"levelo_inurba_marseille","lat":43.29715,"lon":5.36616,"is_reserved":false,"is_disabled":false,"rental_uris":{"android":"levelo://app?vid=b5387c8b-1aeb-4c0b-bf7e-29bd1cef36b6","ios":"levelo://app?vid=b5387c8b-1aeb-4c0b-bf7e-29bd1cef36b6"},"vehicle_type_id":"4","last_reported":1685127900,"current_range_meters":18800,"station_id":"","pricing_plan_id":"free"},{"bike_id":"15bdd509-ac6b-486d-a3af-74b1c552f2cb","system_id":"levelo_inurba_marseille","lat":43.32835,"lon":5.36677,"is_reserved":false,"is_disabled":false,"rental_uris":{"android":"levelo://app?vid=15bdd509-ac6b-486d-a3af-74b1c552f2cb","ios":"levelo://app?vid=15bdd509-ac6b-486d-a3af-74b1c552f2cb"},"vehicle_type_id":"4","last_reported":1685127900,"current_range_meters":14800,"station_id":"ce4bhs92rcd13ifvqi0g","pricing_plan_id":"free"},{"bike_id":"48865b4e-3ce0-432b-8924-559fa3bbd108","system_id":"levelo_inurba_marseille","lat":43.29836,"lon":5.37675,"is_reserved":false,"is_disabled":false,"rental_uris":{"android":"levelo://app?vid=48865b4e-3ce0-432b-8924-559fa3bbd108","ios":"levelo://app?vid=48865b4e-3ce0-432b-8924-559fa3bbd108"},"vehicle_type_id":"4","last_reported":1685127900,"current_range_meters":15200,"station_id":"","pricing_plan_id":"free"},{"bike_id":"3e659844-a02f-4418-97a3-1dceb224ad64","system_id":"levelo_inurba_marseille","lat":43.29833,"lon":5.37667,"is_reserved":false,"is_disabled":false,"rental_uris":{"android":"levelo://app?vid=3e659844-a02f-4418-97a3-1dceb224ad64","ios":"levelo://app?vid=3e659844-a02f-4418-97a3-1dceb224ad64"},"vehicle_type_id":"4","last_reported":1685127900,"current_range_meters":14400,"station_id":"","pricing_plan_id":"free"},{"bike_id":"fd2f7b4b-349a-4854-83fe-5b667e45995a","system_id":"levelo_inurba_marseille","lat":43.31509,"lon":5.38933,"is_reserved":false,"is_disabled":false,"rental_uris":{"android":"levelo://app?vid=fd2f7b4b-349a-4854-83fe-5b667e45995a","ios":"levelo://app?vid=fd2f7b4b-349a-4854-83fe-5b667e45995a"},"vehicle_type_id":"4","last_reported":1685127900,"current_range_meters":23200,"station_id":"","pricing_plan_id":"free"},{"bike_id":"521a2ae4-946b-47bf-ba22-cf10bef5a9f9","system_id":"levelo_inurba_marseille","lat":43.29623,"lon":5.37149,"is_reserved":false,"is_disabled":false,"rental_uris":{"android":"levelo://app?vid=521a2ae4-946b-47bf-ba22-cf10bef5a9f9","ios":"levelo://app?vid=521a2ae4-946b-47bf-ba22-cf10bef5a9f9"},"vehicle_type_id":"4","last_reported":1685127900,"current_range_meters":13600,"station_id":"ce4bgk12rcd13ifvqbj0","pricing_plan_id":"free"},{"bike_id":"e3b6dfbe-240e-491b-a052-7a81a9b97b34","system_id":"levelo_inurba_marseille","lat":43.29625,"lon":5.37166,"is_reserved":false,"is_disabled":false,"rental_uris":{"android":"levelo://app?vid=e3b6dfbe-240e-491b-a052-7a81a9b97b34","ios":"levelo://app?vid=e3b6dfbe-240e-491b-a052-7a81a9b97b34"},"vehicle_type_id":"4","last_reported":1685127900,"current_range_meters":9200,"station_id":"","pricing_plan_id":"free"},{"bike_id":"7b4b85c8-7a16-4171-9378-6d92301cf1ce","system_id":"levelo_inurba_marseille","lat":43.296131,"lon":5.370791,"is_reserved":false,"is_disabled":false,"rental_uris":{"android":"levelo://app?vid=7b4b85c8-7a16-4171-9378-6d92301cf1ce","ios":"levelo://app?vid=7b4b85c8-7a16-4171-9378-6d92301cf1ce"},"vehicle_type_id":"4","last_reported":1685127900,"current_range_meters":6000,"station_id":"ce4bgnh2rcd13ifvqc0g","pricing_plan_id":"free"},{"bike_id":"4afb065e-4528-4c9c-a942-3ae9611574e1","system_id":"levelo_inurba_marseille","lat":43.296131,"lon":5.370791,"is_reserved":false,"is_disabled":false,"rental_uris":{"android":"levelo://app?vid=4afb065e-4528-4c9c-a942-3ae9611574e1","ios":"levelo://app?vid=4afb065e-4528-4c9c-a942-3ae9611574e1"},"vehicle_type_id":"4","last_reported":1685127900,"current_range_meters":0,"station_id":"ce4bgnh2rcd13ifvqc0g","pricing_plan_id":"free"},{"bike_id":"08703b1c-3bbe-471d-8350-ad18bbfadc86","system_id":"levelo_inurba_marseille","lat":43.296129,"lon":5.370777,"is_reserved":false,"is_disabled":false,"rental_uris":{"android":"levelo://app?vid=08703b1c-3bbe-471d-8350-ad18bbfadc86","ios":"levelo://app?vid=08703b1c-3bbe-471d-8350-ad18bbfadc86"},"vehicle_type_id":"4","last_reported":1685127900,"current_range_meters":0,"station_id":"ce4bgnh2rcd13ifvqc0g","pricing_plan_id":"free"},{"bike_id":"462e2094-4954-4781-872d-c1bda2e6183d","system_id":"levelo_inurba_marseille","lat":43.296131,"lon":5.370773,"is_reserved":false,"is_disabled":false,"rental_uris":{"android":"levelo://app?vid=462e2094-4954-4781-872d-c1bda2e6183d","ios":"levelo://app?vid=462e2094-4954-4781-872d-c1bda2e6183d"},"vehicle_type_id":"4","last_reported":1685127900,"current_range_meters":27200,"station_id":"ce4bgnh2rcd13ifvqc0g","pricing_plan_id":"free"},{"bike_id":"1ba1c8ab-03a8-48d1-92f6-f01d3932a472","system_id":"levelo_inurba_marseille","lat":43.296131,"lon":5.370791,"is_reserved":false,"is_disabled":false,"rental_uris":{"android":"levelo://app?vid=1ba1c8ab-03a8-48d1-92f6-f01d3932a472","ios":"levelo://app?vid=1ba1c8ab-03a8-48d1-92f6-f01d3932a472"},"vehicle_type_id":"4","last_reported":1685127900,"current_range_meters":3200,"station_id":"ce4bgnh2rcd13ifvqc0g","pricing_plan_id":"free"},{"bike_id":"8f02053e-adfb-40df-844f-2a2c819a52d0","system_id":"levelo_inurba_marseille","lat":43.29573,"lon":5.367355,"is_reserved":false,"is_disabled":false,"rental_uris":{"android":"levelo://app?vid=8f02053e-adfb-40df-844f-2a2c819a52d0","ios":"levelo://app?vid=8f02053e-adfb-40df-844f-2a2c819a52d0"},"vehicle_type_id":"4","last_reported":1685127900,"current_range_meters":2000,"station_id":"ce4bgph2rcd13ifvqc2g","pricing_plan_id":"free"},{"bike_id":"adae0ff3-ecd0-42af-83b8-cf0f33d6677d","system_id":"levelo_inurba_marseille","lat":43.29573,"lon":5.367355,"is_reserved":false,"is_disabled":false,"rental_uris":{"android":"levelo://app?vid=adae0ff3-ecd0-42af-83b8-cf0f33d6677d","ios":"levelo://app?vid=adae0ff3-ecd0-42af-83b8-cf0f33d6677d"},"vehicle_type_id":"4","last_reported":1685127900,"current_range_meters":12000,"station_id":"ce4bgph2rcd13ifvqc2g","pricing_plan_id":"free"},{"bike_id":"d0c2b740-82a5-4905-85a6-dc29ef23e7fb","system_id":"levelo_inurba_marseille","lat":43.296921,"lon":5.376579,"is_reserved":false,"is_disabled":false,"rental_uris":{"android":"levelo://app?vid=d0c2b740-82a5-4905-85a6-dc29ef23e7fb","ios":"levelo://app?vid=d0c2b740-82a5-4905-85a6-dc29ef23e7fb"},"vehicle_type_id":"4","last_reported":1685127900,"current_range_meters":17200,"station_id":"ce4bgkh2rcd13ifvqbl0","pricing_plan_id":"free"},{"bike_id":"d7f266a6-ce15-437e-86aa-7112b7a80e12","system_id":"levelo_inurba_marseille","lat":43.30963,"lon":5.39021,"is_reserved":false,"is_disabled":false,"rental_uris":{"android":"levelo://app?vid=d7f266a6-ce15-437e-86aa-7112b7a80e12","ios":"levelo://app?vid=d7f266a6-ce15-437e-86aa-7112b7a80e12"},"vehicle_type_id":"4","last_reported":1685127900,"current_range_meters":0,"station_id":"ce4bgup2rcd13ifvqco0","pricing_plan_id":"free"},{"bike_id":"f37a73a7-7909-4b4a-9e58-bec211dea13f","system_id":"levelo_inurba_marseille","lat":43.29908,"lon":5.38167,"is_reserved":false,"is_disabled":false,"rental_uris":{"android":"levelo://app?vid=f37a73a7-7909-4b4a-9e58-bec211dea13f","ios":"levelo://app?vid=f37a73a7-7909-4b4a-9e58-bec211dea13f"},"vehicle_type_id":"4","last_reported":1685127900,"current_range_meters":2800,"station_id":"ce4bgj12rcd13ifvqbc0","pricing_plan_id":"free"},{"bike_id":"b760dc60-6d37-49c7-8dde-1a371397cdb8","system_id":"levelo_inurba_marseille","lat":43.317557,"lon":5.390173,"is_reserved":false,"is_disabled":false,"rental_uris":{"android":"levelo://app?vid=b760dc60-6d37-49c7-8dde-1a371397cdb8","ios":"levelo://app?vid=b760dc60-6d37-49c7-8dde-1a371397cdb8"},"vehicle_type_id":"4","last_reported":1685127900,"current_range_meters":22800,"station_id":"ce4bhqp2rcd13ifvqhng","pricing_plan_id":"free"},{"bike_id":"774ce504-2767-4c7f-b9b2-adba2127074c","system_id":"levelo_inurba_marseille","lat":43.31755,"lon":5.39018,"is_reserved":false,"is_disabled":false,"rental_uris":{"android":"levelo://app?vid=774ce504-2767-4c7f-b9b2-adba2127074c","ios":"levelo://app?vid=774ce504-2767-4c7f-b9b2-adba2127074c"},"vehicle_type_id":"4","last_reported":1685127900,"current_range_meters":17200,"station_id":"ce4bhqp2rcd13ifvqhng","pricing_plan_id":"free"},{"bike_id":"0a80d5e9-ad49-415c-9ece-72c4359f066d","system_id":"levelo_inurba_marseille","lat":43.317557,"lon":5.390173,"is_reserved":false,"is_disabled":false,"rental_uris":{"android":"levelo://app?vid=0a80d5e9-ad49-415c-9ece-72c4359f066d","ios":"levelo://app?vid=0a80d5e9-ad49-415c-9ece-72c4359f066d"},"vehicle_type_id":"4","last_reported":1685127900,"current_range_meters":14400,"station_id":"ce4bhqp2rcd13ifvqhng","pricing_plan_id":"free"},{"bike_id":"cf3fb89a-c959-4f23-8f03-a98d306de8af","system_id":"levelo_inurba_marseille","lat":43.317557,"lon":5.390173,"is_reserved":false,"is_disabled":false,"rental_uris":{"android":"levelo://app?vid=cf3fb89a-c959-4f23-8f03-a98d306de8af","ios":"levelo://app?vid=cf3fb89a-c959-4f23-8f03-a98d306de8af"},"vehicle_type_id":"4","last_reported":1685127900,"current_range_meters":22000,"station_id":"ce4bhqp2rcd13ifvqhng","pricing_plan_id":"free"},{"bike_id":"503381e2-6ee7-48d6-9c66-bfe06fc0550c","system_id":"levelo_inurba_marseille","lat":43.29915,"lon":5.38253,"is_reserved":false,"is_disabled":false,"rental_uris":{"android":"levelo://app?vid=503381e2-6ee7-48d6-9c66-bfe06fc0550c","ios":"levelo://app?vid=503381e2-6ee7-48d6-9c66-bfe06fc0550c"},"vehicle_type_id":"4","last_reported":1685127900,"current_range_meters":12400,"station_id":"","pricing_plan_id":"free"},{"bike_id":"2ac96434-aebe-4bdf-8c98-94cf03f6cc7b","system_id":"levelo_inurba_marseille","lat":43.295748,"lon":5.37522,"is_reserved":false,"is_disabled":false,"rental_uris":{"android":"levelo://app?vid=2ac96434-aebe-4bdf-8c98-94cf03f6cc7b","ios":"levelo://app?vid=2ac96434-aebe-4bdf-8c98-94cf03f6cc7b"},"vehicle_type_id":"4","last_reported":1685127900,"current_range_meters":0,"station_id":"ce4bgh92rcd13ifvqb50","pricing_plan_id":"free"},{"bike_id":"c6633ebc-ec6c-45bc-a4ca-20184226e91d","system_id":"levelo_inurba_marseille","lat":43.296277,"lon":5.377108,"is_reserved":false,"is_disabled":false,"rental_uris":{"android":"levelo://app?vid=c6633ebc-ec6c-45bc-a4ca-20184226e91d","ios":"levelo://app?vid=c6633ebc-ec6c-45bc-a4ca-20184226e91d"},"vehicle_type_id":"4","last_reported":1685127900,"current_range_meters":8000,"station_id":"ce4bgi92rcd13ifvqb90","pricing_plan_id":"free"},{"bike_id":"5ed4e2c4-0dfd-4e3e-899f-8225e26c7da3","system_id":"levelo_inurba_marseille","lat":43.296263,"lon":5.377094,"is_reserved":false,"is_disabled":false,"rental_uris":{"android":"levelo://app?vid=5ed4e2c4-0dfd-4e3e-899f-8225e26c7da3","ios":"levelo://app?vid=5ed4e2c4-0dfd-4e3e-899f-8225e26c7da3"},"vehicle_type_id":"4","last_reported":1685127900,"current_range_meters":2400,"station_id":"ce4bgi92rcd13ifvqb90","pricing_plan_id":"free"},{"bike_id":"1965c455-93c3-4ede-8f65-6ff75ba0d8d0","system_id":"levelo_inurba_marseille","lat":43.295279,"lon":5.375048,"is_reserved":false,"is_disabled":false,"rental_uris":{"android":"levelo://app?vid=1965c455-93c3-4ede-8f65-6ff75ba0d8d0","ios":"levelo://app?vid=1965c455-93c3-4ede-8f65-6ff75ba0d8d0"},"vehicle_type_id":"4","last_reported":1685127900,"current_range_meters":0,"station_id":"ce4bgkp2rcd13ifvqbmg","pricing_plan_id":"free"},{"bike_id":"ae1772ad-4747-4416-a17a-33d8d7e670c8","system_id":"levelo_inurba_marseille","lat":43.296263,"lon":5.377094,"is_reserved":false,"is_disabled":false,"rental_uris":{"android":"levelo://app?vid=ae1772ad-4747-4416-a17a-33d8d7e670c8","ios":"levelo://app?vid=ae1772ad-4747-4416-a17a-33d8d7e670c8"},"vehicle_type_id":"4","last_reported":1685127900,"current_range_meters":18400,"station_id":"ce4bgi92rcd13ifvqb90","pricing_plan_id":"free"},{"bike_id":"ab5def7a-7113-476e-b481-0fd9154d7c81","system_id":"levelo_inurba_marseille","lat":43.299724,"lon":5.384848,"is_reserved":false,"is_disabled":false,"rental_uris":{"android":"levelo://app?vid=ab5def7a-7113-476e-b481-0fd9154d7c81","ios":"levelo://app?vid=ab5def7a-7113-476e-b481-0fd9154d7c81"},"vehicle_type_id":"4","last_reported":1685127900,"current_range_meters":4400,"station_id":"ce4bgj92rcd13ifvqbd0","pricing_plan_id":"free"},{"bike_id":"7f5d4c4b-431b-4f6d-b7af-5a627531ee03","system_id":"levelo_inurba_marseille","lat":43.29966,"lon":5.38491,"is_reserved":false,"is_disabled":false,"rental_uris":{"android":"levelo://app?vid=7f5d4c4b-431b-4f6d-b7af-5a627531ee03","ios":"levelo://app?vid=7f5d4c4b-431b-4f6d-b7af-5a627531ee03"},"vehicle_type_id":"4","last_reported":1685127900,"current_range_meters":1200,"station_id":"ce4bgj92rcd13ifvqbd0","pricing_plan_id":"free"},{"bike_id":"b5d50118-acc1-49b7-bf9b-4baebed8887e","system_id":"levelo_inurba_marseille","lat":43.299724,"lon":5.384848,"is_reserved":false,"is_disabled":false,"rental_uris":{"android":"levelo://app?vid=b5d50118-acc1-49b7-bf9b-4baebed8887e","ios":"levelo://app?vid=b5d50118-acc1-49b7-bf9b-4baebed8887e"},"vehicle_type_id":"4","last_reported":1685127900,"current_range_meters":0,"station_id":"ce4bgj92rcd13ifvqbd0","pricing_plan_id":"free"},{"bike_id":"b05d0567-56ca-43fc-979e-4eddb8edd518","system_id":"levelo_inurba_marseille","lat":43.29602,"lon":5.381084,"is_reserved":false,"is_disabled":false,"rental_uris":{"android":"levelo://app?vid=b05d0567-56ca-43fc-979e-4eddb8edd518","ios":"levelo://app?vid=b05d0567-56ca-43fc-979e-4eddb8edd518"},"vehicle_type_id":"4","last_reported":1685127900,"current_range_meters":3600,"station_id":"ce4bgl12rcd13ifvqbo0","pricing_plan_id":"free"},{"bike_id":"9665e6e4-984a-434e-8414-f046b77d2a79","system_id":"levelo_inurba_marseille","lat":43.29602,"lon":5.381084,"is_reserved":false,"is_disabled":false,"rental_uris":{"android":"levelo://app?vid=9665e6e4-984a-434e-8414-f046b77d2a79","ios":"levelo://app?vid=9665e6e4-984a-434e-8414-f046b77d2a79"},"vehicle_type_id":"4","last_reported":1685127900,"current_range_meters":27200,"station_id":"ce4bgl12rcd13ifvqbo0","pricing_plan_id":"free"},{"bike_id":"65bca992-43d4-4328-ad67-bd64ccbe9708","system_id":"levelo_inurba_marseille","lat":43.29305,"lon":5.37179,"is_reserved":false,"is_disabled":false,"rental_uris":{"android":"levelo://app?vid=65bca992-43d4-4328-ad67-bd64ccbe9708","ios":"levelo://app?vid=65bca992-43d4-4328-ad67-bd64ccbe9708"},"vehicle_type_id":"4","last_reported":1685127900,"current_range_meters":400,"station_id":"","pricing_plan_id":"free"},{"bike_id":"59e5fb9b-05a5-4f93-8e33-9e7f134b3506","system_id":"levelo_inurba_marseille","lat":43.29305,"lon":5.37182,"is_reserved":false,"is_disabled":false,"rental_uris":{"android":"levelo://app?vid=59e5fb9b-05a5-4f93-8e33-9e7f134b3506","ios":"levelo://app?vid=59e5fb9b-05a5-4f93-8e33-9e7f134b3506"},"vehicle_type_id":"4","last_reported":1685127900,"current_range_meters":2400,"station_id":"","pricing_plan_id":"free"},{"bike_id":"93212709-7e92-4b89-80f4-557935155664","system_id":"levelo_inurba_marseille","lat":43.29303,"lon":5.37172,"is_reserved":false,"is_disabled":false,"rental_uris":{"android":"levelo://app?vid=93212709-7e92-4b89-80f4-557935155664","ios":"levelo://app?vid=93212709-7e92-4b89-80f4-557935155664"},"vehicle_type_id":"4","last_reported":1685127900,"current_range_meters":2800,"station_id":"","pricing_plan_id":"free"},{"bike_id":"3804a939-4873-42d7-aba4-2908e804c88e","system_id":"levelo_inurba_marseille","lat":43.292749,"lon":5.368398,"is_reserved":false,"is_disabled":false,"rental_uris":{"android":"levelo://app?vid=3804a939-4873-42d7-aba4-2908e804c88e","ios":"levelo://app?vid=3804a939-4873-42d7-aba4-2908e804c88e"},"vehicle_type_id":"4","last_reported":1685127900,"current_range_meters":5200,"station_id":"ce4bhbp2rcd13ifvqesg","pricing_plan_id":"free"},{"bike_id":"58bd2fc0-45d0-4a05-b980-c34343d0702f","system_id":"levelo_inurba_marseille","lat":43.292749,"lon":5.368398,"is_reserved":false,"is_disabled":false,"rental_uris":{"android":"levelo://app?vid=58bd2fc0-45d0-4a05-b980-c34343d0702f","ios":"levelo://app?vid=58bd2fc0-45d0-4a05-b980-c34343d0702f"},"vehicle_type_id":"4","last_reported":1685127900,"current_range_meters":8800,"station_id":"ce4bhbp2rcd13ifvqesg","pricing_plan_id":"free"},{"bike_id":"850c4793-5357-4c97-a5bb-c45aa8f2205b","system_id":"levelo_inurba_marseille","lat":43.292749,"lon":5.368398,"is_reserved":false,"is_disabled":false,"rental_uris":{"android":"levelo://app?vid=850c4793-5357-4c97-a5bb-c45aa8f2205b","ios":"levelo://app?vid=850c4793-5357-4c97-a5bb-c45aa8f2205b"},"vehicle_type_id":"4","last_reported":1685127900,"current_range_meters":19600,"station_id":"ce4bhbp2rcd13ifvqesg","pricing_plan_id":"free"},{"bike_id":"ccdc0468-dc14-4234-9ce2-a498ec75ef2b","system_id":"levelo_inurba_marseille","lat":43.292749,"lon":5.368398,"is_reserved":false,"is_disabled":false,"rental_uris":{"android":"levelo://app?vid=ccdc0468-dc14-4234-9ce2-a498ec75ef2b","ios":"levelo://app?vid=ccdc0468-dc14-4234-9ce2-a498ec75ef2b"},"vehicle_type_id":"4","last_reported":1685127900,"current_range_meters":0,"station_id":"ce4bhbp2rcd13ifvqesg","pricing_plan_id":"free"},{"bike_id":"d93eacff-11de-499f-ae47-1fbf0a345d6f","system_id":"levelo_inurba_marseille","lat":43.2927,"lon":5.36842,"is_reserved":false,"is_disabled":false,"rental_uris":{"android":"levelo://app?vid=d93eacff-11de-499f-ae47-1fbf0a345d6f","ios":"levelo://app?vid=d93eacff-11de-499f-ae47-1fbf0a345d6f"},"vehicle_type_id":"4","last_reported":1685127900,"current_range_meters":22800,"station_id":"ce4bhbp2rcd13ifvqesg","pricing_plan_id":"free"},{"bike_id":"bdbd9b98-38b6-483a-a3dd-c27244d6d102","system_id":"levelo_inurba_marseille","lat":43.292749,"lon":5.368398,"is_reserved":false,"is_disabled":false,"rental_uris":{"android":"levelo://app?vid=bdbd9b98-38b6-483a-a3dd-c27244d6d102","ios":"levelo://app?vid=bdbd9b98-38b6-483a-a3dd-c27244d6d102"},"vehicle_type_id":"4","last_reported":1685127900,"current_range_meters":1200,"station_id":"ce4bhbp2rcd13ifvqesg","pricing_plan_id":"free"},{"bike_id":"99707c86-a951-47f2-9aff-7cacb085ec79","system_id":"levelo_inurba_marseille","lat":43.29302,"lon":5.37453,"is_reserved":false,"is_disabled":false,"rental_uris":{"android":"levelo://app?vid=99707c86-a951-47f2-9aff-7cacb085ec79","ios":"levelo://app?vid=99707c86-a951-47f2-9aff-7cacb085ec79"},"vehicle_type_id":"4","last_reported":1685127900,"current_range_meters":19600,"station_id":"ce4bgi12rcd13ifvqb70","pricing_plan_id":"free"},{"bike_id":"975849eb-9913-4f01-9092-fe0ebee788f3","system_id":"levelo_inurba_marseille","lat":43.305994,"lon":5.393687,"is_reserved":false,"is_disabled":false,"rental_uris":{"android":"levelo://app?vid=975849eb-9913-4f01-9092-fe0ebee788f3","ios":"levelo://app?vid=975849eb-9913-4f01-9092-fe0ebee788f3"},"vehicle_type_id":"4","last_reported":1685127900,"current_range_meters":1600,"station_id":"ce4bh0p2rcd13ifvqd80","pricing_plan_id":"free"},{"bike_id":"1acdbec9-28cf-41b7-8c92-c60edda6c886","system_id":"levelo_inurba_marseille","lat":43.29353,"lon":5.37837,"is_reserved":false,"is_disabled":false,"rental_uris":{"android":"levelo://app?vid=1acdbec9-28cf-41b7-8c92-c60edda6c886","ios":"levelo://app?vid=1acdbec9-28cf-41b7-8c92-c60edda6c886"},"vehicle_type_id":"4","last_reported":1685127900,"current_range_meters":2400,"station_id":"ce4bgjh2rcd13ifvqbf0","pricing_plan_id":"free"},{"bike_id":"ec6d71b0-93d0-4967-9544-a3393fe765e8","system_id":"levelo_inurba_marseille","lat":43.29227,"lon":5.36074,"is_reserved":false,"is_disabled":false,"rental_uris":{"android":"levelo://app?vid=ec6d71b0-93d0-4967-9544-a3393fe765e8","ios":"levelo://app?vid=ec6d71b0-93d0-4967-9544-a3393fe765e8"},"vehicle_type_id":"4","last_reported":1685127900,"current_range_meters":3200,"station_id":"ce4bhbh2rcd13ifvqeqg","pricing_plan_id":"free"},{"bike_id":"1c79edc6-0130-415a-8dc2-5b813cfec89f","system_id":"levelo_inurba_marseille","lat":43.300852,"lon":5.390859,"is_reserved":false,"is_disabled":false,"rental_uris":{"android":"levelo://app?vid=1c79edc6-0130-415a-8dc2-5b813cfec89f","ios":"levelo://app?vid=1c79edc6-0130-415a-8dc2-5b813cfec89f"},"vehicle_type_id":"4","last_reported":1685127900,"current_range_meters":16000,"station_id":"ce4bh192rcd13ifvqdb0","pricing_plan_id":"free"},{"bike_id":"84260730-e0f6-4189-872f-ac09b211770b","system_id":"levelo_inurba_marseille","lat":43.29219,"lon":5.3605,"is_reserved":false,"is_disabled":false,"rental_uris":{"android":"levelo://app?vid=84260730-e0f6-4189-872f-ac09b211770b","ios":"levelo://app?vid=84260730-e0f6-4189-872f-ac09b211770b"},"vehicle_type_id":"4","last_reported":1685127900,"current_range_meters":8800,"station_id":"ce4bhbh2rcd13ifvqeqg","pricing_plan_id":"free"},{"bike_id":"bc7b7229-f802-4e25-b840-df88cfde796d","system_id":"levelo_inurba_marseille","lat":43.291675,"lon":5.371583,"is_reserved":false,"is_disabled":false,"rental_uris":{"android":"levelo://app?vid=bc7b7229-f802-4e25-b840-df88cfde796d","ios":"levelo://app?vid=bc7b7229-f802-4e25-b840-df88cfde796d"},"vehicle_type_id":"4","last_reported":1685127900,"current_range_meters":24400,"station_id":"ce4bha92rcd13ifvqeh0","pricing_plan_id":"free"},{"bike_id":"f8a16378-f1f5-452b-82e9-674636284101","system_id":"levelo_inurba_marseille","lat":43.298764,"lon":5.388973,"is_reserved":false,"is_disabled":false,"rental_uris":{"android":"levelo://app?vid=f8a16378-f1f5-452b-82e9-674636284101","ios":"levelo://app?vid=f8a16378-f1f5-452b-82e9-674636284101"},"vehicle_type_id":"4","last_reported":1685127900,"current_range_meters":0,"station_id":"ce4bh392rcd13ifvqdl0","pricing_plan_id":"free"},{"bike_id":"1b7fec61-c51f-4f9f-a7e7-8b90aaabf8a7","system_id":"levelo_inurba_marseille","lat":43.291675,"lon":5.371583,"is_reserved":false,"is_disabled":false,"rental_uris":{"android":"levelo://app?vid=1b7fec61-c51f-4f9f-a7e7-8b90aaabf8a7","ios":"levelo://app?vid=1b7fec61-c51f-4f9f-a7e7-8b90aaabf8a7"},"vehicle_type_id":"4","last_reported":1685127900,"current_range_meters":6000,"station_id":"ce4bha92rcd13ifvqeh0","pricing_plan_id":"free"},{"bike_id":"1a7b18da-3b00-42e1-9ec7-b803a67c9188","system_id":"levelo_inurba_marseille","lat":43.282754,"lon":5.350519,"is_reserved":false,"is_disabled":false,"rental_uris":{"android":"levelo://app?vid=1a7b18da-3b00-42e1-9ec7-b803a67c9188","ios":"levelo://app?vid=1a7b18da-3b00-42e1-9ec7-b803a67c9188"},"vehicle_type_id":"4","last_reported":1685127900,"current_range_meters":10000,"station_id":"ce4bhbp2rcd13ifvqerg","pricing_plan_id":"free"},{"bike_id":"da481123-6f5f-4cab-a5b3-5a64a9daddf9","system_id":"levelo_inurba_marseille","lat":43.298764,"lon":5.388973,"is_reserved":false,"is_disabled":false,"rental_uris":{"android":"levelo://app?vid=da481123-6f5f-4cab-a5b3-5a64a9daddf9","ios":"levelo://app?vid=da481123-6f5f-4cab-a5b3-5a64a9daddf9"},"vehicle_type_id":"4","last_reported":1685127900,"current_range_meters":20000,"station_id":"ce4bh392rcd13ifvqdl0","pricing_plan_id":"free"},{"bike_id":"2ae27a23-427f-4996-aaad-9d548c11bbb7","system_id":"levelo_inurba_marseille","lat":43.291615,"lon":5.371632,"is_reserved":false,"is_disabled":false,"rental_uris":{"android":"levelo://app?vid=2ae27a23-427f-4996-aaad-9d548c11bbb7","ios":"levelo://app?vid=2ae27a23-427f-4996-aaad-9d548c11bbb7"},"vehicle_type_id":"4","last_reported":1685127900,"current_range_meters":11600,"station_id":"","pricing_plan_id":"free"},{"bike_id":"6913808f-5599-4e1b-9edc-1e5ebea0ec20","system_id":"levelo_inurba_marseille","lat":43.291675,"lon":5.371583,"is_reserved":false,"is_disabled":false,"rental_uris":{"android":"levelo://app?vid=6913808f-5599-4e1b-9edc-1e5ebea0ec20","ios":"levelo://app?vid=6913808f-5599-4e1b-9edc-1e5ebea0ec20"},"vehicle_type_id":"4","last_reported":1685127900,"current_range_meters":26800,"station_id":"ce4bha92rcd13ifvqeh0","pricing_plan_id":"free"},{"bike_id":"a7c931a8-de08-48cd-a779-37380f04eee7","system_id":"levelo_inurba_marseille","lat":43.291675,"lon":5.371583,"is_reserved":false,"is_disabled":false,"rental_uris":{"android":"levelo://app?vid=a7c931a8-de08-48cd-a779-37380f04eee7","ios":"levelo://app?vid=a7c931a8-de08-48cd-a779-37380f04eee7"},"vehicle_type_id":"4","last_reported":1685127900,"current_range_meters":4400,"station_id":"ce4bha92rcd13ifvqeh0","pricing_plan_id":"free"},{"bike_id":"a514404a-103e-4f7a-9561-d1ba4dba344a","system_id":"levelo_inurba_marseille","lat":43.31327,"lon":5.3969,"is_reserved":false,"is_disabled":false,"rental_uris":{"android":"levelo://app?vid=a514404a-103e-4f7a-9561-d1ba4dba344a","ios":"levelo://app?vid=a514404a-103e-4f7a-9561-d1ba4dba344a"},"vehicle_type_id":"4","last_reported":1685127900,"current_range_meters":0,"station_id":"ce4bgvp2rcd13ifvqcu0","pricing_plan_id":"free"},{"bike_id":"9b4e8208-6d52-4f13-8ec9-483de889b4d5","system_id":"levelo_inurba_marseille","lat":43.313273,"lon":5.396911,"is_reserved":false,"is_disabled":false,"rental_uris":{"android":"levelo://app?vid=9b4e8208-6d52-4f13-8ec9-483de889b4d5","ios":"levelo://app?vid=9b4e8208-6d52-4f13-8ec9-483de889b4d5"},"vehicle_type_id":"4","last_reported":1685127900,"current_range_meters":0,"station_id":"ce4bgvp2rcd13ifvqcu0","pricing_plan_id":"free"},{"bike_id":"11864599-fc37-4dbb-98da-3f26c7ddec00","system_id":"levelo_inurba_marseille","lat":43.309038,"lon":5.396546,"is_reserved":false,"is_disabled":false,"rental_uris":{"android":"levelo://app?vid=11864599-fc37-4dbb-98da-3f26c7ddec00","ios":"levelo://app?vid=11864599-fc37-4dbb-98da-3f26c7ddec00"},"vehicle_type_id":"4","last_reported":1685127900,"current_range_meters":0,"station_id":"ce4bh012rcd13ifvqcv0","pricing_plan_id":"free"},{"bike_id":"3783dafc-ad23-4f9f-b569-beac12f8d687","system_id":"levelo_inurba_marseille","lat":43.309038,"lon":5.396546,"is_reserved":false,"is_disabled":false,"rental_uris":{"android":"levelo://app?vid=3783dafc-ad23-4f9f-b569-beac12f8d687","ios":"levelo://app?vid=3783dafc-ad23-4f9f-b569-beac12f8d687"},"vehicle_type_id":"4","last_reported":1685127900,"current_range_meters":16400,"station_id":"ce4bh012rcd13ifvqcv0","pricing_plan_id":"free"},{"bike_id":"b7415b18-0dbb-49bb-8144-c3bc882ba0c4","system_id":"levelo_inurba_marseille","lat":43.309038,"lon":5.396546,"is_reserved":false,"is_disabled":false,"rental_uris":{"android":"levelo://app?vid=b7415b18-0dbb-49bb-8144-c3bc882ba0c4","ios":"levelo://app?vid=b7415b18-0dbb-49bb-8144-c3bc882ba0c4"},"vehicle_type_id":"4","last_reported":1685127900,"current_range_meters":16000,"station_id":"ce4bh012rcd13ifvqcv0","pricing_plan_id":"free"},{"bike_id":"35f9ea2b-f674-4702-af08-d4d06c81c4be","system_id":"levelo_inurba_marseille","lat":43.29529,"lon":5.385581,"is_reserved":false,"is_disabled":false,"rental_uris":{"android":"levelo://app?vid=35f9ea2b-f674-4702-af08-d4d06c81c4be","ios":"levelo://app?vid=35f9ea2b-f674-4702-af08-d4d06c81c4be"},"vehicle_type_id":"4","last_reported":1685127900,"current_range_meters":23600,"station_id":"ce4bgih2rcd13ifvqba0","pricing_plan_id":"free"},{"bike_id":"98ad76bd-f9c5-432a-b22d-b1aa3491ad45","system_id":"levelo_inurba_marseille","lat":43.29529,"lon":5.385581,"is_reserved":false,"is_disabled":false,"rental_uris":{"android":"levelo://app?vid=98ad76bd-f9c5-432a-b22d-b1aa3491ad45","ios":"levelo://app?vid=98ad76bd-f9c5-432a-b22d-b1aa3491ad45"},"vehicle_type_id":"4","last_reported":1685127900,"current_range_meters":13600,"station_id":"ce4bgih2rcd13ifvqba0","pricing_plan_id":"free"},{"bike_id":"2e4fc126-447d-4ec4-aaf5-c507bf1e9547","system_id":"levelo_inurba_marseille","lat":43.29529,"lon":5.385581,"is_reserved":false,"is_disabled":false,"rental_uris":{"android":"levelo://app?vid=2e4fc126-447d-4ec4-aaf5-c507bf1e9547","ios":"levelo://app?vid=2e4fc126-447d-4ec4-aaf5-c507bf1e9547"},"vehicle_type_id":"4","last_reported":1685127900,"current_range_meters":3600,"station_id":"ce4bgih2rcd13ifvqba0","pricing_plan_id":"free"},{"bike_id":"fd1363f7-1724-4214-9427-042a10448edb","system_id":"levelo_inurba_marseille","lat":43.302008,"lon":5.394694,"is_reserved":false,"is_disabled":false,"rental_uris":{"android":"levelo://app?vid=fd1363f7-1724-4214-9427-042a10448edb","ios":"levelo://app?vid=fd1363f7-1724-4214-9427-042a10448edb"},"vehicle_type_id":"4","last_reported":1685127900,"current_range_meters":7600,"station_id":"ce4bh0p2rcd13ifvqd70","pricing_plan_id":"free"},{"bike_id":"ad67b46a-fdad-4496-978a-dc24c2ba69ca","system_id":"levelo_inurba_marseille","lat":43.302008,"lon":5.394694,"is_reserved":false,"is_disabled":false,"rental_uris":{"android":"levelo://app?vid=ad67b46a-fdad-4496-978a-dc24c2ba69ca","ios":"levelo://app?vid=ad67b46a-fdad-4496-978a-dc24c2ba69ca"},"vehicle_type_id":"4","last_reported":1685127900,"current_range_meters":23600,"station_id":"ce4bh0p2rcd13ifvqd70","pricing_plan_id":"free"},{"bike_id":"413fe827-6b42-4611-867a-a136552a652f","system_id":"levelo_inurba_marseille","lat":43.290319,"lon":5.375732,"is_reserved":false,"is_disabled":false,"rental_uris":{"android":"levelo://app?vid=413fe827-6b42-4611-867a-a136552a652f","ios":"levelo://app?vid=413fe827-6b42-4611-867a-a136552a652f"},"vehicle_type_id":"4","last_reported":1685127900,"current_range_meters":0,"station_id":"ce4bh692rcd13ifvqe90","pricing_plan_id":"free"},{"bike_id":"04a832cc-5560-4d57-9379-459c5f6f8a6a","system_id":"levelo_inurba_marseille","lat":43.2894,"lon":5.36636,"is_reserved":false,"is_disabled":false,"rental_uris":{"android":"levelo://app?vid=04a832cc-5560-4d57-9379-459c5f6f8a6a","ios":"levelo://app?vid=04a832cc-5560-4d57-9379-459c5f6f8a6a"},"vehicle_type_id":"4","last_reported":1685127900,"current_range_meters":4800,"station_id":"ce4bhap2rcd13ifvqek0","pricing_plan_id":"free"},{"bike_id":"5488e84c-a5bd-4b6f-b25e-22d8648533b5","system_id":"levelo_inurba_marseille","lat":43.28937,"lon":5.36633,"is_reserved":false,"is_disabled":false,"rental_uris":{"android":"levelo://app?vid=5488e84c-a5bd-4b6f-b25e-22d8648533b5","ios":"levelo://app?vid=5488e84c-a5bd-4b6f-b25e-22d8648533b5"},"vehicle_type_id":"4","last_reported":1685127900,"current_range_meters":7600,"station_id":"ce4bhap2rcd13ifvqek0","pricing_plan_id":"free"},{"bike_id":"fa414819-b858-40f1-8fca-516ea765a6bb","system_id":"levelo_inurba_marseille","lat":43.28934,"lon":5.36641,"is_reserved":false,"is_disabled":false,"rental_uris":{"android":"levelo://app?vid=fa414819-b858-40f1-8fca-516ea765a6bb","ios":"levelo://app?vid=fa414819-b858-40f1-8fca-516ea765a6bb"},"vehicle_type_id":"4","last_reported":1685127900,"current_range_meters":7600,"station_id":"ce4bhap2rcd13ifvqek0","pricing_plan_id":"free"},{"bike_id":"ff22e9e2-6e4d-45f0-84fd-c4c09bb5f00f","system_id":"levelo_inurba_marseille","lat":43.289184,"lon":5.366408,"is_reserved":false,"is_disabled":false,"rental_uris":{"android":"levelo://app?vid=ff22e9e2-6e4d-45f0-84fd-c4c09bb5f00f","ios":"levelo://app?vid=ff22e9e2-6e4d-45f0-84fd-c4c09bb5f00f"},"vehicle_type_id":"4","last_reported":1685127900,"current_range_meters":23600,"station_id":"ce4bhap2rcd13ifvqek0","pricing_plan_id":"free"},{"bike_id":"b0463c44-5d13-405e-a719-a95a707550ab","system_id":"levelo_inurba_marseille","lat":43.289184,"lon":5.366408,"is_reserved":false,"is_disabled":false,"rental_uris":{"android":"levelo://app?vid=b0463c44-5d13-405e-a719-a95a707550ab","ios":"levelo://app?vid=b0463c44-5d13-405e-a719-a95a707550ab"},"vehicle_type_id":"4","last_reported":1685127900,"current_range_meters":15200,"station_id":"ce4bhap2rcd13ifvqek0","pricing_plan_id":"free"},{"bike_id":"f9872697-8164-4053-80f1-9812fbfea021","system_id":"levelo_inurba_marseille","lat":43.292644,"lon":5.384257,"is_reserved":false,"is_disabled":false,"rental_uris":{"android":"levelo://app?vid=f9872697-8164-4053-80f1-9812fbfea021","ios":"levelo://app?vid=f9872697-8164-4053-80f1-9812fbfea021"},"vehicle_type_id":"4","last_reported":1685127900,"current_range_meters":4800,"station_id":"ce4bh692rcd13ifvqea0","pricing_plan_id":"free"},{"bike_id":"0b9428fa-c572-44f0-9447-a1dab538c658","system_id":"levelo_inurba_marseille","lat":43.304274,"lon":5.397513,"is_reserved":false,"is_disabled":false,"rental_uris":{"android":"levelo://app?vid=0b9428fa-c572-44f0-9447-a1dab538c658","ios":"levelo://app?vid=0b9428fa-c572-44f0-9447-a1dab538c658"},"vehicle_type_id":"4","last_reported":1685127900,"current_range_meters":24800,"station_id":"ce4bh092rcd13ifvqd20","pricing_plan_id":"free"},{"bike_id":"2f5044e6-0183-43c5-a277-efaceb10d0c4","system_id":"levelo_inurba_marseille","lat":43.292644,"lon":5.384257,"is_reserved":false,"is_disabled":false,"rental_uris":{"android":"levelo://app?vid=2f5044e6-0183-43c5-a277-efaceb10d0c4","ios":"levelo://app?vid=2f5044e6-0183-43c5-a277-efaceb10d0c4"},"vehicle_type_id":"4","last_reported":1685127900,"current_range_meters":4000,"station_id":"ce4bh692rcd13ifvqea0","pricing_plan_id":"free"},{"bike_id":"351acc09-8a17-4508-bb95-e897624cde5b","system_id":"levelo_inurba_marseille","lat":43.33051,"lon":5.38912,"is_reserved":false,"is_disabled":false,"rental_uris":{"android":"levelo://app?vid=351acc09-8a17-4508-bb95-e897624cde5b","ios":"levelo://app?vid=351acc09-8a17-4508-bb95-e897624cde5b"},"vehicle_type_id":"4","last_reported":1685127900,"current_range_meters":7200,"station_id":"ce4bhr92rcd13ifvqhrg","pricing_plan_id":"free"},{"bike_id":"a46c4102-321c-41a4-9d2c-a5bab2be06c5","system_id":"levelo_inurba_marseille","lat":43.29008,"lon":5.35592,"is_reserved":false,"is_disabled":false,"rental_uris":{"android":"levelo://app?vid=a46c4102-321c-41a4-9d2c-a5bab2be06c5","ios":"levelo://app?vid=a46c4102-321c-41a4-9d2c-a5bab2be06c5"},"vehicle_type_id":"4","last_reported":1685127900,"current_range_meters":19600,"station_id":"ce4bhb92rcd13ifvqen0","pricing_plan_id":"free"},{"bike_id":"b91d2c67-ae24-41bd-9a2d-962ec74183d5","system_id":"levelo_inurba_marseille","lat":43.295169,"lon":5.390426,"is_reserved":false,"is_disabled":false,"rental_uris":{"android":"levelo://app?vid=b91d2c67-ae24-41bd-9a2d-962ec74183d5","ios":"levelo://app?vid=b91d2c67-ae24-41bd-9a2d-962ec74183d5"},"vehicle_type_id":"4","last_reported":1685127900,"current_range_meters":10000,"station_id":"ce4bh3p2rcd13ifvqdp0","pricing_plan_id":"free"},{"bike_id":"37506764-469c-46cb-9252-6be648b0ff4a","system_id":"levelo_inurba_marseille","lat":43.290103,"lon":5.356114,"is_reserved":false,"is_disabled":false,"rental_uris":{"android":"levelo://app?vid=37506764-469c-46cb-9252-6be648b0ff4a","ios":"levelo://app?vid=37506764-469c-46cb-9252-6be648b0ff4a"},"vehicle_type_id":"4","last_reported":1685127900,"current_range_meters":0,"station_id":"ce4bhb92rcd13ifvqen0","pricing_plan_id":"free"},{"bike_id":"70ea49e9-22a2-4709-bd08-2e5377fd126c","system_id":"levelo_inurba_marseille","lat":43.2901,"lon":5.381269,"is_reserved":false,"is_disabled":false,"rental_uris":{"android":"levelo://app?vid=70ea49e9-22a2-4709-bd08-2e5377fd126c","ios":"levelo://app?vid=70ea49e9-22a2-4709-bd08-2e5377fd126c"},"vehicle_type_id":"4","last_reported":1685127900,"current_range_meters":400,"station_id":"ce4bh4p2rcd13ifvqe1g","pricing_plan_id":"free"},{"bike_id":"d65fc894-70a4-4dc1-be7f-8c1020619301","system_id":"levelo_inurba_marseille","lat":43.2901,"lon":5.381269,"is_reserved":false,"is_disabled":false,"rental_uris":{"android":"levelo://app?vid=d65fc894-70a4-4dc1-be7f-8c1020619301","ios":"levelo://app?vid=d65fc894-70a4-4dc1-be7f-8c1020619301"},"vehicle_type_id":"4","last_reported":1685127900,"current_range_meters":0,"station_id":"ce4bh4p2rcd13ifvqe1g","pricing_plan_id":"free"},{"bike_id":"24ec94ef-1fc1-41b4-8b33-0d6c86de6300","system_id":"levelo_inurba_marseille","lat":43.28801,"lon":5.37336,"is_reserved":false,"is_disabled":false,"rental_uris":{"android":"levelo://app?vid=24ec94ef-1fc1-41b4-8b33-0d6c86de6300","ios":"levelo://app?vid=24ec94ef-1fc1-41b4-8b33-0d6c86de6300"},"vehicle_type_id":"4","last_reported":1685127900,"current_range_meters":16000,"station_id":"","pricing_plan_id":"free"},{"bike_id":"141c14ea-594b-43ee-894e-8c44af1dcd73","system_id":"levelo_inurba_marseille","lat":43.33752,"lon":5.37446,"is_reserved":false,"is_disabled":false,"rental_uris":{"android":"levelo://app?vid=141c14ea-594b-43ee-894e-8c44af1dcd73","ios":"levelo://app?vid=141c14ea-594b-43ee-894e-8c44af1dcd73"},"vehicle_type_id":"4","last_reported":1685127900,"current_range_meters":14800,"station_id":"","pricing_plan_id":"free"},{"bike_id":"556c6db1-2600-4c2b-9521-aae8453517c1","system_id":"levelo_inurba_marseille","lat":43.33753,"lon":5.37441,"is_reserved":false,"is_disabled":false,"rental_uris":{"android":"levelo://app?vid=556c6db1-2600-4c2b-9521-aae8453517c1","ios":"levelo://app?vid=556c6db1-2600-4c2b-9521-aae8453517c1"},"vehicle_type_id":"4","last_reported":1685127900,"current_range_meters":20800,"station_id":"","pricing_plan_id":"free"},{"bike_id":"02362672-78e1-4667-9a77-d71f91f94365","system_id":"levelo_inurba_marseille","lat":43.33759,"lon":5.37433,"is_reserved":false,"is_disabled":false,"rental_uris":{"android":"levelo://app?vid=02362672-78e1-4667-9a77-d71f91f94365","ios":"levelo://app?vid=02362672-78e1-4667-9a77-d71f91f94365"},"vehicle_type_id":"4","last_reported":1685127900,"current_range_meters":19200,"station_id":"","pricing_plan_id":"free"},{"bike_id":"1490fad1-fe90-4399-a2f2-79545cf03a2b","system_id":"levelo_inurba_marseille","lat":43.337578,"lon":5.374791,"is_reserved":false,"is_disabled":false,"rental_uris":{"android":"levelo://app?vid=1490fad1-fe90-4399-a2f2-79545cf03a2b","ios":"levelo://app?vid=1490fad1-fe90-4399-a2f2-79545cf03a2b"},"vehicle_type_id":"4","last_reported":1685127900,"current_range_meters":30400,"station_id":"","pricing_plan_id":"free"},{"bike_id":"0f915385-1fd5-4f54-896c-f56a11a31d3d","system_id":"levelo_inurba_marseille","lat":43.33767,"lon":5.37425,"is_reserved":false,"is_disabled":false,"rental_uris":{"android":"levelo://app?vid=0f915385-1fd5-4f54-896c-f56a11a31d3d","ios":"levelo://app?vid=0f915385-1fd5-4f54-896c-f56a11a31d3d"},"vehicle_type_id":"4","last_reported":1685127900,"current_range_meters":22000,"station_id":"","pricing_plan_id":"free"},{"bike_id":"ac3aed2c-a61d-44dd-a922-2fccf17b4252","system_id":"levelo_inurba_marseille","lat":43.30643,"lon":5.40098,"is_reserved":false,"is_disabled":false,"rental_uris":{"android":"levelo://app?vid=ac3aed2c-a61d-44dd-a922-2fccf17b4252","ios":"levelo://app?vid=ac3aed2c-a61d-44dd-a922-2fccf17b4252"},"vehicle_type_id":"4","last_reported":1685127900,"current_range_meters":0,"station_id":"ce4bh112rcd13ifvqda0","pricing_plan_id":"free"},{"bike_id":"eb8ac404-8a95-4fc7-819a-ea19315069af","system_id":"levelo_inurba_marseille","lat":43.33774,"lon":5.37434,"is_reserved":false,"is_disabled":false,"rental_uris":{"android":"levelo://app?vid=eb8ac404-8a95-4fc7-819a-ea19315069af","ios":"levelo://app?vid=eb8ac404-8a95-4fc7-819a-ea19315069af"},"vehicle_type_id":"4","last_reported":1685127900,"current_range_meters":26800,"station_id":"","pricing_plan_id":"free"},{"bike_id":"5bd96745-9a19-4fe7-b597-4db9cabdc957","system_id":"levelo_inurba_marseille","lat":43.33779,"lon":5.37428,"is_reserved":false,"is_disabled":false,"rental_uris":{"android":"levelo://app?vid=5bd96745-9a19-4fe7-b597-4db9cabdc957","ios":"levelo://app?vid=5bd96745-9a19-4fe7-b597-4db9cabdc957"},"vehicle_type_id":"4","last_reported":1685127900,"current_range_meters":28400,"station_id":"","pricing_plan_id":"free"},{"bike_id":"e97d524a-a83c-4e5e-a135-6d8388321409","system_id":"levelo_inurba_marseille","lat":43.298681,"lon":5.397225,"is_reserved":false,"is_disabled":false,"rental_uris":{"android":"levelo://app?vid=e97d524a-a83c-4e5e-a135-6d8388321409","ios":"levelo://app?vid=e97d524a-a83c-4e5e-a135-6d8388321409"},"vehicle_type_id":"4","last_reported":1685127900,"current_range_meters":2000,"station_id":"ce4bh0h2rcd13ifvqd50","pricing_plan_id":"free"},{"bike_id":"9acfc62b-aca0-47da-9dab-bc8055a5f614","system_id":"levelo_inurba_marseille","lat":43.290345,"lon":5.38646,"is_reserved":false,"is_disabled":false,"rental_uris":{"android":"levelo://app?vid=9acfc62b-aca0-47da-9dab-bc8055a5f614","ios":"levelo://app?vid=9acfc62b-aca0-47da-9dab-bc8055a5f614"},"vehicle_type_id":"4","last_reported":1685127900,"current_range_meters":31200,"station_id":"ce4bh4p2rcd13ifvqe0g","pricing_plan_id":"free"},{"bike_id":"c90037cd-a76f-4d3e-8909-e4e10cbd2318","system_id":"levelo_inurba_marseille","lat":43.30244,"lon":5.40056,"is_reserved":false,"is_disabled":false,"rental_uris":{"android":"levelo://app?vid=c90037cd-a76f-4d3e-8909-e4e10cbd2318","ios":"levelo://app?vid=c90037cd-a76f-4d3e-8909-e4e10cbd2318"},"vehicle_type_id":"4","last_reported":1685127900,"current_range_meters":6400,"station_id":"","pricing_plan_id":"free"},{"bike_id":"e6594eac-e5be-4653-a1bd-591824e161e5","system_id":"levelo_inurba_marseille","lat":43.302759,"lon":5.400793,"is_reserved":false,"is_disabled":false,"rental_uris":{"android":"levelo://app?vid=e6594eac-e5be-4653-a1bd-591824e161e5","ios":"levelo://app?vid=e6594eac-e5be-4653-a1bd-591824e161e5"},"vehicle_type_id":"4","last_reported":1685127900,"current_range_meters":4400,"station_id":"ce4bgvh2rcd13ifvqcs0","pricing_plan_id":"free"},{"bike_id":"13a0130d-2b02-4c0e-bd81-394213939214","system_id":"levelo_inurba_marseille","lat":43.28607,"lon":5.37064,"is_reserved":false,"is_disabled":false,"rental_uris":{"android":"levelo://app?vid=13a0130d-2b02-4c0e-bd81-394213939214","ios":"levelo://app?vid=13a0130d-2b02-4c0e-bd81-394213939214"},"vehicle_type_id":"4","last_reported":1685127900,"current_range_meters":2400,"station_id":"ce4bht12rcd13ifvqi60","pricing_plan_id":"free"},{"bike_id":"a4019966-0db0-46b1-b940-33afaf16b723","system_id":"levelo_inurba_marseille","lat":43.289184,"lon":5.366408,"is_reserved":false,"is_disabled":false,"rental_uris":{"android":"levelo://app?vid=a4019966-0db0-46b1-b940-33afaf16b723","ios":"levelo://app?vid=a4019966-0db0-46b1-b940-33afaf16b723"},"vehicle_type_id":"4","last_reported":1685127900,"current_range_meters":31600,"station_id":"ce4bhap2rcd13ifvqek0","pricing_plan_id":"free"},{"bike_id":"de2932c9-55f9-40e0-bfa5-07c74fda4b57","system_id":"levelo_inurba_marseille","lat":43.287184,"lon":5.37937,"is_reserved":false,"is_disabled":false,"rental_uris":{"android":"levelo://app?vid=de2932c9-55f9-40e0-bfa5-07c74fda4b57","ios":"levelo://app?vid=de2932c9-55f9-40e0-bfa5-07c74fda4b57"},"vehicle_type_id":"4","last_reported":1685127900,"current_range_meters":15200,"station_id":"ce4bh9p2rcd13ifvqec0","pricing_plan_id":"free"},{"bike_id":"c2fa10f4-c0d6-491a-b529-3d6e92f57623","system_id":"levelo_inurba_marseille","lat":43.287184,"lon":5.37937,"is_reserved":false,"is_disabled":false,"rental_uris":{"android":"levelo://app?vid=c2fa10f4-c0d6-491a-b529-3d6e92f57623","ios":"levelo://app?vid=c2fa10f4-c0d6-491a-b529-3d6e92f57623"},"vehicle_type_id":"4","last_reported":1685127900,"current_range_meters":6800,"station_id":"ce4bh9p2rcd13ifvqec0","pricing_plan_id":"free"},{"bike_id":"1ccf2fb9-fbeb-4426-a8f0-77370dda1207","system_id":"levelo_inurba_marseille","lat":43.316517,"lon":5.404375,"is_reserved":false,"is_disabled":false,"rental_uris":{"android":"levelo://app?vid=1ccf2fb9-fbeb-4426-a8f0-77370dda1207","ios":"levelo://app?vid=1ccf2fb9-fbeb-4426-a8f0-77370dda1207"},"vehicle_type_id":"4","last_reported":1685127900,"current_range_meters":8400,"station_id":"ce4bh012rcd13ifvqd00","pricing_plan_id":"free"},{"bike_id":"7fd062ca-e70a-42a5-a858-7064fdb4389d","system_id":"levelo_inurba_marseille","lat":43.31649,"lon":5.4044,"is_reserved":false,"is_disabled":false,"rental_uris":{"android":"levelo://app?vid=7fd062ca-e70a-42a5-a858-7064fdb4389d","ios":"levelo://app?vid=7fd062ca-e70a-42a5-a858-7064fdb4389d"},"vehicle_type_id":"4","last_reported":1685127900,"current_range_meters":3600,"station_id":"ce4bh012rcd13ifvqd00","pricing_plan_id":"free"},{"bike_id":"b20c2acb-fdb3-4a65-9340-4a591ee118b6","system_id":"levelo_inurba_marseille","lat":43.28511,"lon":5.37079,"is_reserved":false,"is_disabled":false,"rental_uris":{"android":"levelo://app?vid=b20c2acb-fdb3-4a65-9340-4a591ee118b6","ios":"levelo://app?vid=b20c2acb-fdb3-4a65-9340-4a591ee118b6"},"vehicle_type_id":"4","last_reported":1685127900,"current_range_meters":2400,"station_id":"ce4bht12rcd13ifvqi60","pricing_plan_id":"free"},{"bike_id":"cdd6db36-8c49-46b8-af45-b62185408784","system_id":"levelo_inurba_marseille","lat":43.284534,"lon":5.358662,"is_reserved":false,"is_disabled":false,"rental_uris":{"android":"levelo://app?vid=cdd6db36-8c49-46b8-af45-b62185408784","ios":"levelo://app?vid=cdd6db36-8c49-46b8-af45-b62185408784"},"vehicle_type_id":"4","last_reported":1685127900,"current_range_meters":22400,"station_id":"ce4bhah2rcd13ifvqei0","pricing_plan_id":"free"},{"bike_id":"d07664d8-9fe0-4efa-807f-af687e763345","system_id":"levelo_inurba_marseille","lat":43.284534,"lon":5.358662,"is_reserved":false,"is_disabled":false,"rental_uris":{"android":"levelo://app?vid=d07664d8-9fe0-4efa-807f-af687e763345","ios":"levelo://app?vid=d07664d8-9fe0-4efa-807f-af687e763345"},"vehicle_type_id":"4","last_reported":1685127900,"current_range_meters":2400,"station_id":"ce4bhah2rcd13ifvqei0","pricing_plan_id":"free"},{"bike_id":"ed8f0151-0409-41f4-90fd-2588b95c6146","system_id":"levelo_inurba_marseille","lat":43.284534,"lon":5.358662,"is_reserved":false,"is_disabled":false,"rental_uris":{"android":"levelo://app?vid=ed8f0151-0409-41f4-90fd-2588b95c6146","ios":"levelo://app?vid=ed8f0151-0409-41f4-90fd-2588b95c6146"},"vehicle_type_id":"4","last_reported":1685127900,"current_range_meters":6400,"station_id":"ce4bhah2rcd13ifvqei0","pricing_plan_id":"free"},{"bike_id":"30df7c33-1eb4-4330-830d-1c2e6ad0eefc","system_id":"levelo_inurba_marseille","lat":43.295713,"lon":5.399639,"is_reserved":false,"is_disabled":false,"rental_uris":{"android":"levelo://app?vid=30df7c33-1eb4-4330-830d-1c2e6ad0eefc","ios":"levelo://app?vid=30df7c33-1eb4-4330-830d-1c2e6ad0eefc"},"vehicle_type_id":"4","last_reported":1685127900,"current_range_meters":16000,"station_id":"ce4bh312rcd13ifvqdj0","pricing_plan_id":"free"},{"bike_id":"8233b1fc-cd93-4fa3-8a96-9704b82265f5","system_id":"levelo_inurba_marseille","lat":43.32345,"lon":5.40612,"is_reserved":false,"is_disabled":false,"rental_uris":{"android":"levelo://app?vid=8233b1fc-cd93-4fa3-8a96-9704b82265f5","ios":"levelo://app?vid=8233b1fc-cd93-4fa3-8a96-9704b82265f5"},"vehicle_type_id":"4","last_reported":1685127900,"current_range_meters":10000,"station_id":"ce4bhq92rcd13ifvqhjg","pricing_plan_id":"free"},{"bike_id":"d5fd31a8-b7a4-48f5-9751-f4ba7b16e78e","system_id":"levelo_inurba_marseille","lat":43.323464,"lon":5.406297,"is_reserved":false,"is_disabled":false,"rental_uris":{"android":"levelo://app?vid=d5fd31a8-b7a4-48f5-9751-f4ba7b16e78e","ios":"levelo://app?vid=d5fd31a8-b7a4-48f5-9751-f4ba7b16e78e"},"vehicle_type_id":"4","last_reported":1685127900,"current_range_meters":31200,"station_id":"ce4bhq92rcd13ifvqhjg","pricing_plan_id":"free"},{"bike_id":"e28a274d-67f0-472b-8b39-da84563c923e","system_id":"levelo_inurba_marseille","lat":43.323464,"lon":5.406297,"is_reserved":false,"is_disabled":false,"rental_uris":{"android":"levelo://app?vid=e28a274d-67f0-472b-8b39-da84563c923e","ios":"levelo://app?vid=e28a274d-67f0-472b-8b39-da84563c923e"},"vehicle_type_id":"4","last_reported":1685127900,"current_range_meters":31200,"station_id":"ce4bhq92rcd13ifvqhjg","pricing_plan_id":"free"},{"bike_id":"5371bbd7-c92f-4fd0-bddb-eca2c7cd5808","system_id":"levelo_inurba_marseille","lat":43.323464,"lon":5.406297,"is_reserved":false,"is_disabled":false,"rental_uris":{"android":"levelo://app?vid=5371bbd7-c92f-4fd0-bddb-eca2c7cd5808","ios":"levelo://app?vid=5371bbd7-c92f-4fd0-bddb-eca2c7cd5808"},"vehicle_type_id":"4","last_reported":1685127900,"current_range_meters":31200,"station_id":"ce4bhq92rcd13ifvqhjg","pricing_plan_id":"free"},{"bike_id":"8a020ae7-a135-40f5-a875-00dfaa32e0ce","system_id":"levelo_inurba_marseille","lat":43.323464,"lon":5.406297,"is_reserved":false,"is_disabled":false,"rental_uris":{"android":"levelo://app?vid=8a020ae7-a135-40f5-a875-00dfaa32e0ce","ios":"levelo://app?vid=8a020ae7-a135-40f5-a875-00dfaa32e0ce"},"vehicle_type_id":"4","last_reported":1685127900,"current_range_meters":26800,"station_id":"ce4bhq92rcd13ifvqhjg","pricing_plan_id":"free"},{"bike_id":"0604660a-83ae-41fb-b884-0f5a25e2d44c","system_id":"levelo_inurba_marseille","lat":43.28421,"lon":5.34996,"is_reserved":false,"is_disabled":false,"rental_uris":{"android":"levelo://app?vid=0604660a-83ae-41fb-b884-0f5a25e2d44c","ios":"levelo://app?vid=0604660a-83ae-41fb-b884-0f5a25e2d44c"},"vehicle_type_id":"4","last_reported":1685127900,"current_range_meters":800,"station_id":"ce4bhbh2rcd13ifvqepg","pricing_plan_id":"free"},{"bike_id":"82f9b77a-2380-4370-b84f-95182fa786cc","system_id":"levelo_inurba_marseille","lat":43.28422,"lon":5.3499,"is_reserved":false,"is_disabled":false,"rental_uris":{"android":"levelo://app?vid=82f9b77a-2380-4370-b84f-95182fa786cc","ios":"levelo://app?vid=82f9b77a-2380-4370-b84f-95182fa786cc"},"vehicle_type_id":"4","last_reported":1685127900,"current_range_meters":23600,"station_id":"ce4bhbh2rcd13ifvqepg","pricing_plan_id":"free"},{"bike_id":"115e18fc-15f9-4713-a264-9ffc5c21c23b","system_id":"levelo_inurba_marseille","lat":43.2842,"lon":5.34994,"is_reserved":false,"is_disabled":false,"rental_uris":{"android":"levelo://app?vid=115e18fc-15f9-4713-a264-9ffc5c21c23b","ios":"levelo://app?vid=115e18fc-15f9-4713-a264-9ffc5c21c23b"},"vehicle_type_id":"4","last_reported":1685127900,"current_range_meters":2800,"station_id":"ce4bhbh2rcd13ifvqepg","pricing_plan_id":"free"},{"bike_id":"2f891f70-b995-441c-a168-9209e32bddfb","system_id":"levelo_inurba_marseille","lat":43.2842,"lon":5.34989,"is_reserved":false,"is_disabled":false,"rental_uris":{"android":"levelo://app?vid=2f891f70-b995-441c-a168-9209e32bddfb","ios":"levelo://app?vid=2f891f70-b995-441c-a168-9209e32bddfb"},"vehicle_type_id":"4","last_reported":1685127900,"current_range_meters":10800,"station_id":"ce4bhbh2rcd13ifvqepg","pricing_plan_id":"free"},{"bike_id":"b931963e-8bed-4aa5-9414-803058236134","system_id":"levelo_inurba_marseille","lat":43.2841,"lon":5.34991,"is_reserved":false,"is_disabled":false,"rental_uris":{"android":"levelo://app?vid=b931963e-8bed-4aa5-9414-803058236134","ios":"levelo://app?vid=b931963e-8bed-4aa5-9414-803058236134"},"vehicle_type_id":"4","last_reported":1685127900,"current_range_meters":22000,"station_id":"ce4bhbh2rcd13ifvqepg","pricing_plan_id":"free"},{"bike_id":"6a2b406e-5900-4b39-ab43-23e92575ae58","system_id":"levelo_inurba_marseille","lat":43.289363,"lon":5.396322,"is_reserved":false,"is_disabled":false,"rental_uris":{"android":"levelo://app?vid=6a2b406e-5900-4b39-ab43-23e92575ae58","ios":"levelo://app?vid=6a2b406e-5900-4b39-ab43-23e92575ae58"},"vehicle_type_id":"4","last_reported":1685127900,"current_range_meters":20800,"station_id":"ce4bh3h2rcd13ifvqdn0","pricing_plan_id":"free"},{"bike_id":"434e5058-5e22-49b0-991c-b681b808e80a","system_id":"levelo_inurba_marseille","lat":43.282754,"lon":5.350519,"is_reserved":false,"is_disabled":false,"rental_uris":{"android":"levelo://app?vid=434e5058-5e22-49b0-991c-b681b808e80a","ios":"levelo://app?vid=434e5058-5e22-49b0-991c-b681b808e80a"},"vehicle_type_id":"4","last_reported":1685127900,"current_range_meters":16800,"station_id":"ce4bhbp2rcd13ifvqerg","pricing_plan_id":"free"},{"bike_id":"90348c63-1e49-4170-96dd-676bae10f648","system_id":"levelo_inurba_marseille","lat":43.28271,"lon":5.35075,"is_reserved":false,"is_disabled":false,"rental_uris":{"android":"levelo://app?vid=90348c63-1e49-4170-96dd-676bae10f648","ios":"levelo://app?vid=90348c63-1e49-4170-96dd-676bae10f648"},"vehicle_type_id":"4","last_reported":1685127900,"current_range_meters":0,"station_id":"ce4bhbp2rcd13ifvqerg","pricing_plan_id":"free"},{"bike_id":"1065d61c-a281-4ef0-9249-8cfd95d726d0","system_id":"levelo_inurba_marseille","lat":43.282754,"lon":5.350519,"is_reserved":false,"is_disabled":false,"rental_uris":{"android":"levelo://app?vid=1065d61c-a281-4ef0-9249-8cfd95d726d0","ios":"levelo://app?vid=1065d61c-a281-4ef0-9249-8cfd95d726d0"},"vehicle_type_id":"4","last_reported":1685127900,"current_range_meters":18800,"station_id":"ce4bhbp2rcd13ifvqerg","pricing_plan_id":"free"},{"bike_id":"90a28c39-6ec5-4383-8715-8efbd07e004b","system_id":"levelo_inurba_marseille","lat":43.282754,"lon":5.350519,"is_reserved":false,"is_disabled":false,"rental_uris":{"android":"levelo://app?vid=90a28c39-6ec5-4383-8715-8efbd07e004b","ios":"levelo://app?vid=90a28c39-6ec5-4383-8715-8efbd07e004b"},"vehicle_type_id":"4","last_reported":1685127900,"current_range_meters":18800,"station_id":"ce4bhbp2rcd13ifvqerg","pricing_plan_id":"free"},{"bike_id":"a0c841c9-3051-4f3a-81be-9dd6c6367202","system_id":"levelo_inurba_marseille","lat":43.282744,"lon":5.350533,"is_reserved":false,"is_disabled":false,"rental_uris":{"android":"levelo://app?vid=a0c841c9-3051-4f3a-81be-9dd6c6367202","ios":"levelo://app?vid=a0c841c9-3051-4f3a-81be-9dd6c6367202"},"vehicle_type_id":"4","last_reported":1685127900,"current_range_meters":10000,"station_id":"ce4bhbp2rcd13ifvqerg","pricing_plan_id":"free"},{"bike_id":"4abc15ce-8297-4f27-8750-368b2d062e42","system_id":"levelo_inurba_marseille","lat":43.28265,"lon":5.35059,"is_reserved":false,"is_disabled":false,"rental_uris":{"android":"levelo://app?vid=4abc15ce-8297-4f27-8750-368b2d062e42","ios":"levelo://app?vid=4abc15ce-8297-4f27-8750-368b2d062e42"},"vehicle_type_id":"4","last_reported":1685127900,"current_range_meters":18800,"station_id":"ce4bhbp2rcd13ifvqerg","pricing_plan_id":"free"},{"bike_id":"30eba978-2bf5-4952-8d70-1731c0d73a7a","system_id":"levelo_inurba_marseille","lat":43.2826,"lon":5.3506,"is_reserved":false,"is_disabled":false,"rental_uris":{"android":"levelo://app?vid=30eba978-2bf5-4952-8d70-1731c0d73a7a","ios":"levelo://app?vid=30eba978-2bf5-4952-8d70-1731c0d73a7a"},"vehicle_type_id":"4","last_reported":1685127900,"current_range_meters":13200,"station_id":"ce4bhbp2rcd13ifvqerg","pricing_plan_id":"free"},{"bike_id":"f9541dfa-274a-4870-b879-6f20d1bd61f5","system_id":"levelo_inurba_marseille","lat":43.28039,"lon":5.369297,"is_reserved":false,"is_disabled":false,"rental_uris":{"android":"levelo://app?vid=f9541dfa-274a-4870-b879-6f20d1bd61f5","ios":"levelo://app?vid=f9541dfa-274a-4870-b879-6f20d1bd61f5"},"vehicle_type_id":"4","last_reported":1685127900,"current_range_meters":2800,"station_id":"ce4bha12rcd13ifvqef0","pricing_plan_id":"free"},{"bike_id":"25992576-41f7-4641-82ad-e99f5b7bba13","system_id":"levelo_inurba_marseille","lat":43.28037,"lon":5.36939,"is_reserved":false,"is_disabled":false,"rental_uris":{"android":"levelo://app?vid=25992576-41f7-4641-82ad-e99f5b7bba13","ios":"levelo://app?vid=25992576-41f7-4641-82ad-e99f5b7bba13"},"vehicle_type_id":"4","last_reported":1685127900,"current_range_meters":12800,"station_id":"ce4bha12rcd13ifvqef0","pricing_plan_id":"free"},{"bike_id":"32d46e86-922e-49ae-aa53-35a8ee07119f","system_id":"levelo_inurba_marseille","lat":43.28039,"lon":5.369297,"is_reserved":false,"is_disabled":false,"rental_uris":{"android":"levelo://app?vid=32d46e86-922e-49ae-aa53-35a8ee07119f","ios":"levelo://app?vid=32d46e86-922e-49ae-aa53-35a8ee07119f"},"vehicle_type_id":"4","last_reported":1685127900,"current_range_meters":5600,"station_id":"ce4bha12rcd13ifvqef0","pricing_plan_id":"free"},{"bike_id":"4d39b5bb-d6fa-424d-be64-916bc9eba23d","system_id":"levelo_inurba_marseille","lat":43.282744,"lon":5.350533,"is_reserved":false,"is_disabled":false,"rental_uris":{"android":"levelo://app?vid=4d39b5bb-d6fa-424d-be64-916bc9eba23d","ios":"levelo://app?vid=4d39b5bb-d6fa-424d-be64-916bc9eba23d"},"vehicle_type_id":"4","last_reported":1685127900,"current_range_meters":0,"station_id":"ce4bhbp2rcd13ifvqerg","pricing_plan_id":"free"},{"bike_id":"12370c5b-dd55-4056-ac17-31ab700e2ca0","system_id":"levelo_inurba_marseille","lat":43.28039,"lon":5.369297,"is_reserved":false,"is_disabled":false,"rental_uris":{"android":"levelo://app?vid=12370c5b-dd55-4056-ac17-31ab700e2ca0","ios":"levelo://app?vid=12370c5b-dd55-4056-ac17-31ab700e2ca0"},"vehicle_type_id":"4","last_reported":1685127900,"current_range_meters":4800,"station_id":"ce4bha12rcd13ifvqef0","pricing_plan_id":"free"},{"bike_id":"4d86ce40-e406-44d0-9e2e-59dcfae65e59","system_id":"levelo_inurba_marseille","lat":43.29041,"lon":5.39947,"is_reserved":false,"is_disabled":false,"rental_uris":{"android":"levelo://app?vid=4d86ce40-e406-44d0-9e2e-59dcfae65e59","ios":"levelo://app?vid=4d86ce40-e406-44d0-9e2e-59dcfae65e59"},"vehicle_type_id":"4","last_reported":1685127900,"current_range_meters":0,"station_id":"ce4bh392rcd13ifvqdm0","pricing_plan_id":"free"},{"bike_id":"5bda4107-b7ca-48e1-b8b7-046a3c3d6c7b","system_id":"levelo_inurba_marseille","lat":43.29633,"lon":5.40591,"is_reserved":false,"is_disabled":false,"rental_uris":{"android":"levelo://app?vid=5bda4107-b7ca-48e1-b8b7-046a3c3d6c7b","ios":"levelo://app?vid=5bda4107-b7ca-48e1-b8b7-046a3c3d6c7b"},"vehicle_type_id":"4","last_reported":1685127900,"current_range_meters":4800,"station_id":"ce4bh0h2rcd13ifvqd60","pricing_plan_id":"free"},{"bike_id":"a9c3da95-2496-4336-beec-91373cdd197e","system_id":"levelo_inurba_marseille","lat":43.296263,"lon":5.40601,"is_reserved":false,"is_disabled":false,"rental_uris":{"android":"levelo://app?vid=a9c3da95-2496-4336-beec-91373cdd197e","ios":"levelo://app?vid=a9c3da95-2496-4336-beec-91373cdd197e"},"vehicle_type_id":"4","last_reported":1685127900,"current_range_meters":14400,"station_id":"ce4bh0h2rcd13ifvqd60","pricing_plan_id":"free"},{"bike_id":"2c7fac34-1341-443c-8c20-b8a601c26eb6","system_id":"levelo_inurba_marseille","lat":43.28092,"lon":5.37854,"is_reserved":false,"is_disabled":false,"rental_uris":{"android":"levelo://app?vid=2c7fac34-1341-443c-8c20-b8a601c26eb6","ios":"levelo://app?vid=2c7fac34-1341-443c-8c20-b8a601c26eb6"},"vehicle_type_id":"4","last_reported":1685127900,"current_range_meters":16800,"station_id":"ce4bha12rcd13ifvqee0","pricing_plan_id":"free"},{"bike_id":"dd3c167a-bfb9-4c4a-acac-f1e8b76325c5","system_id":"levelo_inurba_marseille","lat":43.285742,"lon":5.395004,"is_reserved":false,"is_disabled":false,"rental_uris":{"android":"levelo://app?vid=dd3c167a-bfb9-4c4a-acac-f1e8b76325c5","ios":"levelo://app?vid=dd3c167a-bfb9-4c4a-acac-f1e8b76325c5"},"vehicle_type_id":"4","last_reported":1685127900,"current_range_meters":0,"station_id":"ce4bh292rcd13ifvqdg0","pricing_plan_id":"free"},{"bike_id":"e8616103-1dc3-4dab-889e-0a97f1e43798","system_id":"levelo_inurba_marseille","lat":43.27906,"lon":5.38014,"is_reserved":false,"is_disabled":false,"rental_uris":{"android":"levelo://app?vid=e8616103-1dc3-4dab-889e-0a97f1e43798","ios":"levelo://app?vid=e8616103-1dc3-4dab-889e-0a97f1e43798"},"vehicle_type_id":"4","last_reported":1685127900,"current_range_meters":12800,"station_id":"","pricing_plan_id":"free"},{"bike_id":"ac3963b2-be8c-498c-ae2f-09e027148ade","system_id":"levelo_inurba_marseille","lat":43.287061,"lon":5.399911,"is_reserved":false,"is_disabled":false,"rental_uris":{"android":"levelo://app?vid=ac3963b2-be8c-498c-ae2f-09e027148ade","ios":"levelo://app?vid=ac3963b2-be8c-498c-ae2f-09e027148ade"},"vehicle_type_id":"4","last_reported":1685127900,"current_range_meters":7600,"station_id":"","pricing_plan_id":"free"},{"bike_id":"5f3bb4b4-c2da-4697-8685-14722c08ee53","system_id":"levelo_inurba_marseille","lat":43.27618,"lon":5.361009,"is_reserved":false,"is_disabled":false,"rental_uris":{"android":"levelo://app?vid=5f3bb4b4-c2da-4697-8685-14722c08ee53","ios":"levelo://app?vid=5f3bb4b4-c2da-4697-8685-14722c08ee53"},"vehicle_type_id":"4","last_reported":1685127900,"current_range_meters":14800,"station_id":"ce4bgj92rcd13ifvqbe0","pricing_plan_id":"free"},{"bike_id":"4aa4125d-76db-44b0-b097-6e1676f5135d","system_id":"levelo_inurba_marseille","lat":43.27618,"lon":5.361009,"is_reserved":false,"is_disabled":false,"rental_uris":{"android":"levelo://app?vid=4aa4125d-76db-44b0-b097-6e1676f5135d","ios":"levelo://app?vid=4aa4125d-76db-44b0-b097-6e1676f5135d"},"vehicle_type_id":"4","last_reported":1685127900,"current_range_meters":16000,"station_id":"ce4bgj92rcd13ifvqbe0","pricing_plan_id":"free"},{"bike_id":"eed5fe08-6fae-4bbb-a99e-dafe3c787b24","system_id":"levelo_inurba_marseille","lat":43.274087,"lon":5.362189,"is_reserved":false,"is_disabled":false,"rental_uris":{"android":"levelo://app?vid=eed5fe08-6fae-4bbb-a99e-dafe3c787b24","ios":"levelo://app?vid=eed5fe08-6fae-4bbb-a99e-dafe3c787b24"},"vehicle_type_id":"4","last_reported":1685127900,"current_range_meters":18400,"station_id":"","pricing_plan_id":"free"},{"bike_id":"27477080-4773-435c-abe6-56bbe3450638","system_id":"levelo_inurba_marseille","lat":43.278401,"lon":5.392152,"is_reserved":false,"is_disabled":false,"rental_uris":{"android":"levelo://app?vid=27477080-4773-435c-abe6-56bbe3450638","ios":"levelo://app?vid=27477080-4773-435c-abe6-56bbe3450638"},"vehicle_type_id":"4","last_reported":1685127900,"current_range_meters":2000,"station_id":"ce4bhjp2rcd13ifvqga0","pricing_plan_id":"free"},{"bike_id":"07dee2de-b6fa-42eb-890f-01703a876123","system_id":"levelo_inurba_marseille","lat":43.273613,"lon":5.362705,"is_reserved":false,"is_disabled":false,"rental_uris":{"android":"levelo://app?vid=07dee2de-b6fa-42eb-890f-01703a876123","ios":"levelo://app?vid=07dee2de-b6fa-42eb-890f-01703a876123"},"vehicle_type_id":"4","last_reported":1685127900,"current_range_meters":9600,"station_id":"ce4bhbh2rcd13ifvqeo0","pricing_plan_id":"free"},{"bike_id":"1983297f-cfb1-4568-ab03-c2407e148d4b","system_id":"levelo_inurba_marseille","lat":43.273613,"lon":5.362705,"is_reserved":false,"is_disabled":false,"rental_uris":{"android":"levelo://app?vid=1983297f-cfb1-4568-ab03-c2407e148d4b","ios":"levelo://app?vid=1983297f-cfb1-4568-ab03-c2407e148d4b"},"vehicle_type_id":"4","last_reported":1685127900,"current_range_meters":5600,"station_id":"ce4bhbh2rcd13ifvqeo0","pricing_plan_id":"free"},{"bike_id":"3b00e4b9-1f70-4322-ae5f-0c83962ad1aa","system_id":"levelo_inurba_marseille","lat":43.336134,"lon":5.410341,"is_reserved":false,"is_disabled":false,"rental_uris":{"android":"levelo://app?vid=3b00e4b9-1f70-4322-ae5f-0c83962ad1aa","ios":"levelo://app?vid=3b00e4b9-1f70-4322-ae5f-0c83962ad1aa"},"vehicle_type_id":"4","last_reported":1685127900,"current_range_meters":11200,"station_id":"ce4bhqh2rcd13ifvqhmg","pricing_plan_id":"free"},{"bike_id":"959bf65e-fac0-4992-a582-2f91b5497d8d","system_id":"levelo_inurba_marseille","lat":43.317121,"lon":5.423936,"is_reserved":false,"is_disabled":false,"rental_uris":{"android":"levelo://app?vid=959bf65e-fac0-4992-a582-2f91b5497d8d","ios":"levelo://app?vid=959bf65e-fac0-4992-a582-2f91b5497d8d"},"vehicle_type_id":"4","last_reported":1685127900,"current_range_meters":13200,"station_id":"ce4bhp92rcd13ifvqhbg","pricing_plan_id":"free"},{"bike_id":"2f727e10-a7e1-4e46-8c74-37b957f4c2c0","system_id":"levelo_inurba_marseille","lat":43.317121,"lon":5.423936,"is_reserved":false,"is_disabled":false,"rental_uris":{"android":"levelo://app?vid=2f727e10-a7e1-4e46-8c74-37b957f4c2c0","ios":"levelo://app?vid=2f727e10-a7e1-4e46-8c74-37b957f4c2c0"},"vehicle_type_id":"4","last_reported":1685127900,"current_range_meters":31600,"station_id":"ce4bhp92rcd13ifvqhbg","pricing_plan_id":"free"},{"bike_id":"1b3a9706-1d75-49da-b04f-a8d2d21f8a41","system_id":"levelo_inurba_marseille","lat":43.310785,"lon":5.424305,"is_reserved":false,"is_disabled":false,"rental_uris":{"android":"levelo://app?vid=1b3a9706-1d75-49da-b04f-a8d2d21f8a41","ios":"levelo://app?vid=1b3a9706-1d75-49da-b04f-a8d2d21f8a41"},"vehicle_type_id":"4","last_reported":1685127900,"current_range_meters":25600,"station_id":"ce4bhp92rcd13ifvqhag","pricing_plan_id":"free"},{"bike_id":"8924875d-c949-4a85-bd85-be15c0fdd64a","system_id":"levelo_inurba_marseille","lat":43.317121,"lon":5.423936,"is_reserved":false,"is_disabled":false,"rental_uris":{"android":"levelo://app?vid=8924875d-c949-4a85-bd85-be15c0fdd64a","ios":"levelo://app?vid=8924875d-c949-4a85-bd85-be15c0fdd64a"},"vehicle_type_id":"4","last_reported":1685127900,"current_range_meters":23200,"station_id":"ce4bhp92rcd13ifvqhbg","pricing_plan_id":"free"},{"bike_id":"6d713c6e-b9c6-4bb9-9970-dd3ec8ae03ba","system_id":"levelo_inurba_marseille","lat":43.295511,"lon":5.422926,"is_reserved":false,"is_disabled":false,"rental_uris":{"android":"levelo://app?vid=6d713c6e-b9c6-4bb9-9970-dd3ec8ae03ba","ios":"levelo://app?vid=6d713c6e-b9c6-4bb9-9970-dd3ec8ae03ba"},"vehicle_type_id":"4","last_reported":1685127900,"current_range_meters":5600,"station_id":"ce4bhph2rcd13ifvqhdg","pricing_plan_id":"free"},{"bike_id":"aa48024b-638e-4c91-8341-bb88b8e8aa05","system_id":"levelo_inurba_marseille","lat":43.295511,"lon":5.422926,"is_reserved":false,"is_disabled":false,"rental_uris":{"android":"levelo://app?vid=aa48024b-638e-4c91-8341-bb88b8e8aa05","ios":"levelo://app?vid=aa48024b-638e-4c91-8341-bb88b8e8aa05"},"vehicle_type_id":"4","last_reported":1685127900,"current_range_meters":0,"station_id":"ce4bhph2rcd13ifvqhdg","pricing_plan_id":"free"},{"bike_id":"425ea504-a237-4b79-a17c-61638c7a2040","system_id":"levelo_inurba_marseille","lat":43.278128,"lon":5.407195,"is_reserved":false,"is_disabled":false,"rental_uris":{"android":"levelo://app?vid=425ea504-a237-4b79-a17c-61638c7a2040","ios":"levelo://app?vid=425ea504-a237-4b79-a17c-61638c7a2040"},"vehicle_type_id":"4","last_reported":1685127900,"current_range_meters":26000,"station_id":"ce4bhnh2rcd13ifvqgtg","pricing_plan_id":"free"},{"bike_id":"3703d631-125e-4a24-9add-758e5f7ccd69","system_id":"levelo_inurba_marseille","lat":43.26681,"lon":5.382694,"is_reserved":false,"is_disabled":false,"rental_uris":{"android":"levelo://app?vid=3703d631-125e-4a24-9add-758e5f7ccd69","ios":"levelo://app?vid=3703d631-125e-4a24-9add-758e5f7ccd69"},"vehicle_type_id":"4","last_reported":1685127900,"current_range_meters":6800,"station_id":"ce4bhg92rcd13ifvqf90","pricing_plan_id":"free"},{"bike_id":"c55545fe-c77e-4b90-8078-4b300a7933af","system_id":"levelo_inurba_marseille","lat":43.265714,"lon":5.372891,"is_reserved":false,"is_disabled":false,"rental_uris":{"android":"levelo://app?vid=c55545fe-c77e-4b90-8078-4b300a7933af","ios":"levelo://app?vid=c55545fe-c77e-4b90-8078-4b300a7933af"},"vehicle_type_id":"4","last_reported":1685127900,"current_range_meters":12000,"station_id":"ce4bhg12rcd13ifvqf70","pricing_plan_id":"free"},{"bike_id":"16035af6-0435-45ab-bdf6-8767d6a98021","system_id":"levelo_inurba_marseille","lat":43.265714,"lon":5.372891,"is_reserved":false,"is_disabled":false,"rental_uris":{"android":"levelo://app?vid=16035af6-0435-45ab-bdf6-8767d6a98021","ios":"levelo://app?vid=16035af6-0435-45ab-bdf6-8767d6a98021"},"vehicle_type_id":"4","last_reported":1685127900,"current_range_meters":2000,"station_id":"ce4bhg12rcd13ifvqf70","pricing_plan_id":"free"},{"bike_id":"ade652cc-fe1a-432e-a97a-6790c43e01f7","system_id":"levelo_inurba_marseille","lat":43.265714,"lon":5.372891,"is_reserved":false,"is_disabled":false,"rental_uris":{"android":"levelo://app?vid=ade652cc-fe1a-432e-a97a-6790c43e01f7","ios":"levelo://app?vid=ade652cc-fe1a-432e-a97a-6790c43e01f7"},"vehicle_type_id":"4","last_reported":1685127900,"current_range_meters":9200,"station_id":"ce4bhg12rcd13ifvqf70","pricing_plan_id":"free"},{"bike_id":"e12f170d-d286-410a-8c26-82cccf7f2ded","system_id":"levelo_inurba_marseille","lat":43.265714,"lon":5.372891,"is_reserved":false,"is_disabled":false,"rental_uris":{"android":"levelo://app?vid=e12f170d-d286-410a-8c26-82cccf7f2ded","ios":"levelo://app?vid=e12f170d-d286-410a-8c26-82cccf7f2ded"},"vehicle_type_id":"4","last_reported":1685127900,"current_range_meters":2000,"station_id":"ce4bhg12rcd13ifvqf70","pricing_plan_id":"free"},{"bike_id":"0f24dc1a-e769-48e4-a610-d2abeadc27ec","system_id":"levelo_inurba_marseille","lat":43.265714,"lon":5.372891,"is_reserved":false,"is_disabled":false,"rental_uris":{"android":"levelo://app?vid=0f24dc1a-e769-48e4-a610-d2abeadc27ec","ios":"levelo://app?vid=0f24dc1a-e769-48e4-a610-d2abeadc27ec"},"vehicle_type_id":"4","last_reported":1685127900,"current_range_meters":20800,"station_id":"ce4bhg12rcd13ifvqf70","pricing_plan_id":"free"},{"bike_id":"2e18f64f-160d-4cc2-ab99-cf430a92b7d9","system_id":"levelo_inurba_marseille","lat":43.30796,"lon":5.43521,"is_reserved":false,"is_disabled":false,"rental_uris":{"android":"levelo://app?vid=2e18f64f-160d-4cc2-ab99-cf430a92b7d9","ios":"levelo://app?vid=2e18f64f-160d-4cc2-ab99-cf430a92b7d9"},"vehicle_type_id":"4","last_reported":1685127900,"current_range_meters":0,"station_id":"","pricing_plan_id":"free"},{"bike_id":"b35a7040-bbda-43db-9397-f046555e255b","system_id":"levelo_inurba_marseille","lat":43.30792,"lon":5.43521,"is_reserved":false,"is_disabled":false,"rental_uris":{"android":"levelo://app?vid=b35a7040-bbda-43db-9397-f046555e255b","ios":"levelo://app?vid=b35a7040-bbda-43db-9397-f046555e255b"},"vehicle_type_id":"4","last_reported":1685127900,"current_range_meters":23200,"station_id":"","pricing_plan_id":"free"},{"bike_id":"eb1e9204-f731-477a-a0fc-855503dec74a","system_id":"levelo_inurba_marseille","lat":43.265571,"lon":5.390032,"is_reserved":false,"is_disabled":false,"rental_uris":{"android":"levelo://app?vid=eb1e9204-f731-477a-a0fc-855503dec74a","ios":"levelo://app?vid=eb1e9204-f731-477a-a0fc-855503dec74a"},"vehicle_type_id":"4","last_reported":1685127900,"current_range_meters":8400,"station_id":"ce4bhe12rcd13ifvqf30","pricing_plan_id":"free"},{"bike_id":"eb1e7463-04a7-4eb1-b297-dd018c79d527","system_id":"levelo_inurba_marseille","lat":43.30799,"lon":5.43528,"is_reserved":false,"is_disabled":false,"rental_uris":{"android":"levelo://app?vid=eb1e7463-04a7-4eb1-b297-dd018c79d527","ios":"levelo://app?vid=eb1e7463-04a7-4eb1-b297-dd018c79d527"},"vehicle_type_id":"4","last_reported":1685127900,"current_range_meters":400,"station_id":"","pricing_plan_id":"free"},{"bike_id":"8c7a83c3-3572-401b-9453-4b3c187e45e7","system_id":"levelo_inurba_marseille","lat":43.261782,"lon":5.374515,"is_reserved":false,"is_disabled":false,"rental_uris":{"android":"levelo://app?vid=8c7a83c3-3572-401b-9453-4b3c187e45e7","ios":"levelo://app?vid=8c7a83c3-3572-401b-9453-4b3c187e45e7"},"vehicle_type_id":"4","last_reported":1685127900,"current_range_meters":14400,"station_id":"ce4bhgp2rcd13ifvqfc0","pricing_plan_id":"free"},{"bike_id":"097bb150-edf9-4137-b8fc-9b23a1ab8972","system_id":"levelo_inurba_marseille","lat":43.261782,"lon":5.374515,"is_reserved":false,"is_disabled":false,"rental_uris":{"android":"levelo://app?vid=097bb150-edf9-4137-b8fc-9b23a1ab8972","ios":"levelo://app?vid=097bb150-edf9-4137-b8fc-9b23a1ab8972"},"vehicle_type_id":"4","last_reported":1685127900,"current_range_meters":0,"station_id":"ce4bhgp2rcd13ifvqfc0","pricing_plan_id":"free"},{"bike_id":"68f6fdc7-8519-4a20-a477-d8d198b98865","system_id":"levelo_inurba_marseille","lat":43.26191,"lon":5.37442,"is_reserved":false,"is_disabled":false,"rental_uris":{"android":"levelo://app?vid=68f6fdc7-8519-4a20-a477-d8d198b98865","ios":"levelo://app?vid=68f6fdc7-8519-4a20-a477-d8d198b98865"},"vehicle_type_id":"4","last_reported":1685127900,"current_range_meters":13200,"station_id":"ce4bhgp2rcd13ifvqfc0","pricing_plan_id":"free"},{"bike_id":"493dca44-942f-49b0-afd2-7ac9a53095f4","system_id":"levelo_inurba_marseille","lat":43.2619,"lon":5.37439,"is_reserved":false,"is_disabled":false,"rental_uris":{"android":"levelo://app?vid=493dca44-942f-49b0-afd2-7ac9a53095f4","ios":"levelo://app?vid=493dca44-942f-49b0-afd2-7ac9a53095f4"},"vehicle_type_id":"4","last_reported":1685127900,"current_range_meters":0,"station_id":"ce4bhgp2rcd13ifvqfc0","pricing_plan_id":"free"},{"bike_id":"3dfe91a2-6f85-4e98-9ddb-d22b30b9292a","system_id":"levelo_inurba_marseille","lat":43.261782,"lon":5.374515,"is_reserved":false,"is_disabled":false,"rental_uris":{"android":"levelo://app?vid=3dfe91a2-6f85-4e98-9ddb-d22b30b9292a","ios":"levelo://app?vid=3dfe91a2-6f85-4e98-9ddb-d22b30b9292a"},"vehicle_type_id":"4","last_reported":1685127900,"current_range_meters":17600,"station_id":"ce4bhgp2rcd13ifvqfc0","pricing_plan_id":"free"},{"bike_id":"e0ba8dda-c226-4036-85ba-a5fa03099967","system_id":"levelo_inurba_marseille","lat":43.261782,"lon":5.374515,"is_reserved":false,"is_disabled":false,"rental_uris":{"android":"levelo://app?vid=e0ba8dda-c226-4036-85ba-a5fa03099967","ios":"levelo://app?vid=e0ba8dda-c226-4036-85ba-a5fa03099967"},"vehicle_type_id":"4","last_reported":1685127900,"current_range_meters":10400,"station_id":"ce4bhgp2rcd13ifvqfc0","pricing_plan_id":"free"},{"bike_id":"f27d346a-c8a5-4aa3-9c23-b0942ba9d4ef","system_id":"levelo_inurba_marseille","lat":43.26185,"lon":5.37439,"is_reserved":false,"is_disabled":false,"rental_uris":{"android":"levelo://app?vid=f27d346a-c8a5-4aa3-9c23-b0942ba9d4ef","ios":"levelo://app?vid=f27d346a-c8a5-4aa3-9c23-b0942ba9d4ef"},"vehicle_type_id":"4","last_reported":1685127900,"current_range_meters":31200,"station_id":"ce4bhgp2rcd13ifvqfc0","pricing_plan_id":"free"},{"bike_id":"a3f77fc0-9e11-4436-921c-0dd2bf609c28","system_id":"levelo_inurba_marseille","lat":43.261782,"lon":5.374515,"is_reserved":false,"is_disabled":false,"rental_uris":{"android":"levelo://app?vid=a3f77fc0-9e11-4436-921c-0dd2bf609c28","ios":"levelo://app?vid=a3f77fc0-9e11-4436-921c-0dd2bf609c28"},"vehicle_type_id":"4","last_reported":1685127900,"current_range_meters":22000,"station_id":"ce4bhgp2rcd13ifvqfc0","pricing_plan_id":"free"},{"bike_id":"fcc38108-7f9e-404e-bab9-7473757265b4","system_id":"levelo_inurba_marseille","lat":43.261782,"lon":5.374515,"is_reserved":false,"is_disabled":false,"rental_uris":{"android":"levelo://app?vid=fcc38108-7f9e-404e-bab9-7473757265b4","ios":"levelo://app?vid=fcc38108-7f9e-404e-bab9-7473757265b4"},"vehicle_type_id":"4","last_reported":1685127900,"current_range_meters":12000,"station_id":"ce4bhgp2rcd13ifvqfc0","pricing_plan_id":"free"},{"bike_id":"29d95032-3067-4e96-b98c-5ce5745a0d97","system_id":"levelo_inurba_marseille","lat":43.261782,"lon":5.374515,"is_reserved":false,"is_disabled":false,"rental_uris":{"android":"levelo://app?vid=29d95032-3067-4e96-b98c-5ce5745a0d97","ios":"levelo://app?vid=29d95032-3067-4e96-b98c-5ce5745a0d97"},"vehicle_type_id":"4","last_reported":1685127900,"current_range_meters":3600,"station_id":"ce4bhgp2rcd13ifvqfc0","pricing_plan_id":"free"},{"bike_id":"6caacd0e-46b0-41a9-8c62-afb29db7e6c7","system_id":"levelo_inurba_marseille","lat":43.317104,"lon":5.436818,"is_reserved":false,"is_disabled":false,"rental_uris":{"android":"levelo://app?vid=6caacd0e-46b0-41a9-8c62-afb29db7e6c7","ios":"levelo://app?vid=6caacd0e-46b0-41a9-8c62-afb29db7e6c7"},"vehicle_type_id":"4","last_reported":1685127900,"current_range_meters":31600,"station_id":"ce4bhp92rcd13ifvqhcg","pricing_plan_id":"free"},{"bike_id":"a40b814c-8d11-48f9-af9c-8f2d70505adb","system_id":"levelo_inurba_marseille","lat":43.31713,"lon":5.43707,"is_reserved":false,"is_disabled":false,"rental_uris":{"android":"levelo://app?vid=a40b814c-8d11-48f9-af9c-8f2d70505adb","ios":"levelo://app?vid=a40b814c-8d11-48f9-af9c-8f2d70505adb"},"vehicle_type_id":"4","last_reported":1685127900,"current_range_meters":25600,"station_id":"ce4bhp92rcd13ifvqhcg","pricing_plan_id":"free"},{"bike_id":"677fe151-801a-4d73-9e92-e9bc07905498","system_id":"levelo_inurba_marseille","lat":43.31718,"lon":5.43707,"is_reserved":false,"is_disabled":false,"rental_uris":{"android":"levelo://app?vid=677fe151-801a-4d73-9e92-e9bc07905498","ios":"levelo://app?vid=677fe151-801a-4d73-9e92-e9bc07905498"},"vehicle_type_id":"4","last_reported":1685127900,"current_range_meters":30400,"station_id":"ce4bhp92rcd13ifvqhcg","pricing_plan_id":"free"},{"bike_id":"178a9c1c-76d1-4211-87c1-5597d4ccc4e3","system_id":"levelo_inurba_marseille","lat":43.317104,"lon":5.436818,"is_reserved":false,"is_disabled":false,"rental_uris":{"android":"levelo://app?vid=178a9c1c-76d1-4211-87c1-5597d4ccc4e3","ios":"levelo://app?vid=178a9c1c-76d1-4211-87c1-5597d4ccc4e3"},"vehicle_type_id":"4","last_reported":1685127900,"current_range_meters":16000,"station_id":"ce4bhp92rcd13ifvqhcg","pricing_plan_id":"free"},{"bike_id":"c54d4b6c-1ac5-4af8-b496-e75a454c8f8d","system_id":"levelo_inurba_marseille","lat":43.2618,"lon":5.37444,"is_reserved":false,"is_disabled":false,"rental_uris":{"android":"levelo://app?vid=c54d4b6c-1ac5-4af8-b496-e75a454c8f8d","ios":"levelo://app?vid=c54d4b6c-1ac5-4af8-b496-e75a454c8f8d"},"vehicle_type_id":"4","last_reported":1685127900,"current_range_meters":400,"station_id":"ce4bhgp2rcd13ifvqfc0","pricing_plan_id":"free"},{"bike_id":"ffba4be3-ca70-46ef-8228-16aa951b4cd6","system_id":"levelo_inurba_marseille","lat":43.317104,"lon":5.436818,"is_reserved":false,"is_disabled":false,"rental_uris":{"android":"levelo://app?vid=ffba4be3-ca70-46ef-8228-16aa951b4cd6","ios":"levelo://app?vid=ffba4be3-ca70-46ef-8228-16aa951b4cd6"},"vehicle_type_id":"4","last_reported":1685127900,"current_range_meters":31600,"station_id":"ce4bhp92rcd13ifvqhcg","pricing_plan_id":"free"},{"bike_id":"bb8daff0-5994-4de6-97ce-013dcedbf696","system_id":"levelo_inurba_marseille","lat":43.317104,"lon":5.436818,"is_reserved":false,"is_disabled":false,"rental_uris":{"android":"levelo://app?vid=bb8daff0-5994-4de6-97ce-013dcedbf696","ios":"levelo://app?vid=bb8daff0-5994-4de6-97ce-013dcedbf696"},"vehicle_type_id":"4","last_reported":1685127900,"current_range_meters":9600,"station_id":"ce4bhp92rcd13ifvqhcg","pricing_plan_id":"free"},{"bike_id":"97f92444-dc7f-4ac8-885e-43ac50454dc0","system_id":"levelo_inurba_marseille","lat":43.31711,"lon":5.43715,"is_reserved":false,"is_disabled":false,"rental_uris":{"android":"levelo://app?vid=97f92444-dc7f-4ac8-885e-43ac50454dc0","ios":"levelo://app?vid=97f92444-dc7f-4ac8-885e-43ac50454dc0"},"vehicle_type_id":"4","last_reported":1685127900,"current_range_meters":0,"station_id":"ce4bhp92rcd13ifvqhcg","pricing_plan_id":"free"},{"bike_id":"555a98c0-a2be-4e1f-9a4d-f11482aaa383","system_id":"levelo_inurba_marseille","lat":43.271368,"lon":5.40928,"is_reserved":false,"is_disabled":false,"rental_uris":{"android":"levelo://app?vid=555a98c0-a2be-4e1f-9a4d-f11482aaa383","ios":"levelo://app?vid=555a98c0-a2be-4e1f-9a4d-f11482aaa383"},"vehicle_type_id":"4","last_reported":1685127900,"current_range_meters":24400,"station_id":"ce4bhl12rcd13ifvqgf0","pricing_plan_id":"free"},{"bike_id":"6bbab788-de88-4e15-878d-a9712d36ca89","system_id":"levelo_inurba_marseille","lat":43.260225,"lon":5.375455,"is_reserved":false,"is_disabled":false,"rental_uris":{"android":"levelo://app?vid=6bbab788-de88-4e15-878d-a9712d36ca89","ios":"levelo://app?vid=6bbab788-de88-4e15-878d-a9712d36ca89"},"vehicle_type_id":"4","last_reported":1685127900,"current_range_meters":8000,"station_id":"ce4bhgh2rcd13ifvqfa0","pricing_plan_id":"free"},{"bike_id":"c8de2773-0f39-49ca-aaaa-0510f3608265","system_id":"levelo_inurba_marseille","lat":43.29906,"lon":5.4366,"is_reserved":false,"is_disabled":false,"rental_uris":{"android":"levelo://app?vid=c8de2773-0f39-49ca-aaaa-0510f3608265","ios":"levelo://app?vid=c8de2773-0f39-49ca-aaaa-0510f3608265"},"vehicle_type_id":"4","last_reported":1685127900,"current_range_meters":25200,"station_id":"","pricing_plan_id":"free"},{"bike_id":"a01b8269-cd6f-432a-9c44-37513ea96cd0","system_id":"levelo_inurba_marseille","lat":43.298768,"lon":5.43643,"is_reserved":false,"is_disabled":false,"rental_uris":{"android":"levelo://app?vid=a01b8269-cd6f-432a-9c44-37513ea96cd0","ios":"levelo://app?vid=a01b8269-cd6f-432a-9c44-37513ea96cd0"},"vehicle_type_id":"4","last_reported":1685127900,"current_range_meters":24400,"station_id":"ce4bhpp2rcd13ifvqhfg","pricing_plan_id":"free"},{"bike_id":"1522e6fe-e66c-4a0c-a606-391cd3d5a93b","system_id":"levelo_inurba_marseille","lat":43.298768,"lon":5.43643,"is_reserved":false,"is_disabled":false,"rental_uris":{"android":"levelo://app?vid=1522e6fe-e66c-4a0c-a606-391cd3d5a93b","ios":"levelo://app?vid=1522e6fe-e66c-4a0c-a606-391cd3d5a93b"},"vehicle_type_id":"4","last_reported":1685127900,"current_range_meters":19200,"station_id":"ce4bhpp2rcd13ifvqhfg","pricing_plan_id":"free"},{"bike_id":"4e1b86b6-b12c-441f-b5c1-ba0a90fca197","system_id":"levelo_inurba_marseille","lat":43.298768,"lon":5.43643,"is_reserved":false,"is_disabled":false,"rental_uris":{"android":"levelo://app?vid=4e1b86b6-b12c-441f-b5c1-ba0a90fca197","ios":"levelo://app?vid=4e1b86b6-b12c-441f-b5c1-ba0a90fca197"},"vehicle_type_id":"4","last_reported":1685127900,"current_range_meters":31200,"station_id":"ce4bhpp2rcd13ifvqhfg","pricing_plan_id":"free"},{"bike_id":"2bbf39e5-5485-4880-b9ce-9ba5fff1a707","system_id":"levelo_inurba_marseille","lat":43.29897,"lon":5.43662,"is_reserved":false,"is_disabled":false,"rental_uris":{"android":"levelo://app?vid=2bbf39e5-5485-4880-b9ce-9ba5fff1a707","ios":"levelo://app?vid=2bbf39e5-5485-4880-b9ce-9ba5fff1a707"},"vehicle_type_id":"4","last_reported":1685127900,"current_range_meters":16800,"station_id":"ce4bhpp2rcd13ifvqhfg","pricing_plan_id":"free"},{"bike_id":"57572c88-3708-4036-891a-204b9f884608","system_id":"levelo_inurba_marseille","lat":43.29896,"lon":5.43662,"is_reserved":false,"is_disabled":false,"rental_uris":{"android":"levelo://app?vid=57572c88-3708-4036-891a-204b9f884608","ios":"levelo://app?vid=57572c88-3708-4036-891a-204b9f884608"},"vehicle_type_id":"4","last_reported":1685127900,"current_range_meters":13600,"station_id":"ce4bhpp2rcd13ifvqhfg","pricing_plan_id":"free"},{"bike_id":"625cf51e-ab1a-4754-ae5a-a72655adf3ff","system_id":"levelo_inurba_marseille","lat":43.299,"lon":5.43666,"is_reserved":false,"is_disabled":false,"rental_uris":{"android":"levelo://app?vid=625cf51e-ab1a-4754-ae5a-a72655adf3ff","ios":"levelo://app?vid=625cf51e-ab1a-4754-ae5a-a72655adf3ff"},"vehicle_type_id":"4","last_reported":1685127900,"current_range_meters":10800,"station_id":"","pricing_plan_id":"free"},{"bike_id":"608b499d-e068-453a-896b-74bff4555044","system_id":"levelo_inurba_marseille","lat":43.29899,"lon":5.43668,"is_reserved":false,"is_disabled":false,"rental_uris":{"android":"levelo://app?vid=608b499d-e068-453a-896b-74bff4555044","ios":"levelo://app?vid=608b499d-e068-453a-896b-74bff4555044"},"vehicle_type_id":"4","last_reported":1685127900,"current_range_meters":21200,"station_id":"","pricing_plan_id":"free"},{"bike_id":"dde9f2f0-56ac-4fd7-8d1e-ed84b13d9718","system_id":"levelo_inurba_marseille","lat":43.29903,"lon":5.4367,"is_reserved":false,"is_disabled":false,"rental_uris":{"android":"levelo://app?vid=dde9f2f0-56ac-4fd7-8d1e-ed84b13d9718","ios":"levelo://app?vid=dde9f2f0-56ac-4fd7-8d1e-ed84b13d9718"},"vehicle_type_id":"4","last_reported":1685127900,"current_range_meters":30400,"station_id":"ce4bhpp2rcd13ifvqhfg","pricing_plan_id":"free"},{"bike_id":"077648c5-2129-44ed-afdb-7ac824462b72","system_id":"levelo_inurba_marseille","lat":43.29898,"lon":5.43671,"is_reserved":false,"is_disabled":false,"rental_uris":{"android":"levelo://app?vid=077648c5-2129-44ed-afdb-7ac824462b72","ios":"levelo://app?vid=077648c5-2129-44ed-afdb-7ac824462b72"},"vehicle_type_id":"4","last_reported":1685127900,"current_range_meters":13200,"station_id":"","pricing_plan_id":"free"},{"bike_id":"2bec87da-92f9-4fd1-a31d-4f8c41246cb1","system_id":"levelo_inurba_marseille","lat":43.29896,"lon":5.43671,"is_reserved":false,"is_disabled":false,"rental_uris":{"android":"levelo://app?vid=2bec87da-92f9-4fd1-a31d-4f8c41246cb1","ios":"levelo://app?vid=2bec87da-92f9-4fd1-a31d-4f8c41246cb1"},"vehicle_type_id":"4","last_reported":1685127900,"current_range_meters":6800,"station_id":"","pricing_plan_id":"free"},{"bike_id":"adb25ff8-165e-4de0-a662-9b51d01a587e","system_id":"levelo_inurba_marseille","lat":43.260225,"lon":5.375455,"is_reserved":false,"is_disabled":false,"rental_uris":{"android":"levelo://app?vid=adb25ff8-165e-4de0-a662-9b51d01a587e","ios":"levelo://app?vid=adb25ff8-165e-4de0-a662-9b51d01a587e"},"vehicle_type_id":"4","last_reported":1685127900,"current_range_meters":400,"station_id":"ce4bhgh2rcd13ifvqfa0","pricing_plan_id":"free"},{"bike_id":"a6fa9a78-22a3-401b-b1a9-fe3049efdd41","system_id":"levelo_inurba_marseille","lat":43.260219,"lon":5.37546,"is_reserved":false,"is_disabled":false,"rental_uris":{"android":"levelo://app?vid=a6fa9a78-22a3-401b-b1a9-fe3049efdd41","ios":"levelo://app?vid=a6fa9a78-22a3-401b-b1a9-fe3049efdd41"},"vehicle_type_id":"4","last_reported":1685127900,"current_range_meters":15600,"station_id":"ce4bhgh2rcd13ifvqfa0","pricing_plan_id":"free"},{"bike_id":"a53f4deb-39f5-4569-97ed-34386200ab37","system_id":"levelo_inurba_marseille","lat":43.261782,"lon":5.374515,"is_reserved":false,"is_disabled":false,"rental_uris":{"android":"levelo://app?vid=a53f4deb-39f5-4569-97ed-34386200ab37","ios":"levelo://app?vid=a53f4deb-39f5-4569-97ed-34386200ab37"},"vehicle_type_id":"4","last_reported":1685127900,"current_range_meters":4800,"station_id":"ce4bhgp2rcd13ifvqfc0","pricing_plan_id":"free"},{"bike_id":"24ae63ae-25ec-4b97-9eca-cb4bdb888c94","system_id":"levelo_inurba_marseille","lat":43.2607,"lon":5.393983,"is_reserved":false,"is_disabled":false,"rental_uris":{"android":"levelo://app?vid=24ae63ae-25ec-4b97-9eca-cb4bdb888c94","ios":"levelo://app?vid=24ae63ae-25ec-4b97-9eca-cb4bdb888c94"},