{"last_updated":1745528929,"ttl":60,"version":"2.2","data":{"bikes":[{"bike_id":"1b007faa-283e-4e51-8b44-f1cf0b8f4a46","system_id":"levelo_inurba_marseille","lat":43.27986,"lon":5.41658,"is_reserved":false,"is_disabled":true,"rental_uris":{"android":"levelo://app?vid=1b007faa-283e-4e51-8b44-f1cf0b8f4a46","ios":"levelo://app?vid=1b007faa-283e-4e51-8b44-f1cf0b8f4a46"},"vehicle_type_id":"4","last_reported":1745528929,"current_range_meters":3200,"station_id":"ce4bho12rcd13ifvqh1g","pricing_plan_id":"cebpf4jnsgd1na2vs0mg"},{"bike_id":"7a07a14c-dc58-4728-bdc3-1aac5596dba1","system_id":"levelo_inurba_marseille","lat":43.34704,"lon":5.34813,"is_reserved":false,"is_disabled":false,"rental_uris":{"android":"levelo://app?vid=7a07a14c-dc58-4728-bdc3-1aac5596dba1","ios":"levelo://app?vid=7a07a14c-dc58-4728-bdc3-1aac5596dba1"},"vehicle_type_id":"4","last_reported":1745528929,"current_range_meters":3200,"station_id":"","pricing_plan_id":"cebpf4jnsgd1na2vs0mg"},{"bike_id":"55ce0ba3-1e3d-4915-8eeb-86448c779f29","system_id":"levelo_inurba_marseille","lat":43.30321,"lon":5.40431,"is_reserved":false,"is_disabled":false,"rental_uris":{"android":"levelo://app?vid=55ce0ba3-1e3d-4915-8eeb-86448c779f29","ios":"levelo://app?vid=55ce0ba3-1e3d-4915-8eeb-86448c779f29"},"vehicle_type_id":"4","last_reported":1745528929,"current_range_meters":3600,"station_id":"ce4bh012rcd13ifvqd10","pricing_plan_id":"cebpf4jnsgd1na2vs0mg"},{"bike_id":"ed5e2e18-64d0-491a-970a-f052a5fea769","system_id":"levelo_inurba_marseille","lat":43.23182,"lon":5.39999,"is_reserved":false,"is_disabled":true,"rental_uris":{"android":"levelo://app?vid=ed5e2e18-64d0-491a-970a-f052a5fea769","ios":"levelo://app?vid=ed5e2e18-64d0-491a-970a-f052a5fea769"},"vehicle_type_id":"4","last_reported":1745528929,"current_range_meters":3600,"station_id":"ce4bhn12rcd13ifvqgqg","pricing_plan_id":"cebpf4jnsgd1na2vs0mg"},{"bike_id":"8a1ae535-1f6a-4c52-b3bd-11100e1ee9fa","system_id":"levelo_inurba_marseille","lat":43.30886,"lon":5.3965,"is_reserved":false,"is_disabled":false,"rental_uris":{"android":"levelo://app?vid=8a1ae535-1f6a-4c52-b3bd-11100e1ee9fa","ios":"levelo://app?vid=8a1ae535-1f6a-4c52-b3bd-11100e1ee9fa"},"vehicle_type_id":"4","last_reported":1745528929,"current_range_meters":3600,"station_id":"ce4bh012rcd13ifvqcv0","pricing_plan_id":"cebpf4jnsgd1na2vs0mg"},{"bike_id":"01596ee0-095a-4c1e-bb19-3ab21cb3f5f7","system_id":"levelo_inurba_marseille","lat":43.312683,"lon":5.401719,"is_reserved":false,"is_disabled":false,"rental_uris":{"android":"levelo://app?vid=01596ee0-095a-4c1e-bb19-3ab21cb3f5f7","ios":"levelo://app?vid=01596ee0-095a-4c1e-bb19-3ab21cb3f5f7"},"vehicle_type_id":"4","last_reported":1745528929,"current_range_meters":4000,"station_id":"ce4bh412rcd13ifvqdr0","pricing_plan_id":"cebpf4jnsgd1na2vs0mg"},{"bike_id":"88e2dd5f-f949-4516-91ed-5a6fdf0bad0b","system_id":"levelo_inurba_marseille","lat":43.2587,"lon":5.39905,"is_reserved":false,"is_disabled":false,"rental_uris":{"android":"levelo://app?vid=88e2dd5f-f949-4516-91ed-5a6fdf0bad0b","ios":"levelo://app?vid=88e2dd5f-f949-4516-91ed-5a6fdf0bad0b"},"vehicle_type_id":"4","last_reported":1745528929,"current_range_meters":4000,"station_id":"ce4bhl92rcd13ifvqghg","pricing_plan_id":"cebpf4jnsgd1na2vs0mg"},{"bike_id":"50b8b667-dad0-41d0-a612-a57aa38c2803","system_id":"levelo_inurba_marseille","lat":43.31369,"lon":5.38488,"is_reserved":false,"is_disabled":false,"rental_uris":{"android":"levelo://app?vid=50b8b667-dad0-41d0-a612-a57aa38c2803","ios":"levelo://app?vid=50b8b667-dad0-41d0-a612-a57aa38c2803"},"vehicle_type_id":"4","last_reported":1745528929,"current_range_meters":4000,"station_id":"ce4bgt92rcd13ifvqcf0","pricing_plan_id":"cebpf4jnsgd1na2vs0mg"},{"bike_id":"fdb03f90-66aa-4f61-9ab7-b8aaf12b444c","system_id":"levelo_inurba_marseille","lat":43.30876,"lon":5.39657,"is_reserved":false,"is_disabled":false,"rental_uris":{"android":"levelo://app?vid=fdb03f90-66aa-4f61-9ab7-b8aaf12b444c","ios":"levelo://app?vid=fdb03f90-66aa-4f61-9ab7-b8aaf12b444c"},"vehicle_type_id":"4","last_reported":1745528929,"current_range_meters":4000,"station_id":"ce4bh012rcd13ifvqcv0","pricing_plan_id":"cebpf4jnsgd1na2vs0mg"},{"bike_id":"d3a583f1-cea0-4627-8aa7-d2ce4a44c563","system_id":"levelo_inurba_marseille","lat":43.29068,"lon":5.37166,"is_reserved":false,"is_disabled":false,"rental_uris":{"android":"levelo://app?vid=d3a583f1-cea0-4627-8aa7-d2ce4a44c563","ios":"levelo://app?vid=d3a583f1-cea0-4627-8aa7-d2ce4a44c563"},"vehicle_type_id":"4","last_reported":1745528929,"current_range_meters":4000,"station_id":"ce4bh5p2rcd13ifvqe4g","pricing_plan_id":"cebpf4jnsgd1na2vs0mg"},{"bike_id":"d3a1578b-de99-46ea-b97d-994b1792400d","system_id":"levelo_inurba_marseille","lat":43.27562,"lon":5.38439,"is_reserved":false,"is_disabled":false,"rental_uris":{"android":"levelo://app?vid=d3a1578b-de99-46ea-b97d-994b1792400d","ios":"levelo://app?vid=d3a1578b-de99-46ea-b97d-994b1792400d"},"vehicle_type_id":"4","last_reported":1745528929,"current_range_meters":3600,"station_id":"ce4bhh92rcd13ifvqfi0","pricing_plan_id":"cebpf4jnsgd1na2vs0mg"},{"bike_id":"d9be6d5c-6b55-4804-a918-9335d9f434d1","system_id":"levelo_inurba_marseille","lat":43.27835,"lon":5.39215,"is_reserved":false,"is_disabled":false,"rental_uris":{"android":"levelo://app?vid=d9be6d5c-6b55-4804-a918-9335d9f434d1","ios":"levelo://app?vid=d9be6d5c-6b55-4804-a918-9335d9f434d1"},"vehicle_type_id":"4","last_reported":1745528929,"current_range_meters":4400,"station_id":"ce4bhjp2rcd13ifvqga0","pricing_plan_id":"cebpf4jnsgd1na2vs0mg"},{"bike_id":"da6ecf19-165f-49b4-bc32-0f35ab67191b","system_id":"levelo_inurba_marseille","lat":43.24387,"lon":5.37047,"is_reserved":false,"is_disabled":false,"rental_uris":{"android":"levelo://app?vid=da6ecf19-165f-49b4-bc32-0f35ab67191b","ios":"levelo://app?vid=da6ecf19-165f-49b4-bc32-0f35ab67191b"},"vehicle_type_id":"4","last_reported":1745528929,"current_range_meters":4400,"station_id":"ce4bhhh2rcd13ifvqfk0","pricing_plan_id":"cebpf4jnsgd1na2vs0mg"},{"bike_id":"10cb18ca-4cf4-45ca-9db3-742bc615e786","system_id":"levelo_inurba_marseille","lat":43.23613,"lon":5.39183,"is_reserved":false,"is_disabled":false,"rental_uris":{"android":"levelo://app?vid=10cb18ca-4cf4-45ca-9db3-742bc615e786","ios":"levelo://app?vid=10cb18ca-4cf4-45ca-9db3-742bc615e786"},"vehicle_type_id":"4","last_reported":1745528929,"current_range_meters":4400,"station_id":"","pricing_plan_id":"cebpf4jnsgd1na2vs0mg"},{"bike_id":"e1063ded-2b04-41b4-b325-b257041ad93d","system_id":"levelo_inurba_marseille","lat":43.25581,"lon":5.38234,"is_reserved":false,"is_disabled":false,"rental_uris":{"android":"levelo://app?vid=e1063ded-2b04-41b4-b325-b257041ad93d","ios":"levelo://app?vid=e1063ded-2b04-41b4-b325-b257041ad93d"},"vehicle_type_id":"4","last_reported":1745528929,"current_range_meters":4400,"station_id":"ce4bhih2rcd13ifvqfs0","pricing_plan_id":"cebpf4jnsgd1na2vs0mg"},{"bike_id":"eab4be93-9b7f-4edd-a940-dd7bbd677ca0","system_id":"levelo_inurba_marseille","lat":43.30094,"lon":5.39093,"is_reserved":false,"is_disabled":true,"rental_uris":{"android":"levelo://app?vid=eab4be93-9b7f-4edd-a940-dd7bbd677ca0","ios":"levelo://app?vid=eab4be93-9b7f-4edd-a940-dd7bbd677ca0"},"vehicle_type_id":"4","last_reported":1745528929,"current_range_meters":4400,"station_id":"ce4bh192rcd13ifvqdb0","pricing_plan_id":"cebpf4jnsgd1na2vs0mg"},{"bike_id":"32d58969-4202-48d0-8cf5-6ae433a9ee32","system_id":"levelo_inurba_marseille","lat":43.28606,"lon":5.37056,"is_reserved":false,"is_disabled":false,"rental_uris":{"android":"levelo://app?vid=32d58969-4202-48d0-8cf5-6ae433a9ee32","ios":"levelo://app?vid=32d58969-4202-48d0-8cf5-6ae433a9ee32"},"vehicle_type_id":"4","last_reported":1745528929,"current_range_meters":4400,"station_id":"ce4bht12rcd13ifvqi60","pricing_plan_id":"cebpf4jnsgd1na2vs0mg"},{"bike_id":"5b2ab53b-4abe-46b9-ac2a-36d1233fdded","system_id":"levelo_inurba_marseille","lat":43.30837,"lon":5.36878,"is_reserved":false,"is_disabled":false,"rental_uris":{"android":"levelo://app?vid=5b2ab53b-4abe-46b9-ac2a-36d1233fdded","ios":"levelo://app?vid=5b2ab53b-4abe-46b9-ac2a-36d1233fdded"},"vehicle_type_id":"4","last_reported":1745528929,"current_range_meters":4400,"station_id":"","pricing_plan_id":"cebpf4jnsgd1na2vs0mg"},{"bike_id":"0cbaf19c-9c21-46ab-899f-dfcc12db4988","system_id":"levelo_inurba_marseille","lat":43.2319,"lon":5.39985,"is_reserved":false,"is_disabled":false,"rental_uris":{"android":"levelo://app?vid=0cbaf19c-9c21-46ab-899f-dfcc12db4988","ios":"levelo://app?vid=0cbaf19c-9c21-46ab-899f-dfcc12db4988"},"vehicle_type_id":"4","last_reported":1745528929,"current_range_meters":4400,"station_id":"ce4bhn12rcd13ifvqgqg","pricing_plan_id":"cebpf4jnsgd1na2vs0mg"},{"bike_id":"3b4be8f4-5dd8-4ec5-85b9-df43d095b0f3","system_id":"levelo_inurba_marseille","lat":43.28599,"lon":5.37051,"is_reserved":false,"is_disabled":false,"rental_uris":{"android":"levelo://app?vid=3b4be8f4-5dd8-4ec5-85b9-df43d095b0f3","ios":"levelo://app?vid=3b4be8f4-5dd8-4ec5-85b9-df43d095b0f3"},"vehicle_type_id":"4","last_reported":1745528929,"current_range_meters":4800,"station_id":"ce4bht12rcd13ifvqi60","pricing_plan_id":"cebpf4jnsgd1na2vs0mg"},{"bike_id":"fe39c9f1-115b-4842-833d-51744c558773","system_id":"levelo_inurba_marseille","lat":43.28479,"lon":5.384236,"is_reserved":false,"is_disabled":true,"rental_uris":{"android":"levelo://app?vid=fe39c9f1-115b-4842-833d-51744c558773","ios":"levelo://app?vid=fe39c9f1-115b-4842-833d-51744c558773"},"vehicle_type_id":"4","last_reported":1745528929,"current_range_meters":4800,"station_id":"ce4bh512rcd13ifvqe3g","pricing_plan_id":"cebpf4jnsgd1na2vs0mg"},{"bike_id":"4b2e7729-6c82-45bc-8fe9-3d93ab38b5a5","system_id":"levelo_inurba_marseille","lat":43.23198,"lon":5.39993,"is_reserved":false,"is_disabled":false,"rental_uris":{"android":"levelo://app?vid=4b2e7729-6c82-45bc-8fe9-3d93ab38b5a5","ios":"levelo://app?vid=4b2e7729-6c82-45bc-8fe9-3d93ab38b5a5"},"vehicle_type_id":"4","last_reported":1745528929,"current_range_meters":4800,"station_id":"ce4bhn12rcd13ifvqgqg","pricing_plan_id":"cebpf4jnsgd1na2vs0mg"},{"bike_id":"da70d61b-208e-4f5a-8136-fdac79841f35","system_id":"levelo_inurba_marseille","lat":43.28063,"lon":5.36955,"is_reserved":false,"is_disabled":false,"rental_uris":{"android":"levelo://app?vid=da70d61b-208e-4f5a-8136-fdac79841f35","ios":"levelo://app?vid=da70d61b-208e-4f5a-8136-fdac79841f35"},"vehicle_type_id":"4","last_reported":1745528929,"current_range_meters":5600,"station_id":"ce4bha12rcd13ifvqef0","pricing_plan_id":"cebpf4jnsgd1na2vs0mg"},{"bike_id":"021b46fe-4fdb-44ff-a57e-d9e7c88e0876","system_id":"levelo_inurba_marseille","lat":43.29262,"lon":5.38437,"is_reserved":false,"is_disabled":false,"rental_uris":{"android":"levelo://app?vid=021b46fe-4fdb-44ff-a57e-d9e7c88e0876","ios":"levelo://app?vid=021b46fe-4fdb-44ff-a57e-d9e7c88e0876"},"vehicle_type_id":"4","last_reported":1745528929,"current_range_meters":5600,"station_id":"ce4bh692rcd13ifvqea0","pricing_plan_id":"cebpf4jnsgd1na2vs0mg"},{"bike_id":"8b4bac15-47d4-4b48-89ad-d28a545e842f","system_id":"levelo_inurba_marseille","lat":43.22925,"lon":5.35377,"is_reserved":false,"is_disabled":false,"rental_uris":{"android":"levelo://app?vid=8b4bac15-47d4-4b48-89ad-d28a545e842f","ios":"levelo://app?vid=8b4bac15-47d4-4b48-89ad-d28a545e842f"},"vehicle_type_id":"4","last_reported":1745528929,"current_range_meters":5600,"station_id":"cpo3532slgdg3j2ikp40","pricing_plan_id":"cebpf4jnsgd1na2vs0mg"},{"bike_id":"39808340-f36b-4f92-9792-0996f6505191","system_id":"levelo_inurba_marseille","lat":43.301,"lon":5.39095,"is_reserved":false,"is_disabled":false,"rental_uris":{"android":"levelo://app?vid=39808340-f36b-4f92-9792-0996f6505191","ios":"levelo://app?vid=39808340-f36b-4f92-9792-0996f6505191"},"vehicle_type_id":"4","last_reported":1745528929,"current_range_meters":5600,"station_id":"ce4bh192rcd13ifvqdb0","pricing_plan_id":"cebpf4jnsgd1na2vs0mg"},{"bike_id":"c7e2fbd4-97ab-45a8-a063-805939e59f3a","system_id":"levelo_inurba_marseille","lat":43.29364,"lon":5.4561,"is_reserved":false,"is_disabled":false,"rental_uris":{"android":"levelo://app?vid=c7e2fbd4-97ab-45a8-a063-805939e59f3a","ios":"levelo://app?vid=c7e2fbd4-97ab-45a8-a063-805939e59f3a"},"vehicle_type_id":"4","last_reported":1745528929,"current_range_meters":5600,"station_id":"","pricing_plan_id":"cebpf4jnsgd1na2vs0mg"},{"bike_id":"c80b4906-338a-43d0-8b2c-1767d2950c18","system_id":"levelo_inurba_marseille","lat":43.24182,"lon":5.3973,"is_reserved":false,"is_disabled":false,"rental_uris":{"android":"levelo://app?vid=c80b4906-338a-43d0-8b2c-1767d2950c18","ios":"levelo://app?vid=c80b4906-338a-43d0-8b2c-1767d2950c18"},"vehicle_type_id":"4","last_reported":1745528929,"current_range_meters":5600,"station_id":"ce4bhn12rcd13ifvqgpg","pricing_plan_id":"cebpf4jnsgd1na2vs0mg"},{"bike_id":"ba98092f-1f95-4d1b-8c2e-943fbb808d72","system_id":"levelo_inurba_marseille","lat":43.24161,"lon":5.39721,"is_reserved":false,"is_disabled":false,"rental_uris":{"android":"levelo://app?vid=ba98092f-1f95-4d1b-8c2e-943fbb808d72","ios":"levelo://app?vid=ba98092f-1f95-4d1b-8c2e-943fbb808d72"},"vehicle_type_id":"4","last_reported":1745528929,"current_range_meters":5600,"station_id":"ce4bhn12rcd13ifvqgpg","pricing_plan_id":"cebpf4jnsgd1na2vs0mg"},{"bike_id":"1f0e2064-6a22-4a04-a424-9055451e5d56","system_id":"levelo_inurba_marseille","lat":43.28461,"lon":5.35886,"is_reserved":false,"is_disabled":false,"rental_uris":{"android":"levelo://app?vid=1f0e2064-6a22-4a04-a424-9055451e5d56","ios":"levelo://app?vid=1f0e2064-6a22-4a04-a424-9055451e5d56"},"vehicle_type_id":"4","last_reported":1745528929,"current_range_meters":5600,"station_id":"ce4bhah2rcd13ifvqei0","pricing_plan_id":"cebpf4jnsgd1na2vs0mg"},{"bike_id":"f4d85e27-2866-4d76-8020-15cae9922265","system_id":"levelo_inurba_marseille","lat":43.2926,"lon":5.409,"is_reserved":false,"is_disabled":false,"rental_uris":{"android":"levelo://app?vid=f4d85e27-2866-4d76-8020-15cae9922265","ios":"levelo://app?vid=f4d85e27-2866-4d76-8020-15cae9922265"},"vehicle_type_id":"4","last_reported":1745528929,"current_range_meters":6000,"station_id":"ce4bh192rcd13ifvqdc0","pricing_plan_id":"cebpf4jnsgd1na2vs0mg"},{"bike_id":"fa072638-79d4-42b6-a779-d7bc984e3de1","system_id":"levelo_inurba_marseille","lat":43.23196,"lon":5.39961,"is_reserved":false,"is_disabled":false,"rental_uris":{"android":"levelo://app?vid=fa072638-79d4-42b6-a779-d7bc984e3de1","ios":"levelo://app?vid=fa072638-79d4-42b6-a779-d7bc984e3de1"},"vehicle_type_id":"4","last_reported":1745528929,"current_range_meters":6000,"station_id":"ce4bhn12rcd13ifvqgqg","pricing_plan_id":"cebpf4jnsgd1na2vs0mg"},{"bike_id":"36cefaa1-1f19-45be-b15c-456bc07c8c57","system_id":"levelo_inurba_marseille","lat":43.27929,"lon":5.41044,"is_reserved":false,"is_disabled":false,"rental_uris":{"android":"levelo://app?vid=36cefaa1-1f19-45be-b15c-456bc07c8c57","ios":"levelo://app?vid=36cefaa1-1f19-45be-b15c-456bc07c8c57"},"vehicle_type_id":"4","last_reported":1745528929,"current_range_meters":6000,"station_id":"ce4bhnp2rcd13ifvqh0g","pricing_plan_id":"cebpf4jnsgd1na2vs0mg"},{"bike_id":"30704823-7a9c-4b12-af5d-93db18bfd3b9","system_id":"levelo_inurba_marseille","lat":43.28826,"lon":5.39949,"is_reserved":false,"is_disabled":false,"rental_uris":{"android":"levelo://app?vid=30704823-7a9c-4b12-af5d-93db18bfd3b9","ios":"levelo://app?vid=30704823-7a9c-4b12-af5d-93db18bfd3b9"},"vehicle_type_id":"4","last_reported":1745528929,"current_range_meters":6000,"station_id":"","pricing_plan_id":"cebpf4jnsgd1na2vs0mg"},{"bike_id":"7941a59e-f3f1-4b29-ad18-6aa889691a90","system_id":"levelo_inurba_marseille","lat":43.25814,"lon":5.39434,"is_reserved":false,"is_disabled":false,"rental_uris":{"android":"levelo://app?vid=7941a59e-f3f1-4b29-ad18-6aa889691a90","ios":"levelo://app?vid=7941a59e-f3f1-4b29-ad18-6aa889691a90"},"vehicle_type_id":"4","last_reported":1745528929,"current_range_meters":6400,"station_id":"ce4bhip2rcd13ifvqft0","pricing_plan_id":"cebpf4jnsgd1na2vs0mg"},{"bike_id":"fed3087f-a5cb-449e-a43e-200233532ee8","system_id":"levelo_inurba_marseille","lat":43.28032,"lon":5.36945,"is_reserved":false,"is_disabled":false,"rental_uris":{"android":"levelo://app?vid=fed3087f-a5cb-449e-a43e-200233532ee8","ios":"levelo://app?vid=fed3087f-a5cb-449e-a43e-200233532ee8"},"vehicle_type_id":"4","last_reported":1745528929,"current_range_meters":6400,"station_id":"ce4bha12rcd13ifvqef0","pricing_plan_id":"cebpf4jnsgd1na2vs0mg"},{"bike_id":"92c3b340-d069-4f1c-b55b-44c52f19597b","system_id":"levelo_inurba_marseille","lat":43.2825,"lon":5.377914,"is_reserved":false,"is_disabled":false,"rental_uris":{"android":"levelo://app?vid=92c3b340-d069-4f1c-b55b-44c52f19597b","ios":"levelo://app?vid=92c3b340-d069-4f1c-b55b-44c52f19597b"},"vehicle_type_id":"4","last_reported":1745528929,"current_range_meters":6800,"station_id":"","pricing_plan_id":"cebpf4jnsgd1na2vs0mg"},{"bike_id":"fb162b15-575c-4519-9d43-7120ac9f66d4","system_id":"levelo_inurba_marseille","lat":43.27176,"lon":5.40999,"is_reserved":false,"is_disabled":false,"rental_uris":{"android":"levelo://app?vid=fb162b15-575c-4519-9d43-7120ac9f66d4","ios":"levelo://app?vid=fb162b15-575c-4519-9d43-7120ac9f66d4"},"vehicle_type_id":"4","last_reported":1745528929,"current_range_meters":6800,"station_id":"ce4bhl12rcd13ifvqgf0","pricing_plan_id":"cebpf4jnsgd1na2vs0mg"},{"bike_id":"3d193f16-cbfb-4635-8fcf-1164d62cfc64","system_id":"levelo_inurba_marseille","lat":43.30881,"lon":5.39664,"is_reserved":false,"is_disabled":false,"rental_uris":{"android":"levelo://app?vid=3d193f16-cbfb-4635-8fcf-1164d62cfc64","ios":"levelo://app?vid=3d193f16-cbfb-4635-8fcf-1164d62cfc64"},"vehicle_type_id":"4","last_reported":1745528929,"current_range_meters":6800,"station_id":"ce4bh012rcd13ifvqcv0","pricing_plan_id":"cebpf4jnsgd1na2vs0mg"},{"bike_id":"5b16eb17-ed57-4a23-aac2-2c155ee976fc","system_id":"levelo_inurba_marseille","lat":43.2293,"lon":5.35379,"is_reserved":false,"is_disabled":false,"rental_uris":{"android":"levelo://app?vid=5b16eb17-ed57-4a23-aac2-2c155ee976fc","ios":"levelo://app?vid=5b16eb17-ed57-4a23-aac2-2c155ee976fc"},"vehicle_type_id":"4","last_reported":1745528929,"current_range_meters":6800,"station_id":"cpo3532slgdg3j2ikp40","pricing_plan_id":"cebpf4jnsgd1na2vs0mg"},{"bike_id":"d6a6ea69-e648-4466-af0f-c847ecc56db2","system_id":"levelo_inurba_marseille","lat":43.26187,"lon":5.37461,"is_reserved":false,"is_disabled":false,"rental_uris":{"android":"levelo://app?vid=d6a6ea69-e648-4466-af0f-c847ecc56db2","ios":"levelo://app?vid=d6a6ea69-e648-4466-af0f-c847ecc56db2"},"vehicle_type_id":"4","last_reported":1745528929,"current_range_meters":6800,"station_id":"ce4bhgp2rcd13ifvqfc0","pricing_plan_id":"cebpf4jnsgd1na2vs0mg"},{"bike_id":"70435d2a-3ea8-4b7a-b1c4-97ab1d73c3e2","system_id":"levelo_inurba_marseille","lat":43.31712,"lon":5.43708,"is_reserved":false,"is_disabled":false,"rental_uris":{"android":"levelo://app?vid=70435d2a-3ea8-4b7a-b1c4-97ab1d73c3e2","ios":"levelo://app?vid=70435d2a-3ea8-4b7a-b1c4-97ab1d73c3e2"},"vehicle_type_id":"4","last_reported":1745528929,"current_range_meters":6800,"station_id":"ce4bhp92rcd13ifvqhcg","pricing_plan_id":"cebpf4jnsgd1na2vs0mg"},{"bike_id":"9ad95aa0-c0ff-4770-be53-101fa5f48483","system_id":"levelo_inurba_marseille","lat":43.28071,"lon":5.39662,"is_reserved":false,"is_disabled":false,"rental_uris":{"android":"levelo://app?vid=9ad95aa0-c0ff-4770-be53-101fa5f48483","ios":"levelo://app?vid=9ad95aa0-c0ff-4770-be53-101fa5f48483"},"vehicle_type_id":"4","last_reported":1745528929,"current_range_meters":6800,"station_id":"ce4bho12rcd13ifvqh2g","pricing_plan_id":"cebpf4jnsgd1na2vs0mg"},{"bike_id":"99f0042c-dfd1-4c6a-b399-abc01fa49098","system_id":"levelo_inurba_marseille","lat":43.292969,"lon":5.385104,"is_reserved":false,"is_disabled":false,"rental_uris":{"android":"levelo://app?vid=99f0042c-dfd1-4c6a-b399-abc01fa49098","ios":"levelo://app?vid=99f0042c-dfd1-4c6a-b399-abc01fa49098"},"vehicle_type_id":"4","last_reported":1745528929,"current_range_meters":7200,"station_id":"ce4bgih2rcd13ifvqba0","pricing_plan_id":"cebpf4jnsgd1na2vs0mg"},{"bike_id":"00e27ac5-131f-425f-8c37-5ac1f3110554","system_id":"levelo_inurba_marseille","lat":43.29344,"lon":5.38573,"is_reserved":false,"is_disabled":false,"rental_uris":{"android":"levelo://app?vid=00e27ac5-131f-425f-8c37-5ac1f3110554","ios":"levelo://app?vid=00e27ac5-131f-425f-8c37-5ac1f3110554"},"vehicle_type_id":"4","last_reported":1745528929,"current_range_meters":7200,"station_id":"ce4bh2h2rcd13ifvqdh0","pricing_plan_id":"cebpf4jnsgd1na2vs0mg"},{"bike_id":"60ee52f6-3432-4a14-b3b4-c3acf981d864","system_id":"levelo_inurba_marseille","lat":43.21749,"lon":5.3461,"is_reserved":false,"is_disabled":false,"rental_uris":{"android":"levelo://app?vid=60ee52f6-3432-4a14-b3b4-c3acf981d864","ios":"levelo://app?vid=60ee52f6-3432-4a14-b3b4-c3acf981d864"},"vehicle_type_id":"4","last_reported":1745528929,"current_range_meters":7200,"station_id":"st_cvj6r9ubvosntc0bgbag","pricing_plan_id":"cebpf4jnsgd1na2vs0mg"},{"bike_id":"e82f0eec-d59f-4eeb-be39-0c35a85f6b3e","system_id":"levelo_inurba_marseille","lat":43.29571,"lon":5.39977,"is_reserved":false,"is_disabled":false,"rental_uris":{"android":"levelo://app?vid=e82f0eec-d59f-4eeb-be39-0c35a85f6b3e","ios":"levelo://app?vid=e82f0eec-d59f-4eeb-be39-0c35a85f6b3e"},"vehicle_type_id":"4","last_reported":1745528929,"current_range_meters":7200,"station_id":"ce4bh312rcd13ifvqdj0","pricing_plan_id":"cebpf4jnsgd1na2vs0mg"},{"bike_id":"17c75d3e-1f26-47e8-be26-0f9fadeb00f4","system_id":"levelo_inurba_marseille","lat":43.3108,"lon":5.38356,"is_reserved":false,"is_disabled":false,"rental_uris":{"android":"levelo://app?vid=17c75d3e-1f26-47e8-be26-0f9fadeb00f4","ios":"levelo://app?vid=17c75d3e-1f26-47e8-be26-0f9fadeb00f4"},"vehicle_type_id":"4","last_reported":1745528929,"current_range_meters":7200,"station_id":"ce4bgv92rcd13ifvqcr0","pricing_plan_id":"cebpf4jnsgd1na2vs0mg"},{"bike_id":"04de76c4-a1ad-45bf-9e28-7c78bfcbb5c0","system_id":"levelo_inurba_marseille","lat":43.25187,"lon":5.37428,"is_reserved":false,"is_disabled":false,"rental_uris":{"android":"levelo://app?vid=04de76c4-a1ad-45bf-9e28-7c78bfcbb5c0","ios":"levelo://app?vid=04de76c4-a1ad-45bf-9e28-7c78bfcbb5c0"},"vehicle_type_id":"4","last_reported":1745528929,"current_range_meters":7200,"station_id":"","pricing_plan_id":"cebpf4jnsgd1na2vs0mg"},{"bike_id":"ef111c66-4b3c-4341-9cc0-1374d7aece31","system_id":"levelo_inurba_marseille","lat":43.28028,"lon":5.40873,"is_reserved":false,"is_disabled":false,"rental_uris":{"android":"levelo://app?vid=ef111c66-4b3c-4341-9cc0-1374d7aece31","ios":"levelo://app?vid=ef111c66-4b3c-4341-9cc0-1374d7aece31"},"vehicle_type_id":"4","last_reported":1745528929,"current_range_meters":7200,"station_id":"","pricing_plan_id":"cebpf4jnsgd1na2vs0mg"},{"bike_id":"bedade63-bc4a-4006-b6db-8acc7942074c","system_id":"levelo_inurba_marseille","lat":43.30794,"lon":5.38161,"is_reserved":false,"is_disabled":false,"rental_uris":{"android":"levelo://app?vid=bedade63-bc4a-4006-b6db-8acc7942074c","ios":"levelo://app?vid=bedade63-bc4a-4006-b6db-8acc7942074c"},"vehicle_type_id":"4","last_reported":1745528929,"current_range_meters":7200,"station_id":"ce4bgt12rcd13ifvqce0","pricing_plan_id":"cebpf4jnsgd1na2vs0mg"},{"bike_id":"8764c801-9cd2-4e78-bbfe-a229706ee676","system_id":"levelo_inurba_marseille","lat":43.29864,"lon":5.38927,"is_reserved":false,"is_disabled":true,"rental_uris":{"android":"levelo://app?vid=8764c801-9cd2-4e78-bbfe-a229706ee676","ios":"levelo://app?vid=8764c801-9cd2-4e78-bbfe-a229706ee676"},"vehicle_type_id":"4","last_reported":1745528929,"current_range_meters":7200,"station_id":"ce4bh392rcd13ifvqdl0","pricing_plan_id":"cebpf4jnsgd1na2vs0mg"},{"bike_id":"ae7be45d-2d67-4f64-94f0-cb602bd4f9d8","system_id":"levelo_inurba_marseille","lat":43.2512,"lon":5.40316,"is_reserved":false,"is_disabled":false,"rental_uris":{"android":"levelo://app?vid=ae7be45d-2d67-4f64-94f0-cb602bd4f9d8","ios":"levelo://app?vid=ae7be45d-2d67-4f64-94f0-cb602bd4f9d8"},"vehicle_type_id":"4","last_reported":1745528929,"current_range_meters":8000,"station_id":"ce4bhlh2rcd13ifvqgig","pricing_plan_id":"cebpf4jnsgd1na2vs0mg"},{"bike_id":"0f7faeca-f211-4302-91c4-a32916e8a18a","system_id":"levelo_inurba_marseille","lat":43.28049,"lon":5.36958,"is_reserved":false,"is_disabled":false,"rental_uris":{"android":"levelo://app?vid=0f7faeca-f211-4302-91c4-a32916e8a18a","ios":"levelo://app?vid=0f7faeca-f211-4302-91c4-a32916e8a18a"},"vehicle_type_id":"4","last_reported":1745528929,"current_range_meters":8000,"station_id":"ce4bha12rcd13ifvqef0","pricing_plan_id":"cebpf4jnsgd1na2vs0mg"},{"bike_id":"77f21559-ee32-4fe4-927e-b3030a53f1f8","system_id":"levelo_inurba_marseille","lat":43.25126,"lon":5.40329,"is_reserved":false,"is_disabled":false,"rental_uris":{"android":"levelo://app?vid=77f21559-ee32-4fe4-927e-b3030a53f1f8","ios":"levelo://app?vid=77f21559-ee32-4fe4-927e-b3030a53f1f8"},"vehicle_type_id":"4","last_reported":1745528929,"current_range_meters":8000,"station_id":"ce4bhlh2rcd13ifvqgig","pricing_plan_id":"cebpf4jnsgd1na2vs0mg"},{"bike_id":"cfb4b89f-0f07-4e66-8d5d-eecea72c556a","system_id":"levelo_inurba_marseille","lat":43.29524,"lon":5.38559,"is_reserved":false,"is_disabled":true,"rental_uris":{"android":"levelo://app?vid=cfb4b89f-0f07-4e66-8d5d-eecea72c556a","ios":"levelo://app?vid=cfb4b89f-0f07-4e66-8d5d-eecea72c556a"},"vehicle_type_id":"4","last_reported":1745528929,"current_range_meters":8000,"station_id":"ce4bgih2rcd13ifvqba0","pricing_plan_id":"cebpf4jnsgd1na2vs0mg"},{"bike_id":"a250d8ac-d854-4d12-b433-5b9d1dbbfd4c","system_id":"levelo_inurba_marseille","lat":43.27311,"lon":5.39101,"is_reserved":false,"is_disabled":false,"rental_uris":{"android":"levelo://app?vid=a250d8ac-d854-4d12-b433-5b9d1dbbfd4c","ios":"levelo://app?vid=a250d8ac-d854-4d12-b433-5b9d1dbbfd4c"},"vehicle_type_id":"4","last_reported":1745528929,"current_range_meters":8000,"station_id":"ce4bhgp2rcd13ifvqfe0","pricing_plan_id":"cebpf4jnsgd1na2vs0mg"},{"bike_id":"95a6134f-0e44-40e3-8bf3-0cb54f0743f5","system_id":"levelo_inurba_marseille","lat":43.25722,"lon":5.41115,"is_reserved":false,"is_disabled":false,"rental_uris":{"android":"levelo://app?vid=95a6134f-0e44-40e3-8bf3-0cb54f0743f5","ios":"levelo://app?vid=95a6134f-0e44-40e3-8bf3-0cb54f0743f5"},"vehicle_type_id":"4","last_reported":1745528929,"current_range_meters":8000,"station_id":"ce4bhkp2rcd13ifvqgd0","pricing_plan_id":"cebpf4jnsgd1na2vs0mg"},{"bike_id":"527053e2-9aa9-4e0c-851f-aa8cfdcac958","system_id":"levelo_inurba_marseille","lat":43.32041,"lon":5.38179,"is_reserved":false,"is_disabled":false,"rental_uris":{"android":"levelo://app?vid=527053e2-9aa9-4e0c-851f-aa8cfdcac958","ios":"levelo://app?vid=527053e2-9aa9-4e0c-851f-aa8cfdcac958"},"vehicle_type_id":"4","last_reported":1745528929,"current_range_meters":8400,"station_id":"","pricing_plan_id":"cebpf4jnsgd1na2vs0mg"},{"bike_id":"0507518d-66e0-4aec-b83b-9c1eadc0fd20","system_id":"levelo_inurba_marseille","lat":43.29673,"lon":5.38574,"is_reserved":false,"is_disabled":false,"rental_uris":{"android":"levelo://app?vid=0507518d-66e0-4aec-b83b-9c1eadc0fd20","ios":"levelo://app?vid=0507518d-66e0-4aec-b83b-9c1eadc0fd20"},"vehicle_type_id":"4","last_reported":1745528929,"current_range_meters":8400,"station_id":"","pricing_plan_id":"cebpf4jnsgd1na2vs0mg"},{"bike_id":"94758121-55bf-45d6-9511-07a88e3879c5","system_id":"levelo_inurba_marseille","lat":43.28843,"lon":5.39328,"is_reserved":false,"is_disabled":false,"rental_uris":{"android":"levelo://app?vid=94758121-55bf-45d6-9511-07a88e3879c5","ios":"levelo://app?vid=94758121-55bf-45d6-9511-07a88e3879c5"},"vehicle_type_id":"4","last_reported":1745528929,"current_range_meters":8400,"station_id":"ce4bh2p2rcd13ifvqdi0","pricing_plan_id":"cebpf4jnsgd1na2vs0mg"},{"bike_id":"94175c55-a1b8-454e-8864-a4f590effe31","system_id":"levelo_inurba_marseille","lat":43.32365,"lon":5.38885,"is_reserved":false,"is_disabled":false,"rental_uris":{"android":"levelo://app?vid=94175c55-a1b8-454e-8864-a4f590effe31","ios":"levelo://app?vid=94175c55-a1b8-454e-8864-a4f590effe31"},"vehicle_type_id":"4","last_reported":1745528929,"current_range_meters":8400,"station_id":"ce4bhqp2rcd13ifvqhog","pricing_plan_id":"cebpf4jnsgd1na2vs0mg"},{"bike_id":"d4246204-066f-4661-9f6c-f6d973fa9f01","system_id":"levelo_inurba_marseille","lat":43.29575,"lon":5.39957,"is_reserved":false,"is_disabled":false,"rental_uris":{"android":"levelo://app?vid=d4246204-066f-4661-9f6c-f6d973fa9f01","ios":"levelo://app?vid=d4246204-066f-4661-9f6c-f6d973fa9f01"},"vehicle_type_id":"4","last_reported":1745528929,"current_range_meters":8400,"station_id":"ce4bh312rcd13ifvqdj0","pricing_plan_id":"cebpf4jnsgd1na2vs0mg"},{"bike_id":"2490c850-e8ad-49d1-8887-b8f9d6b59f38","system_id":"levelo_inurba_marseille","lat":43.23194,"lon":5.39981,"is_reserved":false,"is_disabled":true,"rental_uris":{"android":"levelo://app?vid=2490c850-e8ad-49d1-8887-b8f9d6b59f38","ios":"levelo://app?vid=2490c850-e8ad-49d1-8887-b8f9d6b59f38"},"vehicle_type_id":"4","last_reported":1745528929,"current_range_meters":8400,"station_id":"ce4bhn12rcd13ifvqgqg","pricing_plan_id":"cebpf4jnsgd1na2vs0mg"},{"bike_id":"b3094e88-ac74-4f57-b096-b0357aadc63b","system_id":"levelo_inurba_marseille","lat":43.23163,"lon":5.43695,"is_reserved":false,"is_disabled":false,"rental_uris":{"android":"levelo://app?vid=b3094e88-ac74-4f57-b096-b0357aadc63b","ios":"levelo://app?vid=b3094e88-ac74-4f57-b096-b0357aadc63b"},"vehicle_type_id":"4","last_reported":1745528929,"current_range_meters":8400,"station_id":"ce4bhmp2rcd13ifvqgog","pricing_plan_id":"cebpf4jnsgd1na2vs0mg"},{"bike_id":"7d3406a8-3da9-4a30-b8de-0f58a8c5d58f","system_id":"levelo_inurba_marseille","lat":43.30099,"lon":5.39106,"is_reserved":false,"is_disabled":false,"rental_uris":{"android":"levelo://app?vid=7d3406a8-3da9-4a30-b8de-0f58a8c5d58f","ios":"levelo://app?vid=7d3406a8-3da9-4a30-b8de-0f58a8c5d58f"},"vehicle_type_id":"4","last_reported":1745528929,"current_range_meters":8400,"station_id":"ce4bh192rcd13ifvqdb0","pricing_plan_id":"cebpf4jnsgd1na2vs0mg"},{"bike_id":"a008f1ff-620c-4136-b82e-a1a04d36a6b4","system_id":"levelo_inurba_marseille","lat":43.29055,"lon":5.36492,"is_reserved":false,"is_disabled":false,"rental_uris":{"android":"levelo://app?vid=a008f1ff-620c-4136-b82e-a1a04d36a6b4","ios":"levelo://app?vid=a008f1ff-620c-4136-b82e-a1a04d36a6b4"},"vehicle_type_id":"4","last_reported":1745528929,"current_range_meters":8400,"station_id":"","pricing_plan_id":"cebpf4jnsgd1na2vs0mg"},{"bike_id":"d081cf4d-bb87-4c40-ae58-40041d3a21d9","system_id":"levelo_inurba_marseille","lat":43.29558,"lon":5.37532,"is_reserved":false,"is_disabled":true,"rental_uris":{"android":"levelo://app?vid=d081cf4d-bb87-4c40-ae58-40041d3a21d9","ios":"levelo://app?vid=d081cf4d-bb87-4c40-ae58-40041d3a21d9"},"vehicle_type_id":"4","last_reported":1745528929,"current_range_meters":8800,"station_id":"ce4bgh92rcd13ifvqb50","pricing_plan_id":"cebpf4jnsgd1na2vs0mg"},{"bike_id":"e5e6387e-799d-49f8-9caa-4061ff31ee68","system_id":"levelo_inurba_marseille","lat":43.22519,"lon":5.3476,"is_reserved":false,"is_disabled":false,"rental_uris":{"android":"levelo://app?vid=e5e6387e-799d-49f8-9caa-4061ff31ee68","ios":"levelo://app?vid=e5e6387e-799d-49f8-9caa-4061ff31ee68"},"vehicle_type_id":"4","last_reported":1745528929,"current_range_meters":8800,"station_id":"st_cvj5dfep6f1abm77gieg","pricing_plan_id":"cebpf4jnsgd1na2vs0mg"},{"bike_id":"18321386-6007-41d7-a392-599343c03345","system_id":"levelo_inurba_marseille","lat":43.31375,"lon":5.38503,"is_reserved":false,"is_disabled":true,"rental_uris":{"android":"levelo://app?vid=18321386-6007-41d7-a392-599343c03345","ios":"levelo://app?vid=18321386-6007-41d7-a392-599343c03345"},"vehicle_type_id":"4","last_reported":1745528929,"current_range_meters":8800,"station_id":"ce4bgt92rcd13ifvqcf0","pricing_plan_id":"cebpf4jnsgd1na2vs0mg"},{"bike_id":"7d644630-fd82-47fb-aa53-499da9988b8f","system_id":"levelo_inurba_marseille","lat":43.246783,"lon":5.381527,"is_reserved":false,"is_disabled":false,"rental_uris":{"android":"levelo://app?vid=7d644630-fd82-47fb-aa53-499da9988b8f","ios":"levelo://app?vid=7d644630-fd82-47fb-aa53-499da9988b8f"},"vehicle_type_id":"4","last_reported":1745528929,"current_range_meters":8800,"station_id":"ce4bhih2rcd13ifvqfr0","pricing_plan_id":"cebpf4jnsgd1na2vs0mg"},{"bike_id":"562436ce-5c87-4a40-bf0c-e42d00d23dad","system_id":"levelo_inurba_marseille","lat":43.25111,"lon":5.40304,"is_reserved":false,"is_disabled":false,"rental_uris":{"android":"levelo://app?vid=562436ce-5c87-4a40-bf0c-e42d00d23dad","ios":"levelo://app?vid=562436ce-5c87-4a40-bf0c-e42d00d23dad"},"vehicle_type_id":"4","last_reported":1745528929,"current_range_meters":8800,"station_id":"ce4bhlh2rcd13ifvqgig","pricing_plan_id":"cebpf4jnsgd1na2vs0mg"},{"bike_id":"99862305-32a2-444d-8334-228f5792e221","system_id":"levelo_inurba_marseille","lat":43.29279,"lon":5.36832,"is_reserved":false,"is_disabled":true,"rental_uris":{"android":"levelo://app?vid=99862305-32a2-444d-8334-228f5792e221","ios":"levelo://app?vid=99862305-32a2-444d-8334-228f5792e221"},"vehicle_type_id":"4","last_reported":1745528929,"current_range_meters":8800,"station_id":"ce4bhbp2rcd13ifvqesg","pricing_plan_id":"cebpf4jnsgd1na2vs0mg"},{"bike_id":"0013966c-ef97-46fc-a9b6-b1eb056f8ad3","system_id":"levelo_inurba_marseille","lat":43.24121,"lon":5.37762,"is_reserved":false,"is_disabled":false,"rental_uris":{"android":"levelo://app?vid=0013966c-ef97-46fc-a9b6-b1eb056f8ad3","ios":"levelo://app?vid=0013966c-ef97-46fc-a9b6-b1eb056f8ad3"},"vehicle_type_id":"4","last_reported":1745528929,"current_range_meters":9200,"station_id":"","pricing_plan_id":"cebpf4jnsgd1na2vs0mg"},{"bike_id":"bd0c2e9e-2445-40e7-b282-79b710fbc623","system_id":"levelo_inurba_marseille","lat":43.23199,"lon":5.39974,"is_reserved":false,"is_disabled":false,"rental_uris":{"android":"levelo://app?vid=bd0c2e9e-2445-40e7-b282-79b710fbc623","ios":"levelo://app?vid=bd0c2e9e-2445-40e7-b282-79b710fbc623"},"vehicle_type_id":"4","last_reported":1745528929,"current_range_meters":9200,"station_id":"ce4bhn12rcd13ifvqgqg","pricing_plan_id":"cebpf4jnsgd1na2vs0mg"},{"bike_id":"2f896c11-50a3-4a5c-98ac-90d0c176d668","system_id":"levelo_inurba_marseille","lat":43.24075,"lon":5.3777,"is_reserved":false,"is_disabled":false,"rental_uris":{"android":"levelo://app?vid=2f896c11-50a3-4a5c-98ac-90d0c176d668","ios":"levelo://app?vid=2f896c11-50a3-4a5c-98ac-90d0c176d668"},"vehicle_type_id":"4","last_reported":1745528929,"current_range_meters":9200,"station_id":"ce4bhnp2rcd13ifvqgvg","pricing_plan_id":"cebpf4jnsgd1na2vs0mg"},{"bike_id":"f742e759-6e98-4553-96e1-e1964ee51b8f","system_id":"levelo_inurba_marseille","lat":43.30789,"lon":5.43548,"is_reserved":false,"is_disabled":false,"rental_uris":{"android":"levelo://app?vid=f742e759-6e98-4553-96e1-e1964ee51b8f","ios":"levelo://app?vid=f742e759-6e98-4553-96e1-e1964ee51b8f"},"vehicle_type_id":"4","last_reported":1745528929,"current_range_meters":9200,"station_id":"ce4bhph2rcd13ifvqheg","pricing_plan_id":"cebpf4jnsgd1na2vs0mg"},{"bike_id":"fb04ba1b-a618-4d5d-afbb-040b0e3bf244","system_id":"levelo_inurba_marseille","lat":43.28406,"lon":5.37522,"is_reserved":false,"is_disabled":false,"rental_uris":{"android":"levelo://app?vid=fb04ba1b-a618-4d5d-afbb-040b0e3bf244","ios":"levelo://app?vid=fb04ba1b-a618-4d5d-afbb-040b0e3bf244"},"vehicle_type_id":"4","last_reported":1745528929,"current_range_meters":9200,"station_id":"ce4bh412rcd13ifvqds0","pricing_plan_id":"cebpf4jnsgd1na2vs0mg"},{"bike_id":"2d9c5985-7776-4299-a4d9-7a0b1ba90afd","system_id":"levelo_inurba_marseille","lat":43.27377,"lon":5.36259,"is_reserved":false,"is_disabled":false,"rental_uris":{"android":"levelo://app?vid=2d9c5985-7776-4299-a4d9-7a0b1ba90afd","ios":"levelo://app?vid=2d9c5985-7776-4299-a4d9-7a0b1ba90afd"},"vehicle_type_id":"4","last_reported":1745528929,"current_range_meters":9200,"station_id":"ce4bhbh2rcd13ifvqeo0","pricing_plan_id":"cebpf4jnsgd1na2vs0mg"},{"bike_id":"eb772212-defc-4543-ad57-fa606af571fb","system_id":"levelo_inurba_marseille","lat":43.23192,"lon":5.40001,"is_reserved":false,"is_disabled":false,"rental_uris":{"android":"levelo://app?vid=eb772212-defc-4543-ad57-fa606af571fb","ios":"levelo://app?vid=eb772212-defc-4543-ad57-fa606af571fb"},"vehicle_type_id":"4","last_reported":1745528929,"current_range_meters":9200,"station_id":"ce4bhn12rcd13ifvqgqg","pricing_plan_id":"cebpf4jnsgd1na2vs0mg"},{"bike_id":"c809e593-1244-4f75-a3e8-a979f5d84aac","system_id":"levelo_inurba_marseille","lat":43.27975,"lon":5.38729,"is_reserved":false,"is_disabled":false,"rental_uris":{"android":"levelo://app?vid=c809e593-1244-4f75-a3e8-a979f5d84aac","ios":"levelo://app?vid=c809e593-1244-4f75-a3e8-a979f5d84aac"},"vehicle_type_id":"4","last_reported":1745528929,"current_range_meters":9200,"station_id":"ce4bhg12rcd13ifvqf80","pricing_plan_id":"cebpf4jnsgd1na2vs0mg"},{"bike_id":"4959620f-bcf8-47e6-be19-b230de6ed982","system_id":"levelo_inurba_marseille","lat":43.30415,"lon":5.39752,"is_reserved":false,"is_disabled":false,"rental_uris":{"android":"levelo://app?vid=4959620f-bcf8-47e6-be19-b230de6ed982","ios":"levelo://app?vid=4959620f-bcf8-47e6-be19-b230de6ed982"},"vehicle_type_id":"4","last_reported":1745528929,"current_range_meters":9200,"station_id":"ce4bh092rcd13ifvqd20","pricing_plan_id":"cebpf4jnsgd1na2vs0mg"},{"bike_id":"4f1f52a1-d61d-47e0-b646-3cf0c0092b7c","system_id":"levelo_inurba_marseille","lat":43.28691,"lon":5.37386,"is_reserved":false,"is_disabled":false,"rental_uris":{"android":"levelo://app?vid=4f1f52a1-d61d-47e0-b646-3cf0c0092b7c","ios":"levelo://app?vid=4f1f52a1-d61d-47e0-b646-3cf0c0092b7c"},"vehicle_type_id":"4","last_reported":1745528929,"current_range_meters":9200,"station_id":"ce4bh3p2rcd13ifvqdq0","pricing_plan_id":"cebpf4jnsgd1na2vs0mg"},{"bike_id":"9f8620e2-8272-469c-bc4b-047991cf3217","system_id":"levelo_inurba_marseille","lat":43.29558,"lon":5.38539,"is_reserved":false,"is_disabled":false,"rental_uris":{"android":"levelo://app?vid=9f8620e2-8272-469c-bc4b-047991cf3217","ios":"levelo://app?vid=9f8620e2-8272-469c-bc4b-047991cf3217"},"vehicle_type_id":"4","last_reported":1745528929,"current_range_meters":9200,"station_id":"ce4bgih2rcd13ifvqba0","pricing_plan_id":"cebpf4jnsgd1na2vs0mg"},{"bike_id":"f8508138-549e-433a-8453-b2185a87c792","system_id":"levelo_inurba_marseille","lat":43.30258,"lon":5.4003,"is_reserved":false,"is_disabled":false,"rental_uris":{"android":"levelo://app?vid=f8508138-549e-433a-8453-b2185a87c792","ios":"levelo://app?vid=f8508138-549e-433a-8453-b2185a87c792"},"vehicle_type_id":"4","last_reported":1745528929,"current_range_meters":9600,"station_id":"ce4bgvh2rcd13ifvqcs0","pricing_plan_id":"cebpf4jnsgd1na2vs0mg"},{"bike_id":"97f8610b-214a-4cfe-9441-07b6b5d209d3","system_id":"levelo_inurba_marseille","lat":43.30761,"lon":5.41832,"is_reserved":false,"is_disabled":false,"rental_uris":{"android":"levelo://app?vid=97f8610b-214a-4cfe-9441-07b6b5d209d3","ios":"levelo://app?vid=97f8610b-214a-4cfe-9441-07b6b5d209d3"},"vehicle_type_id":"4","last_reported":1745528929,"current_range_meters":9600,"station_id":"ce4bhop2rcd13ifvqh8g","pricing_plan_id":"cebpf4jnsgd1na2vs0mg"},{"bike_id":"6dbfc9d1-df46-41a1-8e24-30aaeca4e7e6","system_id":"levelo_inurba_marseille","lat":43.2396,"lon":5.36633,"is_reserved":false,"is_disabled":false,"rental_uris":{"android":"levelo://app?vid=6dbfc9d1-df46-41a1-8e24-30aaeca4e7e6","ios":"levelo://app?vid=6dbfc9d1-df46-41a1-8e24-30aaeca4e7e6"},"vehicle_type_id":"4","last_reported":1745528929,"current_range_meters":9600,"station_id":"ce4bhi12rcd13ifvqfp0","pricing_plan_id":"cebpf4jnsgd1na2vs0mg"},{"bike_id":"44c0201e-c9f3-4ec8-9f19-45cfbbe2ef08","system_id":"levelo_inurba_marseille","lat":43.25498,"lon":5.37636,"is_reserved":false,"is_disabled":false,"rental_uris":{"android":"levelo://app?vid=44c0201e-c9f3-4ec8-9f19-45cfbbe2ef08","ios":"levelo://app?vid=44c0201e-c9f3-4ec8-9f19-45cfbbe2ef08"},"vehicle_type_id":"4","last_reported":1745528929,"current_range_meters":9600,"station_id":"ce4bhh12rcd13ifvqff0","pricing_plan_id":"cebpf4jnsgd1na2vs0mg"},{"bike_id":"46374c49-3adc-4c5a-8966-e00f056c0d57","system_id":"levelo_inurba_marseille","lat":43.27846,"lon":5.35442,"is_reserved":false,"is_disabled":false,"rental_uris":{"android":"levelo://app?vid=46374c49-3adc-4c5a-8966-e00f056c0d57","ios":"levelo://app?vid=46374c49-3adc-4c5a-8966-e00f056c0d57"},"vehicle_type_id":"4","last_reported":1745528929,"current_range_meters":10000,"station_id":"","pricing_plan_id":"cebpf4jnsgd1na2vs0mg"},{"bike_id":"58c4ecbc-397e-46c8-9c4e-0627545bf9fc","system_id":"levelo_inurba_marseille","lat":43.26553,"lon":5.37286,"is_reserved":false,"is_disabled":false,"rental_uris":{"android":"levelo://app?vid=58c4ecbc-397e-46c8-9c4e-0627545bf9fc","ios":"levelo://app?vid=58c4ecbc-397e-46c8-9c4e-0627545bf9fc"},"vehicle_type_id":"4","last_reported":1745528929,"current_range_meters":10000,"station_id":"ce4bhg12rcd13ifvqf70","pricing_plan_id":"cebpf4jnsgd1na2vs0mg"},{"bike_id":"25eacac9-56ea-4377-89ad-468ce2595448","system_id":"levelo_inurba_marseille","lat":43.298733,"lon":5.397393,"is_reserved":false,"is_disabled":false,"rental_uris":{"android":"levelo://app?vid=25eacac9-56ea-4377-89ad-468ce2595448","ios":"levelo://app?vid=25eacac9-56ea-4377-89ad-468ce2595448"},"vehicle_type_id":"4","last_reported":1745528929,"current_range_meters":10000,"station_id":"ce4bh0h2rcd13ifvqd50","pricing_plan_id":"cebpf4jnsgd1na2vs0mg"},{"bike_id":"d8840801-a52a-4c7c-9a2d-3e5f8bcef267","system_id":"levelo_inurba_marseille","lat":43.28027,"lon":5.36954,"is_reserved":false,"is_disabled":false,"rental_uris":{"android":"levelo://app?vid=d8840801-a52a-4c7c-9a2d-3e5f8bcef267","ios":"levelo://app?vid=d8840801-a52a-4c7c-9a2d-3e5f8bcef267"},"vehicle_type_id":"4","last_reported":1745528929,"current_range_meters":10000,"station_id":"ce4bha12rcd13ifvqef0","pricing_plan_id":"cebpf4jnsgd1na2vs0mg"},{"bike_id":"16b19031-1929-4929-b93c-b85cbf4e1eb1","system_id":"levelo_inurba_marseille","lat":43.29457,"lon":5.3974,"is_reserved":false,"is_disabled":false,"rental_uris":{"android":"levelo://app?vid=16b19031-1929-4929-b93c-b85cbf4e1eb1","ios":"levelo://app?vid=16b19031-1929-4929-b93c-b85cbf4e1eb1"},"vehicle_type_id":"4","last_reported":1745528929,"current_range_meters":10000,"station_id":"ce4bh3h2rcd13ifvqdo0","pricing_plan_id":"cebpf4jnsgd1na2vs0mg"},{"bike_id":"d4b6329f-e983-416a-8804-3a05de7c5c23","system_id":"levelo_inurba_marseille","lat":43.30731,"lon":5.42442,"is_reserved":false,"is_disabled":false,"rental_uris":{"android":"levelo://app?vid=d4b6329f-e983-416a-8804-3a05de7c5c23","ios":"levelo://app?vid=d4b6329f-e983-416a-8804-3a05de7c5c23"},"vehicle_type_id":"4","last_reported":1745528929,"current_range_meters":10000,"station_id":"st_cvj6ca6bvosntc0bfgr0","pricing_plan_id":"cebpf4jnsgd1na2vs0mg"},{"bike_id":"3a51ad04-7950-4451-bf56-28f63318ca25","system_id":"levelo_inurba_marseille","lat":43.27612,"lon":5.36113,"is_reserved":false,"is_disabled":false,"rental_uris":{"android":"levelo://app?vid=3a51ad04-7950-4451-bf56-28f63318ca25","ios":"levelo://app?vid=3a51ad04-7950-4451-bf56-28f63318ca25"},"vehicle_type_id":"4","last_reported":1745528929,"current_range_meters":10000,"station_id":"ce4bgj92rcd13ifvqbe0","pricing_plan_id":"cebpf4jnsgd1na2vs0mg"},{"bike_id":"bd600e66-a3e8-4ae9-9237-56a9b7fbf283","system_id":"levelo_inurba_marseille","lat":43.29878,"lon":5.39727,"is_reserved":false,"is_disabled":false,"rental_uris":{"android":"levelo://app?vid=bd600e66-a3e8-4ae9-9237-56a9b7fbf283","ios":"levelo://app?vid=bd600e66-a3e8-4ae9-9237-56a9b7fbf283"},"vehicle_type_id":"4","last_reported":1745528929,"current_range_meters":10800,"station_id":"ce4bh0h2rcd13ifvqd50","pricing_plan_id":"cebpf4jnsgd1na2vs0mg"},{"bike_id":"069eaa15-26ef-40d4-974e-7021db1893de","system_id":"levelo_inurba_marseille","lat":43.2828,"lon":5.35083,"is_reserved":false,"is_disabled":false,"rental_uris":{"android":"levelo://app?vid=069eaa15-26ef-40d4-974e-7021db1893de","ios":"levelo://app?vid=069eaa15-26ef-40d4-974e-7021db1893de"},"vehicle_type_id":"4","last_reported":1745528929,"current_range_meters":10800,"station_id":"ce4bhbp2rcd13ifvqerg","pricing_plan_id":"cebpf4jnsgd1na2vs0mg"},{"bike_id":"7e0658d0-98ed-4605-b466-7901e9de206e","system_id":"levelo_inurba_marseille","lat":43.29102,"lon":5.38135,"is_reserved":false,"is_disabled":false,"rental_uris":{"android":"levelo://app?vid=7e0658d0-98ed-4605-b466-7901e9de206e","ios":"levelo://app?vid=7e0658d0-98ed-4605-b466-7901e9de206e"},"vehicle_type_id":"4","last_reported":1745528929,"current_range_meters":10800,"station_id":"ce4bh512rcd13ifvqe2g","pricing_plan_id":"cebpf4jnsgd1na2vs0mg"},{"bike_id":"5f0b9299-d4f0-4090-bc41-d333f38c188a","system_id":"levelo_inurba_marseille","lat":43.28946,"lon":5.3663,"is_reserved":false,"is_disabled":false,"rental_uris":{"android":"levelo://app?vid=5f0b9299-d4f0-4090-bc41-d333f38c188a","ios":"levelo://app?vid=5f0b9299-d4f0-4090-bc41-d333f38c188a"},"vehicle_type_id":"4","last_reported":1745528929,"current_range_meters":10800,"station_id":"ce4bhap2rcd13ifvqek0","pricing_plan_id":"cebpf4jnsgd1na2vs0mg"},{"bike_id":"894d13de-fdb1-4f60-99c3-da1438056ad2","system_id":"levelo_inurba_marseille","lat":43.31882,"lon":5.40725,"is_reserved":false,"is_disabled":false,"rental_uris":{"android":"levelo://app?vid=894d13de-fdb1-4f60-99c3-da1438056ad2","ios":"levelo://app?vid=894d13de-fdb1-4f60-99c3-da1438056ad2"},"vehicle_type_id":"4","last_reported":1745528929,"current_range_meters":10800,"station_id":"ce4bhq12rcd13ifvqhig","pricing_plan_id":"cebpf4jnsgd1na2vs0mg"},{"bike_id":"190f8156-9453-4ec0-aacf-b48b8c5b29aa","system_id":"levelo_inurba_marseille","lat":43.28265,"lon":5.35061,"is_reserved":false,"is_disabled":false,"rental_uris":{"android":"levelo://app?vid=190f8156-9453-4ec0-aacf-b48b8c5b29aa","ios":"levelo://app?vid=190f8156-9453-4ec0-aacf-b48b8c5b29aa"},"vehicle_type_id":"4","last_reported":1745528929,"current_range_meters":10800,"station_id":"ce4bhbp2rcd13ifvqerg","pricing_plan_id":"cebpf4jnsgd1na2vs0mg"},{"bike_id":"ccaa18f5-be06-4fcd-88ec-d2c2332b85ca","system_id":"levelo_inurba_marseille","lat":43.28715,"lon":5.3609,"is_reserved":false,"is_disabled":false,"rental_uris":{"android":"levelo://app?vid=ccaa18f5-be06-4fcd-88ec-d2c2332b85ca","ios":"levelo://app?vid=ccaa18f5-be06-4fcd-88ec-d2c2332b85ca"},"vehicle_type_id":"4","last_reported":1745528929,"current_range_meters":11200,"station_id":"cki0cbj6b192h4jlfktg","pricing_plan_id":"cebpf4jnsgd1na2vs0mg"},{"bike_id":"3f4fffef-9d06-4513-a8be-a4167b14ccb8","system_id":"levelo_inurba_marseille","lat":43.30974,"lon":5.37163,"is_reserved":false,"is_disabled":false,"rental_uris":{"android":"levelo://app?vid=3f4fffef-9d06-4513-a8be-a4167b14ccb8","ios":"levelo://app?vid=3f4fffef-9d06-4513-a8be-a4167b14ccb8"},"vehicle_type_id":"4","last_reported":1745528929,"current_range_meters":11200,"station_id":"","pricing_plan_id":"cebpf4jnsgd1na2vs0mg"},{"bike_id":"951e4c5a-ed4b-4956-a7e2-d787fd79df17","system_id":"levelo_inurba_marseille","lat":43.31174,"lon":5.40767,"is_reserved":false,"is_disabled":false,"rental_uris":{"android":"levelo://app?vid=951e4c5a-ed4b-4956-a7e2-d787fd79df17","ios":"levelo://app?vid=951e4c5a-ed4b-4956-a7e2-d787fd79df17"},"vehicle_type_id":"4","last_reported":1745528929,"current_range_meters":11200,"station_id":"","pricing_plan_id":"cebpf4jnsgd1na2vs0mg"},{"bike_id":"6b0d1ec6-0d77-4bd1-9dce-9054c2481ed1","system_id":"levelo_inurba_marseille","lat":43.24409,"lon":5.37036,"is_reserved":false,"is_disabled":false,"rental_uris":{"android":"levelo://app?vid=6b0d1ec6-0d77-4bd1-9dce-9054c2481ed1","ios":"levelo://app?vid=6b0d1ec6-0d77-4bd1-9dce-9054c2481ed1"},"vehicle_type_id":"4","last_reported":1745528929,"current_range_meters":11200,"station_id":"ce4bhhh2rcd13ifvqfk0","pricing_plan_id":"cebpf4jnsgd1na2vs0mg"},{"bike_id":"d4a8fafa-88a7-48bf-b5a7-839e5bc03db8","system_id":"levelo_inurba_marseille","lat":43.2502,"lon":5.38918,"is_reserved":false,"is_disabled":true,"rental_uris":{"android":"levelo://app?vid=d4a8fafa-88a7-48bf-b5a7-839e5bc03db8","ios":"levelo://app?vid=d4a8fafa-88a7-48bf-b5a7-839e5bc03db8"},"vehicle_type_id":"4","last_reported":1745528929,"current_range_meters":11200,"station_id":"ce4bhgp2rcd13ifvqfd0","pricing_plan_id":"cebpf4jnsgd1na2vs0mg"},{"bike_id":"3a41a14b-b60d-411c-aa4a-3b7d3df773ad","system_id":"levelo_inurba_marseille","lat":43.3019,"lon":5.36626,"is_reserved":false,"is_disabled":true,"rental_uris":{"android":"levelo://app?vid=3a41a14b-b60d-411c-aa4a-3b7d3df773ad","ios":"levelo://app?vid=3a41a14b-b60d-411c-aa4a-3b7d3df773ad"},"vehicle_type_id":"4","last_reported":1745528929,"current_range_meters":11600,"station_id":"ce4bgrh2rcd13ifvqc8g","pricing_plan_id":"cebpf4jnsgd1na2vs0mg"},{"bike_id":"c4b0ce6f-4913-48c0-94af-255f0c5af339","system_id":"levelo_inurba_marseille","lat":43.24545,"lon":5.395257,"is_reserved":false,"is_disabled":false,"rental_uris":{"android":"levelo://app?vid=c4b0ce6f-4913-48c0-94af-255f0c5af339","ios":"levelo://app?vid=c4b0ce6f-4913-48c0-94af-255f0c5af339"},"vehicle_type_id":"4","last_reported":1745528929,"current_range_meters":11600,"station_id":"ce4bhlp2rcd13ifvqgjg","pricing_plan_id":"cebpf4jnsgd1na2vs0mg"},{"bike_id":"84c51a55-47b7-4b91-88f0-0d5a084f2e8f","system_id":"levelo_inurba_marseille","lat":43.28034,"lon":5.36953,"is_reserved":false,"is_disabled":false,"rental_uris":{"android":"levelo://app?vid=84c51a55-47b7-4b91-88f0-0d5a084f2e8f","ios":"levelo://app?vid=84c51a55-47b7-4b91-88f0-0d5a084f2e8f"},"vehicle_type_id":"4","last_reported":1745528929,"current_range_meters":12000,"station_id":"ce4bha12rcd13ifvqef0","pricing_plan_id":"cebpf4jnsgd1na2vs0mg"},{"bike_id":"b0c0b2ae-45d4-401f-8087-101078d202b5","system_id":"levelo_inurba_marseille","lat":43.30091,"lon":5.39086,"is_reserved":false,"is_disabled":false,"rental_uris":{"android":"levelo://app?vid=b0c0b2ae-45d4-401f-8087-101078d202b5","ios":"levelo://app?vid=b0c0b2ae-45d4-401f-8087-101078d202b5"},"vehicle_type_id":"4","last_reported":1745528929,"current_range_meters":12000,"station_id":"ce4bh192rcd13ifvqdb0","pricing_plan_id":"cebpf4jnsgd1na2vs0mg"},{"bike_id":"9ddf901c-17b7-41a5-ab10-51e5206ab36e","system_id":"levelo_inurba_marseille","lat":43.33044,"lon":5.39098,"is_reserved":false,"is_disabled":false,"rental_uris":{"android":"levelo://app?vid=9ddf901c-17b7-41a5-ab10-51e5206ab36e","ios":"levelo://app?vid=9ddf901c-17b7-41a5-ab10-51e5206ab36e"},"vehicle_type_id":"4","last_reported":1745528929,"current_range_meters":12000,"station_id":"","pricing_plan_id":"cebpf4jnsgd1na2vs0mg"},{"bike_id":"c919a48f-345c-4808-9762-e0f23e8a7f77","system_id":"levelo_inurba_marseille","lat":43.28152,"lon":5.42649,"is_reserved":false,"is_disabled":false,"rental_uris":{"android":"levelo://app?vid=c919a48f-345c-4808-9762-e0f23e8a7f77","ios":"levelo://app?vid=c919a48f-345c-4808-9762-e0f23e8a7f77"},"vehicle_type_id":"4","last_reported":1745528929,"current_range_meters":12000,"station_id":"ce4bhnh2rcd13ifvqgug","pricing_plan_id":"cebpf4jnsgd1na2vs0mg"},{"bike_id":"6c07701a-8c9d-42b3-88f5-7017a41eecdf","system_id":"levelo_inurba_marseille","lat":43.29511,"lon":5.390388,"is_reserved":false,"is_disabled":false,"rental_uris":{"android":"levelo://app?vid=6c07701a-8c9d-42b3-88f5-7017a41eecdf","ios":"levelo://app?vid=6c07701a-8c9d-42b3-88f5-7017a41eecdf"},"vehicle_type_id":"4","last_reported":1745528929,"current_range_meters":12400,"station_id":"ce4bh3p2rcd13ifvqdp0","pricing_plan_id":"cebpf4jnsgd1na2vs0mg"},{"bike_id":"fd8a5be9-4359-4cce-8721-a1c76390740e","system_id":"levelo_inurba_marseille","lat":43.2732,"lon":5.39099,"is_reserved":false,"is_disabled":false,"rental_uris":{"android":"levelo://app?vid=fd8a5be9-4359-4cce-8721-a1c76390740e","ios":"levelo://app?vid=fd8a5be9-4359-4cce-8721-a1c76390740e"},"vehicle_type_id":"4","last_reported":1745528929,"current_range_meters":12400,"station_id":"ce4bhgp2rcd13ifvqfe0","pricing_plan_id":"cebpf4jnsgd1na2vs0mg"},{"bike_id":"992f1f37-4eb1-4a56-96ae-7a3fd226f3df","system_id":"levelo_inurba_marseille","lat":43.28108,"lon":5.37843,"is_reserved":false,"is_disabled":false,"rental_uris":{"android":"levelo://app?vid=992f1f37-4eb1-4a56-96ae-7a3fd226f3df","ios":"levelo://app?vid=992f1f37-4eb1-4a56-96ae-7a3fd226f3df"},"vehicle_type_id":"4","last_reported":1745528929,"current_range_meters":12400,"station_id":"ce4bha12rcd13ifvqee0","pricing_plan_id":"cebpf4jnsgd1na2vs0mg"},{"bike_id":"1be0eb9c-f13a-4528-a70c-da833c79b49f","system_id":"levelo_inurba_marseille","lat":43.29427,"lon":5.38626,"is_reserved":false,"is_disabled":true,"rental_uris":{"android":"levelo://app?vid=1be0eb9c-f13a-4528-a70c-da833c79b49f","ios":"levelo://app?vid=1be0eb9c-f13a-4528-a70c-da833c79b49f"},"vehicle_type_id":"4","last_reported":1745528929,"current_range_meters":12800,"station_id":"ce4bh2h2rcd13ifvqdh0","pricing_plan_id":"cebpf4jnsgd1na2vs0mg"},{"bike_id":"0aeea440-47b3-48d8-b764-fc82ba6f596d","system_id":"levelo_inurba_marseille","lat":43.28048,"lon":5.36941,"is_reserved":false,"is_disabled":false,"rental_uris":{"android":"levelo://app?vid=0aeea440-47b3-48d8-b764-fc82ba6f596d","ios":"levelo://app?vid=0aeea440-47b3-48d8-b764-fc82ba6f596d"},"vehicle_type_id":"4","last_reported":1745528929,"current_range_meters":12800,"station_id":"ce4bha12rcd13ifvqef0","pricing_plan_id":"cebpf4jnsgd1na2vs0mg"},{"bike_id":"0e945859-fa31-40e1-b139-93bf53b136e5","system_id":"levelo_inurba_marseille","lat":43.29011,"lon":5.38628,"is_reserved":false,"is_disabled":true,"rental_uris":{"android":"levelo://app?vid=0e945859-fa31-40e1-b139-93bf53b136e5","ios":"levelo://app?vid=0e945859-fa31-40e1-b139-93bf53b136e5"},"vehicle_type_id":"4","last_reported":1745528929,"current_range_meters":12800,"station_id":"ce4bh4p2rcd13ifvqe0g","pricing_plan_id":"cebpf4jnsgd1na2vs0mg"},{"bike_id":"c95325df-f23e-4704-ab0e-19fa556bf29e","system_id":"levelo_inurba_marseille","lat":43.24811,"lon":5.3746,"is_reserved":false,"is_disabled":false,"rental_uris":{"android":"levelo://app?vid=c95325df-f23e-4704-ab0e-19fa556bf29e","ios":"levelo://app?vid=c95325df-f23e-4704-ab0e-19fa556bf29e"},"vehicle_type_id":"4","last_reported":1745528929,"current_range_meters":12800,"station_id":"ce4bhgh2rcd13ifvqfb0","pricing_plan_id":"cebpf4jnsgd1na2vs0mg"},{"bike_id":"24c8f748-f111-477d-b00c-d7c0cc87a7ea","system_id":"levelo_inurba_marseille","lat":43.23961,"lon":5.36628,"is_reserved":false,"is_disabled":false,"rental_uris":{"android":"levelo://app?vid=24c8f748-f111-477d-b00c-d7c0cc87a7ea","ios":"levelo://app?vid=24c8f748-f111-477d-b00c-d7c0cc87a7ea"},"vehicle_type_id":"4","last_reported":1745528929,"current_range_meters":12800,"station_id":"ce4bhi12rcd13ifvqfp0","pricing_plan_id":"cebpf4jnsgd1na2vs0mg"},{"bike_id":"13a03cf4-d84f-423d-b71b-020922e0c702","system_id":"levelo_inurba_marseille","lat":43.28934,"lon":5.36631,"is_reserved":false,"is_disabled":false,"rental_uris":{"android":"levelo://app?vid=13a03cf4-d84f-423d-b71b-020922e0c702","ios":"levelo://app?vid=13a03cf4-d84f-423d-b71b-020922e0c702"},"vehicle_type_id":"4","last_reported":1745528929,"current_range_meters":12800,"station_id":"ce4bhap2rcd13ifvqek0","pricing_plan_id":"cebpf4jnsgd1na2vs0mg"},{"bike_id":"407859f8-ad6e-4706-b576-c01bcdb7c801","system_id":"levelo_inurba_marseille","lat":43.29855,"lon":5.36295,"is_reserved":false,"is_disabled":true,"rental_uris":{"android":"levelo://app?vid=407859f8-ad6e-4706-b576-c01bcdb7c801","ios":"levelo://app?vid=407859f8-ad6e-4706-b576-c01bcdb7c801"},"vehicle_type_id":"4","last_reported":1745528929,"current_range_meters":13600,"station_id":"ce4bgpp2rcd13ifvqc3g","pricing_plan_id":"cebpf4jnsgd1na2vs0mg"},{"bike_id":"858bb71e-c17e-4421-b73f-aaf6e578fcac","system_id":"levelo_inurba_marseille","lat":43.28409,"lon":5.35001,"is_reserved":false,"is_disabled":false,"rental_uris":{"android":"levelo://app?vid=858bb71e-c17e-4421-b73f-aaf6e578fcac","ios":"levelo://app?vid=858bb71e-c17e-4421-b73f-aaf6e578fcac"},"vehicle_type_id":"4","last_reported":1745528929,"current_range_meters":13600,"station_id":"ce4bhbh2rcd13ifvqepg","pricing_plan_id":"cebpf4jnsgd1na2vs0mg"},{"bike_id":"92d2d932-45de-4dea-a27f-a26ae00fce47","system_id":"levelo_inurba_marseille","lat":43.31998,"lon":5.3815,"is_reserved":false,"is_disabled":false,"rental_uris":{"android":"levelo://app?vid=92d2d932-45de-4dea-a27f-a26ae00fce47","ios":"levelo://app?vid=92d2d932-45de-4dea-a27f-a26ae00fce47"},"vehicle_type_id":"4","last_reported":1745528929,"current_range_meters":13600,"station_id":"ce4bhr12rcd13ifvqhpg","pricing_plan_id":"cebpf4jnsgd1na2vs0mg"},{"bike_id":"276fca37-dd9e-4785-848c-8da965321a2d","system_id":"levelo_inurba_marseille","lat":43.28942,"lon":5.36636,"is_reserved":false,"is_disabled":false,"rental_uris":{"android":"levelo://app?vid=276fca37-dd9e-4785-848c-8da965321a2d","ios":"levelo://app?vid=276fca37-dd9e-4785-848c-8da965321a2d"},"vehicle_type_id":"4","last_reported":1745528929,"current_range_meters":13600,"station_id":"ce4bhap2rcd13ifvqek0","pricing_plan_id":"cebpf4jnsgd1na2vs0mg"},{"bike_id":"10a3361f-f666-4dbb-8c05-513623b0c90f","system_id":"levelo_inurba_marseille","lat":43.30934,"lon":5.40147,"is_reserved":false,"is_disabled":false,"rental_uris":{"android":"levelo://app?vid=10a3361f-f666-4dbb-8c05-513623b0c90f","ios":"levelo://app?vid=10a3361f-f666-4dbb-8c05-513623b0c90f"},"vehicle_type_id":"4","last_reported":1745528929,"current_range_meters":14000,"station_id":"ce4bgvp2rcd13ifvqct0","pricing_plan_id":"cebpf4jnsgd1na2vs0mg"},{"bike_id":"5f34ad22-5e6e-4c21-9523-8c904582233c","system_id":"levelo_inurba_marseille","lat":43.23967,"lon":5.36634,"is_reserved":false,"is_disabled":false,"rental_uris":{"android":"levelo://app?vid=5f34ad22-5e6e-4c21-9523-8c904582233c","ios":"levelo://app?vid=5f34ad22-5e6e-4c21-9523-8c904582233c"},"vehicle_type_id":"4","last_reported":1745528929,"current_range_meters":14400,"station_id":"ce4bhi12rcd13ifvqfp0","pricing_plan_id":"cebpf4jnsgd1na2vs0mg"},{"bike_id":"ca6b21c5-fad3-49f3-a35c-ae28806aad4d","system_id":"levelo_inurba_marseille","lat":43.28703,"lon":5.4,"is_reserved":false,"is_disabled":false,"rental_uris":{"android":"levelo://app?vid=ca6b21c5-fad3-49f3-a35c-ae28806aad4d","ios":"levelo://app?vid=ca6b21c5-fad3-49f3-a35c-ae28806aad4d"},"vehicle_type_id":"4","last_reported":1745528929,"current_range_meters":14400,"station_id":"ce4bho92rcd13ifvqh3g","pricing_plan_id":"cebpf4jnsgd1na2vs0mg"},{"bike_id":"28daa1bf-729e-4f8c-a310-b97e5848c74e","system_id":"levelo_inurba_marseille","lat":43.29828,"lon":5.37664,"is_reserved":false,"is_disabled":false,"rental_uris":{"android":"levelo://app?vid=28daa1bf-729e-4f8c-a310-b97e5848c74e","ios":"levelo://app?vid=28daa1bf-729e-4f8c-a310-b97e5848c74e"},"vehicle_type_id":"4","last_reported":1745528929,"current_range_meters":14400,"station_id":"","pricing_plan_id":"cebpf4jnsgd1na2vs0mg"},{"bike_id":"fa87f18e-33e5-43a8-b571-61486b34ddd5","system_id":"levelo_inurba_marseille","lat":43.31093,"lon":5.38363,"is_reserved":false,"is_disabled":false,"rental_uris":{"android":"levelo://app?vid=fa87f18e-33e5-43a8-b571-61486b34ddd5","ios":"levelo://app?vid=fa87f18e-33e5-43a8-b571-61486b34ddd5"},"vehicle_type_id":"4","last_reported":1745528929,"current_range_meters":14400,"station_id":"ce4bgv92rcd13ifvqcr0","pricing_plan_id":"cebpf4jnsgd1na2vs0mg"},{"bike_id":"24d894ab-7267-4b40-99af-b1bffdb7623b","system_id":"levelo_inurba_marseille","lat":43.30415,"lon":5.412835,"is_reserved":false,"is_disabled":false,"rental_uris":{"android":"levelo://app?vid=24d894ab-7267-4b40-99af-b1bffdb7623b","ios":"levelo://app?vid=24d894ab-7267-4b40-99af-b1bffdb7623b"},"vehicle_type_id":"4","last_reported":1745528929,"current_range_meters":14400,"station_id":"ce4bhop2rcd13ifvqh8g","pricing_plan_id":"cebpf4jnsgd1na2vs0mg"},{"bike_id":"4e02a862-7695-4adf-a8cc-8d0f2895a878","system_id":"levelo_inurba_marseille","lat":43.30536,"lon":5.38434,"is_reserved":false,"is_disabled":false,"rental_uris":{"android":"levelo://app?vid=4e02a862-7695-4adf-a8cc-8d0f2895a878","ios":"levelo://app?vid=4e02a862-7695-4adf-a8cc-8d0f2895a878"},"vehicle_type_id":"4","last_reported":1745528929,"current_range_meters":14400,"station_id":"ce4bgg92rcd13ifvqb30","pricing_plan_id":"cebpf4jnsgd1na2vs0mg"},{"bike_id":"419a7d57-d681-41b8-a8bf-657d289a5cf1","system_id":"levelo_inurba_marseille","lat":43.30522,"lon":5.38433,"is_reserved":false,"is_disabled":false,"rental_uris":{"android":"levelo://app?vid=419a7d57-d681-41b8-a8bf-657d289a5cf1","ios":"levelo://app?vid=419a7d57-d681-41b8-a8bf-657d289a5cf1"},"vehicle_type_id":"4","last_reported":1745528929,"current_range_meters":14400,"station_id":"ce4bgg92rcd13ifvqb30","pricing_plan_id":"cebpf4jnsgd1na2vs0mg"},{"bike_id":"1e41f8c3-3569-4425-a5e9-2dbf9dfee337","system_id":"levelo_inurba_marseille","lat":43.31104,"lon":5.37772,"is_reserved":false,"is_disabled":false,"rental_uris":{"android":"levelo://app?vid=1e41f8c3-3569-4425-a5e9-2dbf9dfee337","ios":"levelo://app?vid=1e41f8c3-3569-4425-a5e9-2dbf9dfee337"},"vehicle_type_id":"4","last_reported":1745528929,"current_range_meters":14400,"station_id":"ce4bgt92rcd13ifvqcg0","pricing_plan_id":"cebpf4jnsgd1na2vs0mg"},{"bike_id":"1a9b9ba2-6e5a-4697-beb7-5c65923a8b43","system_id":"levelo_inurba_marseille","lat":43.26784,"lon":5.39419,"is_reserved":false,"is_disabled":true,"rental_uris":{"android":"levelo://app?vid=1a9b9ba2-6e5a-4697-beb7-5c65923a8b43","ios":"levelo://app?vid=1a9b9ba2-6e5a-4697-beb7-5c65923a8b43"},"vehicle_type_id":"4","last_reported":1745528929,"current_range_meters":14800,"station_id":"ce4bhh12rcd13ifvqfg0","pricing_plan_id":"cebpf4jnsgd1na2vs0mg"},{"bike_id":"cedb532b-0606-4458-a20c-f7f951f69830","system_id":"levelo_inurba_marseille","lat":43.25098,"lon":5.39507,"is_reserved":false,"is_disabled":false,"rental_uris":{"android":"levelo://app?vid=cedb532b-0606-4458-a20c-f7f951f69830","ios":"levelo://app?vid=cedb532b-0606-4458-a20c-f7f951f69830"},"vehicle_type_id":"4","last_reported":1745528929,"current_range_meters":14800,"station_id":"ce4bhm12rcd13ifvqgkg","pricing_plan_id":"cebpf4jnsgd1na2vs0mg"},{"bike_id":"60dfd680-53b4-4a6b-9833-969fb3f852ba","system_id":"levelo_inurba_marseille","lat":43.30926,"lon":5.40141,"is_reserved":false,"is_disabled":false,"rental_uris":{"android":"levelo://app?vid=60dfd680-53b4-4a6b-9833-969fb3f852ba","ios":"levelo://app?vid=60dfd680-53b4-4a6b-9833-969fb3f852ba"},"vehicle_type_id":"4","last_reported":1745528929,"current_range_meters":14800,"station_id":"ce4bgvp2rcd13ifvqct0","pricing_plan_id":"cebpf4jnsgd1na2vs0mg"},{"bike_id":"ec30c27c-48ca-44b5-b64c-3dd3dfeb5f53","system_id":"levelo_inurba_marseille","lat":43.239632,"lon":5.366318,"is_reserved":false,"is_disabled":false,"rental_uris":{"android":"levelo://app?vid=ec30c27c-48ca-44b5-b64c-3dd3dfeb5f53","ios":"levelo://app?vid=ec30c27c-48ca-44b5-b64c-3dd3dfeb5f53"},"vehicle_type_id":"4","last_reported":1745528929,"current_range_meters":14800,"station_id":"ce4bhi12rcd13ifvqfp0","pricing_plan_id":"cebpf4jnsgd1na2vs0mg"},{"bike_id":"a7f731b3-d837-4723-8a41-81a3cd3ce7ca","system_id":"levelo_inurba_marseille","lat":43.31473,"lon":5.37315,"is_reserved":false,"is_disabled":false,"rental_uris":{"android":"levelo://app?vid=a7f731b3-d837-4723-8a41-81a3cd3ce7ca","ios":"levelo://app?vid=a7f731b3-d837-4723-8a41-81a3cd3ce7ca"},"vehicle_type_id":"4","last_reported":1745528929,"current_range_meters":14800,"station_id":"ce4bgt12rcd13ifvqcd0","pricing_plan_id":"cebpf4jnsgd1na2vs0mg"},{"bike_id":"65db65ec-c2a6-4002-950d-2c3d5e31012b","system_id":"levelo_inurba_marseille","lat":43.28701,"lon":5.39999,"is_reserved":false,"is_disabled":false,"rental_uris":{"android":"levelo://app?vid=65db65ec-c2a6-4002-950d-2c3d5e31012b","ios":"levelo://app?vid=65db65ec-c2a6-4002-950d-2c3d5e31012b"},"vehicle_type_id":"4","last_reported":1745528929,"current_range_meters":15200,"station_id":"ce4bho92rcd13ifvqh3g","pricing_plan_id":"cebpf4jnsgd1na2vs0mg"},{"bike_id":"87a45415-36d8-4f9f-8cfa-7a76d5c6774b","system_id":"levelo_inurba_marseille","lat":43.289429,"lon":5.366425,"is_reserved":false,"is_disabled":false,"rental_uris":{"android":"levelo://app?vid=87a45415-36d8-4f9f-8cfa-7a76d5c6774b","ios":"levelo://app?vid=87a45415-36d8-4f9f-8cfa-7a76d5c6774b"},"vehicle_type_id":"4","last_reported":1745528929,"current_range_meters":16400,"station_id":"ce4bhb12rcd13ifvqel0","pricing_plan_id":"cebpf4jnsgd1na2vs0mg"},{"bike_id":"00778650-e08a-4011-95d9-fa9e1b3ec789","system_id":"levelo_inurba_marseille","lat":43.28037,"lon":5.3694,"is_reserved":false,"is_disabled":false,"rental_uris":{"android":"levelo://app?vid=00778650-e08a-4011-95d9-fa9e1b3ec789","ios":"levelo://app?vid=00778650-e08a-4011-95d9-fa9e1b3ec789"},"vehicle_type_id":"4","last_reported":1745528929,"current_range_meters":15200,"station_id":"ce4bha12rcd13ifvqef0","pricing_plan_id":"cebpf4jnsgd1na2vs0mg"},{"bike_id":"d0fbe7e1-3966-4cbd-b3e0-a9ab5630afe5","system_id":"levelo_inurba_marseille","lat":43.28452,"lon":5.39171,"is_reserved":false,"is_disabled":false,"rental_uris":{"android":"levelo://app?vid=d0fbe7e1-3966-4cbd-b3e0-a9ab5630afe5","ios":"levelo://app?vid=d0fbe7e1-3966-4cbd-b3e0-a9ab5630afe5"},"vehicle_type_id":"4","last_reported":1745528929,"current_range_meters":15200,"station_id":"ce4bhoh2rcd13ifvqh5g","pricing_plan_id":"cebpf4jnsgd1na2vs0mg"},{"bike_id":"273089d6-6fa8-42e7-a80b-583e90db26c4","system_id":"levelo_inurba_marseille","lat":43.28158,"lon":5.42646,"is_reserved":false,"is_disabled":false,"rental_uris":{"android":"levelo://app?vid=273089d6-6fa8-42e7-a80b-583e90db26c4","ios":"levelo://app?vid=273089d6-6fa8-42e7-a80b-583e90db26c4"},"vehicle_type_id":"4","last_reported":1745528929,"current_range_meters":15200,"station_id":"ce4bhnh2rcd13ifvqgug","pricing_plan_id":"cebpf4jnsgd1na2vs0mg"},{"bike_id":"dcd234c3-5f82-4cde-a4b9-8f927e2f4d84","system_id":"levelo_inurba_marseille","lat":43.29037,"lon":5.37572,"is_reserved":false,"is_disabled":false,"rental_uris":{"android":"levelo://app?vid=dcd234c3-5f82-4cde-a4b9-8f927e2f4d84","ios":"levelo://app?vid=dcd234c3-5f82-4cde-a4b9-8f927e2f4d84"},"vehicle_type_id":"4","last_reported":1745528929,"current_range_meters":15200,"station_id":"ce4bh692rcd13ifvqe90","pricing_plan_id":"cebpf4jnsgd1na2vs0mg"},{"bike_id":"0e677427-8d60-4b75-92c0-3cc225e20f0d","system_id":"levelo_inurba_marseille","lat":43.29021,"lon":5.38642,"is_reserved":false,"is_disabled":false,"rental_uris":{"android":"levelo://app?vid=0e677427-8d60-4b75-92c0-3cc225e20f0d","ios":"levelo://app?vid=0e677427-8d60-4b75-92c0-3cc225e20f0d"},"vehicle_type_id":"4","last_reported":1745528929,"current_range_meters":16000,"station_id":"ce4bh4p2rcd13ifvqe0g","pricing_plan_id":"cebpf4jnsgd1na2vs0mg"},{"bike_id":"81c81512-358b-4ec4-84eb-fbf5c7660a78","system_id":"levelo_inurba_marseille","lat":43.29261,"lon":5.40894,"is_reserved":false,"is_disabled":false,"rental_uris":{"android":"levelo://app?vid=81c81512-358b-4ec4-84eb-fbf5c7660a78","ios":"levelo://app?vid=81c81512-358b-4ec4-84eb-fbf5c7660a78"},"vehicle_type_id":"4","last_reported":1745528929,"current_range_meters":16000,"station_id":"ce4bh192rcd13ifvqdc0","pricing_plan_id":"cebpf4jnsgd1na2vs0mg"},{"bike_id":"e993c1a9-a5dd-4037-9d54-315ee49bf929","system_id":"levelo_inurba_marseille","lat":43.26949,"lon":5.38642,"is_reserved":false,"is_disabled":false,"rental_uris":{"android":"levelo://app?vid=e993c1a9-a5dd-4037-9d54-315ee49bf929","ios":"levelo://app?vid=e993c1a9-a5dd-4037-9d54-315ee49bf929"},"vehicle_type_id":"4","last_reported":1745528929,"current_range_meters":16000,"station_id":"ce4bhh92rcd13ifvqfh0","pricing_plan_id":"cebpf4jnsgd1na2vs0mg"},{"bike_id":"50c51e5c-e0de-43f1-a9b9-2a4ffcebd1da","system_id":"levelo_inurba_marseille","lat":43.31697,"lon":5.3773,"is_reserved":false,"is_disabled":false,"rental_uris":{"android":"levelo://app?vid=50c51e5c-e0de-43f1-a9b9-2a4ffcebd1da","ios":"levelo://app?vid=50c51e5c-e0de-43f1-a9b9-2a4ffcebd1da"},"vehicle_type_id":"4","last_reported":1745528929,"current_range_meters":16000,"station_id":"ce4bgth2rcd13ifvqch0","pricing_plan_id":"cebpf4jnsgd1na2vs0mg"},{"bike_id":"5c006ed8-57a7-482d-a255-403c40fa7edf","system_id":"levelo_inurba_marseille","lat":43.29521,"lon":5.39031,"is_reserved":false,"is_disabled":false,"rental_uris":{"android":"levelo://app?vid=5c006ed8-57a7-482d-a255-403c40fa7edf","ios":"levelo://app?vid=5c006ed8-57a7-482d-a255-403c40fa7edf"},"vehicle_type_id":"4","last_reported":1745528929,"current_range_meters":16000,"station_id":"ce4bh3p2rcd13ifvqdp0","pricing_plan_id":"cebpf4jnsgd1na2vs0mg"},{"bike_id":"1dff9b55-9191-4010-9662-dbf23dd3eb6e","system_id":"levelo_inurba_marseille","lat":43.26553,"lon":5.37291,"is_reserved":false,"is_disabled":false,"rental_uris":{"android":"levelo://app?vid=1dff9b55-9191-4010-9662-dbf23dd3eb6e","ios":"levelo://app?vid=1dff9b55-9191-4010-9662-dbf23dd3eb6e"},"vehicle_type_id":"4","last_reported":1745528929,"current_range_meters":16000,"station_id":"ce4bhg12rcd13ifvqf70","pricing_plan_id":"cebpf4jnsgd1na2vs0mg"},{"bike_id":"7fc5ed43-b2c3-4cf7-b081-488a7cbcc12f","system_id":"levelo_inurba_marseille","lat":43.3305,"lon":5.39022,"is_reserved":false,"is_disabled":false,"rental_uris":{"android":"levelo://app?vid=7fc5ed43-b2c3-4cf7-b081-488a7cbcc12f","ios":"levelo://app?vid=7fc5ed43-b2c3-4cf7-b081-488a7cbcc12f"},"vehicle_type_id":"4","last_reported":1745528929,"current_range_meters":16000,"station_id":"ce4bhr92rcd13ifvqhrg","pricing_plan_id":"cebpf4jnsgd1na2vs0mg"},{"bike_id":"5c8dde23-03af-4ec7-8c64-b6a7b95cfa5a","system_id":"levelo_inurba_marseille","lat":43.33727,"lon":5.39182,"is_reserved":false,"is_disabled":false,"rental_uris":{"android":"levelo://app?vid=5c8dde23-03af-4ec7-8c64-b6a7b95cfa5a","ios":"levelo://app?vid=5c8dde23-03af-4ec7-8c64-b6a7b95cfa5a"},"vehicle_type_id":"4","last_reported":1745528929,"current_range_meters":16000,"station_id":"ce4bhr92rcd13ifvqhsg","pricing_plan_id":"cebpf4jnsgd1na2vs0mg"},{"bike_id":"844bea76-b19f-49aa-8faf-017738c4a388","system_id":"levelo_inurba_marseille","lat":43.27918,"lon":5.39586,"is_reserved":false,"is_disabled":false,"rental_uris":{"android":"levelo://app?vid=844bea76-b19f-49aa-8faf-017738c4a388","ios":"levelo://app?vid=844bea76-b19f-49aa-8faf-017738c4a388"},"vehicle_type_id":"4","last_reported":1745528929,"current_range_meters":16000,"station_id":"ce4bhf92rcd13ifvqf40","pricing_plan_id":"cebpf4jnsgd1na2vs0mg"},{"bike_id":"927a350a-9924-44cb-a179-3057864421f2","system_id":"levelo_inurba_marseille","lat":43.30596,"lon":5.37249,"is_reserved":false,"is_disabled":false,"rental_uris":{"android":"levelo://app?vid=927a350a-9924-44cb-a179-3057864421f2","ios":"levelo://app?vid=927a350a-9924-44cb-a179-3057864421f2"},"vehicle_type_id":"4","last_reported":1745528929,"current_range_meters":16400,"station_id":"ce4bgqh2rcd13ifvqc4g","pricing_plan_id":"cebpf4jnsgd1na2vs0mg"},{"bike_id":"6ff874e6-32ba-4c6c-9a17-f8b8f47db003","system_id":"levelo_inurba_marseille","lat":43.28101,"lon":5.3784,"is_reserved":false,"is_disabled":false,"rental_uris":{"android":"levelo://app?vid=6ff874e6-32ba-4c6c-9a17-f8b8f47db003","ios":"levelo://app?vid=6ff874e6-32ba-4c6c-9a17-f8b8f47db003"},"vehicle_type_id":"4","last_reported":1745528929,"current_range_meters":16400,"station_id":"ce4bha12rcd13ifvqee0","pricing_plan_id":"cebpf4jnsgd1na2vs0mg"},{"bike_id":"ac5913e7-6151-413a-9ef8-dd2c5d342e90","system_id":"levelo_inurba_marseille","lat":43.29717,"lon":5.36623,"is_reserved":false,"is_disabled":false,"rental_uris":{"android":"levelo://app?vid=ac5913e7-6151-413a-9ef8-dd2c5d342e90","ios":"levelo://app?vid=ac5913e7-6151-413a-9ef8-dd2c5d342e90"},"vehicle_type_id":"4","last_reported":1745528929,"current_range_meters":16400,"station_id":"ce4bgn12rcd13ifvqbt0","pricing_plan_id":"cebpf4jnsgd1na2vs0mg"},{"bike_id":"96d32896-c442-40e8-8ee2-f0104d4af04a","system_id":"levelo_inurba_marseille","lat":43.264901,"lon":5.395391,"is_reserved":false,"is_disabled":false,"rental_uris":{"android":"levelo://app?vid=96d32896-c442-40e8-8ee2-f0104d4af04a","ios":"levelo://app?vid=96d32896-c442-40e8-8ee2-f0104d4af04a"},"vehicle_type_id":"4","last_reported":1745528929,"current_range_meters":16400,"station_id":"ce4bhi12rcd13ifvqfq0","pricing_plan_id":"cebpf4jnsgd1na2vs0mg"},{"bike_id":"bde3dfbe-561b-4e2b-8adb-c7cdef37b3a6","system_id":"levelo_inurba_marseille","lat":43.30904,"lon":5.37174,"is_reserved":false,"is_disabled":false,"rental_uris":{"android":"levelo://app?vid=bde3dfbe-561b-4e2b-8adb-c7cdef37b3a6","ios":"levelo://app?vid=bde3dfbe-561b-4e2b-8adb-c7cdef37b3a6"},"vehicle_type_id":"4","last_reported":1745528929,"current_range_meters":16400,"station_id":"ce4bguh2rcd13ifvqckg","pricing_plan_id":"cebpf4jnsgd1na2vs0mg"},{"bike_id":"a5b807e2-0dcd-4c88-a997-bb37c582102d","system_id":"levelo_inurba_marseille","lat":43.30394,"lon":5.3719,"is_reserved":false,"is_disabled":false,"rental_uris":{"android":"levelo://app?vid=a5b807e2-0dcd-4c88-a997-bb37c582102d","ios":"levelo://app?vid=a5b807e2-0dcd-4c88-a997-bb37c582102d"},"vehicle_type_id":"4","last_reported":1745528929,"current_range_meters":16400,"station_id":"","pricing_plan_id":"cebpf4jnsgd1na2vs0mg"},{"bike_id":"bd95f0bb-c5b1-4d5c-837c-b505e5069d47","system_id":"levelo_inurba_marseille","lat":43.32846,"lon":5.3995,"is_reserved":false,"is_disabled":false,"rental_uris":{"android":"levelo://app?vid=bd95f0bb-c5b1-4d5c-837c-b505e5069d47","ios":"levelo://app?vid=bd95f0bb-c5b1-4d5c-837c-b505e5069d47"},"vehicle_type_id":"4","last_reported":1745528929,"current_range_meters":16400,"station_id":"","pricing_plan_id":"cebpf4jnsgd1na2vs0mg"},{"bike_id":"57452e1d-3f88-4463-8ccd-9e37ee118d1f","system_id":"levelo_inurba_marseille","lat":43.287203,"lon":5.360792,"is_reserved":false,"is_disabled":false,"rental_uris":{"android":"levelo://app?vid=57452e1d-3f88-4463-8ccd-9e37ee118d1f","ios":"levelo://app?vid=57452e1d-3f88-4463-8ccd-9e37ee118d1f"},"vehicle_type_id":"4","last_reported":1745528929,"current_range_meters":16400,"station_id":"cki0cbj6b192h4jlfktg","pricing_plan_id":"cebpf4jnsgd1na2vs0mg"},{"bike_id":"9e9e4114-a05a-4c5e-9f96-6c201042ecfd","system_id":"levelo_inurba_marseille","lat":43.32371,"lon":5.3889,"is_reserved":false,"is_disabled":false,"rental_uris":{"android":"levelo://app?vid=9e9e4114-a05a-4c5e-9f96-6c201042ecfd","ios":"levelo://app?vid=9e9e4114-a05a-4c5e-9f96-6c201042ecfd"},"vehicle_type_id":"4","last_reported":1745528929,"current_range_meters":16800,"station_id":"ce4bhqp2rcd13ifvqhog","pricing_plan_id":"cebpf4jnsgd1na2vs0mg"},{"bike_id":"7597f9f7-581e-4aa1-9ea0-a72928416a0e","system_id":"levelo_inurba_marseille","lat":43.30292,"lon":5.39195,"is_reserved":false,"is_disabled":true,"rental_uris":{"android":"levelo://app?vid=7597f9f7-581e-4aa1-9ea0-a72928416a0e","ios":"levelo://app?vid=7597f9f7-581e-4aa1-9ea0-a72928416a0e"},"vehicle_type_id":"4","last_reported":1745528929,"current_range_meters":16800,"station_id":"ce4bgkh2rcd13ifvqbk0","pricing_plan_id":"cebpf4jnsgd1na2vs0mg"},{"bike_id":"2842ede5-3b6a-4c19-9aff-7b65f162e244","system_id":"levelo_inurba_marseille","lat":43.28035,"lon":5.36951,"is_reserved":false,"is_disabled":false,"rental_uris":{"android":"levelo://app?vid=2842ede5-3b6a-4c19-9aff-7b65f162e244","ios":"levelo://app?vid=2842ede5-3b6a-4c19-9aff-7b65f162e244"},"vehicle_type_id":"4","last_reported":1745528929,"current_range_meters":16800,"station_id":"ce4bha12rcd13ifvqef0","pricing_plan_id":"cebpf4jnsgd1na2vs0mg"},{"bike_id":"03ec5728-5a8d-475c-be69-d63e54c8d683","system_id":"levelo_inurba_marseille","lat":43.32455,"lon":5.36712,"is_reserved":false,"is_disabled":false,"rental_uris":{"android":"levelo://app?vid=03ec5728-5a8d-475c-be69-d63e54c8d683","ios":"levelo://app?vid=03ec5728-5a8d-475c-be69-d63e54c8d683"},"vehicle_type_id":"4","last_reported":1745528929,"current_range_meters":16800,"station_id":"","pricing_plan_id":"cebpf4jnsgd1na2vs0mg"},{"bike_id":"31a84c9b-c7bb-41c7-a970-898dcf763426","system_id":"levelo_inurba_marseille","lat":43.29513,"lon":5.39425,"is_reserved":false,"is_disabled":false,"rental_uris":{"android":"levelo://app?vid=31a84c9b-c7bb-41c7-a970-898dcf763426","ios":"levelo://app?vid=31a84c9b-c7bb-41c7-a970-898dcf763426"},"vehicle_type_id":"4","last_reported":1745528929,"current_range_meters":16800,"station_id":"ce4bh292rcd13ifvqdf0","pricing_plan_id":"cebpf4jnsgd1na2vs0mg"},{"bike_id":"18afcdc5-8c2f-4e59-8909-ae5a72ac30af","system_id":"levelo_inurba_marseille","lat":43.27206,"lon":5.39195,"is_reserved":false,"is_disabled":false,"rental_uris":{"android":"levelo://app?vid=18afcdc5-8c2f-4e59-8909-ae5a72ac30af","ios":"levelo://app?vid=18afcdc5-8c2f-4e59-8909-ae5a72ac30af"},"vehicle_type_id":"4","last_reported":1745528929,"current_range_meters":16800,"station_id":"ce4bhhp2rcd13ifvqfm0","pricing_plan_id":"cebpf4jnsgd1na2vs0mg"},{"bike_id":"f4449aa8-01e7-4a92-94a5-583956791c22","system_id":"levelo_inurba_marseille","lat":43.28268,"lon":5.35089,"is_reserved":false,"is_disabled":false,"rental_uris":{"android":"levelo://app?vid=f4449aa8-01e7-4a92-94a5-583956791c22","ios":"levelo://app?vid=f4449aa8-01e7-4a92-94a5-583956791c22"},"vehicle_type_id":"4","last_reported":1745528929,"current_range_meters":16800,"station_id":"ce4bhbp2rcd13ifvqerg","pricing_plan_id":"cebpf4jnsgd1na2vs0mg"},{"bike_id":"e2dcabcf-64d8-4394-bb9a-ff877bee611a","system_id":"levelo_inurba_marseille","lat":43.32046,"lon":5.41519,"is_reserved":false,"is_disabled":false,"rental_uris":{"android":"levelo://app?vid=e2dcabcf-64d8-4394-bb9a-ff877bee611a","ios":"levelo://app?vid=e2dcabcf-64d8-4394-bb9a-ff877bee611a"},"vehicle_type_id":"4","last_reported":1745528929,"current_range_meters":16800,"station_id":"ce4bhq92rcd13ifvqhkg","pricing_plan_id":"cebpf4jnsgd1na2vs0mg"},{"bike_id":"35e0752c-afe6-4cae-84a6-d74556a78578","system_id":"levelo_inurba_marseille","lat":43.289357,"lon":5.366431,"is_reserved":false,"is_disabled":false,"rental_uris":{"android":"levelo://app?vid=35e0752c-afe6-4cae-84a6-d74556a78578","ios":"levelo://app?vid=35e0752c-afe6-4cae-84a6-d74556a78578"},"vehicle_type_id":"4","last_reported":1745528929,"current_range_meters":16800,"station_id":"ce4bhap2rcd13ifvqek0","pricing_plan_id":"cebpf4jnsgd1na2vs0mg"},{"bike_id":"539309ff-ced1-4291-94c1-a0893d75bc98","system_id":"levelo_inurba_marseille","lat":43.31883,"lon":5.40743,"is_reserved":false,"is_disabled":false,"rental_uris":{"android":"levelo://app?vid=539309ff-ced1-4291-94c1-a0893d75bc98","ios":"levelo://app?vid=539309ff-ced1-4291-94c1-a0893d75bc98"},"vehicle_type_id":"4","last_reported":1745528929,"current_range_meters":16800,"station_id":"ce4bhq12rcd13ifvqhig","pricing_plan_id":"cebpf4jnsgd1na2vs0mg"},{"bike_id":"5ea92885-4784-424e-bbd0-fe10a23b8f63","system_id":"levelo_inurba_marseille","lat":43.24675,"lon":5.38159,"is_reserved":false,"is_disabled":false,"rental_uris":{"android":"levelo://app?vid=5ea92885-4784-424e-bbd0-fe10a23b8f63","ios":"levelo://app?vid=5ea92885-4784-424e-bbd0-fe10a23b8f63"},"vehicle_type_id":"4","last_reported":1745528929,"current_range_meters":16800,"station_id":"ce4bhih2rcd13ifvqfr0","pricing_plan_id":"cebpf4jnsgd1na2vs0mg"},{"bike_id":"c3721006-7b34-4ca8-be85-027727c3f2af","system_id":"levelo_inurba_marseille","lat":43.28479,"lon":5.38445,"is_reserved":false,"is_disabled":true,"rental_uris":{"android":"levelo://app?vid=c3721006-7b34-4ca8-be85-027727c3f2af","ios":"levelo://app?vid=c3721006-7b34-4ca8-be85-027727c3f2af"},"vehicle_type_id":"4","last_reported":1745528929,"current_range_meters":16800,"station_id":"ce4bh512rcd13ifvqe3g","pricing_plan_id":"cebpf4jnsgd1na2vs0mg"},{"bike_id":"389081e5-a59f-4bb8-ae5b-d14b07648eda","system_id":"levelo_inurba_marseille","lat":43.25122,"lon":5.40331,"is_reserved":false,"is_disabled":true,"rental_uris":{"android":"levelo://app?vid=389081e5-a59f-4bb8-ae5b-d14b07648eda","ios":"levelo://app?vid=389081e5-a59f-4bb8-ae5b-d14b07648eda"},"vehicle_type_id":"4","last_reported":1745528929,"current_range_meters":16800,"station_id":"ce4bhlh2rcd13ifvqgig","pricing_plan_id":"cebpf4jnsgd1na2vs0mg"},{"bike_id":"38a54769-e8ac-41ad-bccc-10712900ee1c","system_id":"levelo_inurba_marseille","lat":43.26222,"lon":5.40461,"is_reserved":false,"is_disabled":false,"rental_uris":{"android":"levelo://app?vid=38a54769-e8ac-41ad-bccc-10712900ee1c","ios":"levelo://app?vid=38a54769-e8ac-41ad-bccc-10712900ee1c"},"vehicle_type_id":"4","last_reported":1745528929,"current_range_meters":16800,"station_id":"ce4bhmh2rcd13ifvqgmg","pricing_plan_id":"cebpf4jnsgd1na2vs0mg"},{"bike_id":"240830ee-52db-4f02-b5c4-208a871992d9","system_id":"levelo_inurba_marseille","lat":43.29881,"lon":5.38912,"is_reserved":false,"is_disabled":false,"rental_uris":{"android":"levelo://app?vid=240830ee-52db-4f02-b5c4-208a871992d9","ios":"levelo://app?vid=240830ee-52db-4f02-b5c4-208a871992d9"},"vehicle_type_id":"4","last_reported":1745528929,"current_range_meters":17200,"station_id":"ce4bh392rcd13ifvqdl0","pricing_plan_id":"cebpf4jnsgd1na2vs0mg"},{"bike_id":"f437bbcd-3bc3-4220-9dfe-08d3eac84ba1","system_id":"levelo_inurba_marseille","lat":43.286167,"lon":5.350919,"is_reserved":false,"is_disabled":true,"rental_uris":{"android":"levelo://app?vid=f437bbcd-3bc3-4220-9dfe-08d3eac84ba1","ios":"levelo://app?vid=f437bbcd-3bc3-4220-9dfe-08d3eac84ba1"},"vehicle_type_id":"4","last_reported":1745528929,"current_range_meters":17200,"station_id":"ce4bhch2rcd13ifvqeug","pricing_plan_id":"cebpf4jnsgd1na2vs0mg"},{"bike_id":"7d481281-7e76-4286-9142-89af9127ab7f","system_id":"levelo_inurba_marseille","lat":43.29525,"lon":5.38562,"is_reserved":false,"is_disabled":false,"rental_uris":{"android":"levelo://app?vid=7d481281-7e76-4286-9142-89af9127ab7f","ios":"levelo://app?vid=7d481281-7e76-4286-9142-89af9127ab7f"},"vehicle_type_id":"4","last_reported":1745528929,"current_range_meters":17200,"station_id":"ce4bgih2rcd13ifvqba0","pricing_plan_id":"cebpf4jnsgd1na2vs0mg"},{"bike_id":"68d3a95c-3065-4535-86b6-fde61722ced0","system_id":"levelo_inurba_marseille","lat":43.28437,"lon":5.39182,"is_reserved":false,"is_disabled":false,"rental_uris":{"android":"levelo://app?vid=68d3a95c-3065-4535-86b6-fde61722ced0","ios":"levelo://app?vid=68d3a95c-3065-4535-86b6-fde61722ced0"},"vehicle_type_id":"4","last_reported":1745528929,"current_range_meters":17200,"station_id":"ce4bhoh2rcd13ifvqh5g","pricing_plan_id":"cebpf4jnsgd1na2vs0mg"},{"bike_id":"607c42c4-3304-418f-ae4a-dd0ef6aa7b94","system_id":"levelo_inurba_marseille","lat":43.3229,"lon":5.38262,"is_reserved":false,"is_disabled":false,"rental_uris":{"android":"levelo://app?vid=607c42c4-3304-418f-ae4a-dd0ef6aa7b94","ios":"levelo://app?vid=607c42c4-3304-418f-ae4a-dd0ef6aa7b94"},"vehicle_type_id":"4","last_reported":1745528929,"current_range_meters":17600,"station_id":"ce4bhr12rcd13ifvqhqg","pricing_plan_id":"cebpf4jnsgd1na2vs0mg"},{"bike_id":"a9a293a9-bc2f-464f-bb6e-0b70261795f0","system_id":"levelo_inurba_marseille","lat":43.29307,"lon":5.37183,"is_reserved":false,"is_disabled":false,"rental_uris":{"android":"levelo://app?vid=a9a293a9-bc2f-464f-bb6e-0b70261795f0","ios":"levelo://app?vid=a9a293a9-bc2f-464f-bb6e-0b70261795f0"},"vehicle_type_id":"4","last_reported":1745528929,"current_range_meters":17600,"station_id":"ce4bgh92rcd13ifvqb40","pricing_plan_id":"cebpf4jnsgd1na2vs0mg"},{"bike_id":"cfa52da7-ecc2-4228-a2f2-067f1e6ddea6","system_id":"levelo_inurba_marseille","lat":43.31998,"lon":5.38163,"is_reserved":false,"is_disabled":false,"rental_uris":{"android":"levelo://app?vid=cfa52da7-ecc2-4228-a2f2-067f1e6ddea6","ios":"levelo://app?vid=cfa52da7-ecc2-4228-a2f2-067f1e6ddea6"},"vehicle_type_id":"4","last_reported":1745528929,"current_range_meters":17600,"station_id":"ce4bhr12rcd13ifvqhpg","pricing_plan_id":"cebpf4jnsgd1na2vs0mg"},{"bike_id":"5cff3207-23ad-406f-a81e-d6e191b09a6b","system_id":"levelo_inurba_marseille","lat":43.26545,"lon":5.37299,"is_reserved":false,"is_disabled":false,"rental_uris":{"android":"levelo://app?vid=5cff3207-23ad-406f-a81e-d6e191b09a6b","ios":"levelo://app?vid=5cff3207-23ad-406f-a81e-d6e191b09a6b"},"vehicle_type_id":"4","last_reported":1745528929,"current_range_meters":17600,"station_id":"ce4bhg12rcd13ifvqf70","pricing_plan_id":"cebpf4jnsgd1na2vs0mg"},{"bike_id":"99105336-fb95-430d-8e92-cab64155a19b","system_id":"levelo_inurba_marseille","lat":43.29241,"lon":5.36623,"is_reserved":false,"is_disabled":false,"rental_uris":{"android":"levelo://app?vid=99105336-fb95-430d-8e92-cab64155a19b","ios":"levelo://app?vid=99105336-fb95-430d-8e92-cab64155a19b"},"vehicle_type_id":"4","last_reported":1745528929,"current_range_meters":17600,"station_id":"","pricing_plan_id":"cebpf4jnsgd1na2vs0mg"},{"bike_id":"3857c1c5-eeaa-4322-86c6-ca59b85e4a47","system_id":"levelo_inurba_marseille","lat":43.25496,"lon":5.37651,"is_reserved":false,"is_disabled":false,"rental_uris":{"android":"levelo://app?vid=3857c1c5-eeaa-4322-86c6-ca59b85e4a47","ios":"levelo://app?vid=3857c1c5-eeaa-4322-86c6-ca59b85e4a47"},"vehicle_type_id":"4","last_reported":1745528929,"current_range_meters":17600,"station_id":"ce4bhh12rcd13ifvqff0","pricing_plan_id":"cebpf4jnsgd1na2vs0mg"},{"bike_id":"230a4b18-f598-423a-928c-a723c4d4cf96","system_id":"levelo_inurba_marseille","lat":43.27372,"lon":5.36269,"is_reserved":false,"is_disabled":false,"rental_uris":{"android":"levelo://app?vid=230a4b18-f598-423a-928c-a723c4d4cf96","ios":"levelo://app?vid=230a4b18-f598-423a-928c-a723c4d4cf96"},"vehicle_type_id":"4","last_reported":1745528929,"current_range_meters":17600,"station_id":"ce4bhbh2rcd13ifvqeo0","pricing_plan_id":"cebpf4jnsgd1na2vs0mg"},{"bike_id":"02a04312-9006-48f2-97a9-a32820efc417","system_id":"levelo_inurba_marseille","lat":43.31796,"lon":5.37783,"is_reserved":false,"is_disabled":false,"rental_uris":{"android":"levelo://app?vid=02a04312-9006-48f2-97a9-a32820efc417","ios":"levelo://app?vid=02a04312-9006-48f2-97a9-a32820efc417"},"vehicle_type_id":"4","last_reported":1745528929,"current_range_meters":17600,"station_id":"ce4bgth2rcd13ifvqch0","pricing_plan_id":"cebpf4jnsgd1na2vs0mg"},{"bike_id":"45837392-2c5f-4e7b-9f16-4fc475d351bd","system_id":"levelo_inurba_marseille","lat":43.28741,"lon":5.39956,"is_reserved":false,"is_disabled":false,"rental_uris":{"android":"levelo://app?vid=45837392-2c5f-4e7b-9f16-4fc475d351bd","ios":"levelo://app?vid=45837392-2c5f-4e7b-9f16-4fc475d351bd"},"vehicle_type_id":"4","last_reported":1745528929,"current_range_meters":17600,"station_id":"ce4bho92rcd13ifvqh3g","pricing_plan_id":"cebpf4jnsgd1na2vs0mg"},{"bike_id":"6a232082-23e6-40a6-8ae1-2875420613c9","system_id":"levelo_inurba_marseille","lat":43.287216,"lon":5.360727,"is_reserved":false,"is_disabled":false,"rental_uris":{"android":"levelo://app?vid=6a232082-23e6-40a6-8ae1-2875420613c9","ios":"levelo://app?vid=6a232082-23e6-40a6-8ae1-2875420613c9"},"vehicle_type_id":"4","last_reported":1745528929,"current_range_meters":17600,"station_id":"cki0cbj6b192h4jlfktg","pricing_plan_id":"cebpf4jnsgd1na2vs0mg"},{"bike_id":"0bfff189-ec6a-4439-b345-e9dd168ab867","system_id":"levelo_inurba_marseille","lat":43.33711,"lon":5.39194,"is_reserved":false,"is_disabled":false,"rental_uris":{"android":"levelo://app?vid=0bfff189-ec6a-4439-b345-e9dd168ab867","ios":"levelo://app?vid=0bfff189-ec6a-4439-b345-e9dd168ab867"},"vehicle_type_id":"4","last_reported":1745528929,"current_range_meters":17600,"station_id":"ce4bhr92rcd13ifvqhsg","pricing_plan_id":"cebpf4jnsgd1na2vs0mg"},{"bike_id":"887b985f-c85e-49ba-b470-77d7a2126763","system_id":"levelo_inurba_marseille","lat":43.29042,"lon":5.39957,"is_reserved":false,"is_disabled":false,"rental_uris":{"android":"levelo://app?vid=887b985f-c85e-49ba-b470-77d7a2126763","ios":"levelo://app?vid=887b985f-c85e-49ba-b470-77d7a2126763"},"vehicle_type_id":"4","last_reported":1745528929,"current_range_meters":17600,"station_id":"ce4bh392rcd13ifvqdm0","pricing_plan_id":"cebpf4jnsgd1na2vs0mg"},{"bike_id":"d395bdbd-b398-44eb-ba8d-ad2581087ffd","system_id":"levelo_inurba_marseille","lat":43.26226,"lon":5.40452,"is_reserved":false,"is_disabled":false,"rental_uris":{"android":"levelo://app?vid=d395bdbd-b398-44eb-ba8d-ad2581087ffd","ios":"levelo://app?vid=d395bdbd-b398-44eb-ba8d-ad2581087ffd"},"vehicle_type_id":"4","last_reported":1745528929,"current_range_meters":18000,"station_id":"ce4bhmh2rcd13ifvqgmg","pricing_plan_id":"cebpf4jnsgd1na2vs0mg"},{"bike_id":"c626c93a-7b05-43e0-8c99-3e68e87e1d65","system_id":"levelo_inurba_marseille","lat":43.29079,"lon":5.40035,"is_reserved":false,"is_disabled":false,"rental_uris":{"android":"levelo://app?vid=c626c93a-7b05-43e0-8c99-3e68e87e1d65","ios":"levelo://app?vid=c626c93a-7b05-43e0-8c99-3e68e87e1d65"},"vehicle_type_id":"4","last_reported":1745528929,"current_range_meters":18000,"station_id":"ce4bh392rcd13ifvqdm0","pricing_plan_id":"cebpf4jnsgd1na2vs0mg"},{"bike_id":"f172e360-2d4c-47b3-a510-e783de8ede16","system_id":"levelo_inurba_marseille","lat":43.232,"lon":5.39976,"is_reserved":false,"is_disabled":false,"rental_uris":{"android":"levelo://app?vid=f172e360-2d4c-47b3-a510-e783de8ede16","ios":"levelo://app?vid=f172e360-2d4c-47b3-a510-e783de8ede16"},"vehicle_type_id":"4","last_reported":1745528929,"current_range_meters":18000,"station_id":"ce4bhn12rcd13ifvqgqg","pricing_plan_id":"cebpf4jnsgd1na2vs0mg"},{"bike_id":"9a1c0be7-bd1a-4081-ab84-3ef05258b407","system_id":"levelo_inurba_marseille","lat":43.22917,"lon":5.35392,"is_reserved":false,"is_disabled":false,"rental_uris":{"android":"levelo://app?vid=9a1c0be7-bd1a-4081-ab84-3ef05258b407","ios":"levelo://app?vid=9a1c0be7-bd1a-4081-ab84-3ef05258b407"},"vehicle_type_id":"4","last_reported":1745528929,"current_range_meters":18000,"station_id":"cpo3532slgdg3j2ikp40","pricing_plan_id":"cebpf4jnsgd1na2vs0mg"},{"bike_id":"ae6f466b-1dc6-4c9e-add4-3e55bcef5b73","system_id":"levelo_inurba_marseille","lat":43.30423,"lon":5.39753,"is_reserved":false,"is_disabled":false,"rental_uris":{"android":"levelo://app?vid=ae6f466b-1dc6-4c9e-add4-3e55bcef5b73","ios":"levelo://app?vid=ae6f466b-1dc6-4c9e-add4-3e55bcef5b73"},"vehicle_type_id":"4","last_reported":1745528929,"current_range_meters":18000,"station_id":"ce4bh092rcd13ifvqd20","pricing_plan_id":"cebpf4jnsgd1na2vs0mg"},{"bike_id":"07620235-6635-4de3-96f0-bb9512464c31","system_id":"levelo_inurba_marseille","lat":43.29021,"lon":5.38639,"is_reserved":false,"is_disabled":false,"rental_uris":{"android":"levelo://app?vid=07620235-6635-4de3-96f0-bb9512464c31","ios":"levelo://app?vid=07620235-6635-4de3-96f0-bb9512464c31"},"vehicle_type_id":"4","last_reported":1745528929,"current_range_meters":18000,"station_id":"ce4bh4p2rcd13ifvqe0g","pricing_plan_id":"cebpf4jnsgd1na2vs0mg"},{"bike_id":"a9784e4d-72f3-45a0-bc5c-6a48517d28d6","system_id":"levelo_inurba_marseille","lat":43.330137,"lon":5.390577,"is_reserved":false,"is_disabled":false,"rental_uris":{"android":"levelo://app?vid=a9784e4d-72f3-45a0-bc5c-6a48517d28d6","ios":"levelo://app?vid=a9784e4d-72f3-45a0-bc5c-6a48517d28d6"},"vehicle_type_id":"4","last_reported":1745528929,"current_range_meters":18000,"station_id":"ce4bhr92rcd13ifvqhrg","pricing_plan_id":"cebpf4jnsgd1na2vs0mg"},{"bike_id":"809ecdf1-2358-47ab-a356-88d85f363bc5","system_id":"levelo_inurba_marseille","lat":43.30603,"lon":5.37233,"is_reserved":false,"is_disabled":false,"rental_uris":{"android":"levelo://app?vid=809ecdf1-2358-47ab-a356-88d85f363bc5","ios":"levelo://app?vid=809ecdf1-2358-47ab-a356-88d85f363bc5"},"vehicle_type_id":"4","last_reported":1745528929,"current_range_meters":18000,"station_id":"ce4bgqh2rcd13ifvqc4g","pricing_plan_id":"cebpf4jnsgd1na2vs0mg"},{"bike_id":"08017c5e-0ebd-49ed-a7d1-dae38f57908c","system_id":"levelo_inurba_marseille","lat":43.32662,"lon":5.40983,"is_reserved":false,"is_disabled":false,"rental_uris":{"android":"levelo://app?vid=08017c5e-0ebd-49ed-a7d1-dae38f57908c","ios":"levelo://app?vid=08017c5e-0ebd-49ed-a7d1-dae38f57908c"},"vehicle_type_id":"4","last_reported":1745528929,"current_range_meters":18000,"station_id":"ce4bhpp2rcd13ifvqhgg","pricing_plan_id":"cebpf4jnsgd1na2vs0mg"},{"bike_id":"08ab64df-8b0d-4cf9-adcf-6845d6057679","system_id":"levelo_inurba_marseille","lat":43.30657,"lon":5.40071,"is_reserved":false,"is_disabled":false,"rental_uris":{"android":"levelo://app?vid=08ab64df-8b0d-4cf9-adcf-6845d6057679","ios":"levelo://app?vid=08ab64df-8b0d-4cf9-adcf-6845d6057679"},"vehicle_type_id":"4","last_reported":1745528929,"current_range_meters":18800,"station_id":"ce4bh112rcd13ifvqda0","pricing_plan_id":"cebpf4jnsgd1na2vs0mg"},{"bike_id":"42a7759b-41b0-4ccd-898b-b1896baeebe8","system_id":"levelo_inurba_marseille","lat":43.29869,"lon":5.39736,"is_reserved":false,"is_disabled":false,"rental_uris":{"android":"levelo://app?vid=42a7759b-41b0-4ccd-898b-b1896baeebe8","ios":"levelo://app?vid=42a7759b-41b0-4ccd-898b-b1896baeebe8"},"vehicle_type_id":"4","last_reported":1745528929,"current_range_meters":18800,"station_id":"ce4bh0h2rcd13ifvqd50","pricing_plan_id":"cebpf4jnsgd1na2vs0mg"},{"bike_id":"94484cc1-76f2-4bee-b6fb-ea5305fb166b","system_id":"levelo_inurba_marseille","lat":43.33615,"lon":5.4106,"is_reserved":false,"is_disabled":false,"rental_uris":{"android":"levelo://app?vid=94484cc1-76f2-4bee-b6fb-ea5305fb166b","ios":"levelo://app?vid=94484cc1-76f2-4bee-b6fb-ea5305fb166b"},"vehicle_type_id":"4","last_reported":1745528929,"current_range_meters":18800,"station_id":"ce4bhqh2rcd13ifvqhmg","pricing_plan_id":"cebpf4jnsgd1na2vs0mg"},{"bike_id":"b04b2867-fbf0-4049-a1be-5593b1ff340a","system_id":"levelo_inurba_marseille","lat":43.241302,"lon":5.376976,"is_reserved":false,"is_disabled":false,"rental_uris":{"android":"levelo://app?vid=b04b2867-fbf0-4049-a1be-5593b1ff340a","ios":"levelo://app?vid=b04b2867-fbf0-4049-a1be-5593b1ff340a"},"vehicle_type_id":"4","last_reported":1745528929,"current_range_meters":19200,"station_id":"ce4bhah2rcd13ifvqei0","pricing_plan_id":"cebpf4jnsgd1na2vs0mg"},{"bike_id":"1abc48dd-efaa-4ca6-9a7a-f6253d85fd51","system_id":"levelo_inurba_marseille","lat":43.30786,"lon":5.43513,"is_reserved":false,"is_disabled":false,"rental_uris":{"android":"levelo://app?vid=1abc48dd-efaa-4ca6-9a7a-f6253d85fd51","ios":"levelo://app?vid=1abc48dd-efaa-4ca6-9a7a-f6253d85fd51"},"vehicle_type_id":"4","last_reported":1745528929,"current_range_meters":19200,"station_id":"ce4bhph2rcd13ifvqheg","pricing_plan_id":"cebpf4jnsgd1na2vs0mg"},{"bike_id":"829e6027-c98c-4052-9336-7fe801b0bc22","system_id":"levelo_inurba_marseille","lat":43.23147,"lon":5.43701,"is_reserved":false,"is_disabled":true,"rental_uris":{"android":"levelo://app?vid=829e6027-c98c-4052-9336-7fe801b0bc22","ios":"levelo://app?vid=829e6027-c98c-4052-9336-7fe801b0bc22"},"vehicle_type_id":"4","last_reported":1745528929,"current_range_meters":19200,"station_id":"ce4bhmp2rcd13ifvqgog","pricing_plan_id":"cebpf4jnsgd1na2vs0mg"},{"bike_id":"6c9041fe-faf9-4c11-9dc3-58a0b39b00fe","system_id":"levelo_inurba_marseille","lat":43.28348,"lon":5.38119,"is_reserved":false,"is_disabled":false,"rental_uris":{"android":"levelo://app?vid=6c9041fe-faf9-4c11-9dc3-58a0b39b00fe","ios":"levelo://app?vid=6c9041fe-faf9-4c11-9dc3-58a0b39b00fe"},"vehicle_type_id":"4","last_reported":1745528929,"current_range_meters":19200,"station_id":"ce4bh412rcd13ifvqdr0","pricing_plan_id":"cebpf4jnsgd1na2vs0mg"},{"bike_id":"8f1a38c1-df91-4bdf-9e4e-92ef410aba4f","system_id":"levelo_inurba_marseille","lat":43.21195,"lon":5.35068,"is_reserved":false,"is_disabled":false,"rental_uris":{"android":"levelo://app?vid=8f1a38c1-df91-4bdf-9e4e-92ef410aba4f","ios":"levelo://app?vid=8f1a38c1-df91-4bdf-9e4e-92ef410aba4f"},"vehicle_type_id":"4","last_reported":1745528929,"current_range_meters":19200,"station_id":"st_cvj6sg6p6f1abm77japg","pricing_plan_id":"cebpf4jnsgd1na2vs0mg"},{"bike_id":"c0a54904-e679-4c7c-831f-0fa669d4ef2a","system_id":"levelo_inurba_marseille","lat":43.27213,"lon":5.39176,"is_reserved":false,"is_disabled":false,"rental_uris":{"android":"levelo://app?vid=c0a54904-e679-4c7c-831f-0fa669d4ef2a","ios":"levelo://app?vid=c0a54904-e679-4c7c-831f-0fa669d4ef2a"},"vehicle_type_id":"4","last_reported":1745528929,"current_range_meters":19200,"station_id":"ce4bhhp2rcd13ifvqfm0","pricing_plan_id":"cebpf4jnsgd1na2vs0mg"},{"bike_id":"5f7eb0d5-85b4-4b7e-a61c-cac7a800c5ed","system_id":"levelo_inurba_marseille","lat":43.30885,"lon":5.39645,"is_reserved":false,"is_disabled":false,"rental_uris":{"android":"levelo://app?vid=5f7eb0d5-85b4-4b7e-a61c-cac7a800c5ed","ios":"levelo://app?vid=5f7eb0d5-85b4-4b7e-a61c-cac7a800c5ed"},"vehicle_type_id":"4","last_reported":1745528929,"current_range_meters":19200,"station_id":"ce4bh012rcd13ifvqcv0","pricing_plan_id":"cebpf4jnsgd1na2vs0mg"},{"bike_id":"987d7900-bb2a-45cb-bed7-6d69f6fd4fa3","system_id":"levelo_inurba_marseille","lat":43.2849,"lon":5.3845,"is_reserved":false,"is_disabled":false,"rental_uris":{"android":"levelo://app?vid=987d7900-bb2a-45cb-bed7-6d69f6fd4fa3","ios":"levelo://app?vid=987d7900-bb2a-45cb-bed7-6d69f6fd4fa3"},"vehicle_type_id":"4","last_reported":1745528929,"current_range_meters":19200,"station_id":"ce4bh512rcd13ifvqe3g","pricing_plan_id":"cebpf4jnsgd1na2vs0mg"},{"bike_id":"ebaafbf5-29b5-4ae1-a41f-8ae30012b276","system_id":"levelo_inurba_marseille","lat":43.30203,"lon":5.39474,"is_reserved":false,"is_disabled":false,"rental_uris":{"android":"levelo://app?vid=ebaafbf5-29b5-4ae1-a41f-8ae30012b276","ios":"levelo://app?vid=ebaafbf5-29b5-4ae1-a41f-8ae30012b276"},"vehicle_type_id":"4","last_reported":1745528929,"current_range_meters":19200,"station_id":"ce4bhqh2rcd13ifvqhlg","pricing_plan_id":"cebpf4jnsgd1na2vs0mg"},{"bike_id":"e9b40b8c-aa8b-493b-9704-ac204b4fdb74","system_id":"levelo_inurba_marseille","lat":43.22545,"lon":5.34788,"is_reserved":false,"is_disabled":false,"rental_uris":{"android":"levelo://app?vid=e9b40b8c-aa8b-493b-9704-ac204b4fdb74","ios":"levelo://app?vid=e9b40b8c-aa8b-493b-9704-ac204b4fdb74"},"vehicle_type_id":"4","last_reported":1745528929,"current_range_meters":19600,"station_id":"st_cvj5dfep6f1abm77gieg","pricing_plan_id":"cebpf4jnsgd1na2vs0mg"},{"bike_id":"183bb44a-cd53-46d9-99be-6e047a2595e3","system_id":"levelo_inurba_marseille","lat":43.28411,"lon":5.350083,"is_reserved":false,"is_disabled":false,"rental_uris":{"android":"levelo://app?vid=183bb44a-cd53-46d9-99be-6e047a2595e3","ios":"levelo://app?vid=183bb44a-cd53-46d9-99be-6e047a2595e3"},"vehicle_type_id":"4","last_reported":1745528929,"current_range_meters":19600,"station_id":"ce4bhbh2rcd13ifvqepg","pricing_plan_id":"cebpf4jnsgd1na2vs0mg"},{"bike_id":"2aa7a71a-520f-45e0-9d3b-be67593f5432","system_id":"levelo_inurba_marseille","lat":43.31218,"lon":5.36858,"is_reserved":false,"is_disabled":false,"rental_uris":{"android":"levelo://app?vid=2aa7a71a-520f-45e0-9d3b-be67593f5432","ios":"levelo://app?vid=2aa7a71a-520f-45e0-9d3b-be67593f5432"},"vehicle_type_id":"4","last_reported":1745528929,"current_range_meters":19600,"station_id":"ce4bgl92rcd13ifvqbq0","pricing_plan_id":"cebpf4jnsgd1na2vs0mg"},{"bike_id":"4eb622f6-902c-474c-bf3d-0039b9a9909d","system_id":"levelo_inurba_marseille","lat":43.2871,"lon":5.39977,"is_reserved":false,"is_disabled":false,"rental_uris":{"android":"levelo://app?vid=4eb622f6-902c-474c-bf3d-0039b9a9909d","ios":"levelo://app?vid=4eb622f6-902c-474c-bf3d-0039b9a9909d"},"vehicle_type_id":"4","last_reported":1745528929,"current_range_meters":19600,"station_id":"ce4bho92rcd13ifvqh3g","pricing_plan_id":"cebpf4jnsgd1na2vs0mg"},{"bike_id":"7b4a29d0-7d5e-4f0b-864c-8fd2bce5d31a","system_id":"levelo_inurba_marseille","lat":43.29251,"lon":5.40902,"is_reserved":false,"is_disabled":false,"rental_uris":{"android":"levelo://app?vid=7b4a29d0-7d5e-4f0b-864c-8fd2bce5d31a","ios":"levelo://app?vid=7b4a29d0-7d5e-4f0b-864c-8fd2bce5d31a"},"vehicle_type_id":"4","last_reported":1745528929,"current_range_meters":20000,"station_id":"ce4bh192rcd13ifvqdc0","pricing_plan_id":"cebpf4jnsgd1na2vs0mg"},{"bike_id":"c35fdd47-3410-4298-b154-f5a2b0d7dcc4","system_id":"levelo_inurba_marseille","lat":43.23954,"lon":5.36663,"is_reserved":false,"is_disabled":false,"rental_uris":{"android":"levelo://app?vid=c35fdd47-3410-4298-b154-f5a2b0d7dcc4","ios":"levelo://app?vid=c35fdd47-3410-4298-b154-f5a2b0d7dcc4"},"vehicle_type_id":"4","last_reported":1745528929,"current_range_meters":20000,"station_id":"ce4bhi12rcd13ifvqfp0","pricing_plan_id":"cebpf4jnsgd1na2vs0mg"},{"bike_id":"b153ceac-2122-4db9-9931-e572632e7880","system_id":"levelo_inurba_marseille","lat":43.24077,"lon":5.37745,"is_reserved":false,"is_disabled":false,"rental_uris":{"android":"levelo://app?vid=b153ceac-2122-4db9-9931-e572632e7880","ios":"levelo://app?vid=b153ceac-2122-4db9-9931-e572632e7880"},