{"last_updated":1701378384,"ttl":30,"version":"2.2","data":{"bikes":[{"bike_id":"85ebfaaa-3017-45f3-906e-a6c2319c069c","system_id":"levelo_inurba_marseille","lat":43.30868,"lon":5.368487,"is_reserved":false,"is_disabled":false,"rental_uris":{"android":"levelo://app?vid=85ebfaaa-3017-45f3-906e-a6c2319c069c","ios":"levelo://app?vid=85ebfaaa-3017-45f3-906e-a6c2319c069c"},"vehicle_type_id":"4","last_reported":1701378385,"current_range_meters":13600,"station_id":"ce4bgn92rcd13ifvqbvg","pricing_plan_id":"free"},{"bike_id":"0698ed46-3a72-43fe-8764-24d433be0fcc","system_id":"levelo_inurba_marseille","lat":43.314811,"lon":5.373103,"is_reserved":false,"is_disabled":false,"rental_uris":{"android":"levelo://app?vid=0698ed46-3a72-43fe-8764-24d433be0fcc","ios":"levelo://app?vid=0698ed46-3a72-43fe-8764-24d433be0fcc"},"vehicle_type_id":"4","last_reported":1701378385,"current_range_meters":8800,"station_id":"ce4bgt12rcd13ifvqcd0","pricing_plan_id":"free"},{"bike_id":"2893e31b-5001-4bef-9b7c-3297f37de010","system_id":"levelo_inurba_marseille","lat":43.309039,"lon":5.371797,"is_reserved":false,"is_disabled":false,"rental_uris":{"android":"levelo://app?vid=2893e31b-5001-4bef-9b7c-3297f37de010","ios":"levelo://app?vid=2893e31b-5001-4bef-9b7c-3297f37de010"},"vehicle_type_id":"4","last_reported":1701378385,"current_range_meters":27200,"station_id":"ce4bguh2rcd13ifvqckg","pricing_plan_id":"free"},{"bike_id":"024c1a4d-479d-42d1-bf28-866bab1795a4","system_id":"levelo_inurba_marseille","lat":43.309039,"lon":5.371797,"is_reserved":false,"is_disabled":false,"rental_uris":{"android":"levelo://app?vid=024c1a4d-479d-42d1-bf28-866bab1795a4","ios":"levelo://app?vid=024c1a4d-479d-42d1-bf28-866bab1795a4"},"vehicle_type_id":"4","last_reported":1701378385,"current_range_meters":10000,"station_id":"ce4bguh2rcd13ifvqckg","pricing_plan_id":"free"},{"bike_id":"4529cb69-a551-4f28-9053-a56e4d7fe88d","system_id":"levelo_inurba_marseille","lat":43.305368,"lon":5.367343,"is_reserved":false,"is_disabled":false,"rental_uris":{"android":"levelo://app?vid=4529cb69-a551-4f28-9053-a56e4d7fe88d","ios":"levelo://app?vid=4529cb69-a551-4f28-9053-a56e4d7fe88d"},"vehicle_type_id":"4","last_reported":1701378385,"current_range_meters":26000,"station_id":"ce4bgrp2rcd13ifvqc9g","pricing_plan_id":"free"},{"bike_id":"18f94b51-0045-4ced-b749-0c4009749f90","system_id":"levelo_inurba_marseille","lat":43.305989,"lon":5.37225,"is_reserved":false,"is_disabled":false,"rental_uris":{"android":"levelo://app?vid=18f94b51-0045-4ced-b749-0c4009749f90","ios":"levelo://app?vid=18f94b51-0045-4ced-b749-0c4009749f90"},"vehicle_type_id":"4","last_reported":1701378385,"current_range_meters":26000,"station_id":"ce4bgqh2rcd13ifvqc4g","pricing_plan_id":"free"},{"bike_id":"7452cab7-c416-4525-a1a8-ef5838ab6eb7","system_id":"levelo_inurba_marseille","lat":43.305989,"lon":5.37225,"is_reserved":false,"is_disabled":false,"rental_uris":{"android":"levelo://app?vid=7452cab7-c416-4525-a1a8-ef5838ab6eb7","ios":"levelo://app?vid=7452cab7-c416-4525-a1a8-ef5838ab6eb7"},"vehicle_type_id":"4","last_reported":1701378385,"current_range_meters":24800,"station_id":"ce4bgqh2rcd13ifvqc4g","pricing_plan_id":"free"},{"bike_id":"138975d6-9a77-4934-8f0b-217ecfa56156","system_id":"levelo_inurba_marseille","lat":43.311125,"lon":5.377624,"is_reserved":false,"is_disabled":false,"rental_uris":{"android":"levelo://app?vid=138975d6-9a77-4934-8f0b-217ecfa56156","ios":"levelo://app?vid=138975d6-9a77-4934-8f0b-217ecfa56156"},"vehicle_type_id":"4","last_reported":1701378385,"current_range_meters":31200,"station_id":"ce4bgt92rcd13ifvqcg0","pricing_plan_id":"free"},{"bike_id":"727d231a-d425-4d8f-ad3f-99b5a47572e8","system_id":"levelo_inurba_marseille","lat":43.30439,"lon":5.36753,"is_reserved":false,"is_disabled":false,"rental_uris":{"android":"levelo://app?vid=727d231a-d425-4d8f-ad3f-99b5a47572e8","ios":"levelo://app?vid=727d231a-d425-4d8f-ad3f-99b5a47572e8"},"vehicle_type_id":"4","last_reported":1701378385,"current_range_meters":30800,"station_id":"","pricing_plan_id":"free"},{"bike_id":"28b67163-d496-4d2f-a83c-ef6bda2c636e","system_id":"levelo_inurba_marseille","lat":43.308184,"lon":5.376596,"is_reserved":false,"is_disabled":false,"rental_uris":{"android":"levelo://app?vid=28b67163-d496-4d2f-a83c-ef6bda2c636e","ios":"levelo://app?vid=28b67163-d496-4d2f-a83c-ef6bda2c636e"},"vehicle_type_id":"4","last_reported":1701378385,"current_range_meters":4400,"station_id":"ce4bgv92rcd13ifvqcq0","pricing_plan_id":"free"},{"bike_id":"f427a2c3-6e4a-446b-ae2f-9be8aa7f4122","system_id":"levelo_inurba_marseille","lat":43.31719,"lon":5.376813,"is_reserved":false,"is_disabled":false,"rental_uris":{"android":"levelo://app?vid=f427a2c3-6e4a-446b-ae2f-9be8aa7f4122","ios":"levelo://app?vid=f427a2c3-6e4a-446b-ae2f-9be8aa7f4122"},"vehicle_type_id":"4","last_reported":1701378385,"current_range_meters":4400,"station_id":"ce4bgth2rcd13ifvqch0","pricing_plan_id":"free"},{"bike_id":"e913f328-1e31-4c22-bd87-f809ea246de4","system_id":"levelo_inurba_marseille","lat":43.317168,"lon":5.376883,"is_reserved":false,"is_disabled":false,"rental_uris":{"android":"levelo://app?vid=e913f328-1e31-4c22-bd87-f809ea246de4","ios":"levelo://app?vid=e913f328-1e31-4c22-bd87-f809ea246de4"},"vehicle_type_id":"4","last_reported":1701378385,"current_range_meters":6800,"station_id":"ce4bgth2rcd13ifvqch0","pricing_plan_id":"free"},{"bike_id":"bef3c888-e26e-4daf-a279-528d05d9f20b","system_id":"levelo_inurba_marseille","lat":43.30143,"lon":5.37413,"is_reserved":false,"is_disabled":false,"rental_uris":{"android":"levelo://app?vid=bef3c888-e26e-4daf-a279-528d05d9f20b","ios":"levelo://app?vid=bef3c888-e26e-4daf-a279-528d05d9f20b"},"vehicle_type_id":"4","last_reported":1701378385,"current_range_meters":20800,"station_id":"ce4bgs92rcd13ifvqcc0","pricing_plan_id":"free"},{"bike_id":"7f6e6577-884c-4960-8414-2c2ec7eff0c9","system_id":"levelo_inurba_marseille","lat":43.315293,"lon":5.380349,"is_reserved":false,"is_disabled":false,"rental_uris":{"android":"levelo://app?vid=7f6e6577-884c-4960-8414-2c2ec7eff0c9","ios":"levelo://app?vid=7f6e6577-884c-4960-8414-2c2ec7eff0c9"},"vehicle_type_id":"4","last_reported":1701378385,"current_range_meters":16800,"station_id":"ce4bhsp2rcd13ifvqi50","pricing_plan_id":"free"},{"bike_id":"a353da53-2844-47b1-b7b8-563a86bb4f14","system_id":"levelo_inurba_marseille","lat":43.31541,"lon":5.38031,"is_reserved":false,"is_disabled":false,"rental_uris":{"android":"levelo://app?vid=a353da53-2844-47b1-b7b8-563a86bb4f14","ios":"levelo://app?vid=a353da53-2844-47b1-b7b8-563a86bb4f14"},"vehicle_type_id":"4","last_reported":1701378385,"current_range_meters":23600,"station_id":"ce4bhsp2rcd13ifvqi50","pricing_plan_id":"free"},{"bike_id":"6dc91268-1a71-4046-a813-c779d9d3fd19","system_id":"levelo_inurba_marseille","lat":43.301939,"lon":5.366286,"is_reserved":false,"is_disabled":false,"rental_uris":{"android":"levelo://app?vid=6dc91268-1a71-4046-a813-c779d9d3fd19","ios":"levelo://app?vid=6dc91268-1a71-4046-a813-c779d9d3fd19"},"vehicle_type_id":"4","last_reported":1701378385,"current_range_meters":9600,"station_id":"ce4bgrh2rcd13ifvqc8g","pricing_plan_id":"free"},{"bike_id":"301211ba-eced-4bb7-b047-78b877b913df","system_id":"levelo_inurba_marseille","lat":43.308,"lon":5.38146,"is_reserved":false,"is_disabled":false,"rental_uris":{"android":"levelo://app?vid=301211ba-eced-4bb7-b047-78b877b913df","ios":"levelo://app?vid=301211ba-eced-4bb7-b047-78b877b913df"},"vehicle_type_id":"4","last_reported":1701378385,"current_range_meters":9600,"station_id":"ce4bgt12rcd13ifvqce0","pricing_plan_id":"free"},{"bike_id":"77c0d903-eb0d-4f5e-9393-599e439499e1","system_id":"levelo_inurba_marseille","lat":43.304606,"lon":5.379026,"is_reserved":false,"is_disabled":false,"rental_uris":{"android":"levelo://app?vid=77c0d903-eb0d-4f5e-9393-599e439499e1","ios":"levelo://app?vid=77c0d903-eb0d-4f5e-9393-599e439499e1"},"vehicle_type_id":"4","last_reported":1701378385,"current_range_meters":11200,"station_id":"ce4bgup2rcd13ifvqcn0","pricing_plan_id":"free"},{"bike_id":"5fa2b0e3-d8e0-4001-b1bd-8e3b2f0b9585","system_id":"levelo_inurba_marseille","lat":43.301429,"lon":5.37413,"is_reserved":false,"is_disabled":false,"rental_uris":{"android":"levelo://app?vid=5fa2b0e3-d8e0-4001-b1bd-8e3b2f0b9585","ios":"levelo://app?vid=5fa2b0e3-d8e0-4001-b1bd-8e3b2f0b9585"},"vehicle_type_id":"4","last_reported":1701378385,"current_range_meters":25600,"station_id":"ce4bgs92rcd13ifvqcc0","pricing_plan_id":"free"},{"bike_id":"718ae525-2571-43d2-96e4-e90e60e9569f","system_id":"levelo_inurba_marseille","lat":43.319873,"lon":5.381425,"is_reserved":false,"is_disabled":false,"rental_uris":{"android":"levelo://app?vid=718ae525-2571-43d2-96e4-e90e60e9569f","ios":"levelo://app?vid=718ae525-2571-43d2-96e4-e90e60e9569f"},"vehicle_type_id":"4","last_reported":1701378385,"current_range_meters":0,"station_id":"ce4bhr12rcd13ifvqhpg","pricing_plan_id":"free"},{"bike_id":"a7ca3d4c-28e3-48b3-bafa-5cc2ba79900d","system_id":"levelo_inurba_marseille","lat":43.31992,"lon":5.38141,"is_reserved":false,"is_disabled":false,"rental_uris":{"android":"levelo://app?vid=a7ca3d4c-28e3-48b3-bafa-5cc2ba79900d","ios":"levelo://app?vid=a7ca3d4c-28e3-48b3-bafa-5cc2ba79900d"},"vehicle_type_id":"4","last_reported":1701378385,"current_range_meters":16800,"station_id":"ce4bhr12rcd13ifvqhpg","pricing_plan_id":"free"},{"bike_id":"3c307197-3ac8-4287-b052-043de935fdd4","system_id":"levelo_inurba_marseille","lat":43.319935,"lon":5.381699,"is_reserved":false,"is_disabled":false,"rental_uris":{"android":"levelo://app?vid=3c307197-3ac8-4287-b052-043de935fdd4","ios":"levelo://app?vid=3c307197-3ac8-4287-b052-043de935fdd4"},"vehicle_type_id":"4","last_reported":1701378385,"current_range_meters":8000,"station_id":"ce4bhr12rcd13ifvqhpg","pricing_plan_id":"free"},{"bike_id":"9a8c326a-2956-42d0-9bce-9c1da7b272ea","system_id":"levelo_inurba_marseille","lat":43.319935,"lon":5.381699,"is_reserved":false,"is_disabled":false,"rental_uris":{"android":"levelo://app?vid=9a8c326a-2956-42d0-9bce-9c1da7b272ea","ios":"levelo://app?vid=9a8c326a-2956-42d0-9bce-9c1da7b272ea"},"vehicle_type_id":"4","last_reported":1701378385,"current_range_meters":21600,"station_id":"ce4bhr12rcd13ifvqhpg","pricing_plan_id":"free"},{"bike_id":"2275aca5-3158-4c2c-8022-ca5d2714bc86","system_id":"levelo_inurba_marseille","lat":43.319997,"lon":5.381594,"is_reserved":false,"is_disabled":false,"rental_uris":{"android":"levelo://app?vid=2275aca5-3158-4c2c-8022-ca5d2714bc86","ios":"levelo://app?vid=2275aca5-3158-4c2c-8022-ca5d2714bc86"},"vehicle_type_id":"4","last_reported":1701378385,"current_range_meters":21600,"station_id":"ce4bhr12rcd13ifvqhpg","pricing_plan_id":"free"},{"bike_id":"72dcacfb-91e1-4c51-81ed-e191326091e3","system_id":"levelo_inurba_marseille","lat":43.313571,"lon":5.384829,"is_reserved":false,"is_disabled":false,"rental_uris":{"android":"levelo://app?vid=72dcacfb-91e1-4c51-81ed-e191326091e3","ios":"levelo://app?vid=72dcacfb-91e1-4c51-81ed-e191326091e3"},"vehicle_type_id":"4","last_reported":1701378385,"current_range_meters":2400,"station_id":"ce4bgt92rcd13ifvqcf0","pricing_plan_id":"free"},{"bike_id":"bea04658-912a-4e66-8b73-5d4e590e5499","system_id":"levelo_inurba_marseille","lat":43.299724,"lon":5.371829,"is_reserved":false,"is_disabled":false,"rental_uris":{"android":"levelo://app?vid=bea04658-912a-4e66-8b73-5d4e590e5499","ios":"levelo://app?vid=bea04658-912a-4e66-8b73-5d4e590e5499"},"vehicle_type_id":"4","last_reported":1701378385,"current_range_meters":5200,"station_id":"ce4bgr92rcd13ifvqc7g","pricing_plan_id":"free"},{"bike_id":"aebb5f1f-3a1e-4323-a4f0-ae83e0b78d14","system_id":"levelo_inurba_marseille","lat":43.327603,"lon":5.36705,"is_reserved":false,"is_disabled":false,"rental_uris":{"android":"levelo://app?vid=aebb5f1f-3a1e-4323-a4f0-ae83e0b78d14","ios":"levelo://app?vid=aebb5f1f-3a1e-4323-a4f0-ae83e0b78d14"},"vehicle_type_id":"4","last_reported":1701378385,"current_range_meters":23200,"station_id":"","pricing_plan_id":"free"},{"bike_id":"579c0d6e-e344-4bb5-afcc-7fca48f6fadd","system_id":"levelo_inurba_marseille","lat":43.297794,"lon":5.370888,"is_reserved":false,"is_disabled":false,"rental_uris":{"android":"levelo://app?vid=579c0d6e-e344-4bb5-afcc-7fca48f6fadd","ios":"levelo://app?vid=579c0d6e-e344-4bb5-afcc-7fca48f6fadd"},"vehicle_type_id":"4","last_reported":1701378385,"current_range_meters":28400,"station_id":"ce4bgop2rcd13ifvqc1g","pricing_plan_id":"free"},{"bike_id":"a857c4c0-ebec-45a9-b9f5-ea7765299a80","system_id":"levelo_inurba_marseille","lat":43.322872,"lon":5.382756,"is_reserved":false,"is_disabled":false,"rental_uris":{"android":"levelo://app?vid=a857c4c0-ebec-45a9-b9f5-ea7765299a80","ios":"levelo://app?vid=a857c4c0-ebec-45a9-b9f5-ea7765299a80"},"vehicle_type_id":"4","last_reported":1701378385,"current_range_meters":3200,"station_id":"ce4bhr12rcd13ifvqhqg","pricing_plan_id":"free"},{"bike_id":"68cf03f1-c1e5-4ce9-bb5e-875caeda6e83","system_id":"levelo_inurba_marseille","lat":43.297794,"lon":5.370888,"is_reserved":false,"is_disabled":false,"rental_uris":{"android":"levelo://app?vid=68cf03f1-c1e5-4ce9-bb5e-875caeda6e83","ios":"levelo://app?vid=68cf03f1-c1e5-4ce9-bb5e-875caeda6e83"},"vehicle_type_id":"4","last_reported":1701378385,"current_range_meters":30000,"station_id":"ce4bgop2rcd13ifvqc1g","pricing_plan_id":"free"},{"bike_id":"11fbc002-5b4d-4629-a038-bbbaf88697c2","system_id":"levelo_inurba_marseille","lat":43.322872,"lon":5.382756,"is_reserved":false,"is_disabled":false,"rental_uris":{"android":"levelo://app?vid=11fbc002-5b4d-4629-a038-bbbaf88697c2","ios":"levelo://app?vid=11fbc002-5b4d-4629-a038-bbbaf88697c2"},"vehicle_type_id":"4","last_reported":1701378385,"current_range_meters":30800,"station_id":"ce4bhr12rcd13ifvqhqg","pricing_plan_id":"free"},{"bike_id":"385917d9-8a74-476a-ab78-3ebd4bd7fbe2","system_id":"levelo_inurba_marseille","lat":43.297163,"lon":5.365866,"is_reserved":false,"is_disabled":false,"rental_uris":{"android":"levelo://app?vid=385917d9-8a74-476a-ab78-3ebd4bd7fbe2","ios":"levelo://app?vid=385917d9-8a74-476a-ab78-3ebd4bd7fbe2"},"vehicle_type_id":"4","last_reported":1701378385,"current_range_meters":22400,"station_id":"ce4bgn12rcd13ifvqbt0","pricing_plan_id":"free"},{"bike_id":"52475dbe-747a-4fd7-9bb3-f944964889ae","system_id":"levelo_inurba_marseille","lat":43.2968,"lon":5.37291,"is_reserved":false,"is_disabled":false,"rental_uris":{"android":"levelo://app?vid=52475dbe-747a-4fd7-9bb3-f944964889ae","ios":"levelo://app?vid=52475dbe-747a-4fd7-9bb3-f944964889ae"},"vehicle_type_id":"4","last_reported":1701378385,"current_range_meters":25200,"station_id":"ce4bgk12rcd13ifvqbj0","pricing_plan_id":"free"},{"bike_id":"5983625d-69f5-485f-a399-daec2999c965","system_id":"levelo_inurba_marseille","lat":43.322017,"lon":5.385661,"is_reserved":false,"is_disabled":false,"rental_uris":{"android":"levelo://app?vid=5983625d-69f5-485f-a399-daec2999c965","ios":"levelo://app?vid=5983625d-69f5-485f-a399-daec2999c965"},"vehicle_type_id":"4","last_reported":1701378385,"current_range_meters":8000,"station_id":"","pricing_plan_id":"free"},{"bike_id":"d068864e-3768-4cb7-8f2c-e01febcf4d60","system_id":"levelo_inurba_marseille","lat":43.29623,"lon":5.36516,"is_reserved":false,"is_disabled":false,"rental_uris":{"android":"levelo://app?vid=d068864e-3768-4cb7-8f2c-e01febcf4d60","ios":"levelo://app?vid=d068864e-3768-4cb7-8f2c-e01febcf4d60"},"vehicle_type_id":"4","last_reported":1701378385,"current_range_meters":11600,"station_id":"","pricing_plan_id":"free"},{"bike_id":"2b24c94c-382b-4740-b254-81573f20bbed","system_id":"levelo_inurba_marseille","lat":43.295906,"lon":5.367946,"is_reserved":false,"is_disabled":false,"rental_uris":{"android":"levelo://app?vid=2b24c94c-382b-4740-b254-81573f20bbed","ios":"levelo://app?vid=2b24c94c-382b-4740-b254-81573f20bbed"},"vehicle_type_id":"4","last_reported":1701378385,"current_range_meters":7200,"station_id":"","pricing_plan_id":"free"},{"bike_id":"5d0951e6-1219-48d8-a0eb-8be9281f7239","system_id":"levelo_inurba_marseille","lat":43.29573,"lon":5.367355,"is_reserved":false,"is_disabled":false,"rental_uris":{"android":"levelo://app?vid=5d0951e6-1219-48d8-a0eb-8be9281f7239","ios":"levelo://app?vid=5d0951e6-1219-48d8-a0eb-8be9281f7239"},"vehicle_type_id":"4","last_reported":1701378385,"current_range_meters":29600,"station_id":"ce4bgph2rcd13ifvqc2g","pricing_plan_id":"free"},{"bike_id":"8f66730c-9531-4440-8035-1361731a23cb","system_id":"levelo_inurba_marseille","lat":43.317557,"lon":5.390173,"is_reserved":false,"is_disabled":false,"rental_uris":{"android":"levelo://app?vid=8f66730c-9531-4440-8035-1361731a23cb","ios":"levelo://app?vid=8f66730c-9531-4440-8035-1361731a23cb"},"vehicle_type_id":"4","last_reported":1701378385,"current_range_meters":2000,"station_id":"ce4bhqp2rcd13ifvqhng","pricing_plan_id":"free"},{"bike_id":"b4c3ec95-c572-46e0-9cbd-a280b900a39a","system_id":"levelo_inurba_marseille","lat":43.317557,"lon":5.390173,"is_reserved":false,"is_disabled":false,"rental_uris":{"android":"levelo://app?vid=b4c3ec95-c572-46e0-9cbd-a280b900a39a","ios":"levelo://app?vid=b4c3ec95-c572-46e0-9cbd-a280b900a39a"},"vehicle_type_id":"4","last_reported":1701378385,"current_range_meters":0,"station_id":"ce4bhqp2rcd13ifvqhng","pricing_plan_id":"free"},{"bike_id":"466938ea-1d09-4ac1-8658-95b6e9e80d55","system_id":"levelo_inurba_marseille","lat":43.317557,"lon":5.390173,"is_reserved":false,"is_disabled":false,"rental_uris":{"android":"levelo://app?vid=466938ea-1d09-4ac1-8658-95b6e9e80d55","ios":"levelo://app?vid=466938ea-1d09-4ac1-8658-95b6e9e80d55"},"vehicle_type_id":"4","last_reported":1701378385,"current_range_meters":31600,"station_id":"ce4bhqp2rcd13ifvqhng","pricing_plan_id":"free"},{"bike_id":"d2fdc27e-ec4b-4e9b-a5f1-7a7c785e4856","system_id":"levelo_inurba_marseille","lat":43.31753,"lon":5.39018,"is_reserved":false,"is_disabled":false,"rental_uris":{"android":"levelo://app?vid=d2fdc27e-ec4b-4e9b-a5f1-7a7c785e4856","ios":"levelo://app?vid=d2fdc27e-ec4b-4e9b-a5f1-7a7c785e4856"},"vehicle_type_id":"4","last_reported":1701378385,"current_range_meters":0,"station_id":"ce4bhqp2rcd13ifvqhng","pricing_plan_id":"free"},{"bike_id":"4e845959-7929-4cc6-be55-bf7de5d1ea65","system_id":"levelo_inurba_marseille","lat":43.304274,"lon":5.388873,"is_reserved":false,"is_disabled":false,"rental_uris":{"android":"levelo://app?vid=4e845959-7929-4cc6-be55-bf7de5d1ea65","ios":"levelo://app?vid=4e845959-7929-4cc6-be55-bf7de5d1ea65"},"vehicle_type_id":"4","last_reported":1701378385,"current_range_meters":18000,"station_id":"ce4bgk12rcd13ifvqbi0","pricing_plan_id":"free"},{"bike_id":"b8591df7-4b42-4ed8-9f5f-d04abd3e5902","system_id":"levelo_inurba_marseille","lat":43.30437,"lon":5.38888,"is_reserved":false,"is_disabled":false,"rental_uris":{"android":"levelo://app?vid=b8591df7-4b42-4ed8-9f5f-d04abd3e5902","ios":"levelo://app?vid=b8591df7-4b42-4ed8-9f5f-d04abd3e5902"},"vehicle_type_id":"4","last_reported":1701378385,"current_range_meters":30400,"station_id":"ce4bgk12rcd13ifvqbi0","pricing_plan_id":"free"},{"bike_id":"ca186808-296d-4459-9249-c05826bf3edd","system_id":"levelo_inurba_marseille","lat":43.304274,"lon":5.388873,"is_reserved":false,"is_disabled":false,"rental_uris":{"android":"levelo://app?vid=ca186808-296d-4459-9249-c05826bf3edd","ios":"levelo://app?vid=ca186808-296d-4459-9249-c05826bf3edd"},"vehicle_type_id":"4","last_reported":1701378385,"current_range_meters":12000,"station_id":"ce4bgk12rcd13ifvqbi0","pricing_plan_id":"free"},{"bike_id":"4deb0651-2dbf-4242-8f88-1640a5d03774","system_id":"levelo_inurba_marseille","lat":43.304274,"lon":5.388873,"is_reserved":false,"is_disabled":false,"rental_uris":{"android":"levelo://app?vid=4deb0651-2dbf-4242-8f88-1640a5d03774","ios":"levelo://app?vid=4deb0651-2dbf-4242-8f88-1640a5d03774"},"vehicle_type_id":"4","last_reported":1701378385,"current_range_meters":0,"station_id":"ce4bgk12rcd13ifvqbi0","pricing_plan_id":"free"},{"bike_id":"e3202dc3-a99c-455e-847c-fcd89cb86127","system_id":"levelo_inurba_marseille","lat":43.304274,"lon":5.388873,"is_reserved":false,"is_disabled":false,"rental_uris":{"android":"levelo://app?vid=e3202dc3-a99c-455e-847c-fcd89cb86127","ios":"levelo://app?vid=e3202dc3-a99c-455e-847c-fcd89cb86127"},"vehicle_type_id":"4","last_reported":1701378385,"current_range_meters":6000,"station_id":"ce4bgk12rcd13ifvqbi0","pricing_plan_id":"free"},{"bike_id":"ad099772-db8f-40d2-a2ee-2c95227a3bd3","system_id":"levelo_inurba_marseille","lat":43.296263,"lon":5.377094,"is_reserved":false,"is_disabled":false,"rental_uris":{"android":"levelo://app?vid=ad099772-db8f-40d2-a2ee-2c95227a3bd3","ios":"levelo://app?vid=ad099772-db8f-40d2-a2ee-2c95227a3bd3"},"vehicle_type_id":"4","last_reported":1701378385,"current_range_meters":22000,"station_id":"ce4bgi92rcd13ifvqb90","pricing_plan_id":"free"},{"bike_id":"241cd34e-4499-440a-8c2d-3ab1eb95e794","system_id":"levelo_inurba_marseille","lat":43.32366,"lon":5.38882,"is_reserved":false,"is_disabled":false,"rental_uris":{"android":"levelo://app?vid=241cd34e-4499-440a-8c2d-3ab1eb95e794","ios":"levelo://app?vid=241cd34e-4499-440a-8c2d-3ab1eb95e794"},"vehicle_type_id":"4","last_reported":1701378385,"current_range_meters":1200,"station_id":"ce4bhqp2rcd13ifvqhog","pricing_plan_id":"free"},{"bike_id":"eaa0e7e7-2390-47fa-909b-7b240952cbef","system_id":"levelo_inurba_marseille","lat":43.31938,"lon":5.39207,"is_reserved":false,"is_disabled":false,"rental_uris":{"android":"levelo://app?vid=eaa0e7e7-2390-47fa-909b-7b240952cbef","ios":"levelo://app?vid=eaa0e7e7-2390-47fa-909b-7b240952cbef"},"vehicle_type_id":"4","last_reported":1701378385,"current_range_meters":20800,"station_id":"","pricing_plan_id":"free"},{"bike_id":"6e3efb7d-c2af-4f68-ac4b-cd4ed41f9c1a","system_id":"levelo_inurba_marseille","lat":43.30303,"lon":5.39213,"is_reserved":false,"is_disabled":false,"rental_uris":{"android":"levelo://app?vid=6e3efb7d-c2af-4f68-ac4b-cd4ed41f9c1a","ios":"levelo://app?vid=6e3efb7d-c2af-4f68-ac4b-cd4ed41f9c1a"},"vehicle_type_id":"4","last_reported":1701378385,"current_range_meters":7200,"station_id":"ce4bgkh2rcd13ifvqbk0","pricing_plan_id":"free"},{"bike_id":"10135e9a-8c9c-4bed-938d-c9ce89829ff8","system_id":"levelo_inurba_marseille","lat":43.292523,"lon":5.376368,"is_reserved":false,"is_disabled":false,"rental_uris":{"android":"levelo://app?vid=10135e9a-8c9c-4bed-938d-c9ce89829ff8","ios":"levelo://app?vid=10135e9a-8c9c-4bed-938d-c9ce89829ff8"},"vehicle_type_id":"4","last_reported":1701378385,"current_range_meters":8000,"station_id":"ce4bgi12rcd13ifvqb80","pricing_plan_id":"free"},{"bike_id":"ad6747bc-7e81-4ebd-a967-42a8fc9e9805","system_id":"levelo_inurba_marseille","lat":43.308755,"lon":5.396332,"is_reserved":false,"is_disabled":false,"rental_uris":{"android":"levelo://app?vid=ad6747bc-7e81-4ebd-a967-42a8fc9e9805","ios":"levelo://app?vid=ad6747bc-7e81-4ebd-a967-42a8fc9e9805"},"vehicle_type_id":"4","last_reported":1701378385,"current_range_meters":10800,"station_id":"ce4bh012rcd13ifvqcv0","pricing_plan_id":"free"},{"bike_id":"ec2b9e88-ccf8-4341-a2c4-8a9d2a3b473c","system_id":"levelo_inurba_marseille","lat":43.313291,"lon":5.396838,"is_reserved":false,"is_disabled":false,"rental_uris":{"android":"levelo://app?vid=ec2b9e88-ccf8-4341-a2c4-8a9d2a3b473c","ios":"levelo://app?vid=ec2b9e88-ccf8-4341-a2c4-8a9d2a3b473c"},"vehicle_type_id":"4","last_reported":1701378385,"current_range_meters":24000,"station_id":"ce4bgvp2rcd13ifvqcu0","pricing_plan_id":"free"},{"bike_id":"7d2eb4b9-f7c5-4e11-bf75-82de53347b6b","system_id":"levelo_inurba_marseille","lat":43.308755,"lon":5.396418,"is_reserved":false,"is_disabled":false,"rental_uris":{"android":"levelo://app?vid=7d2eb4b9-f7c5-4e11-bf75-82de53347b6b","ios":"levelo://app?vid=7d2eb4b9-f7c5-4e11-bf75-82de53347b6b"},"vehicle_type_id":"4","last_reported":1701378385,"current_range_meters":29200,"station_id":"ce4bh012rcd13ifvqcv0","pricing_plan_id":"free"},{"bike_id":"7ad8038d-fa17-4d4f-955a-ef08b91cb614","system_id":"levelo_inurba_marseille","lat":43.313291,"lon":5.396838,"is_reserved":false,"is_disabled":false,"rental_uris":{"android":"levelo://app?vid=7ad8038d-fa17-4d4f-955a-ef08b91cb614","ios":"levelo://app?vid=7ad8038d-fa17-4d4f-955a-ef08b91cb614"},"vehicle_type_id":"4","last_reported":1701378385,"current_range_meters":6000,"station_id":"ce4bgvp2rcd13ifvqcu0","pricing_plan_id":"free"},{"bike_id":"003e3848-9a2d-4a03-b685-53c7efbce624","system_id":"levelo_inurba_marseille","lat":43.313333,"lon":5.39693,"is_reserved":false,"is_disabled":false,"rental_uris":{"android":"levelo://app?vid=003e3848-9a2d-4a03-b685-53c7efbce624","ios":"levelo://app?vid=003e3848-9a2d-4a03-b685-53c7efbce624"},"vehicle_type_id":"4","last_reported":1701378385,"current_range_meters":30000,"station_id":"ce4bgvp2rcd13ifvqcu0","pricing_plan_id":"free"},{"bike_id":"0116258c-2efa-449c-ac91-639c596b2bdb","system_id":"levelo_inurba_marseille","lat":43.309047,"lon":5.396551,"is_reserved":false,"is_disabled":false,"rental_uris":{"android":"levelo://app?vid=0116258c-2efa-449c-ac91-639c596b2bdb","ios":"levelo://app?vid=0116258c-2efa-449c-ac91-639c596b2bdb"},"vehicle_type_id":"4","last_reported":1701378385,"current_range_meters":3600,"station_id":"ce4bh012rcd13ifvqcv0","pricing_plan_id":"free"},{"bike_id":"21d8b618-ada3-4754-92f8-c91f26f200bb","system_id":"levelo_inurba_marseille","lat":43.309047,"lon":5.396551,"is_reserved":false,"is_disabled":false,"rental_uris":{"android":"levelo://app?vid=21d8b618-ada3-4754-92f8-c91f26f200bb","ios":"levelo://app?vid=21d8b618-ada3-4754-92f8-c91f26f200bb"},"vehicle_type_id":"4","last_reported":1701378385,"current_range_meters":18000,"station_id":"ce4bh012rcd13ifvqcv0","pricing_plan_id":"free"},{"bike_id":"e4640747-17b8-4b10-9bf0-8dbc490e496f","system_id":"levelo_inurba_marseille","lat":43.313291,"lon":5.396838,"is_reserved":false,"is_disabled":false,"rental_uris":{"android":"levelo://app?vid=e4640747-17b8-4b10-9bf0-8dbc490e496f","ios":"levelo://app?vid=e4640747-17b8-4b10-9bf0-8dbc490e496f"},"vehicle_type_id":"4","last_reported":1701378385,"current_range_meters":8800,"station_id":"ce4bgvp2rcd13ifvqcu0","pricing_plan_id":"free"},{"bike_id":"fa029e32-19c7-4c11-a1f9-6cc3eb3b91e3","system_id":"levelo_inurba_marseille","lat":43.29529,"lon":5.385581,"is_reserved":false,"is_disabled":false,"rental_uris":{"android":"levelo://app?vid=fa029e32-19c7-4c11-a1f9-6cc3eb3b91e3","ios":"levelo://app?vid=fa029e32-19c7-4c11-a1f9-6cc3eb3b91e3"},"vehicle_type_id":"4","last_reported":1701378385,"current_range_meters":14400,"station_id":"ce4bgih2rcd13ifvqba0","pricing_plan_id":"free"},{"bike_id":"663af3b1-e797-4c0b-88ce-e70b304130ce","system_id":"levelo_inurba_marseille","lat":43.29529,"lon":5.385581,"is_reserved":false,"is_disabled":false,"rental_uris":{"android":"levelo://app?vid=663af3b1-e797-4c0b-88ce-e70b304130ce","ios":"levelo://app?vid=663af3b1-e797-4c0b-88ce-e70b304130ce"},"vehicle_type_id":"4","last_reported":1701378385,"current_range_meters":24000,"station_id":"ce4bgih2rcd13ifvqba0","pricing_plan_id":"free"},{"bike_id":"c238bc26-6128-413f-b943-7d8c9a1643be","system_id":"levelo_inurba_marseille","lat":43.29529,"lon":5.385581,"is_reserved":false,"is_disabled":false,"rental_uris":{"android":"levelo://app?vid=c238bc26-6128-413f-b943-7d8c9a1643be","ios":"levelo://app?vid=c238bc26-6128-413f-b943-7d8c9a1643be"},"vehicle_type_id":"4","last_reported":1701378385,"current_range_meters":14400,"station_id":"ce4bgih2rcd13ifvqba0","pricing_plan_id":"free"},{"bike_id":"44c6775a-e9fe-4f37-a7f8-1d03d06395e9","system_id":"levelo_inurba_marseille","lat":43.290779,"lon":5.371482,"is_reserved":false,"is_disabled":false,"rental_uris":{"android":"levelo://app?vid=44c6775a-e9fe-4f37-a7f8-1d03d06395e9","ios":"levelo://app?vid=44c6775a-e9fe-4f37-a7f8-1d03d06395e9"},"vehicle_type_id":"4","last_reported":1701378385,"current_range_meters":11200,"station_id":"ce4bh5p2rcd13ifvqe4g","pricing_plan_id":"free"},{"bike_id":"359ecda5-8d94-419d-a220-c8ede60bf9c6","system_id":"levelo_inurba_marseille","lat":43.290779,"lon":5.371482,"is_reserved":false,"is_disabled":false,"rental_uris":{"android":"levelo://app?vid=359ecda5-8d94-419d-a220-c8ede60bf9c6","ios":"levelo://app?vid=359ecda5-8d94-419d-a220-c8ede60bf9c6"},"vehicle_type_id":"4","last_reported":1701378385,"current_range_meters":22800,"station_id":"ce4bh5p2rcd13ifvqe4g","pricing_plan_id":"free"},{"bike_id":"ba9a1ccf-e91c-4631-932f-3b7838547489","system_id":"levelo_inurba_marseille","lat":43.290779,"lon":5.371482,"is_reserved":false,"is_disabled":false,"rental_uris":{"android":"levelo://app?vid=ba9a1ccf-e91c-4631-932f-3b7838547489","ios":"levelo://app?vid=ba9a1ccf-e91c-4631-932f-3b7838547489"},"vehicle_type_id":"4","last_reported":1701378385,"current_range_meters":28000,"station_id":"ce4bh5p2rcd13ifvqe4g","pricing_plan_id":"free"},{"bike_id":"6bead857-72f8-466c-8640-ff2cec348048","system_id":"levelo_inurba_marseille","lat":43.29007,"lon":5.3676,"is_reserved":false,"is_disabled":false,"rental_uris":{"android":"levelo://app?vid=6bead857-72f8-466c-8640-ff2cec348048","ios":"levelo://app?vid=6bead857-72f8-466c-8640-ff2cec348048"},"vehicle_type_id":"4","last_reported":1701378385,"current_range_meters":14000,"station_id":"","pricing_plan_id":"free"},{"bike_id":"a6b79269-4f70-4bca-8f67-8c369fd6787c","system_id":"levelo_inurba_marseille","lat":43.290624,"lon":5.359245,"is_reserved":false,"is_disabled":false,"rental_uris":{"android":"levelo://app?vid=a6b79269-4f70-4bca-8f67-8c369fd6787c","ios":"levelo://app?vid=a6b79269-4f70-4bca-8f67-8c369fd6787c"},"vehicle_type_id":"4","last_reported":1701378385,"current_range_meters":8800,"station_id":"ce4bha92rcd13ifvqeg0","pricing_plan_id":"free"},{"bike_id":"75d691eb-57e7-4fa8-b192-7c572d295fd3","system_id":"levelo_inurba_marseille","lat":43.294153,"lon":5.386305,"is_reserved":false,"is_disabled":false,"rental_uris":{"android":"levelo://app?vid=75d691eb-57e7-4fa8-b192-7c572d295fd3","ios":"levelo://app?vid=75d691eb-57e7-4fa8-b192-7c572d295fd3"},"vehicle_type_id":"4","last_reported":1701378385,"current_range_meters":16800,"station_id":"ce4bh2h2rcd13ifvqdh0","pricing_plan_id":"free"},{"bike_id":"a64a5547-fc72-4ee7-9ed5-328537f56493","system_id":"levelo_inurba_marseille","lat":43.294162,"lon":5.386292,"is_reserved":false,"is_disabled":false,"rental_uris":{"android":"levelo://app?vid=a64a5547-fc72-4ee7-9ed5-328537f56493","ios":"levelo://app?vid=a64a5547-fc72-4ee7-9ed5-328537f56493"},"vehicle_type_id":"4","last_reported":1701378385,"current_range_meters":25600,"station_id":"ce4bh2h2rcd13ifvqdh0","pricing_plan_id":"free"},{"bike_id":"8497dbe2-123b-48bc-a9bc-6ef289724312","system_id":"levelo_inurba_marseille","lat":43.289184,"lon":5.366408,"is_reserved":false,"is_disabled":false,"rental_uris":{"android":"levelo://app?vid=8497dbe2-123b-48bc-a9bc-6ef289724312","ios":"levelo://app?vid=8497dbe2-123b-48bc-a9bc-6ef289724312"},"vehicle_type_id":"4","last_reported":1701378385,"current_range_meters":28000,"station_id":"ce4bhap2rcd13ifvqek0","pricing_plan_id":"free"},{"bike_id":"e5e4c096-bbe6-4ab6-8406-72c222451716","system_id":"levelo_inurba_marseille","lat":43.289184,"lon":5.366408,"is_reserved":false,"is_disabled":false,"rental_uris":{"android":"levelo://app?vid=e5e4c096-bbe6-4ab6-8406-72c222451716","ios":"levelo://app?vid=e5e4c096-bbe6-4ab6-8406-72c222451716"},"vehicle_type_id":"4","last_reported":1701378385,"current_range_meters":5600,"station_id":"ce4bhap2rcd13ifvqek0","pricing_plan_id":"free"},{"bike_id":"319498c7-4622-480f-9537-a2363b5b030f","system_id":"levelo_inurba_marseille","lat":43.289184,"lon":5.366408,"is_reserved":false,"is_disabled":false,"rental_uris":{"android":"levelo://app?vid=319498c7-4622-480f-9537-a2363b5b030f","ios":"levelo://app?vid=319498c7-4622-480f-9537-a2363b5b030f"},"vehicle_type_id":"4","last_reported":1701378385,"current_range_meters":13600,"station_id":"ce4bhap2rcd13ifvqek0","pricing_plan_id":"free"},{"bike_id":"8e1f2bc9-8773-461b-b259-213fc065274f","system_id":"levelo_inurba_marseille","lat":43.28941,"lon":5.36401,"is_reserved":false,"is_disabled":false,"rental_uris":{"android":"levelo://app?vid=8e1f2bc9-8773-461b-b259-213fc065274f","ios":"levelo://app?vid=8e1f2bc9-8773-461b-b259-213fc065274f"},"vehicle_type_id":"4","last_reported":1701378385,"current_range_meters":28000,"station_id":"ce4bhc92rcd13ifvqetg","pricing_plan_id":"free"},{"bike_id":"e6cf6b97-7205-4cf2-9ad3-3823e10650dc","system_id":"levelo_inurba_marseille","lat":43.28939,"lon":5.36401,"is_reserved":false,"is_disabled":false,"rental_uris":{"android":"levelo://app?vid=e6cf6b97-7205-4cf2-9ad3-3823e10650dc","ios":"levelo://app?vid=e6cf6b97-7205-4cf2-9ad3-3823e10650dc"},"vehicle_type_id":"4","last_reported":1701378385,"current_range_meters":30800,"station_id":"ce4bhc92rcd13ifvqetg","pricing_plan_id":"free"},{"bike_id":"a56e72c7-103a-4cb6-9686-c84edfb49613","system_id":"levelo_inurba_marseille","lat":43.2894,"lon":5.36373,"is_reserved":false,"is_disabled":false,"rental_uris":{"android":"levelo://app?vid=a56e72c7-103a-4cb6-9686-c84edfb49613","ios":"levelo://app?vid=a56e72c7-103a-4cb6-9686-c84edfb49613"},"vehicle_type_id":"4","last_reported":1701378385,"current_range_meters":27600,"station_id":"ce4bhc92rcd13ifvqetg","pricing_plan_id":"free"},{"bike_id":"ac61eb52-1ee6-49bd-a17d-bf2a1a3588d3","system_id":"levelo_inurba_marseille","lat":43.289468,"lon":5.363719,"is_reserved":false,"is_disabled":false,"rental_uris":{"android":"levelo://app?vid=ac61eb52-1ee6-49bd-a17d-bf2a1a3588d3","ios":"levelo://app?vid=ac61eb52-1ee6-49bd-a17d-bf2a1a3588d3"},"vehicle_type_id":"4","last_reported":1701378385,"current_range_meters":18800,"station_id":"ce4bhc92rcd13ifvqetg","pricing_plan_id":"free"},{"bike_id":"418db9d8-c0c2-4de4-bb46-84ed52b47f15","system_id":"levelo_inurba_marseille","lat":43.304296,"lon":5.397513,"is_reserved":false,"is_disabled":false,"rental_uris":{"android":"levelo://app?vid=418db9d8-c0c2-4de4-bb46-84ed52b47f15","ios":"levelo://app?vid=418db9d8-c0c2-4de4-bb46-84ed52b47f15"},"vehicle_type_id":"4","last_reported":1701378385,"current_range_meters":19600,"station_id":"ce4bh092rcd13ifvqd20","pricing_plan_id":"free"},{"bike_id":"ffe4c966-f8d4-4368-b492-102a0ec7000e","system_id":"levelo_inurba_marseille","lat":43.290104,"lon":5.356111,"is_reserved":false,"is_disabled":false,"rental_uris":{"android":"levelo://app?vid=ffe4c966-f8d4-4368-b492-102a0ec7000e","ios":"levelo://app?vid=ffe4c966-f8d4-4368-b492-102a0ec7000e"},"vehicle_type_id":"4","last_reported":1701378385,"current_range_meters":27200,"station_id":"ce4bhb92rcd13ifvqen0","pricing_plan_id":"free"},{"bike_id":"8b9d441c-75fa-45de-82c3-2b38d95f2698","system_id":"levelo_inurba_marseille","lat":43.290995,"lon":5.381361,"is_reserved":false,"is_disabled":false,"rental_uris":{"android":"levelo://app?vid=8b9d441c-75fa-45de-82c3-2b38d95f2698","ios":"levelo://app?vid=8b9d441c-75fa-45de-82c3-2b38d95f2698"},"vehicle_type_id":"4","last_reported":1701378385,"current_range_meters":14400,"station_id":"ce4bh512rcd13ifvqe2g","pricing_plan_id":"free"},{"bike_id":"b0001738-67fc-4cc6-94ca-b466884dcb20","system_id":"levelo_inurba_marseille","lat":43.28897,"lon":5.36116,"is_reserved":false,"is_disabled":false,"rental_uris":{"android":"levelo://app?vid=b0001738-67fc-4cc6-94ca-b466884dcb20","ios":"levelo://app?vid=b0001738-67fc-4cc6-94ca-b466884dcb20"},"vehicle_type_id":"4","last_reported":1701378385,"current_range_meters":20800,"station_id":"","pricing_plan_id":"free"},{"bike_id":"433c11ae-8306-4bbf-850d-086e9b9b8b2e","system_id":"levelo_inurba_marseille","lat":43.2909,"lon":5.381212,"is_reserved":false,"is_disabled":false,"rental_uris":{"android":"levelo://app?vid=433c11ae-8306-4bbf-850d-086e9b9b8b2e","ios":"levelo://app?vid=433c11ae-8306-4bbf-850d-086e9b9b8b2e"},"vehicle_type_id":"4","last_reported":1701378385,"current_range_meters":18000,"station_id":"ce4bh512rcd13ifvqe2g","pricing_plan_id":"free"},{"bike_id":"6193641f-cefc-49ab-96ef-f683d2d49bad","system_id":"levelo_inurba_marseille","lat":43.29794,"lon":5.39349,"is_reserved":false,"is_disabled":false,"rental_uris":{"android":"levelo://app?vid=6193641f-cefc-49ab-96ef-f683d2d49bad","ios":"levelo://app?vid=6193641f-cefc-49ab-96ef-f683d2d49bad"},"vehicle_type_id":"4","last_reported":1701378385,"current_range_meters":27200,"station_id":"chh1huq6cuj3fo74tm60","pricing_plan_id":"free"},{"bike_id":"016f19a2-bb6e-4303-897e-cc7027690b41","system_id":"levelo_inurba_marseille","lat":43.2977,"lon":5.39343,"is_reserved":false,"is_disabled":false,"rental_uris":{"android":"levelo://app?vid=016f19a2-bb6e-4303-897e-cc7027690b41","ios":"levelo://app?vid=016f19a2-bb6e-4303-897e-cc7027690b41"},"vehicle_type_id":"4","last_reported":1701378385,"current_range_meters":7200,"station_id":"chh1huq6cuj3fo74tm60","pricing_plan_id":"free"},{"bike_id":"9d9f499f-b72c-46ee-b21d-28fd624b486d","system_id":"levelo_inurba_marseille","lat":43.28856,"lon":5.358371,"is_reserved":false,"is_disabled":false,"rental_uris":{"android":"levelo://app?vid=9d9f499f-b72c-46ee-b21d-28fd624b486d","ios":"levelo://app?vid=9d9f499f-b72c-46ee-b21d-28fd624b486d"},"vehicle_type_id":"4","last_reported":1701378385,"current_range_meters":12000,"station_id":"ce4bhb12rcd13ifvqem0","pricing_plan_id":"free"},{"bike_id":"e8716f4b-4cf2-49a3-a4e7-cacaf36bc332","system_id":"levelo_inurba_marseille","lat":43.28856,"lon":5.358371,"is_reserved":false,"is_disabled":false,"rental_uris":{"android":"levelo://app?vid=e8716f4b-4cf2-49a3-a4e7-cacaf36bc332","ios":"levelo://app?vid=e8716f4b-4cf2-49a3-a4e7-cacaf36bc332"},"vehicle_type_id":"4","last_reported":1701378385,"current_range_meters":3600,"station_id":"ce4bhb12rcd13ifvqem0","pricing_plan_id":"free"},{"bike_id":"49c2e106-446b-4943-8b2a-78e542a87aa5","system_id":"levelo_inurba_marseille","lat":43.28856,"lon":5.358371,"is_reserved":false,"is_disabled":false,"rental_uris":{"android":"levelo://app?vid=49c2e106-446b-4943-8b2a-78e542a87aa5","ios":"levelo://app?vid=49c2e106-446b-4943-8b2a-78e542a87aa5"},"vehicle_type_id":"4","last_reported":1701378385,"current_range_meters":19600,"station_id":"ce4bhb12rcd13ifvqem0","pricing_plan_id":"free"},{"bike_id":"a2c112a6-58e1-4e8b-8be8-80d2c9d8d3d7","system_id":"levelo_inurba_marseille","lat":43.31265,"lon":5.401699,"is_reserved":false,"is_disabled":false,"rental_uris":{"android":"levelo://app?vid=a2c112a6-58e1-4e8b-8be8-80d2c9d8d3d7","ios":"levelo://app?vid=a2c112a6-58e1-4e8b-8be8-80d2c9d8d3d7"},"vehicle_type_id":"4","last_reported":1701378385,"current_range_meters":17200,"station_id":"","pricing_plan_id":"free"},{"bike_id":"9ea25f6d-b455-47a1-be34-2beadcdcd698","system_id":"levelo_inurba_marseille","lat":43.30937,"lon":5.40145,"is_reserved":false,"is_disabled":false,"rental_uris":{"android":"levelo://app?vid=9ea25f6d-b455-47a1-be34-2beadcdcd698","ios":"levelo://app?vid=9ea25f6d-b455-47a1-be34-2beadcdcd698"},"vehicle_type_id":"4","last_reported":1701378385,"current_range_meters":30000,"station_id":"ce4bgvp2rcd13ifvqct0","pricing_plan_id":"free"},{"bike_id":"7535eaed-f428-4465-83a1-90fbb47ae0ae","system_id":"levelo_inurba_marseille","lat":43.309166,"lon":5.401426,"is_reserved":false,"is_disabled":false,"rental_uris":{"android":"levelo://app?vid=7535eaed-f428-4465-83a1-90fbb47ae0ae","ios":"levelo://app?vid=7535eaed-f428-4465-83a1-90fbb47ae0ae"},"vehicle_type_id":"4","last_reported":1701378385,"current_range_meters":12000,"station_id":"ce4bgvp2rcd13ifvqct0","pricing_plan_id":"free"},{"bike_id":"4a8cc3bd-2771-4300-879c-a3018715ac91","system_id":"levelo_inurba_marseille","lat":43.309371,"lon":5.401449,"is_reserved":false,"is_disabled":false,"rental_uris":{"android":"levelo://app?vid=4a8cc3bd-2771-4300-879c-a3018715ac91","ios":"levelo://app?vid=4a8cc3bd-2771-4300-879c-a3018715ac91"},"vehicle_type_id":"4","last_reported":1701378385,"current_range_meters":1600,"station_id":"ce4bgvp2rcd13ifvqct0","pricing_plan_id":"free"},{"bike_id":"88de979b-1386-4e7b-86ac-24ff8c9bf9f4","system_id":"levelo_inurba_marseille","lat":43.306488,"lon":5.400894,"is_reserved":false,"is_disabled":false,"rental_uris":{"android":"levelo://app?vid=88de979b-1386-4e7b-86ac-24ff8c9bf9f4","ios":"levelo://app?vid=88de979b-1386-4e7b-86ac-24ff8c9bf9f4"},"vehicle_type_id":"4","last_reported":1701378385,"current_range_meters":26400,"station_id":"ce4bh112rcd13ifvqda0","pricing_plan_id":"free"},{"bike_id":"de117050-8bd5-4e62-8beb-ea605b189848","system_id":"levelo_inurba_marseille","lat":43.30642,"lon":5.401031,"is_reserved":false,"is_disabled":false,"rental_uris":{"android":"levelo://app?vid=de117050-8bd5-4e62-8beb-ea605b189848","ios":"levelo://app?vid=de117050-8bd5-4e62-8beb-ea605b189848"},"vehicle_type_id":"4","last_reported":1701378385,"current_range_meters":15600,"station_id":"ce4bh112rcd13ifvqda0","pricing_plan_id":"free"},{"bike_id":"009872ec-941a-42f0-8e32-a107950ff6ff","system_id":"levelo_inurba_marseille","lat":43.30642,"lon":5.401031,"is_reserved":false,"is_disabled":false,"rental_uris":{"android":"levelo://app?vid=009872ec-941a-42f0-8e32-a107950ff6ff","ios":"levelo://app?vid=009872ec-941a-42f0-8e32-a107950ff6ff"},"vehicle_type_id":"4","last_reported":1701378385,"current_range_meters":10400,"station_id":"ce4bh112rcd13ifvqda0","pricing_plan_id":"free"},{"bike_id":"b930dc4e-3488-4b4b-b52b-1874865c3274","system_id":"levelo_inurba_marseille","lat":43.305234,"lon":5.400846,"is_reserved":false,"is_disabled":false,"rental_uris":{"android":"levelo://app?vid=b930dc4e-3488-4b4b-b52b-1874865c3274","ios":"levelo://app?vid=b930dc4e-3488-4b4b-b52b-1874865c3274"},"vehicle_type_id":"4","last_reported":1701378385,"current_range_meters":25600,"station_id":"","pricing_plan_id":"free"},{"bike_id":"246292a8-49c4-4e1d-913d-f78fdc8f52ea","system_id":"levelo_inurba_marseille","lat":43.28727,"lon":5.36078,"is_reserved":false,"is_disabled":false,"rental_uris":{"android":"levelo://app?vid=246292a8-49c4-4e1d-913d-f78fdc8f52ea","ios":"levelo://app?vid=246292a8-49c4-4e1d-913d-f78fdc8f52ea"},"vehicle_type_id":"4","last_reported":1701378385,"current_range_meters":9200,"station_id":"cki0cbj6b192h4jlfktg","pricing_plan_id":"free"},{"bike_id":"f0b62317-80a8-4e72-a32b-c493ad8bd6c3","system_id":"levelo_inurba_marseille","lat":43.28727,"lon":5.36078,"is_reserved":false,"is_disabled":false,"rental_uris":{"android":"levelo://app?vid=f0b62317-80a8-4e72-a32b-c493ad8bd6c3","ios":"levelo://app?vid=f0b62317-80a8-4e72-a32b-c493ad8bd6c3"},"vehicle_type_id":"4","last_reported":1701378385,"current_range_meters":24800,"station_id":"cki0cbj6b192h4jlfktg","pricing_plan_id":"free"},{"bike_id":"0fadd555-920b-4d63-be4f-83750afd505c","system_id":"levelo_inurba_marseille","lat":43.286591,"lon":5.363346,"is_reserved":false,"is_disabled":false,"rental_uris":{"android":"levelo://app?vid=0fadd555-920b-4d63-be4f-83750afd505c","ios":"levelo://app?vid=0fadd555-920b-4d63-be4f-83750afd505c"},"vehicle_type_id":"4","last_reported":1701378385,"current_range_meters":9600,"station_id":"ce4bhah2rcd13ifvqej0","pricing_plan_id":"free"},{"bike_id":"2ab88e44-eb99-4e65-b98d-270d0f59333f","system_id":"levelo_inurba_marseille","lat":43.286591,"lon":5.363346,"is_reserved":false,"is_disabled":false,"rental_uris":{"android":"levelo://app?vid=2ab88e44-eb99-4e65-b98d-270d0f59333f","ios":"levelo://app?vid=2ab88e44-eb99-4e65-b98d-270d0f59333f"},"vehicle_type_id":"4","last_reported":1701378385,"current_range_meters":27600,"station_id":"ce4bhah2rcd13ifvqej0","pricing_plan_id":"free"},{"bike_id":"f5fdd69c-8ce5-4fa1-a48b-c0b8b1223ef0","system_id":"levelo_inurba_marseille","lat":43.286591,"lon":5.363346,"is_reserved":false,"is_disabled":false,"rental_uris":{"android":"levelo://app?vid=f5fdd69c-8ce5-4fa1-a48b-c0b8b1223ef0","ios":"levelo://app?vid=f5fdd69c-8ce5-4fa1-a48b-c0b8b1223ef0"},"vehicle_type_id":"4","last_reported":1701378385,"current_range_meters":5600,"station_id":"ce4bhah2rcd13ifvqej0","pricing_plan_id":"free"},{"bike_id":"efc028e5-4a7e-4fec-bec3-4183e508bbb9","system_id":"levelo_inurba_marseille","lat":43.298681,"lon":5.397225,"is_reserved":false,"is_disabled":false,"rental_uris":{"android":"levelo://app?vid=efc028e5-4a7e-4fec-bec3-4183e508bbb9","ios":"levelo://app?vid=efc028e5-4a7e-4fec-bec3-4183e508bbb9"},"vehicle_type_id":"4","last_reported":1701378385,"current_range_meters":27600,"station_id":"ce4bh0h2rcd13ifvqd50","pricing_plan_id":"free"},{"bike_id":"7b191f5e-a47f-452a-a37a-1e47929297df","system_id":"levelo_inurba_marseille","lat":43.298681,"lon":5.397225,"is_reserved":false,"is_disabled":false,"rental_uris":{"android":"levelo://app?vid=7b191f5e-a47f-452a-a37a-1e47929297df","ios":"levelo://app?vid=7b191f5e-a47f-452a-a37a-1e47929297df"},"vehicle_type_id":"4","last_reported":1701378385,"current_range_meters":7600,"station_id":"ce4bh0h2rcd13ifvqd50","pricing_plan_id":"free"},{"bike_id":"1848882b-c94e-4a5c-ba5f-a1ee8ac082a1","system_id":"levelo_inurba_marseille","lat":43.295194,"lon":5.39397,"is_reserved":false,"is_disabled":false,"rental_uris":{"android":"levelo://app?vid=1848882b-c94e-4a5c-ba5f-a1ee8ac082a1","ios":"levelo://app?vid=1848882b-c94e-4a5c-ba5f-a1ee8ac082a1"},"vehicle_type_id":"4","last_reported":1701378385,"current_range_meters":2000,"station_id":"ce4bh292rcd13ifvqdf0","pricing_plan_id":"free"},{"bike_id":"2b43661d-20de-49dc-a63f-8cf3219e83c4","system_id":"levelo_inurba_marseille","lat":43.295196,"lon":5.39397,"is_reserved":false,"is_disabled":false,"rental_uris":{"android":"levelo://app?vid=2b43661d-20de-49dc-a63f-8cf3219e83c4","ios":"levelo://app?vid=2b43661d-20de-49dc-a63f-8cf3219e83c4"},"vehicle_type_id":"4","last_reported":1701378385,"current_range_meters":20000,"station_id":"ce4bh292rcd13ifvqdf0","pricing_plan_id":"free"},{"bike_id":"eca1eb1a-04aa-4535-85bd-2f28fe329c44","system_id":"levelo_inurba_marseille","lat":43.302759,"lon":5.400793,"is_reserved":false,"is_disabled":false,"rental_uris":{"android":"levelo://app?vid=eca1eb1a-04aa-4535-85bd-2f28fe329c44","ios":"levelo://app?vid=eca1eb1a-04aa-4535-85bd-2f28fe329c44"},"vehicle_type_id":"4","last_reported":1701378385,"current_range_meters":10000,"station_id":"ce4bgvh2rcd13ifvqcs0","pricing_plan_id":"free"},{"bike_id":"794e6fec-cd3c-498e-ae51-ae51ed0ebb51","system_id":"levelo_inurba_marseille","lat":43.289307,"lon":5.38406,"is_reserved":false,"is_disabled":false,"rental_uris":{"android":"levelo://app?vid=794e6fec-cd3c-498e-ae51-ae51ed0ebb51","ios":"levelo://app?vid=794e6fec-cd3c-498e-ae51-ae51ed0ebb51"},"vehicle_type_id":"4","last_reported":1701378385,"current_range_meters":13600,"station_id":"ce4bh612rcd13ifvqe6g","pricing_plan_id":"free"},{"bike_id":"6f69836b-596d-443e-b51b-9b92e4277e09","system_id":"levelo_inurba_marseille","lat":43.289307,"lon":5.38406,"is_reserved":false,"is_disabled":false,"rental_uris":{"android":"levelo://app?vid=6f69836b-596d-443e-b51b-9b92e4277e09","ios":"levelo://app?vid=6f69836b-596d-443e-b51b-9b92e4277e09"},"vehicle_type_id":"4","last_reported":1701378385,"current_range_meters":14000,"station_id":"ce4bh612rcd13ifvqe6g","pricing_plan_id":"free"},{"bike_id":"71d8a78b-d7d8-42b5-aca9-51f0b2fc888a","system_id":"levelo_inurba_marseille","lat":43.302759,"lon":5.400793,"is_reserved":false,"is_disabled":false,"rental_uris":{"android":"levelo://app?vid=71d8a78b-d7d8-42b5-aca9-51f0b2fc888a","ios":"levelo://app?vid=71d8a78b-d7d8-42b5-aca9-51f0b2fc888a"},"vehicle_type_id":"4","last_reported":1701378385,"current_range_meters":26400,"station_id":"ce4bgvh2rcd13ifvqcs0","pricing_plan_id":"free"},{"bike_id":"59478bbb-454c-47ef-b624-0be37854a9e4","system_id":"levelo_inurba_marseille","lat":43.307623,"lon":5.402774,"is_reserved":false,"is_disabled":false,"rental_uris":{"android":"levelo://app?vid=59478bbb-454c-47ef-b624-0be37854a9e4","ios":"levelo://app?vid=59478bbb-454c-47ef-b624-0be37854a9e4"},"vehicle_type_id":"4","last_reported":1701378385,"current_range_meters":20400,"station_id":"ce4bgvp2rcd13ifvqct0","pricing_plan_id":"free"},{"bike_id":"7c0f0972-659b-42b9-998d-4411f38291d9","system_id":"levelo_inurba_marseille","lat":43.28609,"lon":5.37058,"is_reserved":false,"is_disabled":false,"rental_uris":{"android":"levelo://app?vid=7c0f0972-659b-42b9-998d-4411f38291d9","ios":"levelo://app?vid=7c0f0972-659b-42b9-998d-4411f38291d9"},"vehicle_type_id":"4","last_reported":1701378385,"current_range_meters":4800,"station_id":"ce4bht12rcd13ifvqi60","pricing_plan_id":"free"},{"bike_id":"3b9eb502-a4b0-4696-82dd-048ee0da762b","system_id":"levelo_inurba_marseille","lat":43.286039,"lon":5.370679,"is_reserved":false,"is_disabled":false,"rental_uris":{"android":"levelo://app?vid=3b9eb502-a4b0-4696-82dd-048ee0da762b","ios":"levelo://app?vid=3b9eb502-a4b0-4696-82dd-048ee0da762b"},"vehicle_type_id":"4","last_reported":1701378385,"current_range_meters":28000,"station_id":"ce4bht12rcd13ifvqi60","pricing_plan_id":"free"},{"bike_id":"31b95479-0fab-477c-9de7-b994514514e3","system_id":"levelo_inurba_marseille","lat":43.286039,"lon":5.370681,"is_reserved":false,"is_disabled":false,"rental_uris":{"android":"levelo://app?vid=31b95479-0fab-477c-9de7-b994514514e3","ios":"levelo://app?vid=31b95479-0fab-477c-9de7-b994514514e3"},"vehicle_type_id":"4","last_reported":1701378385,"current_range_meters":2800,"station_id":"ce4bht12rcd13ifvqi60","pricing_plan_id":"free"},{"bike_id":"51e80092-f709-463a-96a2-8b25587b914d","system_id":"levelo_inurba_marseille","lat":43.286039,"lon":5.370681,"is_reserved":false,"is_disabled":false,"rental_uris":{"android":"levelo://app?vid=51e80092-f709-463a-96a2-8b25587b914d","ios":"levelo://app?vid=51e80092-f709-463a-96a2-8b25587b914d"},"vehicle_type_id":"4","last_reported":1701378385,"current_range_meters":8800,"station_id":"ce4bht12rcd13ifvqi60","pricing_plan_id":"free"},{"bike_id":"5c87cf06-4c64-4efb-8afb-62373056f0dc","system_id":"levelo_inurba_marseille","lat":43.316517,"lon":5.404375,"is_reserved":false,"is_disabled":false,"rental_uris":{"android":"levelo://app?vid=5c87cf06-4c64-4efb-8afb-62373056f0dc","ios":"levelo://app?vid=5c87cf06-4c64-4efb-8afb-62373056f0dc"},"vehicle_type_id":"4","last_reported":1701378385,"current_range_meters":0,"station_id":"ce4bh012rcd13ifvqd00","pricing_plan_id":"free"},{"bike_id":"55fb18d1-3a66-44a9-a318-d960e4cd31be","system_id":"levelo_inurba_marseille","lat":43.286718,"lon":5.379509,"is_reserved":false,"is_disabled":false,"rental_uris":{"android":"levelo://app?vid=55fb18d1-3a66-44a9-a318-d960e4cd31be","ios":"levelo://app?vid=55fb18d1-3a66-44a9-a318-d960e4cd31be"},"vehicle_type_id":"4","last_reported":1701378385,"current_range_meters":29200,"station_id":"","pricing_plan_id":"free"},{"bike_id":"67160f91-9092-464a-b53d-3ffd3163ef1b","system_id":"levelo_inurba_marseille","lat":43.291994,"lon":5.392907,"is_reserved":false,"is_disabled":false,"rental_uris":{"android":"levelo://app?vid=67160f91-9092-464a-b53d-3ffd3163ef1b","ios":"levelo://app?vid=67160f91-9092-464a-b53d-3ffd3163ef1b"},"vehicle_type_id":"4","last_reported":1701378385,"current_range_meters":9600,"station_id":"ce4bh192rcd13ifvqdd0","pricing_plan_id":"free"},{"bike_id":"d8afdaf7-a980-4e89-9d7e-e47dccdeb5f1","system_id":"levelo_inurba_marseille","lat":43.284538,"lon":5.358657,"is_reserved":false,"is_disabled":false,"rental_uris":{"android":"levelo://app?vid=d8afdaf7-a980-4e89-9d7e-e47dccdeb5f1","ios":"levelo://app?vid=d8afdaf7-a980-4e89-9d7e-e47dccdeb5f1"},"vehicle_type_id":"4","last_reported":1701378385,"current_range_meters":3200,"station_id":"ce4bhah2rcd13ifvqei0","pricing_plan_id":"free"},{"bike_id":"d27c3822-c0f8-4b95-a49f-2375387b9290","system_id":"levelo_inurba_marseille","lat":43.284645,"lon":5.358995,"is_reserved":false,"is_disabled":false,"rental_uris":{"android":"levelo://app?vid=d27c3822-c0f8-4b95-a49f-2375387b9290","ios":"levelo://app?vid=d27c3822-c0f8-4b95-a49f-2375387b9290"},"vehicle_type_id":"4","last_reported":1701378385,"current_range_meters":18000,"station_id":"ce4bhah2rcd13ifvqei0","pricing_plan_id":"free"},{"bike_id":"f0af66be-b54e-441d-bca6-9912ae6f8e4c","system_id":"levelo_inurba_marseille","lat":43.284538,"lon":5.358657,"is_reserved":false,"is_disabled":false,"rental_uris":{"android":"levelo://app?vid=f0af66be-b54e-441d-bca6-9912ae6f8e4c","ios":"levelo://app?vid=f0af66be-b54e-441d-bca6-9912ae6f8e4c"},"vehicle_type_id":"4","last_reported":1701378385,"current_range_meters":3600,"station_id":"ce4bhah2rcd13ifvqei0","pricing_plan_id":"free"},{"bike_id":"21169003-7cd8-4dcc-90d2-c0b535fa7f98","system_id":"levelo_inurba_marseille","lat":43.284538,"lon":5.358657,"is_reserved":false,"is_disabled":false,"rental_uris":{"android":"levelo://app?vid=21169003-7cd8-4dcc-90d2-c0b535fa7f98","ios":"levelo://app?vid=21169003-7cd8-4dcc-90d2-c0b535fa7f98"},"vehicle_type_id":"4","last_reported":1701378385,"current_range_meters":11600,"station_id":"ce4bhah2rcd13ifvqei0","pricing_plan_id":"free"},{"bike_id":"17f9a08f-f653-4795-ab7f-1ff49e1b30ff","system_id":"levelo_inurba_marseille","lat":43.284538,"lon":5.358657,"is_reserved":false,"is_disabled":false,"rental_uris":{"android":"levelo://app?vid=17f9a08f-f653-4795-ab7f-1ff49e1b30ff","ios":"levelo://app?vid=17f9a08f-f653-4795-ab7f-1ff49e1b30ff"},"vehicle_type_id":"4","last_reported":1701378385,"current_range_meters":11200,"station_id":"ce4bhah2rcd13ifvqei0","pricing_plan_id":"free"},{"bike_id":"7519f6f5-4f81-45ad-bb31-2197b77890f5","system_id":"levelo_inurba_marseille","lat":43.285848,"lon":5.350787,"is_reserved":false,"is_disabled":false,"rental_uris":{"android":"levelo://app?vid=7519f6f5-4f81-45ad-bb31-2197b77890f5","ios":"levelo://app?vid=7519f6f5-4f81-45ad-bb31-2197b77890f5"},"vehicle_type_id":"4","last_reported":1701378385,"current_range_meters":7600,"station_id":"ce4bhch2rcd13ifvqeug","pricing_plan_id":"free"},{"bike_id":"37db4461-331c-4357-9f33-30987873c8e5","system_id":"levelo_inurba_marseille","lat":43.283998,"lon":5.375062,"is_reserved":false,"is_disabled":false,"rental_uris":{"android":"levelo://app?vid=37db4461-331c-4357-9f33-30987873c8e5","ios":"levelo://app?vid=37db4461-331c-4357-9f33-30987873c8e5"},"vehicle_type_id":"4","last_reported":1701378385,"current_range_meters":2400,"station_id":"ce4bh412rcd13ifvqds0","pricing_plan_id":"free"},{"bike_id":"f9d4ec91-e3e8-4990-8594-b4e4e610432a","system_id":"levelo_inurba_marseille","lat":43.283998,"lon":5.375062,"is_reserved":false,"is_disabled":false,"rental_uris":{"android":"levelo://app?vid=f9d4ec91-e3e8-4990-8594-b4e4e610432a","ios":"levelo://app?vid=f9d4ec91-e3e8-4990-8594-b4e4e610432a"},"vehicle_type_id":"4","last_reported":1701378385,"current_range_meters":6800,"station_id":"ce4bh412rcd13ifvqds0","pricing_plan_id":"free"},{"bike_id":"4bf375c6-8e06-44a7-90a5-71c0227dc455","system_id":"levelo_inurba_marseille","lat":43.283998,"lon":5.375062,"is_reserved":false,"is_disabled":false,"rental_uris":{"android":"levelo://app?vid=4bf375c6-8e06-44a7-90a5-71c0227dc455","ios":"levelo://app?vid=4bf375c6-8e06-44a7-90a5-71c0227dc455"},"vehicle_type_id":"4","last_reported":1701378385,"current_range_meters":13600,"station_id":"ce4bh412rcd13ifvqds0","pricing_plan_id":"free"},{"bike_id":"63a66dbb-9867-4f79-86ce-454d847935c8","system_id":"levelo_inurba_marseille","lat":43.283998,"lon":5.375062,"is_reserved":false,"is_disabled":false,"rental_uris":{"android":"levelo://app?vid=63a66dbb-9867-4f79-86ce-454d847935c8","ios":"levelo://app?vid=63a66dbb-9867-4f79-86ce-454d847935c8"},"vehicle_type_id":"4","last_reported":1701378385,"current_range_meters":2000,"station_id":"ce4bh412rcd13ifvqds0","pricing_plan_id":"free"},{"bike_id":"d147e0d7-0e39-41c3-9168-806b6269bef3","system_id":"levelo_inurba_marseille","lat":43.319179,"lon":5.407725,"is_reserved":false,"is_disabled":false,"rental_uris":{"android":"levelo://app?vid=d147e0d7-0e39-41c3-9168-806b6269bef3","ios":"levelo://app?vid=d147e0d7-0e39-41c3-9168-806b6269bef3"},"vehicle_type_id":"4","last_reported":1701378385,"current_range_meters":23600,"station_id":"ce4bhq12rcd13ifvqhig","pricing_plan_id":"free"},{"bike_id":"cc93e40c-17a9-4de4-a517-ba458e61aeed","system_id":"levelo_inurba_marseille","lat":43.319179,"lon":5.407725,"is_reserved":false,"is_disabled":false,"rental_uris":{"android":"levelo://app?vid=cc93e40c-17a9-4de4-a517-ba458e61aeed","ios":"levelo://app?vid=cc93e40c-17a9-4de4-a517-ba458e61aeed"},"vehicle_type_id":"4","last_reported":1701378385,"current_range_meters":2800,"station_id":"ce4bhq12rcd13ifvqhig","pricing_plan_id":"free"},{"bike_id":"430fab3b-85ff-459e-b705-171d153ad923","system_id":"levelo_inurba_marseille","lat":43.323464,"lon":5.406297,"is_reserved":false,"is_disabled":false,"rental_uris":{"android":"levelo://app?vid=430fab3b-85ff-459e-b705-171d153ad923","ios":"levelo://app?vid=430fab3b-85ff-459e-b705-171d153ad923"},"vehicle_type_id":"4","last_reported":1701378385,"current_range_meters":9600,"station_id":"ce4bhq92rcd13ifvqhjg","pricing_plan_id":"free"},{"bike_id":"662fa6f8-2032-43e0-bf37-8abb696cda1d","system_id":"levelo_inurba_marseille","lat":43.33717,"lon":5.391857,"is_reserved":false,"is_disabled":false,"rental_uris":{"android":"levelo://app?vid=662fa6f8-2032-43e0-bf37-8abb696cda1d","ios":"levelo://app?vid=662fa6f8-2032-43e0-bf37-8abb696cda1d"},"vehicle_type_id":"4","last_reported":1701378385,"current_range_meters":28000,"station_id":"ce4bhr92rcd13ifvqhsg","pricing_plan_id":"free"},{"bike_id":"92c18025-d9fd-4a1d-8a0e-cc4c7e60f52a","system_id":"levelo_inurba_marseille","lat":43.319179,"lon":5.407725,"is_reserved":false,"is_disabled":false,"rental_uris":{"android":"levelo://app?vid=92c18025-d9fd-4a1d-8a0e-cc4c7e60f52a","ios":"levelo://app?vid=92c18025-d9fd-4a1d-8a0e-cc4c7e60f52a"},"vehicle_type_id":"4","last_reported":1701378385,"current_range_meters":25200,"station_id":"ce4bhq12rcd13ifvqhig","pricing_plan_id":"free"},{"bike_id":"153374f2-fa10-45d5-9587-b498a8b4c68c","system_id":"levelo_inurba_marseille","lat":43.29795,"lon":5.404086,"is_reserved":false,"is_disabled":false,"rental_uris":{"android":"levelo://app?vid=153374f2-fa10-45d5-9587-b498a8b4c68c","ios":"levelo://app?vid=153374f2-fa10-45d5-9587-b498a8b4c68c"},"vehicle_type_id":"4","last_reported":1701378385,"current_range_meters":28400,"station_id":"ce4bh112rcd13ifvqd90","pricing_plan_id":"free"},{"bike_id":"9d0e509f-9027-4be2-970c-933419a65828","system_id":"levelo_inurba_marseille","lat":43.288501,"lon":5.393087,"is_reserved":false,"is_disabled":false,"rental_uris":{"android":"levelo://app?vid=9d0e509f-9027-4be2-970c-933419a65828","ios":"levelo://app?vid=9d0e509f-9027-4be2-970c-933419a65828"},"vehicle_type_id":"4","last_reported":1701378385,"current_range_meters":25600,"station_id":"ce4bh2p2rcd13ifvqdi0","pricing_plan_id":"free"},{"bike_id":"1f86ecb7-3c85-4124-b1b2-4c78b2119850","system_id":"levelo_inurba_marseille","lat":43.292724,"lon":5.401131,"is_reserved":false,"is_disabled":false,"rental_uris":{"android":"levelo://app?vid=1f86ecb7-3c85-4124-b1b2-4c78b2119850","ios":"levelo://app?vid=1f86ecb7-3c85-4124-b1b2-4c78b2119850"},"vehicle_type_id":"4","last_reported":1701378385,"current_range_meters":6400,"station_id":"ce4bh312rcd13ifvqdk0","pricing_plan_id":"free"},{"bike_id":"aca33337-8473-4b32-95e9-05a782cda663","system_id":"levelo_inurba_marseille","lat":43.28274,"lon":5.35078,"is_reserved":false,"is_disabled":false,"rental_uris":{"android":"levelo://app?vid=aca33337-8473-4b32-95e9-05a782cda663","ios":"levelo://app?vid=aca33337-8473-4b32-95e9-05a782cda663"},"vehicle_type_id":"4","last_reported":1701378385,"current_range_meters":27200,"station_id":"ce4bhbp2rcd13ifvqerg","pricing_plan_id":"free"},{"bike_id":"377a5e02-210c-44b1-b033-1c45596d94a3","system_id":"levelo_inurba_marseille","lat":43.282754,"lon":5.350519,"is_reserved":false,"is_disabled":false,"rental_uris":{"android":"levelo://app?vid=377a5e02-210c-44b1-b033-1c45596d94a3","ios":"levelo://app?vid=377a5e02-210c-44b1-b033-1c45596d94a3"},"vehicle_type_id":"4","last_reported":1701378385,"current_range_meters":26800,"station_id":"ce4bhbp2rcd13ifvqerg","pricing_plan_id":"free"},{"bike_id":"b1702bc3-d97a-4a9c-9157-e3dae9c6ae63","system_id":"levelo_inurba_marseille","lat":43.28362,"lon":5.3862,"is_reserved":false,"is_disabled":false,"rental_uris":{"android":"levelo://app?vid=b1702bc3-d97a-4a9c-9157-e3dae9c6ae63","ios":"levelo://app?vid=b1702bc3-d97a-4a9c-9157-e3dae9c6ae63"},"vehicle_type_id":"4","last_reported":1701378385,"current_range_meters":27600,"station_id":"ce4bh492rcd13ifvqdvg","pricing_plan_id":"free"},{"bike_id":"cbb6a846-2d9c-4c06-bc81-28eb9a40f7da","system_id":"levelo_inurba_marseille","lat":43.282633,"lon":5.350679,"is_reserved":false,"is_disabled":false,"rental_uris":{"android":"levelo://app?vid=cbb6a846-2d9c-4c06-bc81-28eb9a40f7da","ios":"levelo://app?vid=cbb6a846-2d9c-4c06-bc81-28eb9a40f7da"},"vehicle_type_id":"4","last_reported":1701378385,"current_range_meters":9200,"station_id":"ce4bhbp2rcd13ifvqerg","pricing_plan_id":"free"},{"bike_id":"84b0afdb-0b91-45f2-9495-0ac7219fb26e","system_id":"levelo_inurba_marseille","lat":43.283502,"lon":5.386471,"is_reserved":false,"is_disabled":false,"rental_uris":{"android":"levelo://app?vid=84b0afdb-0b91-45f2-9495-0ac7219fb26e","ios":"levelo://app?vid=84b0afdb-0b91-45f2-9495-0ac7219fb26e"},"vehicle_type_id":"4","last_reported":1701378385,"current_range_meters":19600,"station_id":"ce4bh492rcd13ifvqdvg","pricing_plan_id":"free"},{"bike_id":"4fe08664-95ea-4e98-a9b8-f77aef53e6e1","system_id":"levelo_inurba_marseille","lat":43.2826,"lon":5.35071,"is_reserved":false,"is_disabled":false,"rental_uris":{"android":"levelo://app?vid=4fe08664-95ea-4e98-a9b8-f77aef53e6e1","ios":"levelo://app?vid=4fe08664-95ea-4e98-a9b8-f77aef53e6e1"},"vehicle_type_id":"4","last_reported":1701378385,"current_range_meters":30400,"station_id":"ce4bhbp2rcd13ifvqerg","pricing_plan_id":"free"},{"bike_id":"97b2aa8f-6261-44d4-bce3-cd3d07431379","system_id":"levelo_inurba_marseille","lat":43.28039,"lon":5.369297,"is_reserved":false,"is_disabled":false,"rental_uris":{"android":"levelo://app?vid=97b2aa8f-6261-44d4-bce3-cd3d07431379","ios":"levelo://app?vid=97b2aa8f-6261-44d4-bce3-cd3d07431379"},"vehicle_type_id":"4","last_reported":1701378385,"current_range_meters":30400,"station_id":"ce4bha12rcd13ifvqef0","pricing_plan_id":"free"},{"bike_id":"b9024452-c23b-40f9-ada8-928108d6c09a","system_id":"levelo_inurba_marseille","lat":43.29041,"lon":5.399634,"is_reserved":false,"is_disabled":false,"rental_uris":{"android":"levelo://app?vid=b9024452-c23b-40f9-ada8-928108d6c09a","ios":"levelo://app?vid=b9024452-c23b-40f9-ada8-928108d6c09a"},"vehicle_type_id":"4","last_reported":1701378385,"current_range_meters":20000,"station_id":"ce4bh392rcd13ifvqdm0","pricing_plan_id":"free"},{"bike_id":"c5c42056-e9e3-433b-91b7-ac30da3400f8","system_id":"levelo_inurba_marseille","lat":43.284317,"lon":5.391844,"is_reserved":false,"is_disabled":false,"rental_uris":{"android":"levelo://app?vid=c5c42056-e9e3-433b-91b7-ac30da3400f8","ios":"levelo://app?vid=c5c42056-e9e3-433b-91b7-ac30da3400f8"},"vehicle_type_id":"4","last_reported":1701378385,"current_range_meters":2000,"station_id":"ce4bhoh2rcd13ifvqh5g","pricing_plan_id":"free"},{"bike_id":"f8dc2911-8d05-4d2e-a014-1e8cbe0ea255","system_id":"levelo_inurba_marseille","lat":43.254947,"lon":5.376454,"is_reserved":false,"is_disabled":false,"rental_uris":{"android":"levelo://app?vid=f8dc2911-8d05-4d2e-a014-1e8cbe0ea255","ios":"levelo://app?vid=f8dc2911-8d05-4d2e-a014-1e8cbe0ea255"},"vehicle_type_id":"4","last_reported":1701378385,"current_range_meters":9200,"station_id":"ce4bhh12rcd13ifvqff0","pricing_plan_id":"free"},{"bike_id":"6b7ef417-6657-4c19-98d8-e150659d83c2","system_id":"levelo_inurba_marseille","lat":43.304188,"lon":5.412904,"is_reserved":false,"is_disabled":false,"rental_uris":{"android":"levelo://app?vid=6b7ef417-6657-4c19-98d8-e150659d83c2","ios":"levelo://app?vid=6b7ef417-6657-4c19-98d8-e150659d83c2"},"vehicle_type_id":"4","last_reported":1701378385,"current_range_meters":28400,"station_id":"ce4bhop2rcd13ifvqh8g","pricing_plan_id":"free"},{"bike_id":"d03a352b-8e9a-45e0-94f9-5369ac9753dc","system_id":"levelo_inurba_marseille","lat":43.279087,"lon":5.380114,"is_reserved":false,"is_disabled":false,"rental_uris":{"android":"levelo://app?vid=d03a352b-8e9a-45e0-94f9-5369ac9753dc","ios":"levelo://app?vid=d03a352b-8e9a-45e0-94f9-5369ac9753dc"},"vehicle_type_id":"4","last_reported":1701378385,"current_range_meters":19200,"station_id":"ce4bhf92rcd13ifvqf50","pricing_plan_id":"free"},{"bike_id":"fec28234-0489-4de0-be51-e04a7766ea70","system_id":"levelo_inurba_marseille","lat":43.279087,"lon":5.380114,"is_reserved":false,"is_disabled":false,"rental_uris":{"android":"levelo://app?vid=fec28234-0489-4de0-be51-e04a7766ea70","ios":"levelo://app?vid=fec28234-0489-4de0-be51-e04a7766ea70"},"vehicle_type_id":"4","last_reported":1701378385,"current_range_meters":26400,"station_id":"ce4bhf92rcd13ifvqf50","pricing_plan_id":"free"},{"bike_id":"0499de58-2863-44c4-8de6-9f43162d0881","system_id":"levelo_inurba_marseille","lat":43.279623,"lon":5.387187,"is_reserved":false,"is_disabled":false,"rental_uris":{"android":"levelo://app?vid=0499de58-2863-44c4-8de6-9f43162d0881","ios":"levelo://app?vid=0499de58-2863-44c4-8de6-9f43162d0881"},"vehicle_type_id":"4","last_reported":1701378385,"current_range_meters":0,"station_id":"ce4bhg12rcd13ifvqf80","pricing_plan_id":"free"},{"bike_id":"997ca521-bdb4-4f92-9920-ef014793f06e","system_id":"levelo_inurba_marseille","lat":43.29256,"lon":5.40891,"is_reserved":false,"is_disabled":false,"rental_uris":{"android":"levelo://app?vid=997ca521-bdb4-4f92-9920-ef014793f06e","ios":"levelo://app?vid=997ca521-bdb4-4f92-9920-ef014793f06e"},"vehicle_type_id":"4","last_reported":1701378385,"current_range_meters":23200,"station_id":"ce4bh192rcd13ifvqdc0","pricing_plan_id":"free"},{"bike_id":"37ca921a-856b-4e53-8c5d-c38278e10a7a","system_id":"levelo_inurba_marseille","lat":43.292569,"lon":5.409107,"is_reserved":false,"is_disabled":false,"rental_uris":{"android":"levelo://app?vid=37ca921a-856b-4e53-8c5d-c38278e10a7a","ios":"levelo://app?vid=37ca921a-856b-4e53-8c5d-c38278e10a7a"},"vehicle_type_id":"4","last_reported":1701378385,"current_range_meters":23600,"station_id":"ce4bh192rcd13ifvqdc0","pricing_plan_id":"free"},{"bike_id":"4c60f562-fdd3-4415-b35e-967ee849a99a","system_id":"levelo_inurba_marseille","lat":43.292569,"lon":5.409107,"is_reserved":false,"is_disabled":false,"rental_uris":{"android":"levelo://app?vid=4c60f562-fdd3-4415-b35e-967ee849a99a","ios":"levelo://app?vid=4c60f562-fdd3-4415-b35e-967ee849a99a"},"vehicle_type_id":"4","last_reported":1701378385,"current_range_meters":14800,"station_id":"ce4bh192rcd13ifvqdc0","pricing_plan_id":"free"},{"bike_id":"76290dae-f1e9-4270-b5e3-e1e5d6e9bf29","system_id":"levelo_inurba_marseille","lat":43.27618,"lon":5.361009,"is_reserved":false,"is_disabled":false,"rental_uris":{"android":"levelo://app?vid=76290dae-f1e9-4270-b5e3-e1e5d6e9bf29","ios":"levelo://app?vid=76290dae-f1e9-4270-b5e3-e1e5d6e9bf29"},"vehicle_type_id":"4","last_reported":1701378385,"current_range_meters":10400,"station_id":"ce4bgj92rcd13ifvqbe0","pricing_plan_id":"free"},{"bike_id":"8044f7f8-6e2a-4445-943c-946693710233","system_id":"levelo_inurba_marseille","lat":43.278401,"lon":5.392152,"is_reserved":false,"is_disabled":false,"rental_uris":{"android":"levelo://app?vid=8044f7f8-6e2a-4445-943c-946693710233","ios":"levelo://app?vid=8044f7f8-6e2a-4445-943c-946693710233"},"vehicle_type_id":"4","last_reported":1701378385,"current_range_meters":0,"station_id":"ce4bhjp2rcd13ifvqga0","pricing_plan_id":"free"},{"bike_id":"7f9f2387-9ea1-4208-98b2-f1707deb128d","system_id":"levelo_inurba_marseille","lat":43.278283,"lon":5.392013,"is_reserved":false,"is_disabled":false,"rental_uris":{"android":"levelo://app?vid=7f9f2387-9ea1-4208-98b2-f1707deb128d","ios":"levelo://app?vid=7f9f2387-9ea1-4208-98b2-f1707deb128d"},"vehicle_type_id":"4","last_reported":1701378385,"current_range_meters":16800,"station_id":"ce4bhjp2rcd13ifvqga0","pricing_plan_id":"free"},{"bike_id":"90ab5f6d-4208-4ac4-b0bc-f5315bd34e74","system_id":"levelo_inurba_marseille","lat":43.273609,"lon":5.362708,"is_reserved":false,"is_disabled":false,"rental_uris":{"android":"levelo://app?vid=90ab5f6d-4208-4ac4-b0bc-f5315bd34e74","ios":"levelo://app?vid=90ab5f6d-4208-4ac4-b0bc-f5315bd34e74"},"vehicle_type_id":"4","last_reported":1701378385,"current_range_meters":25200,"station_id":"ce4bhbh2rcd13ifvqeo0","pricing_plan_id":"free"},{"bike_id":"78e090e3-e349-4d75-b3f2-4d776196d800","system_id":"levelo_inurba_marseille","lat":43.27997,"lon":5.40005,"is_reserved":false,"is_disabled":false,"rental_uris":{"android":"levelo://app?vid=78e090e3-e349-4d75-b3f2-4d776196d800","ios":"levelo://app?vid=78e090e3-e349-4d75-b3f2-4d776196d800"},"vehicle_type_id":"4","last_reported":1701378385,"current_range_meters":0,"station_id":"ce4bho92rcd13ifvqh4g","pricing_plan_id":"free"},{"bike_id":"d6cd08ef-c934-44a0-a330-510b886d15f8","system_id":"levelo_inurba_marseille","lat":43.310785,"lon":5.424305,"is_reserved":false,"is_disabled":false,"rental_uris":{"android":"levelo://app?vid=d6cd08ef-c934-44a0-a330-510b886d15f8","ios":"levelo://app?vid=d6cd08ef-c934-44a0-a330-510b886d15f8"},"vehicle_type_id":"4","last_reported":1701378385,"current_range_meters":31200,"station_id":"ce4bhp92rcd13ifvqhag","pricing_plan_id":"free"},{"bike_id":"ec437b53-12f7-4895-a5fb-94c6845381b6","system_id":"levelo_inurba_marseille","lat":43.340804,"lon":5.410219,"is_reserved":false,"is_disabled":false,"rental_uris":{"android":"levelo://app?vid=ec437b53-12f7-4895-a5fb-94c6845381b6","ios":"levelo://app?vid=ec437b53-12f7-4895-a5fb-94c6845381b6"},"vehicle_type_id":"4","last_reported":1701378385,"current_range_meters":7200,"station_id":"ce4bhqh2rcd13ifvqhlg","pricing_plan_id":"free"},{"bike_id":"a45a4e19-9327-46b1-bab4-2c7e03eb6e6f","system_id":"levelo_inurba_marseille","lat":43.273125,"lon":5.390731,"is_reserved":false,"is_disabled":false,"rental_uris":{"android":"levelo://app?vid=a45a4e19-9327-46b1-bab4-2c7e03eb6e6f","ios":"levelo://app?vid=a45a4e19-9327-46b1-bab4-2c7e03eb6e6f"},"vehicle_type_id":"4","last_reported":1701378385,"current_range_meters":17600,"station_id":"ce4bhgp2rcd13ifvqfe0","pricing_plan_id":"free"},{"bike_id":"467d95da-2636-474a-9939-df0ffa2be767","system_id":"levelo_inurba_marseille","lat":43.27416,"lon":5.39413,"is_reserved":false,"is_disabled":false,"rental_uris":{"android":"levelo://app?vid=467d95da-2636-474a-9939-df0ffa2be767","ios":"levelo://app?vid=467d95da-2636-474a-9939-df0ffa2be767"},"vehicle_type_id":"4","last_reported":1701378385,"current_range_meters":9600,"station_id":"ce4bhdp2rcd13ifvqf20","pricing_plan_id":"free"},{"bike_id":"f6d38aff-a5fe-4ea8-b323-a05c3a6bb4a7","system_id":"levelo_inurba_marseille","lat":43.295511,"lon":5.422926,"is_reserved":false,"is_disabled":false,"rental_uris":{"android":"levelo://app?vid=f6d38aff-a5fe-4ea8-b323-a05c3a6bb4a7","ios":"levelo://app?vid=f6d38aff-a5fe-4ea8-b323-a05c3a6bb4a7"},"vehicle_type_id":"4","last_reported":1701378385,"current_range_meters":27200,"station_id":"ce4bhph2rcd13ifvqhdg","pricing_plan_id":"free"},{"bike_id":"66f9662d-0942-4fb8-a96e-d90765f9ee0e","system_id":"levelo_inurba_marseille","lat":43.295523,"lon":5.422926,"is_reserved":false,"is_disabled":false,"rental_uris":{"android":"levelo://app?vid=66f9662d-0942-4fb8-a96e-d90765f9ee0e","ios":"levelo://app?vid=66f9662d-0942-4fb8-a96e-d90765f9ee0e"},"vehicle_type_id":"4","last_reported":1701378385,"current_range_meters":18400,"station_id":"ce4bhph2rcd13ifvqhdg","pricing_plan_id":"free"},{"bike_id":"79fa5bfd-b4d3-4f68-bf32-d864c57c968b","system_id":"levelo_inurba_marseille","lat":43.295511,"lon":5.422926,"is_reserved":false,"is_disabled":false,"rental_uris":{"android":"levelo://app?vid=79fa5bfd-b4d3-4f68-bf32-d864c57c968b","ios":"levelo://app?vid=79fa5bfd-b4d3-4f68-bf32-d864c57c968b"},"vehicle_type_id":"4","last_reported":1701378385,"current_range_meters":3600,"station_id":"ce4bhph2rcd13ifvqhdg","pricing_plan_id":"free"},{"bike_id":"ac30eb29-0c57-44c0-8e57-5eec2d829f17","system_id":"levelo_inurba_marseille","lat":43.278128,"lon":5.407195,"is_reserved":false,"is_disabled":false,"rental_uris":{"android":"levelo://app?vid=ac30eb29-0c57-44c0-8e57-5eec2d829f17","ios":"levelo://app?vid=ac30eb29-0c57-44c0-8e57-5eec2d829f17"},"vehicle_type_id":"4","last_reported":1701378385,"current_range_meters":21600,"station_id":"ce4bhnh2rcd13ifvqgtg","pricing_plan_id":"free"},{"bike_id":"b05919f8-5525-46e8-b458-b9805bc57469","system_id":"levelo_inurba_marseille","lat":43.27941,"lon":5.41048,"is_reserved":false,"is_disabled":false,"rental_uris":{"android":"levelo://app?vid=b05919f8-5525-46e8-b458-b9805bc57469","ios":"levelo://app?vid=b05919f8-5525-46e8-b458-b9805bc57469"},"vehicle_type_id":"4","last_reported":1701378385,"current_range_meters":7600,"station_id":"ce4bhnp2rcd13ifvqh0g","pricing_plan_id":"free"},{"bike_id":"b572b7d0-e62d-4e46-8b6f-efb6c94dcdfb","system_id":"levelo_inurba_marseille","lat":43.27936,"lon":5.4105,"is_reserved":false,"is_disabled":false,"rental_uris":{"android":"levelo://app?vid=b572b7d0-e62d-4e46-8b6f-efb6c94dcdfb","ios":"levelo://app?vid=b572b7d0-e62d-4e46-8b6f-efb6c94dcdfb"},"vehicle_type_id":"4","last_reported":1701378385,"current_range_meters":24400,"station_id":"ce4bhnp2rcd13ifvqh0g","pricing_plan_id":"free"},{"bike_id":"1e8f032c-28a7-4491-b7f8-f967a7565df5","system_id":"levelo_inurba_marseille","lat":43.269319,"lon":5.389397,"is_reserved":false,"is_disabled":false,"rental_uris":{"android":"levelo://app?vid=1e8f032c-28a7-4491-b7f8-f967a7565df5","ios":"levelo://app?vid=1e8f032c-28a7-4491-b7f8-f967a7565df5"},"vehicle_type_id":"4","last_reported":1701378385,"current_range_meters":3200,"station_id":"ce4bhhh2rcd13ifvqfl0","pricing_plan_id":"free"},{"bike_id":"1ddb94a8-75d3-4cb8-a77d-50c42efe8ff2","system_id":"levelo_inurba_marseille","lat":43.269319,"lon":5.389397,"is_reserved":false,"is_disabled":false,"rental_uris":{"android":"levelo://app?vid=1ddb94a8-75d3-4cb8-a77d-50c42efe8ff2","ios":"levelo://app?vid=1ddb94a8-75d3-4cb8-a77d-50c42efe8ff2"},"vehicle_type_id":"4","last_reported":1701378385,"current_range_meters":29600,"station_id":"ce4bhhh2rcd13ifvqfl0","pricing_plan_id":"free"},{"bike_id":"de66c3aa-2b65-41bc-93c4-3485c41268fc","system_id":"levelo_inurba_marseille","lat":43.278925,"lon":5.41216,"is_reserved":false,"is_disabled":false,"rental_uris":{"android":"levelo://app?vid=de66c3aa-2b65-41bc-93c4-3485c41268fc","ios":"levelo://app?vid=de66c3aa-2b65-41bc-93c4-3485c41268fc"},"vehicle_type_id":"4","last_reported":1701378385,"current_range_meters":2000,"station_id":"","pricing_plan_id":"free"},{"bike_id":"328d21c0-a0b1-4982-9d62-2cd26c6ce009","system_id":"levelo_inurba_marseille","lat":43.265585,"lon":5.372888,"is_reserved":false,"is_disabled":false,"rental_uris":{"android":"levelo://app?vid=328d21c0-a0b1-4982-9d62-2cd26c6ce009","ios":"levelo://app?vid=328d21c0-a0b1-4982-9d62-2cd26c6ce009"},"vehicle_type_id":"4","last_reported":1701378385,"current_range_meters":0,"station_id":"ce4bhg12rcd13ifvqf70","pricing_plan_id":"free"},{"bike_id":"c2b27acb-0e0a-48d2-8438-13e657c0153d","system_id":"levelo_inurba_marseille","lat":43.27545,"lon":5.40909,"is_reserved":false,"is_disabled":false,"rental_uris":{"android":"levelo://app?vid=c2b27acb-0e0a-48d2-8438-13e657c0153d","ios":"levelo://app?vid=c2b27acb-0e0a-48d2-8438-13e657c0153d"},"vehicle_type_id":"4","last_reported":1701378385,"current_range_meters":0,"station_id":"","pricing_plan_id":"free"},{"bike_id":"aa01e258-1091-43d5-8b89-fd25fa8df4dc","system_id":"levelo_inurba_marseille","lat":43.275405,"lon":5.409075,"is_reserved":false,"is_disabled":false,"rental_uris":{"android":"levelo://app?vid=aa01e258-1091-43d5-8b89-fd25fa8df4dc","ios":"levelo://app?vid=aa01e258-1091-43d5-8b89-fd25fa8df4dc"},"vehicle_type_id":"4","last_reported":1701378385,"current_range_meters":0,"station_id":"","pricing_plan_id":"free"},{"bike_id":"3276c39f-9e34-481d-af6b-43afbb461085","system_id":"levelo_inurba_marseille","lat":43.26786,"lon":5.3942,"is_reserved":false,"is_disabled":false,"rental_uris":{"android":"levelo://app?vid=3276c39f-9e34-481d-af6b-43afbb461085","ios":"levelo://app?vid=3276c39f-9e34-481d-af6b-43afbb461085"},"vehicle_type_id":"4","last_reported":1701378385,"current_range_meters":25600,"station_id":"ce4bhh12rcd13ifvqfg0","pricing_plan_id":"free"},{"bike_id":"84d99abe-0b2c-4fa8-95ef-c96081a29bf7","system_id":"levelo_inurba_marseille","lat":43.26781,"lon":5.39429,"is_reserved":false,"is_disabled":false,"rental_uris":{"android":"levelo://app?vid=84d99abe-0b2c-4fa8-95ef-c96081a29bf7","ios":"levelo://app?vid=84d99abe-0b2c-4fa8-95ef-c96081a29bf7"},"vehicle_type_id":"4","last_reported":1701378385,"current_range_meters":25600,"station_id":"ce4bhh12rcd13ifvqfg0","pricing_plan_id":"free"},{"bike_id":"8e8d349d-09ef-483a-8322-0fd5fbd7b38e","system_id":"levelo_inurba_marseille","lat":43.308051,"lon":5.43527,"is_reserved":false,"is_disabled":false,"rental_uris":{"android":"levelo://app?vid=8e8d349d-09ef-483a-8322-0fd5fbd7b38e","ios":"levelo://app?vid=8e8d349d-09ef-483a-8322-0fd5fbd7b38e"},"vehicle_type_id":"4","last_reported":1701378385,"current_range_meters":30400,"station_id":"ce4bhph2rcd13ifvqheg","pricing_plan_id":"free"},{"bike_id":"7ab63241-0bea-4919-80fc-6d8eef69395f","system_id":"levelo_inurba_marseille","lat":43.308051,"lon":5.43527,"is_reserved":false,"is_disabled":false,"rental_uris":{"android":"levelo://app?vid=7ab63241-0bea-4919-80fc-6d8eef69395f","ios":"levelo://app?vid=7ab63241-0bea-4919-80fc-6d8eef69395f"},"vehicle_type_id":"4","last_reported":1701378385,"current_range_meters":31200,"station_id":"ce4bhph2rcd13ifvqheg","pricing_plan_id":"free"},{"bike_id":"719c02bd-1790-4f94-90e8-fa4f1f270e9b","system_id":"levelo_inurba_marseille","lat":43.26946,"lon":5.40243,"is_reserved":false,"is_disabled":false,"rental_uris":{"android":"levelo://app?vid=719c02bd-1790-4f94-90e8-fa4f1f270e9b","ios":"levelo://app?vid=719c02bd-1790-4f94-90e8-fa4f1f270e9b"},"vehicle_type_id":"4","last_reported":1701378385,"current_range_meters":19200,"station_id":"cjm6bp8fraef2m0cb0m0","pricing_plan_id":"free"},{"bike_id":"5ebb2d7b-ba2b-495c-a2d9-41697a4d0463","system_id":"levelo_inurba_marseille","lat":43.2694,"lon":5.40247,"is_reserved":false,"is_disabled":false,"rental_uris":{"android":"levelo://app?vid=5ebb2d7b-ba2b-495c-a2d9-41697a4d0463","ios":"levelo://app?vid=5ebb2d7b-ba2b-495c-a2d9-41697a4d0463"},"vehicle_type_id":"4","last_reported":1701378385,"current_range_meters":17200,"station_id":"cjm6bp8fraef2m0cb0m0","pricing_plan_id":"free"},{"bike_id":"3319c67f-102f-4eb4-84ca-dc64d010af16","system_id":"levelo_inurba_marseille","lat":43.26943,"lon":5.40256,"is_reserved":false,"is_disabled":false,"rental_uris":{"android":"levelo://app?vid=3319c67f-102f-4eb4-84ca-dc64d010af16","ios":"levelo://app?vid=3319c67f-102f-4eb4-84ca-dc64d010af16"},"vehicle_type_id":"4","last_reported":1701378385,"current_range_meters":2000,"station_id":"cjm6bp8fraef2m0cb0m0","pricing_plan_id":"free"},{"bike_id":"486fbf4f-78ad-4c87-b2b2-adbed136e127","system_id":"levelo_inurba_marseille","lat":43.26943,"lon":5.402564,"is_reserved":false,"is_disabled":false,"rental_uris":{"android":"levelo://app?vid=486fbf4f-78ad-4c87-b2b2-adbed136e127","ios":"levelo://app?vid=486fbf4f-78ad-4c87-b2b2-adbed136e127"},"vehicle_type_id":"4","last_reported":1701378385,"current_range_meters":24400,"station_id":"cjm6bp8fraef2m0cb0m0","pricing_plan_id":"free"},{"bike_id":"1a8e0a3e-dcd5-4d14-9f86-3c42398a9123","system_id":"levelo_inurba_marseille","lat":43.26949,"lon":5.40262,"is_reserved":false,"is_disabled":false,"rental_uris":{"android":"levelo://app?vid=1a8e0a3e-dcd5-4d14-9f86-3c42398a9123","ios":"levelo://app?vid=1a8e0a3e-dcd5-4d14-9f86-3c42398a9123"},"vehicle_type_id":"4","last_reported":1701378385,"current_range_meters":6400,"station_id":"cjm6bp8fraef2m0cb0m0","pricing_plan_id":"free"},{"bike_id":"e7d5495c-6fc5-41ea-a37d-b62d2b40a526","system_id":"levelo_inurba_marseille","lat":43.26949,"lon":5.40262,"is_reserved":false,"is_disabled":false,"rental_uris":{"android":"levelo://app?vid=e7d5495c-6fc5-41ea-a37d-b62d2b40a526","ios":"levelo://app?vid=e7d5495c-6fc5-41ea-a37d-b62d2b40a526"},"vehicle_type_id":"4","last_reported":1701378385,"current_range_meters":1200,"station_id":"cjm6bp8fraef2m0cb0m0","pricing_plan_id":"free"},{"bike_id":"3293b13e-0e31-4992-8c4d-d0b69a339f17","system_id":"levelo_inurba_marseille","lat":43.26937,"lon":5.402566,"is_reserved":false,"is_disabled":false,"rental_uris":{"android":"levelo://app?vid=3293b13e-0e31-4992-8c4d-d0b69a339f17","ios":"levelo://app?vid=3293b13e-0e31-4992-8c4d-d0b69a339f17"},"vehicle_type_id":"4","last_reported":1701378385,"current_range_meters":6400,"station_id":"cjm6bp8fraef2m0cb0m0","pricing_plan_id":"free"},{"bike_id":"7fe6820a-06e6-42d8-9e38-8e0428267591","system_id":"levelo_inurba_marseille","lat":43.317104,"lon":5.436818,"is_reserved":false,"is_disabled":false,"rental_uris":{"android":"levelo://app?vid=7fe6820a-06e6-42d8-9e38-8e0428267591","ios":"levelo://app?vid=7fe6820a-06e6-42d8-9e38-8e0428267591"},"vehicle_type_id":"4","last_reported":1701378385,"current_range_meters":28000,"station_id":"ce4bhp92rcd13ifvqhcg","pricing_plan_id":"free"},{"bike_id":"6d50931a-5553-495d-be31-bbcf7bdad9de","system_id":"levelo_inurba_marseille","lat":43.317104,"lon":5.436818,"is_reserved":false,"is_disabled":false,"rental_uris":{"android":"levelo://app?vid=6d50931a-5553-495d-be31-bbcf7bdad9de","ios":"levelo://app?vid=6d50931a-5553-495d-be31-bbcf7bdad9de"},"vehicle_type_id":"4","last_reported":1701378385,"current_range_meters":31200,"station_id":"ce4bhp92rcd13ifvqhcg","pricing_plan_id":"free"},{"bike_id":"44d51874-045e-4906-a2f9-909193d67e63","system_id":"levelo_inurba_marseille","lat":43.317104,"lon":5.436818,"is_reserved":false,"is_disabled":false,"rental_uris":{"android":"levelo://app?vid=44d51874-045e-4906-a2f9-909193d67e63","ios":"levelo://app?vid=44d51874-045e-4906-a2f9-909193d67e63"},"vehicle_type_id":"4","last_reported":1701378385,"current_range_meters":27200,"station_id":"ce4bhp92rcd13ifvqhcg","pricing_plan_id":"free"},{"bike_id":"e24ba52a-2028-45be-9d72-9ab56dfb1f86","system_id":"levelo_inurba_marseille","lat":43.271913,"lon":5.410063,"is_reserved":false,"is_disabled":false,"rental_uris":{"android":"levelo://app?vid=e24ba52a-2028-45be-9d72-9ab56dfb1f86","ios":"levelo://app?vid=e24ba52a-2028-45be-9d72-9ab56dfb1f86"},"vehicle_type_id":"4","last_reported":1701378385,"current_range_meters":22000,"station_id":"ce4bhl12rcd13ifvqgf0","pricing_plan_id":"free"},{"bike_id":"7273224c-d24c-46bb-960b-6a215f54e2fc","system_id":"levelo_inurba_marseille","lat":43.271388,"lon":5.409269,"is_reserved":false,"is_disabled":false,"rental_uris":{"android":"levelo://app?vid=7273224c-d24c-46bb-960b-6a215f54e2fc","ios":"levelo://app?vid=7273224c-d24c-46bb-960b-6a215f54e2fc"},"vehicle_type_id":"4","last_reported":1701378385,"current_range_meters":29200,"station_id":"ce4bhl12rcd13ifvqgf0","pricing_plan_id":"free"},{"bike_id":"75f2ae6b-703a-490e-b6ba-da3e9e6bb305","system_id":"levelo_inurba_marseille","lat":43.27176,"lon":5.40994,"is_reserved":false,"is_disabled":false,"rental_uris":{"android":"levelo://app?vid=75f2ae6b-703a-490e-b6ba-da3e9e6bb305","ios":"levelo://app?vid=75f2ae6b-703a-490e-b6ba-da3e9e6bb305"},"vehicle_type_id":"4","last_reported":1701378385,"current_range_meters":20000,"station_id":"ce4bhl12rcd13ifvqgf0","pricing_plan_id":"free"},{"bike_id":"10c539a4-a499-4586-9718-9fd3d3f6ea17","system_id":"levelo_inurba_marseille","lat":43.262012,"lon":5.379307,"is_reserved":false,"is_disabled":false,"rental_uris":{"android":"levelo://app?vid=10c539a4-a499-4586-9718-9fd3d3f6ea17","ios":"levelo://app?vid=10c539a4-a499-4586-9718-9fd3d3f6ea17"},"vehicle_type_id":"4","last_reported":1701378385,"current_range_meters":28400,"station_id":"ce4bhjp2rcd13ifvqg90","pricing_plan_id":"free"},{"bike_id":"3094bdfb-ad05-41e3-914e-8a8b6804a207","system_id":"levelo_inurba_marseille","lat":43.271368,"lon":5.40928,"is_reserved":false,"is_disabled":false,"rental_uris":{"android":"levelo://app?vid=3094bdfb-ad05-41e3-914e-8a8b6804a207","ios":"levelo://app?vid=3094bdfb-ad05-41e3-914e-8a8b6804a207"},"vehicle_type_id":"4","last_reported":1701378385,"current_range_meters":27600,"station_id":"ce4bhl12rcd13ifvqgf0","pricing_plan_id":"free"},{"bike_id":"73390ec2-8a8a-4206-9ff9-140f46f66e78","system_id":"levelo_inurba_marseille","lat":43.267959,"lon":5.402685,"is_reserved":false,"is_disabled":false,"rental_uris":{"android":"levelo://app?vid=73390ec2-8a8a-4206-9ff9-140f46f66e78","ios":"levelo://app?vid=73390ec2-8a8a-4206-9ff9-140f46f66e78"},"vehicle_type_id":"4","last_reported":1701378385,"current_range_meters":14800,"station_id":"ce501612rcd8frsf0b60","pricing_plan_id":"free"},{"bike_id":"4fd558eb-d800-40cb-8081-2ca2f860245c","system_id":"levelo_inurba_marseille","lat":43.267959,"lon":5.402687,"is_reserved":false,"is_disabled":false,"rental_uris":{"android":"levelo://app?vid=4fd558eb-d800-40cb-8081-2ca2f860245c","ios":"levelo://app?vid=4fd558eb-d800-40cb-8081-2ca2f860245c"},"vehicle_type_id":"4","last_reported":1701378385,"current_range_meters":19200,"station_id":"ce501612rcd8frsf0b60","pricing_plan_id":"free"},{"bike_id":"fff46b81-ef8b-48f4-9de2-456578708b2c","system_id":"levelo_inurba_marseille","lat":43.267959,"lon":5.402685,"is_reserved":false,"is_disabled":false,"rental_uris":{"android":"levelo://app?vid=fff46b81-ef8b-48f4-9de2-456578708b2c","ios":"levelo://app?vid=fff46b81-ef8b-48f4-9de2-456578708b2c"},"vehicle_type_id":"4","last_reported":1701378385,"current_range_meters":22800,"station_id":"ce501612rcd8frsf0b60","pricing_plan_id":"free"},{"bike_id":"6e178954-be33-4260-89e5-9907a5d205b9","system_id":"levelo_inurba_marseille","lat":43.267959,"lon":5.402685,"is_reserved":false,"is_disabled":false,"rental_uris":{"android":"levelo://app?vid=6e178954-be33-4260-89e5-9907a5d205b9","ios":"levelo://app?vid=6e178954-be33-4260-89e5-9907a5d205b9"},"vehicle_type_id":"4","last_reported":1701378385,"current_range_meters":3600,"station_id":"ce501612rcd8frsf0b60","pricing_plan_id":"free"},{"bike_id":"8ca0c6ca-a7ce-4aa5-b688-877a71635599","system_id":"levelo_inurba_marseille","lat":43.267959,"lon":5.402685,"is_reserved":false,"is_disabled":false,"rental_uris":{"android":"levelo://app?vid=8ca0c6ca-a7ce-4aa5-b688-877a71635599","ios":"levelo://app?vid=8ca0c6ca-a7ce-4aa5-b688-877a71635599"},"vehicle_type_id":"4","last_reported":1701378385,"current_range_meters":0,"station_id":"ce501612rcd8frsf0b60","pricing_plan_id":"free"},{"bike_id":"1422fe54-c05d-40d5-8926-a4d3109d3181","system_id":"levelo_inurba_marseille","lat":43.267959,"lon":5.402685,"is_reserved":false,"is_disabled":false,"rental_uris":{"android":"levelo://app?vid=1422fe54-c05d-40d5-8926-a4d3109d3181","ios":"levelo://app?vid=1422fe54-c05d-40d5-8926-a4d3109d3181"},"vehicle_type_id":"4","last_reported":1701378385,"current_range_meters":4400,"station_id":"ce501612rcd8frsf0b60","pricing_plan_id":"free"},{"bike_id":"5212b522-476a-4042-b3fe-83d642e086ed","system_id":"levelo_inurba_marseille","lat":43.267959,"lon":5.402687,"is_reserved":false,"is_disabled":false,"rental_uris":{"android":"levelo://app?vid=5212b522-476a-4042-b3fe-83d642e086ed","ios":"levelo://app?vid=5212b522-476a-4042-b3fe-83d642e086ed"},"vehicle_type_id":"4","last_reported":1701378385,"current_range_meters":6800,"station_id":"ce501612rcd8frsf0b60","pricing_plan_id":"free"},{"bike_id":"b3f948c3-e841-4379-aca6-4cd3803a6a11","system_id":"levelo_inurba_marseille","lat":43.267959,"lon":5.402685,"is_reserved":false,"is_disabled":false,"rental_uris":{"android":"levelo://app?vid=b3f948c3-e841-4379-aca6-4cd3803a6a11","ios":"levelo://app?vid=b3f948c3-e841-4379-aca6-4cd3803a6a11"},"vehicle_type_id":"4","last_reported":1701378385,"current_range_meters":16800,"station_id":"ce501612rcd8frsf0b60","pricing_plan_id":"free"},{"bike_id":"8c0144d4-3ae3-46c6-91f5-f89e3a65f9c5","system_id":"levelo_inurba_marseille","lat":43.267959,"lon":5.402687,"is_reserved":false,"is_disabled":false,"rental_uris":{"android":"levelo://app?vid=8c0144d4-3ae3-46c6-91f5-f89e3a65f9c5","ios":"levelo://app?vid=8c0144d4-3ae3-46c6-91f5-f89e3a65f9c5"},"vehicle_type_id":"4","last_reported":1701378385,"current_range_meters":23600,"station_id":"ce501612rcd8frsf0b60","pricing_plan_id":"free"},{"bike_id":"6e705c4d-9fe3-4f02-bf5f-f05b8a0820b4","system_id":"levelo_inurba_marseille","lat":43.267959,"lon":5.402687,"is_reserved":false,"is_disabled":false,"rental_uris":{"android":"levelo://app?vid=6e705c4d-9fe3-4f02-bf5f-f05b8a0820b4","ios":"levelo://app?vid=6e705c4d-9fe3-4f02-bf5f-f05b8a0820b4"},"vehicle_type_id":"4","last_reported":1701378385,"current_range_meters":4800,"station_id":"ce501612rcd8frsf0b60","pricing_plan_id":"free"},{"bike_id":"67a84057-c975-45a1-8bfb-a936a4c9b8f5","system_id":"levelo_inurba_marseille","lat":43.267959,"lon":5.402687,"is_reserved":false,"is_disabled":false,"rental_uris":{"android":"levelo://app?vid=67a84057-c975-45a1-8bfb-a936a4c9b8f5","ios":"levelo://app?vid=67a84057-c975-45a1-8bfb-a936a4c9b8f5"},"vehicle_type_id":"4","last_reported":1701378385,"current_range_meters":24000,"station_id":"ce501612rcd8frsf0b60","pricing_plan_id":"free"},{"bike_id":"4e3d13ae-3f43-4865-af20-3ed4394d391d","system_id":"levelo_inurba_marseille","lat":43.298768,"lon":5.43643,"is_reserved":false,"is_disabled":false,"rental_uris":{"android":"levelo://app?vid=4e3d13ae-3f43-4865-af20-3ed4394d391d","ios":"levelo://app?vid=4e3d13ae-3f43-4865-af20-3ed4394d391d"},"vehicle_type_id":"4","last_reported":1701378385,"current_range_meters":28000,"station_id":"ce4bhpp2rcd13ifvqhfg","pricing_plan_id":"free"},{"bike_id":"3f2b1989-5b73-4cd5-aa40-2053eed33222","system_id":"levelo_inurba_marseille","lat":43.281548,"lon":5.42643,"is_reserved":false,"is_disabled":false,"rental_uris":{"android":"levelo://app?vid=3f2b1989-5b73-4cd5-aa40-2053eed33222","ios":"levelo://app?vid=3f2b1989-5b73-4cd5-aa40-2053eed33222"},"vehicle_type_id":"4","last_reported":1701378385,"current_range_meters":9600,"station_id":"ce4bhnh2rcd13ifvqgug","pricing_plan_id":"free"},{"bike_id":"3532a786-7312-4db1-88be-2e5e8a274941","system_id":"levelo_inurba_marseille","lat":43.281548,"lon":5.42643,"is_reserved":false,"is_disabled":false,"rental_uris":{"android":"levelo://app?vid=3532a786-7312-4db1-88be-2e5e8a274941","ios":"levelo://app?vid=3532a786-7312-4db1-88be-2e5e8a274941"},"vehicle_type_id":"4","last_reported":1701378385,"current_range_meters":12000,"station_id":"ce4bhnh2rcd13ifvqgug","pricing_plan_id":"free"},{"bike_id":"3e4fb47e-33e8-4ee2-bfc1-1bd948cfa529","system_id":"levelo_inurba_marseille","lat":43.281548,"lon":5.42643,"is_reserved":false,"is_disabled":false,"rental_uris":{"android":"levelo://app?vid=3e4fb47e-33e8-4ee2-bfc1-1bd948cfa529","ios":"levelo://app?vid=3e4fb47e-33e8-4ee2-bfc1-1bd948cfa529"},"vehicle_type_id":"4","last_reported":1701378385,"current_range_meters":28400,"station_id":"ce4bhnh2rcd13ifvqgug","pricing_plan_id":"free"},{"bike_id":"dbf57abf-b714-4688-8443-1b95bb0ea3d8","system_id":"levelo_inurba_marseille","lat":43.281533,"lon":5.426437,"is_reserved":false,"is_disabled":false,"rental_uris":{"android":"levelo://app?vid=dbf57abf-b714-4688-8443-1b95bb0ea3d8","ios":"levelo://app?vid=dbf57abf-b714-4688-8443-1b95bb0ea3d8"},"vehicle_type_id":"4","last_reported":1701378385,"current_range_meters":2400,"station_id":"ce4bhnh2rcd13ifvqgug","pricing_plan_id":"free"},{"bike_id":"c3be5e57-b7df-4b6f-84f6-e0b7439e5774","system_id":"levelo_inurba_marseille","lat":43.27497,"lon":5.42437,"is_reserved":false,"is_disabled":false,"rental_uris":{"android":"levelo://app?vid=c3be5e57-b7df-4b6f-84f6-e0b7439e5774","ios":"levelo://app?vid=c3be5e57-b7df-4b6f-84f6-e0b7439e5774"},"vehicle_type_id":"4","last_reported":1701378385,"current_range_meters":29600,"station_id":"ce4bhn92rcd13ifvqgrg","pricing_plan_id":"free"},{"bike_id":"2439b834-5f68-4270-bc56-f53ff23adca1","system_id":"levelo_inurba_marseille","lat":43.27493,"lon":5.42437,"is_reserved":false,"is_disabled":false,"rental_uris":{"android":"levelo://app?vid=2439b834-5f68-4270-bc56-f53ff23adca1","ios":"levelo://app?vid=2439b834-5f68-4270-bc56-f53ff23adca1"},"vehicle_type_id":"4","last_reported":1701378385,"current_range_meters":20000,"station_id":"ce4bhn92rcd13ifvqgrg","pricing_plan_id":"free"},{"bike_id":"e81a91c7-d391-46fd-b9dd-02d40900cd35","system_id":"levelo_inurba_marseille","lat":43.255756,"lon":5.382303,"is_reserved":false,"is_disabled":false,"rental_uris":{"android":"levelo://app?vid=e81a91c7-d391-46fd-b9dd-02d40900cd35","ios":"levelo://app?vid=e81a91c7-d391-46fd-b9dd-02d40900cd35"},"vehicle_type_id":"4","last_reported":1701378385,"current_range_meters":800,"station_id":"ce4bhih2rcd13ifvqfs0","pricing_plan_id":"free"},{"bike_id":"0a7dacce-e3fa-4a60-9482-fd6285b741a1","system_id":"levelo_inurba_marseille","lat":43.270721,"lon":5.422764,"is_reserved":false,"is_disabled":false,"rental_uris":{"android":"levelo://app?vid=0a7dacce-e3fa-4a60-9482-fd6285b741a1","ios":"levelo://app?vid=0a7dacce-e3fa-4a60-9482-fd6285b741a1"},"vehicle_type_id":"4","last_reported":1701378385,"current_range_meters":9200,"station_id":"ce4bhk92rcd13ifvqgb0","pricing_plan_id":"free"},{"bike_id":"2c794cda-e1ba-4030-acff-649085b058d6","system_id":"levelo_inurba_marseille","lat":43.270721,"lon":5.422764,"is_reserved":false,"is_disabled":false,"rental_uris":{"android":"levelo://app?vid=2c794cda-e1ba-4030-acff-649085b058d6","ios":"levelo://app?vid=2c794cda-e1ba-4030-acff-649085b058d6"},"vehicle_type_id":"4","last_reported":1701378385,"current_range_meters":21600,"station_id":"ce4bhk92rcd13ifvqgb0","pricing_plan_id":"free"},{"bike_id":"c31d6f97-d623-4262-9b94-0580c155f5d1","system_id":"levelo_inurba_marseille","lat":43.27067,"lon":5.42273,"is_reserved":false,"is_disabled":false,"rental_uris":{"android":"levelo://app?vid=c31d6f97-d623-4262-9b94-0580c155f5d1","ios":"levelo://app?vid=c31d6f97-d623-4262-9b94-0580c155f5d1"},"vehicle_type_id":"4","last_reported":1701378385,"current_range_meters":10400,"station_id":"ce4bhk92rcd13ifvqgb0","pricing_plan_id":"free"},{"bike_id":"fac0e422-c37f-421d-8e1b-a25ffb37ce17","system_id":"levelo_inurba_marseille","lat":43.270721,"lon":5.422764,"is_reserved":false,"is_disabled":false,"rental_uris":{"android":"levelo://app?vid=fac0e422-c37f-421d-8e1b-a25ffb37ce17","ios":"levelo://app?vid=fac0e422-c37f-421d-8e1b-a25ffb37ce17"},"vehicle_type_id":"4","last_reported":1701378385,"current_range_meters":27600,"station_id":"ce4bhk92rcd13ifvqgb0","pricing_plan_id":"free"},{"bike_id":"39a41fc6-fb12-4304-b9bd-c12fd73ba948","system_id":"levelo_inurba_marseille","lat":43.270721,"lon":5.422764,"is_reserved":false,"is_disabled":false,"rental_uris":{"android":"levelo://app?vid=39a41fc6-fb12-4304-b9bd-c12fd73ba948","ios":"levelo://app?vid=39a41fc6-fb12-4304-b9bd-c12fd73ba948"},"vehicle_type_id":"4","last_reported":1701378385,"current_range_meters":30800,"station_id":"ce4bhk92rcd13ifvqgb0","pricing_plan_id":"free"},{"bike_id":"d28c2101-138c-4829-a4d2-de1aa91912ed","system_id":"levelo_inurba_marseille","lat":43.270721,"lon":5.422764,"is_reserved":false,"is_disabled":false,"rental_uris":{"android":"levelo://app?vid=d28c2101-138c-4829-a4d2-de1aa91912ed","ios":"levelo://app?vid=d28c2101-138c-4829-a4d2-de1aa91912ed"},"vehicle_type_id":"4","last_reported":1701378385,"current_range_meters":12800,"station_id":"ce4bhk92rcd13ifvqgb0","pricing_plan_id":"free"},{"bike_id":"3e791518-6a1f-48bd-85bd-5577087a2ba1","system_id":"levelo_inurba_marseille","lat":43.258658,"lon":5.398935,"is_reserved":false,"is_disabled":false,"rental_uris":{"android":"levelo://app?vid=3e791518-6a1f-48bd-85bd-5577087a2ba1","ios":"levelo://app?vid=3e791518-6a1f-48bd-85bd-5577087a2ba1"},"vehicle_type_id":"4","last_reported":1701378385,"current_range_meters":6000,"station_id":"ce4bhl92rcd13ifvqghg","pricing_plan_id":"free"},{"bike_id":"88e62de7-5a9b-449b-b14d-7bff7e29086b","system_id":"levelo_inurba_marseille","lat":43.258658,"lon":5.398935,"is_reserved":false,"is_disabled":false,"rental_uris":{"android":"levelo://app?vid=88e62de7-5a9b-449b-b14d-7bff7e29086b","ios":"levelo://app?vid=88e62de7-5a9b-449b-b14d-7bff7e29086b"},"vehicle_type_id":"4","last_reported":1701378385,"current_range_meters":21600,"station_id":"ce4bhl92rcd13ifvqghg","pricing_plan_id":"free"},{"bike_id":"cb0999ac-8ab2-44a1-8dbe-18c580402568","system_id":"levelo_inurba_marseille","lat":43.258658,"lon":5.398935,"is_reserved":false,"is_disabled":false,"rental_uris":{"android":"levelo://app?vid=cb0999ac-8ab2-44a1-8dbe-18c580402568","ios":"levelo://app?vid=cb0999ac-8ab2-44a1-8dbe-18c580402568"},"vehicle_type_id":"4","last_reported":1701378385,"current_range_meters":30000,"station_id":"ce4bhl92rcd13ifvqghg","pricing_plan_id":"free"},{"bike_id":"9a98f69b-0661-4a9f-a960-364046df64c8","system_id":"levelo_inurba_marseille","lat":43.258658,"lon":5.398935,"is_reserved":false,"is_disabled":false,"rental_uris":{"android":"levelo://app?vid=9a98f69b-0661-4a9f-a960-364046df64c8","ios":"levelo://app?vid=9a98f69b-0661-4a9f-a960-364046df64c8"},"vehicle_type_id":"4","last_reported":1701378385,"current_range_meters":31600,"station_id":"ce4bhl92rcd13ifvqghg","pricing_plan_id":"free"},{"bike_id":"6e725561-fb5c-47c5-a23a-c7ba259de05e","system_id":"levelo_inurba_marseille","lat":43.25931,"lon":5.409027,"is_reserved":false,"is_disabled":false,"rental_uris":{"android":"levelo://app?vid=6e725561-fb5c-47c5-a23a-c7ba259de05e","ios":"levelo://app?vid=6e725561-fb5c-47c5-a23a-c7ba259de05e"},"vehicle_type_id":"4","last_reported":1701378385,"current_range_meters":5200,"station_id":"ce4bhm92rcd13ifvqglg","pricing_plan_id":"free"},{"bike_id":"2803d510-c937-4d3e-8827-ebf9df44d558","system_id":"levelo_inurba_marseille","lat":43.257079,"lon":5.411051,"is_reserved":false,"is_disabled":false,"rental_uris":{"android":"levelo://app?vid=2803d510-c937-4d3e-8827-ebf9df44d558","ios":"levelo://app?vid=2803d510-c937-4d3e-8827-ebf9df44d558"},"vehicle_type_id":"4","last_reported":1701378385,"current_range_meters":30800,"station_id":"ce4bhkp2rcd13ifvqgd0","pricing_plan_id":"free"},{"bike_id":"c623af1c-6e67-43af-a253-e9ce06d48351","system_id":"levelo_inurba_marseille","lat":43.250009,"lon":5.389195,"is_reserved":false,"is_disabled":false,"rental_uris":{"android":"levelo://app?vid=c623af1c-6e67-43af-a253-e9ce06d48351","ios":"levelo://app?vid=c623af1c-6e67-43af-a253-e9ce06d48351"},"vehicle_type_id":"4","last_reported":1701378385,"current_range_meters":29200,"station_id":"ce4bhgp2rcd13ifvqfd0","pricing_plan_id":"free"},{"bike_id":"ce92fad5-db92-45e2-9fd5-07b92c8faaa1","system_id":"levelo_inurba_marseille","lat":43.250009,"lon":5.389195,"is_reserved":false,"is_disabled":false,"rental_uris":{"android":"levelo://app?vid=ce92fad5-db92-45e2-9fd5-07b92c8faaa1","ios":"levelo://app?vid=ce92fad5-db92-45e2-9fd5-07b92c8faaa1"},"vehicle_type_id":"4","last_reported":1701378385,"current_range_meters":30000,"station_id":"ce4bhgp2rcd13ifvqfd0","pricing_plan_id":"free"},{"bike_id":"f345f034-33dc-4dad-aa5b-253e1b17ca25","system_id":"levelo_inurba_marseille","lat":43.250009,"lon":5.389195,"is_reserved":false,"is_disabled":false,"rental_uris":{"android":"levelo://app?vid=f345f034-33dc-4dad-aa5b-253e1b17ca25","ios":"levelo://app?vid=f345f034-33dc-4dad-aa5b-253e1b17ca25"},"vehicle_type_id":"4","last_reported":1701378385,"current_range_meters":30800,"station_id":"ce4bhgp2rcd13ifvqfd0","pricing_plan_id":"free"},{"bike_id":"a9da35ff-0406-49b8-9fdd-79df124c9328","system_id":"levelo_inurba_marseille","lat":43.2479,"lon":5.374457,"is_reserved":false,"is_disabled":false,"rental_uris":{"android":"levelo://app?vid=a9da35ff-0406-49b8-9fdd-79df124c9328","ios":"levelo://app?vid=a9da35ff-0406-49b8-9fdd-79df124c9328"},"vehicle_type_id":"4","last_reported":1701378385,"current_range_meters":10800,"station_id":"ce4bhgh2rcd13ifvqfb0","pricing_plan_id":"free"},{"bike_id":"e579f380-e6f0-430a-9715-3331fd3030fe","system_id":"levelo_inurba_marseille","lat":43.2479,"lon":5.374457,"is_reserved":false,"is_disabled":false,"rental_uris":{"android":"levelo://app?vid=e579f380-e6f0-430a-9715-3331fd3030fe","ios":"levelo://app?vid=e579f380-e6f0-430a-9715-3331fd3030fe"},"vehicle_type_id":"4","last_reported":1701378385,"current_range_meters":31200,"station_id":"ce4bhgh2rcd13ifvqfb0","pricing_plan_id":"free"},{"bike_id":"db6dd1e0-85ec-46e8-8d65-044233dc4acf","system_id":"levelo_inurba_marseille","lat":43.28115,"lon":5.44593,"is_reserved":false,"is_disabled":false,"rental_uris":{"android":"levelo://app?vid=db6dd1e0-85ec-46e8-8d65-044233dc4acf","ios":"levelo://app?vid=db6dd1e0-85ec-46e8-8d65-044233dc4acf"},