{"last_updated":1753009704,"ttl":60,"version":"2.2","data":{"bikes":[{"bike_id":"53b742a7-31ae-4272-9bba-7740339e2a2f","system_id":"levelo_inurba_marseille","lat":43.33747,"lon":5.37463,"is_reserved":false,"is_disabled":false,"rental_uris":{"android":"levelo://app?vid=53b742a7-31ae-4272-9bba-7740339e2a2f","ios":"levelo://app?vid=53b742a7-31ae-4272-9bba-7740339e2a2f"},"vehicle_type_id":"1","last_reported":1753009705,"current_range_meters":11200,"station_id":"","pricing_plan_id":"cebpf4jnsgd1na2vs0mg"},{"bike_id":"31b5aeb1-cb4d-4e04-a667-58080f70a32f","system_id":"levelo_inurba_marseille","lat":43.23157,"lon":5.43727,"is_reserved":false,"is_disabled":false,"rental_uris":{"android":"levelo://app?vid=31b5aeb1-cb4d-4e04-a667-58080f70a32f","ios":"levelo://app?vid=31b5aeb1-cb4d-4e04-a667-58080f70a32f"},"vehicle_type_id":"4","last_reported":1753009705,"current_range_meters":2800,"station_id":"ce4bhmp2rcd13ifvqgog","pricing_plan_id":"cebpf4jnsgd1na2vs0mg"},{"bike_id":"da891840-0cec-4ccc-961c-48903736c6fa","system_id":"levelo_inurba_marseille","lat":43.31139,"lon":5.37692,"is_reserved":false,"is_disabled":true,"rental_uris":{"android":"levelo://app?vid=da891840-0cec-4ccc-961c-48903736c6fa","ios":"levelo://app?vid=da891840-0cec-4ccc-961c-48903736c6fa"},"vehicle_type_id":"4","last_reported":1753009705,"current_range_meters":2800,"station_id":"","pricing_plan_id":"cebpf4jnsgd1na2vs0mg"},{"bike_id":"6416d34b-de71-4476-aee9-7832812a0721","system_id":"levelo_inurba_marseille","lat":43.29365,"lon":5.37828,"is_reserved":false,"is_disabled":false,"rental_uris":{"android":"levelo://app?vid=6416d34b-de71-4476-aee9-7832812a0721","ios":"levelo://app?vid=6416d34b-de71-4476-aee9-7832812a0721"},"vehicle_type_id":"4","last_reported":1753009705,"current_range_meters":2800,"station_id":"ce4bgjh2rcd13ifvqbf0","pricing_plan_id":"cebpf4jnsgd1na2vs0mg"},{"bike_id":"c090550e-4570-46fa-a4db-ccf7e16ae90b","system_id":"levelo_inurba_marseille","lat":43.2655,"lon":5.37298,"is_reserved":false,"is_disabled":true,"rental_uris":{"android":"levelo://app?vid=c090550e-4570-46fa-a4db-ccf7e16ae90b","ios":"levelo://app?vid=c090550e-4570-46fa-a4db-ccf7e16ae90b"},"vehicle_type_id":"4","last_reported":1753009705,"current_range_meters":2800,"station_id":"ce4bhg12rcd13ifvqf70","pricing_plan_id":"cebpf4jnsgd1na2vs0mg"},{"bike_id":"12957499-c3c8-4e9e-9181-2a2087409d90","system_id":"levelo_inurba_marseille","lat":43.284856,"lon":5.384281,"is_reserved":false,"is_disabled":true,"rental_uris":{"android":"levelo://app?vid=12957499-c3c8-4e9e-9181-2a2087409d90","ios":"levelo://app?vid=12957499-c3c8-4e9e-9181-2a2087409d90"},"vehicle_type_id":"4","last_reported":1753009705,"current_range_meters":2800,"station_id":"","pricing_plan_id":"cebpf4jnsgd1na2vs0mg"},{"bike_id":"415ff839-3eb5-42b6-8141-99c745448c01","system_id":"levelo_inurba_marseille","lat":43.265748,"lon":5.387097,"is_reserved":false,"is_disabled":true,"rental_uris":{"android":"levelo://app?vid=415ff839-3eb5-42b6-8141-99c745448c01","ios":"levelo://app?vid=415ff839-3eb5-42b6-8141-99c745448c01"},"vehicle_type_id":"4","last_reported":1753009705,"current_range_meters":2800,"station_id":"","pricing_plan_id":"cebpf4jnsgd1na2vs0mg"},{"bike_id":"bebe1450-b301-4f53-95e4-f8eb9f50ffdf","system_id":"levelo_inurba_marseille","lat":43.33581,"lon":5.40972,"is_reserved":false,"is_disabled":false,"rental_uris":{"android":"levelo://app?vid=bebe1450-b301-4f53-95e4-f8eb9f50ffdf","ios":"levelo://app?vid=bebe1450-b301-4f53-95e4-f8eb9f50ffdf"},"vehicle_type_id":"4","last_reported":1753009705,"current_range_meters":3200,"station_id":"","pricing_plan_id":"cebpf4jnsgd1na2vs0mg"},{"bike_id":"73b5a010-2dee-4810-95ad-cdea0109a98a","system_id":"levelo_inurba_marseille","lat":43.30599,"lon":5.37224,"is_reserved":false,"is_disabled":false,"rental_uris":{"android":"levelo://app?vid=73b5a010-2dee-4810-95ad-cdea0109a98a","ios":"levelo://app?vid=73b5a010-2dee-4810-95ad-cdea0109a98a"},"vehicle_type_id":"4","last_reported":1753009705,"current_range_meters":2800,"station_id":"ce4bgqh2rcd13ifvqc4g","pricing_plan_id":"cebpf4jnsgd1na2vs0mg"},{"bike_id":"ce7bd25b-5213-4881-a28b-f582e6a1d712","system_id":"levelo_inurba_marseille","lat":43.31365,"lon":5.36731,"is_reserved":false,"is_disabled":true,"rental_uris":{"android":"levelo://app?vid=ce7bd25b-5213-4881-a28b-f582e6a1d712","ios":"levelo://app?vid=ce7bd25b-5213-4881-a28b-f582e6a1d712"},"vehicle_type_id":"4","last_reported":1753009705,"current_range_meters":3600,"station_id":"ce4bgr92rcd13ifvqc6g","pricing_plan_id":"cebpf4jnsgd1na2vs0mg"},{"bike_id":"8a8de0eb-d172-4378-9552-544c6cc04c48","system_id":"levelo_inurba_marseille","lat":43.24522,"lon":5.36933,"is_reserved":false,"is_disabled":false,"rental_uris":{"android":"levelo://app?vid=8a8de0eb-d172-4378-9552-544c6cc04c48","ios":"levelo://app?vid=8a8de0eb-d172-4378-9552-544c6cc04c48"},"vehicle_type_id":"4","last_reported":1753009705,"current_range_meters":3600,"station_id":"","pricing_plan_id":"cebpf4jnsgd1na2vs0mg"},{"bike_id":"cdfb21fb-d8a4-490f-bef3-09ee4f5a9bef","system_id":"levelo_inurba_marseille","lat":43.28927,"lon":5.38395,"is_reserved":false,"is_disabled":false,"rental_uris":{"android":"levelo://app?vid=cdfb21fb-d8a4-490f-bef3-09ee4f5a9bef","ios":"levelo://app?vid=cdfb21fb-d8a4-490f-bef3-09ee4f5a9bef"},"vehicle_type_id":"4","last_reported":1753009705,"current_range_meters":4000,"station_id":"ce4bh612rcd13ifvqe6g","pricing_plan_id":"cebpf4jnsgd1na2vs0mg"},{"bike_id":"8b13ba0a-442c-4cdf-84d5-3a8a586dcfa9","system_id":"levelo_inurba_marseille","lat":43.27453,"lon":5.36083,"is_reserved":false,"is_disabled":false,"rental_uris":{"android":"levelo://app?vid=8b13ba0a-442c-4cdf-84d5-3a8a586dcfa9","ios":"levelo://app?vid=8b13ba0a-442c-4cdf-84d5-3a8a586dcfa9"},"vehicle_type_id":"4","last_reported":1753009705,"current_range_meters":4400,"station_id":"","pricing_plan_id":"cebpf4jnsgd1na2vs0mg"},{"bike_id":"2cb23c8d-7f0c-4a46-8074-ff3e46e2ba31","system_id":"levelo_inurba_marseille","lat":43.28262,"lon":5.35062,"is_reserved":false,"is_disabled":false,"rental_uris":{"android":"levelo://app?vid=2cb23c8d-7f0c-4a46-8074-ff3e46e2ba31","ios":"levelo://app?vid=2cb23c8d-7f0c-4a46-8074-ff3e46e2ba31"},"vehicle_type_id":"4","last_reported":1753009705,"current_range_meters":4800,"station_id":"ce4bhbp2rcd13ifvqerg","pricing_plan_id":"cebpf4jnsgd1na2vs0mg"},{"bike_id":"8c750c98-f094-4934-a06e-c6fec6a1cfad","system_id":"levelo_inurba_marseille","lat":43.28278,"lon":5.35072,"is_reserved":false,"is_disabled":false,"rental_uris":{"android":"levelo://app?vid=8c750c98-f094-4934-a06e-c6fec6a1cfad","ios":"levelo://app?vid=8c750c98-f094-4934-a06e-c6fec6a1cfad"},"vehicle_type_id":"4","last_reported":1753009705,"current_range_meters":4800,"station_id":"ce4bhbp2rcd13ifvqerg","pricing_plan_id":"cebpf4jnsgd1na2vs0mg"},{"bike_id":"f63dc185-f55d-4136-9b57-9b3e7cceee48","system_id":"levelo_inurba_marseille","lat":43.28933,"lon":5.39629,"is_reserved":false,"is_disabled":false,"rental_uris":{"android":"levelo://app?vid=f63dc185-f55d-4136-9b57-9b3e7cceee48","ios":"levelo://app?vid=f63dc185-f55d-4136-9b57-9b3e7cceee48"},"vehicle_type_id":"4","last_reported":1753009705,"current_range_meters":4800,"station_id":"ce4bh3h2rcd13ifvqdn0","pricing_plan_id":"cebpf4jnsgd1na2vs0mg"},{"bike_id":"2e532954-91d6-45d0-820d-bd93ef877e83","system_id":"levelo_inurba_marseille","lat":43.303243,"lon":5.394574,"is_reserved":false,"is_disabled":true,"rental_uris":{"android":"levelo://app?vid=2e532954-91d6-45d0-820d-bd93ef877e83","ios":"levelo://app?vid=2e532954-91d6-45d0-820d-bd93ef877e83"},"vehicle_type_id":"4","last_reported":1753009705,"current_range_meters":4800,"station_id":"","pricing_plan_id":"cebpf4jnsgd1na2vs0mg"},{"bike_id":"c6db0f6a-96fe-4e1d-8ded-c2ef38c9bab4","system_id":"levelo_inurba_marseille","lat":43.305688,"lon":5.418387,"is_reserved":false,"is_disabled":true,"rental_uris":{"android":"levelo://app?vid=c6db0f6a-96fe-4e1d-8ded-c2ef38c9bab4","ios":"levelo://app?vid=c6db0f6a-96fe-4e1d-8ded-c2ef38c9bab4"},"vehicle_type_id":"4","last_reported":1753009705,"current_range_meters":5600,"station_id":"ce4bht12rcd13ifvqi60","pricing_plan_id":"cebpf4jnsgd1na2vs0mg"},{"bike_id":"43c95147-79d6-4625-a47a-cd932f49e8ac","system_id":"levelo_inurba_marseille","lat":43.286608,"lon":5.36344,"is_reserved":false,"is_disabled":false,"rental_uris":{"android":"levelo://app?vid=43c95147-79d6-4625-a47a-cd932f49e8ac","ios":"levelo://app?vid=43c95147-79d6-4625-a47a-cd932f49e8ac"},"vehicle_type_id":"4","last_reported":1753009705,"current_range_meters":6000,"station_id":"ce4bhah2rcd13ifvqej0","pricing_plan_id":"cebpf4jnsgd1na2vs0mg"},{"bike_id":"00f09ea8-0a6e-4665-939e-785104414331","system_id":"levelo_inurba_marseille","lat":43.29966,"lon":5.38486,"is_reserved":false,"is_disabled":false,"rental_uris":{"android":"levelo://app?vid=00f09ea8-0a6e-4665-939e-785104414331","ios":"levelo://app?vid=00f09ea8-0a6e-4665-939e-785104414331"},"vehicle_type_id":"4","last_reported":1753009705,"current_range_meters":6000,"station_id":"ce4bgj92rcd13ifvqbd0","pricing_plan_id":"cebpf4jnsgd1na2vs0mg"},{"bike_id":"6919ffef-c495-4917-a554-896a3b3c492c","system_id":"levelo_inurba_marseille","lat":43.32369,"lon":5.36766,"is_reserved":false,"is_disabled":false,"rental_uris":{"android":"levelo://app?vid=6919ffef-c495-4917-a554-896a3b3c492c","ios":"levelo://app?vid=6919ffef-c495-4917-a554-896a3b3c492c"},"vehicle_type_id":"4","last_reported":1753009705,"current_range_meters":6800,"station_id":"ce4bhsh2rcd13ifvqi2g","pricing_plan_id":"cebpf4jnsgd1na2vs0mg"},{"bike_id":"84c50738-13a8-4e9c-af94-352c10132675","system_id":"levelo_inurba_marseille","lat":43.26793,"lon":5.39433,"is_reserved":false,"is_disabled":false,"rental_uris":{"android":"levelo://app?vid=84c50738-13a8-4e9c-af94-352c10132675","ios":"levelo://app?vid=84c50738-13a8-4e9c-af94-352c10132675"},"vehicle_type_id":"4","last_reported":1753009705,"current_range_meters":6400,"station_id":"ce4bhh12rcd13ifvqfg0","pricing_plan_id":"cebpf4jnsgd1na2vs0mg"},{"bike_id":"dcd0640c-f5c8-42c4-9a5b-8bcba657c1e7","system_id":"levelo_inurba_marseille","lat":43.29422,"lon":5.38586,"is_reserved":false,"is_disabled":false,"rental_uris":{"android":"levelo://app?vid=dcd0640c-f5c8-42c4-9a5b-8bcba657c1e7","ios":"levelo://app?vid=dcd0640c-f5c8-42c4-9a5b-8bcba657c1e7"},"vehicle_type_id":"4","last_reported":1753009705,"current_range_meters":7200,"station_id":"ce4bh2h2rcd13ifvqdh0","pricing_plan_id":"cebpf4jnsgd1na2vs0mg"},{"bike_id":"aee76189-ab2c-4cbb-a955-c4d9c0b5b8fb","system_id":"levelo_inurba_marseille","lat":43.32745,"lon":5.40921,"is_reserved":false,"is_disabled":false,"rental_uris":{"android":"levelo://app?vid=aee76189-ab2c-4cbb-a955-c4d9c0b5b8fb","ios":"levelo://app?vid=aee76189-ab2c-4cbb-a955-c4d9c0b5b8fb"},"vehicle_type_id":"4","last_reported":1753009705,"current_range_meters":7200,"station_id":"","pricing_plan_id":"cebpf4jnsgd1na2vs0mg"},{"bike_id":"2d5426b7-c5ef-4761-9a4a-28e19dac621a","system_id":"levelo_inurba_marseille","lat":43.304188,"lon":5.412774,"is_reserved":false,"is_disabled":true,"rental_uris":{"android":"levelo://app?vid=2d5426b7-c5ef-4761-9a4a-28e19dac621a","ios":"levelo://app?vid=2d5426b7-c5ef-4761-9a4a-28e19dac621a"},"vehicle_type_id":"4","last_reported":1753009705,"current_range_meters":7200,"station_id":"ce4bhop2rcd13ifvqh8g","pricing_plan_id":"cebpf4jnsgd1na2vs0mg"},{"bike_id":"11a43a3e-2d75-4df3-ba59-43e1875d5f3e","system_id":"levelo_inurba_marseille","lat":43.241756,"lon":5.364154,"is_reserved":false,"is_disabled":true,"rental_uris":{"android":"levelo://app?vid=11a43a3e-2d75-4df3-ba59-43e1875d5f3e","ios":"levelo://app?vid=11a43a3e-2d75-4df3-ba59-43e1875d5f3e"},"vehicle_type_id":"4","last_reported":1753009705,"current_range_meters":7200,"station_id":"cpo36qri1sfpv3e86is0","pricing_plan_id":"cebpf4jnsgd1na2vs0mg"},{"bike_id":"ec32d022-e872-49b5-bd4f-54d6f32b82ae","system_id":"levelo_inurba_marseille","lat":43.311174,"lon":5.377747,"is_reserved":false,"is_disabled":false,"rental_uris":{"android":"levelo://app?vid=ec32d022-e872-49b5-bd4f-54d6f32b82ae","ios":"levelo://app?vid=ec32d022-e872-49b5-bd4f-54d6f32b82ae"},"vehicle_type_id":"4","last_reported":1753009705,"current_range_meters":7200,"station_id":"","pricing_plan_id":"cebpf4jnsgd1na2vs0mg"},{"bike_id":"6f18ab1b-0c74-47b1-bed8-837677176207","system_id":"levelo_inurba_marseille","lat":43.32106,"lon":5.40906,"is_reserved":false,"is_disabled":false,"rental_uris":{"android":"levelo://app?vid=6f18ab1b-0c74-47b1-bed8-837677176207","ios":"levelo://app?vid=6f18ab1b-0c74-47b1-bed8-837677176207"},"vehicle_type_id":"4","last_reported":1753009705,"current_range_meters":7200,"station_id":"","pricing_plan_id":"cebpf4jnsgd1na2vs0mg"},{"bike_id":"e917572a-f7a5-4223-973f-b7d57af8b2ce","system_id":"levelo_inurba_marseille","lat":43.21191,"lon":5.35071,"is_reserved":false,"is_disabled":false,"rental_uris":{"android":"levelo://app?vid=e917572a-f7a5-4223-973f-b7d57af8b2ce","ios":"levelo://app?vid=e917572a-f7a5-4223-973f-b7d57af8b2ce"},"vehicle_type_id":"4","last_reported":1753009705,"current_range_meters":8000,"station_id":"st_cvj6sg6p6f1abm77japg","pricing_plan_id":"cebpf4jnsgd1na2vs0mg"},{"bike_id":"6acf6616-5bc2-413d-b8a9-de0cef45b2d4","system_id":"levelo_inurba_marseille","lat":43.24807,"lon":5.37456,"is_reserved":false,"is_disabled":true,"rental_uris":{"android":"levelo://app?vid=6acf6616-5bc2-413d-b8a9-de0cef45b2d4","ios":"levelo://app?vid=6acf6616-5bc2-413d-b8a9-de0cef45b2d4"},"vehicle_type_id":"4","last_reported":1753009705,"current_range_meters":8000,"station_id":"ce4bhgh2rcd13ifvqfb0","pricing_plan_id":"cebpf4jnsgd1na2vs0mg"},{"bike_id":"475b9799-8c28-49d7-a2bd-b989a871d401","system_id":"levelo_inurba_marseille","lat":43.240742,"lon":5.377536,"is_reserved":false,"is_disabled":true,"rental_uris":{"android":"levelo://app?vid=475b9799-8c28-49d7-a2bd-b989a871d401","ios":"levelo://app?vid=475b9799-8c28-49d7-a2bd-b989a871d401"},"vehicle_type_id":"4","last_reported":1753009705,"current_range_meters":8400,"station_id":"ce4bhnp2rcd13ifvqgvg","pricing_plan_id":"cebpf4jnsgd1na2vs0mg"},{"bike_id":"8d590dba-9871-4ea4-bf5c-7a0545a88075","system_id":"levelo_inurba_marseille","lat":43.25914,"lon":5.40849,"is_reserved":false,"is_disabled":false,"rental_uris":{"android":"levelo://app?vid=8d590dba-9871-4ea4-bf5c-7a0545a88075","ios":"levelo://app?vid=8d590dba-9871-4ea4-bf5c-7a0545a88075"},"vehicle_type_id":"4","last_reported":1753009705,"current_range_meters":8400,"station_id":"ce4bhm92rcd13ifvqglg","pricing_plan_id":"cebpf4jnsgd1na2vs0mg"},{"bike_id":"169248a3-cde9-4071-9264-00cf9e30c46e","system_id":"levelo_inurba_marseille","lat":43.3294,"lon":5.37978,"is_reserved":false,"is_disabled":false,"rental_uris":{"android":"levelo://app?vid=169248a3-cde9-4071-9264-00cf9e30c46e","ios":"levelo://app?vid=169248a3-cde9-4071-9264-00cf9e30c46e"},"vehicle_type_id":"4","last_reported":1753009705,"current_range_meters":8400,"station_id":"","pricing_plan_id":"cebpf4jnsgd1na2vs0mg"},{"bike_id":"d9be5359-7b85-4bf3-b5e0-4aeb1baec441","system_id":"levelo_inurba_marseille","lat":43.25907,"lon":5.40854,"is_reserved":false,"is_disabled":false,"rental_uris":{"android":"levelo://app?vid=d9be5359-7b85-4bf3-b5e0-4aeb1baec441","ios":"levelo://app?vid=d9be5359-7b85-4bf3-b5e0-4aeb1baec441"},"vehicle_type_id":"4","last_reported":1753009705,"current_range_meters":8400,"station_id":"ce4bhm92rcd13ifvqglg","pricing_plan_id":"cebpf4jnsgd1na2vs0mg"},{"bike_id":"bb5fbe16-dabe-4ab0-a585-5067c1687587","system_id":"levelo_inurba_marseille","lat":43.31724,"lon":5.40469,"is_reserved":false,"is_disabled":false,"rental_uris":{"android":"levelo://app?vid=bb5fbe16-dabe-4ab0-a585-5067c1687587","ios":"levelo://app?vid=bb5fbe16-dabe-4ab0-a585-5067c1687587"},"vehicle_type_id":"4","last_reported":1753009705,"current_range_meters":8400,"station_id":"ce4bh012rcd13ifvqd00","pricing_plan_id":"cebpf4jnsgd1na2vs0mg"},{"bike_id":"6f4fc0d6-e1cb-479a-8782-ecb9a1a8d265","system_id":"levelo_inurba_marseille","lat":43.30154,"lon":5.38087,"is_reserved":false,"is_disabled":false,"rental_uris":{"android":"levelo://app?vid=6f4fc0d6-e1cb-479a-8782-ecb9a1a8d265","ios":"levelo://app?vid=6f4fc0d6-e1cb-479a-8782-ecb9a1a8d265"},"vehicle_type_id":"4","last_reported":1753009705,"current_range_meters":8400,"station_id":"ce4bgjp2rcd13ifvqbh0","pricing_plan_id":"cebpf4jnsgd1na2vs0mg"},{"bike_id":"4b0ce299-727c-48ce-b95a-b67cdf638733","system_id":"levelo_inurba_marseille","lat":43.229258,"lon":5.353799,"is_reserved":false,"is_disabled":false,"rental_uris":{"android":"levelo://app?vid=4b0ce299-727c-48ce-b95a-b67cdf638733","ios":"levelo://app?vid=4b0ce299-727c-48ce-b95a-b67cdf638733"},"vehicle_type_id":"4","last_reported":1753009705,"current_range_meters":8800,"station_id":"","pricing_plan_id":"cebpf4jnsgd1na2vs0mg"},{"bike_id":"9bcc75c8-ba52-4ca3-89cc-71e6c24420e4","system_id":"levelo_inurba_marseille","lat":43.32283,"lon":5.36504,"is_reserved":false,"is_disabled":false,"rental_uris":{"android":"levelo://app?vid=9bcc75c8-ba52-4ca3-89cc-71e6c24420e4","ios":"levelo://app?vid=9bcc75c8-ba52-4ca3-89cc-71e6c24420e4"},"vehicle_type_id":"4","last_reported":1753009705,"current_range_meters":8800,"station_id":"","pricing_plan_id":"cebpf4jnsgd1na2vs0mg"},{"bike_id":"921e1075-b74e-448d-871b-3114e0248b84","system_id":"levelo_inurba_marseille","lat":43.24393,"lon":5.37055,"is_reserved":false,"is_disabled":false,"rental_uris":{"android":"levelo://app?vid=921e1075-b74e-448d-871b-3114e0248b84","ios":"levelo://app?vid=921e1075-b74e-448d-871b-3114e0248b84"},"vehicle_type_id":"4","last_reported":1753009705,"current_range_meters":8800,"station_id":"ce4bhhh2rcd13ifvqfk0","pricing_plan_id":"cebpf4jnsgd1na2vs0mg"},{"bike_id":"63dd128f-7dfe-43db-abf5-4dd4cf344ef2","system_id":"levelo_inurba_marseille","lat":43.24801,"lon":5.37451,"is_reserved":false,"is_disabled":false,"rental_uris":{"android":"levelo://app?vid=63dd128f-7dfe-43db-abf5-4dd4cf344ef2","ios":"levelo://app?vid=63dd128f-7dfe-43db-abf5-4dd4cf344ef2"},"vehicle_type_id":"4","last_reported":1753009705,"current_range_meters":9200,"station_id":"ce4bhgh2rcd13ifvqfb0","pricing_plan_id":"cebpf4jnsgd1na2vs0mg"},{"bike_id":"94c07cb2-0943-4d24-99f2-97bdab47aa3f","system_id":"levelo_inurba_marseille","lat":43.337444,"lon":5.374475,"is_reserved":false,"is_disabled":false,"rental_uris":{"android":"levelo://app?vid=94c07cb2-0943-4d24-99f2-97bdab47aa3f","ios":"levelo://app?vid=94c07cb2-0943-4d24-99f2-97bdab47aa3f"},"vehicle_type_id":"4","last_reported":1753009705,"current_range_meters":9200,"station_id":"","pricing_plan_id":"cebpf4jnsgd1na2vs0mg"},{"bike_id":"a46637e6-4efa-4953-86db-e63632523bfd","system_id":"levelo_inurba_marseille","lat":43.29868,"lon":5.39734,"is_reserved":false,"is_disabled":false,"rental_uris":{"android":"levelo://app?vid=a46637e6-4efa-4953-86db-e63632523bfd","ios":"levelo://app?vid=a46637e6-4efa-4953-86db-e63632523bfd"},"vehicle_type_id":"4","last_reported":1753009705,"current_range_meters":9600,"station_id":"","pricing_plan_id":"cebpf4jnsgd1na2vs0mg"},{"bike_id":"dbe3f53f-5cf1-428e-b135-1e976ecdd9e1","system_id":"levelo_inurba_marseille","lat":43.229295,"lon":5.353761,"is_reserved":false,"is_disabled":true,"rental_uris":{"android":"levelo://app?vid=dbe3f53f-5cf1-428e-b135-1e976ecdd9e1","ios":"levelo://app?vid=dbe3f53f-5cf1-428e-b135-1e976ecdd9e1"},"vehicle_type_id":"4","last_reported":1753009705,"current_range_meters":9600,"station_id":"","pricing_plan_id":"cebpf4jnsgd1na2vs0mg"},{"bike_id":"d1e9c72e-7489-4052-b944-813b64bc55b4","system_id":"levelo_inurba_marseille","lat":43.31594,"lon":5.38925,"is_reserved":false,"is_disabled":false,"rental_uris":{"android":"levelo://app?vid=d1e9c72e-7489-4052-b944-813b64bc55b4","ios":"levelo://app?vid=d1e9c72e-7489-4052-b944-813b64bc55b4"},"vehicle_type_id":"4","last_reported":1753009705,"current_range_meters":9600,"station_id":"","pricing_plan_id":"cebpf4jnsgd1na2vs0mg"},{"bike_id":"d1da6ee0-eaa4-40b2-9038-22f49793cc09","system_id":"levelo_inurba_marseille","lat":43.28429,"lon":5.35001,"is_reserved":false,"is_disabled":false,"rental_uris":{"android":"levelo://app?vid=d1da6ee0-eaa4-40b2-9038-22f49793cc09","ios":"levelo://app?vid=d1da6ee0-eaa4-40b2-9038-22f49793cc09"},"vehicle_type_id":"4","last_reported":1753009705,"current_range_meters":9600,"station_id":"ce4bhbh2rcd13ifvqepg","pricing_plan_id":"cebpf4jnsgd1na2vs0mg"},{"bike_id":"6ffbaede-d649-480d-a9ec-bde1a9a8103c","system_id":"levelo_inurba_marseille","lat":43.23203,"lon":5.35556,"is_reserved":false,"is_disabled":false,"rental_uris":{"android":"levelo://app?vid=6ffbaede-d649-480d-a9ec-bde1a9a8103c","ios":"levelo://app?vid=6ffbaede-d649-480d-a9ec-bde1a9a8103c"},"vehicle_type_id":"4","last_reported":1753009705,"current_range_meters":10000,"station_id":"ce4bhu92rcd13ifvqi70","pricing_plan_id":"cebpf4jnsgd1na2vs0mg"},{"bike_id":"faf9ce67-bc54-43d5-978c-7f020eebab74","system_id":"levelo_inurba_marseille","lat":43.29306,"lon":5.37172,"is_reserved":false,"is_disabled":false,"rental_uris":{"android":"levelo://app?vid=faf9ce67-bc54-43d5-978c-7f020eebab74","ios":"levelo://app?vid=faf9ce67-bc54-43d5-978c-7f020eebab74"},"vehicle_type_id":"4","last_reported":1753009705,"current_range_meters":10000,"station_id":"ce4bgh92rcd13ifvqb40","pricing_plan_id":"cebpf4jnsgd1na2vs0mg"},{"bike_id":"cd128983-a454-4c13-94ae-fcd144bb2a06","system_id":"levelo_inurba_marseille","lat":43.32368,"lon":5.36767,"is_reserved":false,"is_disabled":false,"rental_uris":{"android":"levelo://app?vid=cd128983-a454-4c13-94ae-fcd144bb2a06","ios":"levelo://app?vid=cd128983-a454-4c13-94ae-fcd144bb2a06"},"vehicle_type_id":"4","last_reported":1753009705,"current_range_meters":10000,"station_id":"ce4bhsh2rcd13ifvqi2g","pricing_plan_id":"cebpf4jnsgd1na2vs0mg"},{"bike_id":"e1a27484-d933-49a5-adb5-ce1233dc02e0","system_id":"levelo_inurba_marseille","lat":43.24189,"lon":5.3973,"is_reserved":false,"is_disabled":false,"rental_uris":{"android":"levelo://app?vid=e1a27484-d933-49a5-adb5-ce1233dc02e0","ios":"levelo://app?vid=e1a27484-d933-49a5-adb5-ce1233dc02e0"},"vehicle_type_id":"4","last_reported":1753009705,"current_range_meters":10800,"station_id":"ce4bhn12rcd13ifvqgpg","pricing_plan_id":"cebpf4jnsgd1na2vs0mg"},{"bike_id":"0fd02cf6-67fb-4589-807f-241dd50b7e1a","system_id":"levelo_inurba_marseille","lat":43.29909,"lon":5.43644,"is_reserved":false,"is_disabled":true,"rental_uris":{"android":"levelo://app?vid=0fd02cf6-67fb-4589-807f-241dd50b7e1a","ios":"levelo://app?vid=0fd02cf6-67fb-4589-807f-241dd50b7e1a"},"vehicle_type_id":"4","last_reported":1753009705,"current_range_meters":10800,"station_id":"ce4bhpp2rcd13ifvqhfg","pricing_plan_id":"cebpf4jnsgd1na2vs0mg"},{"bike_id":"93301aca-c2c0-493e-a567-7195bb3fc61b","system_id":"levelo_inurba_marseille","lat":43.28268,"lon":5.35071,"is_reserved":false,"is_disabled":true,"rental_uris":{"android":"levelo://app?vid=93301aca-c2c0-493e-a567-7195bb3fc61b","ios":"levelo://app?vid=93301aca-c2c0-493e-a567-7195bb3fc61b"},"vehicle_type_id":"4","last_reported":1753009705,"current_range_meters":10800,"station_id":"ce4bhbp2rcd13ifvqerg","pricing_plan_id":"cebpf4jnsgd1na2vs0mg"},{"bike_id":"df505bec-05da-4366-bd92-8ada640ac6cf","system_id":"levelo_inurba_marseille","lat":43.27943,"lon":5.4106,"is_reserved":false,"is_disabled":false,"rental_uris":{"android":"levelo://app?vid=df505bec-05da-4366-bd92-8ada640ac6cf","ios":"levelo://app?vid=df505bec-05da-4366-bd92-8ada640ac6cf"},"vehicle_type_id":"4","last_reported":1753009705,"current_range_meters":10800,"station_id":"ce4bhnp2rcd13ifvqh0g","pricing_plan_id":"cebpf4jnsgd1na2vs0mg"},{"bike_id":"646bd144-4ffa-49b8-a08d-6b47ca08200f","system_id":"levelo_inurba_marseille","lat":43.25491,"lon":5.37688,"is_reserved":false,"is_disabled":true,"rental_uris":{"android":"levelo://app?vid=646bd144-4ffa-49b8-a08d-6b47ca08200f","ios":"levelo://app?vid=646bd144-4ffa-49b8-a08d-6b47ca08200f"},"vehicle_type_id":"4","last_reported":1753009705,"current_range_meters":10800,"station_id":"ce4bhh12rcd13ifvqff0","pricing_plan_id":"cebpf4jnsgd1na2vs0mg"},{"bike_id":"dc661d1a-9167-481b-b3f7-d5336e2b83e4","system_id":"levelo_inurba_marseille","lat":43.30547,"lon":5.36547,"is_reserved":false,"is_disabled":false,"rental_uris":{"android":"levelo://app?vid=dc661d1a-9167-481b-b3f7-d5336e2b83e4","ios":"levelo://app?vid=dc661d1a-9167-481b-b3f7-d5336e2b83e4"},"vehicle_type_id":"4","last_reported":1753009705,"current_range_meters":10800,"station_id":"ce4bgs12rcd13ifvqcag","pricing_plan_id":"cebpf4jnsgd1na2vs0mg"},{"bike_id":"c9ffd04b-c3a5-49bc-9896-054acbb108c7","system_id":"levelo_inurba_marseille","lat":43.23066,"lon":5.35505,"is_reserved":false,"is_disabled":false,"rental_uris":{"android":"levelo://app?vid=c9ffd04b-c3a5-49bc-9896-054acbb108c7","ios":"levelo://app?vid=c9ffd04b-c3a5-49bc-9896-054acbb108c7"},"vehicle_type_id":"4","last_reported":1753009705,"current_range_meters":10800,"station_id":"cpo3342slgdg3j2ifvpg","pricing_plan_id":"cebpf4jnsgd1na2vs0mg"},{"bike_id":"d421927e-7ddd-40a0-904f-5b4ff0266a72","system_id":"levelo_inurba_marseille","lat":43.319128,"lon":5.401701,"is_reserved":false,"is_disabled":false,"rental_uris":{"android":"levelo://app?vid=d421927e-7ddd-40a0-904f-5b4ff0266a72","ios":"levelo://app?vid=d421927e-7ddd-40a0-904f-5b4ff0266a72"},"vehicle_type_id":"4","last_reported":1753009705,"current_range_meters":11200,"station_id":"","pricing_plan_id":"cebpf4jnsgd1na2vs0mg"},{"bike_id":"cf9f7b6f-b252-45aa-bd41-e7b8a5947e88","system_id":"levelo_inurba_marseille","lat":43.269433,"lon":5.402658,"is_reserved":false,"is_disabled":true,"rental_uris":{"android":"levelo://app?vid=cf9f7b6f-b252-45aa-bd41-e7b8a5947e88","ios":"levelo://app?vid=cf9f7b6f-b252-45aa-bd41-e7b8a5947e88"},"vehicle_type_id":"4","last_reported":1753009705,"current_range_meters":11200,"station_id":"cjm6bp8fraef2m0cb0m0","pricing_plan_id":"cebpf4jnsgd1na2vs0mg"},{"bike_id":"6a193f41-f336-48d3-a5d0-a6fca3bf067e","system_id":"levelo_inurba_marseille","lat":43.24679,"lon":5.38164,"is_reserved":false,"is_disabled":false,"rental_uris":{"android":"levelo://app?vid=6a193f41-f336-48d3-a5d0-a6fca3bf067e","ios":"levelo://app?vid=6a193f41-f336-48d3-a5d0-a6fca3bf067e"},"vehicle_type_id":"4","last_reported":1753009705,"current_range_meters":11200,"station_id":"ce4bhih2rcd13ifvqfr0","pricing_plan_id":"cebpf4jnsgd1na2vs0mg"},{"bike_id":"7788b570-1d1f-4c23-99e1-6133a60efa40","system_id":"levelo_inurba_marseille","lat":43.30158,"lon":5.38083,"is_reserved":false,"is_disabled":false,"rental_uris":{"android":"levelo://app?vid=7788b570-1d1f-4c23-99e1-6133a60efa40","ios":"levelo://app?vid=7788b570-1d1f-4c23-99e1-6133a60efa40"},"vehicle_type_id":"4","last_reported":1753009705,"current_range_meters":11200,"station_id":"ce4bgjp2rcd13ifvqbh0","pricing_plan_id":"cebpf4jnsgd1na2vs0mg"},{"bike_id":"c7c9d953-d784-4d42-9cb0-4d5e17d9e103","system_id":"levelo_inurba_marseille","lat":43.30173,"lon":5.38061,"is_reserved":false,"is_disabled":false,"rental_uris":{"android":"levelo://app?vid=c7c9d953-d784-4d42-9cb0-4d5e17d9e103","ios":"levelo://app?vid=c7c9d953-d784-4d42-9cb0-4d5e17d9e103"},"vehicle_type_id":"4","last_reported":1753009705,"current_range_meters":11200,"station_id":"ce4bgjp2rcd13ifvqbh0","pricing_plan_id":"cebpf4jnsgd1na2vs0mg"},{"bike_id":"88c618f7-3926-48b3-91ec-dd8c85d16205","system_id":"levelo_inurba_marseille","lat":43.262204,"lon":5.40449,"is_reserved":false,"is_disabled":false,"rental_uris":{"android":"levelo://app?vid=88c618f7-3926-48b3-91ec-dd8c85d16205","ios":"levelo://app?vid=88c618f7-3926-48b3-91ec-dd8c85d16205"},"vehicle_type_id":"4","last_reported":1753009705,"current_range_meters":11200,"station_id":"ce4bhmh2rcd13ifvqgmg","pricing_plan_id":"cebpf4jnsgd1na2vs0mg"},{"bike_id":"5e67e1cf-9089-438e-803d-c1a89c912523","system_id":"levelo_inurba_marseille","lat":43.23155,"lon":5.43721,"is_reserved":false,"is_disabled":false,"rental_uris":{"android":"levelo://app?vid=5e67e1cf-9089-438e-803d-c1a89c912523","ios":"levelo://app?vid=5e67e1cf-9089-438e-803d-c1a89c912523"},"vehicle_type_id":"4","last_reported":1753009705,"current_range_meters":11600,"station_id":"ce4bhmp2rcd13ifvqgog","pricing_plan_id":"cebpf4jnsgd1na2vs0mg"},{"bike_id":"be603cc8-b38e-4b25-a5b7-41b7ae49e3cc","system_id":"levelo_inurba_marseille","lat":43.23062,"lon":5.35492,"is_reserved":false,"is_disabled":false,"rental_uris":{"android":"levelo://app?vid=be603cc8-b38e-4b25-a5b7-41b7ae49e3cc","ios":"levelo://app?vid=be603cc8-b38e-4b25-a5b7-41b7ae49e3cc"},"vehicle_type_id":"4","last_reported":1753009705,"current_range_meters":11600,"station_id":"cpo3342slgdg3j2ifvpg","pricing_plan_id":"cebpf4jnsgd1na2vs0mg"},{"bike_id":"ac141403-2eff-454e-8bd1-3d400d40ed2b","system_id":"levelo_inurba_marseille","lat":43.331293,"lon":5.400022,"is_reserved":false,"is_disabled":false,"rental_uris":{"android":"levelo://app?vid=ac141403-2eff-454e-8bd1-3d400d40ed2b","ios":"levelo://app?vid=ac141403-2eff-454e-8bd1-3d400d40ed2b"},"vehicle_type_id":"4","last_reported":1753009705,"current_range_meters":11600,"station_id":"","pricing_plan_id":"cebpf4jnsgd1na2vs0mg"},{"bike_id":"cbd7089c-9d2d-42db-a268-faaaa69d7343","system_id":"levelo_inurba_marseille","lat":43.26274,"lon":5.37454,"is_reserved":false,"is_disabled":true,"rental_uris":{"android":"levelo://app?vid=cbd7089c-9d2d-42db-a268-faaaa69d7343","ios":"levelo://app?vid=cbd7089c-9d2d-42db-a268-faaaa69d7343"},"vehicle_type_id":"4","last_reported":1753009705,"current_range_meters":11600,"station_id":"","pricing_plan_id":"cebpf4jnsgd1na2vs0mg"},{"bike_id":"892e06aa-05f6-415f-96f6-13455b0802de","system_id":"levelo_inurba_marseille","lat":43.29579,"lon":5.37504,"is_reserved":false,"is_disabled":true,"rental_uris":{"android":"levelo://app?vid=892e06aa-05f6-415f-96f6-13455b0802de","ios":"levelo://app?vid=892e06aa-05f6-415f-96f6-13455b0802de"},"vehicle_type_id":"4","last_reported":1753009705,"current_range_meters":11600,"station_id":"ce4bgh92rcd13ifvqb50","pricing_plan_id":"cebpf4jnsgd1na2vs0mg"},{"bike_id":"2667450e-7c12-417c-9fb1-afbb377beb70","system_id":"levelo_inurba_marseille","lat":43.29935,"lon":5.36537,"is_reserved":false,"is_disabled":false,"rental_uris":{"android":"levelo://app?vid=2667450e-7c12-417c-9fb1-afbb377beb70","ios":"levelo://app?vid=2667450e-7c12-417c-9fb1-afbb377beb70"},"vehicle_type_id":"4","last_reported":1753009705,"current_range_meters":11600,"station_id":"ce4bgm92rcd13ifvqbr0","pricing_plan_id":"cebpf4jnsgd1na2vs0mg"},{"bike_id":"0a57ef71-9bd0-42a8-b744-57c4fa7ab41a","system_id":"levelo_inurba_marseille","lat":43.28276,"lon":5.35054,"is_reserved":false,"is_disabled":false,"rental_uris":{"android":"levelo://app?vid=0a57ef71-9bd0-42a8-b744-57c4fa7ab41a","ios":"levelo://app?vid=0a57ef71-9bd0-42a8-b744-57c4fa7ab41a"},"vehicle_type_id":"4","last_reported":1753009705,"current_range_meters":12000,"station_id":"ce4bhbp2rcd13ifvqerg","pricing_plan_id":"cebpf4jnsgd1na2vs0mg"},{"bike_id":"b0f1362d-273e-4bb1-9384-68031490f810","system_id":"levelo_inurba_marseille","lat":43.296292,"lon":5.377132,"is_reserved":false,"is_disabled":false,"rental_uris":{"android":"levelo://app?vid=b0f1362d-273e-4bb1-9384-68031490f810","ios":"levelo://app?vid=b0f1362d-273e-4bb1-9384-68031490f810"},"vehicle_type_id":"4","last_reported":1753009705,"current_range_meters":12000,"station_id":"ce4bgi92rcd13ifvqb90","pricing_plan_id":"cebpf4jnsgd1na2vs0mg"},{"bike_id":"a6de290b-5c15-427b-bc37-8301607e1735","system_id":"levelo_inurba_marseille","lat":43.337444,"lon":5.374475,"is_reserved":false,"is_disabled":false,"rental_uris":{"android":"levelo://app?vid=a6de290b-5c15-427b-bc37-8301607e1735","ios":"levelo://app?vid=a6de290b-5c15-427b-bc37-8301607e1735"},"vehicle_type_id":"4","last_reported":1753009705,"current_range_meters":12000,"station_id":"","pricing_plan_id":"cebpf4jnsgd1na2vs0mg"},{"bike_id":"3581e735-186c-4f7c-a905-f7969175be88","system_id":"levelo_inurba_marseille","lat":43.32289,"lon":5.38304,"is_reserved":false,"is_disabled":false,"rental_uris":{"android":"levelo://app?vid=3581e735-186c-4f7c-a905-f7969175be88","ios":"levelo://app?vid=3581e735-186c-4f7c-a905-f7969175be88"},"vehicle_type_id":"4","last_reported":1753009705,"current_range_meters":12000,"station_id":"ce4bhr12rcd13ifvqhqg","pricing_plan_id":"cebpf4jnsgd1na2vs0mg"},{"bike_id":"77e5d396-9f38-43c2-ae33-ac1f85df337d","system_id":"levelo_inurba_marseille","lat":43.29578,"lon":5.42278,"is_reserved":false,"is_disabled":false,"rental_uris":{"android":"levelo://app?vid=77e5d396-9f38-43c2-ae33-ac1f85df337d","ios":"levelo://app?vid=77e5d396-9f38-43c2-ae33-ac1f85df337d"},"vehicle_type_id":"4","last_reported":1753009705,"current_range_meters":12000,"station_id":"ce4bhph2rcd13ifvqhdg","pricing_plan_id":"cebpf4jnsgd1na2vs0mg"},{"bike_id":"e307f4bf-a8af-4b77-8ebc-94bd83c9eba9","system_id":"levelo_inurba_marseille","lat":43.22932,"lon":5.35376,"is_reserved":false,"is_disabled":false,"rental_uris":{"android":"levelo://app?vid=e307f4bf-a8af-4b77-8ebc-94bd83c9eba9","ios":"levelo://app?vid=e307f4bf-a8af-4b77-8ebc-94bd83c9eba9"},"vehicle_type_id":"4","last_reported":1753009705,"current_range_meters":12000,"station_id":"cpo3532slgdg3j2ikp40","pricing_plan_id":"cebpf4jnsgd1na2vs0mg"},{"bike_id":"7023c9df-34ea-4be8-bb08-ef9e6e748e73","system_id":"levelo_inurba_marseille","lat":43.24171,"lon":5.39752,"is_reserved":false,"is_disabled":false,"rental_uris":{"android":"levelo://app?vid=7023c9df-34ea-4be8-bb08-ef9e6e748e73","ios":"levelo://app?vid=7023c9df-34ea-4be8-bb08-ef9e6e748e73"},"vehicle_type_id":"4","last_reported":1753009705,"current_range_meters":12000,"station_id":"ce4bhn12rcd13ifvqgpg","pricing_plan_id":"cebpf4jnsgd1na2vs0mg"},{"bike_id":"d916997f-1b3d-4d99-bec2-f22f10a49844","system_id":"levelo_inurba_marseille","lat":43.251111,"lon":5.403388,"is_reserved":false,"is_disabled":false,"rental_uris":{"android":"levelo://app?vid=d916997f-1b3d-4d99-bec2-f22f10a49844","ios":"levelo://app?vid=d916997f-1b3d-4d99-bec2-f22f10a49844"},"vehicle_type_id":"4","last_reported":1753009705,"current_range_meters":12000,"station_id":"ce4bhlh2rcd13ifvqgig","pricing_plan_id":"cebpf4jnsgd1na2vs0mg"},{"bike_id":"662946af-3709-43bd-b01d-05e915749c81","system_id":"levelo_inurba_marseille","lat":43.282682,"lon":5.350619,"is_reserved":false,"is_disabled":false,"rental_uris":{"android":"levelo://app?vid=662946af-3709-43bd-b01d-05e915749c81","ios":"levelo://app?vid=662946af-3709-43bd-b01d-05e915749c81"},"vehicle_type_id":"4","last_reported":1753009705,"current_range_meters":12000,"station_id":"ce4bhbp2rcd13ifvqerg","pricing_plan_id":"cebpf4jnsgd1na2vs0mg"},{"bike_id":"3f270036-fcf3-4265-b630-da5079c51625","system_id":"levelo_inurba_marseille","lat":43.21192,"lon":5.35071,"is_reserved":false,"is_disabled":false,"rental_uris":{"android":"levelo://app?vid=3f270036-fcf3-4265-b630-da5079c51625","ios":"levelo://app?vid=3f270036-fcf3-4265-b630-da5079c51625"},"vehicle_type_id":"4","last_reported":1753009705,"current_range_meters":12000,"station_id":"st_cvj6sg6p6f1abm77japg","pricing_plan_id":"cebpf4jnsgd1na2vs0mg"},{"bike_id":"cce52197-3b64-41da-a9e9-d658a67d6b48","system_id":"levelo_inurba_marseille","lat":43.30797,"lon":5.4353,"is_reserved":false,"is_disabled":false,"rental_uris":{"android":"levelo://app?vid=cce52197-3b64-41da-a9e9-d658a67d6b48","ios":"levelo://app?vid=cce52197-3b64-41da-a9e9-d658a67d6b48"},"vehicle_type_id":"4","last_reported":1753009705,"current_range_meters":12400,"station_id":"ce4bhph2rcd13ifvqheg","pricing_plan_id":"cebpf4jnsgd1na2vs0mg"},{"bike_id":"7da69f3d-17ea-45bd-8065-f715d544d5a5","system_id":"levelo_inurba_marseille","lat":43.270642,"lon":5.422748,"is_reserved":false,"is_disabled":false,"rental_uris":{"android":"levelo://app?vid=7da69f3d-17ea-45bd-8065-f715d544d5a5","ios":"levelo://app?vid=7da69f3d-17ea-45bd-8065-f715d544d5a5"},"vehicle_type_id":"4","last_reported":1753009705,"current_range_meters":12400,"station_id":"ce4bhk92rcd13ifvqgb0","pricing_plan_id":"cebpf4jnsgd1na2vs0mg"},{"bike_id":"7a2e1cf8-de90-4b24-ade1-9d8b3a17f052","system_id":"levelo_inurba_marseille","lat":43.252,"lon":5.37574,"is_reserved":false,"is_disabled":false,"rental_uris":{"android":"levelo://app?vid=7a2e1cf8-de90-4b24-ade1-9d8b3a17f052","ios":"levelo://app?vid=7a2e1cf8-de90-4b24-ade1-9d8b3a17f052"},"vehicle_type_id":"4","last_reported":1753009705,"current_range_meters":12400,"station_id":"","pricing_plan_id":"cebpf4jnsgd1na2vs0mg"},{"bike_id":"a212ef5d-ae2b-4488-9a0a-4f0b2067e14b","system_id":"levelo_inurba_marseille","lat":43.26215,"lon":5.37443,"is_reserved":false,"is_disabled":false,"rental_uris":{"android":"levelo://app?vid=a212ef5d-ae2b-4488-9a0a-4f0b2067e14b","ios":"levelo://app?vid=a212ef5d-ae2b-4488-9a0a-4f0b2067e14b"},"vehicle_type_id":"4","last_reported":1753009705,"current_range_meters":12400,"station_id":"ce4bhgp2rcd13ifvqfc0","pricing_plan_id":"cebpf4jnsgd1na2vs0mg"},{"bike_id":"f11d5853-771f-43df-bd89-c14a78847538","system_id":"levelo_inurba_marseille","lat":43.31106,"lon":5.37759,"is_reserved":false,"is_disabled":false,"rental_uris":{"android":"levelo://app?vid=f11d5853-771f-43df-bd89-c14a78847538","ios":"levelo://app?vid=f11d5853-771f-43df-bd89-c14a78847538"},"vehicle_type_id":"4","last_reported":1753009705,"current_range_meters":12400,"station_id":"ce4bgt92rcd13ifvqcg0","pricing_plan_id":"cebpf4jnsgd1na2vs0mg"},{"bike_id":"caae0b6d-0c35-45f8-8c9a-76ce9e3602c0","system_id":"levelo_inurba_marseille","lat":43.279427,"lon":5.410437,"is_reserved":false,"is_disabled":false,"rental_uris":{"android":"levelo://app?vid=caae0b6d-0c35-45f8-8c9a-76ce9e3602c0","ios":"levelo://app?vid=caae0b6d-0c35-45f8-8c9a-76ce9e3602c0"},"vehicle_type_id":"4","last_reported":1753009705,"current_range_meters":12400,"station_id":"ce4bhnp2rcd13ifvqh0g","pricing_plan_id":"cebpf4jnsgd1na2vs0mg"},{"bike_id":"7d91d34c-95ba-419a-8d0b-21d2aeaa83ad","system_id":"levelo_inurba_marseille","lat":43.25487,"lon":5.37642,"is_reserved":false,"is_disabled":true,"rental_uris":{"android":"levelo://app?vid=7d91d34c-95ba-419a-8d0b-21d2aeaa83ad","ios":"levelo://app?vid=7d91d34c-95ba-419a-8d0b-21d2aeaa83ad"},"vehicle_type_id":"4","last_reported":1753009705,"current_range_meters":12400,"station_id":"ce4bhh12rcd13ifvqff0","pricing_plan_id":"cebpf4jnsgd1na2vs0mg"},{"bike_id":"dd12eefc-9090-488f-8382-d877f7eeafe4","system_id":"levelo_inurba_marseille","lat":43.253961,"lon":5.419029,"is_reserved":false,"is_disabled":false,"rental_uris":{"android":"levelo://app?vid=dd12eefc-9090-488f-8382-d877f7eeafe4","ios":"levelo://app?vid=dd12eefc-9090-488f-8382-d877f7eeafe4"},"vehicle_type_id":"4","last_reported":1753009705,"current_range_meters":12800,"station_id":"","pricing_plan_id":"cebpf4jnsgd1na2vs0mg"},{"bike_id":"e4c89c5d-526b-4575-a9c8-1237dab7d7b8","system_id":"levelo_inurba_marseille","lat":43.22928,"lon":5.3538,"is_reserved":false,"is_disabled":false,"rental_uris":{"android":"levelo://app?vid=e4c89c5d-526b-4575-a9c8-1237dab7d7b8","ios":"levelo://app?vid=e4c89c5d-526b-4575-a9c8-1237dab7d7b8"},"vehicle_type_id":"4","last_reported":1753009705,"current_range_meters":12800,"station_id":"cpo3532slgdg3j2ikp40","pricing_plan_id":"cebpf4jnsgd1na2vs0mg"},{"bike_id":"b9246e48-e9f8-4924-bbb9-8c633997abe7","system_id":"levelo_inurba_marseille","lat":43.22936,"lon":5.35393,"is_reserved":false,"is_disabled":false,"rental_uris":{"android":"levelo://app?vid=b9246e48-e9f8-4924-bbb9-8c633997abe7","ios":"levelo://app?vid=b9246e48-e9f8-4924-bbb9-8c633997abe7"},"vehicle_type_id":"4","last_reported":1753009705,"current_range_meters":12800,"station_id":"cpo3532slgdg3j2ikp40","pricing_plan_id":"cebpf4jnsgd1na2vs0mg"},{"bike_id":"59bab757-bf2f-4ea7-9dcd-a0fe6f380601","system_id":"levelo_inurba_marseille","lat":43.28409,"lon":5.34972,"is_reserved":false,"is_disabled":false,"rental_uris":{"android":"levelo://app?vid=59bab757-bf2f-4ea7-9dcd-a0fe6f380601","ios":"levelo://app?vid=59bab757-bf2f-4ea7-9dcd-a0fe6f380601"},"vehicle_type_id":"4","last_reported":1753009705,"current_range_meters":12800,"station_id":"ce4bhbh2rcd13ifvqepg","pricing_plan_id":"cebpf4jnsgd1na2vs0mg"},{"bike_id":"300b6695-468b-4a1e-a751-5fa36c640db4","system_id":"levelo_inurba_marseille","lat":43.28274,"lon":5.35055,"is_reserved":false,"is_disabled":false,"rental_uris":{"android":"levelo://app?vid=300b6695-468b-4a1e-a751-5fa36c640db4","ios":"levelo://app?vid=300b6695-468b-4a1e-a751-5fa36c640db4"},"vehicle_type_id":"4","last_reported":1753009705,"current_range_meters":12800,"station_id":"ce4bhbp2rcd13ifvqerg","pricing_plan_id":"cebpf4jnsgd1na2vs0mg"},{"bike_id":"4268961c-8e3c-4bac-891f-a8846cba533f","system_id":"levelo_inurba_marseille","lat":43.324832,"lon":5.36557,"is_reserved":false,"is_disabled":false,"rental_uris":{"android":"levelo://app?vid=4268961c-8e3c-4bac-891f-a8846cba533f","ios":"levelo://app?vid=4268961c-8e3c-4bac-891f-a8846cba533f"},"vehicle_type_id":"4","last_reported":1753009705,"current_range_meters":12800,"station_id":"ce4bhs12rcd13ifvqhvg","pricing_plan_id":"cebpf4jnsgd1na2vs0mg"},{"bike_id":"dd0699e3-e975-47c0-b94a-afc79b6c4253","system_id":"levelo_inurba_marseille","lat":43.28267,"lon":5.35067,"is_reserved":false,"is_disabled":false,"rental_uris":{"android":"levelo://app?vid=dd0699e3-e975-47c0-b94a-afc79b6c4253","ios":"levelo://app?vid=dd0699e3-e975-47c0-b94a-afc79b6c4253"},"vehicle_type_id":"4","last_reported":1753009705,"current_range_meters":12800,"station_id":"ce4bhbp2rcd13ifvqerg","pricing_plan_id":"cebpf4jnsgd1na2vs0mg"},{"bike_id":"5e527caf-404d-4527-acfe-b340f6223e2f","system_id":"levelo_inurba_marseille","lat":43.29847,"lon":5.36277,"is_reserved":false,"is_disabled":false,"rental_uris":{"android":"levelo://app?vid=5e527caf-404d-4527-acfe-b340f6223e2f","ios":"levelo://app?vid=5e527caf-404d-4527-acfe-b340f6223e2f"},"vehicle_type_id":"4","last_reported":1753009705,"current_range_meters":12400,"station_id":"ce4bgpp2rcd13ifvqc3g","pricing_plan_id":"cebpf4jnsgd1na2vs0mg"},{"bike_id":"d25b3b74-1eb0-48d4-998a-10d14228da57","system_id":"levelo_inurba_marseille","lat":43.29688,"lon":5.36811,"is_reserved":false,"is_disabled":false,"rental_uris":{"android":"levelo://app?vid=d25b3b74-1eb0-48d4-998a-10d14228da57","ios":"levelo://app?vid=d25b3b74-1eb0-48d4-998a-10d14228da57"},"vehicle_type_id":"4","last_reported":1753009705,"current_range_meters":13600,"station_id":"","pricing_plan_id":"cebpf4jnsgd1na2vs0mg"},{"bike_id":"7c0c5f2c-b481-44e4-9db3-e98de0be2f32","system_id":"levelo_inurba_marseille","lat":43.295918,"lon":5.374968,"is_reserved":false,"is_disabled":false,"rental_uris":{"android":"levelo://app?vid=7c0c5f2c-b481-44e4-9db3-e98de0be2f32","ios":"levelo://app?vid=7c0c5f2c-b481-44e4-9db3-e98de0be2f32"},"vehicle_type_id":"4","last_reported":1753009705,"current_range_meters":13600,"station_id":"","pricing_plan_id":"cebpf4jnsgd1na2vs0mg"},{"bike_id":"9abd6de6-6763-4016-9556-d8e78d0ad41f","system_id":"levelo_inurba_marseille","lat":43.273824,"lon":5.362455,"is_reserved":false,"is_disabled":false,"rental_uris":{"android":"levelo://app?vid=9abd6de6-6763-4016-9556-d8e78d0ad41f","ios":"levelo://app?vid=9abd6de6-6763-4016-9556-d8e78d0ad41f"},"vehicle_type_id":"4","last_reported":1753009705,"current_range_meters":13600,"station_id":"ce4bhgp2rcd13ifvqfc0","pricing_plan_id":"cebpf4jnsgd1na2vs0mg"},{"bike_id":"1270f044-af2a-48c1-b58f-a3058c313c52","system_id":"levelo_inurba_marseille","lat":43.31647,"lon":5.40428,"is_reserved":false,"is_disabled":false,"rental_uris":{"android":"levelo://app?vid=1270f044-af2a-48c1-b58f-a3058c313c52","ios":"levelo://app?vid=1270f044-af2a-48c1-b58f-a3058c313c52"},"vehicle_type_id":"4","last_reported":1753009705,"current_range_meters":13600,"station_id":"ce4bh012rcd13ifvqd00","pricing_plan_id":"cebpf4jnsgd1na2vs0mg"},{"bike_id":"5032a8bb-e6e3-431e-b320-13195f3c8ae0","system_id":"levelo_inurba_marseille","lat":43.29971,"lon":5.41324,"is_reserved":false,"is_disabled":false,"rental_uris":{"android":"levelo://app?vid=5032a8bb-e6e3-431e-b320-13195f3c8ae0","ios":"levelo://app?vid=5032a8bb-e6e3-431e-b320-13195f3c8ae0"},"vehicle_type_id":"4","last_reported":1753009705,"current_range_meters":13600,"station_id":"ce4bhp12rcd13ifvqh9g","pricing_plan_id":"cebpf4jnsgd1na2vs0mg"},{"bike_id":"b4c3f127-03b4-49c6-91be-a647d026cee4","system_id":"levelo_inurba_marseille","lat":43.296299,"lon":5.37716,"is_reserved":false,"is_disabled":false,"rental_uris":{"android":"levelo://app?vid=b4c3f127-03b4-49c6-91be-a647d026cee4","ios":"levelo://app?vid=b4c3f127-03b4-49c6-91be-a647d026cee4"},"vehicle_type_id":"4","last_reported":1753009705,"current_range_meters":12800,"station_id":"ce4bgi92rcd13ifvqb90","pricing_plan_id":"cebpf4jnsgd1na2vs0mg"},{"bike_id":"218a227e-c64f-4f98-8a22-59cb1cdfd846","system_id":"levelo_inurba_marseille","lat":43.24089,"lon":5.37758,"is_reserved":false,"is_disabled":true,"rental_uris":{"android":"levelo://app?vid=218a227e-c64f-4f98-8a22-59cb1cdfd846","ios":"levelo://app?vid=218a227e-c64f-4f98-8a22-59cb1cdfd846"},"vehicle_type_id":"4","last_reported":1753009705,"current_range_meters":14000,"station_id":"ce4bhnp2rcd13ifvqgvg","pricing_plan_id":"cebpf4jnsgd1na2vs0mg"},{"bike_id":"7eaefe95-a918-4dff-a447-29114f8d3c22","system_id":"levelo_inurba_marseille","lat":43.28705,"lon":5.40016,"is_reserved":false,"is_disabled":true,"rental_uris":{"android":"levelo://app?vid=7eaefe95-a918-4dff-a447-29114f8d3c22","ios":"levelo://app?vid=7eaefe95-a918-4dff-a447-29114f8d3c22"},"vehicle_type_id":"4","last_reported":1753009705,"current_range_meters":14000,"station_id":"ce4bho92rcd13ifvqh3g","pricing_plan_id":"cebpf4jnsgd1na2vs0mg"},{"bike_id":"beb14892-a851-4f8e-b873-cbd3d15ad0a9","system_id":"levelo_inurba_marseille","lat":43.23767,"lon":5.36179,"is_reserved":false,"is_disabled":false,"rental_uris":{"android":"levelo://app?vid=beb14892-a851-4f8e-b873-cbd3d15ad0a9","ios":"levelo://app?vid=beb14892-a851-4f8e-b873-cbd3d15ad0a9"},"vehicle_type_id":"4","last_reported":1753009705,"current_range_meters":14000,"station_id":"","pricing_plan_id":"cebpf4jnsgd1na2vs0mg"},{"bike_id":"95b5bcfa-54af-48c0-bd18-8f73f959ce2b","system_id":"levelo_inurba_marseille","lat":43.31935,"lon":5.37313,"is_reserved":false,"is_disabled":false,"rental_uris":{"android":"levelo://app?vid=95b5bcfa-54af-48c0-bd18-8f73f959ce2b","ios":"levelo://app?vid=95b5bcfa-54af-48c0-bd18-8f73f959ce2b"},"vehicle_type_id":"4","last_reported":1753009705,"current_range_meters":14000,"station_id":"","pricing_plan_id":"cebpf4jnsgd1na2vs0mg"},{"bike_id":"01bdf18c-b61f-4920-b4e9-8f3134792712","system_id":"levelo_inurba_marseille","lat":43.28724,"lon":5.36094,"is_reserved":false,"is_disabled":false,"rental_uris":{"android":"levelo://app?vid=01bdf18c-b61f-4920-b4e9-8f3134792712","ios":"levelo://app?vid=01bdf18c-b61f-4920-b4e9-8f3134792712"},"vehicle_type_id":"4","last_reported":1753009705,"current_range_meters":14000,"station_id":"cki0cbj6b192h4jlfktg","pricing_plan_id":"cebpf4jnsgd1na2vs0mg"},{"bike_id":"ec550b37-46a3-41e1-adbc-bdc145071d43","system_id":"levelo_inurba_marseille","lat":43.27906,"lon":5.38017,"is_reserved":false,"is_disabled":false,"rental_uris":{"android":"levelo://app?vid=ec550b37-46a3-41e1-adbc-bdc145071d43","ios":"levelo://app?vid=ec550b37-46a3-41e1-adbc-bdc145071d43"},"vehicle_type_id":"4","last_reported":1753009705,"current_range_meters":14400,"station_id":"ce4bhf92rcd13ifvqf50","pricing_plan_id":"cebpf4jnsgd1na2vs0mg"},{"bike_id":"c348cc83-a7cc-49e0-9ce2-d19b0b11f740","system_id":"levelo_inurba_marseille","lat":43.23065,"lon":5.35507,"is_reserved":false,"is_disabled":false,"rental_uris":{"android":"levelo://app?vid=c348cc83-a7cc-49e0-9ce2-d19b0b11f740","ios":"levelo://app?vid=c348cc83-a7cc-49e0-9ce2-d19b0b11f740"},"vehicle_type_id":"4","last_reported":1753009705,"current_range_meters":14400,"station_id":"cpo3342slgdg3j2ifvpg","pricing_plan_id":"cebpf4jnsgd1na2vs0mg"},{"bike_id":"674f4e99-8f2c-4a6e-8fbf-9ae19930e557","system_id":"levelo_inurba_marseille","lat":43.28611,"lon":5.35098,"is_reserved":false,"is_disabled":false,"rental_uris":{"android":"levelo://app?vid=674f4e99-8f2c-4a6e-8fbf-9ae19930e557","ios":"levelo://app?vid=674f4e99-8f2c-4a6e-8fbf-9ae19930e557"},"vehicle_type_id":"4","last_reported":1753009705,"current_range_meters":14400,"station_id":"ce4bhch2rcd13ifvqeug","pricing_plan_id":"cebpf4jnsgd1na2vs0mg"},{"bike_id":"bdcd1864-6fe7-4437-98be-6fcf7ac01b04","system_id":"levelo_inurba_marseille","lat":43.22927,"lon":5.35372,"is_reserved":false,"is_disabled":false,"rental_uris":{"android":"levelo://app?vid=bdcd1864-6fe7-4437-98be-6fcf7ac01b04","ios":"levelo://app?vid=bdcd1864-6fe7-4437-98be-6fcf7ac01b04"},"vehicle_type_id":"4","last_reported":1753009705,"current_range_meters":14800,"station_id":"cpo3532slgdg3j2ikp40","pricing_plan_id":"cebpf4jnsgd1na2vs0mg"},{"bike_id":"64b2812a-02c2-4202-ba8b-a44c7bdeff15","system_id":"levelo_inurba_marseille","lat":43.23061,"lon":5.35487,"is_reserved":false,"is_disabled":false,"rental_uris":{"android":"levelo://app?vid=64b2812a-02c2-4202-ba8b-a44c7bdeff15","ios":"levelo://app?vid=64b2812a-02c2-4202-ba8b-a44c7bdeff15"},"vehicle_type_id":"4","last_reported":1753009705,"current_range_meters":14800,"station_id":"cpo3342slgdg3j2ifvpg","pricing_plan_id":"cebpf4jnsgd1na2vs0mg"},{"bike_id":"7f98c65c-6593-4352-858e-be8fe24c31fc","system_id":"levelo_inurba_marseille","lat":43.22513,"lon":5.34813,"is_reserved":false,"is_disabled":false,"rental_uris":{"android":"levelo://app?vid=7f98c65c-6593-4352-858e-be8fe24c31fc","ios":"levelo://app?vid=7f98c65c-6593-4352-858e-be8fe24c31fc"},"vehicle_type_id":"4","last_reported":1753009705,"current_range_meters":14800,"station_id":"st_cvj5dfep6f1abm77gieg","pricing_plan_id":"cebpf4jnsgd1na2vs0mg"},{"bike_id":"d3aca52a-4e64-461a-8fd1-e9a035bafbdf","system_id":"levelo_inurba_marseille","lat":43.257213,"lon":5.411019,"is_reserved":false,"is_disabled":false,"rental_uris":{"android":"levelo://app?vid=d3aca52a-4e64-461a-8fd1-e9a035bafbdf","ios":"levelo://app?vid=d3aca52a-4e64-461a-8fd1-e9a035bafbdf"},"vehicle_type_id":"4","last_reported":1753009705,"current_range_meters":14800,"station_id":"","pricing_plan_id":"cebpf4jnsgd1na2vs0mg"},{"bike_id":"9d26eca7-e0c4-42a6-8224-1b854f255194","system_id":"levelo_inurba_marseille","lat":43.29717,"lon":5.36625,"is_reserved":false,"is_disabled":false,"rental_uris":{"android":"levelo://app?vid=9d26eca7-e0c4-42a6-8224-1b854f255194","ios":"levelo://app?vid=9d26eca7-e0c4-42a6-8224-1b854f255194"},"vehicle_type_id":"4","last_reported":1753009705,"current_range_meters":14800,"station_id":"ce4bgn12rcd13ifvqbt0","pricing_plan_id":"cebpf4jnsgd1na2vs0mg"},{"bike_id":"20597f8e-6c1b-4a51-9e3f-8ecf88381375","system_id":"levelo_inurba_marseille","lat":43.3031,"lon":5.39173,"is_reserved":false,"is_disabled":true,"rental_uris":{"android":"levelo://app?vid=20597f8e-6c1b-4a51-9e3f-8ecf88381375","ios":"levelo://app?vid=20597f8e-6c1b-4a51-9e3f-8ecf88381375"},"vehicle_type_id":"4","last_reported":1753009705,"current_range_meters":14800,"station_id":"ce4bgkh2rcd13ifvqbk0","pricing_plan_id":"cebpf4jnsgd1na2vs0mg"},{"bike_id":"848b39f8-b716-4cfd-bbe5-5401532347f1","system_id":"levelo_inurba_marseille","lat":43.29623,"lon":5.37719,"is_reserved":false,"is_disabled":false,"rental_uris":{"android":"levelo://app?vid=848b39f8-b716-4cfd-bbe5-5401532347f1","ios":"levelo://app?vid=848b39f8-b716-4cfd-bbe5-5401532347f1"},"vehicle_type_id":"4","last_reported":1753009705,"current_range_meters":14800,"station_id":"ce4bgi92rcd13ifvqb90","pricing_plan_id":"cebpf4jnsgd1na2vs0mg"},{"bike_id":"b3176209-c9b0-4949-926f-6c63990cfd9f","system_id":"levelo_inurba_marseille","lat":43.33594,"lon":5.40976,"is_reserved":false,"is_disabled":false,"rental_uris":{"android":"levelo://app?vid=b3176209-c9b0-4949-926f-6c63990cfd9f","ios":"levelo://app?vid=b3176209-c9b0-4949-926f-6c63990cfd9f"},"vehicle_type_id":"4","last_reported":1753009705,"current_range_meters":14800,"station_id":"","pricing_plan_id":"cebpf4jnsgd1na2vs0mg"},{"bike_id":"c9695da4-3048-4cfc-83f0-62c3fac1ccbe","system_id":"levelo_inurba_marseille","lat":43.230524,"lon":5.354936,"is_reserved":false,"is_disabled":true,"rental_uris":{"android":"levelo://app?vid=c9695da4-3048-4cfc-83f0-62c3fac1ccbe","ios":"levelo://app?vid=c9695da4-3048-4cfc-83f0-62c3fac1ccbe"},"vehicle_type_id":"4","last_reported":1753009705,"current_range_meters":15200,"station_id":"cpo3342slgdg3j2ifvpg","pricing_plan_id":"cebpf4jnsgd1na2vs0mg"},{"bike_id":"299ec8a6-d5a7-41ea-8121-1c7f792257d2","system_id":"levelo_inurba_marseille","lat":43.2738,"lon":5.36274,"is_reserved":false,"is_disabled":true,"rental_uris":{"android":"levelo://app?vid=299ec8a6-d5a7-41ea-8121-1c7f792257d2","ios":"levelo://app?vid=299ec8a6-d5a7-41ea-8121-1c7f792257d2"},"vehicle_type_id":"4","last_reported":1753009705,"current_range_meters":15200,"station_id":"ce4bhbh2rcd13ifvqeo0","pricing_plan_id":"cebpf4jnsgd1na2vs0mg"},{"bike_id":"64c4e8fb-d681-4de2-854c-3b8c6a5bafd9","system_id":"levelo_inurba_marseille","lat":43.24083,"lon":5.37783,"is_reserved":false,"is_disabled":false,"rental_uris":{"android":"levelo://app?vid=64c4e8fb-d681-4de2-854c-3b8c6a5bafd9","ios":"levelo://app?vid=64c4e8fb-d681-4de2-854c-3b8c6a5bafd9"},"vehicle_type_id":"4","last_reported":1753009705,"current_range_meters":15200,"station_id":"ce4bhnp2rcd13ifvqgvg","pricing_plan_id":"cebpf4jnsgd1na2vs0mg"},{"bike_id":"29d30603-a706-483a-a12e-d959c10147d5","system_id":"levelo_inurba_marseille","lat":43.21195,"lon":5.35071,"is_reserved":false,"is_disabled":false,"rental_uris":{"android":"levelo://app?vid=29d30603-a706-483a-a12e-d959c10147d5","ios":"levelo://app?vid=29d30603-a706-483a-a12e-d959c10147d5"},"vehicle_type_id":"4","last_reported":1753009705,"current_range_meters":15200,"station_id":"st_cvj6sg6p6f1abm77japg","pricing_plan_id":"cebpf4jnsgd1na2vs0mg"},{"bike_id":"f4d09c4b-b7d9-4ba0-948a-4e08ead5cb03","system_id":"levelo_inurba_marseille","lat":43.25499,"lon":5.37658,"is_reserved":false,"is_disabled":false,"rental_uris":{"android":"levelo://app?vid=f4d09c4b-b7d9-4ba0-948a-4e08ead5cb03","ios":"levelo://app?vid=f4d09c4b-b7d9-4ba0-948a-4e08ead5cb03"},"vehicle_type_id":"4","last_reported":1753009705,"current_range_meters":15200,"station_id":"ce4bhh12rcd13ifvqff0","pricing_plan_id":"cebpf4jnsgd1na2vs0mg"},{"bike_id":"749dec63-9293-4387-9e9a-1897e58840ee","system_id":"levelo_inurba_marseille","lat":43.29253,"lon":5.40908,"is_reserved":false,"is_disabled":false,"rental_uris":{"android":"levelo://app?vid=749dec63-9293-4387-9e9a-1897e58840ee","ios":"levelo://app?vid=749dec63-9293-4387-9e9a-1897e58840ee"},"vehicle_type_id":"4","last_reported":1753009705,"current_range_meters":15200,"station_id":"ce4bh192rcd13ifvqdc0","pricing_plan_id":"cebpf4jnsgd1na2vs0mg"},{"bike_id":"6f530211-2d31-4918-b78d-6fbc7b6302a4","system_id":"levelo_inurba_marseille","lat":43.23578,"lon":5.36136,"is_reserved":false,"is_disabled":false,"rental_uris":{"android":"levelo://app?vid=6f530211-2d31-4918-b78d-6fbc7b6302a4","ios":"levelo://app?vid=6f530211-2d31-4918-b78d-6fbc7b6302a4"},"vehicle_type_id":"4","last_reported":1753009705,"current_range_meters":16000,"station_id":"","pricing_plan_id":"cebpf4jnsgd1na2vs0mg"},{"bike_id":"0f79d5c0-56b7-47ce-8e61-854c9dcabcf2","system_id":"levelo_inurba_marseille","lat":43.29896,"lon":5.384572,"is_reserved":false,"is_disabled":false,"rental_uris":{"android":"levelo://app?vid=0f79d5c0-56b7-47ce-8e61-854c9dcabcf2","ios":"levelo://app?vid=0f79d5c0-56b7-47ce-8e61-854c9dcabcf2"},"vehicle_type_id":"4","last_reported":1753009705,"current_range_meters":16000,"station_id":"ce4bgt12rcd13ifvqcd0","pricing_plan_id":"cebpf4jnsgd1na2vs0mg"},{"bike_id":"b02f3694-c76b-4a2c-8395-65f09b78c0a1","system_id":"levelo_inurba_marseille","lat":43.217482,"lon":5.346013,"is_reserved":false,"is_disabled":false,"rental_uris":{"android":"levelo://app?vid=b02f3694-c76b-4a2c-8395-65f09b78c0a1","ios":"levelo://app?vid=b02f3694-c76b-4a2c-8395-65f09b78c0a1"},"vehicle_type_id":"4","last_reported":1753009705,"current_range_meters":16000,"station_id":"","pricing_plan_id":"cebpf4jnsgd1na2vs0mg"},{"bike_id":"96793585-b370-4499-97b5-55297e845c8f","system_id":"levelo_inurba_marseille","lat":43.21755,"lon":5.34609,"is_reserved":false,"is_disabled":true,"rental_uris":{"android":"levelo://app?vid=96793585-b370-4499-97b5-55297e845c8f","ios":"levelo://app?vid=96793585-b370-4499-97b5-55297e845c8f"},"vehicle_type_id":"4","last_reported":1753009705,"current_range_meters":16000,"station_id":"st_cvj6r9ubvosntc0bgbag","pricing_plan_id":"cebpf4jnsgd1na2vs0mg"},{"bike_id":"7773b2c7-f05b-4538-9c1f-0c3865a182ea","system_id":"levelo_inurba_marseille","lat":43.29576,"lon":5.39963,"is_reserved":false,"is_disabled":false,"rental_uris":{"android":"levelo://app?vid=7773b2c7-f05b-4538-9c1f-0c3865a182ea","ios":"levelo://app?vid=7773b2c7-f05b-4538-9c1f-0c3865a182ea"},"vehicle_type_id":"4","last_reported":1753009705,"current_range_meters":16400,"station_id":"ce4bh312rcd13ifvqdj0","pricing_plan_id":"cebpf4jnsgd1na2vs0mg"},{"bike_id":"7988183c-a382-4df8-bfe0-44c34ab63148","system_id":"levelo_inurba_marseille","lat":43.24668,"lon":5.38156,"is_reserved":false,"is_disabled":false,"rental_uris":{"android":"levelo://app?vid=7988183c-a382-4df8-bfe0-44c34ab63148","ios":"levelo://app?vid=7988183c-a382-4df8-bfe0-44c34ab63148"},"vehicle_type_id":"4","last_reported":1753009705,"current_range_meters":16000,"station_id":"ce4bhih2rcd13ifvqfr0","pricing_plan_id":"cebpf4jnsgd1na2vs0mg"},{"bike_id":"ae0d8c9f-8119-4312-b429-39e92d4e6ae7","system_id":"levelo_inurba_marseille","lat":43.23144,"lon":5.43734,"is_reserved":false,"is_disabled":false,"rental_uris":{"android":"levelo://app?vid=ae0d8c9f-8119-4312-b429-39e92d4e6ae7","ios":"levelo://app?vid=ae0d8c9f-8119-4312-b429-39e92d4e6ae7"},"vehicle_type_id":"4","last_reported":1753009705,"current_range_meters":16000,"station_id":"ce4bhmp2rcd13ifvqgog","pricing_plan_id":"cebpf4jnsgd1na2vs0mg"},{"bike_id":"3b2be714-3bef-4830-94a3-3e2510944c5c","system_id":"levelo_inurba_marseille","lat":43.23968,"lon":5.36633,"is_reserved":false,"is_disabled":false,"rental_uris":{"android":"levelo://app?vid=3b2be714-3bef-4830-94a3-3e2510944c5c","ios":"levelo://app?vid=3b2be714-3bef-4830-94a3-3e2510944c5c"},"vehicle_type_id":"4","last_reported":1753009705,"current_range_meters":16000,"station_id":"ce4bhi12rcd13ifvqfp0","pricing_plan_id":"cebpf4jnsgd1na2vs0mg"},{"bike_id":"f335eb8b-f2b0-48df-963c-2425602f9038","system_id":"levelo_inurba_marseille","lat":43.27004,"lon":5.40121,"is_reserved":false,"is_disabled":true,"rental_uris":{"android":"levelo://app?vid=f335eb8b-f2b0-48df-963c-2425602f9038","ios":"levelo://app?vid=f335eb8b-f2b0-48df-963c-2425602f9038"},"vehicle_type_id":"4","last_reported":1753009705,"current_range_meters":16400,"station_id":"","pricing_plan_id":"cebpf4jnsgd1na2vs0mg"},{"bike_id":"ace48f5e-3699-45a3-bafa-d39f0186d12e","system_id":"levelo_inurba_marseille","lat":43.21749,"lon":5.34602,"is_reserved":false,"is_disabled":false,"rental_uris":{"android":"levelo://app?vid=ace48f5e-3699-45a3-bafa-d39f0186d12e","ios":"levelo://app?vid=ace48f5e-3699-45a3-bafa-d39f0186d12e"},"vehicle_type_id":"4","last_reported":1753009705,"current_range_meters":16400,"station_id":"st_cvj6r9ubvosntc0bgbag","pricing_plan_id":"cebpf4jnsgd1na2vs0mg"},{"bike_id":"0920b3af-a5af-436a-9926-14d9501ed510","system_id":"levelo_inurba_marseille","lat":43.29078,"lon":5.37179,"is_reserved":false,"is_disabled":false,"rental_uris":{"android":"levelo://app?vid=0920b3af-a5af-436a-9926-14d9501ed510","ios":"levelo://app?vid=0920b3af-a5af-436a-9926-14d9501ed510"},"vehicle_type_id":"4","last_reported":1753009705,"current_range_meters":16400,"station_id":"ce4bh5p2rcd13ifvqe4g","pricing_plan_id":"cebpf4jnsgd1na2vs0mg"},{"bike_id":"27db1ad3-2947-41e8-8ab4-a42a02cc25df","system_id":"levelo_inurba_marseille","lat":43.28286,"lon":5.35087,"is_reserved":false,"is_disabled":false,"rental_uris":{"android":"levelo://app?vid=27db1ad3-2947-41e8-8ab4-a42a02cc25df","ios":"levelo://app?vid=27db1ad3-2947-41e8-8ab4-a42a02cc25df"},"vehicle_type_id":"4","last_reported":1753009705,"current_range_meters":16400,"station_id":"ce4bhbp2rcd13ifvqerg","pricing_plan_id":"cebpf4jnsgd1na2vs0mg"},{"bike_id":"284cf330-577a-4932-8f14-cf3cdaa65655","system_id":"levelo_inurba_marseille","lat":43.308022,"lon":5.435205,"is_reserved":false,"is_disabled":false,"rental_uris":{"android":"levelo://app?vid=284cf330-577a-4932-8f14-cf3cdaa65655","ios":"levelo://app?vid=284cf330-577a-4932-8f14-cf3cdaa65655"},"vehicle_type_id":"4","last_reported":1753009705,"current_range_meters":16400,"station_id":"ce4bhph2rcd13ifvqheg","pricing_plan_id":"cebpf4jnsgd1na2vs0mg"},{"bike_id":"053762ef-2967-4c03-83aa-9c21c06b9aed","system_id":"levelo_inurba_marseille","lat":43.24071,"lon":5.37727,"is_reserved":false,"is_disabled":false,"rental_uris":{"android":"levelo://app?vid=053762ef-2967-4c03-83aa-9c21c06b9aed","ios":"levelo://app?vid=053762ef-2967-4c03-83aa-9c21c06b9aed"},"vehicle_type_id":"4","last_reported":1753009705,"current_range_meters":16400,"station_id":"ce4bhnp2rcd13ifvqgvg","pricing_plan_id":"cebpf4jnsgd1na2vs0mg"},{"bike_id":"8e49fe63-ad1b-4407-9b4f-77d4434f8cbe","system_id":"levelo_inurba_marseille","lat":43.30127,"lon":5.38085,"is_reserved":false,"is_disabled":false,"rental_uris":{"android":"levelo://app?vid=8e49fe63-ad1b-4407-9b4f-77d4434f8cbe","ios":"levelo://app?vid=8e49fe63-ad1b-4407-9b4f-77d4434f8cbe"},"vehicle_type_id":"4","last_reported":1753009705,"current_range_meters":16400,"station_id":"ce4bgjp2rcd13ifvqbh0","pricing_plan_id":"cebpf4jnsgd1na2vs0mg"},{"bike_id":"0f9728a3-d616-4764-981b-ad0d3bfeb31a","system_id":"levelo_inurba_marseille","lat":43.21745,"lon":5.34598,"is_reserved":false,"is_disabled":false,"rental_uris":{"android":"levelo://app?vid=0f9728a3-d616-4764-981b-ad0d3bfeb31a","ios":"levelo://app?vid=0f9728a3-d616-4764-981b-ad0d3bfeb31a"},"vehicle_type_id":"4","last_reported":1753009705,"current_range_meters":16800,"station_id":"st_cvj6r9ubvosntc0bgbag","pricing_plan_id":"cebpf4jnsgd1na2vs0mg"},{"bike_id":"ff304561-c8ce-4ac1-9008-9c7fa7a2d85b","system_id":"levelo_inurba_marseille","lat":43.29249,"lon":5.38435,"is_reserved":false,"is_disabled":true,"rental_uris":{"android":"levelo://app?vid=ff304561-c8ce-4ac1-9008-9c7fa7a2d85b","ios":"levelo://app?vid=ff304561-c8ce-4ac1-9008-9c7fa7a2d85b"},"vehicle_type_id":"4","last_reported":1753009705,"current_range_meters":16800,"station_id":"ce4bh692rcd13ifvqea0","pricing_plan_id":"cebpf4jnsgd1na2vs0mg"},{"bike_id":"c1e6057c-ff5a-4477-a9f1-93444a633642","system_id":"levelo_inurba_marseille","lat":43.271793,"lon":5.390549,"is_reserved":false,"is_disabled":false,"rental_uris":{"android":"levelo://app?vid=c1e6057c-ff5a-4477-a9f1-93444a633642","ios":"levelo://app?vid=c1e6057c-ff5a-4477-a9f1-93444a633642"},"vehicle_type_id":"4","last_reported":1753009705,"current_range_meters":16800,"station_id":"","pricing_plan_id":"cebpf4jnsgd1na2vs0mg"},{"bike_id":"cb331a89-56a6-4651-9865-7241cd4ca587","system_id":"levelo_inurba_marseille","lat":43.32486,"lon":5.36573,"is_reserved":false,"is_disabled":false,"rental_uris":{"android":"levelo://app?vid=cb331a89-56a6-4651-9865-7241cd4ca587","ios":"levelo://app?vid=cb331a89-56a6-4651-9865-7241cd4ca587"},"vehicle_type_id":"4","last_reported":1753009705,"current_range_meters":16800,"station_id":"ce4bhs12rcd13ifvqhvg","pricing_plan_id":"cebpf4jnsgd1na2vs0mg"},{"bike_id":"3d5aea9e-cb5c-48df-8660-4ab274390df5","system_id":"levelo_inurba_marseille","lat":43.292648,"lon":5.368437,"is_reserved":false,"is_disabled":false,"rental_uris":{"android":"levelo://app?vid=3d5aea9e-cb5c-48df-8660-4ab274390df5","ios":"levelo://app?vid=3d5aea9e-cb5c-48df-8660-4ab274390df5"},"vehicle_type_id":"4","last_reported":1753009705,"current_range_meters":16800,"station_id":"ce4bhbp2rcd13ifvqesg","pricing_plan_id":"cebpf4jnsgd1na2vs0mg"},{"bike_id":"dc654502-b68b-426b-b6bf-8516fdc04d31","system_id":"levelo_inurba_marseille","lat":43.28087,"lon":5.39654,"is_reserved":false,"is_disabled":false,"rental_uris":{"android":"levelo://app?vid=dc654502-b68b-426b-b6bf-8516fdc04d31","ios":"levelo://app?vid=dc654502-b68b-426b-b6bf-8516fdc04d31"},"vehicle_type_id":"4","last_reported":1753009705,"current_range_meters":16800,"station_id":"ce4bho12rcd13ifvqh2g","pricing_plan_id":"cebpf4jnsgd1na2vs0mg"},{"bike_id":"c0891025-8c5b-4eaa-a169-f1586fcfd554","system_id":"levelo_inurba_marseille","lat":43.278261,"lon":5.40714,"is_reserved":false,"is_disabled":false,"rental_uris":{"android":"levelo://app?vid=c0891025-8c5b-4eaa-a169-f1586fcfd554","ios":"levelo://app?vid=c0891025-8c5b-4eaa-a169-f1586fcfd554"},"vehicle_type_id":"4","last_reported":1753009705,"current_range_meters":16800,"station_id":"ce4bhnh2rcd13ifvqgtg","pricing_plan_id":"cebpf4jnsgd1na2vs0mg"},{"bike_id":"341eec4e-ddcf-4f75-95c6-ecd84ef432ec","system_id":"levelo_inurba_marseille","lat":43.2294,"lon":5.35394,"is_reserved":false,"is_disabled":false,"rental_uris":{"android":"levelo://app?vid=341eec4e-ddcf-4f75-95c6-ecd84ef432ec","ios":"levelo://app?vid=341eec4e-ddcf-4f75-95c6-ecd84ef432ec"},"vehicle_type_id":"4","last_reported":1753009705,"current_range_meters":17200,"station_id":"cpo3532slgdg3j2ikp40","pricing_plan_id":"cebpf4jnsgd1na2vs0mg"},{"bike_id":"b862303e-1b88-4ff6-923a-6de878d2c4e1","system_id":"levelo_inurba_marseille","lat":43.27054,"lon":5.4224,"is_reserved":false,"is_disabled":false,"rental_uris":{"android":"levelo://app?vid=b862303e-1b88-4ff6-923a-6de878d2c4e1","ios":"levelo://app?vid=b862303e-1b88-4ff6-923a-6de878d2c4e1"},"vehicle_type_id":"4","last_reported":1753009705,"current_range_meters":17200,"station_id":"ce4bhk92rcd13ifvqgb0","pricing_plan_id":"cebpf4jnsgd1na2vs0mg"},{"bike_id":"d8c3854a-c85f-475e-bec3-ba4546a9fbff","system_id":"levelo_inurba_marseille","lat":43.30544,"lon":5.36514,"is_reserved":false,"is_disabled":false,"rental_uris":{"android":"levelo://app?vid=d8c3854a-c85f-475e-bec3-ba4546a9fbff","ios":"levelo://app?vid=d8c3854a-c85f-475e-bec3-ba4546a9fbff"},"vehicle_type_id":"4","last_reported":1753009705,"current_range_meters":17200,"station_id":"ce4bgs12rcd13ifvqcag","pricing_plan_id":"cebpf4jnsgd1na2vs0mg"},{"bike_id":"53cb4f43-b1af-4efe-9f40-e0338804f4d4","system_id":"levelo_inurba_marseille","lat":43.31322,"lon":5.39065,"is_reserved":false,"is_disabled":false,"rental_uris":{"android":"levelo://app?vid=53cb4f43-b1af-4efe-9f40-e0338804f4d4","ios":"levelo://app?vid=53cb4f43-b1af-4efe-9f40-e0338804f4d4"},"vehicle_type_id":"4","last_reported":1753009705,"current_range_meters":17200,"station_id":"","pricing_plan_id":"cebpf4jnsgd1na2vs0mg"},{"bike_id":"5ccf6fcb-646f-4acf-9fbc-c7f16de7c973","system_id":"levelo_inurba_marseille","lat":43.32666,"lon":5.42336,"is_reserved":false,"is_disabled":false,"rental_uris":{"android":"levelo://app?vid=5ccf6fcb-646f-4acf-9fbc-c7f16de7c973","ios":"levelo://app?vid=5ccf6fcb-646f-4acf-9fbc-c7f16de7c973"},"vehicle_type_id":"4","last_reported":1753009705,"current_range_meters":17200,"station_id":"","pricing_plan_id":"cebpf4jnsgd1na2vs0mg"},{"bike_id":"550ad21b-250b-44ee-8964-a26585d80277","system_id":"levelo_inurba_marseille","lat":43.288557,"lon":5.358492,"is_reserved":false,"is_disabled":false,"rental_uris":{"android":"levelo://app?vid=550ad21b-250b-44ee-8964-a26585d80277","ios":"levelo://app?vid=550ad21b-250b-44ee-8964-a26585d80277"},"vehicle_type_id":"4","last_reported":1753009705,"current_range_meters":17200,"station_id":"ce4bhb12rcd13ifvqem0","pricing_plan_id":"cebpf4jnsgd1na2vs0mg"},{"bike_id":"6cfcf428-0ede-4c91-a5f6-8e11f1e8ae87","system_id":"levelo_inurba_marseille","lat":43.29899,"lon":5.4367,"is_reserved":false,"is_disabled":false,"rental_uris":{"android":"levelo://app?vid=6cfcf428-0ede-4c91-a5f6-8e11f1e8ae87","ios":"levelo://app?vid=6cfcf428-0ede-4c91-a5f6-8e11f1e8ae87"},"vehicle_type_id":"4","last_reported":1753009705,"current_range_meters":17200,"station_id":"ce4bhpp2rcd13ifvqhfg","pricing_plan_id":"cebpf4jnsgd1na2vs0mg"},{"bike_id":"47c42873-a005-478e-953d-7fdb4918ff42","system_id":"levelo_inurba_marseille","lat":43.279904,"lon":5.416644,"is_reserved":false,"is_disabled":false,"rental_uris":{"android":"levelo://app?vid=47c42873-a005-478e-953d-7fdb4918ff42","ios":"levelo://app?vid=47c42873-a005-478e-953d-7fdb4918ff42"},"vehicle_type_id":"4","last_reported":1753009705,"current_range_meters":17200,"station_id":"ce4bho12rcd13ifvqh1g","pricing_plan_id":"cebpf4jnsgd1na2vs0mg"},{"bike_id":"e1fc8003-5085-4a7f-a635-4b1964c67b70","system_id":"levelo_inurba_marseille","lat":43.28496,"lon":5.38438,"is_reserved":false,"is_disabled":false,"rental_uris":{"android":"levelo://app?vid=e1fc8003-5085-4a7f-a635-4b1964c67b70","ios":"levelo://app?vid=e1fc8003-5085-4a7f-a635-4b1964c67b70"},"vehicle_type_id":"4","last_reported":1753009705,"current_range_meters":17200,"station_id":"ce4bh512rcd13ifvqe3g","pricing_plan_id":"cebpf4jnsgd1na2vs0mg"},{"bike_id":"50f8d88d-d50c-4811-b545-597a88c8b60d","system_id":"levelo_inurba_marseille","lat":43.29322,"lon":5.36977,"is_reserved":false,"is_disabled":false,"rental_uris":{"android":"levelo://app?vid=50f8d88d-d50c-4811-b545-597a88c8b60d","ios":"levelo://app?vid=50f8d88d-d50c-4811-b545-597a88c8b60d"},"vehicle_type_id":"4","last_reported":1753009705,"current_range_meters":17200,"station_id":"","pricing_plan_id":"cebpf4jnsgd1na2vs0mg"},{"bike_id":"42752829-3ee2-4e84-849d-429017304915","system_id":"levelo_inurba_marseille","lat":43.28482,"lon":5.35942,"is_reserved":false,"is_disabled":true,"rental_uris":{"android":"levelo://app?vid=42752829-3ee2-4e84-849d-429017304915","ios":"levelo://app?vid=42752829-3ee2-4e84-849d-429017304915"},"vehicle_type_id":"4","last_reported":1753009705,"current_range_meters":17200,"station_id":"ce4bhah2rcd13ifvqei0","pricing_plan_id":"cebpf4jnsgd1na2vs0mg"},{"bike_id":"3a0ad0b3-730c-4b6f-afc8-d25401cb7d69","system_id":"levelo_inurba_marseille","lat":43.246704,"lon":5.381556,"is_reserved":false,"is_disabled":false,"rental_uris":{"android":"levelo://app?vid=3a0ad0b3-730c-4b6f-afc8-d25401cb7d69","ios":"levelo://app?vid=3a0ad0b3-730c-4b6f-afc8-d25401cb7d69"},"vehicle_type_id":"4","last_reported":1753009705,"current_range_meters":17200,"station_id":"ce4bhih2rcd13ifvqfr0","pricing_plan_id":"cebpf4jnsgd1na2vs0mg"},{"bike_id":"991080c6-f716-4814-957a-957645a20cb5","system_id":"levelo_inurba_marseille","lat":43.28419,"lon":5.34996,"is_reserved":false,"is_disabled":false,"rental_uris":{"android":"levelo://app?vid=991080c6-f716-4814-957a-957645a20cb5","ios":"levelo://app?vid=991080c6-f716-4814-957a-957645a20cb5"},"vehicle_type_id":"4","last_reported":1753009705,"current_range_meters":17200,"station_id":"ce4bhbh2rcd13ifvqepg","pricing_plan_id":"cebpf4jnsgd1na2vs0mg"},{"bike_id":"4355836e-ae99-4039-b85f-c4e239c9dca5","system_id":"levelo_inurba_marseille","lat":43.29914,"lon":5.43665,"is_reserved":false,"is_disabled":false,"rental_uris":{"android":"levelo://app?vid=4355836e-ae99-4039-b85f-c4e239c9dca5","ios":"levelo://app?vid=4355836e-ae99-4039-b85f-c4e239c9dca5"},"vehicle_type_id":"4","last_reported":1753009705,"current_range_meters":17600,"station_id":"ce4bhpp2rcd13ifvqhfg","pricing_plan_id":"cebpf4jnsgd1na2vs0mg"},{"bike_id":"1ef12b19-7f37-428d-b8d8-b465ce32d570","system_id":"levelo_inurba_marseille","lat":43.30543,"lon":5.36705,"is_reserved":false,"is_disabled":false,"rental_uris":{"android":"levelo://app?vid=1ef12b19-7f37-428d-b8d8-b465ce32d570","ios":"levelo://app?vid=1ef12b19-7f37-428d-b8d8-b465ce32d570"},"vehicle_type_id":"4","last_reported":1753009705,"current_range_meters":17200,"station_id":"ce4bgrp2rcd13ifvqc9g","pricing_plan_id":"cebpf4jnsgd1na2vs0mg"},{"bike_id":"c1f4de60-d499-493f-9124-18747d4e9c81","system_id":"levelo_inurba_marseille","lat":43.30728,"lon":5.42433,"is_reserved":false,"is_disabled":false,"rental_uris":{"android":"levelo://app?vid=c1f4de60-d499-493f-9124-18747d4e9c81","ios":"levelo://app?vid=c1f4de60-d499-493f-9124-18747d4e9c81"},"vehicle_type_id":"4","last_reported":1753009705,"current_range_meters":17600,"station_id":"st_cvj6ca6bvosntc0bfgr0","pricing_plan_id":"cebpf4jnsgd1na2vs0mg"},{"bike_id":"4c8283f7-9214-4f90-b93f-b371d5ff3abb","system_id":"levelo_inurba_marseille","lat":43.212098,"lon":5.351169,"is_reserved":false,"is_disabled":false,"rental_uris":{"android":"levelo://app?vid=4c8283f7-9214-4f90-b93f-b371d5ff3abb","ios":"levelo://app?vid=4c8283f7-9214-4f90-b93f-b371d5ff3abb"},"vehicle_type_id":"4","last_reported":1753009705,"current_range_meters":17600,"station_id":"st_cvj6sg6p6f1abm77japg","pricing_plan_id":"cebpf4jnsgd1na2vs0mg"},{"bike_id":"f3f581c3-7fd6-46b6-b25c-df950de01306","system_id":"levelo_inurba_marseille","lat":43.28705,"lon":5.40028,"is_reserved":false,"is_disabled":true,"rental_uris":{"android":"levelo://app?vid=f3f581c3-7fd6-46b6-b25c-df950de01306","ios":"levelo://app?vid=f3f581c3-7fd6-46b6-b25c-df950de01306"},"vehicle_type_id":"4","last_reported":1753009705,"current_range_meters":17600,"station_id":"ce4bho92rcd13ifvqh3g","pricing_plan_id":"cebpf4jnsgd1na2vs0mg"},{"bike_id":"6da7ca7d-6633-429b-9803-313dc5de4c11","system_id":"levelo_inurba_marseille","lat":43.22497,"lon":5.34762,"is_reserved":false,"is_disabled":false,"rental_uris":{"android":"levelo://app?vid=6da7ca7d-6633-429b-9803-313dc5de4c11","ios":"levelo://app?vid=6da7ca7d-6633-429b-9803-313dc5de4c11"},"vehicle_type_id":"4","last_reported":1753009705,"current_range_meters":17600,"station_id":"st_cvj5dfep6f1abm77gieg","pricing_plan_id":"cebpf4jnsgd1na2vs0mg"},{"bike_id":"825ea73b-b817-4598-bf60-4521f54a6bfd","system_id":"levelo_inurba_marseille","lat":43.21751,"lon":5.346,"is_reserved":false,"is_disabled":false,"rental_uris":{"android":"levelo://app?vid=825ea73b-b817-4598-bf60-4521f54a6bfd","ios":"levelo://app?vid=825ea73b-b817-4598-bf60-4521f54a6bfd"},"vehicle_type_id":"4","last_reported":1753009705,"current_range_meters":17600,"station_id":"st_cvj6r9ubvosntc0bgbag","pricing_plan_id":"cebpf4jnsgd1na2vs0mg"},{"bike_id":"a48d59f2-783e-4244-b951-fde58de40535","system_id":"levelo_inurba_marseille","lat":43.22936,"lon":5.35377,"is_reserved":false,"is_disabled":false,"rental_uris":{"android":"levelo://app?vid=a48d59f2-783e-4244-b951-fde58de40535","ios":"levelo://app?vid=a48d59f2-783e-4244-b951-fde58de40535"},"vehicle_type_id":"4","last_reported":1753009705,"current_range_meters":17600,"station_id":"cpo3532slgdg3j2ikp40","pricing_plan_id":"cebpf4jnsgd1na2vs0mg"},{"bike_id":"8979afbb-d831-492b-8bd1-2b5d774796f7","system_id":"levelo_inurba_marseille","lat":43.27081,"lon":5.42274,"is_reserved":false,"is_disabled":false,"rental_uris":{"android":"levelo://app?vid=8979afbb-d831-492b-8bd1-2b5d774796f7","ios":"levelo://app?vid=8979afbb-d831-492b-8bd1-2b5d774796f7"},"vehicle_type_id":"4","last_reported":1753009705,"current_range_meters":17600,"station_id":"ce4bhk92rcd13ifvqgb0","pricing_plan_id":"cebpf4jnsgd1na2vs0mg"},{"bike_id":"55f2f42f-2c77-4f2c-a615-346aaedeeebd","system_id":"levelo_inurba_marseille","lat":43.30529,"lon":5.36525,"is_reserved":false,"is_disabled":false,"rental_uris":{"android":"levelo://app?vid=55f2f42f-2c77-4f2c-a615-346aaedeeebd","ios":"levelo://app?vid=55f2f42f-2c77-4f2c-a615-346aaedeeebd"},"vehicle_type_id":"4","last_reported":1753009705,"current_range_meters":17600,"station_id":"ce4bgs12rcd13ifvqcag","pricing_plan_id":"cebpf4jnsgd1na2vs0mg"},{"bike_id":"bb8893c6-09e4-4781-bc9b-a102b110c0ce","system_id":"levelo_inurba_marseille","lat":43.23063,"lon":5.35493,"is_reserved":false,"is_disabled":false,"rental_uris":{"android":"levelo://app?vid=bb8893c6-09e4-4781-bc9b-a102b110c0ce","ios":"levelo://app?vid=bb8893c6-09e4-4781-bc9b-a102b110c0ce"},"vehicle_type_id":"4","last_reported":1753009705,"current_range_meters":18000,"station_id":"cpo3342slgdg3j2ifvpg","pricing_plan_id":"cebpf4jnsgd1na2vs0mg"},{"bike_id":"d007a63b-662c-4b54-b17f-51fadf0cd81e","system_id":"levelo_inurba_marseille","lat":43.22928,"lon":5.353798,"is_reserved":false,"is_disabled":false,"rental_uris":{"android":"levelo://app?vid=d007a63b-662c-4b54-b17f-51fadf0cd81e","ios":"levelo://app?vid=d007a63b-662c-4b54-b17f-51fadf0cd81e"},"vehicle_type_id":"4","last_reported":1753009705,"current_range_meters":18000,"station_id":"","pricing_plan_id":"cebpf4jnsgd1na2vs0mg"},{"bike_id":"abf5ef22-6ac7-4660-87cb-c3d9f37ab3f3","system_id":"levelo_inurba_marseille","lat":43.29787,"lon":5.37116,"is_reserved":false,"is_disabled":false,"rental_uris":{"android":"levelo://app?vid=abf5ef22-6ac7-4660-87cb-c3d9f37ab3f3","ios":"levelo://app?vid=abf5ef22-6ac7-4660-87cb-c3d9f37ab3f3"},"vehicle_type_id":"4","last_reported":1753009705,"current_range_meters":18000,"station_id":"ce4bgop2rcd13ifvqc1g","pricing_plan_id":"cebpf4jnsgd1na2vs0mg"},{"bike_id":"01ef6f38-0cb9-4831-9c9a-0f76f326e484","system_id":"levelo_inurba_marseille","lat":43.29003,"lon":5.35625,"is_reserved":false,"is_disabled":true,"rental_uris":{"android":"levelo://app?vid=01ef6f38-0cb9-4831-9c9a-0f76f326e484","ios":"levelo://app?vid=01ef6f38-0cb9-4831-9c9a-0f76f326e484"},"vehicle_type_id":"4","last_reported":1753009705,"current_range_meters":18000,"station_id":"ce4bhb92rcd13ifvqen0","pricing_plan_id":"cebpf4jnsgd1na2vs0mg"},{"bike_id":"3d36c590-bfb3-4f3d-a821-3b0275041fa7","system_id":"levelo_inurba_marseille","lat":43.304303,"lon":5.41337,"is_reserved":false,"is_disabled":false,"rental_uris":{"android":"levelo://app?vid=3d36c590-bfb3-4f3d-a821-3b0275041fa7","ios":"levelo://app?vid=3d36c590-bfb3-4f3d-a821-3b0275041fa7"},"vehicle_type_id":"4","last_reported":1753009705,"current_range_meters":18000,"station_id":"ce4bhop2rcd13ifvqh8g","pricing_plan_id":"cebpf4jnsgd1na2vs0mg"},{"bike_id":"b1634df7-f02c-4fc2-b195-6b1306c61596","system_id":"levelo_inurba_marseille","lat":43.284157,"lon":5.349809,"is_reserved":false,"is_disabled":false,"rental_uris":{"android":"levelo://app?vid=b1634df7-f02c-4fc2-b195-6b1306c61596","ios":"levelo://app?vid=b1634df7-f02c-4fc2-b195-6b1306c61596"},"vehicle_type_id":"4","last_reported":1753009705,"current_range_meters":18000,"station_id":"ce4bhbh2rcd13ifvqepg","pricing_plan_id":"cebpf4jnsgd1na2vs0mg"},{"bike_id":"685f2120-221e-452d-95f5-ad6ef7024cb8","system_id":"levelo_inurba_marseille","lat":43.30798,"lon":5.43531,"is_reserved":false,"is_disabled":false,"rental_uris":{"android":"levelo://app?vid=685f2120-221e-452d-95f5-ad6ef7024cb8","ios":"levelo://app?vid=685f2120-221e-452d-95f5-ad6ef7024cb8"},"vehicle_type_id":"4","last_reported":1753009705,"current_range_meters":18000,"station_id":"ce4bhph2rcd13ifvqheg","pricing_plan_id":"cebpf4jnsgd1na2vs0mg"},{"bike_id":"9c5afea3-1f63-4f70-9cb3-e6b4bf2ce02c","system_id":"levelo_inurba_marseille","lat":43.28623,"lon":5.3822,"is_reserved":false,"is_disabled":false,"rental_uris":{"android":"levelo://app?vid=9c5afea3-1f63-4f70-9cb3-e6b4bf2ce02c","ios":"levelo://app?vid=9c5afea3-1f63-4f70-9cb3-e6b4bf2ce02c"},"vehicle_type_id":"4","last_reported":1753009705,"current_range_meters":18000,"station_id":"","pricing_plan_id":"cebpf4jnsgd1na2vs0mg"},{"bike_id":"ae2679a0-b2a2-4165-87f5-73851922f36f","system_id":"levelo_inurba_marseille","lat":43.24986,"lon":5.41661,"is_reserved":false,"is_disabled":false,"rental_uris":{"android":"levelo://app?vid=ae2679a0-b2a2-4165-87f5-73851922f36f","ios":"levelo://app?vid=ae2679a0-b2a2-4165-87f5-73851922f36f"},"vehicle_type_id":"4","last_reported":1753009705,"current_range_meters":18000,"station_id":"","pricing_plan_id":"cebpf4jnsgd1na2vs0mg"},{"bike_id":"054459cc-5be1-4b82-9260-a4f74104380f","system_id":"levelo_inurba_marseille","lat":43.29552,"lon":5.42298,"is_reserved":false,"is_disabled":false,"rental_uris":{"android":"levelo://app?vid=054459cc-5be1-4b82-9260-a4f74104380f","ios":"levelo://app?vid=054459cc-5be1-4b82-9260-a4f74104380f"},"vehicle_type_id":"4","last_reported":1753009705,"current_range_meters":18000,"station_id":"ce4bhph2rcd13ifvqhdg","pricing_plan_id":"cebpf4jnsgd1na2vs0mg"},{"bike_id":"de9a47b5-edea-465f-9387-34f73bc29d46","system_id":"levelo_inurba_marseille","lat":43.22959,"lon":5.354,"is_reserved":false,"is_disabled":false,"rental_uris":{"android":"levelo://app?vid=de9a47b5-edea-465f-9387-34f73bc29d46","ios":"levelo://app?vid=de9a47b5-edea-465f-9387-34f73bc29d46"},"vehicle_type_id":"4","last_reported":1753009705,"current_range_meters":18000,"station_id":"cpo3532slgdg3j2ikp40","pricing_plan_id":"cebpf4jnsgd1na2vs0mg"},{"bike_id":"5108a5b0-2dc4-49f7-bb16-e252a6a6fbe4","system_id":"levelo_inurba_marseille","lat":43.23178,"lon":5.39987,"is_reserved":false,"is_disabled":false,"rental_uris":{"android":"levelo://app?vid=5108a5b0-2dc4-49f7-bb16-e252a6a6fbe4","ios":"levelo://app?vid=5108a5b0-2dc4-49f7-bb16-e252a6a6fbe4"},"vehicle_type_id":"4","last_reported":1753009705,"current_range_meters":18800,"station_id":"ce4bhn12rcd13ifvqgqg","pricing_plan_id":"cebpf4jnsgd1na2vs0mg"},{"bike_id":"038b3fac-fb9c-4208-9edf-909787f1ac36","system_id":"levelo_inurba_marseille","lat":43.284207,"lon":5.34982,"is_reserved":false,"is_disabled":false,"rental_uris":{"android":"levelo://app?vid=038b3fac-fb9c-4208-9edf-909787f1ac36","ios":"levelo://app?vid=038b3fac-fb9c-4208-9edf-909787f1ac36"},"vehicle_type_id":"4","last_reported":1753009705,"current_range_meters":18800,"station_id":"ce4bhbh2rcd13ifvqepg","pricing_plan_id":"cebpf4jnsgd1na2vs0mg"},{"bike_id":"9565704b-7c9d-496e-aa5a-d970d5ab0ba7","system_id":"levelo_inurba_marseille","lat":43.28428,"lon":5.34997,"is_reserved":false,"is_disabled":false,"rental_uris":{"android":"levelo://app?vid=9565704b-7c9d-496e-aa5a-d970d5ab0ba7","ios":"levelo://app?vid=9565704b-7c9d-496e-aa5a-d970d5ab0ba7"},"vehicle_type_id":"4","last_reported":1753009705,"current_range_meters":18800,"station_id":"ce4bhbh2rcd13ifvqepg","pricing_plan_id":"cebpf4jnsgd1na2vs0mg"},{"bike_id":"fe629fe2-85f2-4422-b9e4-ffd180efa62c","system_id":"levelo_inurba_marseille","lat":43.29803,"lon":5.40408,"is_reserved":false,"is_disabled":false,"rental_uris":{"android":"levelo://app?vid=fe629fe2-85f2-4422-b9e4-ffd180efa62c","ios":"levelo://app?vid=fe629fe2-85f2-4422-b9e4-ffd180efa62c"},"vehicle_type_id":"4","last_reported":1753009705,"current_range_meters":18000,"station_id":"ce4bh112rcd13ifvqd90","pricing_plan_id":"cebpf4jnsgd1na2vs0mg"},{"bike_id":"8f7adead-f100-4066-9aea-32606b93a10c","system_id":"levelo_inurba_marseille","lat":43.28432,"lon":5.35006,"is_reserved":false,"is_disabled":false,"rental_uris":{"android":"levelo://app?vid=8f7adead-f100-4066-9aea-32606b93a10c","ios":"levelo://app?vid=8f7adead-f100-4066-9aea-32606b93a10c"},"vehicle_type_id":"4","last_reported":1753009705,"current_range_meters":18800,"station_id":"ce4bhbh2rcd13ifvqepg","pricing_plan_id":"cebpf4jnsgd1na2vs0mg"},{"bike_id":"d100812f-9e77-4b3a-a11b-18211b570584","system_id":"levelo_inurba_marseille","lat":43.324875,"lon":5.365633,"is_reserved":false,"is_disabled":false,"rental_uris":{"android":"levelo://app?vid=d100812f-9e77-4b3a-a11b-18211b570584","ios":"levelo://app?vid=d100812f-9e77-4b3a-a11b-18211b570584"},"vehicle_type_id":"4","last_reported":1753009705,"current_range_meters":18800,"station_id":"ce4bhs12rcd13ifvqhvg","pricing_plan_id":"cebpf4jnsgd1na2vs0mg"},{"bike_id":"aacc1604-b351-47a4-8a14-228f69963db9","system_id":"levelo_inurba_marseille","lat":43.24678,"lon":5.38152,"is_reserved":false,"is_disabled":false,"rental_uris":{"android":"levelo://app?vid=aacc1604-b351-47a4-8a14-228f69963db9","ios":"levelo://app?vid=aacc1604-b351-47a4-8a14-228f69963db9"},"vehicle_type_id":"4","last_reported":1753009705,"current_range_meters":18800,"station_id":"ce4bhih2rcd13ifvqfr0","pricing_plan_id":"cebpf4jnsgd1na2vs0mg"},{"bike_id":"9075d154-64a4-4ca8-8aec-f1f3d6a625d0","system_id":"levelo_inurba_marseille","lat":43.28845,"lon":5.39305,"is_reserved":false,"is_disabled":false,"rental_uris":{"android":"levelo://app?vid=9075d154-64a4-4ca8-8aec-f1f3d6a625d0","ios":"levelo://app?vid=9075d154-64a4-4ca8-8aec-f1f3d6a625d0"},"vehicle_type_id":"4","last_reported":1753009705,"current_range_meters":18800,"station_id":"ce4bh2p2rcd13ifvqdi0","pricing_plan_id":"cebpf4jnsgd1na2vs0mg"},{"bike_id":"c47c4612-aa9a-40e0-9a78-5da247b20688","system_id":"levelo_inurba_marseille","lat":43.22502,"lon":5.34783,"is_reserved":false,"is_disabled":false,"rental_uris":{"android":"levelo://app?vid=c47c4612-aa9a-40e0-9a78-5da247b20688","ios":"levelo://app?vid=c47c4612-aa9a-40e0-9a78-5da247b20688"},"vehicle_type_id":"4","last_reported":1753009705,"current_range_meters":18800,"station_id":"st_cvj5dfep6f1abm77gieg","pricing_plan_id":"cebpf4jnsgd1na2vs0mg"},{"bike_id":"e31bd909-7c26-4233-baa8-f6b06a8e2289","system_id":"levelo_inurba_marseille","lat":43.2862,"lon":5.35102,"is_reserved":false,"is_disabled":false,"rental_uris":{"android":"levelo://app?vid=e31bd909-7c26-4233-baa8-f6b06a8e2289","ios":"levelo://app?vid=e31bd909-7c26-4233-baa8-f6b06a8e2289"},"vehicle_type_id":"4","last_reported":1753009705,"current_range_meters":18800,"station_id":"ce4bhch2rcd13ifvqeug","pricing_plan_id":"cebpf4jnsgd1na2vs0mg"},{"bike_id":"d38c1d91-51eb-4002-91e2-00f8911f8e7e","system_id":"levelo_inurba_marseille","lat":43.2176,"lon":5.34599,"is_reserved":false,"is_disabled":false,"rental_uris":{"android":"levelo://app?vid=d38c1d91-51eb-4002-91e2-00f8911f8e7e","ios":"levelo://app?vid=d38c1d91-51eb-4002-91e2-00f8911f8e7e"},"vehicle_type_id":"4","last_reported":1753009705,"current_range_meters":19200,"station_id":"st_cvj6r9ubvosntc0bgbag","pricing_plan_id":"cebpf4jnsgd1na2vs0mg"},{"bike_id":"c6f13c59-2793-4a1e-87aa-6f0d71252623","system_id":"levelo_inurba_marseille","lat":43.29904,"lon":5.43667,"is_reserved":false,"is_disabled":false,"rental_uris":{"android":"levelo://app?vid=c6f13c59-2793-4a1e-87aa-6f0d71252623","ios":"levelo://app?vid=c6f13c59-2793-4a1e-87aa-6f0d71252623"},"vehicle_type_id":"4","last_reported":1753009705,"current_range_meters":19200,"station_id":"ce4bhpp2rcd13ifvqhfg","pricing_plan_id":"cebpf4jnsgd1na2vs0mg"},{"bike_id":"b09b43a8-fdca-432d-be5f-53f66d596985","system_id":"levelo_inurba_marseille","lat":43.282671,"lon":5.350653,"is_reserved":false,"is_disabled":false,"rental_uris":{"android":"levelo://app?vid=b09b43a8-fdca-432d-be5f-53f66d596985","ios":"levelo://app?vid=b09b43a8-fdca-432d-be5f-53f66d596985"},"vehicle_type_id":"4","last_reported":1753009705,"current_range_meters":19200,"station_id":"ce4bhbp2rcd13ifvqerg","pricing_plan_id":"cebpf4jnsgd1na2vs0mg"},{"bike_id":"026393ba-49c7-48d3-83e7-01e672499392","system_id":"levelo_inurba_marseille","lat":43.24815,"lon":5.37458,"is_reserved":false,"is_disabled":false,"rental_uris":{"android":"levelo://app?vid=026393ba-49c7-48d3-83e7-01e672499392","ios":"levelo://app?vid=026393ba-49c7-48d3-83e7-01e672499392"},"vehicle_type_id":"4","last_reported":1753009705,"current_range_meters":19200,"station_id":"ce4bhgh2rcd13ifvqfb0","pricing_plan_id":"cebpf4jnsgd1na2vs0mg"},{"bike_id":"22291762-a456-4893-9651-61a760232c34","system_id":"levelo_inurba_marseille","lat":43.229362,"lon":5.353843,"is_reserved":false,"is_disabled":false,"rental_uris":{"android":"levelo://app?vid=22291762-a456-4893-9651-61a760232c34","ios":"levelo://app?vid=22291762-a456-4893-9651-61a760232c34"},"vehicle_type_id":"4","last_reported":1753009705,"current_range_meters":19200,"station_id":"cpo3532slgdg3j2ikp40","pricing_plan_id":"cebpf4jnsgd1na2vs0mg"},{"bike_id":"141c2bb5-ccf5-4459-ae02-ca4718282772","system_id":"levelo_inurba_marseille","lat":43.30808,"lon":5.43535,"is_reserved":false,"is_disabled":false,"rental_uris":{"android":"levelo://app?vid=141c2bb5-ccf5-4459-ae02-ca4718282772","ios":"levelo://app?vid=141c2bb5-ccf5-4459-ae02-ca4718282772"},"vehicle_type_id":"4","last_reported":1753009705,"current_range_meters":19200,"station_id":"ce4bhph2rcd13ifvqheg","pricing_plan_id":"cebpf4jnsgd1na2vs0mg"},{"bike_id":"699d08c0-da5e-43ae-9da6-148bcd83dc94","system_id":"levelo_inurba_marseille","lat":43.21198,"lon":5.35072,"is_reserved":false,"is_disabled":false,"rental_uris":{"android":"levelo://app?vid=699d08c0-da5e-43ae-9da6-148bcd83dc94","ios":"levelo://app?vid=699d08c0-da5e-43ae-9da6-148bcd83dc94"},"vehicle_type_id":"4","last_reported":1753009705,"current_range_meters":19200,"station_id":"st_cvj6sg6p6f1abm77japg","pricing_plan_id":"cebpf4jnsgd1na2vs0mg"},{"bike_id":"43b1c326-5e36-4e9d-ad0c-3ef6b7fa66ca","system_id":"levelo_inurba_marseille","lat":43.2396,"lon":5.36642,"is_reserved":false,"is_disabled":false,"rental_uris":{"android":"levelo://app?vid=43b1c326-5e36-4e9d-ad0c-3ef6b7fa66ca","ios":"levelo://app?vid=43b1c326-5e36-4e9d-ad0c-3ef6b7fa66ca"},"vehicle_type_id":"4","last_reported":1753009705,"current_range_meters":19600,"station_id":"ce4bhi12rcd13ifvqfp0","pricing_plan_id":"cebpf4jnsgd1na2vs0mg"},{"bike_id":"43add815-67fe-488a-87b5-2050e87c98f9","system_id":"levelo_inurba_marseille","lat":43.22919,"lon":5.35372,"is_reserved":false,"is_disabled":false,"rental_uris":{"android":"levelo://app?vid=43add815-67fe-488a-87b5-2050e87c98f9","ios":"levelo://app?vid=43add815-67fe-488a-87b5-2050e87c98f9"},"vehicle_type_id":"4","last_reported":1753009705,"current_range_meters":19600,"station_id":"cpo3532slgdg3j2ikp40","pricing_plan_id":"cebpf4jnsgd1na2vs0mg"},{"bike_id":"8719f2b2-a6bf-4529-9fe8-3a7fad036cfd","system_id":"levelo_inurba_marseille","lat":43.29269,"lon":5.38442,"is_reserved":false,"is_disabled":false,"rental_uris":{"android":"levelo://app?vid=8719f2b2-a6bf-4529-9fe8-3a7fad036cfd","ios":"levelo://app?vid=8719f2b2-a6bf-4529-9fe8-3a7fad036cfd"},"vehicle_type_id":"4","last_reported":1753009705,"current_range_meters":19600,"station_id":"ce4bh692rcd13ifvqea0","pricing_plan_id":"cebpf4jnsgd1na2vs0mg"},{"bike_id":"cf00868c-691d-4ef2-90d6-7c211f7372ff","system_id":"levelo_inurba_marseille","lat":43.31694,"lon":5.40499,"is_reserved":false,"is_disabled":false,"rental_uris":{"android":"levelo://app?vid=cf00868c-691d-4ef2-90d6-7c211f7372ff","ios":"levelo://app?vid=cf00868c-691d-4ef2-90d6-7c211f7372ff"},"vehicle_type_id":"4","last_reported":1753009705,"current_range_meters":19600,"station_id":"ce4bh012rcd13ifvqd00","pricing_plan_id":"cebpf4jnsgd1na2vs0mg"},{"bike_id":"ebf4e298-c58a-4045-acfb-e5cd113cf5f3","system_id":"levelo_inurba_marseille","lat":43.29575,"lon":5.37522,"is_reserved":false,"is_disabled":false,"rental_uris":{"android":"levelo://app?vid=ebf4e298-c58a-4045-acfb-e5cd113cf5f3","ios":"levelo://app?vid=ebf4e298-c58a-4045-acfb-e5cd113cf5f3"},"vehicle_type_id":"4","last_reported":1753009705,"current_range_meters":19200,"station_id":"ce4bgh92rcd13ifvqb50","pricing_plan_id":"cebpf4jnsgd1na2vs0mg"},{"bike_id":"585b5223-09fc-4d8e-9ebe-8ef539f3f7f6","system_id":"levelo_inurba_marseille","lat":43.24074,"lon":5.37758,"is_reserved":false,"is_disabled":false,"rental_uris":{"android":"levelo://app?vid=585b5223-09fc-4d8e-9ebe-8ef539f3f7f6","ios":"levelo://app?vid=585b5223-09fc-4d8e-9ebe-8ef539f3f7f6"},"vehicle_type_id":"4","last_reported":1753009705,"current_range_meters":19600,"station_id":"ce4bhnp2rcd13ifvqgvg","pricing_plan_id":"cebpf4jnsgd1na2vs0mg"},{"bike_id":"9730fae3-5668-4fa8-aa98-3189373117fb","system_id":"levelo_inurba_marseille","lat":43.22937,"lon":5.35357,"is_reserved":false,"is_disabled":false,"rental_uris":{"android":"levelo://app?vid=9730fae3-5668-4fa8-aa98-3189373117fb","ios":"levelo://app?vid=9730fae3-5668-4fa8-aa98-3189373117fb"},"vehicle_type_id":"4","last_reported":1753009705,"current_range_meters":19600,"station_id":"cpo3532slgdg3j2ikp40","pricing_plan_id":"cebpf4jnsgd1na2vs0mg"},{"bike_id":"161aeac3-4d5a-4661-9bae-ad1814bc1661","system_id":"levelo_inurba_marseille","lat":43.22524,"lon":5.34789,"is_reserved":false,"is_disabled":false,"rental_uris":{"android":"levelo://app?vid=161aeac3-4d5a-4661-9bae-ad1814bc1661","ios":"levelo://app?vid=161aeac3-4d5a-4661-9bae-ad1814bc1661"},"vehicle_type_id":"4","last_reported":1753009705,"current_range_meters":19600,"station_id":"","pricing_plan_id":"cebpf4jnsgd1na2vs0mg"},{"bike_id":"de035642-eed1-42aa-b7d6-f006663c350b","system_id":"levelo_inurba_marseille","lat":43.27841,"lon":5.3546,"is_reserved":false,"is_disabled":false,"rental_uris":{"android":"levelo://app?vid=de035642-eed1-42aa-b7d6-f006663c350b","ios":"levelo://app?vid=de035642-eed1-42aa-b7d6-f006663c350b"},"vehicle_type_id":"4","last_reported":1753009705,"current_range_meters":19600,"station_id":"","pricing_plan_id":"cebpf4jnsgd1na2vs0mg"},{"bike_id":"796efe96-4489-4a16-9947-057b236cfbf5","system_id":"levelo_inurba_marseille","lat":43.24813,"lon":5.37458,"is_reserved":false,"is_disabled":false,"rental_uris":{"android":"levelo://app?vid=796efe96-4489-4a16-9947-057b236cfbf5","ios":"levelo://app?vid=796efe96-4489-4a16-9947-057b236cfbf5"},"vehicle_type_id":"4","last_reported":1753009705,"current_range_meters":19600,"station_id":"ce4bhgh2rcd13ifvqfb0","pricing_plan_id":"cebpf4jnsgd1na2vs0mg"},{"bike_id":"78bcd778-8088-4038-a043-6c07672a1f85","system_id":"levelo_inurba_marseille","lat":43.24177,"lon":5.39727,"is_reserved":false,"is_disabled":false,"rental_uris":{"android":"levelo://app?vid=78bcd778-8088-4038-a043-6c07672a1f85","ios":"levelo://app?vid=78bcd778-8088-4038-a043-6c07672a1f85"},"vehicle_type_id":"4","last_reported":1753009705,"current_range_meters":19600,"station_id":"ce4bhn12rcd13ifvqgpg","pricing_plan_id":"cebpf4jnsgd1na2vs0mg"},{"bike_id":"ac49738a-4d4f-43d3-9c67-46980e61ae95","system_id":"levelo_inurba_marseille","lat":43.3172,"lon":5.37658,"is_reserved":false,"is_disabled":false,"rental_uris":{"android":"levelo://app?vid=ac49738a-4d4f-43d3-9c67-46980e61ae95","ios":"levelo://app?vid=ac49738a-4d4f-43d3-9c67-46980e61ae95"},"vehicle_type_id":"4","last_reported":1753009705,"current_range_meters":19600,"station_id":"","pricing_plan_id":"cebpf4jnsgd1na2vs0mg"},{"bike_id":"3b033fc4-210f-4d44-b732-51686e0c28a7","system_id":"levelo_inurba_marseille","lat":43.22935,"lon":5.35382,"is_reserved":false,"is_disabled":false,"rental_uris":{"android":"levelo://app?vid=3b033fc4-210f-4d44-b732-51686e0c28a7","ios":"levelo://app?vid=3b033fc4-210f-4d44-b732-51686e0c28a7"},"vehicle_type_id":"4","last_reported":1753009705,"current_range_meters":19600,"station_id":"cpo3532slgdg3j2ikp40","pricing_plan_id":"cebpf4jnsgd1na2vs0mg"},{"bike_id":"0ab5edff-8724-4c93-922c-a841549140d2","system_id":"levelo_inurba_marseille","lat":43.22508,"lon":5.34781,"is_reserved":false,"is_disabled":false,"rental_uris":{"android":"levelo://app?vid=0ab5edff-8724-4c93-922c-a841549140d2","ios":"levelo://app?vid=0ab5edff-8724-4c93-922c-a841549140d2"},"vehicle_type_id":"4","last_reported":1753009705,"current_range_meters":19600,"station_id":"st_cvj5dfep6f1abm77gieg","pricing_plan_id":"cebpf4jnsgd1na2vs0mg"},{"bike_id":"b649b339-1977-42cc-86a8-4235021ba156","system_id":"levelo_inurba_marseille","lat":43.21194,"lon":5.350705,"is_reserved":false,"is_disabled":false,"rental_uris":{"android":"levelo://app?vid=b649b339-1977-42cc-86a8-4235021ba156","ios":"levelo://app?vid=b649b339-1977-42cc-86a8-4235021ba156"},"vehicle_type_id":"4","last_reported":1753009705,"current_range_meters":20000,"station_id":"st_cvj6sg6p6f1abm77japg","pricing_plan_id":"cebpf4jnsgd1na2vs0mg"},{"bike_id":"1607fcd4-2949-4cba-b6c1-0b2d63362688","system_id":"levelo_inurba_marseille","lat":43.27052,"lon":5.40268,"is_reserved":false,"is_disabled":true,"rental_uris":{"android":"levelo://app?vid=1607fcd4-2949-4cba-b6c1-0b2d63362688","ios":"levelo://app?vid=1607fcd4-2949-4cba-b6c1-0b2d63362688"},"vehicle_type_id":"4","last_reported":1753009705,"current_range_meters":20000,"station_id":"ce4bhk92rcd13ifvqgc0","pricing_plan_id":"cebpf4jnsgd1na2vs0mg"},{"bike_id":"19665075-1169-45a7-af41-9f1c346d2c17","system_id":"levelo_inurba_marseille","lat":43.239596,"lon":5.366239,"is_reserved":false,"is_disabled":true,"rental_uris":{"android":"levelo://app?vid=19665075-1169-45a7-af41-9f1c346d2c17","ios":"levelo://app?vid=19665075-1169-45a7-af41-9f1c346d2c17"},"vehicle_type_id":"4","last_reported":1753009705,"current_range_meters":20000,"station_id":"ce4bhi12rcd13ifvqfp0","pricing_plan_id":"cebpf4jnsgd1na2vs0mg"},{"bike_id":"5c7cfd38-807b-4bef-9c5d-c2f0c95ce8df","system_id":"levelo_inurba_marseille","lat":43.23062,"lon":5.35496,"is_reserved":false,"is_disabled":false,"rental_uris":{"android":"levelo://app?vid=5c7cfd38-807b-4bef-9c5d-c2f0c95ce8df","ios":"levelo://app?vid=5c7cfd38-807b-4bef-9c5d-c2f0c95ce8df"},"vehicle_type_id":"4","last_reported":1753009705,"current_range_meters":20000,"station_id":"cpo3342slgdg3j2ifvpg","pricing_plan_id":"cebpf4jnsgd1na2vs0mg"},{"bike_id":"0c1abe6b-d980-405f-a710-1dae35510659","system_id":"levelo_inurba_marseille","lat":43.24742,"lon":5.41169,"is_reserved":false,"is_disabled":false,"rental_uris":{"android":"levelo://app?vid=0c1abe6b-d980-405f-a710-1dae35510659","ios":"levelo://app?vid=0c1abe6b-d980-405f-a710-1dae35510659"},"vehicle_type_id":"4","last_reported":1753009705,"current_range_meters":20000,"station_id":"","pricing_plan_id":"cebpf4jnsgd1na2vs0mg"},{"bike_id":"31c0d39e-aec8-410f-824d-3c0c877abe3b","system_id":"levelo_inurba_marseille","lat":43.29289,"lon":5.36817,"is_reserved":false,"is_disabled":false,"rental_uris":{"android":"levelo://app?vid=31c0d39e-aec8-410f-824d-3c0c877abe3b","ios":"levelo://app?vid=31c0d39e-aec8-410f-824d-3c0c877abe3b"},"vehicle_type_id":"4","last_reported":1753009705,"current_range_meters":20000,"station_id":"ce4bhbp2rcd13ifvqesg","pricing_plan_id":"cebpf4jnsgd1na2vs0mg"},{"bike_id":"e692007d-ee50-49bc-9c69-7780b81a8b2b","system_id":"levelo_inurba_marseille","lat":43.24168,"lon":5.36398,"is_reserved":false,"is_disabled":false,"rental_uris":{"android":"levelo://app?vid=e692007d-ee50-49bc-9c69-7780b81a8b2b","ios":"levelo://app?vid=e692007d-ee50-49bc-9c69-7780b81a8b2b"},"vehicle_type_id":"4","last_reported":1753009705,"current_range_meters":20000,"station_id":"cpo36qri1sfpv3e86is0","pricing_plan_id":"cebpf4jnsgd1na2vs0mg"},{"bike_id":"e973e17e-6f49-4719-85f4-d681a7df9ff8","system_id":"levelo_inurba_marseille","lat":43.21754,"lon":5.345998,"is_reserved":false,"is_disabled":false,"rental_uris":{"android":"levelo://app?vid=e973e17e-6f49-4719-85f4-d681a7df9ff8","ios":"levelo://app?vid=e973e17e-6f49-4719-85f4-d681a7df9ff8"},"vehicle_type_id":"4","last_reported":1753009705,"current_range_meters":20000,"station_id":"st_cvj6r9ubvosntc0bgbag","pricing_plan_id":"cebpf4jnsgd1na2vs0mg"},{"bike_id":"2b47b056-c5ec-47ea-84d4-c5e4a02de71f","system_id":"levelo_inurba_marseille","lat":43.29467,"lon":5.42672,"is_reserved":false,"is_disabled":false,"rental_uris":{"android":"levelo://app?vid=2b47b056-c5ec-47ea-84d4-c5e4a02de71f","ios":"levelo://app?vid=2b47b056-c5ec-47ea-84d4-c5e4a02de71f"},"vehicle_type_id":"4","last_reported":1753009705,"current_range_meters":20000,"station_id":"","pricing_plan_id":"cebpf4jnsgd1na2vs0mg"},{"bike_id":"f005e9aa-09c0-40f2-941a-4cd9f816dc5d","system_id":"levelo_inurba_marseille","lat":43.21748,"lon":5.34597,"is_reserved":false,"is_disabled":false,"rental_uris":{"android":"levelo://app?vid=f005e9aa-09c0-40f2-941a-4cd9f816dc5d","ios":"levelo://app?vid=f005e9aa-09c0-40f2-941a-4cd9f816dc5d"},"vehicle_type_id":"4","last_reported":1753009705,"current_range_meters":20000,"station_id":"st_cvj6r9ubvosntc0bgbag","pricing_plan_id":"cebpf4jnsgd1na2vs0mg"},{"bike_id":"6a752830-1e67-4ee8-b0ef-010d91cf5355","system_id":"levelo_inurba_marseille","lat":43.241681,"lon":5.363886,"is_reserved":false,"is_disabled":false,"rental_uris":{"android":"levelo://app?vid=6a752830-1e67-4ee8-b0ef-010d91cf5355","ios":"levelo://app?vid=6a752830-1e67-4ee8-b0ef-010d91cf5355"},"vehicle_type_id":"4","last_reported":1753009705,"current_range_meters":20400,"station_id":"cpo36qri1sfpv3e86is0","pricing_plan_id":"cebpf4jnsgd1na2vs0mg"},{"bike_id":"2e1b3234-4ddb-4d40-b38e-313bbb703f4d","system_id":"levelo_inurba_marseille","lat":43.29901,"lon":5.43688,"is_reserved":false,"is_disabled":false,"rental_uris":{"android":"levelo://app?vid=2e1b3234-4ddb-4d40-b38e-313bbb703f4d","ios":"levelo://app?vid=2e1b3234-4ddb-4d40-b38e-313bbb703f4d"},"vehicle_type_id":"4","last_reported":1753009705,"current_range_meters":20400,"station_id":"ce4bhpp2rcd13ifvqhfg","pricing_plan_id":"cebpf4jnsgd1na2vs0mg"},{"bike_id":"2202d4e1-43b2-495b-89e8-e4d9f8d5cf6b","system_id":"levelo_inurba_marseille","lat":43.211898,"lon":5.350774,"is_reserved":false,"is_disabled":false,"rental_uris":{"android":"levelo://app?vid=2202d4e1-43b2-495b-89e8-e4d9f8d5cf6b","ios":"levelo://app?vid=2202d4e1-43b2-495b-89e8-e4d9f8d5cf6b"},"vehicle_type_id":"4","last_reported":1753009705,"current_range_meters":20400,"station_id":"st_cvj6sg6p6f1abm77japg","pricing_plan_id":"cebpf4jnsgd1na2vs0mg"},