{"last_updated":1708463175,"ttl":30,"version":"2.2","data":{"bikes":[{"bike_id":"4364f1e2-3635-4926-9306-3c3246ad3b9a","system_id":"levelo_inurba_marseille","lat":43.312239,"lon":5.368562,"is_reserved":false,"is_disabled":false,"rental_uris":{"android":"levelo://app?vid=4364f1e2-3635-4926-9306-3c3246ad3b9a","ios":"levelo://app?vid=4364f1e2-3635-4926-9306-3c3246ad3b9a"},"vehicle_type_id":"4","last_reported":1708463175,"current_range_meters":0,"station_id":"ce4bgl92rcd13ifvqbq0","pricing_plan_id":"cebpf4jnsgd1na2vs0mg"},{"bike_id":"82017a0e-e036-4332-bb26-f0f826fccf20","system_id":"levelo_inurba_marseille","lat":43.312239,"lon":5.368562,"is_reserved":false,"is_disabled":false,"rental_uris":{"android":"levelo://app?vid=82017a0e-e036-4332-bb26-f0f826fccf20","ios":"levelo://app?vid=82017a0e-e036-4332-bb26-f0f826fccf20"},"vehicle_type_id":"4","last_reported":1708463175,"current_range_meters":0,"station_id":"ce4bgl92rcd13ifvqbq0","pricing_plan_id":"cebpf4jnsgd1na2vs0mg"},{"bike_id":"d144e62d-579b-4304-a01d-c45fc1219784","system_id":"levelo_inurba_marseille","lat":43.312239,"lon":5.368562,"is_reserved":false,"is_disabled":false,"rental_uris":{"android":"levelo://app?vid=d144e62d-579b-4304-a01d-c45fc1219784","ios":"levelo://app?vid=d144e62d-579b-4304-a01d-c45fc1219784"},"vehicle_type_id":"4","last_reported":1708463175,"current_range_meters":400,"station_id":"ce4bgl92rcd13ifvqbq0","pricing_plan_id":"cebpf4jnsgd1na2vs0mg"},{"bike_id":"335b407d-6bd0-44f3-a7ab-707caa73a298","system_id":"levelo_inurba_marseille","lat":43.312239,"lon":5.368562,"is_reserved":false,"is_disabled":false,"rental_uris":{"android":"levelo://app?vid=335b407d-6bd0-44f3-a7ab-707caa73a298","ios":"levelo://app?vid=335b407d-6bd0-44f3-a7ab-707caa73a298"},"vehicle_type_id":"4","last_reported":1708463175,"current_range_meters":0,"station_id":"ce4bgl92rcd13ifvqbq0","pricing_plan_id":"cebpf4jnsgd1na2vs0mg"},{"bike_id":"e1cc30aa-1824-475f-a8a3-2e83c2693a5a","system_id":"levelo_inurba_marseille","lat":43.314811,"lon":5.373103,"is_reserved":false,"is_disabled":false,"rental_uris":{"android":"levelo://app?vid=e1cc30aa-1824-475f-a8a3-2e83c2693a5a","ios":"levelo://app?vid=e1cc30aa-1824-475f-a8a3-2e83c2693a5a"},"vehicle_type_id":"4","last_reported":1708463175,"current_range_meters":8400,"station_id":"ce4bgt12rcd13ifvqcd0","pricing_plan_id":"cebpf4jnsgd1na2vs0mg"},{"bike_id":"732a0298-35bf-4ce3-9bfc-105f75e58d6c","system_id":"levelo_inurba_marseille","lat":43.3149,"lon":5.37305,"is_reserved":false,"is_disabled":false,"rental_uris":{"android":"levelo://app?vid=732a0298-35bf-4ce3-9bfc-105f75e58d6c","ios":"levelo://app?vid=732a0298-35bf-4ce3-9bfc-105f75e58d6c"},"vehicle_type_id":"4","last_reported":1708463175,"current_range_meters":4000,"station_id":"ce4bgt12rcd13ifvqcd0","pricing_plan_id":"cebpf4jnsgd1na2vs0mg"},{"bike_id":"eb6c33bc-7c80-470d-8fcb-ec4946dc866e","system_id":"levelo_inurba_marseille","lat":43.31484,"lon":5.37311,"is_reserved":false,"is_disabled":false,"rental_uris":{"android":"levelo://app?vid=eb6c33bc-7c80-470d-8fcb-ec4946dc866e","ios":"levelo://app?vid=eb6c33bc-7c80-470d-8fcb-ec4946dc866e"},"vehicle_type_id":"4","last_reported":1708463175,"current_range_meters":18000,"station_id":"ce4bgt12rcd13ifvqcd0","pricing_plan_id":"cebpf4jnsgd1na2vs0mg"},{"bike_id":"f913bc1e-1651-455e-910d-3080dd577d29","system_id":"levelo_inurba_marseille","lat":43.314811,"lon":5.373104,"is_reserved":false,"is_disabled":false,"rental_uris":{"android":"levelo://app?vid=f913bc1e-1651-455e-910d-3080dd577d29","ios":"levelo://app?vid=f913bc1e-1651-455e-910d-3080dd577d29"},"vehicle_type_id":"4","last_reported":1708463175,"current_range_meters":19200,"station_id":"ce4bgt12rcd13ifvqcd0","pricing_plan_id":"cebpf4jnsgd1na2vs0mg"},{"bike_id":"c4bdd22d-7794-425d-a4ea-4c7f7e6ecdaa","system_id":"levelo_inurba_marseille","lat":43.305989,"lon":5.37225,"is_reserved":false,"is_disabled":false,"rental_uris":{"android":"levelo://app?vid=c4bdd22d-7794-425d-a4ea-4c7f7e6ecdaa","ios":"levelo://app?vid=c4bdd22d-7794-425d-a4ea-4c7f7e6ecdaa"},"vehicle_type_id":"4","last_reported":1708463175,"current_range_meters":11600,"station_id":"ce4bgqh2rcd13ifvqc4g","pricing_plan_id":"cebpf4jnsgd1na2vs0mg"},{"bike_id":"df08522f-c52f-4ef8-95d8-2a0078df4142","system_id":"levelo_inurba_marseille","lat":43.305989,"lon":5.37225,"is_reserved":false,"is_disabled":false,"rental_uris":{"android":"levelo://app?vid=df08522f-c52f-4ef8-95d8-2a0078df4142","ios":"levelo://app?vid=df08522f-c52f-4ef8-95d8-2a0078df4142"},"vehicle_type_id":"4","last_reported":1708463175,"current_range_meters":400,"station_id":"ce4bgqh2rcd13ifvqc4g","pricing_plan_id":"cebpf4jnsgd1na2vs0mg"},{"bike_id":"a191c388-70d6-4837-b3e0-2bf2f919b01e","system_id":"levelo_inurba_marseille","lat":43.305989,"lon":5.37225,"is_reserved":false,"is_disabled":false,"rental_uris":{"android":"levelo://app?vid=a191c388-70d6-4837-b3e0-2bf2f919b01e","ios":"levelo://app?vid=a191c388-70d6-4837-b3e0-2bf2f919b01e"},"vehicle_type_id":"4","last_reported":1708463175,"current_range_meters":21600,"station_id":"ce4bgqh2rcd13ifvqc4g","pricing_plan_id":"cebpf4jnsgd1na2vs0mg"},{"bike_id":"14341c54-2571-41b4-8f13-603c6de650cf","system_id":"levelo_inurba_marseille","lat":43.311131,"lon":5.377651,"is_reserved":false,"is_disabled":false,"rental_uris":{"android":"levelo://app?vid=14341c54-2571-41b4-8f13-603c6de650cf","ios":"levelo://app?vid=14341c54-2571-41b4-8f13-603c6de650cf"},"vehicle_type_id":"4","last_reported":1708463175,"current_range_meters":2400,"station_id":"ce4bgt92rcd13ifvqcg0","pricing_plan_id":"cebpf4jnsgd1na2vs0mg"},{"bike_id":"dc22c28f-522a-4fb4-b7ab-c6251b90de82","system_id":"levelo_inurba_marseille","lat":43.31654,"lon":5.37675,"is_reserved":false,"is_disabled":false,"rental_uris":{"android":"levelo://app?vid=dc22c28f-522a-4fb4-b7ab-c6251b90de82","ios":"levelo://app?vid=dc22c28f-522a-4fb4-b7ab-c6251b90de82"},"vehicle_type_id":"4","last_reported":1708463175,"current_range_meters":30000,"station_id":"","pricing_plan_id":"cebpf4jnsgd1na2vs0mg"},{"bike_id":"ea61b4f7-b353-4c08-9f75-2df755db827d","system_id":"levelo_inurba_marseille","lat":43.31122,"lon":5.3779,"is_reserved":false,"is_disabled":false,"rental_uris":{"android":"levelo://app?vid=ea61b4f7-b353-4c08-9f75-2df755db827d","ios":"levelo://app?vid=ea61b4f7-b353-4c08-9f75-2df755db827d"},"vehicle_type_id":"4","last_reported":1708463175,"current_range_meters":0,"station_id":"ce4bgt92rcd13ifvqcg0","pricing_plan_id":"cebpf4jnsgd1na2vs0mg"},{"bike_id":"6643422f-ceeb-44b0-a386-8b318988b702","system_id":"levelo_inurba_marseille","lat":43.307945,"lon":5.376487,"is_reserved":false,"is_disabled":false,"rental_uris":{"android":"levelo://app?vid=6643422f-ceeb-44b0-a386-8b318988b702","ios":"levelo://app?vid=6643422f-ceeb-44b0-a386-8b318988b702"},"vehicle_type_id":"4","last_reported":1708463175,"current_range_meters":16400,"station_id":"ce4bgv92rcd13ifvqcq0","pricing_plan_id":"cebpf4jnsgd1na2vs0mg"},{"bike_id":"67f06919-7c6d-4963-8326-b4f429adf7b7","system_id":"levelo_inurba_marseille","lat":43.307945,"lon":5.376487,"is_reserved":false,"is_disabled":false,"rental_uris":{"android":"levelo://app?vid=67f06919-7c6d-4963-8326-b4f429adf7b7","ios":"levelo://app?vid=67f06919-7c6d-4963-8326-b4f429adf7b7"},"vehicle_type_id":"4","last_reported":1708463175,"current_range_meters":7600,"station_id":"ce4bgv92rcd13ifvqcq0","pricing_plan_id":"cebpf4jnsgd1na2vs0mg"},{"bike_id":"dd2b686a-f736-4829-957e-07897b032d5d","system_id":"levelo_inurba_marseille","lat":43.317075,"lon":5.377367,"is_reserved":false,"is_disabled":false,"rental_uris":{"android":"levelo://app?vid=dd2b686a-f736-4829-957e-07897b032d5d","ios":"levelo://app?vid=dd2b686a-f736-4829-957e-07897b032d5d"},"vehicle_type_id":"4","last_reported":1708463175,"current_range_meters":7200,"station_id":"ce4bgth2rcd13ifvqch0","pricing_plan_id":"cebpf4jnsgd1na2vs0mg"},{"bike_id":"f2dfa75f-eb4e-4f9c-9729-85a59db10d6c","system_id":"levelo_inurba_marseille","lat":43.317,"lon":5.3776,"is_reserved":false,"is_disabled":false,"rental_uris":{"android":"levelo://app?vid=f2dfa75f-eb4e-4f9c-9729-85a59db10d6c","ios":"levelo://app?vid=f2dfa75f-eb4e-4f9c-9729-85a59db10d6c"},"vehicle_type_id":"4","last_reported":1708463175,"current_range_meters":16000,"station_id":"","pricing_plan_id":"cebpf4jnsgd1na2vs0mg"},{"bike_id":"a8da9c64-ff44-452d-a385-0c6903f4db99","system_id":"levelo_inurba_marseille","lat":43.315374,"lon":5.38027,"is_reserved":false,"is_disabled":false,"rental_uris":{"android":"levelo://app?vid=a8da9c64-ff44-452d-a385-0c6903f4db99","ios":"levelo://app?vid=a8da9c64-ff44-452d-a385-0c6903f4db99"},"vehicle_type_id":"4","last_reported":1708463175,"current_range_meters":10400,"station_id":"ce4bhsp2rcd13ifvqi50","pricing_plan_id":"cebpf4jnsgd1na2vs0mg"},{"bike_id":"bdc1eeba-dfd1-4523-b054-1e13ff221291","system_id":"levelo_inurba_marseille","lat":43.301939,"lon":5.366286,"is_reserved":false,"is_disabled":false,"rental_uris":{"android":"levelo://app?vid=bdc1eeba-dfd1-4523-b054-1e13ff221291","ios":"levelo://app?vid=bdc1eeba-dfd1-4523-b054-1e13ff221291"},"vehicle_type_id":"4","last_reported":1708463175,"current_range_meters":8000,"station_id":"ce4bgrh2rcd13ifvqc8g","pricing_plan_id":"cebpf4jnsgd1na2vs0mg"},{"bike_id":"5e9a81c8-a4ff-4d24-9ca7-faa91cc4ddb5","system_id":"levelo_inurba_marseille","lat":43.301939,"lon":5.366286,"is_reserved":false,"is_disabled":false,"rental_uris":{"android":"levelo://app?vid=5e9a81c8-a4ff-4d24-9ca7-faa91cc4ddb5","ios":"levelo://app?vid=5e9a81c8-a4ff-4d24-9ca7-faa91cc4ddb5"},"vehicle_type_id":"4","last_reported":1708463175,"current_range_meters":12000,"station_id":"ce4bgrh2rcd13ifvqc8g","pricing_plan_id":"cebpf4jnsgd1na2vs0mg"},{"bike_id":"70bf0c1f-9a4b-451f-93df-c58e0efc1873","system_id":"levelo_inurba_marseille","lat":43.308012,"lon":5.381511,"is_reserved":false,"is_disabled":false,"rental_uris":{"android":"levelo://app?vid=70bf0c1f-9a4b-451f-93df-c58e0efc1873","ios":"levelo://app?vid=70bf0c1f-9a4b-451f-93df-c58e0efc1873"},"vehicle_type_id":"4","last_reported":1708463175,"current_range_meters":20000,"station_id":"ce4bgt12rcd13ifvqce0","pricing_plan_id":"cebpf4jnsgd1na2vs0mg"},{"bike_id":"df2e8be1-a186-4acb-8794-3d09859ca296","system_id":"levelo_inurba_marseille","lat":43.308012,"lon":5.381511,"is_reserved":false,"is_disabled":false,"rental_uris":{"android":"levelo://app?vid=df2e8be1-a186-4acb-8794-3d09859ca296","ios":"levelo://app?vid=df2e8be1-a186-4acb-8794-3d09859ca296"},"vehicle_type_id":"4","last_reported":1708463175,"current_range_meters":30000,"station_id":"ce4bgt12rcd13ifvqce0","pricing_plan_id":"cebpf4jnsgd1na2vs0mg"},{"bike_id":"8988ab5a-bee0-40a7-aabb-7ecdaaa3eb15","system_id":"levelo_inurba_marseille","lat":43.308012,"lon":5.381511,"is_reserved":false,"is_disabled":false,"rental_uris":{"android":"levelo://app?vid=8988ab5a-bee0-40a7-aabb-7ecdaaa3eb15","ios":"levelo://app?vid=8988ab5a-bee0-40a7-aabb-7ecdaaa3eb15"},"vehicle_type_id":"4","last_reported":1708463175,"current_range_meters":10800,"station_id":"ce4bgt12rcd13ifvqce0","pricing_plan_id":"cebpf4jnsgd1na2vs0mg"},{"bike_id":"a239bfdb-ca4b-4d40-a2a0-55537b1612cd","system_id":"levelo_inurba_marseille","lat":43.308012,"lon":5.381511,"is_reserved":false,"is_disabled":false,"rental_uris":{"android":"levelo://app?vid=a239bfdb-ca4b-4d40-a2a0-55537b1612cd","ios":"levelo://app?vid=a239bfdb-ca4b-4d40-a2a0-55537b1612cd"},"vehicle_type_id":"4","last_reported":1708463175,"current_range_meters":11200,"station_id":"ce4bgt12rcd13ifvqce0","pricing_plan_id":"cebpf4jnsgd1na2vs0mg"},{"bike_id":"79431be0-2de4-456b-ba7d-1cf0b6865d10","system_id":"levelo_inurba_marseille","lat":43.308012,"lon":5.381511,"is_reserved":false,"is_disabled":false,"rental_uris":{"android":"levelo://app?vid=79431be0-2de4-456b-ba7d-1cf0b6865d10","ios":"levelo://app?vid=79431be0-2de4-456b-ba7d-1cf0b6865d10"},"vehicle_type_id":"4","last_reported":1708463175,"current_range_meters":800,"station_id":"ce4bgt12rcd13ifvqce0","pricing_plan_id":"cebpf4jnsgd1na2vs0mg"},{"bike_id":"d6e52bca-576d-462c-b611-6436e336be5b","system_id":"levelo_inurba_marseille","lat":43.308012,"lon":5.381511,"is_reserved":false,"is_disabled":false,"rental_uris":{"android":"levelo://app?vid=d6e52bca-576d-462c-b611-6436e336be5b","ios":"levelo://app?vid=d6e52bca-576d-462c-b611-6436e336be5b"},"vehicle_type_id":"4","last_reported":1708463175,"current_range_meters":10800,"station_id":"ce4bgt12rcd13ifvqce0","pricing_plan_id":"cebpf4jnsgd1na2vs0mg"},{"bike_id":"3bbc04bb-dbdd-4536-a593-19fd850bed52","system_id":"levelo_inurba_marseille","lat":43.324771,"lon":5.36557,"is_reserved":false,"is_disabled":false,"rental_uris":{"android":"levelo://app?vid=3bbc04bb-dbdd-4536-a593-19fd850bed52","ios":"levelo://app?vid=3bbc04bb-dbdd-4536-a593-19fd850bed52"},"vehicle_type_id":"4","last_reported":1708463175,"current_range_meters":4000,"station_id":"ce4bhs12rcd13ifvqhvg","pricing_plan_id":"cebpf4jnsgd1na2vs0mg"},{"bike_id":"f8689b2e-a0af-4db7-b7a4-e415adb70c20","system_id":"levelo_inurba_marseille","lat":43.304673,"lon":5.379064,"is_reserved":false,"is_disabled":false,"rental_uris":{"android":"levelo://app?vid=f8689b2e-a0af-4db7-b7a4-e415adb70c20","ios":"levelo://app?vid=f8689b2e-a0af-4db7-b7a4-e415adb70c20"},"vehicle_type_id":"4","last_reported":1708463175,"current_range_meters":2000,"station_id":"ce4bgup2rcd13ifvqcn0","pricing_plan_id":"cebpf4jnsgd1na2vs0mg"},{"bike_id":"e19579da-2904-4d48-8c83-53e018891a8a","system_id":"levelo_inurba_marseille","lat":43.30461,"lon":5.37902,"is_reserved":false,"is_disabled":false,"rental_uris":{"android":"levelo://app?vid=e19579da-2904-4d48-8c83-53e018891a8a","ios":"levelo://app?vid=e19579da-2904-4d48-8c83-53e018891a8a"},"vehicle_type_id":"4","last_reported":1708463175,"current_range_meters":17600,"station_id":"ce4bgup2rcd13ifvqcn0","pricing_plan_id":"cebpf4jnsgd1na2vs0mg"},{"bike_id":"eb84dd74-130a-4ba2-815b-15d8ef1fd5d4","system_id":"levelo_inurba_marseille","lat":43.304606,"lon":5.379026,"is_reserved":false,"is_disabled":false,"rental_uris":{"android":"levelo://app?vid=eb84dd74-130a-4ba2-815b-15d8ef1fd5d4","ios":"levelo://app?vid=eb84dd74-130a-4ba2-815b-15d8ef1fd5d4"},"vehicle_type_id":"4","last_reported":1708463175,"current_range_meters":17600,"station_id":"ce4bgup2rcd13ifvqcn0","pricing_plan_id":"cebpf4jnsgd1na2vs0mg"},{"bike_id":"2a251856-e1b8-4c18-a0a0-94a2c0abc5e4","system_id":"levelo_inurba_marseille","lat":43.324771,"lon":5.36557,"is_reserved":false,"is_disabled":false,"rental_uris":{"android":"levelo://app?vid=2a251856-e1b8-4c18-a0a0-94a2c0abc5e4","ios":"levelo://app?vid=2a251856-e1b8-4c18-a0a0-94a2c0abc5e4"},"vehicle_type_id":"4","last_reported":1708463175,"current_range_meters":28800,"station_id":"ce4bhs12rcd13ifvqhvg","pricing_plan_id":"cebpf4jnsgd1na2vs0mg"},{"bike_id":"4cd60cd3-101b-4a05-9703-76840434a255","system_id":"levelo_inurba_marseille","lat":43.324771,"lon":5.36557,"is_reserved":false,"is_disabled":false,"rental_uris":{"android":"levelo://app?vid=4cd60cd3-101b-4a05-9703-76840434a255","ios":"levelo://app?vid=4cd60cd3-101b-4a05-9703-76840434a255"},"vehicle_type_id":"4","last_reported":1708463175,"current_range_meters":24000,"station_id":"ce4bhs12rcd13ifvqhvg","pricing_plan_id":"cebpf4jnsgd1na2vs0mg"},{"bike_id":"5f3727da-be6d-4245-8b7a-5c108328736b","system_id":"levelo_inurba_marseille","lat":43.324771,"lon":5.36557,"is_reserved":false,"is_disabled":false,"rental_uris":{"android":"levelo://app?vid=5f3727da-be6d-4245-8b7a-5c108328736b","ios":"levelo://app?vid=5f3727da-be6d-4245-8b7a-5c108328736b"},"vehicle_type_id":"4","last_reported":1708463175,"current_range_meters":0,"station_id":"ce4bhs12rcd13ifvqhvg","pricing_plan_id":"cebpf4jnsgd1na2vs0mg"},{"bike_id":"caaf26f8-fbed-445b-be7b-3ecf625cc521","system_id":"levelo_inurba_marseille","lat":43.324771,"lon":5.36557,"is_reserved":false,"is_disabled":false,"rental_uris":{"android":"levelo://app?vid=caaf26f8-fbed-445b-be7b-3ecf625cc521","ios":"levelo://app?vid=caaf26f8-fbed-445b-be7b-3ecf625cc521"},"vehicle_type_id":"4","last_reported":1708463175,"current_range_meters":29600,"station_id":"ce4bhs12rcd13ifvqhvg","pricing_plan_id":"cebpf4jnsgd1na2vs0mg"},{"bike_id":"cda8eb5b-2134-4fe4-b0ac-1209e0bbc329","system_id":"levelo_inurba_marseille","lat":43.324771,"lon":5.36557,"is_reserved":false,"is_disabled":false,"rental_uris":{"android":"levelo://app?vid=cda8eb5b-2134-4fe4-b0ac-1209e0bbc329","ios":"levelo://app?vid=cda8eb5b-2134-4fe4-b0ac-1209e0bbc329"},"vehicle_type_id":"4","last_reported":1708463175,"current_range_meters":16400,"station_id":"ce4bhs12rcd13ifvqhvg","pricing_plan_id":"cebpf4jnsgd1na2vs0mg"},{"bike_id":"1b487b6d-34c4-4361-92b5-121164332e2c","system_id":"levelo_inurba_marseille","lat":43.310804,"lon":5.38359,"is_reserved":false,"is_disabled":false,"rental_uris":{"android":"levelo://app?vid=1b487b6d-34c4-4361-92b5-121164332e2c","ios":"levelo://app?vid=1b487b6d-34c4-4361-92b5-121164332e2c"},"vehicle_type_id":"4","last_reported":1708463175,"current_range_meters":26400,"station_id":"ce4bgv92rcd13ifvqcr0","pricing_plan_id":"cebpf4jnsgd1na2vs0mg"},{"bike_id":"60bd5b21-6f65-4106-848b-6b1dc6e92f81","system_id":"levelo_inurba_marseille","lat":43.30273,"lon":5.37701,"is_reserved":false,"is_disabled":false,"rental_uris":{"android":"levelo://app?vid=60bd5b21-6f65-4106-848b-6b1dc6e92f81","ios":"levelo://app?vid=60bd5b21-6f65-4106-848b-6b1dc6e92f81"},"vehicle_type_id":"4","last_reported":1708463175,"current_range_meters":29200,"station_id":"ce4bguh2rcd13ifvqcj0","pricing_plan_id":"cebpf4jnsgd1na2vs0mg"},{"bike_id":"63143a37-fb22-47f3-9b42-20c7dfb13dfc","system_id":"levelo_inurba_marseille","lat":43.319935,"lon":5.381699,"is_reserved":false,"is_disabled":false,"rental_uris":{"android":"levelo://app?vid=63143a37-fb22-47f3-9b42-20c7dfb13dfc","ios":"levelo://app?vid=63143a37-fb22-47f3-9b42-20c7dfb13dfc"},"vehicle_type_id":"4","last_reported":1708463175,"current_range_meters":15200,"station_id":"ce4bhr12rcd13ifvqhpg","pricing_plan_id":"cebpf4jnsgd1na2vs0mg"},{"bike_id":"fa74ca84-175e-486c-a29b-18a75d0e7172","system_id":"levelo_inurba_marseille","lat":43.32,"lon":5.38153,"is_reserved":false,"is_disabled":false,"rental_uris":{"android":"levelo://app?vid=fa74ca84-175e-486c-a29b-18a75d0e7172","ios":"levelo://app?vid=fa74ca84-175e-486c-a29b-18a75d0e7172"},"vehicle_type_id":"4","last_reported":1708463175,"current_range_meters":0,"station_id":"ce4bhr12rcd13ifvqhpg","pricing_plan_id":"cebpf4jnsgd1na2vs0mg"},{"bike_id":"4da0bc28-1f1b-4133-aeb1-e5fa264d8ee7","system_id":"levelo_inurba_marseille","lat":43.31549,"lon":5.3845,"is_reserved":false,"is_disabled":false,"rental_uris":{"android":"levelo://app?vid=4da0bc28-1f1b-4133-aeb1-e5fa264d8ee7","ios":"levelo://app?vid=4da0bc28-1f1b-4133-aeb1-e5fa264d8ee7"},"vehicle_type_id":"4","last_reported":1708463175,"current_range_meters":21600,"station_id":"","pricing_plan_id":"cebpf4jnsgd1na2vs0mg"},{"bike_id":"e778ed09-c729-45a4-9bb3-2995f5f6b10d","system_id":"levelo_inurba_marseille","lat":43.313571,"lon":5.384829,"is_reserved":false,"is_disabled":false,"rental_uris":{"android":"levelo://app?vid=e778ed09-c729-45a4-9bb3-2995f5f6b10d","ios":"levelo://app?vid=e778ed09-c729-45a4-9bb3-2995f5f6b10d"},"vehicle_type_id":"4","last_reported":1708463175,"current_range_meters":6800,"station_id":"ce4bgt92rcd13ifvqcf0","pricing_plan_id":"cebpf4jnsgd1na2vs0mg"},{"bike_id":"f4bee53d-a74d-48d5-957c-a931d02520ed","system_id":"levelo_inurba_marseille","lat":43.31362,"lon":5.38497,"is_reserved":false,"is_disabled":false,"rental_uris":{"android":"levelo://app?vid=f4bee53d-a74d-48d5-957c-a931d02520ed","ios":"levelo://app?vid=f4bee53d-a74d-48d5-957c-a931d02520ed"},"vehicle_type_id":"4","last_reported":1708463175,"current_range_meters":14400,"station_id":"ce4bgt92rcd13ifvqcf0","pricing_plan_id":"cebpf4jnsgd1na2vs0mg"},{"bike_id":"8286182b-1894-40fb-96ab-3fa65a2015f7","system_id":"levelo_inurba_marseille","lat":43.299724,"lon":5.371829,"is_reserved":false,"is_disabled":false,"rental_uris":{"android":"levelo://app?vid=8286182b-1894-40fb-96ab-3fa65a2015f7","ios":"levelo://app?vid=8286182b-1894-40fb-96ab-3fa65a2015f7"},"vehicle_type_id":"4","last_reported":1708463175,"current_range_meters":9600,"station_id":"ce4bgr92rcd13ifvqc7g","pricing_plan_id":"cebpf4jnsgd1na2vs0mg"},{"bike_id":"b4d6622f-5b3c-4eba-bb71-a1fdefcb7060","system_id":"levelo_inurba_marseille","lat":43.29977,"lon":5.3718,"is_reserved":false,"is_disabled":false,"rental_uris":{"android":"levelo://app?vid=b4d6622f-5b3c-4eba-bb71-a1fdefcb7060","ios":"levelo://app?vid=b4d6622f-5b3c-4eba-bb71-a1fdefcb7060"},"vehicle_type_id":"4","last_reported":1708463175,"current_range_meters":0,"station_id":"ce4bgr92rcd13ifvqc7g","pricing_plan_id":"cebpf4jnsgd1na2vs0mg"},{"bike_id":"ae018b9d-6ff4-40ce-9818-e5e1635636b1","system_id":"levelo_inurba_marseille","lat":43.2997,"lon":5.3718,"is_reserved":false,"is_disabled":false,"rental_uris":{"android":"levelo://app?vid=ae018b9d-6ff4-40ce-9818-e5e1635636b1","ios":"levelo://app?vid=ae018b9d-6ff4-40ce-9818-e5e1635636b1"},"vehicle_type_id":"4","last_reported":1708463175,"current_range_meters":1200,"station_id":"ce4bgr92rcd13ifvqc7g","pricing_plan_id":"cebpf4jnsgd1na2vs0mg"},{"bike_id":"8a40aee1-139c-4d42-8192-8c1114b40c57","system_id":"levelo_inurba_marseille","lat":43.299724,"lon":5.371829,"is_reserved":false,"is_disabled":false,"rental_uris":{"android":"levelo://app?vid=8a40aee1-139c-4d42-8192-8c1114b40c57","ios":"levelo://app?vid=8a40aee1-139c-4d42-8192-8c1114b40c57"},"vehicle_type_id":"4","last_reported":1708463175,"current_range_meters":7600,"station_id":"ce4bgr92rcd13ifvqc7g","pricing_plan_id":"cebpf4jnsgd1na2vs0mg"},{"bike_id":"d06942df-3273-4e83-8497-f64d2f05682e","system_id":"levelo_inurba_marseille","lat":43.299243,"lon":5.374807,"is_reserved":false,"is_disabled":false,"rental_uris":{"android":"levelo://app?vid=d06942df-3273-4e83-8497-f64d2f05682e","ios":"levelo://app?vid=d06942df-3273-4e83-8497-f64d2f05682e"},"vehicle_type_id":"4","last_reported":1708463175,"current_range_meters":5200,"station_id":"ce4bgjh2rcd13ifvqbg0","pricing_plan_id":"cebpf4jnsgd1na2vs0mg"},{"bike_id":"93b58ba6-1305-4178-91c6-865c793c341e","system_id":"levelo_inurba_marseille","lat":43.299243,"lon":5.37481,"is_reserved":false,"is_disabled":false,"rental_uris":{"android":"levelo://app?vid=93b58ba6-1305-4178-91c6-865c793c341e","ios":"levelo://app?vid=93b58ba6-1305-4178-91c6-865c793c341e"},"vehicle_type_id":"4","last_reported":1708463175,"current_range_meters":3200,"station_id":"ce4bgjh2rcd13ifvqbg0","pricing_plan_id":"cebpf4jnsgd1na2vs0mg"},{"bike_id":"f1d9aa1f-d7bf-4a67-bed6-307ea08e9ecc","system_id":"levelo_inurba_marseille","lat":43.311722,"lon":5.387247,"is_reserved":false,"is_disabled":false,"rental_uris":{"android":"levelo://app?vid=f1d9aa1f-d7bf-4a67-bed6-307ea08e9ecc","ios":"levelo://app?vid=f1d9aa1f-d7bf-4a67-bed6-307ea08e9ecc"},"vehicle_type_id":"4","last_reported":1708463175,"current_range_meters":28400,"station_id":"ce4bgv12rcd13ifvqcp0","pricing_plan_id":"cebpf4jnsgd1na2vs0mg"},{"bike_id":"1176da8f-7365-4c1e-b5b7-36810e521dd2","system_id":"levelo_inurba_marseille","lat":43.311722,"lon":5.387247,"is_reserved":false,"is_disabled":false,"rental_uris":{"android":"levelo://app?vid=1176da8f-7365-4c1e-b5b7-36810e521dd2","ios":"levelo://app?vid=1176da8f-7365-4c1e-b5b7-36810e521dd2"},"vehicle_type_id":"4","last_reported":1708463175,"current_range_meters":24400,"station_id":"ce4bgv12rcd13ifvqcp0","pricing_plan_id":"cebpf4jnsgd1na2vs0mg"},{"bike_id":"b8fded91-470c-440e-84dc-874ba2e0aad6","system_id":"levelo_inurba_marseille","lat":43.311722,"lon":5.387247,"is_reserved":false,"is_disabled":false,"rental_uris":{"android":"levelo://app?vid=b8fded91-470c-440e-84dc-874ba2e0aad6","ios":"levelo://app?vid=b8fded91-470c-440e-84dc-874ba2e0aad6"},"vehicle_type_id":"4","last_reported":1708463175,"current_range_meters":13200,"station_id":"ce4bgv12rcd13ifvqcp0","pricing_plan_id":"cebpf4jnsgd1na2vs0mg"},{"bike_id":"f6a86732-d769-4a07-8a0f-0c7f0b7570df","system_id":"levelo_inurba_marseille","lat":43.311722,"lon":5.387247,"is_reserved":false,"is_disabled":false,"rental_uris":{"android":"levelo://app?vid=f6a86732-d769-4a07-8a0f-0c7f0b7570df","ios":"levelo://app?vid=f6a86732-d769-4a07-8a0f-0c7f0b7570df"},"vehicle_type_id":"4","last_reported":1708463175,"current_range_meters":17200,"station_id":"ce4bgv12rcd13ifvqcp0","pricing_plan_id":"cebpf4jnsgd1na2vs0mg"},{"bike_id":"9882b495-0d71-42be-9357-4496dfa67eca","system_id":"levelo_inurba_marseille","lat":43.299243,"lon":5.37481,"is_reserved":false,"is_disabled":false,"rental_uris":{"android":"levelo://app?vid=9882b495-0d71-42be-9357-4496dfa67eca","ios":"levelo://app?vid=9882b495-0d71-42be-9357-4496dfa67eca"},"vehicle_type_id":"4","last_reported":1708463175,"current_range_meters":26400,"station_id":"ce4bgjh2rcd13ifvqbg0","pricing_plan_id":"cebpf4jnsgd1na2vs0mg"},{"bike_id":"a9d2e652-b46a-4446-a139-0051cb158cf6","system_id":"levelo_inurba_marseille","lat":43.299243,"lon":5.37481,"is_reserved":false,"is_disabled":false,"rental_uris":{"android":"levelo://app?vid=a9d2e652-b46a-4446-a139-0051cb158cf6","ios":"levelo://app?vid=a9d2e652-b46a-4446-a139-0051cb158cf6"},"vehicle_type_id":"4","last_reported":1708463175,"current_range_meters":15600,"station_id":"ce4bgjh2rcd13ifvqbg0","pricing_plan_id":"cebpf4jnsgd1na2vs0mg"},{"bike_id":"098eaae3-c91c-4c4e-9a14-70e940012909","system_id":"levelo_inurba_marseille","lat":43.298056,"lon":5.362176,"is_reserved":false,"is_disabled":false,"rental_uris":{"android":"levelo://app?vid=098eaae3-c91c-4c4e-9a14-70e940012909","ios":"levelo://app?vid=098eaae3-c91c-4c4e-9a14-70e940012909"},"vehicle_type_id":"4","last_reported":1708463175,"current_range_meters":20800,"station_id":"","pricing_plan_id":"cebpf4jnsgd1na2vs0mg"},{"bike_id":"deca02c5-1726-4b76-af04-fb53eedb9ea1","system_id":"levelo_inurba_marseille","lat":43.297794,"lon":5.370888,"is_reserved":false,"is_disabled":false,"rental_uris":{"android":"levelo://app?vid=deca02c5-1726-4b76-af04-fb53eedb9ea1","ios":"levelo://app?vid=deca02c5-1726-4b76-af04-fb53eedb9ea1"},"vehicle_type_id":"4","last_reported":1708463175,"current_range_meters":8000,"station_id":"ce4bgop2rcd13ifvqc1g","pricing_plan_id":"cebpf4jnsgd1na2vs0mg"},{"bike_id":"79b54601-dd27-44fc-91ca-5befd5594d9b","system_id":"levelo_inurba_marseille","lat":43.322872,"lon":5.382756,"is_reserved":false,"is_disabled":false,"rental_uris":{"android":"levelo://app?vid=79b54601-dd27-44fc-91ca-5befd5594d9b","ios":"levelo://app?vid=79b54601-dd27-44fc-91ca-5befd5594d9b"},"vehicle_type_id":"4","last_reported":1708463175,"current_range_meters":30400,"station_id":"ce4bhr12rcd13ifvqhqg","pricing_plan_id":"cebpf4jnsgd1na2vs0mg"},{"bike_id":"ad2e0df5-ba5f-4353-9310-961256df2c13","system_id":"levelo_inurba_marseille","lat":43.297794,"lon":5.370888,"is_reserved":false,"is_disabled":false,"rental_uris":{"android":"levelo://app?vid=ad2e0df5-ba5f-4353-9310-961256df2c13","ios":"levelo://app?vid=ad2e0df5-ba5f-4353-9310-961256df2c13"},"vehicle_type_id":"4","last_reported":1708463175,"current_range_meters":19200,"station_id":"ce4bgop2rcd13ifvqc1g","pricing_plan_id":"cebpf4jnsgd1na2vs0mg"},{"bike_id":"25fc5026-6ec5-4002-b696-3e1c3a41c330","system_id":"levelo_inurba_marseille","lat":43.32287,"lon":5.38279,"is_reserved":false,"is_disabled":false,"rental_uris":{"android":"levelo://app?vid=25fc5026-6ec5-4002-b696-3e1c3a41c330","ios":"levelo://app?vid=25fc5026-6ec5-4002-b696-3e1c3a41c330"},"vehicle_type_id":"4","last_reported":1708463175,"current_range_meters":9200,"station_id":"ce4bhr12rcd13ifvqhqg","pricing_plan_id":"cebpf4jnsgd1na2vs0mg"},{"bike_id":"3ef6b703-e056-421a-9179-5e7d94b25453","system_id":"levelo_inurba_marseille","lat":43.3229,"lon":5.38281,"is_reserved":false,"is_disabled":false,"rental_uris":{"android":"levelo://app?vid=3ef6b703-e056-421a-9179-5e7d94b25453","ios":"levelo://app?vid=3ef6b703-e056-421a-9179-5e7d94b25453"},"vehicle_type_id":"4","last_reported":1708463175,"current_range_meters":23600,"station_id":"ce4bhr12rcd13ifvqhqg","pricing_plan_id":"cebpf4jnsgd1na2vs0mg"},{"bike_id":"43150398-4c31-4b9c-a9d4-73dedce22f55","system_id":"levelo_inurba_marseille","lat":43.29711,"lon":5.36606,"is_reserved":false,"is_disabled":false,"rental_uris":{"android":"levelo://app?vid=43150398-4c31-4b9c-a9d4-73dedce22f55","ios":"levelo://app?vid=43150398-4c31-4b9c-a9d4-73dedce22f55"},"vehicle_type_id":"4","last_reported":1708463175,"current_range_meters":0,"station_id":"ce4bgn12rcd13ifvqbt0","pricing_plan_id":"cebpf4jnsgd1na2vs0mg"},{"bike_id":"dee54db8-3055-46c9-acdc-2ede6167b23c","system_id":"levelo_inurba_marseille","lat":43.297163,"lon":5.365866,"is_reserved":false,"is_disabled":false,"rental_uris":{"android":"levelo://app?vid=dee54db8-3055-46c9-acdc-2ede6167b23c","ios":"levelo://app?vid=dee54db8-3055-46c9-acdc-2ede6167b23c"},"vehicle_type_id":"4","last_reported":1708463175,"current_range_meters":10400,"station_id":"ce4bgn12rcd13ifvqbt0","pricing_plan_id":"cebpf4jnsgd1na2vs0mg"},{"bike_id":"42a5bc49-017c-4bed-ace8-b0cc016138bf","system_id":"levelo_inurba_marseille","lat":43.32851,"lon":5.36689,"is_reserved":false,"is_disabled":false,"rental_uris":{"android":"levelo://app?vid=42a5bc49-017c-4bed-ace8-b0cc016138bf","ios":"levelo://app?vid=42a5bc49-017c-4bed-ace8-b0cc016138bf"},"vehicle_type_id":"4","last_reported":1708463175,"current_range_meters":8000,"station_id":"","pricing_plan_id":"cebpf4jnsgd1na2vs0mg"},{"bike_id":"8b56043d-5a3f-4374-9d23-73ad33c38f92","system_id":"levelo_inurba_marseille","lat":43.29693,"lon":5.36582,"is_reserved":false,"is_disabled":false,"rental_uris":{"android":"levelo://app?vid=8b56043d-5a3f-4374-9d23-73ad33c38f92","ios":"levelo://app?vid=8b56043d-5a3f-4374-9d23-73ad33c38f92"},"vehicle_type_id":"4","last_reported":1708463175,"current_range_meters":22800,"station_id":"ce4bgn12rcd13ifvqbt0","pricing_plan_id":"cebpf4jnsgd1na2vs0mg"},{"bike_id":"94d05653-18fa-44ca-99c1-724693dfd273","system_id":"levelo_inurba_marseille","lat":43.2968,"lon":5.37291,"is_reserved":false,"is_disabled":false,"rental_uris":{"android":"levelo://app?vid=94d05653-18fa-44ca-99c1-724693dfd273","ios":"levelo://app?vid=94d05653-18fa-44ca-99c1-724693dfd273"},"vehicle_type_id":"4","last_reported":1708463175,"current_range_meters":2800,"station_id":"ce4bgk12rcd13ifvqbj0","pricing_plan_id":"cebpf4jnsgd1na2vs0mg"},{"bike_id":"4600f691-b115-45fa-9a21-872b4a8e4a8c","system_id":"levelo_inurba_marseille","lat":43.309589,"lon":5.390258,"is_reserved":false,"is_disabled":false,"rental_uris":{"android":"levelo://app?vid=4600f691-b115-45fa-9a21-872b4a8e4a8c","ios":"levelo://app?vid=4600f691-b115-45fa-9a21-872b4a8e4a8c"},"vehicle_type_id":"4","last_reported":1708463175,"current_range_meters":25200,"station_id":"ce4bgup2rcd13ifvqco0","pricing_plan_id":"cebpf4jnsgd1na2vs0mg"},{"bike_id":"05e57e98-6cb1-4eba-84b1-3e5e5fca2f14","system_id":"levelo_inurba_marseille","lat":43.299028,"lon":5.381509,"is_reserved":false,"is_disabled":false,"rental_uris":{"android":"levelo://app?vid=05e57e98-6cb1-4eba-84b1-3e5e5fca2f14","ios":"levelo://app?vid=05e57e98-6cb1-4eba-84b1-3e5e5fca2f14"},"vehicle_type_id":"4","last_reported":1708463175,"current_range_meters":0,"station_id":"ce4bgj12rcd13ifvqbc0","pricing_plan_id":"cebpf4jnsgd1na2vs0mg"},{"bike_id":"6241c716-e87b-4965-8c3e-038150b40b06","system_id":"levelo_inurba_marseille","lat":43.299028,"lon":5.381509,"is_reserved":false,"is_disabled":false,"rental_uris":{"android":"levelo://app?vid=6241c716-e87b-4965-8c3e-038150b40b06","ios":"levelo://app?vid=6241c716-e87b-4965-8c3e-038150b40b06"},"vehicle_type_id":"4","last_reported":1708463175,"current_range_meters":15200,"station_id":"ce4bgj12rcd13ifvqbc0","pricing_plan_id":"cebpf4jnsgd1na2vs0mg"},{"bike_id":"8169ff49-541d-4ace-ad53-3c7ba75a9903","system_id":"levelo_inurba_marseille","lat":43.299028,"lon":5.381509,"is_reserved":false,"is_disabled":false,"rental_uris":{"android":"levelo://app?vid=8169ff49-541d-4ace-ad53-3c7ba75a9903","ios":"levelo://app?vid=8169ff49-541d-4ace-ad53-3c7ba75a9903"},"vehicle_type_id":"4","last_reported":1708463175,"current_range_meters":14000,"station_id":"ce4bgj12rcd13ifvqbc0","pricing_plan_id":"cebpf4jnsgd1na2vs0mg"},{"bike_id":"c645a06f-8daa-44f7-acec-6d3d9a264b55","system_id":"levelo_inurba_marseille","lat":43.317557,"lon":5.390173,"is_reserved":false,"is_disabled":false,"rental_uris":{"android":"levelo://app?vid=c645a06f-8daa-44f7-acec-6d3d9a264b55","ios":"levelo://app?vid=c645a06f-8daa-44f7-acec-6d3d9a264b55"},"vehicle_type_id":"4","last_reported":1708463175,"current_range_meters":5200,"station_id":"ce4bhqp2rcd13ifvqhng","pricing_plan_id":"cebpf4jnsgd1na2vs0mg"},{"bike_id":"d8e199a1-664b-4dd0-82eb-aea7c746ff0e","system_id":"levelo_inurba_marseille","lat":43.317557,"lon":5.390173,"is_reserved":false,"is_disabled":false,"rental_uris":{"android":"levelo://app?vid=d8e199a1-664b-4dd0-82eb-aea7c746ff0e","ios":"levelo://app?vid=d8e199a1-664b-4dd0-82eb-aea7c746ff0e"},"vehicle_type_id":"4","last_reported":1708463175,"current_range_meters":26400,"station_id":"ce4bhqp2rcd13ifvqhng","pricing_plan_id":"cebpf4jnsgd1na2vs0mg"},{"bike_id":"d6e2bc02-57e3-487e-896f-1135c0ee3fc2","system_id":"levelo_inurba_marseille","lat":43.317583,"lon":5.390144,"is_reserved":false,"is_disabled":false,"rental_uris":{"android":"levelo://app?vid=d6e2bc02-57e3-487e-896f-1135c0ee3fc2","ios":"levelo://app?vid=d6e2bc02-57e3-487e-896f-1135c0ee3fc2"},"vehicle_type_id":"4","last_reported":1708463175,"current_range_meters":0,"station_id":"ce4bhqp2rcd13ifvqhng","pricing_plan_id":"cebpf4jnsgd1na2vs0mg"},{"bike_id":"709449f5-e857-471f-a017-038efc025a48","system_id":"levelo_inurba_marseille","lat":43.317583,"lon":5.390156,"is_reserved":false,"is_disabled":false,"rental_uris":{"android":"levelo://app?vid=709449f5-e857-471f-a017-038efc025a48","ios":"levelo://app?vid=709449f5-e857-471f-a017-038efc025a48"},"vehicle_type_id":"4","last_reported":1708463175,"current_range_meters":3200,"station_id":"ce4bhqp2rcd13ifvqhng","pricing_plan_id":"cebpf4jnsgd1na2vs0mg"},{"bike_id":"94515d6b-60c7-4622-b12f-35fcda8fc877","system_id":"levelo_inurba_marseille","lat":43.298037,"lon":5.381066,"is_reserved":false,"is_disabled":false,"rental_uris":{"android":"levelo://app?vid=94515d6b-60c7-4622-b12f-35fcda8fc877","ios":"levelo://app?vid=94515d6b-60c7-4622-b12f-35fcda8fc877"},"vehicle_type_id":"4","last_reported":1708463175,"current_range_meters":5600,"station_id":"ce4bgip2rcd13ifvqbb0","pricing_plan_id":"cebpf4jnsgd1na2vs0mg"},{"bike_id":"55fab17d-011c-45c1-8e1d-a4875f92f5d6","system_id":"levelo_inurba_marseille","lat":43.304274,"lon":5.388873,"is_reserved":false,"is_disabled":false,"rental_uris":{"android":"levelo://app?vid=55fab17d-011c-45c1-8e1d-a4875f92f5d6","ios":"levelo://app?vid=55fab17d-011c-45c1-8e1d-a4875f92f5d6"},"vehicle_type_id":"4","last_reported":1708463175,"current_range_meters":22800,"station_id":"ce4bgk12rcd13ifvqbi0","pricing_plan_id":"cebpf4jnsgd1na2vs0mg"},{"bike_id":"0798a4e7-f779-47e2-a558-207b5c0752cf","system_id":"levelo_inurba_marseille","lat":43.304274,"lon":5.388873,"is_reserved":false,"is_disabled":false,"rental_uris":{"android":"levelo://app?vid=0798a4e7-f779-47e2-a558-207b5c0752cf","ios":"levelo://app?vid=0798a4e7-f779-47e2-a558-207b5c0752cf"},"vehicle_type_id":"4","last_reported":1708463175,"current_range_meters":8800,"station_id":"ce4bgk12rcd13ifvqbi0","pricing_plan_id":"cebpf4jnsgd1na2vs0mg"},{"bike_id":"dad3cb2d-9083-470d-a8d6-46b65c14484b","system_id":"levelo_inurba_marseille","lat":43.304278,"lon":5.388868,"is_reserved":false,"is_disabled":false,"rental_uris":{"android":"levelo://app?vid=dad3cb2d-9083-470d-a8d6-46b65c14484b","ios":"levelo://app?vid=dad3cb2d-9083-470d-a8d6-46b65c14484b"},"vehicle_type_id":"4","last_reported":1708463175,"current_range_meters":20800,"station_id":"ce4bgk12rcd13ifvqbi0","pricing_plan_id":"cebpf4jnsgd1na2vs0mg"},{"bike_id":"5fce338e-62d2-46a5-bae7-7268a872ef50","system_id":"levelo_inurba_marseille","lat":43.295748,"lon":5.37522,"is_reserved":false,"is_disabled":false,"rental_uris":{"android":"levelo://app?vid=5fce338e-62d2-46a5-bae7-7268a872ef50","ios":"levelo://app?vid=5fce338e-62d2-46a5-bae7-7268a872ef50"},"vehicle_type_id":"4","last_reported":1708463175,"current_range_meters":0,"station_id":"ce4bgh92rcd13ifvqb50","pricing_plan_id":"cebpf4jnsgd1na2vs0mg"},{"bike_id":"65391f57-a923-4338-b9af-b2e70750b097","system_id":"levelo_inurba_marseille","lat":43.295748,"lon":5.37522,"is_reserved":false,"is_disabled":false,"rental_uris":{"android":"levelo://app?vid=65391f57-a923-4338-b9af-b2e70750b097","ios":"levelo://app?vid=65391f57-a923-4338-b9af-b2e70750b097"},"vehicle_type_id":"4","last_reported":1708463175,"current_range_meters":24000,"station_id":"ce4bgh92rcd13ifvqb50","pricing_plan_id":"cebpf4jnsgd1na2vs0mg"},{"bike_id":"a5795bf6-5477-4f96-9cee-e29fd16f0328","system_id":"levelo_inurba_marseille","lat":43.304274,"lon":5.388873,"is_reserved":false,"is_disabled":false,"rental_uris":{"android":"levelo://app?vid=a5795bf6-5477-4f96-9cee-e29fd16f0328","ios":"levelo://app?vid=a5795bf6-5477-4f96-9cee-e29fd16f0328"},"vehicle_type_id":"4","last_reported":1708463175,"current_range_meters":30400,"station_id":"ce4bgk12rcd13ifvqbi0","pricing_plan_id":"cebpf4jnsgd1na2vs0mg"},{"bike_id":"46c2d1a2-d143-422b-80ac-474dd53be570","system_id":"levelo_inurba_marseille","lat":43.29783,"lon":5.38137,"is_reserved":false,"is_disabled":false,"rental_uris":{"android":"levelo://app?vid=46c2d1a2-d143-422b-80ac-474dd53be570","ios":"levelo://app?vid=46c2d1a2-d143-422b-80ac-474dd53be570"},"vehicle_type_id":"4","last_reported":1708463175,"current_range_meters":30800,"station_id":"ce4bgip2rcd13ifvqbb0","pricing_plan_id":"cebpf4jnsgd1na2vs0mg"},{"bike_id":"3d57e456-9667-472b-9d6b-2c21d1ae635c","system_id":"levelo_inurba_marseille","lat":43.299707,"lon":5.384859,"is_reserved":false,"is_disabled":false,"rental_uris":{"android":"levelo://app?vid=3d57e456-9667-472b-9d6b-2c21d1ae635c","ios":"levelo://app?vid=3d57e456-9667-472b-9d6b-2c21d1ae635c"},"vehicle_type_id":"4","last_reported":1708463175,"current_range_meters":14000,"station_id":"ce4bgj92rcd13ifvqbd0","pricing_plan_id":"cebpf4jnsgd1na2vs0mg"},{"bike_id":"c692ec6f-e355-4ca5-9d86-3d372742decf","system_id":"levelo_inurba_marseille","lat":43.299724,"lon":5.384848,"is_reserved":false,"is_disabled":false,"rental_uris":{"android":"levelo://app?vid=c692ec6f-e355-4ca5-9d86-3d372742decf","ios":"levelo://app?vid=c692ec6f-e355-4ca5-9d86-3d372742decf"},"vehicle_type_id":"4","last_reported":1708463175,"current_range_meters":9600,"station_id":"ce4bgj92rcd13ifvqbd0","pricing_plan_id":"cebpf4jnsgd1na2vs0mg"},{"bike_id":"cedf18e9-1f25-4139-9cf1-cd3aeba80406","system_id":"levelo_inurba_marseille","lat":43.299707,"lon":5.384859,"is_reserved":false,"is_disabled":false,"rental_uris":{"android":"levelo://app?vid=cedf18e9-1f25-4139-9cf1-cd3aeba80406","ios":"levelo://app?vid=cedf18e9-1f25-4139-9cf1-cd3aeba80406"},"vehicle_type_id":"4","last_reported":1708463175,"current_range_meters":1200,"station_id":"ce4bgj92rcd13ifvqbd0","pricing_plan_id":"cebpf4jnsgd1na2vs0mg"},{"bike_id":"ffa3a922-4c5d-4a9c-9e91-ae0166b49b2d","system_id":"levelo_inurba_marseille","lat":43.3012,"lon":5.3879,"is_reserved":false,"is_disabled":false,"rental_uris":{"android":"levelo://app?vid=ffa3a922-4c5d-4a9c-9e91-ae0166b49b2d","ios":"levelo://app?vid=ffa3a922-4c5d-4a9c-9e91-ae0166b49b2d"},"vehicle_type_id":"4","last_reported":1708463175,"current_range_meters":10000,"station_id":"","pricing_plan_id":"cebpf4jnsgd1na2vs0mg"},{"bike_id":"7671d002-68d4-4024-8203-235f9470c257","system_id":"levelo_inurba_marseille","lat":43.32367,"lon":5.388836,"is_reserved":false,"is_disabled":false,"rental_uris":{"android":"levelo://app?vid=7671d002-68d4-4024-8203-235f9470c257","ios":"levelo://app?vid=7671d002-68d4-4024-8203-235f9470c257"},"vehicle_type_id":"4","last_reported":1708463175,"current_range_meters":18400,"station_id":"ce4bhqp2rcd13ifvqhog","pricing_plan_id":"cebpf4jnsgd1na2vs0mg"},{"bike_id":"ac81b7ab-301c-41f2-a918-4bfbf1eff5ff","system_id":"levelo_inurba_marseille","lat":43.32367,"lon":5.388836,"is_reserved":false,"is_disabled":false,"rental_uris":{"android":"levelo://app?vid=ac81b7ab-301c-41f2-a918-4bfbf1eff5ff","ios":"levelo://app?vid=ac81b7ab-301c-41f2-a918-4bfbf1eff5ff"},"vehicle_type_id":"4","last_reported":1708463175,"current_range_meters":2000,"station_id":"ce4bhqp2rcd13ifvqhog","pricing_plan_id":"cebpf4jnsgd1na2vs0mg"},{"bike_id":"146e877e-91b7-4571-b34e-bca68e9e556b","system_id":"levelo_inurba_marseille","lat":43.32367,"lon":5.388836,"is_reserved":false,"is_disabled":false,"rental_uris":{"android":"levelo://app?vid=146e877e-91b7-4571-b34e-bca68e9e556b","ios":"levelo://app?vid=146e877e-91b7-4571-b34e-bca68e9e556b"},"vehicle_type_id":"4","last_reported":1708463175,"current_range_meters":24800,"station_id":"ce4bhqp2rcd13ifvqhog","pricing_plan_id":"cebpf4jnsgd1na2vs0mg"},{"bike_id":"c7084a34-df4c-476a-a442-9e632d7f09f6","system_id":"levelo_inurba_marseille","lat":43.32367,"lon":5.388836,"is_reserved":false,"is_disabled":false,"rental_uris":{"android":"levelo://app?vid=c7084a34-df4c-476a-a442-9e632d7f09f6","ios":"levelo://app?vid=c7084a34-df4c-476a-a442-9e632d7f09f6"},"vehicle_type_id":"4","last_reported":1708463175,"current_range_meters":5200,"station_id":"ce4bhqp2rcd13ifvqhog","pricing_plan_id":"cebpf4jnsgd1na2vs0mg"},{"bike_id":"43dc3f08-caf8-4bc2-94dc-bce4ff290aab","system_id":"levelo_inurba_marseille","lat":43.32367,"lon":5.388836,"is_reserved":false,"is_disabled":false,"rental_uris":{"android":"levelo://app?vid=43dc3f08-caf8-4bc2-94dc-bce4ff290aab","ios":"levelo://app?vid=43dc3f08-caf8-4bc2-94dc-bce4ff290aab"},"vehicle_type_id":"4","last_reported":1708463175,"current_range_meters":20000,"station_id":"ce4bhqp2rcd13ifvqhog","pricing_plan_id":"cebpf4jnsgd1na2vs0mg"},{"bike_id":"f6d70e1a-28a8-4fd6-82cd-ab78aeaef9da","system_id":"levelo_inurba_marseille","lat":43.32367,"lon":5.388836,"is_reserved":false,"is_disabled":false,"rental_uris":{"android":"levelo://app?vid=f6d70e1a-28a8-4fd6-82cd-ab78aeaef9da","ios":"levelo://app?vid=f6d70e1a-28a8-4fd6-82cd-ab78aeaef9da"},"vehicle_type_id":"4","last_reported":1708463175,"current_range_meters":26800,"station_id":"ce4bhqp2rcd13ifvqhog","pricing_plan_id":"cebpf4jnsgd1na2vs0mg"},{"bike_id":"0605d24d-f576-4560-a092-4bccfadc3a33","system_id":"levelo_inurba_marseille","lat":43.32367,"lon":5.388836,"is_reserved":false,"is_disabled":false,"rental_uris":{"android":"levelo://app?vid=0605d24d-f576-4560-a092-4bccfadc3a33","ios":"levelo://app?vid=0605d24d-f576-4560-a092-4bccfadc3a33"},"vehicle_type_id":"4","last_reported":1708463175,"current_range_meters":8800,"station_id":"ce4bhqp2rcd13ifvqhog","pricing_plan_id":"cebpf4jnsgd1na2vs0mg"},{"bike_id":"329a33c3-a828-4b37-8434-1ef61d227642","system_id":"levelo_inurba_marseille","lat":43.29602,"lon":5.381084,"is_reserved":false,"is_disabled":false,"rental_uris":{"android":"levelo://app?vid=329a33c3-a828-4b37-8434-1ef61d227642","ios":"levelo://app?vid=329a33c3-a828-4b37-8434-1ef61d227642"},"vehicle_type_id":"4","last_reported":1708463175,"current_range_meters":10400,"station_id":"ce4bgl12rcd13ifvqbo0","pricing_plan_id":"cebpf4jnsgd1na2vs0mg"},{"bike_id":"f712b5ad-8b6f-414e-834b-1292333aa475","system_id":"levelo_inurba_marseille","lat":43.29309,"lon":5.37173,"is_reserved":false,"is_disabled":false,"rental_uris":{"android":"levelo://app?vid=f712b5ad-8b6f-414e-834b-1292333aa475","ios":"levelo://app?vid=f712b5ad-8b6f-414e-834b-1292333aa475"},"vehicle_type_id":"4","last_reported":1708463175,"current_range_meters":21200,"station_id":"ce4bgh92rcd13ifvqb40","pricing_plan_id":"cebpf4jnsgd1na2vs0mg"},{"bike_id":"62ceac5a-ec1b-470f-ace4-4c613b5e0630","system_id":"levelo_inurba_marseille","lat":43.29304,"lon":5.371807,"is_reserved":false,"is_disabled":false,"rental_uris":{"android":"levelo://app?vid=62ceac5a-ec1b-470f-ace4-4c613b5e0630","ios":"levelo://app?vid=62ceac5a-ec1b-470f-ace4-4c613b5e0630"},"vehicle_type_id":"4","last_reported":1708463175,"current_range_meters":22000,"station_id":"ce4bgh92rcd13ifvqb40","pricing_plan_id":"cebpf4jnsgd1na2vs0mg"},{"bike_id":"9e39b69a-dde5-4015-82b9-74fe285aa7c5","system_id":"levelo_inurba_marseille","lat":43.292749,"lon":5.368402,"is_reserved":false,"is_disabled":false,"rental_uris":{"android":"levelo://app?vid=9e39b69a-dde5-4015-82b9-74fe285aa7c5","ios":"levelo://app?vid=9e39b69a-dde5-4015-82b9-74fe285aa7c5"},"vehicle_type_id":"4","last_reported":1708463175,"current_range_meters":14000,"station_id":"ce4bhbp2rcd13ifvqesg","pricing_plan_id":"cebpf4jnsgd1na2vs0mg"},{"bike_id":"af3dabe6-b930-410a-b946-601474256b68","system_id":"levelo_inurba_marseille","lat":43.29266,"lon":5.36839,"is_reserved":false,"is_disabled":false,"rental_uris":{"android":"levelo://app?vid=af3dabe6-b930-410a-b946-601474256b68","ios":"levelo://app?vid=af3dabe6-b930-410a-b946-601474256b68"},"vehicle_type_id":"4","last_reported":1708463175,"current_range_meters":0,"station_id":"ce4bhbp2rcd13ifvqesg","pricing_plan_id":"cebpf4jnsgd1na2vs0mg"},{"bike_id":"46da80bd-46a8-4ce1-8df1-399e972dfcd8","system_id":"levelo_inurba_marseille","lat":43.29265,"lon":5.36839,"is_reserved":false,"is_disabled":false,"rental_uris":{"android":"levelo://app?vid=46da80bd-46a8-4ce1-8df1-399e972dfcd8","ios":"levelo://app?vid=46da80bd-46a8-4ce1-8df1-399e972dfcd8"},"vehicle_type_id":"4","last_reported":1708463175,"current_range_meters":0,"station_id":"ce4bhbp2rcd13ifvqesg","pricing_plan_id":"cebpf4jnsgd1na2vs0mg"},{"bike_id":"f4da61fc-4d2f-4d8e-8e25-285d308dc089","system_id":"levelo_inurba_marseille","lat":43.305994,"lon":5.393687,"is_reserved":false,"is_disabled":false,"rental_uris":{"android":"levelo://app?vid=f4da61fc-4d2f-4d8e-8e25-285d308dc089","ios":"levelo://app?vid=f4da61fc-4d2f-4d8e-8e25-285d308dc089"},"vehicle_type_id":"4","last_reported":1708463175,"current_range_meters":30400,"station_id":"ce4bh0p2rcd13ifvqd80","pricing_plan_id":"cebpf4jnsgd1na2vs0mg"},{"bike_id":"3d1400e7-40bc-4b35-9131-78c7b78eb703","system_id":"levelo_inurba_marseille","lat":43.305994,"lon":5.393687,"is_reserved":false,"is_disabled":false,"rental_uris":{"android":"levelo://app?vid=3d1400e7-40bc-4b35-9131-78c7b78eb703","ios":"levelo://app?vid=3d1400e7-40bc-4b35-9131-78c7b78eb703"},"vehicle_type_id":"4","last_reported":1708463175,"current_range_meters":10000,"station_id":"ce4bh0p2rcd13ifvqd80","pricing_plan_id":"cebpf4jnsgd1na2vs0mg"},{"bike_id":"aaba5baa-ff71-4d63-a243-294d528101db","system_id":"levelo_inurba_marseille","lat":43.30595,"lon":5.39357,"is_reserved":false,"is_disabled":false,"rental_uris":{"android":"levelo://app?vid=aaba5baa-ff71-4d63-a243-294d528101db","ios":"levelo://app?vid=aaba5baa-ff71-4d63-a243-294d528101db"},"vehicle_type_id":"4","last_reported":1708463175,"current_range_meters":30000,"station_id":"ce4bh0p2rcd13ifvqd80","pricing_plan_id":"cebpf4jnsgd1na2vs0mg"},{"bike_id":"2c0631dd-90bc-4e0f-88e7-2d4f809ebdf3","system_id":"levelo_inurba_marseille","lat":43.30307,"lon":5.39202,"is_reserved":false,"is_disabled":false,"rental_uris":{"android":"levelo://app?vid=2c0631dd-90bc-4e0f-88e7-2d4f809ebdf3","ios":"levelo://app?vid=2c0631dd-90bc-4e0f-88e7-2d4f809ebdf3"},"vehicle_type_id":"4","last_reported":1708463175,"current_range_meters":24000,"station_id":"ce4bgkh2rcd13ifvqbk0","pricing_plan_id":"cebpf4jnsgd1na2vs0mg"},{"bike_id":"b9c3b8d8-0aea-4986-a06f-d9c079da22e1","system_id":"levelo_inurba_marseille","lat":43.303018,"lon":5.392014,"is_reserved":false,"is_disabled":false,"rental_uris":{"android":"levelo://app?vid=b9c3b8d8-0aea-4986-a06f-d9c079da22e1","ios":"levelo://app?vid=b9c3b8d8-0aea-4986-a06f-d9c079da22e1"},"vehicle_type_id":"4","last_reported":1708463175,"current_range_meters":29600,"station_id":"ce4bgkh2rcd13ifvqbk0","pricing_plan_id":"cebpf4jnsgd1na2vs0mg"},{"bike_id":"f575c977-2f4d-4d2a-aaa4-9c77b8a7fbff","system_id":"levelo_inurba_marseille","lat":43.30305,"lon":5.39207,"is_reserved":false,"is_disabled":false,"rental_uris":{"android":"levelo://app?vid=f575c977-2f4d-4d2a-aaa4-9c77b8a7fbff","ios":"levelo://app?vid=f575c977-2f4d-4d2a-aaa4-9c77b8a7fbff"},"vehicle_type_id":"4","last_reported":1708463175,"current_range_meters":27600,"station_id":"ce4bgkh2rcd13ifvqbk0","pricing_plan_id":"cebpf4jnsgd1na2vs0mg"},{"bike_id":"fc79754c-c25a-4857-b7ab-0766db31cbc1","system_id":"levelo_inurba_marseille","lat":43.303056,"lon":5.392149,"is_reserved":false,"is_disabled":false,"rental_uris":{"android":"levelo://app?vid=fc79754c-c25a-4857-b7ab-0766db31cbc1","ios":"levelo://app?vid=fc79754c-c25a-4857-b7ab-0766db31cbc1"},"vehicle_type_id":"4","last_reported":1708463175,"current_range_meters":9600,"station_id":"ce4bgkh2rcd13ifvqbk0","pricing_plan_id":"cebpf4jnsgd1na2vs0mg"},{"bike_id":"047b874e-f744-47e5-b3b9-c68d83ef6ece","system_id":"levelo_inurba_marseille","lat":43.30297,"lon":5.3921,"is_reserved":false,"is_disabled":false,"rental_uris":{"android":"levelo://app?vid=047b874e-f744-47e5-b3b9-c68d83ef6ece","ios":"levelo://app?vid=047b874e-f744-47e5-b3b9-c68d83ef6ece"},"vehicle_type_id":"4","last_reported":1708463175,"current_range_meters":30800,"station_id":"ce4bgkh2rcd13ifvqbk0","pricing_plan_id":"cebpf4jnsgd1na2vs0mg"},{"bike_id":"3294824e-070a-46c6-8802-5f65c1ff606d","system_id":"levelo_inurba_marseille","lat":43.30299,"lon":5.39216,"is_reserved":false,"is_disabled":false,"rental_uris":{"android":"levelo://app?vid=3294824e-070a-46c6-8802-5f65c1ff606d","ios":"levelo://app?vid=3294824e-070a-46c6-8802-5f65c1ff606d"},"vehicle_type_id":"4","last_reported":1708463175,"current_range_meters":15200,"station_id":"ce4bgkh2rcd13ifvqbk0","pricing_plan_id":"cebpf4jnsgd1na2vs0mg"},{"bike_id":"f8a0510e-ebce-40da-ab54-25c235b2ff96","system_id":"levelo_inurba_marseille","lat":43.303002,"lon":5.392142,"is_reserved":false,"is_disabled":false,"rental_uris":{"android":"levelo://app?vid=f8a0510e-ebce-40da-ab54-25c235b2ff96","ios":"levelo://app?vid=f8a0510e-ebce-40da-ab54-25c235b2ff96"},"vehicle_type_id":"4","last_reported":1708463175,"current_range_meters":6000,"station_id":"ce4bgkh2rcd13ifvqbk0","pricing_plan_id":"cebpf4jnsgd1na2vs0mg"},{"bike_id":"ced04b86-ef37-48ff-8101-83188245b1bb","system_id":"levelo_inurba_marseille","lat":43.29368,"lon":5.378588,"is_reserved":false,"is_disabled":false,"rental_uris":{"android":"levelo://app?vid=ced04b86-ef37-48ff-8101-83188245b1bb","ios":"levelo://app?vid=ced04b86-ef37-48ff-8101-83188245b1bb"},"vehicle_type_id":"4","last_reported":1708463175,"current_range_meters":0,"station_id":"","pricing_plan_id":"cebpf4jnsgd1na2vs0mg"},{"bike_id":"5e774ffa-42b2-4f16-97d7-d54e88763a07","system_id":"levelo_inurba_marseille","lat":43.300852,"lon":5.390859,"is_reserved":false,"is_disabled":false,"rental_uris":{"android":"levelo://app?vid=5e774ffa-42b2-4f16-97d7-d54e88763a07","ios":"levelo://app?vid=5e774ffa-42b2-4f16-97d7-d54e88763a07"},"vehicle_type_id":"4","last_reported":1708463175,"current_range_meters":14000,"station_id":"ce4bh192rcd13ifvqdb0","pricing_plan_id":"cebpf4jnsgd1na2vs0mg"},{"bike_id":"90237fbb-8904-48a9-8842-c30f6c0bbf3c","system_id":"levelo_inurba_marseille","lat":43.300852,"lon":5.390859,"is_reserved":false,"is_disabled":false,"rental_uris":{"android":"levelo://app?vid=90237fbb-8904-48a9-8842-c30f6c0bbf3c","ios":"levelo://app?vid=90237fbb-8904-48a9-8842-c30f6c0bbf3c"},"vehicle_type_id":"4","last_reported":1708463175,"current_range_meters":13600,"station_id":"ce4bh192rcd13ifvqdb0","pricing_plan_id":"cebpf4jnsgd1na2vs0mg"},{"bike_id":"85b8cc46-8ab7-42f8-839c-b7efe52a34b0","system_id":"levelo_inurba_marseille","lat":43.300852,"lon":5.390859,"is_reserved":false,"is_disabled":false,"rental_uris":{"android":"levelo://app?vid=85b8cc46-8ab7-42f8-839c-b7efe52a34b0","ios":"levelo://app?vid=85b8cc46-8ab7-42f8-839c-b7efe52a34b0"},"vehicle_type_id":"4","last_reported":1708463175,"current_range_meters":2400,"station_id":"ce4bh192rcd13ifvqdb0","pricing_plan_id":"cebpf4jnsgd1na2vs0mg"},{"bike_id":"b8146bd2-0c9b-4652-9cd9-1af91fc7c18a","system_id":"levelo_inurba_marseille","lat":43.300852,"lon":5.390859,"is_reserved":false,"is_disabled":false,"rental_uris":{"android":"levelo://app?vid=b8146bd2-0c9b-4652-9cd9-1af91fc7c18a","ios":"levelo://app?vid=b8146bd2-0c9b-4652-9cd9-1af91fc7c18a"},"vehicle_type_id":"4","last_reported":1708463175,"current_range_meters":15200,"station_id":"ce4bh192rcd13ifvqdb0","pricing_plan_id":"cebpf4jnsgd1na2vs0mg"},{"bike_id":"975f807f-6b98-499e-997f-08ada6793d8a","system_id":"levelo_inurba_marseille","lat":43.30085,"lon":5.390856,"is_reserved":false,"is_disabled":false,"rental_uris":{"android":"levelo://app?vid=975f807f-6b98-499e-997f-08ada6793d8a","ios":"levelo://app?vid=975f807f-6b98-499e-997f-08ada6793d8a"},"vehicle_type_id":"4","last_reported":1708463175,"current_range_meters":0,"station_id":"ce4bh192rcd13ifvqdb0","pricing_plan_id":"cebpf4jnsgd1na2vs0mg"},{"bike_id":"f7e7eaa3-9bfb-4321-a7a4-1cdfcafd72d0","system_id":"levelo_inurba_marseille","lat":43.29214,"lon":5.36059,"is_reserved":false,"is_disabled":false,"rental_uris":{"android":"levelo://app?vid=f7e7eaa3-9bfb-4321-a7a4-1cdfcafd72d0","ios":"levelo://app?vid=f7e7eaa3-9bfb-4321-a7a4-1cdfcafd72d0"},"vehicle_type_id":"4","last_reported":1708463175,"current_range_meters":27200,"station_id":"ce4bhbh2rcd13ifvqeqg","pricing_plan_id":"cebpf4jnsgd1na2vs0mg"},{"bike_id":"62251fd4-852e-4e62-ad22-5261e66d7cd2","system_id":"levelo_inurba_marseille","lat":43.298764,"lon":5.388973,"is_reserved":false,"is_disabled":false,"rental_uris":{"android":"levelo://app?vid=62251fd4-852e-4e62-ad22-5261e66d7cd2","ios":"levelo://app?vid=62251fd4-852e-4e62-ad22-5261e66d7cd2"},"vehicle_type_id":"4","last_reported":1708463175,"current_range_meters":19600,"station_id":"ce4bh392rcd13ifvqdl0","pricing_plan_id":"cebpf4jnsgd1na2vs0mg"},{"bike_id":"7169bb19-64e6-4a4b-bdfe-ef43be7d92f5","system_id":"levelo_inurba_marseille","lat":43.298764,"lon":5.388973,"is_reserved":false,"is_disabled":false,"rental_uris":{"android":"levelo://app?vid=7169bb19-64e6-4a4b-bdfe-ef43be7d92f5","ios":"levelo://app?vid=7169bb19-64e6-4a4b-bdfe-ef43be7d92f5"},"vehicle_type_id":"4","last_reported":1708463175,"current_range_meters":21600,"station_id":"ce4bh392rcd13ifvqdl0","pricing_plan_id":"cebpf4jnsgd1na2vs0mg"},{"bike_id":"234c8a7f-ebc6-4e13-9f12-fca28fd6640f","system_id":"levelo_inurba_marseille","lat":43.298764,"lon":5.388973,"is_reserved":false,"is_disabled":false,"rental_uris":{"android":"levelo://app?vid=234c8a7f-ebc6-4e13-9f12-fca28fd6640f","ios":"levelo://app?vid=234c8a7f-ebc6-4e13-9f12-fca28fd6640f"},"vehicle_type_id":"4","last_reported":1708463175,"current_range_meters":1600,"station_id":"ce4bh392rcd13ifvqdl0","pricing_plan_id":"cebpf4jnsgd1na2vs0mg"},{"bike_id":"d418b51f-70ce-4caa-8b62-93ce995be6d2","system_id":"levelo_inurba_marseille","lat":43.298764,"lon":5.388973,"is_reserved":false,"is_disabled":false,"rental_uris":{"android":"levelo://app?vid=d418b51f-70ce-4caa-8b62-93ce995be6d2","ios":"levelo://app?vid=d418b51f-70ce-4caa-8b62-93ce995be6d2"},"vehicle_type_id":"4","last_reported":1708463175,"current_range_meters":11600,"station_id":"ce4bh392rcd13ifvqdl0","pricing_plan_id":"cebpf4jnsgd1na2vs0mg"},{"bike_id":"855ac862-eadc-4106-994e-0826df01c293","system_id":"levelo_inurba_marseille","lat":43.298764,"lon":5.388973,"is_reserved":false,"is_disabled":false,"rental_uris":{"android":"levelo://app?vid=855ac862-eadc-4106-994e-0826df01c293","ios":"levelo://app?vid=855ac862-eadc-4106-994e-0826df01c293"},"vehicle_type_id":"4","last_reported":1708463175,"current_range_meters":22400,"station_id":"ce4bh392rcd13ifvqdl0","pricing_plan_id":"cebpf4jnsgd1na2vs0mg"},{"bike_id":"5a24af77-a6cf-40bf-9778-8e0f174fc684","system_id":"levelo_inurba_marseille","lat":43.298764,"lon":5.388973,"is_reserved":false,"is_disabled":false,"rental_uris":{"android":"levelo://app?vid=5a24af77-a6cf-40bf-9778-8e0f174fc684","ios":"levelo://app?vid=5a24af77-a6cf-40bf-9778-8e0f174fc684"},"vehicle_type_id":"4","last_reported":1708463175,"current_range_meters":27200,"station_id":"ce4bh392rcd13ifvqdl0","pricing_plan_id":"cebpf4jnsgd1na2vs0mg"},{"bike_id":"c55bb9fa-251d-4027-8a30-91628bdd200e","system_id":"levelo_inurba_marseille","lat":43.298764,"lon":5.388973,"is_reserved":false,"is_disabled":false,"rental_uris":{"android":"levelo://app?vid=c55bb9fa-251d-4027-8a30-91628bdd200e","ios":"levelo://app?vid=c55bb9fa-251d-4027-8a30-91628bdd200e"},"vehicle_type_id":"4","last_reported":1708463175,"current_range_meters":12800,"station_id":"ce4bh392rcd13ifvqdl0","pricing_plan_id":"cebpf4jnsgd1na2vs0mg"},{"bike_id":"41260925-67f1-4bb7-9bb5-211660ee6d5d","system_id":"levelo_inurba_marseille","lat":43.298764,"lon":5.388973,"is_reserved":false,"is_disabled":false,"rental_uris":{"android":"levelo://app?vid=41260925-67f1-4bb7-9bb5-211660ee6d5d","ios":"levelo://app?vid=41260925-67f1-4bb7-9bb5-211660ee6d5d"},"vehicle_type_id":"4","last_reported":1708463175,"current_range_meters":29200,"station_id":"ce4bh392rcd13ifvqdl0","pricing_plan_id":"cebpf4jnsgd1na2vs0mg"},{"bike_id":"44ee7ac5-6398-4e31-bfea-488afc00b53f","system_id":"levelo_inurba_marseille","lat":43.309047,"lon":5.396551,"is_reserved":false,"is_disabled":false,"rental_uris":{"android":"levelo://app?vid=44ee7ac5-6398-4e31-bfea-488afc00b53f","ios":"levelo://app?vid=44ee7ac5-6398-4e31-bfea-488afc00b53f"},"vehicle_type_id":"4","last_reported":1708463175,"current_range_meters":26000,"station_id":"ce4bh012rcd13ifvqcv0","pricing_plan_id":"cebpf4jnsgd1na2vs0mg"},{"bike_id":"9ae909db-3d00-49f4-a3dd-70da3ac20add","system_id":"levelo_inurba_marseille","lat":43.291994,"lon":5.357886,"is_reserved":false,"is_disabled":false,"rental_uris":{"android":"levelo://app?vid=9ae909db-3d00-49f4-a3dd-70da3ac20add","ios":"levelo://app?vid=9ae909db-3d00-49f4-a3dd-70da3ac20add"},"vehicle_type_id":"4","last_reported":1708463175,"current_range_meters":0,"station_id":"ce4bhb12rcd13ifvqel0","pricing_plan_id":"cebpf4jnsgd1na2vs0mg"},{"bike_id":"eff3f471-65bb-48d3-9394-d54da10d6aea","system_id":"levelo_inurba_marseille","lat":43.309038,"lon":5.396546,"is_reserved":false,"is_disabled":false,"rental_uris":{"android":"levelo://app?vid=eff3f471-65bb-48d3-9394-d54da10d6aea","ios":"levelo://app?vid=eff3f471-65bb-48d3-9394-d54da10d6aea"},"vehicle_type_id":"4","last_reported":1708463175,"current_range_meters":26400,"station_id":"ce4bh012rcd13ifvqcv0","pricing_plan_id":"cebpf4jnsgd1na2vs0mg"},{"bike_id":"a00d3993-5cc5-42fe-a346-7fb57b305871","system_id":"levelo_inurba_marseille","lat":43.309047,"lon":5.396551,"is_reserved":false,"is_disabled":false,"rental_uris":{"android":"levelo://app?vid=a00d3993-5cc5-42fe-a346-7fb57b305871","ios":"levelo://app?vid=a00d3993-5cc5-42fe-a346-7fb57b305871"},"vehicle_type_id":"4","last_reported":1708463175,"current_range_meters":17600,"station_id":"ce4bh012rcd13ifvqcv0","pricing_plan_id":"cebpf4jnsgd1na2vs0mg"},{"bike_id":"46664148-94b4-4d11-900b-75fe01328a6e","system_id":"levelo_inurba_marseille","lat":43.309038,"lon":5.396546,"is_reserved":false,"is_disabled":false,"rental_uris":{"android":"levelo://app?vid=46664148-94b4-4d11-900b-75fe01328a6e","ios":"levelo://app?vid=46664148-94b4-4d11-900b-75fe01328a6e"},"vehicle_type_id":"4","last_reported":1708463175,"current_range_meters":4800,"station_id":"ce4bh012rcd13ifvqcv0","pricing_plan_id":"cebpf4jnsgd1na2vs0mg"},{"bike_id":"ac7a5848-6bd9-487b-bf5e-a27953c36cc9","system_id":"levelo_inurba_marseille","lat":43.291994,"lon":5.357886,"is_reserved":false,"is_disabled":false,"rental_uris":{"android":"levelo://app?vid=ac7a5848-6bd9-487b-bf5e-a27953c36cc9","ios":"levelo://app?vid=ac7a5848-6bd9-487b-bf5e-a27953c36cc9"},"vehicle_type_id":"4","last_reported":1708463175,"current_range_meters":2800,"station_id":"ce4bhb12rcd13ifvqel0","pricing_plan_id":"cebpf4jnsgd1na2vs0mg"},{"bike_id":"fdb67376-d227-4e73-b425-8e591c97d637","system_id":"levelo_inurba_marseille","lat":43.309038,"lon":5.396546,"is_reserved":false,"is_disabled":false,"rental_uris":{"android":"levelo://app?vid=fdb67376-d227-4e73-b425-8e591c97d637","ios":"levelo://app?vid=fdb67376-d227-4e73-b425-8e591c97d637"},"vehicle_type_id":"4","last_reported":1708463175,"current_range_meters":800,"station_id":"ce4bh012rcd13ifvqcv0","pricing_plan_id":"cebpf4jnsgd1na2vs0mg"},{"bike_id":"c6f358a1-77cf-4084-960e-bc24cc76abaa","system_id":"levelo_inurba_marseille","lat":43.291994,"lon":5.357886,"is_reserved":false,"is_disabled":false,"rental_uris":{"android":"levelo://app?vid=c6f358a1-77cf-4084-960e-bc24cc76abaa","ios":"levelo://app?vid=c6f358a1-77cf-4084-960e-bc24cc76abaa"},"vehicle_type_id":"4","last_reported":1708463175,"current_range_meters":12400,"station_id":"ce4bhb12rcd13ifvqel0","pricing_plan_id":"cebpf4jnsgd1na2vs0mg"},{"bike_id":"7c0ab7d6-0ab5-481b-8b6f-31edf10e5503","system_id":"levelo_inurba_marseille","lat":43.313291,"lon":5.396838,"is_reserved":false,"is_disabled":false,"rental_uris":{"android":"levelo://app?vid=7c0ab7d6-0ab5-481b-8b6f-31edf10e5503","ios":"levelo://app?vid=7c0ab7d6-0ab5-481b-8b6f-31edf10e5503"},"vehicle_type_id":"4","last_reported":1708463175,"current_range_meters":20800,"station_id":"ce4bgvp2rcd13ifvqcu0","pricing_plan_id":"cebpf4jnsgd1na2vs0mg"},{"bike_id":"2b106bd7-e21c-45a9-813b-570f2f32c230","system_id":"levelo_inurba_marseille","lat":43.313291,"lon":5.396838,"is_reserved":false,"is_disabled":false,"rental_uris":{"android":"levelo://app?vid=2b106bd7-e21c-45a9-813b-570f2f32c230","ios":"levelo://app?vid=2b106bd7-e21c-45a9-813b-570f2f32c230"},"vehicle_type_id":"4","last_reported":1708463175,"current_range_meters":15600,"station_id":"ce4bgvp2rcd13ifvqcu0","pricing_plan_id":"cebpf4jnsgd1na2vs0mg"},{"bike_id":"a18a8e53-a21d-4f1c-b971-a459b3adfcde","system_id":"levelo_inurba_marseille","lat":43.313291,"lon":5.396838,"is_reserved":false,"is_disabled":false,"rental_uris":{"android":"levelo://app?vid=a18a8e53-a21d-4f1c-b971-a459b3adfcde","ios":"levelo://app?vid=a18a8e53-a21d-4f1c-b971-a459b3adfcde"},"vehicle_type_id":"4","last_reported":1708463175,"current_range_meters":8000,"station_id":"ce4bgvp2rcd13ifvqcu0","pricing_plan_id":"cebpf4jnsgd1na2vs0mg"},{"bike_id":"1c8e05e1-50a2-495d-b73e-83b1c65be716","system_id":"levelo_inurba_marseille","lat":43.313291,"lon":5.396838,"is_reserved":false,"is_disabled":false,"rental_uris":{"android":"levelo://app?vid=1c8e05e1-50a2-495d-b73e-83b1c65be716","ios":"levelo://app?vid=1c8e05e1-50a2-495d-b73e-83b1c65be716"},"vehicle_type_id":"4","last_reported":1708463175,"current_range_meters":7200,"station_id":"ce4bgvp2rcd13ifvqcu0","pricing_plan_id":"cebpf4jnsgd1na2vs0mg"},{"bike_id":"7a0398e1-3895-40a6-9cc4-11ace95086c3","system_id":"levelo_inurba_marseille","lat":43.313291,"lon":5.396838,"is_reserved":false,"is_disabled":false,"rental_uris":{"android":"levelo://app?vid=7a0398e1-3895-40a6-9cc4-11ace95086c3","ios":"levelo://app?vid=7a0398e1-3895-40a6-9cc4-11ace95086c3"},"vehicle_type_id":"4","last_reported":1708463175,"current_range_meters":21200,"station_id":"ce4bgvp2rcd13ifvqcu0","pricing_plan_id":"cebpf4jnsgd1na2vs0mg"},{"bike_id":"34a78d8f-16a7-48c2-9f83-7a325f0f9681","system_id":"levelo_inurba_marseille","lat":43.313291,"lon":5.396838,"is_reserved":false,"is_disabled":false,"rental_uris":{"android":"levelo://app?vid=34a78d8f-16a7-48c2-9f83-7a325f0f9681","ios":"levelo://app?vid=34a78d8f-16a7-48c2-9f83-7a325f0f9681"},"vehicle_type_id":"4","last_reported":1708463175,"current_range_meters":25200,"station_id":"ce4bgvp2rcd13ifvqcu0","pricing_plan_id":"cebpf4jnsgd1na2vs0mg"},{"bike_id":"b254b897-3e14-4b27-8ae8-379a3ddebe36","system_id":"levelo_inurba_marseille","lat":43.313291,"lon":5.396838,"is_reserved":false,"is_disabled":false,"rental_uris":{"android":"levelo://app?vid=b254b897-3e14-4b27-8ae8-379a3ddebe36","ios":"levelo://app?vid=b254b897-3e14-4b27-8ae8-379a3ddebe36"},"vehicle_type_id":"4","last_reported":1708463175,"current_range_meters":6800,"station_id":"ce4bgvp2rcd13ifvqcu0","pricing_plan_id":"cebpf4jnsgd1na2vs0mg"},{"bike_id":"180a3929-6535-4296-942f-19d37f04a27b","system_id":"levelo_inurba_marseille","lat":43.309047,"lon":5.396551,"is_reserved":false,"is_disabled":false,"rental_uris":{"android":"levelo://app?vid=180a3929-6535-4296-942f-19d37f04a27b","ios":"levelo://app?vid=180a3929-6535-4296-942f-19d37f04a27b"},"vehicle_type_id":"4","last_reported":1708463175,"current_range_meters":6000,"station_id":"ce4bh012rcd13ifvqcv0","pricing_plan_id":"cebpf4jnsgd1na2vs0mg"},{"bike_id":"22c3d2c2-247c-46b8-9437-c6704a8ad207","system_id":"levelo_inurba_marseille","lat":43.309047,"lon":5.396551,"is_reserved":false,"is_disabled":false,"rental_uris":{"android":"levelo://app?vid=22c3d2c2-247c-46b8-9437-c6704a8ad207","ios":"levelo://app?vid=22c3d2c2-247c-46b8-9437-c6704a8ad207"},"vehicle_type_id":"4","last_reported":1708463175,"current_range_meters":5600,"station_id":"ce4bh012rcd13ifvqcv0","pricing_plan_id":"cebpf4jnsgd1na2vs0mg"},{"bike_id":"5ea256f7-79fa-451a-8ab5-05cb3615da89","system_id":"levelo_inurba_marseille","lat":43.313291,"lon":5.396838,"is_reserved":false,"is_disabled":false,"rental_uris":{"android":"levelo://app?vid=5ea256f7-79fa-451a-8ab5-05cb3615da89","ios":"levelo://app?vid=5ea256f7-79fa-451a-8ab5-05cb3615da89"},"vehicle_type_id":"4","last_reported":1708463175,"current_range_meters":7200,"station_id":"ce4bgvp2rcd13ifvqcu0","pricing_plan_id":"cebpf4jnsgd1na2vs0mg"},{"bike_id":"4a311b97-3e9e-404f-bdaf-0c60464fd60a","system_id":"levelo_inurba_marseille","lat":43.309038,"lon":5.396546,"is_reserved":false,"is_disabled":false,"rental_uris":{"android":"levelo://app?vid=4a311b97-3e9e-404f-bdaf-0c60464fd60a","ios":"levelo://app?vid=4a311b97-3e9e-404f-bdaf-0c60464fd60a"},"vehicle_type_id":"4","last_reported":1708463175,"current_range_meters":12400,"station_id":"ce4bh012rcd13ifvqcv0","pricing_plan_id":"cebpf4jnsgd1na2vs0mg"},{"bike_id":"c7675864-b47b-4d37-a757-396a5e51116a","system_id":"levelo_inurba_marseille","lat":43.313291,"lon":5.396838,"is_reserved":false,"is_disabled":false,"rental_uris":{"android":"levelo://app?vid=c7675864-b47b-4d37-a757-396a5e51116a","ios":"levelo://app?vid=c7675864-b47b-4d37-a757-396a5e51116a"},"vehicle_type_id":"4","last_reported":1708463175,"current_range_meters":31200,"station_id":"ce4bgvp2rcd13ifvqcu0","pricing_plan_id":"cebpf4jnsgd1na2vs0mg"},{"bike_id":"b8019874-8cdc-46f8-b265-a34c353b356f","system_id":"levelo_inurba_marseille","lat":43.302008,"lon":5.394694,"is_reserved":false,"is_disabled":false,"rental_uris":{"android":"levelo://app?vid=b8019874-8cdc-46f8-b265-a34c353b356f","ios":"levelo://app?vid=b8019874-8cdc-46f8-b265-a34c353b356f"},"vehicle_type_id":"4","last_reported":1708463175,"current_range_meters":25600,"station_id":"ce4bh0p2rcd13ifvqd70","pricing_plan_id":"cebpf4jnsgd1na2vs0mg"},{"bike_id":"7f279f12-3499-4fef-b290-a949e61fd1ee","system_id":"levelo_inurba_marseille","lat":43.302008,"lon":5.394694,"is_reserved":false,"is_disabled":false,"rental_uris":{"android":"levelo://app?vid=7f279f12-3499-4fef-b290-a949e61fd1ee","ios":"levelo://app?vid=7f279f12-3499-4fef-b290-a949e61fd1ee"},"vehicle_type_id":"4","last_reported":1708463175,"current_range_meters":1200,"station_id":"ce4bh0p2rcd13ifvqd70","pricing_plan_id":"cebpf4jnsgd1na2vs0mg"},{"bike_id":"c1f65b97-9c61-469d-9aa4-6563f8210b26","system_id":"levelo_inurba_marseille","lat":43.302008,"lon":5.394694,"is_reserved":false,"is_disabled":false,"rental_uris":{"android":"levelo://app?vid=c1f65b97-9c61-469d-9aa4-6563f8210b26","ios":"levelo://app?vid=c1f65b97-9c61-469d-9aa4-6563f8210b26"},"vehicle_type_id":"4","last_reported":1708463175,"current_range_meters":20800,"station_id":"ce4bh0p2rcd13ifvqd70","pricing_plan_id":"cebpf4jnsgd1na2vs0mg"},{"bike_id":"20bc340f-40b8-42ba-ac8d-08dd3d7db221","system_id":"levelo_inurba_marseille","lat":43.302008,"lon":5.394694,"is_reserved":false,"is_disabled":false,"rental_uris":{"android":"levelo://app?vid=20bc340f-40b8-42ba-ac8d-08dd3d7db221","ios":"levelo://app?vid=20bc340f-40b8-42ba-ac8d-08dd3d7db221"},"vehicle_type_id":"4","last_reported":1708463175,"current_range_meters":29200,"station_id":"ce4bh0p2rcd13ifvqd70","pricing_plan_id":"cebpf4jnsgd1na2vs0mg"},{"bike_id":"5e270fb6-b7b3-449f-bb8e-5459bf519bb4","system_id":"levelo_inurba_marseille","lat":43.290624,"lon":5.359245,"is_reserved":false,"is_disabled":false,"rental_uris":{"android":"levelo://app?vid=5e270fb6-b7b3-449f-bb8e-5459bf519bb4","ios":"levelo://app?vid=5e270fb6-b7b3-449f-bb8e-5459bf519bb4"},"vehicle_type_id":"4","last_reported":1708463175,"current_range_meters":9600,"station_id":"ce4bha92rcd13ifvqeg0","pricing_plan_id":"cebpf4jnsgd1na2vs0mg"},{"bike_id":"7b82f3d4-4b3c-4c54-9784-2ffc4347110c","system_id":"levelo_inurba_marseille","lat":43.290624,"lon":5.359245,"is_reserved":false,"is_disabled":false,"rental_uris":{"android":"levelo://app?vid=7b82f3d4-4b3c-4c54-9784-2ffc4347110c","ios":"levelo://app?vid=7b82f3d4-4b3c-4c54-9784-2ffc4347110c"},"vehicle_type_id":"4","last_reported":1708463175,"current_range_meters":21200,"station_id":"ce4bha92rcd13ifvqeg0","pricing_plan_id":"cebpf4jnsgd1na2vs0mg"},{"bike_id":"ca8d8174-35c3-4d23-851e-0c5cd6cde000","system_id":"levelo_inurba_marseille","lat":43.29222,"lon":5.38122,"is_reserved":false,"is_disabled":false,"rental_uris":{"android":"levelo://app?vid=ca8d8174-35c3-4d23-851e-0c5cd6cde000","ios":"levelo://app?vid=ca8d8174-35c3-4d23-851e-0c5cd6cde000"},"vehicle_type_id":"4","last_reported":1708463175,"current_range_meters":30400,"station_id":"","pricing_plan_id":"cebpf4jnsgd1na2vs0mg"},{"bike_id":"abff4a3f-811f-4675-8d9c-d5fe6e6e18a3","system_id":"levelo_inurba_marseille","lat":43.290624,"lon":5.359245,"is_reserved":false,"is_disabled":false,"rental_uris":{"android":"levelo://app?vid=abff4a3f-811f-4675-8d9c-d5fe6e6e18a3","ios":"levelo://app?vid=abff4a3f-811f-4675-8d9c-d5fe6e6e18a3"},"vehicle_type_id":"4","last_reported":1708463175,"current_range_meters":0,"station_id":"ce4bha92rcd13ifvqeg0","pricing_plan_id":"cebpf4jnsgd1na2vs0mg"},{"bike_id":"0959b3c1-686d-4c14-a9e7-d1bb7eda1d4a","system_id":"levelo_inurba_marseille","lat":43.290631,"lon":5.359244,"is_reserved":false,"is_disabled":false,"rental_uris":{"android":"levelo://app?vid=0959b3c1-686d-4c14-a9e7-d1bb7eda1d4a","ios":"levelo://app?vid=0959b3c1-686d-4c14-a9e7-d1bb7eda1d4a"},"vehicle_type_id":"4","last_reported":1708463175,"current_range_meters":14800,"station_id":"ce4bha92rcd13ifvqeg0","pricing_plan_id":"cebpf4jnsgd1na2vs0mg"},{"bike_id":"d072e81a-e5de-42ef-a6fd-d6c16349536d","system_id":"levelo_inurba_marseille","lat":43.290624,"lon":5.359245,"is_reserved":false,"is_disabled":false,"rental_uris":{"android":"levelo://app?vid=d072e81a-e5de-42ef-a6fd-d6c16349536d","ios":"levelo://app?vid=d072e81a-e5de-42ef-a6fd-d6c16349536d"},"vehicle_type_id":"4","last_reported":1708463175,"current_range_meters":23600,"station_id":"ce4bha92rcd13ifvqeg0","pricing_plan_id":"cebpf4jnsgd1na2vs0mg"},{"bike_id":"5bac689c-7008-49e8-b192-a9a103d5f004","system_id":"levelo_inurba_marseille","lat":43.29033,"lon":5.37551,"is_reserved":false,"is_disabled":false,"rental_uris":{"android":"levelo://app?vid=5bac689c-7008-49e8-b192-a9a103d5f004","ios":"levelo://app?vid=5bac689c-7008-49e8-b192-a9a103d5f004"},"vehicle_type_id":"4","last_reported":1708463175,"current_range_meters":0,"station_id":"ce4bh692rcd13ifvqe90","pricing_plan_id":"cebpf4jnsgd1na2vs0mg"},{"bike_id":"fb856601-ef85-4b66-baa6-0068658931f7","system_id":"levelo_inurba_marseille","lat":43.294153,"lon":5.386305,"is_reserved":false,"is_disabled":false,"rental_uris":{"android":"levelo://app?vid=fb856601-ef85-4b66-baa6-0068658931f7","ios":"levelo://app?vid=fb856601-ef85-4b66-baa6-0068658931f7"},"vehicle_type_id":"4","last_reported":1708463175,"current_range_meters":1600,"station_id":"ce4bh2h2rcd13ifvqdh0","pricing_plan_id":"cebpf4jnsgd1na2vs0mg"},{"bike_id":"a3938a4e-5203-462e-a63a-a95d67de13ab","system_id":"levelo_inurba_marseille","lat":43.29419,"lon":5.38625,"is_reserved":false,"is_disabled":false,"rental_uris":{"android":"levelo://app?vid=a3938a4e-5203-462e-a63a-a95d67de13ab","ios":"levelo://app?vid=a3938a4e-5203-462e-a63a-a95d67de13ab"},"vehicle_type_id":"4","last_reported":1708463175,"current_range_meters":0,"station_id":"ce4bh2h2rcd13ifvqdh0","pricing_plan_id":"cebpf4jnsgd1na2vs0mg"},{"bike_id":"f3d9e115-501c-4310-9acb-a9aec1261813","system_id":"levelo_inurba_marseille","lat":43.29419,"lon":5.3863,"is_reserved":false,"is_disabled":false,"rental_uris":{"android":"levelo://app?vid=f3d9e115-501c-4310-9acb-a9aec1261813","ios":"levelo://app?vid=f3d9e115-501c-4310-9acb-a9aec1261813"},"vehicle_type_id":"4","last_reported":1708463175,"current_range_meters":0,"station_id":"ce4bh2h2rcd13ifvqdh0","pricing_plan_id":"cebpf4jnsgd1na2vs0mg"},{"bike_id":"4b442917-8bdb-4e12-8092-641e177c619a","system_id":"levelo_inurba_marseille","lat":43.29028,"lon":5.375516,"is_reserved":false,"is_disabled":false,"rental_uris":{"android":"levelo://app?vid=4b442917-8bdb-4e12-8092-641e177c619a","ios":"levelo://app?vid=4b442917-8bdb-4e12-8092-641e177c619a"},"vehicle_type_id":"4","last_reported":1708463175,"current_range_meters":0,"station_id":"ce4bh692rcd13ifvqe90","pricing_plan_id":"cebpf4jnsgd1na2vs0mg"},{"bike_id":"48672719-6906-48c1-bd1e-b79e027f16b7","system_id":"levelo_inurba_marseille","lat":43.294162,"lon":5.386292,"is_reserved":false,"is_disabled":false,"rental_uris":{"android":"levelo://app?vid=48672719-6906-48c1-bd1e-b79e027f16b7","ios":"levelo://app?vid=48672719-6906-48c1-bd1e-b79e027f16b7"},"vehicle_type_id":"4","last_reported":1708463175,"current_range_meters":23600,"station_id":"ce4bh2h2rcd13ifvqdh0","pricing_plan_id":"cebpf4jnsgd1na2vs0mg"},{"bike_id":"b694226f-e4a0-4e7a-8ff6-cfb41bed8bd2","system_id":"levelo_inurba_marseille","lat":43.28937,"lon":5.36626,"is_reserved":false,"is_disabled":false,"rental_uris":{"android":"levelo://app?vid=b694226f-e4a0-4e7a-8ff6-cfb41bed8bd2","ios":"levelo://app?vid=b694226f-e4a0-4e7a-8ff6-cfb41bed8bd2"},"vehicle_type_id":"4","last_reported":1708463175,"current_range_meters":29600,"station_id":"ce4bhap2rcd13ifvqek0","pricing_plan_id":"cebpf4jnsgd1na2vs0mg"},{"bike_id":"4b699efa-efd0-4163-b9f4-43dfdc983a33","system_id":"levelo_inurba_marseille","lat":43.289468,"lon":5.363719,"is_reserved":false,"is_disabled":false,"rental_uris":{"android":"levelo://app?vid=4b699efa-efd0-4163-b9f4-43dfdc983a33","ios":"levelo://app?vid=4b699efa-efd0-4163-b9f4-43dfdc983a33"},"vehicle_type_id":"4","last_reported":1708463175,"current_range_meters":8400,"station_id":"ce4bhc92rcd13ifvqetg","pricing_plan_id":"cebpf4jnsgd1na2vs0mg"},{"bike_id":"b7876aae-eb18-4bac-b904-1e1a0a1ddb50","system_id":"levelo_inurba_marseille","lat":43.289468,"lon":5.363719,"is_reserved":false,"is_disabled":false,"rental_uris":{"android":"levelo://app?vid=b7876aae-eb18-4bac-b904-1e1a0a1ddb50","ios":"levelo://app?vid=b7876aae-eb18-4bac-b904-1e1a0a1ddb50"},"vehicle_type_id":"4","last_reported":1708463175,"current_range_meters":16000,"station_id":"ce4bhc92rcd13ifvqetg","pricing_plan_id":"cebpf4jnsgd1na2vs0mg"},{"bike_id":"cda7d57f-cc82-4d46-adc1-94b5f7e95789","system_id":"levelo_inurba_marseille","lat":43.292642,"lon":5.384254,"is_reserved":false,"is_disabled":false,"rental_uris":{"android":"levelo://app?vid=cda7d57f-cc82-4d46-adc1-94b5f7e95789","ios":"levelo://app?vid=cda7d57f-cc82-4d46-adc1-94b5f7e95789"},"vehicle_type_id":"4","last_reported":1708463175,"current_range_meters":2000,"station_id":"ce4bh692rcd13ifvqea0","pricing_plan_id":"cebpf4jnsgd1na2vs0mg"},{"bike_id":"7daba76d-0870-4984-a8a3-54bdbcc60276","system_id":"levelo_inurba_marseille","lat":43.292642,"lon":5.384254,"is_reserved":false,"is_disabled":false,"rental_uris":{"android":"levelo://app?vid=7daba76d-0870-4984-a8a3-54bdbcc60276","ios":"levelo://app?vid=7daba76d-0870-4984-a8a3-54bdbcc60276"},"vehicle_type_id":"4","last_reported":1708463175,"current_range_meters":10400,"station_id":"ce4bh692rcd13ifvqea0","pricing_plan_id":"cebpf4jnsgd1na2vs0mg"},{"bike_id":"f3bbb599-f42c-4803-bfb3-5c687c05910f","system_id":"levelo_inurba_marseille","lat":43.29266,"lon":5.38443,"is_reserved":false,"is_disabled":false,"rental_uris":{"android":"levelo://app?vid=f3bbb599-f42c-4803-bfb3-5c687c05910f","ios":"levelo://app?vid=f3bbb599-f42c-4803-bfb3-5c687c05910f"},"vehicle_type_id":"4","last_reported":1708463175,"current_range_meters":30800,"station_id":"ce4bh692rcd13ifvqea0","pricing_plan_id":"cebpf4jnsgd1na2vs0mg"},{"bike_id":"ef8d6413-1ea5-45e4-a1b2-ca0b043d95b3","system_id":"levelo_inurba_marseille","lat":43.304296,"lon":5.397513,"is_reserved":false,"is_disabled":false,"rental_uris":{"android":"levelo://app?vid=ef8d6413-1ea5-45e4-a1b2-ca0b043d95b3","ios":"levelo://app?vid=ef8d6413-1ea5-45e4-a1b2-ca0b043d95b3"},"vehicle_type_id":"4","last_reported":1708463175,"current_range_meters":18400,"station_id":"ce4bh092rcd13ifvqd20","pricing_plan_id":"cebpf4jnsgd1na2vs0mg"},{"bike_id":"77ebddb2-e905-4b16-84ae-779bb176bf9d","system_id":"levelo_inurba_marseille","lat":43.292644,"lon":5.384257,"is_reserved":false,"is_disabled":false,"rental_uris":{"android":"levelo://app?vid=77ebddb2-e905-4b16-84ae-779bb176bf9d","ios":"levelo://app?vid=77ebddb2-e905-4b16-84ae-779bb176bf9d"},"vehicle_type_id":"4","last_reported":1708463175,"current_range_meters":31200,"station_id":"ce4bh692rcd13ifvqea0","pricing_plan_id":"cebpf4jnsgd1na2vs0mg"},{"bike_id":"bae31b14-0ee2-4b7e-8457-225af4855ee4","system_id":"levelo_inurba_marseille","lat":43.292639,"lon":5.384419,"is_reserved":false,"is_disabled":false,"rental_uris":{"android":"levelo://app?vid=bae31b14-0ee2-4b7e-8457-225af4855ee4","ios":"levelo://app?vid=bae31b14-0ee2-4b7e-8457-225af4855ee4"},"vehicle_type_id":"4","last_reported":1708463175,"current_range_meters":28000,"station_id":"ce4bh692rcd13ifvqea0","pricing_plan_id":"cebpf4jnsgd1na2vs0mg"},{"bike_id":"53ee11cc-c8b1-4b9d-bb0d-12885a478d42","system_id":"levelo_inurba_marseille","lat":43.29263,"lon":5.38444,"is_reserved":false,"is_disabled":false,"rental_uris":{"android":"levelo://app?vid=53ee11cc-c8b1-4b9d-bb0d-12885a478d42","ios":"levelo://app?vid=53ee11cc-c8b1-4b9d-bb0d-12885a478d42"},"vehicle_type_id":"4","last_reported":1708463175,"current_range_meters":31200,"station_id":"ce4bh692rcd13ifvqea0","pricing_plan_id":"cebpf4jnsgd1na2vs0mg"},{"bike_id":"69de5b76-bb3f-4081-b059-d08cfd51b759","system_id":"levelo_inurba_marseille","lat":43.2926,"lon":5.38444,"is_reserved":false,"is_disabled":false,"rental_uris":{"android":"levelo://app?vid=69de5b76-bb3f-4081-b059-d08cfd51b759","ios":"levelo://app?vid=69de5b76-bb3f-4081-b059-d08cfd51b759"},"vehicle_type_id":"4","last_reported":1708463175,"current_range_meters":30400,"station_id":"ce4bh692rcd13ifvqea0","pricing_plan_id":"cebpf4jnsgd1na2vs0mg"},{"bike_id":"b815b539-8fd0-41e0-926d-d2d6fb392027","system_id":"levelo_inurba_marseille","lat":43.292604,"lon":5.38448,"is_reserved":false,"is_disabled":false,"rental_uris":{"android":"levelo://app?vid=b815b539-8fd0-41e0-926d-d2d6fb392027","ios":"levelo://app?vid=b815b539-8fd0-41e0-926d-d2d6fb392027"},"vehicle_type_id":"4","last_reported":1708463175,"current_range_meters":31200,"station_id":"ce4bh692rcd13ifvqea0","pricing_plan_id":"cebpf4jnsgd1na2vs0mg"},{"bike_id":"9cd87121-f79c-4dfd-84c4-3ddfecf53be4","system_id":"levelo_inurba_marseille","lat":43.29256,"lon":5.38449,"is_reserved":false,"is_disabled":false,"rental_uris":{"android":"levelo://app?vid=9cd87121-f79c-4dfd-84c4-3ddfecf53be4","ios":"levelo://app?vid=9cd87121-f79c-4dfd-84c4-3ddfecf53be4"},"vehicle_type_id":"4","last_reported":1708463175,"current_range_meters":8400,"station_id":"ce4bh692rcd13ifvqea0","pricing_plan_id":"cebpf4jnsgd1na2vs0mg"},{"bike_id":"64c8a977-e817-4529-bbbf-d54830de4873","system_id":"levelo_inurba_marseille","lat":43.29103,"lon":5.38085,"is_reserved":false,"is_disabled":false,"rental_uris":{"android":"levelo://app?vid=64c8a977-e817-4529-bbbf-d54830de4873","ios":"levelo://app?vid=64c8a977-e817-4529-bbbf-d54830de4873"},"vehicle_type_id":"4","last_reported":1708463175,"current_range_meters":12000,"station_id":"","pricing_plan_id":"cebpf4jnsgd1na2vs0mg"},{"bike_id":"613f9549-7d7b-4641-846d-7a48db60a47b","system_id":"levelo_inurba_marseille","lat":43.290995,"lon":5.381361,"is_reserved":false,"is_disabled":false,"rental_uris":{"android":"levelo://app?vid=613f9549-7d7b-4641-846d-7a48db60a47b","ios":"levelo://app?vid=613f9549-7d7b-4641-846d-7a48db60a47b"},"vehicle_type_id":"4","last_reported":1708463175,"current_range_meters":10400,"station_id":"ce4bh512rcd13ifvqe2g","pricing_plan_id":"cebpf4jnsgd1na2vs0mg"},{"bike_id":"73e9c814-3e10-4cff-b075-ab4ca91587cb","system_id":"levelo_inurba_marseille","lat":43.297917,"lon":5.393333,"is_reserved":false,"is_disabled":false,"rental_uris":{"android":"levelo://app?vid=73e9c814-3e10-4cff-b075-ab4ca91587cb","ios":"levelo://app?vid=73e9c814-3e10-4cff-b075-ab4ca91587cb"},"vehicle_type_id":"4","last_reported":1708463175,"current_range_meters":15600,"station_id":"chh1huq6cuj3fo74tm60","pricing_plan_id":"cebpf4jnsgd1na2vs0mg"},{"bike_id":"11a93470-ba28-46ab-99c4-a0d2b137a56a","system_id":"levelo_inurba_marseille","lat":43.29792,"lon":5.39335,"is_reserved":false,"is_disabled":false,"rental_uris":{"android":"levelo://app?vid=11a93470-ba28-46ab-99c4-a0d2b137a56a","ios":"levelo://app?vid=11a93470-ba28-46ab-99c4-a0d2b137a56a"},"vehicle_type_id":"4","last_reported":1708463175,"current_range_meters":800,"station_id":"chh1huq6cuj3fo74tm60","pricing_plan_id":"cebpf4jnsgd1na2vs0mg"},{"bike_id":"6703f306-f7e7-41b6-afa9-43fa3ec4826c","system_id":"levelo_inurba_marseille","lat":43.29789,"lon":5.39334,"is_reserved":false,"is_disabled":false,"rental_uris":{"android":"levelo://app?vid=6703f306-f7e7-41b6-afa9-43fa3ec4826c","ios":"levelo://app?vid=6703f306-f7e7-41b6-afa9-43fa3ec4826c"},"vehicle_type_id":"4","last_reported":1708463175,"current_range_meters":5600,"station_id":"chh1huq6cuj3fo74tm60","pricing_plan_id":"cebpf4jnsgd1na2vs0mg"},{"bike_id":"61995278-75bf-426c-87a8-af273b0b7276","system_id":"levelo_inurba_marseille","lat":43.29791,"lon":5.39339,"is_reserved":false,"is_disabled":false,"rental_uris":{"android":"levelo://app?vid=61995278-75bf-426c-87a8-af273b0b7276","ios":"levelo://app?vid=61995278-75bf-426c-87a8-af273b0b7276"},"vehicle_type_id":"4","last_reported":1708463175,"current_range_meters":26400,"station_id":"chh1huq6cuj3fo74tm60","pricing_plan_id":"cebpf4jnsgd1na2vs0mg"},{"bike_id":"9c40386f-55ee-49cd-a8b3-29cba79c3b3d","system_id":"levelo_inurba_marseille","lat":43.29789,"lon":5.39339,"is_reserved":false,"is_disabled":false,"rental_uris":{"android":"levelo://app?vid=9c40386f-55ee-49cd-a8b3-29cba79c3b3d","ios":"levelo://app?vid=9c40386f-55ee-49cd-a8b3-29cba79c3b3d"},"vehicle_type_id":"4","last_reported":1708463175,"current_range_meters":14800,"station_id":"chh1huq6cuj3fo74tm60","pricing_plan_id":"cebpf4jnsgd1na2vs0mg"},{"bike_id":"548bfde2-3722-4ede-8228-1fdfbe8a4414","system_id":"levelo_inurba_marseille","lat":43.297815,"lon":5.393548,"is_reserved":false,"is_disabled":false,"rental_uris":{"android":"levelo://app?vid=548bfde2-3722-4ede-8228-1fdfbe8a4414","ios":"levelo://app?vid=548bfde2-3722-4ede-8228-1fdfbe8a4414"},"vehicle_type_id":"4","last_reported":1708463175,"current_range_meters":2000,"station_id":"chh1huq6cuj3fo74tm60","pricing_plan_id":"cebpf4jnsgd1na2vs0mg"},{"bike_id":"ebd1d360-5671-4e43-be85-0b7c8a048e03","system_id":"levelo_inurba_marseille","lat":43.295265,"lon":5.390284,"is_reserved":false,"is_disabled":false,"rental_uris":{"android":"levelo://app?vid=ebd1d360-5671-4e43-be85-0b7c8a048e03","ios":"levelo://app?vid=ebd1d360-5671-4e43-be85-0b7c8a048e03"},"vehicle_type_id":"4","last_reported":1708463175,"current_range_meters":28400,"station_id":"ce4bh3p2rcd13ifvqdp0","pricing_plan_id":"cebpf4jnsgd1na2vs0mg"},{"bike_id":"f17527b1-768b-4b71-bc75-d7aa73abd970","system_id":"levelo_inurba_marseille","lat":43.295169,"lon":5.390426,"is_reserved":false,"is_disabled":false,"rental_uris":{"android":"levelo://app?vid=f17527b1-768b-4b71-bc75-d7aa73abd970","ios":"levelo://app?vid=f17527b1-768b-4b71-bc75-d7aa73abd970"},"vehicle_type_id":"4","last_reported":1708463175,"current_range_meters":30800,"station_id":"ce4bh3p2rcd13ifvqdp0","pricing_plan_id":"cebpf4jnsgd1na2vs0mg"},{"bike_id":"3b593a2d-3831-4d86-a542-8b3e4bb17009","system_id":"levelo_inurba_marseille","lat":43.297815,"lon":5.393548,"is_reserved":false,"is_disabled":false,"rental_uris":{"android":"levelo://app?vid=3b593a2d-3831-4d86-a542-8b3e4bb17009","ios":"levelo://app?vid=3b593a2d-3831-4d86-a542-8b3e4bb17009"},"vehicle_type_id":"4","last_reported":1708463175,"current_range_meters":18000,"station_id":"chh1huq6cuj3fo74tm60","pricing_plan_id":"cebpf4jnsgd1na2vs0mg"},{"bike_id":"d879b9ed-680d-4f43-a0b0-59142860b41d","system_id":"levelo_inurba_marseille","lat":43.295169,"lon":5.390426,"is_reserved":false,"is_disabled":false,"rental_uris":{"android":"levelo://app?vid=d879b9ed-680d-4f43-a0b0-59142860b41d","ios":"levelo://app?vid=d879b9ed-680d-4f43-a0b0-59142860b41d"},"vehicle_type_id":"4","last_reported":1708463175,"current_range_meters":27600,"station_id":"ce4bh3p2rcd13ifvqdp0","pricing_plan_id":"cebpf4jnsgd1na2vs0mg"},{"bike_id":"35a6337e-f52d-45ff-a42a-40f08f2c5c79","system_id":"levelo_inurba_marseille","lat":43.297815,"lon":5.393548,"is_reserved":false,"is_disabled":false,"rental_uris":{"android":"levelo://app?vid=35a6337e-f52d-45ff-a42a-40f08f2c5c79","ios":"levelo://app?vid=35a6337e-f52d-45ff-a42a-40f08f2c5c79"},"vehicle_type_id":"4","last_reported":1708463175,"current_range_meters":6400,"station_id":"chh1huq6cuj3fo74tm60","pricing_plan_id":"cebpf4jnsgd1na2vs0mg"},{"bike_id":"4012e222-27fb-4df6-ab75-3051f919d866","system_id":"levelo_inurba_marseille","lat":43.295169,"lon":5.390426,"is_reserved":false,"is_disabled":false,"rental_uris":{"android":"levelo://app?vid=4012e222-27fb-4df6-ab75-3051f919d866","ios":"levelo://app?vid=4012e222-27fb-4df6-ab75-3051f919d866"},"vehicle_type_id":"4","last_reported":1708463175,"current_range_meters":23200,"station_id":"ce4bh3p2rcd13ifvqdp0","pricing_plan_id":"cebpf4jnsgd1na2vs0mg"},{"bike_id":"a4f2e61f-fb62-4278-b6f8-aa1032f104d0","system_id":"levelo_inurba_marseille","lat":43.330442,"lon":5.389148,"is_reserved":false,"is_disabled":false,"rental_uris":{"android":"levelo://app?vid=a4f2e61f-fb62-4278-b6f8-aa1032f104d0","ios":"levelo://app?vid=a4f2e61f-fb62-4278-b6f8-aa1032f104d0"},"vehicle_type_id":"4","last_reported":1708463175,"current_range_meters":30000,"station_id":"ce4bhr92rcd13ifvqhrg","pricing_plan_id":"cebpf4jnsgd1na2vs0mg"},{"bike_id":"5d2c44cc-09bc-44e8-be6a-fb2baef2bfa5","system_id":"levelo_inurba_marseille","lat":43.295169,"lon":5.390426,"is_reserved":false,"is_disabled":false,"rental_uris":{"android":"levelo://app?vid=5d2c44cc-09bc-44e8-be6a-fb2baef2bfa5","ios":"levelo://app?vid=5d2c44cc-09bc-44e8-be6a-fb2baef2bfa5"},"vehicle_type_id":"4","last_reported":1708463175,"current_range_meters":16800,"station_id":"ce4bh3p2rcd13ifvqdp0","pricing_plan_id":"cebpf4jnsgd1na2vs0mg"},{"bike_id":"33ad188b-32c6-4cfb-a55e-e83501d0e0de","system_id":"levelo_inurba_marseille","lat":43.29519,"lon":5.39036,"is_reserved":false,"is_disabled":false,"rental_uris":{"android":"levelo://app?vid=33ad188b-32c6-4cfb-a55e-e83501d0e0de","ios":"levelo://app?vid=33ad188b-32c6-4cfb-a55e-e83501d0e0de"},"vehicle_type_id":"4","last_reported":1708463175,"current_range_meters":0,"station_id":"ce4bh3p2rcd13ifvqdp0","pricing_plan_id":"cebpf4jnsgd1na2vs0mg"},{"bike_id":"6c4e4a8e-6056-4d3e-a0b7-1c9ff74d1d0a","system_id":"levelo_inurba_marseille","lat":43.295207,"lon":5.390403,"is_reserved":false,"is_disabled":false,"rental_uris":{"android":"levelo://app?vid=6c4e4a8e-6056-4d3e-a0b7-1c9ff74d1d0a","ios":"levelo://app?vid=6c4e4a8e-6056-4d3e-a0b7-1c9ff74d1d0a"},"vehicle_type_id":"4","last_reported":1708463175,"current_range_meters":5200,"station_id":"ce4bh3p2rcd13ifvqdp0","pricing_plan_id":"cebpf4jnsgd1na2vs0mg"},{"bike_id":"b855f4e0-242e-4f60-a12e-d72ff0cb4970","system_id":"levelo_inurba_marseille","lat":43.29516,"lon":5.39036,"is_reserved":false,"is_disabled":false,"rental_uris":{"android":"levelo://app?vid=b855f4e0-242e-4f60-a12e-d72ff0cb4970","ios":"levelo://app?vid=b855f4e0-242e-4f60-a12e-d72ff0cb4970"},"vehicle_type_id":"4","last_reported":1708463175,"current_range_meters":20400,"station_id":"ce4bh3p2rcd13ifvqdp0","pricing_plan_id":"cebpf4jnsgd1na2vs0mg"},{"bike_id":"9adb7d8c-1a3e-401d-8170-bca66d7b94f6","system_id":"levelo_inurba_marseille","lat":43.295169,"lon":5.390426,"is_reserved":false,"is_disabled":false,"rental_uris":{"android":"levelo://app?vid=9adb7d8c-1a3e-401d-8170-bca66d7b94f6","ios":"levelo://app?vid=9adb7d8c-1a3e-401d-8170-bca66d7b94f6"},"vehicle_type_id":"4","last_reported":1708463175,"current_range_meters":26000,"station_id":"ce4bh3p2rcd13ifvqdp0","pricing_plan_id":"cebpf4jnsgd1na2vs0mg"},{"bike_id":"e092d2e3-df5a-469e-88f9-f31dcc05708c","system_id":"levelo_inurba_marseille","lat":43.295169,"lon":5.390426,"is_reserved":false,"is_disabled":false,"rental_uris":{"android":"levelo://app?vid=e092d2e3-df5a-469e-88f9-f31dcc05708c","ios":"levelo://app?vid=e092d2e3-df5a-469e-88f9-f31dcc05708c"},"vehicle_type_id":"4","last_reported":1708463175,"current_range_meters":27600,"station_id":"ce4bh3p2rcd13ifvqdp0","pricing_plan_id":"cebpf4jnsgd1na2vs0mg"},{"bike_id":"a92c8767-460e-4c99-9f3a-8a6eb937ac2b","system_id":"levelo_inurba_marseille","lat":43.295169,"lon":5.390426,"is_reserved":false,"is_disabled":false,"rental_uris":{"android":"levelo://app?vid=a92c8767-460e-4c99-9f3a-8a6eb937ac2b","ios":"levelo://app?vid=a92c8767-460e-4c99-9f3a-8a6eb937ac2b"},"vehicle_type_id":"4","last_reported":1708463175,"current_range_meters":11200,"station_id":"ce4bh3p2rcd13ifvqdp0","pricing_plan_id":"cebpf4jnsgd1na2vs0mg"},{"bike_id":"1180695f-9fbc-4014-a10b-fdb3716cf826","system_id":"levelo_inurba_marseille","lat":43.2901,"lon":5.381269,"is_reserved":false,"is_disabled":false,"rental_uris":{"android":"levelo://app?vid=1180695f-9fbc-4014-a10b-fdb3716cf826","ios":"levelo://app?vid=1180695f-9fbc-4014-a10b-fdb3716cf826"},"vehicle_type_id":"4","last_reported":1708463175,"current_range_meters":23200,"station_id":"ce4bh4p2rcd13ifvqe1g","pricing_plan_id":"cebpf4jnsgd1na2vs0mg"},{"bike_id":"e5d82bd8-cc64-45b6-a104-0156c6ed11a6","system_id":"levelo_inurba_marseille","lat":43.28856,"lon":5.358371,"is_reserved":false,"is_disabled":false,"rental_uris":{"android":"levelo://app?vid=e5d82bd8-cc64-45b6-a104-0156c6ed11a6","ios":"levelo://app?vid=e5d82bd8-cc64-45b6-a104-0156c6ed11a6"},"vehicle_type_id":"4","last_reported":1708463175,"current_range_meters":10000,"station_id":"ce4bhb12rcd13ifvqem0","pricing_plan_id":"cebpf4jnsgd1na2vs0mg"},{"bike_id":"578a0353-9712-4729-952c-585c16d29e60","system_id":"levelo_inurba_marseille","lat":43.28856,"lon":5.358371,"is_reserved":false,"is_disabled":false,"rental_uris":{"android":"levelo://app?vid=578a0353-9712-4729-952c-585c16d29e60","ios":"levelo://app?vid=578a0353-9712-4729-952c-585c16d29e60"},"vehicle_type_id":"4","last_reported":1708463175,"current_range_meters":31600,"station_id":"ce4bhb12rcd13ifvqem0","pricing_plan_id":"cebpf4jnsgd1na2vs0mg"},{"bike_id":"0c5c5604-7fde-49dc-9201-397f18a4cad4","system_id":"levelo_inurba_marseille","lat":43.2885,"lon":5.358813,"is_reserved":false,"is_disabled":false,"rental_uris":{"android":"levelo://app?vid=0c5c5604-7fde-49dc-9201-397f18a4cad4","ios":"levelo://app?vid=0c5c5604-7fde-49dc-9201-397f18a4cad4"},"vehicle_type_id":"4","last_reported":1708463175,"current_range_meters":5600,"station_id":"","pricing_plan_id":"cebpf4jnsgd1na2vs0mg"},{"bike_id":"55522c3c-5647-43cd-8c9a-b2bd90cc62c5","system_id":"levelo_inurba_marseille","lat":43.28857,"lon":5.35839,"is_reserved":false,"is_disabled":false,"rental_uris":{"android":"levelo://app?vid=55522c3c-5647-43cd-8c9a-b2bd90cc62c5","ios":"levelo://app?vid=55522c3c-5647-43cd-8c9a-b2bd90cc62c5"},"vehicle_type_id":"4","last_reported":1708463175,"current_range_meters":19600,"station_id":"","pricing_plan_id":"cebpf4jnsgd1na2vs0mg"},{"bike_id":"905a4aaa-d9ec-447c-981b-62b411ed91a5","system_id":"levelo_inurba_marseille","lat":43.28856,"lon":5.358371,"is_reserved":false,"is_disabled":false,"rental_uris":{"android":"levelo://app?vid=905a4aaa-d9ec-447c-981b-62b411ed91a5","ios":"levelo://app?vid=905a4aaa-d9ec-447c-981b-62b411ed91a5"},"vehicle_type_id":"4","last_reported":1708463175,"current_range_meters":10000,"station_id":"ce4bhb12rcd13ifvqem0","pricing_plan_id":"cebpf4jnsgd1na2vs0mg"},{"bike_id":"c9884986-1cea-4439-8c97-cb2165044817","system_id":"levelo_inurba_marseille","lat":43.28856,"lon":5.358371,"is_reserved":false,"is_disabled":false,"rental_uris":{"android":"levelo://app?vid=c9884986-1cea-4439-8c97-cb2165044817","ios":"levelo://app?vid=c9884986-1cea-4439-8c97-cb2165044817"},"vehicle_type_id":"4","last_reported":1708463175,"current_range_meters":16800,"station_id":"ce4bhb12rcd13ifvqem0","pricing_plan_id":"cebpf4jnsgd1na2vs0mg"},{"bike_id":"c1468d7e-1f6b-4a4b-baf6-7dbfd34e7699","system_id":"levelo_inurba_marseille","lat":43.28856,"lon":5.358371,"is_reserved":false,"is_disabled":false,"rental_uris":{"android":"levelo://app?vid=c1468d7e-1f6b-4a4b-baf6-7dbfd34e7699","ios":"levelo://app?vid=c1468d7e-1f6b-4a4b-baf6-7dbfd34e7699"},"vehicle_type_id":"4","last_reported":1708463175,"current_range_meters":20000,"station_id":"ce4bhb12rcd13ifvqem0","pricing_plan_id":"cebpf4jnsgd1na2vs0mg"},{"bike_id":"4c1e26da-1daa-47cb-a1b0-68f224959241","system_id":"levelo_inurba_marseille","lat":43.28856,"lon":5.358371,"is_reserved":false,"is_disabled":false,"rental_uris":{"android":"levelo://app?vid=4c1e26da-1daa-47cb-a1b0-68f224959241","ios":"levelo://app?vid=4c1e26da-1daa-47cb-a1b0-68f224959241"},"vehicle_type_id":"4","last_reported":1708463175,"current_range_meters":30800,"station_id":"ce4bhb12rcd13ifvqem0","pricing_plan_id":"cebpf4jnsgd1na2vs0mg"},{"bike_id":"4cdc7c66-a8e9-46bc-8b00-ade4932aeceb","system_id":"levelo_inurba_marseille","lat":43.28856,"lon":5.358371,"is_reserved":false,"is_disabled":false,"rental_uris":{"android":"levelo://app?vid=4cdc7c66-a8e9-46bc-8b00-ade4932aeceb","ios":"levelo://app?vid=4cdc7c66-a8e9-46bc-8b00-ade4932aeceb"},"vehicle_type_id":"4","last_reported":1708463175,"current_range_meters":29600,"station_id":"ce4bhb12rcd13ifvqem0","pricing_plan_id":"cebpf4jnsgd1na2vs0mg"},{"bike_id":"9d8e6e39-7b6d-476d-a681-3f4ab3709dc3","system_id":"levelo_inurba_marseille","lat":43.28856,"lon":5.358371,"is_reserved":false,"is_disabled":false,"rental_uris":{"android":"levelo://app?vid=9d8e6e39-7b6d-476d-a681-3f4ab3709dc3","ios":"levelo://app?vid=9d8e6e39-7b6d-476d-a681-3f4ab3709dc3"},"vehicle_type_id":"4","last_reported":1708463175,"current_range_meters":20800,"station_id":"ce4bhb12rcd13ifvqem0","pricing_plan_id":"cebpf4jnsgd1na2vs0mg"},{"bike_id":"7deb327a-8ec1-4ef5-bc5c-705ae6bbb03e","system_id":"levelo_inurba_marseille","lat":43.28856,"lon":5.358371,"is_reserved":false,"is_disabled":false,"rental_uris":{"android":"levelo://app?vid=7deb327a-8ec1-4ef5-bc5c-705ae6bbb03e","ios":"levelo://app?vid=7deb327a-8ec1-4ef5-bc5c-705ae6bbb03e"},"vehicle_type_id":"4","last_reported":1708463175,"current_range_meters":18000,"station_id":"ce4bhb12rcd13ifvqem0","pricing_plan_id":"cebpf4jnsgd1na2vs0mg"},{"bike_id":"d0d74ce0-8db1-44a1-8eac-f5e1c6bca7e1","system_id":"levelo_inurba_marseille","lat":43.28856,"lon":5.358371,"is_reserved":false,"is_disabled":false,"rental_uris":{"android":"levelo://app?vid=d0d74ce0-8db1-44a1-8eac-f5e1c6bca7e1","ios":"levelo://app?vid=d0d74ce0-8db1-44a1-8eac-f5e1c6bca7e1"},"vehicle_type_id":"4","last_reported":1708463175,"current_range_meters":30400,"station_id":"ce4bhb12rcd13ifvqem0","pricing_plan_id":"cebpf4jnsgd1na2vs0mg"},{"bike_id":"672af493-05ad-4417-a2af-b42054a8c83c","system_id":"levelo_inurba_marseille","lat":43.312609,"lon":5.401662,"is_reserved":false,"is_disabled":false,"rental_uris":{"android":"levelo://app?vid=672af493-05ad-4417-a2af-b42054a8c83c","ios":"levelo://app?vid=672af493-05ad-4417-a2af-b42054a8c83c"},"vehicle_type_id":"4","last_reported":1708463175,"current_range_meters":28000,"station_id":"ce4bh092rcd13ifvqd30","pricing_plan_id":"cebpf4jnsgd1na2vs0mg"},{"bike_id":"bee98f28-a687-44a1-a0fc-44985e86dc27","system_id":"levelo_inurba_marseille","lat":43.337408,"lon":5.374549,"is_reserved":false,"is_disabled":false,"rental_uris":{"android":"levelo://app?vid=bee98f28-a687-44a1-a0fc-44985e86dc27","ios":"levelo://app?vid=bee98f28-a687-44a1-a0fc-44985e86dc27"},"vehicle_type_id":"4","last_reported":1708463175,"current_range_meters":10400,"station_id":"","pricing_plan_id":"cebpf4jnsgd1na2vs0mg"},{"bike_id":"89d65cf8-fb75-4b83-9668-72258beda1f2","system_id":"levelo_inurba_marseille","lat":43.309371,"lon":5.401449,"is_reserved":false,"is_disabled":false,"rental_uris":{"android":"levelo://app?vid=89d65cf8-fb75-4b83-9668-72258beda1f2","ios":"levelo://app?vid=89d65cf8-fb75-4b83-9668-72258beda1f2"},"vehicle_type_id":"4","last_reported":1708463175,"current_range_meters":22800,"station_id":"ce4bgvp2rcd13ifvqct0","pricing_plan_id":"cebpf4jnsgd1na2vs0mg"},{"bike_id":"17fa40a9-c008-40c3-8c55-8bf0f7bfa052","system_id":"levelo_inurba_marseille","lat":43.31269,"lon":5.40174,"is_reserved":false,"is_disabled":false,"rental_uris":{"android":"levelo://app?vid=17fa40a9-c008-40c3-8c55-8bf0f7bfa052","ios":"levelo://app?vid=17fa40a9-c008-40c3-8c55-8bf0f7bfa052"},"vehicle_type_id":"4","last_reported":1708463175,"current_range_meters":8000,"station_id":"ce4bh092rcd13ifvqd30","pricing_plan_id":"cebpf4jnsgd1na2vs0mg"},{"bike_id":"32422393-e910-450e-909b-61a9829b3538","system_id":"levelo_inurba_marseille","lat":43.287184,"lon":5.37937,"is_reserved":false,"is_disabled":false,"rental_uris":{"android":"levelo://app?vid=32422393-e910-450e-909b-61a9829b3538","ios":"levelo://app?vid=32422393-e910-450e-909b-61a9829b3538"},"vehicle_type_id":"4","last_reported":1708463175,"current_range_meters":12400,"station_id":"ce4bh9p2rcd13ifvqec0","pricing_plan_id":"cebpf4jnsgd1na2vs0mg"},{"bike_id":"babef996-e8a8-4052-9f4a-5db56c31965f","system_id":"levelo_inurba_marseille","lat":43.309371,"lon":5.401449,"is_reserved":false,"is_disabled":false,"rental_uris":{"android":"levelo://app?vid=babef996-e8a8-4052-9f4a-5db56c31965f","ios":"levelo://app?vid=babef996-e8a8-4052-9f4a-5db56c31965f"},"vehicle_type_id":"4","last_reported":1708463175,"current_range_meters":800,"station_id":"ce4bgvp2rcd13ifvqct0","pricing_plan_id":"cebpf4jnsgd1na2vs0mg"},{"bike_id":"dbda385f-d4b0-46c8-b18b-6a4760f450d4","system_id":"levelo_inurba_marseille","lat":43.309371,"lon":5.401449,"is_reserved":false,"is_disabled":false,"rental_uris":{"android":"levelo://app?vid=dbda385f-d4b0-46c8-b18b-6a4760f450d4","ios":"levelo://app?vid=dbda385f-d4b0-46c8-b18b-6a4760f450d4"},"vehicle_type_id":"4","last_reported":1708463175,"current_range_meters":0,"station_id":"ce4bgvp2rcd13ifvqct0","pricing_plan_id":"cebpf4jnsgd1na2vs0mg"},{"bike_id":"254db809-d603-4868-be95-eb61ba19bc37","system_id":"levelo_inurba_marseille","lat":43.337479,"lon":5.374597,"is_reserved":false,"is_disabled":false,"rental_uris":{"android":"levelo://app?vid=254db809-d603-4868-be95-eb61ba19bc37","ios":"levelo://app?vid=254db809-d603-4868-be95-eb61ba19bc37"},"vehicle_type_id":"4","last_reported":1708463175,"current_range_meters":24000,"station_id":"","pricing_plan_id":"cebpf4jnsgd1na2vs0mg"},{"bike_id":"4e62f32a-2c8a-4791-9449-de28cfa118f6","system_id":"levelo_inurba_marseille","lat":43.309371,"lon":5.401449,"is_reserved":false,"is_disabled":false,"rental_uris":{"android":"levelo://app?vid=4e62f32a-2c8a-4791-9449-de28cfa118f6","ios":"levelo://app?vid=4e62f32a-2c8a-4791-9449-de28cfa118f6"},"vehicle_type_id":"4","last_reported":1708463175,"current_range_meters":400,"station_id":"ce4bgvp2rcd13ifvqct0","pricing_plan_id":"cebpf4jnsgd1na2vs0mg"},{"bike_id":"e2e047c3-05fd-47ec-9dad-c91799c45c6c","system_id":"levelo_inurba_marseille","lat":43.309371,"lon":5.401449,"is_reserved":false,"is_disabled":false,"rental_uris":{"android":"levelo://app?vid=e2e047c3-05fd-47ec-9dad-c91799c45c6c","ios":"levelo://app?vid=e2e047c3-05fd-47ec-9dad-c91799c45c6c"},"vehicle_type_id":"4","last_reported":1708463175,"current_range_meters":800,"station_id":"ce4bgvp2rcd13ifvqct0","pricing_plan_id":"cebpf4jnsgd1na2vs0mg"},{"bike_id":"8032f488-736d-4f91-b5b8-9c785931ead9","system_id":"levelo_inurba_marseille","lat":43.309371,"lon":5.401449,"is_reserved":false,"is_disabled":false,"rental_uris":{"android":"levelo://app?vid=8032f488-736d-4f91-b5b8-9c785931ead9","ios":"levelo://app?vid=8032f488-736d-4f91-b5b8-9c785931ead9"},