{"last_updated":1734783314,"ttl":60,"version":"2.2","data":{"bikes":[{"bike_id":"0afde556-a3cc-4335-af62-991a761628c7","system_id":"levelo_inurba_marseille","lat":43.29292,"lon":5.37474,"is_reserved":false,"is_disabled":false,"rental_uris":{"android":"levelo://app?vid=0afde556-a3cc-4335-af62-991a761628c7","ios":"levelo://app?vid=0afde556-a3cc-4335-af62-991a761628c7"},"vehicle_type_id":"4","last_reported":1734783315,"current_range_meters":28400,"station_id":"ce4bgi12rcd13ifvqb70","pricing_plan_id":"cebpf4jnsgd1na2vs0mg"},{"bike_id":"ef6ff72d-ccfc-44d1-92b9-b5c83e8d80e4","system_id":"levelo_inurba_marseille","lat":43.30475,"lon":5.37909,"is_reserved":false,"is_disabled":false,"rental_uris":{"android":"levelo://app?vid=ef6ff72d-ccfc-44d1-92b9-b5c83e8d80e4","ios":"levelo://app?vid=ef6ff72d-ccfc-44d1-92b9-b5c83e8d80e4"},"vehicle_type_id":"4","last_reported":1734783315,"current_range_meters":24800,"station_id":"ce4bgup2rcd13ifvqcn0","pricing_plan_id":"cebpf4jnsgd1na2vs0mg"},{"bike_id":"8b58a356-7b53-4941-baff-a82d27c8533d","system_id":"levelo_inurba_marseille","lat":43.29566,"lon":5.39981,"is_reserved":false,"is_disabled":false,"rental_uris":{"android":"levelo://app?vid=8b58a356-7b53-4941-baff-a82d27c8533d","ios":"levelo://app?vid=8b58a356-7b53-4941-baff-a82d27c8533d"},"vehicle_type_id":"4","last_reported":1734783315,"current_range_meters":38800,"station_id":"ce4bh312rcd13ifvqdj0","pricing_plan_id":"cebpf4jnsgd1na2vs0mg"},{"bike_id":"c20c717d-c827-41e6-9454-3f93a777b421","system_id":"levelo_inurba_marseille","lat":43.278377,"lon":5.391948,"is_reserved":false,"is_disabled":false,"rental_uris":{"android":"levelo://app?vid=c20c717d-c827-41e6-9454-3f93a777b421","ios":"levelo://app?vid=c20c717d-c827-41e6-9454-3f93a777b421"},"vehicle_type_id":"4","last_reported":1734783315,"current_range_meters":36800,"station_id":"ce4bhjp2rcd13ifvqga0","pricing_plan_id":"cebpf4jnsgd1na2vs0mg"},{"bike_id":"12b28a6a-a08d-4088-a058-24fc8a1b7dad","system_id":"levelo_inurba_marseille","lat":43.25864,"lon":5.39907,"is_reserved":false,"is_disabled":false,"rental_uris":{"android":"levelo://app?vid=12b28a6a-a08d-4088-a058-24fc8a1b7dad","ios":"levelo://app?vid=12b28a6a-a08d-4088-a058-24fc8a1b7dad"},"vehicle_type_id":"4","last_reported":1734783315,"current_range_meters":39200,"station_id":"ce4bhl92rcd13ifvqghg","pricing_plan_id":"cebpf4jnsgd1na2vs0mg"},{"bike_id":"24041a61-6630-4c4c-89da-019f888e35f5","system_id":"levelo_inurba_marseille","lat":43.28717,"lon":5.40003,"is_reserved":false,"is_disabled":true,"rental_uris":{"android":"levelo://app?vid=24041a61-6630-4c4c-89da-019f888e35f5","ios":"levelo://app?vid=24041a61-6630-4c4c-89da-019f888e35f5"},"vehicle_type_id":"4","last_reported":1734783315,"current_range_meters":29600,"station_id":"ce4bho92rcd13ifvqh3g","pricing_plan_id":"cebpf4jnsgd1na2vs0mg"},{"bike_id":"aa496fe5-ff01-4c76-b230-91db42ff1c79","system_id":"levelo_inurba_marseille","lat":43.26908,"lon":5.40374,"is_reserved":false,"is_disabled":false,"rental_uris":{"android":"levelo://app?vid=aa496fe5-ff01-4c76-b230-91db42ff1c79","ios":"levelo://app?vid=aa496fe5-ff01-4c76-b230-91db42ff1c79"},"vehicle_type_id":"4","last_reported":1734783315,"current_range_meters":36800,"station_id":"cjm6bp8fraef2m0cb0m0","pricing_plan_id":"cebpf4jnsgd1na2vs0mg"},{"bike_id":"19b4fa94-a9e7-43f4-bb42-436dcb8c21dd","system_id":"levelo_inurba_marseille","lat":43.29007,"lon":5.356,"is_reserved":false,"is_disabled":false,"rental_uris":{"android":"levelo://app?vid=19b4fa94-a9e7-43f4-bb42-436dcb8c21dd","ios":"levelo://app?vid=19b4fa94-a9e7-43f4-bb42-436dcb8c21dd"},"vehicle_type_id":"4","last_reported":1734783315,"current_range_meters":38800,"station_id":"ce4bhb92rcd13ifvqen0","pricing_plan_id":"cebpf4jnsgd1na2vs0mg"},{"bike_id":"60c2770b-5058-46c1-8a5a-bebef3f8d4d5","system_id":"levelo_inurba_marseille","lat":43.29565,"lon":5.37517,"is_reserved":false,"is_disabled":false,"rental_uris":{"android":"levelo://app?vid=60c2770b-5058-46c1-8a5a-bebef3f8d4d5","ios":"levelo://app?vid=60c2770b-5058-46c1-8a5a-bebef3f8d4d5"},"vehicle_type_id":"4","last_reported":1734783315,"current_range_meters":31200,"station_id":"ce4bgh92rcd13ifvqb50","pricing_plan_id":"cebpf4jnsgd1na2vs0mg"},{"bike_id":"96f67906-c94f-4a78-ae6e-fdff28a17019","system_id":"levelo_inurba_marseille","lat":43.337444,"lon":5.374475,"is_reserved":false,"is_disabled":false,"rental_uris":{"android":"levelo://app?vid=96f67906-c94f-4a78-ae6e-fdff28a17019","ios":"levelo://app?vid=96f67906-c94f-4a78-ae6e-fdff28a17019"},"vehicle_type_id":"4","last_reported":1734783315,"current_range_meters":38800,"station_id":"","pricing_plan_id":"cebpf4jnsgd1na2vs0mg"},{"bike_id":"6d401513-66ba-4f40-af76-25e509695a78","system_id":"levelo_inurba_marseille","lat":43.29219,"lon":5.36076,"is_reserved":false,"is_disabled":false,"rental_uris":{"android":"levelo://app?vid=6d401513-66ba-4f40-af76-25e509695a78","ios":"levelo://app?vid=6d401513-66ba-4f40-af76-25e509695a78"},"vehicle_type_id":"4","last_reported":1734783315,"current_range_meters":24400,"station_id":"ce4bhbh2rcd13ifvqeqg","pricing_plan_id":"cebpf4jnsgd1na2vs0mg"},{"bike_id":"f42f783e-769a-4b80-ae8e-683f87caab35","system_id":"levelo_inurba_marseille","lat":43.29713,"lon":5.37698,"is_reserved":false,"is_disabled":false,"rental_uris":{"android":"levelo://app?vid=f42f783e-769a-4b80-ae8e-683f87caab35","ios":"levelo://app?vid=f42f783e-769a-4b80-ae8e-683f87caab35"},"vehicle_type_id":"4","last_reported":1734783315,"current_range_meters":35200,"station_id":"ce4bgkh2rcd13ifvqbl0","pricing_plan_id":"cebpf4jnsgd1na2vs0mg"},{"bike_id":"40431b7a-e281-4e2d-91bc-d3d85515f6cd","system_id":"levelo_inurba_marseille","lat":43.29518,"lon":5.375,"is_reserved":false,"is_disabled":false,"rental_uris":{"android":"levelo://app?vid=40431b7a-e281-4e2d-91bc-d3d85515f6cd","ios":"levelo://app?vid=40431b7a-e281-4e2d-91bc-d3d85515f6cd"},"vehicle_type_id":"4","last_reported":1734783315,"current_range_meters":17600,"station_id":"ce4bgkp2rcd13ifvqbmg","pricing_plan_id":"cebpf4jnsgd1na2vs0mg"},{"bike_id":"608374e1-f5ef-4e14-aac6-f3b4fbfd2453","system_id":"levelo_inurba_marseille","lat":43.25079,"lon":5.39524,"is_reserved":false,"is_disabled":false,"rental_uris":{"android":"levelo://app?vid=608374e1-f5ef-4e14-aac6-f3b4fbfd2453","ios":"levelo://app?vid=608374e1-f5ef-4e14-aac6-f3b4fbfd2453"},"vehicle_type_id":"4","last_reported":1734783315,"current_range_meters":30800,"station_id":"ce4bhm12rcd13ifvqgkg","pricing_plan_id":"cebpf4jnsgd1na2vs0mg"},{"bike_id":"644e3219-1450-4f2a-b186-c356cfe42ba2","system_id":"levelo_inurba_marseille","lat":43.2807,"lon":5.39624,"is_reserved":false,"is_disabled":false,"rental_uris":{"android":"levelo://app?vid=644e3219-1450-4f2a-b186-c356cfe42ba2","ios":"levelo://app?vid=644e3219-1450-4f2a-b186-c356cfe42ba2"},"vehicle_type_id":"4","last_reported":1734783315,"current_range_meters":9600,"station_id":"ce4bho12rcd13ifvqh2g","pricing_plan_id":"cebpf4jnsgd1na2vs0mg"},{"bike_id":"5481ebd9-b3a3-4db6-ba37-c92c821046b1","system_id":"levelo_inurba_marseille","lat":43.27616,"lon":5.36116,"is_reserved":false,"is_disabled":false,"rental_uris":{"android":"levelo://app?vid=5481ebd9-b3a3-4db6-ba37-c92c821046b1","ios":"levelo://app?vid=5481ebd9-b3a3-4db6-ba37-c92c821046b1"},"vehicle_type_id":"4","last_reported":1734783315,"current_range_meters":39200,"station_id":"ce4bgj92rcd13ifvqbe0","pricing_plan_id":"cebpf4jnsgd1na2vs0mg"},{"bike_id":"a2d4a7c3-31b4-4baf-b0dc-4a95c0b946c8","system_id":"levelo_inurba_marseille","lat":43.29622,"lon":5.37716,"is_reserved":false,"is_disabled":false,"rental_uris":{"android":"levelo://app?vid=a2d4a7c3-31b4-4baf-b0dc-4a95c0b946c8","ios":"levelo://app?vid=a2d4a7c3-31b4-4baf-b0dc-4a95c0b946c8"},"vehicle_type_id":"4","last_reported":1734783315,"current_range_meters":32800,"station_id":"ce4bgi92rcd13ifvqb90","pricing_plan_id":"cebpf4jnsgd1na2vs0mg"},{"bike_id":"cae47795-c633-4035-ac91-0afc96e89c73","system_id":"levelo_inurba_marseille","lat":43.30476,"lon":5.37904,"is_reserved":false,"is_disabled":false,"rental_uris":{"android":"levelo://app?vid=cae47795-c633-4035-ac91-0afc96e89c73","ios":"levelo://app?vid=cae47795-c633-4035-ac91-0afc96e89c73"},"vehicle_type_id":"4","last_reported":1734783315,"current_range_meters":26000,"station_id":"ce4bgup2rcd13ifvqcn0","pricing_plan_id":"cebpf4jnsgd1na2vs0mg"},{"bike_id":"28d82292-98ba-4250-85c9-c5fea471f0be","system_id":"levelo_inurba_marseille","lat":43.29551,"lon":5.42284,"is_reserved":false,"is_disabled":false,"rental_uris":{"android":"levelo://app?vid=28d82292-98ba-4250-85c9-c5fea471f0be","ios":"levelo://app?vid=28d82292-98ba-4250-85c9-c5fea471f0be"},"vehicle_type_id":"4","last_reported":1734783315,"current_range_meters":13600,"station_id":"ce4bhph2rcd13ifvqhdg","pricing_plan_id":"cebpf4jnsgd1na2vs0mg"},{"bike_id":"362c7ef1-0cd6-408d-b02f-af877b91de26","system_id":"levelo_inurba_marseille","lat":43.32073,"lon":5.41534,"is_reserved":false,"is_disabled":false,"rental_uris":{"android":"levelo://app?vid=362c7ef1-0cd6-408d-b02f-af877b91de26","ios":"levelo://app?vid=362c7ef1-0cd6-408d-b02f-af877b91de26"},"vehicle_type_id":"4","last_reported":1734783315,"current_range_meters":25600,"station_id":"ce4bhq92rcd13ifvqhkg","pricing_plan_id":"cebpf4jnsgd1na2vs0mg"},{"bike_id":"64f9b18b-ddab-490b-8142-85fc6f464d6e","system_id":"levelo_inurba_marseille","lat":43.30131,"lon":5.38789,"is_reserved":false,"is_disabled":false,"rental_uris":{"android":"levelo://app?vid=64f9b18b-ddab-490b-8142-85fc6f464d6e","ios":"levelo://app?vid=64f9b18b-ddab-490b-8142-85fc6f464d6e"},"vehicle_type_id":"4","last_reported":1734783315,"current_range_meters":10800,"station_id":"ce4bghh2rcd13ifvqb60","pricing_plan_id":"cebpf4jnsgd1na2vs0mg"},{"bike_id":"23726d0d-b3e3-4a9d-9049-6a4ee15b329c","system_id":"levelo_inurba_marseille","lat":43.32659,"lon":5.40985,"is_reserved":false,"is_disabled":false,"rental_uris":{"android":"levelo://app?vid=23726d0d-b3e3-4a9d-9049-6a4ee15b329c","ios":"levelo://app?vid=23726d0d-b3e3-4a9d-9049-6a4ee15b329c"},"vehicle_type_id":"4","last_reported":1734783315,"current_range_meters":36800,"station_id":"ce4bhpp2rcd13ifvqhgg","pricing_plan_id":"cebpf4jnsgd1na2vs0mg"},{"bike_id":"3d2e7b3c-8e7f-4212-90cd-fa103541ba03","system_id":"levelo_inurba_marseille","lat":43.30929,"lon":5.40156,"is_reserved":false,"is_disabled":false,"rental_uris":{"android":"levelo://app?vid=3d2e7b3c-8e7f-4212-90cd-fa103541ba03","ios":"levelo://app?vid=3d2e7b3c-8e7f-4212-90cd-fa103541ba03"},"vehicle_type_id":"4","last_reported":1734783315,"current_range_meters":38800,"station_id":"ce4bgvp2rcd13ifvqct0","pricing_plan_id":"cebpf4jnsgd1na2vs0mg"},{"bike_id":"9264b624-9de5-495f-afae-7a84bb3e1f28","system_id":"levelo_inurba_marseille","lat":43.31224,"lon":5.36853,"is_reserved":false,"is_disabled":false,"rental_uris":{"android":"levelo://app?vid=9264b624-9de5-495f-afae-7a84bb3e1f28","ios":"levelo://app?vid=9264b624-9de5-495f-afae-7a84bb3e1f28"},"vehicle_type_id":"4","last_reported":1734783315,"current_range_meters":28400,"station_id":"ce4bgl92rcd13ifvqbq0","pricing_plan_id":"cebpf4jnsgd1na2vs0mg"},{"bike_id":"c7fa8543-23ad-4172-87ae-03c0d9fe98c1","system_id":"levelo_inurba_marseille","lat":43.24999,"lon":5.38924,"is_reserved":false,"is_disabled":false,"rental_uris":{"android":"levelo://app?vid=c7fa8543-23ad-4172-87ae-03c0d9fe98c1","ios":"levelo://app?vid=c7fa8543-23ad-4172-87ae-03c0d9fe98c1"},"vehicle_type_id":"4","last_reported":1734783315,"current_range_meters":14800,"station_id":"ce4bhgp2rcd13ifvqfd0","pricing_plan_id":"cebpf4jnsgd1na2vs0mg"},{"bike_id":"9adbfd80-4a90-423e-918b-efc9aefda7cd","system_id":"levelo_inurba_marseille","lat":43.25852,"lon":5.39901,"is_reserved":false,"is_disabled":false,"rental_uris":{"android":"levelo://app?vid=9adbfd80-4a90-423e-918b-efc9aefda7cd","ios":"levelo://app?vid=9adbfd80-4a90-423e-918b-efc9aefda7cd"},"vehicle_type_id":"4","last_reported":1734783315,"current_range_meters":38800,"station_id":"ce4bhl92rcd13ifvqghg","pricing_plan_id":"cebpf4jnsgd1na2vs0mg"},{"bike_id":"710cbb4b-92a3-4fcb-a674-51cdb538a062","system_id":"levelo_inurba_marseille","lat":43.24944,"lon":5.39675,"is_reserved":false,"is_disabled":true,"rental_uris":{"android":"levelo://app?vid=710cbb4b-92a3-4fcb-a674-51cdb538a062","ios":"levelo://app?vid=710cbb4b-92a3-4fcb-a674-51cdb538a062"},"vehicle_type_id":"4","last_reported":1734783315,"current_range_meters":36000,"station_id":"ce4bhh92rcd13ifvqfj0","pricing_plan_id":"cebpf4jnsgd1na2vs0mg"},{"bike_id":"f31c6fd3-c5a6-43b6-ae7b-f25e094e9a59","system_id":"levelo_inurba_marseille","lat":43.31753,"lon":5.39022,"is_reserved":false,"is_disabled":false,"rental_uris":{"android":"levelo://app?vid=f31c6fd3-c5a6-43b6-ae7b-f25e094e9a59","ios":"levelo://app?vid=f31c6fd3-c5a6-43b6-ae7b-f25e094e9a59"},"vehicle_type_id":"4","last_reported":1734783315,"current_range_meters":31200,"station_id":"ce4bhqp2rcd13ifvqhng","pricing_plan_id":"cebpf4jnsgd1na2vs0mg"},{"bike_id":"4010d8ba-4b80-425c-8eba-2845f10315fb","system_id":"levelo_inurba_marseille","lat":43.24072,"lon":5.37781,"is_reserved":false,"is_disabled":false,"rental_uris":{"android":"levelo://app?vid=4010d8ba-4b80-425c-8eba-2845f10315fb","ios":"levelo://app?vid=4010d8ba-4b80-425c-8eba-2845f10315fb"},"vehicle_type_id":"4","last_reported":1734783315,"current_range_meters":16400,"station_id":"ce4bhnp2rcd13ifvqgvg","pricing_plan_id":"cebpf4jnsgd1na2vs0mg"},{"bike_id":"dd52cea9-6fe3-460c-a4fc-255f18d6f38c","system_id":"levelo_inurba_marseille","lat":43.24972,"lon":5.38937,"is_reserved":false,"is_disabled":false,"rental_uris":{"android":"levelo://app?vid=dd52cea9-6fe3-460c-a4fc-255f18d6f38c","ios":"levelo://app?vid=dd52cea9-6fe3-460c-a4fc-255f18d6f38c"},"vehicle_type_id":"4","last_reported":1734783315,"current_range_meters":26000,"station_id":"ce4bhgp2rcd13ifvqfd0","pricing_plan_id":"cebpf4jnsgd1na2vs0mg"},{"bike_id":"02835011-6781-4b21-8cf5-3bf4e96fb2c9","system_id":"levelo_inurba_marseille","lat":43.32471,"lon":5.36706,"is_reserved":false,"is_disabled":false,"rental_uris":{"android":"levelo://app?vid=02835011-6781-4b21-8cf5-3bf4e96fb2c9","ios":"levelo://app?vid=02835011-6781-4b21-8cf5-3bf4e96fb2c9"},"vehicle_type_id":"4","last_reported":1734783315,"current_range_meters":29600,"station_id":"","pricing_plan_id":"cebpf4jnsgd1na2vs0mg"},{"bike_id":"4fa30569-b92b-422e-9bc7-ddcd7d605bf7","system_id":"levelo_inurba_marseille","lat":43.230562,"lon":5.354859,"is_reserved":false,"is_disabled":false,"rental_uris":{"android":"levelo://app?vid=4fa30569-b92b-422e-9bc7-ddcd7d605bf7","ios":"levelo://app?vid=4fa30569-b92b-422e-9bc7-ddcd7d605bf7"},"vehicle_type_id":"4","last_reported":1734783315,"current_range_meters":4000,"station_id":"cpo3342slgdg3j2ifvpg","pricing_plan_id":"cebpf4jnsgd1na2vs0mg"},{"bike_id":"923203be-81e9-4bac-baed-4fd99bc3f450","system_id":"levelo_inurba_marseille","lat":43.29583,"lon":5.37494,"is_reserved":false,"is_disabled":false,"rental_uris":{"android":"levelo://app?vid=923203be-81e9-4bac-baed-4fd99bc3f450","ios":"levelo://app?vid=923203be-81e9-4bac-baed-4fd99bc3f450"},"vehicle_type_id":"4","last_reported":1734783315,"current_range_meters":24400,"station_id":"ce4bgh92rcd13ifvqb50","pricing_plan_id":"cebpf4jnsgd1na2vs0mg"},{"bike_id":"0330259f-0861-48f5-9a21-7a991082f91c","system_id":"levelo_inurba_marseille","lat":43.27059,"lon":5.40281,"is_reserved":false,"is_disabled":false,"rental_uris":{"android":"levelo://app?vid=0330259f-0861-48f5-9a21-7a991082f91c","ios":"levelo://app?vid=0330259f-0861-48f5-9a21-7a991082f91c"},"vehicle_type_id":"4","last_reported":1734783315,"current_range_meters":34000,"station_id":"ce4bhk92rcd13ifvqgc0","pricing_plan_id":"cebpf4jnsgd1na2vs0mg"},{"bike_id":"fbf3da40-6db3-4b0a-ba01-e3b05174c03a","system_id":"levelo_inurba_marseille","lat":43.28301,"lon":5.3507,"is_reserved":false,"is_disabled":false,"rental_uris":{"android":"levelo://app?vid=fbf3da40-6db3-4b0a-ba01-e3b05174c03a","ios":"levelo://app?vid=fbf3da40-6db3-4b0a-ba01-e3b05174c03a"},"vehicle_type_id":"4","last_reported":1734783315,"current_range_meters":38800,"station_id":"ce4bhbp2rcd13ifvqerg","pricing_plan_id":"cebpf4jnsgd1na2vs0mg"},{"bike_id":"1f265f2c-c3ce-4530-9858-4eca3d9e00e1","system_id":"levelo_inurba_marseille","lat":43.23193,"lon":5.39985,"is_reserved":false,"is_disabled":false,"rental_uris":{"android":"levelo://app?vid=1f265f2c-c3ce-4530-9858-4eca3d9e00e1","ios":"levelo://app?vid=1f265f2c-c3ce-4530-9858-4eca3d9e00e1"},"vehicle_type_id":"4","last_reported":1734783315,"current_range_meters":10000,"station_id":"ce4bhn12rcd13ifvqgqg","pricing_plan_id":"cebpf4jnsgd1na2vs0mg"},{"bike_id":"82166131-f554-48b6-9171-8be7cc04ec8a","system_id":"levelo_inurba_marseille","lat":43.30432,"lon":5.38888,"is_reserved":false,"is_disabled":false,"rental_uris":{"android":"levelo://app?vid=82166131-f554-48b6-9171-8be7cc04ec8a","ios":"levelo://app?vid=82166131-f554-48b6-9171-8be7cc04ec8a"},"vehicle_type_id":"4","last_reported":1734783315,"current_range_meters":28000,"station_id":"ce4bgk12rcd13ifvqbi0","pricing_plan_id":"cebpf4jnsgd1na2vs0mg"},{"bike_id":"7fd1c797-e3d8-4dec-be0f-7347244fa071","system_id":"levelo_inurba_marseille","lat":43.31742,"lon":5.42371,"is_reserved":false,"is_disabled":false,"rental_uris":{"android":"levelo://app?vid=7fd1c797-e3d8-4dec-be0f-7347244fa071","ios":"levelo://app?vid=7fd1c797-e3d8-4dec-be0f-7347244fa071"},"vehicle_type_id":"4","last_reported":1734783315,"current_range_meters":13600,"station_id":"ce4bhp92rcd13ifvqhbg","pricing_plan_id":"cebpf4jnsgd1na2vs0mg"},{"bike_id":"523697cd-8684-4343-bd9c-3aae0aed004a","system_id":"levelo_inurba_marseille","lat":43.30538,"lon":5.36555,"is_reserved":false,"is_disabled":false,"rental_uris":{"android":"levelo://app?vid=523697cd-8684-4343-bd9c-3aae0aed004a","ios":"levelo://app?vid=523697cd-8684-4343-bd9c-3aae0aed004a"},"vehicle_type_id":"4","last_reported":1734783315,"current_range_meters":23200,"station_id":"ce4bgs12rcd13ifvqcag","pricing_plan_id":"cebpf4jnsgd1na2vs0mg"},{"bike_id":"cd157915-05b2-42ab-a6b8-aa0b8b376dc7","system_id":"levelo_inurba_marseille","lat":43.28724,"lon":5.36127,"is_reserved":false,"is_disabled":false,"rental_uris":{"android":"levelo://app?vid=cd157915-05b2-42ab-a6b8-aa0b8b376dc7","ios":"levelo://app?vid=cd157915-05b2-42ab-a6b8-aa0b8b376dc7"},"vehicle_type_id":"4","last_reported":1734783315,"current_range_meters":29600,"station_id":"cki0cbj6b192h4jlfktg","pricing_plan_id":"cebpf4jnsgd1na2vs0mg"},{"bike_id":"e724f4e5-0922-4e36-91f4-8a4c9d514ff5","system_id":"levelo_inurba_marseille","lat":43.29833,"lon":5.36273,"is_reserved":false,"is_disabled":false,"rental_uris":{"android":"levelo://app?vid=e724f4e5-0922-4e36-91f4-8a4c9d514ff5","ios":"levelo://app?vid=e724f4e5-0922-4e36-91f4-8a4c9d514ff5"},"vehicle_type_id":"4","last_reported":1734783315,"current_range_meters":38800,"station_id":"ce4bgpp2rcd13ifvqc3g","pricing_plan_id":"cebpf4jnsgd1na2vs0mg"},{"bike_id":"abf860be-3d3d-4a76-b353-f7286e2856a9","system_id":"levelo_inurba_marseille","lat":43.27616,"lon":5.36118,"is_reserved":false,"is_disabled":false,"rental_uris":{"android":"levelo://app?vid=abf860be-3d3d-4a76-b353-f7286e2856a9","ios":"levelo://app?vid=abf860be-3d3d-4a76-b353-f7286e2856a9"},"vehicle_type_id":"4","last_reported":1734783315,"current_range_meters":23200,"station_id":"ce4bgj92rcd13ifvqbe0","pricing_plan_id":"cebpf4jnsgd1na2vs0mg"},{"bike_id":"d98f0b8a-1ef4-43b4-85a1-12b00b5f4de1","system_id":"levelo_inurba_marseille","lat":43.28418,"lon":5.34999,"is_reserved":false,"is_disabled":false,"rental_uris":{"android":"levelo://app?vid=d98f0b8a-1ef4-43b4-85a1-12b00b5f4de1","ios":"levelo://app?vid=d98f0b8a-1ef4-43b4-85a1-12b00b5f4de1"},"vehicle_type_id":"4","last_reported":1734783315,"current_range_meters":38400,"station_id":"ce4bhbh2rcd13ifvqepg","pricing_plan_id":"cebpf4jnsgd1na2vs0mg"},{"bike_id":"cbd8c37e-4c23-4764-beb6-a16227464b84","system_id":"levelo_inurba_marseille","lat":43.26806,"lon":5.40255,"is_reserved":false,"is_disabled":false,"rental_uris":{"android":"levelo://app?vid=cbd8c37e-4c23-4764-beb6-a16227464b84","ios":"levelo://app?vid=cbd8c37e-4c23-4764-beb6-a16227464b84"},"vehicle_type_id":"4","last_reported":1734783315,"current_range_meters":35600,"station_id":"ce501612rcd8frsf0b60","pricing_plan_id":"cebpf4jnsgd1na2vs0mg"},{"bike_id":"89fb7c12-7f7c-4bae-841d-4e881f1dfd1f","system_id":"levelo_inurba_marseille","lat":43.28616,"lon":5.3511,"is_reserved":false,"is_disabled":false,"rental_uris":{"android":"levelo://app?vid=89fb7c12-7f7c-4bae-841d-4e881f1dfd1f","ios":"levelo://app?vid=89fb7c12-7f7c-4bae-841d-4e881f1dfd1f"},"vehicle_type_id":"4","last_reported":1734783315,"current_range_meters":16800,"station_id":"ce4bhch2rcd13ifvqeug","pricing_plan_id":"cebpf4jnsgd1na2vs0mg"},{"bike_id":"2a3790fb-1e90-4353-aacf-11b146568d0c","system_id":"levelo_inurba_marseille","lat":43.291,"lon":5.38166,"is_reserved":false,"is_disabled":false,"rental_uris":{"android":"levelo://app?vid=2a3790fb-1e90-4353-aacf-11b146568d0c","ios":"levelo://app?vid=2a3790fb-1e90-4353-aacf-11b146568d0c"},"vehicle_type_id":"4","last_reported":1734783315,"current_range_meters":24400,"station_id":"ce4bh512rcd13ifvqe2g","pricing_plan_id":"cebpf4jnsgd1na2vs0mg"},{"bike_id":"bbe925f2-96ca-4ec3-9187-91166b8ec43d","system_id":"levelo_inurba_marseille","lat":43.30442,"lon":5.37924,"is_reserved":false,"is_disabled":false,"rental_uris":{"android":"levelo://app?vid=bbe925f2-96ca-4ec3-9187-91166b8ec43d","ios":"levelo://app?vid=bbe925f2-96ca-4ec3-9187-91166b8ec43d"},"vehicle_type_id":"4","last_reported":1734783315,"current_range_meters":12400,"station_id":"ce4bgup2rcd13ifvqcn0","pricing_plan_id":"cebpf4jnsgd1na2vs0mg"},{"bike_id":"59ca2ebc-7c6f-439a-a11b-02933f88209e","system_id":"levelo_inurba_marseille","lat":43.27065,"lon":5.42311,"is_reserved":false,"is_disabled":false,"rental_uris":{"android":"levelo://app?vid=59ca2ebc-7c6f-439a-a11b-02933f88209e","ios":"levelo://app?vid=59ca2ebc-7c6f-439a-a11b-02933f88209e"},"vehicle_type_id":"4","last_reported":1734783315,"current_range_meters":37600,"station_id":"ce4bhk92rcd13ifvqgb0","pricing_plan_id":"cebpf4jnsgd1na2vs0mg"},{"bike_id":"721fd324-621d-4b24-aa37-45d60e9cdc8d","system_id":"levelo_inurba_marseille","lat":43.27938,"lon":5.41047,"is_reserved":false,"is_disabled":false,"rental_uris":{"android":"levelo://app?vid=721fd324-621d-4b24-aa37-45d60e9cdc8d","ios":"levelo://app?vid=721fd324-621d-4b24-aa37-45d60e9cdc8d"},"vehicle_type_id":"4","last_reported":1734783315,"current_range_meters":7200,"station_id":"ce4bhnp2rcd13ifvqh0g","pricing_plan_id":"cebpf4jnsgd1na2vs0mg"},{"bike_id":"18b3f870-bfe7-4396-81e5-34ed6ada0d75","system_id":"levelo_inurba_marseille","lat":43.30149,"lon":5.38095,"is_reserved":false,"is_disabled":false,"rental_uris":{"android":"levelo://app?vid=18b3f870-bfe7-4396-81e5-34ed6ada0d75","ios":"levelo://app?vid=18b3f870-bfe7-4396-81e5-34ed6ada0d75"},"vehicle_type_id":"4","last_reported":1734783315,"current_range_meters":38800,"station_id":"ce4bgjp2rcd13ifvqbh0","pricing_plan_id":"cebpf4jnsgd1na2vs0mg"},{"bike_id":"75bcc3b1-3091-4198-922a-90b0ea0094c0","system_id":"levelo_inurba_marseille","lat":43.25572,"lon":5.38242,"is_reserved":false,"is_disabled":false,"rental_uris":{"android":"levelo://app?vid=75bcc3b1-3091-4198-922a-90b0ea0094c0","ios":"levelo://app?vid=75bcc3b1-3091-4198-922a-90b0ea0094c0"},"vehicle_type_id":"4","last_reported":1734783315,"current_range_meters":38800,"station_id":"ce4bhih2rcd13ifvqfs0","pricing_plan_id":"cebpf4jnsgd1na2vs0mg"},{"bike_id":"06d2d131-52a3-4d98-8f29-a442f42733ad","system_id":"levelo_inurba_marseille","lat":43.29031,"lon":5.39988,"is_reserved":false,"is_disabled":false,"rental_uris":{"android":"levelo://app?vid=06d2d131-52a3-4d98-8f29-a442f42733ad","ios":"levelo://app?vid=06d2d131-52a3-4d98-8f29-a442f42733ad"},"vehicle_type_id":"4","last_reported":1734783315,"current_range_meters":38800,"station_id":"ce4bh392rcd13ifvqdm0","pricing_plan_id":"cebpf4jnsgd1na2vs0mg"},{"bike_id":"fc82265c-30ea-4be9-9da8-d29234cc9c02","system_id":"levelo_inurba_marseille","lat":43.28678,"lon":5.38677,"is_reserved":false,"is_disabled":false,"rental_uris":{"android":"levelo://app?vid=fc82265c-30ea-4be9-9da8-d29234cc9c02","ios":"levelo://app?vid=fc82265c-30ea-4be9-9da8-d29234cc9c02"},"vehicle_type_id":"4","last_reported":1734783315,"current_range_meters":8800,"station_id":"ce4bh492rcd13ifvqdug","pricing_plan_id":"cebpf4jnsgd1na2vs0mg"},{"bike_id":"7aaa9468-5e6d-4229-8604-28edc45b3859","system_id":"levelo_inurba_marseille","lat":43.25088,"lon":5.39522,"is_reserved":false,"is_disabled":false,"rental_uris":{"android":"levelo://app?vid=7aaa9468-5e6d-4229-8604-28edc45b3859","ios":"levelo://app?vid=7aaa9468-5e6d-4229-8604-28edc45b3859"},"vehicle_type_id":"4","last_reported":1734783315,"current_range_meters":38000,"station_id":"ce4bhm12rcd13ifvqgkg","pricing_plan_id":"cebpf4jnsgd1na2vs0mg"},{"bike_id":"ec16a6a9-6251-4fdb-8ce4-28a354765a81","system_id":"levelo_inurba_marseille","lat":43.2886,"lon":5.39295,"is_reserved":false,"is_disabled":false,"rental_uris":{"android":"levelo://app?vid=ec16a6a9-6251-4fdb-8ce4-28a354765a81","ios":"levelo://app?vid=ec16a6a9-6251-4fdb-8ce4-28a354765a81"},"vehicle_type_id":"4","last_reported":1734783315,"current_range_meters":38800,"station_id":"ce4bh2p2rcd13ifvqdi0","pricing_plan_id":"cebpf4jnsgd1na2vs0mg"},{"bike_id":"ceca975b-b342-4918-8353-e4cd51aebfcc","system_id":"levelo_inurba_marseille","lat":43.28616,"lon":5.35113,"is_reserved":false,"is_disabled":false,"rental_uris":{"android":"levelo://app?vid=ceca975b-b342-4918-8353-e4cd51aebfcc","ios":"levelo://app?vid=ceca975b-b342-4918-8353-e4cd51aebfcc"},"vehicle_type_id":"4","last_reported":1734783315,"current_range_meters":38800,"station_id":"ce4bhch2rcd13ifvqeug","pricing_plan_id":"cebpf4jnsgd1na2vs0mg"},{"bike_id":"54568c13-3ed6-4cb8-93bc-d1af885dc4aa","system_id":"levelo_inurba_marseille","lat":43.27807,"lon":5.40722,"is_reserved":false,"is_disabled":false,"rental_uris":{"android":"levelo://app?vid=54568c13-3ed6-4cb8-93bc-d1af885dc4aa","ios":"levelo://app?vid=54568c13-3ed6-4cb8-93bc-d1af885dc4aa"},"vehicle_type_id":"4","last_reported":1734783315,"current_range_meters":28400,"station_id":"ce4bhnh2rcd13ifvqgtg","pricing_plan_id":"cebpf4jnsgd1na2vs0mg"},{"bike_id":"b35fd2db-1d56-4c91-855e-93c369b0ec4e","system_id":"levelo_inurba_marseille","lat":43.26787,"lon":5.39413,"is_reserved":false,"is_disabled":false,"rental_uris":{"android":"levelo://app?vid=b35fd2db-1d56-4c91-855e-93c369b0ec4e","ios":"levelo://app?vid=b35fd2db-1d56-4c91-855e-93c369b0ec4e"},"vehicle_type_id":"4","last_reported":1734783315,"current_range_meters":19600,"station_id":"ce4bhh12rcd13ifvqfg0","pricing_plan_id":"cebpf4jnsgd1na2vs0mg"},{"bike_id":"7355d426-9f36-49d1-ab11-cfd4ce1d25fa","system_id":"levelo_inurba_marseille","lat":43.31893,"lon":5.40733,"is_reserved":false,"is_disabled":false,"rental_uris":{"android":"levelo://app?vid=7355d426-9f36-49d1-ab11-cfd4ce1d25fa","ios":"levelo://app?vid=7355d426-9f36-49d1-ab11-cfd4ce1d25fa"},"vehicle_type_id":"4","last_reported":1734783315,"current_range_meters":36800,"station_id":"ce4bhq12rcd13ifvqhig","pricing_plan_id":"cebpf4jnsgd1na2vs0mg"},{"bike_id":"4ed128f2-c289-492e-b733-41626add23cd","system_id":"levelo_inurba_marseille","lat":43.31894,"lon":5.40746,"is_reserved":false,"is_disabled":false,"rental_uris":{"android":"levelo://app?vid=4ed128f2-c289-492e-b733-41626add23cd","ios":"levelo://app?vid=4ed128f2-c289-492e-b733-41626add23cd"},"vehicle_type_id":"4","last_reported":1734783315,"current_range_meters":37600,"station_id":"ce4bhq12rcd13ifvqhig","pricing_plan_id":"cebpf4jnsgd1na2vs0mg"},{"bike_id":"6dc6694c-e80f-4778-9813-70fc7e438103","system_id":"levelo_inurba_marseille","lat":43.27414,"lon":5.39421,"is_reserved":false,"is_disabled":false,"rental_uris":{"android":"levelo://app?vid=6dc6694c-e80f-4778-9813-70fc7e438103","ios":"levelo://app?vid=6dc6694c-e80f-4778-9813-70fc7e438103"},"vehicle_type_id":"4","last_reported":1734783315,"current_range_meters":25600,"station_id":"ce4bhdp2rcd13ifvqf20","pricing_plan_id":"cebpf4jnsgd1na2vs0mg"},{"bike_id":"360112d3-ef8c-43c6-aab7-f950144b00a7","system_id":"levelo_inurba_marseille","lat":43.30277,"lon":5.37715,"is_reserved":false,"is_disabled":false,"rental_uris":{"android":"levelo://app?vid=360112d3-ef8c-43c6-aab7-f950144b00a7","ios":"levelo://app?vid=360112d3-ef8c-43c6-aab7-f950144b00a7"},"vehicle_type_id":"4","last_reported":1734783315,"current_range_meters":17600,"station_id":"ce4bguh2rcd13ifvqcj0","pricing_plan_id":"cebpf4jnsgd1na2vs0mg"},{"bike_id":"1337798b-3909-4d2e-9c82-73cad4e2fa59","system_id":"levelo_inurba_marseille","lat":43.29189,"lon":5.35805,"is_reserved":false,"is_disabled":false,"rental_uris":{"android":"levelo://app?vid=1337798b-3909-4d2e-9c82-73cad4e2fa59","ios":"levelo://app?vid=1337798b-3909-4d2e-9c82-73cad4e2fa59"},"vehicle_type_id":"4","last_reported":1734783315,"current_range_meters":38400,"station_id":"ce4bhb12rcd13ifvqel0","pricing_plan_id":"cebpf4jnsgd1na2vs0mg"},{"bike_id":"52a88488-4dd2-4f03-9384-f060d17bb6f5","system_id":"levelo_inurba_marseille","lat":43.25865,"lon":5.39909,"is_reserved":false,"is_disabled":true,"rental_uris":{"android":"levelo://app?vid=52a88488-4dd2-4f03-9384-f060d17bb6f5","ios":"levelo://app?vid=52a88488-4dd2-4f03-9384-f060d17bb6f5"},"vehicle_type_id":"4","last_reported":1734783315,"current_range_meters":0,"station_id":"ce4bhl92rcd13ifvqghg","pricing_plan_id":"cebpf4jnsgd1na2vs0mg"},{"bike_id":"366bef15-44c1-4f1f-a109-81643bbfc66e","system_id":"levelo_inurba_marseille","lat":43.29616,"lon":5.37714,"is_reserved":false,"is_disabled":false,"rental_uris":{"android":"levelo://app?vid=366bef15-44c1-4f1f-a109-81643bbfc66e","ios":"levelo://app?vid=366bef15-44c1-4f1f-a109-81643bbfc66e"},"vehicle_type_id":"4","last_reported":1734783315,"current_range_meters":32000,"station_id":"ce4bgi92rcd13ifvqb90","pricing_plan_id":"cebpf4jnsgd1na2vs0mg"},{"bike_id":"267b86c3-a6fa-4ada-bb30-11d2665f0f0b","system_id":"levelo_inurba_marseille","lat":43.29221,"lon":5.36071,"is_reserved":false,"is_disabled":false,"rental_uris":{"android":"levelo://app?vid=267b86c3-a6fa-4ada-bb30-11d2665f0f0b","ios":"levelo://app?vid=267b86c3-a6fa-4ada-bb30-11d2665f0f0b"},"vehicle_type_id":"4","last_reported":1734783315,"current_range_meters":38800,"station_id":"ce4bhbh2rcd13ifvqeqg","pricing_plan_id":"cebpf4jnsgd1na2vs0mg"},{"bike_id":"a57e9664-8eac-454e-a02a-57c62b6d02a3","system_id":"levelo_inurba_marseille","lat":43.29913,"lon":5.3748,"is_reserved":false,"is_disabled":false,"rental_uris":{"android":"levelo://app?vid=a57e9664-8eac-454e-a02a-57c62b6d02a3","ios":"levelo://app?vid=a57e9664-8eac-454e-a02a-57c62b6d02a3"},"vehicle_type_id":"4","last_reported":1734783315,"current_range_meters":38800,"station_id":"ce4bgjh2rcd13ifvqbg0","pricing_plan_id":"cebpf4jnsgd1na2vs0mg"},{"bike_id":"2ecd7a5c-6b03-4906-a193-c1bc16b7668c","system_id":"levelo_inurba_marseille","lat":43.30239,"lon":5.40062,"is_reserved":false,"is_disabled":true,"rental_uris":{"android":"levelo://app?vid=2ecd7a5c-6b03-4906-a193-c1bc16b7668c","ios":"levelo://app?vid=2ecd7a5c-6b03-4906-a193-c1bc16b7668c"},"vehicle_type_id":"4","last_reported":1734783315,"current_range_meters":38800,"station_id":"ce4bgvh2rcd13ifvqcs0","pricing_plan_id":"cebpf4jnsgd1na2vs0mg"},{"bike_id":"782bcbf2-b7de-4b04-bebc-aaa0329dd90c","system_id":"levelo_inurba_marseille","lat":43.23188,"lon":5.35566,"is_reserved":false,"is_disabled":false,"rental_uris":{"android":"levelo://app?vid=782bcbf2-b7de-4b04-bebc-aaa0329dd90c","ios":"levelo://app?vid=782bcbf2-b7de-4b04-bebc-aaa0329dd90c"},"vehicle_type_id":"4","last_reported":1734783315,"current_range_meters":31200,"station_id":"ce4bhu92rcd13ifvqi70","pricing_plan_id":"cebpf4jnsgd1na2vs0mg"},{"bike_id":"d52495ba-eed6-420e-95a1-4699b829b3e9","system_id":"levelo_inurba_marseille","lat":43.30424,"lon":5.39751,"is_reserved":false,"is_disabled":false,"rental_uris":{"android":"levelo://app?vid=d52495ba-eed6-420e-95a1-4699b829b3e9","ios":"levelo://app?vid=d52495ba-eed6-420e-95a1-4699b829b3e9"},"vehicle_type_id":"4","last_reported":1734783315,"current_range_meters":32400,"station_id":"ce4bh092rcd13ifvqd20","pricing_plan_id":"cebpf4jnsgd1na2vs0mg"},{"bike_id":"4bb3ee2e-9b82-4306-876c-c5aec1238422","system_id":"levelo_inurba_marseille","lat":43.28437,"lon":5.39199,"is_reserved":false,"is_disabled":false,"rental_uris":{"android":"levelo://app?vid=4bb3ee2e-9b82-4306-876c-c5aec1238422","ios":"levelo://app?vid=4bb3ee2e-9b82-4306-876c-c5aec1238422"},"vehicle_type_id":"4","last_reported":1734783315,"current_range_meters":38400,"station_id":"ce4bhoh2rcd13ifvqh5g","pricing_plan_id":"cebpf4jnsgd1na2vs0mg"},{"bike_id":"0fe0c7fc-7dc8-44c8-b816-723b7d01981d","system_id":"levelo_inurba_marseille","lat":43.2618,"lon":5.42072,"is_reserved":false,"is_disabled":true,"rental_uris":{"android":"levelo://app?vid=0fe0c7fc-7dc8-44c8-b816-723b7d01981d","ios":"levelo://app?vid=0fe0c7fc-7dc8-44c8-b816-723b7d01981d"},"vehicle_type_id":"4","last_reported":1734783315,"current_range_meters":1600,"station_id":"","pricing_plan_id":"cebpf4jnsgd1na2vs0mg"},{"bike_id":"a6ee0e99-06f6-4456-a77c-3b447ebd21d7","system_id":"levelo_inurba_marseille","lat":43.25571,"lon":5.38243,"is_reserved":false,"is_disabled":false,"rental_uris":{"android":"levelo://app?vid=a6ee0e99-06f6-4456-a77c-3b447ebd21d7","ios":"levelo://app?vid=a6ee0e99-06f6-4456-a77c-3b447ebd21d7"},"vehicle_type_id":"4","last_reported":1734783315,"current_range_meters":14800,"station_id":"ce4bhih2rcd13ifvqfs0","pricing_plan_id":"cebpf4jnsgd1na2vs0mg"},{"bike_id":"cc803612-c5e3-41d9-b847-7a8ecb434c97","system_id":"levelo_inurba_marseille","lat":43.3059,"lon":5.37241,"is_reserved":false,"is_disabled":false,"rental_uris":{"android":"levelo://app?vid=cc803612-c5e3-41d9-b847-7a8ecb434c97","ios":"levelo://app?vid=cc803612-c5e3-41d9-b847-7a8ecb434c97"},"vehicle_type_id":"4","last_reported":1734783315,"current_range_meters":31200,"station_id":"ce4bgqh2rcd13ifvqc4g","pricing_plan_id":"cebpf4jnsgd1na2vs0mg"},{"bike_id":"35325136-ba50-4a03-a961-ec049678dc79","system_id":"levelo_inurba_marseille","lat":43.24809,"lon":5.37457,"is_reserved":false,"is_disabled":false,"rental_uris":{"android":"levelo://app?vid=35325136-ba50-4a03-a961-ec049678dc79","ios":"levelo://app?vid=35325136-ba50-4a03-a961-ec049678dc79"},"vehicle_type_id":"4","last_reported":1734783315,"current_range_meters":30000,"station_id":"ce4bhgh2rcd13ifvqfb0","pricing_plan_id":"cebpf4jnsgd1na2vs0mg"},{"bike_id":"6717d120-5198-428b-9c35-898091d6d393","system_id":"levelo_inurba_marseille","lat":43.29959,"lon":5.38505,"is_reserved":false,"is_disabled":false,"rental_uris":{"android":"levelo://app?vid=6717d120-5198-428b-9c35-898091d6d393","ios":"levelo://app?vid=6717d120-5198-428b-9c35-898091d6d393"},"vehicle_type_id":"4","last_reported":1734783315,"current_range_meters":26000,"station_id":"ce4bgj92rcd13ifvqbd0","pricing_plan_id":"cebpf4jnsgd1na2vs0mg"},{"bike_id":"e1e55b34-0cc8-42c6-b9d9-a442d6ab0cd4","system_id":"levelo_inurba_marseille","lat":43.23179,"lon":5.39996,"is_reserved":false,"is_disabled":false,"rental_uris":{"android":"levelo://app?vid=e1e55b34-0cc8-42c6-b9d9-a442d6ab0cd4","ios":"levelo://app?vid=e1e55b34-0cc8-42c6-b9d9-a442d6ab0cd4"},"vehicle_type_id":"4","last_reported":1734783315,"current_range_meters":26000,"station_id":"ce4bhn12rcd13ifvqgqg","pricing_plan_id":"cebpf4jnsgd1na2vs0mg"},{"bike_id":"d4a36435-744e-424c-9dfb-2bbf19e7aaff","system_id":"levelo_inurba_marseille","lat":43.29689,"lon":5.37282,"is_reserved":false,"is_disabled":false,"rental_uris":{"android":"levelo://app?vid=d4a36435-744e-424c-9dfb-2bbf19e7aaff","ios":"levelo://app?vid=d4a36435-744e-424c-9dfb-2bbf19e7aaff"},"vehicle_type_id":"4","last_reported":1734783315,"current_range_meters":31200,"station_id":"ce4bgk12rcd13ifvqbj0","pricing_plan_id":"cebpf4jnsgd1na2vs0mg"},{"bike_id":"b67e6347-c993-4186-b85c-1f54c9e75564","system_id":"levelo_inurba_marseille","lat":43.27559,"lon":5.38458,"is_reserved":false,"is_disabled":false,"rental_uris":{"android":"levelo://app?vid=b67e6347-c993-4186-b85c-1f54c9e75564","ios":"levelo://app?vid=b67e6347-c993-4186-b85c-1f54c9e75564"},"vehicle_type_id":"4","last_reported":1734783315,"current_range_meters":38800,"station_id":"ce4bhh92rcd13ifvqfi0","pricing_plan_id":"cebpf4jnsgd1na2vs0mg"},{"bike_id":"a5404b43-1f8d-4cf3-a071-fce93c8325c1","system_id":"levelo_inurba_marseille","lat":43.27061,"lon":5.40259,"is_reserved":false,"is_disabled":false,"rental_uris":{"android":"levelo://app?vid=a5404b43-1f8d-4cf3-a071-fce93c8325c1","ios":"levelo://app?vid=a5404b43-1f8d-4cf3-a071-fce93c8325c1"},"vehicle_type_id":"4","last_reported":1734783315,"current_range_meters":27600,"station_id":"ce4bhk92rcd13ifvqgc0","pricing_plan_id":"cebpf4jnsgd1na2vs0mg"},{"bike_id":"2c2b9091-7893-41a8-9492-48e2de700e36","system_id":"levelo_inurba_marseille","lat":43.29253,"lon":5.38443,"is_reserved":false,"is_disabled":false,"rental_uris":{"android":"levelo://app?vid=2c2b9091-7893-41a8-9492-48e2de700e36","ios":"levelo://app?vid=2c2b9091-7893-41a8-9492-48e2de700e36"},"vehicle_type_id":"4","last_reported":1734783315,"current_range_meters":5600,"station_id":"ce4bh692rcd13ifvqea0","pricing_plan_id":"cebpf4jnsgd1na2vs0mg"},{"bike_id":"44127e4e-8e84-4a38-89f7-8f4efb63f7a5","system_id":"levelo_inurba_marseille","lat":43.31199,"lon":5.36755,"is_reserved":false,"is_disabled":true,"rental_uris":{"android":"levelo://app?vid=44127e4e-8e84-4a38-89f7-8f4efb63f7a5","ios":"levelo://app?vid=44127e4e-8e84-4a38-89f7-8f4efb63f7a5"},"vehicle_type_id":"4","last_reported":1734783315,"current_range_meters":0,"station_id":"","pricing_plan_id":"cebpf4jnsgd1na2vs0mg"},{"bike_id":"0bca7b98-b363-4b68-a0b0-e3166a62e017","system_id":"levelo_inurba_marseille","lat":43.34145,"lon":5.40907,"is_reserved":false,"is_disabled":false,"rental_uris":{"android":"levelo://app?vid=0bca7b98-b363-4b68-a0b0-e3166a62e017","ios":"levelo://app?vid=0bca7b98-b363-4b68-a0b0-e3166a62e017"},"vehicle_type_id":"4","last_reported":1734783315,"current_range_meters":37600,"station_id":"ce4bhqh2rcd13ifvqhlg","pricing_plan_id":"cebpf4jnsgd1na2vs0mg"},{"bike_id":"63efaa31-84be-426a-b462-d03945a54ee5","system_id":"levelo_inurba_marseille","lat":43.30486,"lon":5.37904,"is_reserved":false,"is_disabled":false,"rental_uris":{"android":"levelo://app?vid=63efaa31-84be-426a-b462-d03945a54ee5","ios":"levelo://app?vid=63efaa31-84be-426a-b462-d03945a54ee5"},"vehicle_type_id":"4","last_reported":1734783315,"current_range_meters":34800,"station_id":"ce4bgup2rcd13ifvqcn0","pricing_plan_id":"cebpf4jnsgd1na2vs0mg"},{"bike_id":"a6636e31-39bd-4556-93c3-9961dd32e085","system_id":"levelo_inurba_marseille","lat":43.2305,"lon":5.3551,"is_reserved":false,"is_disabled":false,"rental_uris":{"android":"levelo://app?vid=a6636e31-39bd-4556-93c3-9961dd32e085","ios":"levelo://app?vid=a6636e31-39bd-4556-93c3-9961dd32e085"},"vehicle_type_id":"4","last_reported":1734783315,"current_range_meters":24800,"station_id":"cpo3342slgdg3j2ifvpg","pricing_plan_id":"cebpf4jnsgd1na2vs0mg"},{"bike_id":"987bc7a3-a46c-4030-b261-756d51e8931b","system_id":"levelo_inurba_marseille","lat":43.27561,"lon":5.38427,"is_reserved":false,"is_disabled":false,"rental_uris":{"android":"levelo://app?vid=987bc7a3-a46c-4030-b261-756d51e8931b","ios":"levelo://app?vid=987bc7a3-a46c-4030-b261-756d51e8931b"},"vehicle_type_id":"4","last_reported":1734783315,"current_range_meters":22000,"station_id":"ce4bhh92rcd13ifvqfi0","pricing_plan_id":"cebpf4jnsgd1na2vs0mg"},{"bike_id":"4c1fd80c-e9fb-42bb-9ee8-77cae5913cbe","system_id":"levelo_inurba_marseille","lat":43.28604,"lon":5.37062,"is_reserved":false,"is_disabled":false,"rental_uris":{"android":"levelo://app?vid=4c1fd80c-e9fb-42bb-9ee8-77cae5913cbe","ios":"levelo://app?vid=4c1fd80c-e9fb-42bb-9ee8-77cae5913cbe"},"vehicle_type_id":"4","last_reported":1734783315,"current_range_meters":32800,"station_id":"ce4bht12rcd13ifvqi60","pricing_plan_id":"cebpf4jnsgd1na2vs0mg"},{"bike_id":"a198e248-41c4-4a27-af7b-34f7a7595000","system_id":"levelo_inurba_marseille","lat":43.299107,"lon":5.374707,"is_reserved":false,"is_disabled":false,"rental_uris":{"android":"levelo://app?vid=a198e248-41c4-4a27-af7b-34f7a7595000","ios":"levelo://app?vid=a198e248-41c4-4a27-af7b-34f7a7595000"},"vehicle_type_id":"4","last_reported":1734783315,"current_range_meters":39200,"station_id":"ce4bgjh2rcd13ifvqbg0","pricing_plan_id":"cebpf4jnsgd1na2vs0mg"},{"bike_id":"b390ed23-507a-4cb3-af1e-381b2c9b98ff","system_id":"levelo_inurba_marseille","lat":43.29189,"lon":5.35795,"is_reserved":false,"is_disabled":false,"rental_uris":{"android":"levelo://app?vid=b390ed23-507a-4cb3-af1e-381b2c9b98ff","ios":"levelo://app?vid=b390ed23-507a-4cb3-af1e-381b2c9b98ff"},"vehicle_type_id":"4","last_reported":1734783315,"current_range_meters":31200,"station_id":"ce4bhb12rcd13ifvqel0","pricing_plan_id":"cebpf4jnsgd1na2vs0mg"},{"bike_id":"6d3e152a-52b7-4e48-8ce9-495072b8eb15","system_id":"levelo_inurba_marseille","lat":43.33015,"lon":5.39036,"is_reserved":false,"is_disabled":false,"rental_uris":{"android":"levelo://app?vid=6d3e152a-52b7-4e48-8ce9-495072b8eb15","ios":"levelo://app?vid=6d3e152a-52b7-4e48-8ce9-495072b8eb15"},"vehicle_type_id":"4","last_reported":1734783315,"current_range_meters":39200,"station_id":"ce4bhr92rcd13ifvqhrg","pricing_plan_id":"cebpf4jnsgd1na2vs0mg"},{"bike_id":"dfcbaf7f-5177-41a2-aa19-4f14caa37646","system_id":"levelo_inurba_marseille","lat":43.286072,"lon":5.370663,"is_reserved":false,"is_disabled":true,"rental_uris":{"android":"levelo://app?vid=dfcbaf7f-5177-41a2-aa19-4f14caa37646","ios":"levelo://app?vid=dfcbaf7f-5177-41a2-aa19-4f14caa37646"},"vehicle_type_id":"4","last_reported":1734783315,"current_range_meters":1600,"station_id":"ce4bht12rcd13ifvqi60","pricing_plan_id":"cebpf4jnsgd1na2vs0mg"},{"bike_id":"87deb113-8599-4d9f-bddd-4f38dcf6cc11","system_id":"levelo_inurba_marseille","lat":43.29731,"lon":5.3769,"is_reserved":false,"is_disabled":false,"rental_uris":{"android":"levelo://app?vid=87deb113-8599-4d9f-bddd-4f38dcf6cc11","ios":"levelo://app?vid=87deb113-8599-4d9f-bddd-4f38dcf6cc11"},"vehicle_type_id":"4","last_reported":1734783315,"current_range_meters":26800,"station_id":"ce4bgkh2rcd13ifvqbl0","pricing_plan_id":"cebpf4jnsgd1na2vs0mg"},{"bike_id":"17c60df6-827e-4b6b-9d22-5f7dd97f7cdf","system_id":"levelo_inurba_marseille","lat":43.29262,"lon":5.3843,"is_reserved":false,"is_disabled":false,"rental_uris":{"android":"levelo://app?vid=17c60df6-827e-4b6b-9d22-5f7dd97f7cdf","ios":"levelo://app?vid=17c60df6-827e-4b6b-9d22-5f7dd97f7cdf"},"vehicle_type_id":"4","last_reported":1734783315,"current_range_meters":10000,"station_id":"ce4bh692rcd13ifvqea0","pricing_plan_id":"cebpf4jnsgd1na2vs0mg"},{"bike_id":"b1eea5e3-1791-41d6-9f7c-7d0696bb370f","system_id":"levelo_inurba_marseille","lat":43.31121,"lon":5.37765,"is_reserved":false,"is_disabled":false,"rental_uris":{"android":"levelo://app?vid=b1eea5e3-1791-41d6-9f7c-7d0696bb370f","ios":"levelo://app?vid=b1eea5e3-1791-41d6-9f7c-7d0696bb370f"},"vehicle_type_id":"4","last_reported":1734783315,"current_range_meters":30800,"station_id":"ce4bgt92rcd13ifvqcg0","pricing_plan_id":"cebpf4jnsgd1na2vs0mg"},{"bike_id":"b2c5d99c-ba16-4c1c-b1a8-cfcbc20ed5ba","system_id":"levelo_inurba_marseille","lat":43.29702,"lon":5.3662,"is_reserved":false,"is_disabled":false,"rental_uris":{"android":"levelo://app?vid=b2c5d99c-ba16-4c1c-b1a8-cfcbc20ed5ba","ios":"levelo://app?vid=b2c5d99c-ba16-4c1c-b1a8-cfcbc20ed5ba"},"vehicle_type_id":"4","last_reported":1734783315,"current_range_meters":30800,"station_id":"ce4bgn12rcd13ifvqbt0","pricing_plan_id":"cebpf4jnsgd1na2vs0mg"},{"bike_id":"64eef866-a209-4a2f-9012-9d37ec9d9b8c","system_id":"levelo_inurba_marseille","lat":43.29362,"lon":5.37859,"is_reserved":false,"is_disabled":false,"rental_uris":{"android":"levelo://app?vid=64eef866-a209-4a2f-9012-9d37ec9d9b8c","ios":"levelo://app?vid=64eef866-a209-4a2f-9012-9d37ec9d9b8c"},"vehicle_type_id":"4","last_reported":1734783315,"current_range_meters":38400,"station_id":"ce4bgjh2rcd13ifvqbf0","pricing_plan_id":"cebpf4jnsgd1na2vs0mg"},{"bike_id":"14dbcb14-abf7-4274-be65-58fb44a8e529","system_id":"levelo_inurba_marseille","lat":43.27422,"lon":5.39415,"is_reserved":false,"is_disabled":false,"rental_uris":{"android":"levelo://app?vid=14dbcb14-abf7-4274-be65-58fb44a8e529","ios":"levelo://app?vid=14dbcb14-abf7-4274-be65-58fb44a8e529"},"vehicle_type_id":"4","last_reported":1734783315,"current_range_meters":36400,"station_id":"ce4bhdp2rcd13ifvqf20","pricing_plan_id":"cebpf4jnsgd1na2vs0mg"},{"bike_id":"7f741c04-ab61-42f2-9fb6-371995662022","system_id":"levelo_inurba_marseille","lat":43.29069,"lon":5.37154,"is_reserved":false,"is_disabled":false,"rental_uris":{"android":"levelo://app?vid=7f741c04-ab61-42f2-9fb6-371995662022","ios":"levelo://app?vid=7f741c04-ab61-42f2-9fb6-371995662022"},"vehicle_type_id":"4","last_reported":1734783315,"current_range_meters":12800,"station_id":"ce4bh5p2rcd13ifvqe4g","pricing_plan_id":"cebpf4jnsgd1na2vs0mg"},{"bike_id":"12eaf598-36ee-45d3-8755-a2911c9877f8","system_id":"levelo_inurba_marseille","lat":43.29608,"lon":5.38108,"is_reserved":false,"is_disabled":false,"rental_uris":{"android":"levelo://app?vid=12eaf598-36ee-45d3-8755-a2911c9877f8","ios":"levelo://app?vid=12eaf598-36ee-45d3-8755-a2911c9877f8"},"vehicle_type_id":"4","last_reported":1734783315,"current_range_meters":24000,"station_id":"ce4bgl12rcd13ifvqbo0","pricing_plan_id":"cebpf4jnsgd1na2vs0mg"},{"bike_id":"81c55f70-3f5b-44f5-82c2-dadd04d937b5","system_id":"levelo_inurba_marseille","lat":43.31118,"lon":5.37777,"is_reserved":false,"is_disabled":false,"rental_uris":{"android":"levelo://app?vid=81c55f70-3f5b-44f5-82c2-dadd04d937b5","ios":"levelo://app?vid=81c55f70-3f5b-44f5-82c2-dadd04d937b5"},"vehicle_type_id":"4","last_reported":1734783315,"current_range_meters":11200,"station_id":"ce4bgt92rcd13ifvqcg0","pricing_plan_id":"cebpf4jnsgd1na2vs0mg"},{"bike_id":"b2a7f13a-9614-4595-a264-2c05c7dda9fd","system_id":"levelo_inurba_marseille","lat":43.26495,"lon":5.39566,"is_reserved":false,"is_disabled":false,"rental_uris":{"android":"levelo://app?vid=b2a7f13a-9614-4595-a264-2c05c7dda9fd","ios":"levelo://app?vid=b2a7f13a-9614-4595-a264-2c05c7dda9fd"},"vehicle_type_id":"4","last_reported":1734783315,"current_range_meters":13600,"station_id":"ce4bhi12rcd13ifvqfq0","pricing_plan_id":"cebpf4jnsgd1na2vs0mg"},{"bike_id":"6367da56-8d65-4978-a9c3-8eb67d6c219f","system_id":"levelo_inurba_marseille","lat":43.29714,"lon":5.36612,"is_reserved":false,"is_disabled":false,"rental_uris":{"android":"levelo://app?vid=6367da56-8d65-4978-a9c3-8eb67d6c219f","ios":"levelo://app?vid=6367da56-8d65-4978-a9c3-8eb67d6c219f"},"vehicle_type_id":"4","last_reported":1734783315,"current_range_meters":27600,"station_id":"ce4bgn12rcd13ifvqbt0","pricing_plan_id":"cebpf4jnsgd1na2vs0mg"},{"bike_id":"d38b4862-6926-4189-b4f3-1ec13d572e87","system_id":"levelo_inurba_marseille","lat":43.27231,"lon":5.39182,"is_reserved":false,"is_disabled":false,"rental_uris":{"android":"levelo://app?vid=d38b4862-6926-4189-b4f3-1ec13d572e87","ios":"levelo://app?vid=d38b4862-6926-4189-b4f3-1ec13d572e87"},"vehicle_type_id":"4","last_reported":1734783315,"current_range_meters":9200,"station_id":"ce4bhhp2rcd13ifvqfm0","pricing_plan_id":"cebpf4jnsgd1na2vs0mg"},{"bike_id":"eeb165cd-0850-4135-b307-a7a2de607d7b","system_id":"levelo_inurba_marseille","lat":43.28609,"lon":5.37066,"is_reserved":false,"is_disabled":false,"rental_uris":{"android":"levelo://app?vid=eeb165cd-0850-4135-b307-a7a2de607d7b","ios":"levelo://app?vid=eeb165cd-0850-4135-b307-a7a2de607d7b"},"vehicle_type_id":"4","last_reported":1734783315,"current_range_meters":38800,"station_id":"ce4bht12rcd13ifvqi60","pricing_plan_id":"cebpf4jnsgd1na2vs0mg"},{"bike_id":"aee9adb9-c0ca-4e0c-b927-b16e072008dd","system_id":"levelo_inurba_marseille","lat":43.29562,"lon":5.37525,"is_reserved":false,"is_disabled":false,"rental_uris":{"android":"levelo://app?vid=aee9adb9-c0ca-4e0c-b927-b16e072008dd","ios":"levelo://app?vid=aee9adb9-c0ca-4e0c-b927-b16e072008dd"},"vehicle_type_id":"4","last_reported":1734783315,"current_range_meters":36800,"station_id":"ce4bgh92rcd13ifvqb50","pricing_plan_id":"cebpf4jnsgd1na2vs0mg"},{"bike_id":"b9de43f9-466b-4982-8259-bb64e199cbcf","system_id":"levelo_inurba_marseille","lat":43.26031,"lon":5.37552,"is_reserved":false,"is_disabled":false,"rental_uris":{"android":"levelo://app?vid=b9de43f9-466b-4982-8259-bb64e199cbcf","ios":"levelo://app?vid=b9de43f9-466b-4982-8259-bb64e199cbcf"},"vehicle_type_id":"4","last_reported":1734783315,"current_range_meters":38000,"station_id":"ce4bhgh2rcd13ifvqfa0","pricing_plan_id":"cebpf4jnsgd1na2vs0mg"},{"bike_id":"38077ad9-646c-4713-bce3-fb4f9d47c809","system_id":"levelo_inurba_marseille","lat":43.31701,"lon":5.37756,"is_reserved":false,"is_disabled":false,"rental_uris":{"android":"levelo://app?vid=38077ad9-646c-4713-bce3-fb4f9d47c809","ios":"levelo://app?vid=38077ad9-646c-4713-bce3-fb4f9d47c809"},"vehicle_type_id":"4","last_reported":1734783315,"current_range_meters":37600,"station_id":"ce4bgth2rcd13ifvqch0","pricing_plan_id":"cebpf4jnsgd1na2vs0mg"},{"bike_id":"c6c8b182-0397-4cc8-ad31-743b7c56031b","system_id":"levelo_inurba_marseille","lat":43.27209,"lon":5.39195,"is_reserved":false,"is_disabled":true,"rental_uris":{"android":"levelo://app?vid=c6c8b182-0397-4cc8-ad31-743b7c56031b","ios":"levelo://app?vid=c6c8b182-0397-4cc8-ad31-743b7c56031b"},"vehicle_type_id":"4","last_reported":1734783315,"current_range_meters":36800,"station_id":"ce4bhhp2rcd13ifvqfm0","pricing_plan_id":"cebpf4jnsgd1na2vs0mg"},{"bike_id":"94c1c9d2-6f7a-4c88-89a9-59d19643bcfa","system_id":"levelo_inurba_marseille","lat":43.3009,"lon":5.39074,"is_reserved":false,"is_disabled":false,"rental_uris":{"android":"levelo://app?vid=94c1c9d2-6f7a-4c88-89a9-59d19643bcfa","ios":"levelo://app?vid=94c1c9d2-6f7a-4c88-89a9-59d19643bcfa"},"vehicle_type_id":"4","last_reported":1734783315,"current_range_meters":35200,"station_id":"ce4bh192rcd13ifvqdb0","pricing_plan_id":"cebpf4jnsgd1na2vs0mg"},{"bike_id":"0ccdf620-eaf4-47f7-bf63-410613d0565f","system_id":"levelo_inurba_marseille","lat":43.30537,"lon":5.36543,"is_reserved":false,"is_disabled":false,"rental_uris":{"android":"levelo://app?vid=0ccdf620-eaf4-47f7-bf63-410613d0565f","ios":"levelo://app?vid=0ccdf620-eaf4-47f7-bf63-410613d0565f"},"vehicle_type_id":"4","last_reported":1734783315,"current_range_meters":34800,"station_id":"ce4bgs12rcd13ifvqcag","pricing_plan_id":"cebpf4jnsgd1na2vs0mg"},{"bike_id":"9f50244a-d38a-491a-9f70-c23a46404b46","system_id":"levelo_inurba_marseille","lat":43.28609,"lon":5.37064,"is_reserved":false,"is_disabled":false,"rental_uris":{"android":"levelo://app?vid=9f50244a-d38a-491a-9f70-c23a46404b46","ios":"levelo://app?vid=9f50244a-d38a-491a-9f70-c23a46404b46"},"vehicle_type_id":"4","last_reported":1734783315,"current_range_meters":38800,"station_id":"ce4bht12rcd13ifvqi60","pricing_plan_id":"cebpf4jnsgd1na2vs0mg"},{"bike_id":"ceb47411-851c-4629-80be-093b3dea2d57","system_id":"levelo_inurba_marseille","lat":43.29566,"lon":5.37514,"is_reserved":false,"is_disabled":false,"rental_uris":{"android":"levelo://app?vid=ceb47411-851c-4629-80be-093b3dea2d57","ios":"levelo://app?vid=ceb47411-851c-4629-80be-093b3dea2d57"},"vehicle_type_id":"4","last_reported":1734783315,"current_range_meters":38800,"station_id":"ce4bgh92rcd13ifvqb50","pricing_plan_id":"cebpf4jnsgd1na2vs0mg"},{"bike_id":"c88c4b0d-8e58-498c-8a16-c07f5bd1c386","system_id":"levelo_inurba_marseille","lat":43.30146,"lon":5.38093,"is_reserved":false,"is_disabled":false,"rental_uris":{"android":"levelo://app?vid=c88c4b0d-8e58-498c-8a16-c07f5bd1c386","ios":"levelo://app?vid=c88c4b0d-8e58-498c-8a16-c07f5bd1c386"},"vehicle_type_id":"4","last_reported":1734783315,"current_range_meters":38800,"station_id":"ce4bgjp2rcd13ifvqbh0","pricing_plan_id":"cebpf4jnsgd1na2vs0mg"},{"bike_id":"7bfdbbd9-4fc8-4c9a-87a6-63b36363280e","system_id":"levelo_inurba_marseille","lat":43.30201,"lon":5.39467,"is_reserved":false,"is_disabled":false,"rental_uris":{"android":"levelo://app?vid=7bfdbbd9-4fc8-4c9a-87a6-63b36363280e","ios":"levelo://app?vid=7bfdbbd9-4fc8-4c9a-87a6-63b36363280e"},"vehicle_type_id":"4","last_reported":1734783315,"current_range_meters":26800,"station_id":"ce4bh0p2rcd13ifvqd70","pricing_plan_id":"cebpf4jnsgd1na2vs0mg"},{"bike_id":"90fbf7b3-3e59-4761-9ba2-48103aa75f60","system_id":"levelo_inurba_marseille","lat":43.29892,"lon":5.43664,"is_reserved":false,"is_disabled":false,"rental_uris":{"android":"levelo://app?vid=90fbf7b3-3e59-4761-9ba2-48103aa75f60","ios":"levelo://app?vid=90fbf7b3-3e59-4761-9ba2-48103aa75f60"},"vehicle_type_id":"4","last_reported":1734783315,"current_range_meters":27200,"station_id":"ce4bhpp2rcd13ifvqhfg","pricing_plan_id":"cebpf4jnsgd1na2vs0mg"},{"bike_id":"a5e52e2f-b92e-41dd-8cab-143b6910bc39","system_id":"levelo_inurba_marseille","lat":43.28714,"lon":5.3794,"is_reserved":false,"is_disabled":false,"rental_uris":{"android":"levelo://app?vid=a5e52e2f-b92e-41dd-8cab-143b6910bc39","ios":"levelo://app?vid=a5e52e2f-b92e-41dd-8cab-143b6910bc39"},"vehicle_type_id":"4","last_reported":1734783315,"current_range_meters":21600,"station_id":"ce4bh9p2rcd13ifvqec0","pricing_plan_id":"cebpf4jnsgd1na2vs0mg"},{"bike_id":"3e76721f-98e4-431f-969b-21f0e57609ec","system_id":"levelo_inurba_marseille","lat":43.24666,"lon":5.38151,"is_reserved":false,"is_disabled":false,"rental_uris":{"android":"levelo://app?vid=3e76721f-98e4-431f-969b-21f0e57609ec","ios":"levelo://app?vid=3e76721f-98e4-431f-969b-21f0e57609ec"},"vehicle_type_id":"4","last_reported":1734783315,"current_range_meters":38800,"station_id":"ce4bhih2rcd13ifvqfr0","pricing_plan_id":"cebpf4jnsgd1na2vs0mg"},{"bike_id":"227b8709-a253-45c2-b4c3-fa7ef48a7c09","system_id":"levelo_inurba_marseille","lat":43.26945,"lon":5.38623,"is_reserved":false,"is_disabled":false,"rental_uris":{"android":"levelo://app?vid=227b8709-a253-45c2-b4c3-fa7ef48a7c09","ios":"levelo://app?vid=227b8709-a253-45c2-b4c3-fa7ef48a7c09"},"vehicle_type_id":"4","last_reported":1734783315,"current_range_meters":33600,"station_id":"ce4bhh92rcd13ifvqfh0","pricing_plan_id":"cebpf4jnsgd1na2vs0mg"},{"bike_id":"bc813bc0-0591-4549-9941-f7db470b8dfb","system_id":"levelo_inurba_marseille","lat":43.31059,"lon":5.38348,"is_reserved":false,"is_disabled":true,"rental_uris":{"android":"levelo://app?vid=bc813bc0-0591-4549-9941-f7db470b8dfb","ios":"levelo://app?vid=bc813bc0-0591-4549-9941-f7db470b8dfb"},"vehicle_type_id":"4","last_reported":1734783315,"current_range_meters":25600,"station_id":"ce4bgv92rcd13ifvqcr0","pricing_plan_id":"cebpf4jnsgd1na2vs0mg"},{"bike_id":"db708a80-a691-437f-a528-0fe6a64a6323","system_id":"levelo_inurba_marseille","lat":43.30101,"lon":5.39063,"is_reserved":false,"is_disabled":false,"rental_uris":{"android":"levelo://app?vid=db708a80-a691-437f-a528-0fe6a64a6323","ios":"levelo://app?vid=db708a80-a691-437f-a528-0fe6a64a6323"},"vehicle_type_id":"4","last_reported":1734783315,"current_range_meters":10800,"station_id":"ce4bh192rcd13ifvqdb0","pricing_plan_id":"cebpf4jnsgd1na2vs0mg"},{"bike_id":"8fb1bad3-a121-4eb1-a55f-687f99cf68d1","system_id":"levelo_inurba_marseille","lat":43.25489,"lon":5.37662,"is_reserved":false,"is_disabled":false,"rental_uris":{"android":"levelo://app?vid=8fb1bad3-a121-4eb1-a55f-687f99cf68d1","ios":"levelo://app?vid=8fb1bad3-a121-4eb1-a55f-687f99cf68d1"},"vehicle_type_id":"4","last_reported":1734783315,"current_range_meters":36800,"station_id":"ce4bhh12rcd13ifvqff0","pricing_plan_id":"cebpf4jnsgd1na2vs0mg"},{"bike_id":"2678b9e7-b887-4244-9b45-06365972f676","system_id":"levelo_inurba_marseille","lat":43.29568,"lon":5.37494,"is_reserved":false,"is_disabled":false,"rental_uris":{"android":"levelo://app?vid=2678b9e7-b887-4244-9b45-06365972f676","ios":"levelo://app?vid=2678b9e7-b887-4244-9b45-06365972f676"},"vehicle_type_id":"4","last_reported":1734783315,"current_range_meters":37600,"station_id":"ce4bgh92rcd13ifvqb50","pricing_plan_id":"cebpf4jnsgd1na2vs0mg"},{"bike_id":"4a6ff7a5-d949-4db1-b4f5-dd651078323e","system_id":"levelo_inurba_marseille","lat":43.23964,"lon":5.36637,"is_reserved":false,"is_disabled":false,"rental_uris":{"android":"levelo://app?vid=4a6ff7a5-d949-4db1-b4f5-dd651078323e","ios":"levelo://app?vid=4a6ff7a5-d949-4db1-b4f5-dd651078323e"},"vehicle_type_id":"4","last_reported":1734783315,"current_range_meters":37600,"station_id":"ce4bhi12rcd13ifvqfp0","pricing_plan_id":"cebpf4jnsgd1na2vs0mg"},{"bike_id":"8dba0256-799b-447d-9451-903975274988","system_id":"levelo_inurba_marseille","lat":43.295685,"lon":5.375414,"is_reserved":false,"is_disabled":false,"rental_uris":{"android":"levelo://app?vid=8dba0256-799b-447d-9451-903975274988","ios":"levelo://app?vid=8dba0256-799b-447d-9451-903975274988"},"vehicle_type_id":"4","last_reported":1734783315,"current_range_meters":32800,"station_id":"ce4bgh92rcd13ifvqb50","pricing_plan_id":"cebpf4jnsgd1na2vs0mg"},{"bike_id":"62c4bf08-2663-4d5f-b5a0-40453d217c52","system_id":"levelo_inurba_marseille","lat":43.26201,"lon":5.37924,"is_reserved":false,"is_disabled":false,"rental_uris":{"android":"levelo://app?vid=62c4bf08-2663-4d5f-b5a0-40453d217c52","ios":"levelo://app?vid=62c4bf08-2663-4d5f-b5a0-40453d217c52"},"vehicle_type_id":"4","last_reported":1734783315,"current_range_meters":36800,"station_id":"ce4bhjp2rcd13ifvqg90","pricing_plan_id":"cebpf4jnsgd1na2vs0mg"},{"bike_id":"108b58f7-795b-4bc3-887e-c514a0a656af","system_id":"levelo_inurba_marseille","lat":43.26929,"lon":5.402553,"is_reserved":false,"is_disabled":false,"rental_uris":{"android":"levelo://app?vid=108b58f7-795b-4bc3-887e-c514a0a656af","ios":"levelo://app?vid=108b58f7-795b-4bc3-887e-c514a0a656af"},"vehicle_type_id":"4","last_reported":1734783315,"current_range_meters":38400,"station_id":"cjm6bp8fraef2m0cb0m0","pricing_plan_id":"cebpf4jnsgd1na2vs0mg"},{"bike_id":"fc4ff347-ef4d-4a4d-ae09-babf618fedb6","system_id":"levelo_inurba_marseille","lat":43.24173,"lon":5.36394,"is_reserved":false,"is_disabled":false,"rental_uris":{"android":"levelo://app?vid=fc4ff347-ef4d-4a4d-ae09-babf618fedb6","ios":"levelo://app?vid=fc4ff347-ef4d-4a4d-ae09-babf618fedb6"},"vehicle_type_id":"4","last_reported":1734783315,"current_range_meters":35600,"station_id":"cpo36qri1sfpv3e86is0","pricing_plan_id":"cebpf4jnsgd1na2vs0mg"},{"bike_id":"4e1c702f-4fec-4a09-a45d-af1848f5ba3b","system_id":"levelo_inurba_marseille","lat":43.2558,"lon":5.38243,"is_reserved":false,"is_disabled":false,"rental_uris":{"android":"levelo://app?vid=4e1c702f-4fec-4a09-a45d-af1848f5ba3b","ios":"levelo://app?vid=4e1c702f-4fec-4a09-a45d-af1848f5ba3b"},"vehicle_type_id":"4","last_reported":1734783315,"current_range_meters":37600,"station_id":"ce4bhih2rcd13ifvqfs0","pricing_plan_id":"cebpf4jnsgd1na2vs0mg"},{"bike_id":"b0ee30b6-ab42-4986-8da9-166fadbc8375","system_id":"levelo_inurba_marseille","lat":43.29276,"lon":5.40125,"is_reserved":false,"is_disabled":false,"rental_uris":{"android":"levelo://app?vid=b0ee30b6-ab42-4986-8da9-166fadbc8375","ios":"levelo://app?vid=b0ee30b6-ab42-4986-8da9-166fadbc8375"},"vehicle_type_id":"4","last_reported":1734783315,"current_range_meters":28400,"station_id":"ce4bh312rcd13ifvqdk0","pricing_plan_id":"cebpf4jnsgd1na2vs0mg"},{"bike_id":"0fa7c283-b845-49a6-b0b1-e1a0116c4f73","system_id":"levelo_inurba_marseille","lat":43.26491,"lon":5.39555,"is_reserved":false,"is_disabled":false,"rental_uris":{"android":"levelo://app?vid=0fa7c283-b845-49a6-b0b1-e1a0116c4f73","ios":"levelo://app?vid=0fa7c283-b845-49a6-b0b1-e1a0116c4f73"},"vehicle_type_id":"4","last_reported":1734783315,"current_range_meters":38800,"station_id":"ce4bhi12rcd13ifvqfq0","pricing_plan_id":"cebpf4jnsgd1na2vs0mg"},{"bike_id":"11f9ede0-b346-400f-a4d9-e09e763a2b21","system_id":"levelo_inurba_marseille","lat":43.27808,"lon":5.40737,"is_reserved":false,"is_disabled":false,"rental_uris":{"android":"levelo://app?vid=11f9ede0-b346-400f-a4d9-e09e763a2b21","ios":"levelo://app?vid=11f9ede0-b346-400f-a4d9-e09e763a2b21"},"vehicle_type_id":"4","last_reported":1734783315,"current_range_meters":38000,"station_id":"ce4bhnh2rcd13ifvqgtg","pricing_plan_id":"cebpf4jnsgd1na2vs0mg"},{"bike_id":"1ee4213f-24d8-43d1-9aa2-82e570b9f575","system_id":"levelo_inurba_marseille","lat":43.29928,"lon":5.37456,"is_reserved":false,"is_disabled":false,"rental_uris":{"android":"levelo://app?vid=1ee4213f-24d8-43d1-9aa2-82e570b9f575","ios":"levelo://app?vid=1ee4213f-24d8-43d1-9aa2-82e570b9f575"},"vehicle_type_id":"4","last_reported":1734783315,"current_range_meters":36400,"station_id":"ce4bgjh2rcd13ifvqbg0","pricing_plan_id":"cebpf4jnsgd1na2vs0mg"},{"bike_id":"3140837c-a9d4-4740-adbf-5d102545d88e","system_id":"levelo_inurba_marseille","lat":43.25716,"lon":5.41113,"is_reserved":false,"is_disabled":false,"rental_uris":{"android":"levelo://app?vid=3140837c-a9d4-4740-adbf-5d102545d88e","ios":"levelo://app?vid=3140837c-a9d4-4740-adbf-5d102545d88e"},"vehicle_type_id":"4","last_reported":1734783315,"current_range_meters":38800,"station_id":"ce4bhkp2rcd13ifvqgd0","pricing_plan_id":"cebpf4jnsgd1na2vs0mg"},{"bike_id":"4695cff2-e8a9-4cfc-a059-a1678fa39cf5","system_id":"levelo_inurba_marseille","lat":43.27809,"lon":5.40719,"is_reserved":false,"is_disabled":false,"rental_uris":{"android":"levelo://app?vid=4695cff2-e8a9-4cfc-a059-a1678fa39cf5","ios":"levelo://app?vid=4695cff2-e8a9-4cfc-a059-a1678fa39cf5"},"vehicle_type_id":"4","last_reported":1734783315,"current_range_meters":27600,"station_id":"ce4bhnh2rcd13ifvqgtg","pricing_plan_id":"cebpf4jnsgd1na2vs0mg"},{"bike_id":"1b0e9d34-71b5-4d2a-8c59-b2701c6566e6","system_id":"levelo_inurba_marseille","lat":43.25498,"lon":5.3765,"is_reserved":false,"is_disabled":false,"rental_uris":{"android":"levelo://app?vid=1b0e9d34-71b5-4d2a-8c59-b2701c6566e6","ios":"levelo://app?vid=1b0e9d34-71b5-4d2a-8c59-b2701c6566e6"},"vehicle_type_id":"4","last_reported":1734783315,"current_range_meters":38800,"station_id":"ce4bhh12rcd13ifvqff0","pricing_plan_id":"cebpf4jnsgd1na2vs0mg"},{"bike_id":"925a18fc-4a82-4f01-8078-fc82223c6dd3","system_id":"levelo_inurba_marseille","lat":43.27423,"lon":5.39416,"is_reserved":false,"is_disabled":false,"rental_uris":{"android":"levelo://app?vid=925a18fc-4a82-4f01-8078-fc82223c6dd3","ios":"levelo://app?vid=925a18fc-4a82-4f01-8078-fc82223c6dd3"},"vehicle_type_id":"4","last_reported":1734783315,"current_range_meters":38400,"station_id":"ce4bhdp2rcd13ifvqf20","pricing_plan_id":"cebpf4jnsgd1na2vs0mg"},{"bike_id":"e3d42cc7-57ef-4460-aa59-56df95b8e11f","system_id":"levelo_inurba_marseille","lat":43.24048,"lon":5.37738,"is_reserved":false,"is_disabled":false,"rental_uris":{"android":"levelo://app?vid=e3d42cc7-57ef-4460-aa59-56df95b8e11f","ios":"levelo://app?vid=e3d42cc7-57ef-4460-aa59-56df95b8e11f"},"vehicle_type_id":"4","last_reported":1734783315,"current_range_meters":26800,"station_id":"ce4bhnp2rcd13ifvqgvg","pricing_plan_id":"cebpf4jnsgd1na2vs0mg"},{"bike_id":"b2011017-3009-4eb7-a4fd-80829563e6b6","system_id":"levelo_inurba_marseille","lat":43.29013,"lon":5.38138,"is_reserved":false,"is_disabled":true,"rental_uris":{"android":"levelo://app?vid=b2011017-3009-4eb7-a4fd-80829563e6b6","ios":"levelo://app?vid=b2011017-3009-4eb7-a4fd-80829563e6b6"},"vehicle_type_id":"4","last_reported":1734783315,"current_range_meters":0,"station_id":"ce4bh4p2rcd13ifvqe1g","pricing_plan_id":"cebpf4jnsgd1na2vs0mg"},{"bike_id":"66bfaf26-e1fc-475c-b75c-ffb29954b6d2","system_id":"levelo_inurba_marseille","lat":43.29002,"lon":5.35609,"is_reserved":false,"is_disabled":false,"rental_uris":{"android":"levelo://app?vid=66bfaf26-e1fc-475c-b75c-ffb29954b6d2","ios":"levelo://app?vid=66bfaf26-e1fc-475c-b75c-ffb29954b6d2"},"vehicle_type_id":"4","last_reported":1734783315,"current_range_meters":25200,"station_id":"ce4bhb92rcd13ifvqen0","pricing_plan_id":"cebpf4jnsgd1na2vs0mg"},{"bike_id":"5cce117c-21f6-4b47-9e6c-5cafdbb81f68","system_id":"levelo_inurba_marseille","lat":43.27356,"lon":5.3624,"is_reserved":false,"is_disabled":false,"rental_uris":{"android":"levelo://app?vid=5cce117c-21f6-4b47-9e6c-5cafdbb81f68","ios":"levelo://app?vid=5cce117c-21f6-4b47-9e6c-5cafdbb81f68"},"vehicle_type_id":"4","last_reported":1734783315,"current_range_meters":27200,"station_id":"ce4bhbh2rcd13ifvqeo0","pricing_plan_id":"cebpf4jnsgd1na2vs0mg"},{"bike_id":"bd23a801-7ebe-4d21-b274-7e6fae8da365","system_id":"levelo_inurba_marseille","lat":43.26521,"lon":5.39047,"is_reserved":false,"is_disabled":false,"rental_uris":{"android":"levelo://app?vid=bd23a801-7ebe-4d21-b274-7e6fae8da365","ios":"levelo://app?vid=bd23a801-7ebe-4d21-b274-7e6fae8da365"},"vehicle_type_id":"4","last_reported":1734783315,"current_range_meters":28000,"station_id":"ce4bhe12rcd13ifvqf30","pricing_plan_id":"cebpf4jnsgd1na2vs0mg"},{"bike_id":"0d08bce9-5500-4f9a-bd1e-c3986914d1bf","system_id":"levelo_inurba_marseille","lat":43.29617,"lon":5.37729,"is_reserved":false,"is_disabled":false,"rental_uris":{"android":"levelo://app?vid=0d08bce9-5500-4f9a-bd1e-c3986914d1bf","ios":"levelo://app?vid=0d08bce9-5500-4f9a-bd1e-c3986914d1bf"},"vehicle_type_id":"4","last_reported":1734783315,"current_range_meters":30800,"station_id":"ce4bgi92rcd13ifvqb90","pricing_plan_id":"cebpf4jnsgd1na2vs0mg"},{"bike_id":"1d4429c2-cca7-4e9d-8d60-3f791d5f5e64","system_id":"levelo_inurba_marseille","lat":43.28416,"lon":5.3499,"is_reserved":false,"is_disabled":false,"rental_uris":{"android":"levelo://app?vid=1d4429c2-cca7-4e9d-8d60-3f791d5f5e64","ios":"levelo://app?vid=1d4429c2-cca7-4e9d-8d60-3f791d5f5e64"},"vehicle_type_id":"4","last_reported":1734783315,"current_range_meters":24000,"station_id":"ce4bhbh2rcd13ifvqepg","pricing_plan_id":"cebpf4jnsgd1na2vs0mg"},{"bike_id":"2a12bde8-ca1e-4ca8-8cbb-8dbf9a638106","system_id":"levelo_inurba_marseille","lat":43.23183,"lon":5.35567,"is_reserved":false,"is_disabled":false,"rental_uris":{"android":"levelo://app?vid=2a12bde8-ca1e-4ca8-8cbb-8dbf9a638106","ios":"levelo://app?vid=2a12bde8-ca1e-4ca8-8cbb-8dbf9a638106"},"vehicle_type_id":"4","last_reported":1734783315,"current_range_meters":21600,"station_id":"ce4bhu92rcd13ifvqi70","pricing_plan_id":"cebpf4jnsgd1na2vs0mg"},{"bike_id":"3344dda6-2a45-445f-8e26-ad5f309ffcdc","system_id":"levelo_inurba_marseille","lat":43.29307,"lon":5.37415,"is_reserved":false,"is_disabled":false,"rental_uris":{"android":"levelo://app?vid=3344dda6-2a45-445f-8e26-ad5f309ffcdc","ios":"levelo://app?vid=3344dda6-2a45-445f-8e26-ad5f309ffcdc"},"vehicle_type_id":"4","last_reported":1734783315,"current_range_meters":25600,"station_id":"ce4bgi12rcd13ifvqb70","pricing_plan_id":"cebpf4jnsgd1na2vs0mg"},{"bike_id":"c4f01ca7-28f1-454d-ba01-b7f6f6e2db1f","system_id":"levelo_inurba_marseille","lat":43.27423,"lon":5.39403,"is_reserved":false,"is_disabled":false,"rental_uris":{"android":"levelo://app?vid=c4f01ca7-28f1-454d-ba01-b7f6f6e2db1f","ios":"levelo://app?vid=c4f01ca7-28f1-454d-ba01-b7f6f6e2db1f"},"vehicle_type_id":"4","last_reported":1734783315,"current_range_meters":39200,"station_id":"ce4bhdp2rcd13ifvqf20","pricing_plan_id":"cebpf4jnsgd1na2vs0mg"},{"bike_id":"fdc8cf9c-8e99-4365-a64b-10ec6fd20345","system_id":"levelo_inurba_marseille","lat":43.24385,"lon":5.37061,"is_reserved":false,"is_disabled":false,"rental_uris":{"android":"levelo://app?vid=fdc8cf9c-8e99-4365-a64b-10ec6fd20345","ios":"levelo://app?vid=fdc8cf9c-8e99-4365-a64b-10ec6fd20345"},"vehicle_type_id":"4","last_reported":1734783315,"current_range_meters":38800,"station_id":"ce4bhhh2rcd13ifvqfk0","pricing_plan_id":"cebpf4jnsgd1na2vs0mg"},{"bike_id":"36badda0-1954-47df-91ee-949289cccb32","system_id":"levelo_inurba_marseille","lat":43.28848,"lon":5.39324,"is_reserved":false,"is_disabled":false,"rental_uris":{"android":"levelo://app?vid=36badda0-1954-47df-91ee-949289cccb32","ios":"levelo://app?vid=36badda0-1954-47df-91ee-949289cccb32"},"vehicle_type_id":"4","last_reported":1734783315,"current_range_meters":30400,"station_id":"ce4bh2p2rcd13ifvqdi0","pricing_plan_id":"cebpf4jnsgd1na2vs0mg"},{"bike_id":"f0bcbb45-555d-4c5b-8534-084b0fafc4e9","system_id":"levelo_inurba_marseille","lat":43.29159,"lon":5.37147,"is_reserved":false,"is_disabled":true,"rental_uris":{"android":"levelo://app?vid=f0bcbb45-555d-4c5b-8534-084b0fafc4e9","ios":"levelo://app?vid=f0bcbb45-555d-4c5b-8534-084b0fafc4e9"},"vehicle_type_id":"4","last_reported":1734783315,"current_range_meters":38800,"station_id":"ce4bha92rcd13ifvqeh0","pricing_plan_id":"cebpf4jnsgd1na2vs0mg"},{"bike_id":"221f60b7-ae9c-4b01-b4d2-a7f4f54d46eb","system_id":"levelo_inurba_marseille","lat":43.28945,"lon":5.36373,"is_reserved":false,"is_disabled":false,"rental_uris":{"android":"levelo://app?vid=221f60b7-ae9c-4b01-b4d2-a7f4f54d46eb","ios":"levelo://app?vid=221f60b7-ae9c-4b01-b4d2-a7f4f54d46eb"},"vehicle_type_id":"4","last_reported":1734783315,"current_range_meters":36400,"station_id":"ce4bhc92rcd13ifvqetg","pricing_plan_id":"cebpf4jnsgd1na2vs0mg"},{"bike_id":"0d97fe76-08b3-4fe5-94cd-e3771b17b56e","system_id":"levelo_inurba_marseille","lat":43.25081,"lon":5.3952,"is_reserved":false,"is_disabled":false,"rental_uris":{"android":"levelo://app?vid=0d97fe76-08b3-4fe5-94cd-e3771b17b56e","ios":"levelo://app?vid=0d97fe76-08b3-4fe5-94cd-e3771b17b56e"},"vehicle_type_id":"4","last_reported":1734783315,"current_range_meters":20000,"station_id":"ce4bhm12rcd13ifvqgkg","pricing_plan_id":"cebpf4jnsgd1na2vs0mg"},{"bike_id":"b002d028-e42c-46e2-93ce-a18a7a90546e","system_id":"levelo_inurba_marseille","lat":43.32284,"lon":5.38285,"is_reserved":false,"is_disabled":false,"rental_uris":{"android":"levelo://app?vid=b002d028-e42c-46e2-93ce-a18a7a90546e","ios":"levelo://app?vid=b002d028-e42c-46e2-93ce-a18a7a90546e"},"vehicle_type_id":"4","last_reported":1734783315,"current_range_meters":13600,"station_id":"ce4bhr12rcd13ifvqhqg","pricing_plan_id":"cebpf4jnsgd1na2vs0mg"},{"bike_id":"71992de3-9ce0-484e-8d89-22c34323813f","system_id":"levelo_inurba_marseille","lat":43.29303,"lon":5.37167,"is_reserved":false,"is_disabled":false,"rental_uris":{"android":"levelo://app?vid=71992de3-9ce0-484e-8d89-22c34323813f","ios":"levelo://app?vid=71992de3-9ce0-484e-8d89-22c34323813f"},"vehicle_type_id":"4","last_reported":1734783315,"current_range_meters":37600,"station_id":"ce4bgh92rcd13ifvqb40","pricing_plan_id":"cebpf4jnsgd1na2vs0mg"},{"bike_id":"e2ef8f12-3442-417e-9b2a-9c202d99979b","system_id":"levelo_inurba_marseille","lat":43.28917,"lon":5.3662,"is_reserved":false,"is_disabled":false,"rental_uris":{"android":"levelo://app?vid=e2ef8f12-3442-417e-9b2a-9c202d99979b","ios":"levelo://app?vid=e2ef8f12-3442-417e-9b2a-9c202d99979b"},"vehicle_type_id":"4","last_reported":1734783315,"current_range_meters":34000,"station_id":"ce4bhap2rcd13ifvqek0","pricing_plan_id":"cebpf4jnsgd1na2vs0mg"},{"bike_id":"5c592034-129f-414d-85e6-d92c74cda9ed","system_id":"levelo_inurba_marseille","lat":43.29572,"lon":5.37515,"is_reserved":false,"is_disabled":false,"rental_uris":{"android":"levelo://app?vid=5c592034-129f-414d-85e6-d92c74cda9ed","ios":"levelo://app?vid=5c592034-129f-414d-85e6-d92c74cda9ed"},"vehicle_type_id":"4","last_reported":1734783315,"current_range_meters":36800,"station_id":"ce4bgh92rcd13ifvqb50","pricing_plan_id":"cebpf4jnsgd1na2vs0mg"},{"bike_id":"965a29b8-109a-4fa5-9aa2-7ef2f9d86a00","system_id":"levelo_inurba_marseille","lat":43.29363,"lon":5.37823,"is_reserved":false,"is_disabled":false,"rental_uris":{"android":"levelo://app?vid=965a29b8-109a-4fa5-9aa2-7ef2f9d86a00","ios":"levelo://app?vid=965a29b8-109a-4fa5-9aa2-7ef2f9d86a00"},"vehicle_type_id":"4","last_reported":1734783315,"current_range_meters":24800,"station_id":"ce4bgjh2rcd13ifvqbf0","pricing_plan_id":"cebpf4jnsgd1na2vs0mg"},{"bike_id":"4094ac40-fe97-4483-91f4-bc4b6a97b4f3","system_id":"levelo_inurba_marseille","lat":43.25833,"lon":5.39439,"is_reserved":false,"is_disabled":false,"rental_uris":{"android":"levelo://app?vid=4094ac40-fe97-4483-91f4-bc4b6a97b4f3","ios":"levelo://app?vid=4094ac40-fe97-4483-91f4-bc4b6a97b4f3"},"vehicle_type_id":"4","last_reported":1734783315,"current_range_meters":6400,"station_id":"ce4bhip2rcd13ifvqft0","pricing_plan_id":"cebpf4jnsgd1na2vs0mg"},{"bike_id":"b44f9236-c33f-43b3-ab7e-0f32e9951c9e","system_id":"levelo_inurba_marseille","lat":43.23187,"lon":5.35558,"is_reserved":false,"is_disabled":false,"rental_uris":{"android":"levelo://app?vid=b44f9236-c33f-43b3-ab7e-0f32e9951c9e","ios":"levelo://app?vid=b44f9236-c33f-43b3-ab7e-0f32e9951c9e"},"vehicle_type_id":"4","last_reported":1734783315,"current_range_meters":36800,"station_id":"ce4bhu92rcd13ifvqi70","pricing_plan_id":"cebpf4jnsgd1na2vs0mg"},{"bike_id":"83571daf-4df4-4c30-875e-3631c985fa1d","system_id":"levelo_inurba_marseille","lat":43.29842,"lon":5.36266,"is_reserved":false,"is_disabled":false,"rental_uris":{"android":"levelo://app?vid=83571daf-4df4-4c30-875e-3631c985fa1d","ios":"levelo://app?vid=83571daf-4df4-4c30-875e-3631c985fa1d"},"vehicle_type_id":"4","last_reported":1734783315,"current_range_meters":37600,"station_id":"ce4bgpp2rcd13ifvqc3g","pricing_plan_id":"cebpf4jnsgd1na2vs0mg"},{"bike_id":"c4c3354a-8480-4203-8e75-c773ecbdc04d","system_id":"levelo_inurba_marseille","lat":43.30272,"lon":5.37714,"is_reserved":false,"is_disabled":false,"rental_uris":{"android":"levelo://app?vid=c4c3354a-8480-4203-8e75-c773ecbdc04d","ios":"levelo://app?vid=c4c3354a-8480-4203-8e75-c773ecbdc04d"},"vehicle_type_id":"4","last_reported":1734783315,"current_range_meters":34800,"station_id":"ce4bguh2rcd13ifvqcj0","pricing_plan_id":"cebpf4jnsgd1na2vs0mg"},{"bike_id":"9becddea-ecbc-4149-89d1-f1de80737443","system_id":"levelo_inurba_marseille","lat":43.2668,"lon":5.38268,"is_reserved":false,"is_disabled":false,"rental_uris":{"android":"levelo://app?vid=9becddea-ecbc-4149-89d1-f1de80737443","ios":"levelo://app?vid=9becddea-ecbc-4149-89d1-f1de80737443"},"vehicle_type_id":"4","last_reported":1734783315,"current_range_meters":36000,"station_id":"ce4bhg92rcd13ifvqf90","pricing_plan_id":"cebpf4jnsgd1na2vs0mg"},{"bike_id":"b73b3cc8-26fa-4032-8e99-f74b6ff40c2a","system_id":"levelo_inurba_marseille","lat":43.27004,"lon":5.40223,"is_reserved":false,"is_disabled":false,"rental_uris":{"android":"levelo://app?vid=b73b3cc8-26fa-4032-8e99-f74b6ff40c2a","ios":"levelo://app?vid=b73b3cc8-26fa-4032-8e99-f74b6ff40c2a"},"vehicle_type_id":"4","last_reported":1734783315,"current_range_meters":20400,"station_id":"","pricing_plan_id":"cebpf4jnsgd1na2vs0mg"},{"bike_id":"db122134-c31b-4a82-9b05-bda39f6fec31","system_id":"levelo_inurba_marseille","lat":43.24664,"lon":5.38152,"is_reserved":false,"is_disabled":false,"rental_uris":{"android":"levelo://app?vid=db122134-c31b-4a82-9b05-bda39f6fec31","ios":"levelo://app?vid=db122134-c31b-4a82-9b05-bda39f6fec31"},"vehicle_type_id":"4","last_reported":1734783315,"current_range_meters":36800,"station_id":"ce4bhih2rcd13ifvqfr0","pricing_plan_id":"cebpf4jnsgd1na2vs0mg"},{"bike_id":"32ebf098-e002-4aa6-88f7-5b365ee05e11","system_id":"levelo_inurba_marseille","lat":43.24079,"lon":5.37744,"is_reserved":false,"is_disabled":false,"rental_uris":{"android":"levelo://app?vid=32ebf098-e002-4aa6-88f7-5b365ee05e11","ios":"levelo://app?vid=32ebf098-e002-4aa6-88f7-5b365ee05e11"},"vehicle_type_id":"4","last_reported":1734783315,"current_range_meters":2800,"station_id":"ce4bhnp2rcd13ifvqgvg","pricing_plan_id":"cebpf4jnsgd1na2vs0mg"},{"bike_id":"3798593a-5b27-4be0-a19d-ee53a8d97020","system_id":"levelo_inurba_marseille","lat":43.26561,"lon":5.39014,"is_reserved":false,"is_disabled":false,"rental_uris":{"android":"levelo://app?vid=3798593a-5b27-4be0-a19d-ee53a8d97020","ios":"levelo://app?vid=3798593a-5b27-4be0-a19d-ee53a8d97020"},"vehicle_type_id":"4","last_reported":1734783315,"current_range_meters":18000,"station_id":"ce4bhe12rcd13ifvqf30","pricing_plan_id":"cebpf4jnsgd1na2vs0mg"},{"bike_id":"4b7afde9-10fb-4c99-9992-7cd53645a008","system_id":"levelo_inurba_marseille","lat":43.29617,"lon":5.37705,"is_reserved":false,"is_disabled":false,"rental_uris":{"android":"levelo://app?vid=4b7afde9-10fb-4c99-9992-7cd53645a008","ios":"levelo://app?vid=4b7afde9-10fb-4c99-9992-7cd53645a008"},"vehicle_type_id":"4","last_reported":1734783315,"current_range_meters":38800,"station_id":"ce4bgi92rcd13ifvqb90","pricing_plan_id":"cebpf4jnsgd1na2vs0mg"},{"bike_id":"340176cf-9cb6-45f2-b9d2-db07d33365b3","system_id":"levelo_inurba_marseille","lat":43.29619,"lon":5.37724,"is_reserved":false,"is_disabled":false,"rental_uris":{"android":"levelo://app?vid=340176cf-9cb6-45f2-b9d2-db07d33365b3","ios":"levelo://app?vid=340176cf-9cb6-45f2-b9d2-db07d33365b3"},"vehicle_type_id":"4","last_reported":1734783315,"current_range_meters":30800,"station_id":"ce4bgi92rcd13ifvqb90","pricing_plan_id":"cebpf4jnsgd1na2vs0mg"},{"bike_id":"a4cdc68d-9a41-489e-9b1d-3577a4e39cb2","system_id":"levelo_inurba_marseille","lat":43.31722,"lon":5.42407,"is_reserved":false,"is_disabled":false,"rental_uris":{"android":"levelo://app?vid=a4cdc68d-9a41-489e-9b1d-3577a4e39cb2","ios":"levelo://app?vid=a4cdc68d-9a41-489e-9b1d-3577a4e39cb2"},"vehicle_type_id":"4","last_reported":1734783315,"current_range_meters":38800,"station_id":"ce4bhp92rcd13ifvqhbg","pricing_plan_id":"cebpf4jnsgd1na2vs0mg"},{"bike_id":"575a1b12-9fe6-41cc-a647-57720183f8a1","system_id":"levelo_inurba_marseille","lat":43.29978,"lon":5.37189,"is_reserved":false,"is_disabled":false,"rental_uris":{"android":"levelo://app?vid=575a1b12-9fe6-41cc-a647-57720183f8a1","ios":"levelo://app?vid=575a1b12-9fe6-41cc-a647-57720183f8a1"},"vehicle_type_id":"4","last_reported":1734783315,"current_range_meters":37600,"station_id":"ce4bgr92rcd13ifvqc7g","pricing_plan_id":"cebpf4jnsgd1na2vs0mg"},{"bike_id":"61bd45b4-bece-42b5-80d4-864f70786968","system_id":"levelo_inurba_marseille","lat":43.28604,"lon":5.3511,"is_reserved":false,"is_disabled":false,"rental_uris":{"android":"levelo://app?vid=61bd45b4-bece-42b5-80d4-864f70786968","ios":"levelo://app?vid=61bd45b4-bece-42b5-80d4-864f70786968"},"vehicle_type_id":"4","last_reported":1734783315,"current_range_meters":38400,"station_id":"ce4bhch2rcd13ifvqeug","pricing_plan_id":"cebpf4jnsgd1na2vs0mg"},{"bike_id":"ba623d7f-de4d-43e6-9a39-be19938e75fb","system_id":"levelo_inurba_marseille","lat":43.29378,"lon":5.37852,"is_reserved":false,"is_disabled":true,"rental_uris":{"android":"levelo://app?vid=ba623d7f-de4d-43e6-9a39-be19938e75fb","ios":"levelo://app?vid=ba623d7f-de4d-43e6-9a39-be19938e75fb"},"vehicle_type_id":"4","last_reported":1734783315,"current_range_meters":37600,"station_id":"","pricing_plan_id":"cebpf4jnsgd1na2vs0mg"},{"bike_id":"e66ede9e-6d3f-45d8-8f35-600ac0cd60c8","system_id":"levelo_inurba_marseille","lat":43.29782,"lon":5.37101,"is_reserved":false,"is_disabled":false,"rental_uris":{"android":"levelo://app?vid=e66ede9e-6d3f-45d8-8f35-600ac0cd60c8","ios":"levelo://app?vid=e66ede9e-6d3f-45d8-8f35-600ac0cd60c8"},"vehicle_type_id":"4","last_reported":1734783315,"current_range_meters":34800,"station_id":"ce4bgop2rcd13ifvqc1g","pricing_plan_id":"cebpf4jnsgd1na2vs0mg"},{"bike_id":"00c6460d-0463-404f-ba04-3266a5d0bb0f","system_id":"levelo_inurba_marseille","lat":43.29909,"lon":5.38143,"is_reserved":false,"is_disabled":false,"rental_uris":{"android":"levelo://app?vid=00c6460d-0463-404f-ba04-3266a5d0bb0f","ios":"levelo://app?vid=00c6460d-0463-404f-ba04-3266a5d0bb0f"},"vehicle_type_id":"4","last_reported":1734783315,"current_range_meters":26000,"station_id":"ce4bgj12rcd13ifvqbc0","pricing_plan_id":"cebpf4jnsgd1na2vs0mg"},{"bike_id":"eb66acd5-ad04-42f2-8460-25bae4cd3515","system_id":"levelo_inurba_marseille","lat":43.3027,"lon":5.37716,"is_reserved":false,"is_disabled":false,"rental_uris":{"android":"levelo://app?vid=eb66acd5-ad04-42f2-8460-25bae4cd3515","ios":"levelo://app?vid=eb66acd5-ad04-42f2-8460-25bae4cd3515"},"vehicle_type_id":"4","last_reported":1734783315,"current_range_meters":38800,"station_id":"ce4bguh2rcd13ifvqcj0","pricing_plan_id":"cebpf4jnsgd1na2vs0mg"},{"bike_id":"caa28317-677f-4684-8cc6-46932db162b9","system_id":"levelo_inurba_marseille","lat":43.27813,"lon":5.40718,"is_reserved":false,"is_disabled":false,"rental_uris":{"android":"levelo://app?vid=caa28317-677f-4684-8cc6-46932db162b9","ios":"levelo://app?vid=caa28317-677f-4684-8cc6-46932db162b9"},"vehicle_type_id":"4","last_reported":1734783315,"current_range_meters":17200,"station_id":"ce4bhnh2rcd13ifvqgtg","pricing_plan_id":"cebpf4jnsgd1na2vs0mg"},{"bike_id":"d7a9a039-2919-4498-94bc-85df69bbf9b4","system_id":"levelo_inurba_marseille","lat":43.25073,"lon":5.39511,"is_reserved":false,"is_disabled":true,"rental_uris":{"android":"levelo://app?vid=d7a9a039-2919-4498-94bc-85df69bbf9b4","ios":"levelo://app?vid=d7a9a039-2919-4498-94bc-85df69bbf9b4"},"vehicle_type_id":"4","last_reported":1734783315,"current_range_meters":0,"station_id":"ce4bhm12rcd13ifvqgkg","pricing_plan_id":"cebpf4jnsgd1na2vs0mg"},{"bike_id":"f6e00a83-cc1f-4aaf-83bb-77e9d3b9e809","system_id":"levelo_inurba_marseille","lat":43.337444,"lon":5.374475,"is_reserved":false,"is_disabled":false,"rental_uris":{"android":"levelo://app?vid=f6e00a83-cc1f-4aaf-83bb-77e9d3b9e809","ios":"levelo://app?vid=f6e00a83-cc1f-4aaf-83bb-77e9d3b9e809"},"vehicle_type_id":"4","last_reported":1734783315,"current_range_meters":28800,"station_id":"","pricing_plan_id":"cebpf4jnsgd1na2vs0mg"},{"bike_id":"7d1b96ea-46ee-455b-a275-7a36e20b7a8b","system_id":"levelo_inurba_marseille","lat":43.30091,"lon":5.39094,"is_reserved":false,"is_disabled":true,"rental_uris":{"android":"levelo://app?vid=7d1b96ea-46ee-455b-a275-7a36e20b7a8b","ios":"levelo://app?vid=7d1b96ea-46ee-455b-a275-7a36e20b7a8b"},"vehicle_type_id":"4","last_reported":1734783315,"current_range_meters":0,"station_id":"ce4bh192rcd13ifvqdb0","pricing_plan_id":"cebpf4jnsgd1na2vs0mg"},{"bike_id":"68b460df-664b-446f-babd-61031d523980","system_id":"levelo_inurba_marseille","lat":43.29959,"lon":5.3851,"is_reserved":false,"is_disabled":false,"rental_uris":{"android":"levelo://app?vid=68b460df-664b-446f-babd-61031d523980","ios":"levelo://app?vid=68b460df-664b-446f-babd-61031d523980"},"vehicle_type_id":"4","last_reported":1734783315,"current_range_meters":38800,"station_id":"ce4bgj92rcd13ifvqbd0","pricing_plan_id":"cebpf4jnsgd1na2vs0mg"},{"bike_id":"f957ffa3-7b76-4b18-bb62-81627d313cf8","system_id":"levelo_inurba_marseille","lat":43.231925,"lon":5.355544,"is_reserved":false,"is_disabled":false,"rental_uris":{"android":"levelo://app?vid=f957ffa3-7b76-4b18-bb62-81627d313cf8","ios":"levelo://app?vid=f957ffa3-7b76-4b18-bb62-81627d313cf8"},"vehicle_type_id":"4","last_reported":1734783315,"current_range_meters":26000,"station_id":"ce4bhu92rcd13ifvqi70","pricing_plan_id":"cebpf4jnsgd1na2vs0mg"},{"bike_id":"0cdeb5ae-e150-4be6-8d10-6efe3b25250b","system_id":"levelo_inurba_marseille","lat":43.2956,"lon":5.42277,"is_reserved":false,"is_disabled":false,"rental_uris":{"android":"levelo://app?vid=0cdeb5ae-e150-4be6-8d10-6efe3b25250b","ios":"levelo://app?vid=0cdeb5ae-e150-4be6-8d10-6efe3b25250b"},"vehicle_type_id":"4","last_reported":1734783315,"current_range_meters":10000,"station_id":"ce4bhph2rcd13ifvqhdg","pricing_plan_id":"cebpf4jnsgd1na2vs0mg"},{"bike_id":"f997fe75-dd31-4a27-9495-6bcebc2f472d","system_id":"levelo_inurba_marseille","lat":43.28468,"lon":5.38426,"is_reserved":false,"is_disabled":false,"rental_uris":{"android":"levelo://app?vid=f997fe75-dd31-4a27-9495-6bcebc2f472d","ios":"levelo://app?vid=f997fe75-dd31-4a27-9495-6bcebc2f472d"},"vehicle_type_id":"4","last_reported":1734783315,"current_range_meters":20000,"station_id":"ce4bh512rcd13ifvqe3g","pricing_plan_id":"cebpf4jnsgd1na2vs0mg"},{"bike_id":"1313c1bc-e64b-4dcc-afd4-7fc087fdbf7f","system_id":"levelo_inurba_marseille","lat":43.3013,"lon":5.3878,"is_reserved":false,"is_disabled":false,"rental_uris":{"android":"levelo://app?vid=1313c1bc-e64b-4dcc-afd4-7fc087fdbf7f","ios":"levelo://app?vid=1313c1bc-e64b-4dcc-afd4-7fc087fdbf7f"},"vehicle_type_id":"4","last_reported":1734783315,"current_range_meters":37600,"station_id":"ce4bghh2rcd13ifvqb60","pricing_plan_id":"cebpf4jnsgd1na2vs0mg"},{"bike_id":"8d23ef1c-4d80-41f5-8856-02b6ab55c880","system_id":"levelo_inurba_marseille","lat":43.33727,"lon":5.39182,"is_reserved":false,"is_disabled":false,"rental_uris":{"android":"levelo://app?vid=8d23ef1c-4d80-41f5-8856-02b6ab55c880","ios":"levelo://app?vid=8d23ef1c-4d80-41f5-8856-02b6ab55c880"},"vehicle_type_id":"4","last_reported":1734783315,"current_range_meters":36000,"station_id":"ce4bhr92rcd13ifvqhsg","pricing_plan_id":"cebpf4jnsgd1na2vs0mg"},{"bike_id":"273828d0-ad53-4df1-ab71-8bd58cada311","system_id":"levelo_inurba_marseille","lat":43.231879,"lon":5.39986,"is_reserved":false,"is_disabled":false,"rental_uris":{"android":"levelo://app?vid=273828d0-ad53-4df1-ab71-8bd58cada311","ios":"levelo://app?vid=273828d0-ad53-4df1-ab71-8bd58cada311"},"vehicle_type_id":"4","last_reported":1734783315,"current_range_meters":12800,"station_id":"ce4bhn12rcd13ifvqgqg","pricing_plan_id":"cebpf4jnsgd1na2vs0mg"},{"bike_id":"bc3230d4-c5dd-4006-a1a1-75a048a6a931","system_id":"levelo_inurba_marseille","lat":43.28195,"lon":5.38296,"is_reserved":false,"is_disabled":false,"rental_uris":{"android":"levelo://app?vid=bc3230d4-c5dd-4006-a1a1-75a048a6a931","ios":"levelo://app?vid=bc3230d4-c5dd-4006-a1a1-75a048a6a931"},"vehicle_type_id":"4","last_reported":1734783315,"current_range_meters":35200,"station_id":"","pricing_plan_id":"cebpf4jnsgd1na2vs0mg"},{"bike_id":"29666aa4-269c-46ca-8ed0-7ecc022f915c","system_id":"levelo_inurba_marseille","lat":43.29514,"lon":5.37513,"is_reserved":false,"is_disabled":false,"rental_uris":{"android":"levelo://app?vid=29666aa4-269c-46ca-8ed0-7ecc022f915c","ios":"levelo://app?vid=29666aa4-269c-46ca-8ed0-7ecc022f915c"},"vehicle_type_id":"4","last_reported":1734783315,"current_range_meters":14800,"station_id":"ce4bgkp2rcd13ifvqbmg","pricing_plan_id":"cebpf4jnsgd1na2vs0mg"},{"bike_id":"d60d8232-4a96-492d-9348-9c3d8bdfda03","system_id":"levelo_inurba_marseille","lat":43.29843,"lon":5.36271,"is_reserved":false,"is_disabled":false,"rental_uris":{"android":"levelo://app?vid=d60d8232-4a96-492d-9348-9c3d8bdfda03","ios":"levelo://app?vid=d60d8232-4a96-492d-9348-9c3d8bdfda03"},"vehicle_type_id":"4","last_reported":1734783315,"current_range_meters":38800,"station_id":"ce4bgpp2rcd13ifvqc3g","pricing_plan_id":"cebpf4jnsgd1na2vs0mg"},{"bike_id":"0365d627-bfc5-459b-8305-c5938b939cbe","system_id":"levelo_inurba_marseille","lat":43.2692,"lon":5.38946,"is_reserved":false,"is_disabled":false,"rental_uris":{"android":"levelo://app?vid=0365d627-bfc5-459b-8305-c5938b939cbe","ios":"levelo://app?vid=0365d627-bfc5-459b-8305-c5938b939cbe"},"vehicle_type_id":"4","last_reported":1734783315,"current_range_meters":27600,"station_id":"ce4bhhh2rcd13ifvqfl0","pricing_plan_id":"cebpf4jnsgd1na2vs0mg"},{"bike_id":"fa9a7d0e-d330-4c4d-8939-d09e0d83f11b","system_id":"levelo_inurba_marseille","lat":43.32544,"lon":5.41444,"is_reserved":false,"is_disabled":false,"rental_uris":{"android":"levelo://app?vid=fa9a7d0e-d330-4c4d-8939-d09e0d83f11b","ios":"levelo://app?vid=fa9a7d0e-d330-4c4d-8939-d09e0d83f11b"},"vehicle_type_id":"4","last_reported":1734783315,"current_range_meters":38000,"station_id":"ce4bhq12rcd13ifvqhhg","pricing_plan_id":"cebpf4jnsgd1na2vs0mg"},{"bike_id":"cb91b326-16a3-458d-97e2-238f2be05f3d","system_id":"levelo_inurba_marseille","lat":43.29567,"lon":5.37509,"is_reserved":false,"is_disabled":false,"rental_uris":{"android":"levelo://app?vid=cb91b326-16a3-458d-97e2-238f2be05f3d","ios":"levelo://app?vid=cb91b326-16a3-458d-97e2-238f2be05f3d"},"vehicle_type_id":"4","last_reported":1734783315,"current_range_meters":21600,"station_id":"ce4bgh92rcd13ifvqb50","pricing_plan_id":"cebpf4jnsgd1na2vs0mg"},{"bike_id":"b6cab1db-ac7c-4f33-9ce4-ae3051f9034c","system_id":"levelo_inurba_marseille","lat":43.30575,"lon":5.39365,"is_reserved":false,"is_disabled":false,"rental_uris":{"android":"levelo://app?vid=b6cab1db-ac7c-4f33-9ce4-ae3051f9034c","ios":"levelo://app?vid=b6cab1db-ac7c-4f33-9ce4-ae3051f9034c"},"vehicle_type_id":"4","last_reported":1734783315,"current_range_meters":38000,"station_id":"ce4bh0p2rcd13ifvqd80","pricing_plan_id":"cebpf4jnsgd1na2vs0mg"},{"bike_id":"bffdb595-5ef9-4fbb-b316-887b15202198","system_id":"levelo_inurba_marseille","lat":43.28278,"lon":5.35092,"is_reserved":false,"is_disabled":false,"rental_uris":{"android":"levelo://app?vid=bffdb595-5ef9-4fbb-b316-887b15202198","ios":"levelo://app?vid=bffdb595-5ef9-4fbb-b316-887b15202198"},"vehicle_type_id":"4","last_reported":1734783315,"current_range_meters":38800,"station_id":"ce4bhbp2rcd13ifvqerg","pricing_plan_id":"cebpf4jnsgd1na2vs0mg"},{"bike_id":"c336b168-28cf-4721-927a-b9b2a5924b55","system_id":"levelo_inurba_marseille","lat":43.30173,"lon":5.36616,"is_reserved":false,"is_disabled":false,"rental_uris":{"android":"levelo://app?vid=c336b168-28cf-4721-927a-b9b2a5924b55","ios":"levelo://app?vid=c336b168-28cf-4721-927a-b9b2a5924b55"},"vehicle_type_id":"4","last_reported":1734783315,"current_range_meters":11200,"station_id":"ce4bgrh2rcd13ifvqc8g","pricing_plan_id":"cebpf4jnsgd1na2vs0mg"},{"bike_id":"646232ca-85af-4543-9491-77ec5822ec23","system_id":"levelo_inurba_marseille","lat":43.29855,"lon":5.3625,"is_reserved":false,"is_disabled":false,"rental_uris":{"android":"levelo://app?vid=646232ca-85af-4543-9491-77ec5822ec23","ios":"levelo://app?vid=646232ca-85af-4543-9491-77ec5822ec23"},"vehicle_type_id":"4","last_reported":1734783315,"current_range_meters":38000,"station_id":"ce4bgpp2rcd13ifvqc3g","pricing_plan_id":"cebpf4jnsgd1na2vs0mg"},{"bike_id":"7add3386-bf2e-4d6f-affd-ac1e67612673","system_id":"levelo_inurba_marseille","lat":43.30926,"lon":5.40142,"is_reserved":false,"is_disabled":false,"rental_uris":{"android":"levelo://app?vid=7add3386-bf2e-4d6f-affd-ac1e67612673","ios":"levelo://app?vid=7add3386-bf2e-4d6f-affd-ac1e67612673"},"vehicle_type_id":"4","last_reported":1734783315,"current_range_meters":24800,"station_id":"ce4bgvp2rcd13ifvqct0","pricing_plan_id":"cebpf4jnsgd1na2vs0mg"},{"bike_id":"723b635c-d72a-47a0-a994-f42fb93169c7","system_id":"levelo_inurba_marseille","lat":43.29737,"lon":5.3768,"is_reserved":false,"is_disabled":false,"rental_uris":{"android":"levelo://app?vid=723b635c-d72a-47a0-a994-f42fb93169c7","ios":"levelo://app?vid=723b635c-d72a-47a0-a994-f42fb93169c7"},"vehicle_type_id":"4","last_reported":1734783315,"current_range_meters":38400,"station_id":"ce4bgkh2rcd13ifvqbl0","pricing_plan_id":"cebpf4jnsgd1na2vs0mg"},{"bike_id":"bbe27add-01ae-4f81-bec0-02d8246bfe5a","system_id":"levelo_inurba_marseille","lat":43.25854,"lon":5.39917,"is_reserved":false,"is_disabled":false,"rental_uris":{"android":"levelo://app?vid=bbe27add-01ae-4f81-bec0-02d8246bfe5a","ios":"levelo://app?vid=bbe27add-01ae-4f81-bec0-02d8246bfe5a"},"vehicle_type_id":"4","last_reported":1734783315,"current_range_meters":38800,"station_id":"ce4bhl92rcd13ifvqghg","pricing_plan_id":"cebpf4jnsgd1na2vs0mg"},{"bike_id":"2a9324d6-bca5-4966-b450-807df18dc185","system_id":"levelo_inurba_marseille","lat":43.28844,"lon":5.39311,"is_reserved":false,"is_disabled":false,"rental_uris":{"android":"levelo://app?vid=2a9324d6-bca5-4966-b450-807df18dc185","ios":"levelo://app?vid=2a9324d6-bca5-4966-b450-807df18dc185"},"vehicle_type_id":"4","last_reported":1734783315,"current_range_meters":37600,"station_id":"ce4bh2p2rcd13ifvqdi0","pricing_plan_id":"cebpf4jnsgd1na2vs0mg"},{"bike_id":"e353d62c-c5ff-4f13-94a9-2d54b9fdbe08","system_id":"levelo_inurba_marseille","lat":43.288463,"lon":5.358413,"is_reserved":false,"is_disabled":true,"rental_uris":{"android":"levelo://app?vid=e353d62c-c5ff-4f13-94a9-2d54b9fdbe08","ios":"levelo://app?vid=e353d62c-c5ff-4f13-94a9-2d54b9fdbe08"},"vehicle_type_id":"4","last_reported":1734783315,"current_range_meters":0,"station_id":"ce4bhb12rcd13ifvqem0","pricing_plan_id":"cebpf4jnsgd1na2vs0mg"},{"bike_id":"79f2197c-4742-49a0-a3a2-5788a33fb311","system_id":"levelo_inurba_marseille","lat":43.23149,"lon":5.43714,"is_reserved":false,"is_disabled":false,"rental_uris":{"android":"levelo://app?vid=79f2197c-4742-49a0-a3a2-5788a33fb311","ios":"levelo://app?vid=79f2197c-4742-49a0-a3a2-5788a33fb311"},"vehicle_type_id":"4","last_reported":1734783315,"current_range_meters":26800,"station_id":"ce4bhmp2rcd13ifvqgog","pricing_plan_id":"cebpf4jnsgd1na2vs0mg"},{"bike_id":"dfd60306-6842-4fae-aacb-4c30d2d5cfbb","system_id":"levelo_inurba_marseille","lat":43.27373,"lon":5.36252,"is_reserved":false,"is_disabled":false,"rental_uris":{"android":"levelo://app?vid=dfd60306-6842-4fae-aacb-4c30d2d5cfbb","ios":"levelo://app?vid=dfd60306-6842-4fae-aacb-4c30d2d5cfbb"},"vehicle_type_id":"4","last_reported":1734783315,"current_range_meters":24800,"station_id":"ce4bhbh2rcd13ifvqeo0","pricing_plan_id":"cebpf4jnsgd1na2vs0mg"},{"bike_id":"3e4953e1-c178-41db-9597-f41113272927","system_id":"levelo_inurba_marseille","lat":43.272,"lon":5.39186,"is_reserved":false,"is_disabled":false,"rental_uris":{"android":"levelo://app?vid=3e4953e1-c178-41db-9597-f41113272927","ios":"levelo://app?vid=3e4953e1-c178-41db-9597-f41113272927"},"vehicle_type_id":"4","last_reported":1734783315,"current_range_meters":34000,"station_id":"ce4bhhp2rcd13ifvqfm0","pricing_plan_id":"cebpf4jnsgd1na2vs0mg"},{"bike_id":"494c8398-822e-42ee-a7f1-dfd664d1fba7","system_id":"levelo_inurba_marseille","lat":43.23189,"lon":5.35555,"is_reserved":false,"is_disabled":false,"rental_uris":{"android":"levelo://app?vid=494c8398-822e-42ee-a7f1-dfd664d1fba7","ios":"levelo://app?vid=494c8398-822e-42ee-a7f1-dfd664d1fba7"},"vehicle_type_id":"4","last_reported":1734783315,"current_range_meters":30800,"station_id":"ce4bhu92rcd13ifvqi70","pricing_plan_id":"cebpf4jnsgd1na2vs0mg"},{"bike_id":"a37c10b7-1da8-4cc6-b0f3-2a310cde69cc","system_id":"levelo_inurba_marseille","lat":43.29508,"lon":5.39029,"is_reserved":false,"is_disabled":true,"rental_uris":{"android":"levelo://app?vid=a37c10b7-1da8-4cc6-b0f3-2a310cde69cc","ios":"levelo://app?vid=a37c10b7-1da8-4cc6-b0f3-2a310cde69cc"},"vehicle_type_id":"4","last_reported":1734783315,"current_range_meters":31200,"station_id":"ce4bh3p2rcd13ifvqdp0","pricing_plan_id":"cebpf4jnsgd1na2vs0mg"},{"bike_id":"fbdf6156-8014-4f46-9b80-f7f54ff1d0c7","system_id":"levelo_inurba_marseille","lat":43.28988,"lon":5.3561,"is_reserved":false,"is_disabled":false,"rental_uris":{"android":"levelo://app?vid=fbdf6156-8014-4f46-9b80-f7f54ff1d0c7","ios":"levelo://app?vid=fbdf6156-8014-4f46-9b80-f7f54ff1d0c7"},"vehicle_type_id":"4","last_reported":1734783315,"current_range_meters":38800,"station_id":"ce4bhb92rcd13ifvqen0","pricing_plan_id":"cebpf4jnsgd1na2vs0mg"},{"bike_id":"0b624bb2-990f-4d59-a2cd-ccad106e5c47","system_id":"levelo_inurba_marseille","lat":43.27815,"lon":5.40737,"is_reserved":false,"is_disabled":false,"rental_uris":{"android":"levelo://app?vid=0b624bb2-990f-4d59-a2cd-ccad106e5c47","ios":"levelo://app?vid=0b624bb2-990f-4d59-a2cd-ccad106e5c47"},"vehicle_type_id":"4","last_reported":1734783315,"current_range_meters":27600,"station_id":"ce4bhnh2rcd13ifvqgtg","pricing_plan_id":"cebpf4jnsgd1na2vs0mg"},{"bike_id":"714aa917-666e-44ad-87e7-7e5422dc5135","system_id":"levelo_inurba_marseille","lat":43.286188,"lon":5.351082,"is_reserved":false,"is_disabled":false,"rental_uris":{"android":"levelo://app?vid=714aa917-666e-44ad-87e7-7e5422dc5135","ios":"levelo://app?vid=714aa917-666e-44ad-87e7-7e5422dc5135"},"vehicle_type_id":"4","last_reported":1734783315,"current_range_meters":26800,"station_id":"ce4bhch2rcd13ifvqeug","pricing_plan_id":"cebpf4jnsgd1na2vs0mg"},{"bike_id":"28195630-2c39-4c93-bf30-6590e0ccf6df","system_id":"levelo_inurba_marseille","lat":43.27049,"lon":5.40272,"is_reserved":false,"is_disabled":false,"rental_uris":{"android":"levelo://app?vid=28195630-2c39-4c93-bf30-6590e0ccf6df","ios":"levelo://app?vid=28195630-2c39-4c93-bf30-6590e0ccf6df"},"vehicle_type_id":"4","last_reported":1734783315,"current_range_meters":13600,"station_id":"ce4bhk92rcd13ifvqgc0","pricing_plan_id":"cebpf4jnsgd1na2vs0mg"},{"bike_id":"47cc93a7-70b5-45bf-991b-f441a77935aa","system_id":"levelo_inurba_marseille","lat":43.27311,"lon":5.39098,"is_reserved":false,"is_disabled":true,"rental_uris":{"android":"levelo://app?vid=47cc93a7-70b5-45bf-991b-f441a77935aa","ios":"levelo://app?vid=47cc93a7-70b5-45bf-991b-f441a77935aa"},"vehicle_type_id":"4","last_reported":1734783315,"current_range_meters":37600,"station_id":"ce4bhgp2rcd13ifvqfe0","pricing_plan_id":"cebpf4jnsgd1na2vs0mg"},{"bike_id":"76f7298d-23db-43ba-97cb-ee0a1bca30fa","system_id":"levelo_inurba_marseille","lat":43.26943,"lon":5.40246,"is_reserved":false,"is_disabled":false,"rental_uris":{"android":"levelo://app?vid=76f7298d-23db-43ba-97cb-ee0a1bca30fa","ios":"levelo://app?vid=76f7298d-23db-43ba-97cb-ee0a1bca30fa"},"vehicle_type_id":"4","last_reported":1734783315,"current_range_meters":39200,"station_id":"cjm6bp8fraef2m0cb0m0","pricing_plan_id":"cebpf4jnsgd1na2vs0mg"},{"bike_id":"39cb86bd-d333-444c-a321-d07277f74a29","system_id":"levelo_inurba_marseille","lat":43.26532,"lon":5.37323,"is_reserved":false,"is_disabled":false,"rental_uris":{"android":"levelo://app?vid=39cb86bd-d333-444c-a321-d07277f74a29","ios":"levelo://app?vid=39cb86bd-d333-444c-a321-d07277f74a29"},"vehicle_type_id":"4","last_reported":1734783315,"current_range_meters":33200,"station_id":"ce4bhg12rcd13ifvqf70","pricing_plan_id":"cebpf4jnsgd1na2vs0mg"},{"bike_id":"a2eba22b-b0ee-4005-9bf3-576bb458d391","system_id":"levelo_inurba_marseille","lat":43.279651,"lon":5.387544,"is_reserved":false,"is_disabled":true,"rental_uris":{"android":"levelo://app?vid=a2eba22b-b0ee-4005-9bf3-576bb458d391","ios":"levelo://app?vid=a2eba22b-b0ee-4005-9bf3-576bb458d391"},"vehicle_type_id":"4","last_reported":1734783315,"current_range_meters":0,"station_id":"","pricing_plan_id":"cebpf4jnsgd1na2vs0mg"},{"bike_id":"6245eb76-6402-48dc-b720-ee9174315570","system_id":"levelo_inurba_marseille","lat":43.29171,"lon":5.37174,"is_reserved":false,"is_disabled":false,"rental_uris":{"android":"levelo://app?vid=6245eb76-6402-48dc-b720-ee9174315570","ios":"levelo://app?vid=6245eb76-6402-48dc-b720-ee9174315570"},"vehicle_type_id":"4","last_reported":1734783315,"current_range_meters":38800,"station_id":"ce4bha92rcd13ifvqeh0","pricing_plan_id":"cebpf4jnsgd1na2vs0mg"},{"bike_id":"b9c1a38a-4d26-4c8f-a721-f196090abf68","system_id":"levelo_inurba_marseille","lat":43.28266,"lon":5.35073,"is_reserved":false,"is_disabled":false,"rental_uris":{"android":"levelo://app?vid=b9c1a38a-4d26-4c8f-a721-f196090abf68","ios":"levelo://app?vid=b9c1a38a-4d26-4c8f-a721-f196090abf68"},"vehicle_type_id":"4","last_reported":1734783315,"current_range_meters":38800,"station_id":"ce4bhbp2rcd13ifvqerg","pricing_plan_id":"cebpf4jnsgd1na2vs0mg"},{"bike_id":"0d5d1aca-35a4-490c-b9d4-f1454299d92b","system_id":"levelo_inurba_marseille","lat":43.30535,"lon":5.36697,"is_reserved":false,"is_disabled":false,"rental_uris":{"android":"levelo://app?vid=0d5d1aca-35a4-490c-b9d4-f1454299d92b","ios":"levelo://app?vid=0d5d1aca-35a4-490c-b9d4-f1454299d92b"},"vehicle_type_id":"4","last_reported":1734783315,"current_range_meters":28400,"station_id":"ce4bgrp2rcd13ifvqc9g","pricing_plan_id":"cebpf4jnsgd1na2vs0mg"},{"bike_id":"5c947138-4462-4c28-a25a-8fcdf6b4a3a2","system_id":"levelo_inurba_marseille","lat":43.33022,"lon":5.39044,"is_reserved":false,"is_disabled":false,"rental_uris":{"android":"levelo://app?vid=5c947138-4462-4c28-a25a-8fcdf6b4a3a2","ios":"levelo://app?vid=5c947138-4462-4c28-a25a-8fcdf6b4a3a2"},"vehicle_type_id":"4","last_reported":1734783315,"current_range_meters":38800,"station_id":"ce4bhr92rcd13ifvqhrg","pricing_plan_id":"cebpf4jnsgd1na2vs0mg"},{"bike_id":"e8b9266a-288a-46d4-af3d-7f133e6bf0fb","system_id":"levelo_inurba_marseille","lat":43.29915,"lon":5.37479,"is_reserved":false,"is_disabled":false,"rental_uris":{"android":"levelo://app?vid=e8b9266a-288a-46d4-af3d-7f133e6bf0fb","ios":"levelo://app?vid=e8b9266a-288a-46d4-af3d-7f133e6bf0fb"},"vehicle_type_id":"4","last_reported":1734783315,"current_range_meters":36000,"station_id":"ce4bgjh2rcd13ifvqbg0","pricing_plan_id":"cebpf4jnsgd1na2vs0mg"},{"bike_id":"ed68c080-ab5d-463f-85be-1f61c36b3ba8","system_id":"levelo_inurba_marseille","lat":43.26496,"lon":5.39545,"is_reserved":false,"is_disabled":false,"rental_uris":{"android":"levelo://app?vid=ed68c080-ab5d-463f-85be-1f61c36b3ba8","ios":"levelo://app?vid=ed68c080-ab5d-463f-85be-1f61c36b3ba8"},"vehicle_type_id":"4","last_reported":1734783315,"current_range_meters":38800,"station_id":"ce4bhi12rcd13ifvqfq0","pricing_plan_id":"cebpf4jnsgd1na2vs0mg"},