{"last_updated":1699733183,"ttl":30,"version":"2.2","data":{"bikes":[{"bike_id":"fd15bf3b-7f52-4576-9af4-ad2964dc33bc","system_id":"levelo_inurba_marseille","lat":43.31223,"lon":5.36826,"is_reserved":false,"is_disabled":false,"rental_uris":{"android":"levelo://app?vid=fd15bf3b-7f52-4576-9af4-ad2964dc33bc","ios":"levelo://app?vid=fd15bf3b-7f52-4576-9af4-ad2964dc33bc"},"vehicle_type_id":"4","last_reported":1699733183,"current_range_meters":23600,"station_id":"ce4bgl92rcd13ifvqbq0","pricing_plan_id":"free"},{"bike_id":"266e537b-5681-4c25-898a-f38aa324edc2","system_id":"levelo_inurba_marseille","lat":43.309076,"lon":5.368465,"is_reserved":false,"is_disabled":false,"rental_uris":{"android":"levelo://app?vid=266e537b-5681-4c25-898a-f38aa324edc2","ios":"levelo://app?vid=266e537b-5681-4c25-898a-f38aa324edc2"},"vehicle_type_id":"4","last_reported":1699733183,"current_range_meters":17600,"station_id":"ce4bgn92rcd13ifvqbvg","pricing_plan_id":"free"},{"bike_id":"a303c1eb-c1f9-4f91-8e86-71c806c20ac5","system_id":"levelo_inurba_marseille","lat":43.313338,"lon":5.376414,"is_reserved":false,"is_disabled":false,"rental_uris":{"android":"levelo://app?vid=a303c1eb-c1f9-4f91-8e86-71c806c20ac5","ios":"levelo://app?vid=a303c1eb-c1f9-4f91-8e86-71c806c20ac5"},"vehicle_type_id":"4","last_reported":1699733183,"current_range_meters":27200,"station_id":"","pricing_plan_id":"free"},{"bike_id":"76b359af-c20b-45d0-a1df-78f4c9a6553a","system_id":"levelo_inurba_marseille","lat":43.30535,"lon":5.36534,"is_reserved":false,"is_disabled":false,"rental_uris":{"android":"levelo://app?vid=76b359af-c20b-45d0-a1df-78f4c9a6553a","ios":"levelo://app?vid=76b359af-c20b-45d0-a1df-78f4c9a6553a"},"vehicle_type_id":"4","last_reported":1699733183,"current_range_meters":17600,"station_id":"ce4bgs12rcd13ifvqcag","pricing_plan_id":"free"},{"bike_id":"bec4aa25-f978-436c-9fcf-7ba65cf5a9fd","system_id":"levelo_inurba_marseille","lat":43.305989,"lon":5.37225,"is_reserved":false,"is_disabled":false,"rental_uris":{"android":"levelo://app?vid=bec4aa25-f978-436c-9fcf-7ba65cf5a9fd","ios":"levelo://app?vid=bec4aa25-f978-436c-9fcf-7ba65cf5a9fd"},"vehicle_type_id":"4","last_reported":1699733183,"current_range_meters":24000,"station_id":"ce4bgqh2rcd13ifvqc4g","pricing_plan_id":"free"},{"bike_id":"71222cdc-27cf-42eb-a3e3-242ddebfac90","system_id":"levelo_inurba_marseille","lat":43.305989,"lon":5.37225,"is_reserved":false,"is_disabled":false,"rental_uris":{"android":"levelo://app?vid=71222cdc-27cf-42eb-a3e3-242ddebfac90","ios":"levelo://app?vid=71222cdc-27cf-42eb-a3e3-242ddebfac90"},"vehicle_type_id":"4","last_reported":1699733183,"current_range_meters":0,"station_id":"ce4bgqh2rcd13ifvqc4g","pricing_plan_id":"free"},{"bike_id":"534b4c58-7dbc-4876-8cde-18e01fb38c27","system_id":"levelo_inurba_marseille","lat":43.305989,"lon":5.37225,"is_reserved":false,"is_disabled":false,"rental_uris":{"android":"levelo://app?vid=534b4c58-7dbc-4876-8cde-18e01fb38c27","ios":"levelo://app?vid=534b4c58-7dbc-4876-8cde-18e01fb38c27"},"vehicle_type_id":"4","last_reported":1699733183,"current_range_meters":3200,"station_id":"ce4bgqh2rcd13ifvqc4g","pricing_plan_id":"free"},{"bike_id":"e28276e2-043a-446a-b0ee-9b62d6ba4969","system_id":"levelo_inurba_marseille","lat":43.311131,"lon":5.377651,"is_reserved":false,"is_disabled":false,"rental_uris":{"android":"levelo://app?vid=e28276e2-043a-446a-b0ee-9b62d6ba4969","ios":"levelo://app?vid=e28276e2-043a-446a-b0ee-9b62d6ba4969"},"vehicle_type_id":"4","last_reported":1699733183,"current_range_meters":400,"station_id":"ce4bgt92rcd13ifvqcg0","pricing_plan_id":"free"},{"bike_id":"57053367-5328-4d78-8951-737f56b37ed9","system_id":"levelo_inurba_marseille","lat":43.319924,"lon":5.373389,"is_reserved":false,"is_disabled":false,"rental_uris":{"android":"levelo://app?vid=57053367-5328-4d78-8951-737f56b37ed9","ios":"levelo://app?vid=57053367-5328-4d78-8951-737f56b37ed9"},"vehicle_type_id":"4","last_reported":1699733183,"current_range_meters":17600,"station_id":"","pricing_plan_id":"free"},{"bike_id":"990ccfbf-f3ac-45a3-aa2b-c471e4030e17","system_id":"levelo_inurba_marseille","lat":43.32068,"lon":5.373118,"is_reserved":false,"is_disabled":false,"rental_uris":{"android":"levelo://app?vid=990ccfbf-f3ac-45a3-aa2b-c471e4030e17","ios":"levelo://app?vid=990ccfbf-f3ac-45a3-aa2b-c471e4030e17"},"vehicle_type_id":"4","last_reported":1699733183,"current_range_meters":14400,"station_id":"","pricing_plan_id":"free"},{"bike_id":"a26a672c-8f86-40f5-9e8e-9856cf399a24","system_id":"levelo_inurba_marseille","lat":43.308012,"lon":5.381511,"is_reserved":false,"is_disabled":false,"rental_uris":{"android":"levelo://app?vid=a26a672c-8f86-40f5-9e8e-9856cf399a24","ios":"levelo://app?vid=a26a672c-8f86-40f5-9e8e-9856cf399a24"},"vehicle_type_id":"4","last_reported":1699733183,"current_range_meters":26000,"station_id":"ce4bgt12rcd13ifvqce0","pricing_plan_id":"free"},{"bike_id":"8ef52193-4a3c-4256-8c92-d02dc1148f05","system_id":"levelo_inurba_marseille","lat":43.324806,"lon":5.365586,"is_reserved":false,"is_disabled":false,"rental_uris":{"android":"levelo://app?vid=8ef52193-4a3c-4256-8c92-d02dc1148f05","ios":"levelo://app?vid=8ef52193-4a3c-4256-8c92-d02dc1148f05"},"vehicle_type_id":"4","last_reported":1699733183,"current_range_meters":10800,"station_id":"ce4bhs12rcd13ifvqhvg","pricing_plan_id":"free"},{"bike_id":"3819deec-fe3d-41c7-8346-2b107cb07054","system_id":"levelo_inurba_marseille","lat":43.315237,"lon":5.383797,"is_reserved":false,"is_disabled":false,"rental_uris":{"android":"levelo://app?vid=3819deec-fe3d-41c7-8346-2b107cb07054","ios":"levelo://app?vid=3819deec-fe3d-41c7-8346-2b107cb07054"},"vehicle_type_id":"4","last_reported":1699733183,"current_range_meters":0,"station_id":"","pricing_plan_id":"free"},{"bike_id":"69166d53-ec8e-4a0a-864c-7a29f7650dd8","system_id":"levelo_inurba_marseille","lat":43.321158,"lon":5.380029,"is_reserved":false,"is_disabled":false,"rental_uris":{"android":"levelo://app?vid=69166d53-ec8e-4a0a-864c-7a29f7650dd8","ios":"levelo://app?vid=69166d53-ec8e-4a0a-864c-7a29f7650dd8"},"vehicle_type_id":"4","last_reported":1699733183,"current_range_meters":17600,"station_id":"","pricing_plan_id":"free"},{"bike_id":"13d78257-2559-4a10-97b8-aaa7032179bc","system_id":"levelo_inurba_marseille","lat":43.319975,"lon":5.381519,"is_reserved":false,"is_disabled":false,"rental_uris":{"android":"levelo://app?vid=13d78257-2559-4a10-97b8-aaa7032179bc","ios":"levelo://app?vid=13d78257-2559-4a10-97b8-aaa7032179bc"},"vehicle_type_id":"4","last_reported":1699733183,"current_range_meters":3200,"station_id":"","pricing_plan_id":"free"},{"bike_id":"22260ebd-85e3-4b1f-a08e-b68640c28bfe","system_id":"levelo_inurba_marseille","lat":43.313571,"lon":5.384829,"is_reserved":false,"is_disabled":false,"rental_uris":{"android":"levelo://app?vid=22260ebd-85e3-4b1f-a08e-b68640c28bfe","ios":"levelo://app?vid=22260ebd-85e3-4b1f-a08e-b68640c28bfe"},"vehicle_type_id":"4","last_reported":1699733183,"current_range_meters":27600,"station_id":"ce4bgt92rcd13ifvqcf0","pricing_plan_id":"free"},{"bike_id":"f0cd0e99-99df-428b-bcc4-5dfc1403c621","system_id":"levelo_inurba_marseille","lat":43.29917,"lon":5.36776,"is_reserved":false,"is_disabled":false,"rental_uris":{"android":"levelo://app?vid=f0cd0e99-99df-428b-bcc4-5dfc1403c621","ios":"levelo://app?vid=f0cd0e99-99df-428b-bcc4-5dfc1403c621"},"vehicle_type_id":"4","last_reported":1699733183,"current_range_meters":17600,"station_id":"","pricing_plan_id":"free"},{"bike_id":"2aa07dbd-abc3-43b6-a1fa-b3b25d3cf066","system_id":"levelo_inurba_marseille","lat":43.32148,"lon":5.38202,"is_reserved":false,"is_disabled":false,"rental_uris":{"android":"levelo://app?vid=2aa07dbd-abc3-43b6-a1fa-b3b25d3cf066","ios":"levelo://app?vid=2aa07dbd-abc3-43b6-a1fa-b3b25d3cf066"},"vehicle_type_id":"4","last_reported":1699733183,"current_range_meters":0,"station_id":"","pricing_plan_id":"free"},{"bike_id":"7899334a-5b58-4d11-8598-f2d11ef70f2e","system_id":"levelo_inurba_marseille","lat":43.305364,"lon":5.384119,"is_reserved":false,"is_disabled":false,"rental_uris":{"android":"levelo://app?vid=7899334a-5b58-4d11-8598-f2d11ef70f2e","ios":"levelo://app?vid=7899334a-5b58-4d11-8598-f2d11ef70f2e"},"vehicle_type_id":"4","last_reported":1699733183,"current_range_meters":6800,"station_id":"ce4bgg92rcd13ifvqb30","pricing_plan_id":"free"},{"bike_id":"6ffc2317-cdea-4cbe-9457-813a84ec2cdb","system_id":"levelo_inurba_marseille","lat":43.305364,"lon":5.384119,"is_reserved":false,"is_disabled":false,"rental_uris":{"android":"levelo://app?vid=6ffc2317-cdea-4cbe-9457-813a84ec2cdb","ios":"levelo://app?vid=6ffc2317-cdea-4cbe-9457-813a84ec2cdb"},"vehicle_type_id":"4","last_reported":1699733183,"current_range_meters":1600,"station_id":"ce4bgg92rcd13ifvqb30","pricing_plan_id":"free"},{"bike_id":"8950f55a-e75d-4fac-9a7c-f529bc0580a5","system_id":"levelo_inurba_marseille","lat":43.320464,"lon":5.384144,"is_reserved":false,"is_disabled":false,"rental_uris":{"android":"levelo://app?vid=8950f55a-e75d-4fac-9a7c-f529bc0580a5","ios":"levelo://app?vid=8950f55a-e75d-4fac-9a7c-f529bc0580a5"},"vehicle_type_id":"4","last_reported":1699733183,"current_range_meters":12000,"station_id":"","pricing_plan_id":"free"},{"bike_id":"a230cb7a-b3c9-4db8-876c-95c31c23aaae","system_id":"levelo_inurba_marseille","lat":43.311722,"lon":5.387247,"is_reserved":false,"is_disabled":false,"rental_uris":{"android":"levelo://app?vid=a230cb7a-b3c9-4db8-876c-95c31c23aaae","ios":"levelo://app?vid=a230cb7a-b3c9-4db8-876c-95c31c23aaae"},"vehicle_type_id":"4","last_reported":1699733183,"current_range_meters":6400,"station_id":"ce4bgv12rcd13ifvqcp0","pricing_plan_id":"free"},{"bike_id":"1bb861ef-57bc-498b-b32e-a0eda2c305cb","system_id":"levelo_inurba_marseille","lat":43.32827,"lon":5.36689,"is_reserved":false,"is_disabled":false,"rental_uris":{"android":"levelo://app?vid=1bb861ef-57bc-498b-b32e-a0eda2c305cb","ios":"levelo://app?vid=1bb861ef-57bc-498b-b32e-a0eda2c305cb"},"vehicle_type_id":"4","last_reported":1699733183,"current_range_meters":14400,"station_id":"ce4bhs92rcd13ifvqi0g","pricing_plan_id":"free"},{"bike_id":"d2d0f7da-b236-4617-8f3a-aabe3bd3e52e","system_id":"levelo_inurba_marseille","lat":43.32827,"lon":5.36682,"is_reserved":false,"is_disabled":false,"rental_uris":{"android":"levelo://app?vid=d2d0f7da-b236-4617-8f3a-aabe3bd3e52e","ios":"levelo://app?vid=d2d0f7da-b236-4617-8f3a-aabe3bd3e52e"},"vehicle_type_id":"4","last_reported":1699733183,"current_range_meters":30800,"station_id":"ce4bhs92rcd13ifvqi0g","pricing_plan_id":"free"},{"bike_id":"d779c61d-401c-4e6a-b082-d1654b6d0fa7","system_id":"levelo_inurba_marseille","lat":43.32827,"lon":5.36679,"is_reserved":false,"is_disabled":false,"rental_uris":{"android":"levelo://app?vid=d779c61d-401c-4e6a-b082-d1654b6d0fa7","ios":"levelo://app?vid=d779c61d-401c-4e6a-b082-d1654b6d0fa7"},"vehicle_type_id":"4","last_reported":1699733183,"current_range_meters":1200,"station_id":"ce4bhs92rcd13ifvqi0g","pricing_plan_id":"free"},{"bike_id":"a46312e7-2ce8-4bc2-b854-62161f1506e5","system_id":"levelo_inurba_marseille","lat":43.32829,"lon":5.36679,"is_reserved":false,"is_disabled":false,"rental_uris":{"android":"levelo://app?vid=a46312e7-2ce8-4bc2-b854-62161f1506e5","ios":"levelo://app?vid=a46312e7-2ce8-4bc2-b854-62161f1506e5"},"vehicle_type_id":"4","last_reported":1699733183,"current_range_meters":31200,"station_id":"ce4bhs92rcd13ifvqi0g","pricing_plan_id":"free"},{"bike_id":"6e7351e1-4cd5-4415-b20c-72cd66273662","system_id":"levelo_inurba_marseille","lat":43.32829,"lon":5.36666,"is_reserved":false,"is_disabled":false,"rental_uris":{"android":"levelo://app?vid=6e7351e1-4cd5-4415-b20c-72cd66273662","ios":"levelo://app?vid=6e7351e1-4cd5-4415-b20c-72cd66273662"},"vehicle_type_id":"4","last_reported":1699733183,"current_range_meters":28800,"station_id":"ce4bhs92rcd13ifvqi0g","pricing_plan_id":"free"},{"bike_id":"3fc29c95-14f8-466b-984e-30e97660fd5f","system_id":"levelo_inurba_marseille","lat":43.328323,"lon":5.366878,"is_reserved":false,"is_disabled":false,"rental_uris":{"android":"levelo://app?vid=3fc29c95-14f8-466b-984e-30e97660fd5f","ios":"levelo://app?vid=3fc29c95-14f8-466b-984e-30e97660fd5f"},"vehicle_type_id":"4","last_reported":1699733183,"current_range_meters":0,"station_id":"ce4bhs92rcd13ifvqi0g","pricing_plan_id":"free"},{"bike_id":"a5f55da8-6724-472e-bcc9-c26d48cc07a7","system_id":"levelo_inurba_marseille","lat":43.32835,"lon":5.36687,"is_reserved":false,"is_disabled":false,"rental_uris":{"android":"levelo://app?vid=a5f55da8-6724-472e-bcc9-c26d48cc07a7","ios":"levelo://app?vid=a5f55da8-6724-472e-bcc9-c26d48cc07a7"},"vehicle_type_id":"4","last_reported":1699733183,"current_range_meters":4800,"station_id":"ce4bhs92rcd13ifvqi0g","pricing_plan_id":"free"},{"bike_id":"2a94ffaa-0099-46ca-a882-09e50a4726e5","system_id":"levelo_inurba_marseille","lat":43.297163,"lon":5.365866,"is_reserved":false,"is_disabled":false,"rental_uris":{"android":"levelo://app?vid=2a94ffaa-0099-46ca-a882-09e50a4726e5","ios":"levelo://app?vid=2a94ffaa-0099-46ca-a882-09e50a4726e5"},"vehicle_type_id":"4","last_reported":1699733183,"current_range_meters":5600,"station_id":"ce4bgn12rcd13ifvqbt0","pricing_plan_id":"free"},{"bike_id":"cc389227-de4d-4ae5-bbb9-6ba9e11052bd","system_id":"levelo_inurba_marseille","lat":43.2968,"lon":5.37291,"is_reserved":false,"is_disabled":false,"rental_uris":{"android":"levelo://app?vid=cc389227-de4d-4ae5-bbb9-6ba9e11052bd","ios":"levelo://app?vid=cc389227-de4d-4ae5-bbb9-6ba9e11052bd"},"vehicle_type_id":"4","last_reported":1699733183,"current_range_meters":24000,"station_id":"ce4bgk12rcd13ifvqbj0","pricing_plan_id":"free"},{"bike_id":"d447991a-59b4-4778-a190-7d2b0920a414","system_id":"levelo_inurba_marseille","lat":43.32215,"lon":5.38613,"is_reserved":false,"is_disabled":false,"rental_uris":{"android":"levelo://app?vid=d447991a-59b4-4778-a190-7d2b0920a414","ios":"levelo://app?vid=d447991a-59b4-4778-a190-7d2b0920a414"},"vehicle_type_id":"4","last_reported":1699733183,"current_range_meters":19600,"station_id":"","pricing_plan_id":"free"},{"bike_id":"408e1bba-ac1b-479c-ad30-32026784c873","system_id":"levelo_inurba_marseille","lat":43.2966,"lon":5.37463,"is_reserved":false,"is_disabled":false,"rental_uris":{"android":"levelo://app?vid=408e1bba-ac1b-479c-ad30-32026784c873","ios":"levelo://app?vid=408e1bba-ac1b-479c-ad30-32026784c873"},"vehicle_type_id":"4","last_reported":1699733183,"current_range_meters":14800,"station_id":"","pricing_plan_id":"free"},{"bike_id":"aefa975b-45c2-4e53-90d7-3708632eee3a","system_id":"levelo_inurba_marseille","lat":43.309589,"lon":5.390258,"is_reserved":false,"is_disabled":false,"rental_uris":{"android":"levelo://app?vid=aefa975b-45c2-4e53-90d7-3708632eee3a","ios":"levelo://app?vid=aefa975b-45c2-4e53-90d7-3708632eee3a"},"vehicle_type_id":"4","last_reported":1699733183,"current_range_meters":5200,"station_id":"ce4bgup2rcd13ifvqco0","pricing_plan_id":"free"},{"bike_id":"46925185-9cbd-4e9e-8834-099a7bf7cf9f","system_id":"levelo_inurba_marseille","lat":43.30957,"lon":5.3903,"is_reserved":false,"is_disabled":false,"rental_uris":{"android":"levelo://app?vid=46925185-9cbd-4e9e-8834-099a7bf7cf9f","ios":"levelo://app?vid=46925185-9cbd-4e9e-8834-099a7bf7cf9f"},"vehicle_type_id":"4","last_reported":1699733183,"current_range_meters":15600,"station_id":"ce4bgup2rcd13ifvqco0","pricing_plan_id":"free"},{"bike_id":"19ff1b32-7a84-40af-8d24-72f6b95ab4e4","system_id":"levelo_inurba_marseille","lat":43.309589,"lon":5.390258,"is_reserved":false,"is_disabled":false,"rental_uris":{"android":"levelo://app?vid=19ff1b32-7a84-40af-8d24-72f6b95ab4e4","ios":"levelo://app?vid=19ff1b32-7a84-40af-8d24-72f6b95ab4e4"},"vehicle_type_id":"4","last_reported":1699733183,"current_range_meters":19200,"station_id":"ce4bgup2rcd13ifvqco0","pricing_plan_id":"free"},{"bike_id":"ca163e8b-d6aa-48fb-ad82-68de9e3d8bcc","system_id":"levelo_inurba_marseille","lat":43.309589,"lon":5.390258,"is_reserved":false,"is_disabled":false,"rental_uris":{"android":"levelo://app?vid=ca163e8b-d6aa-48fb-ad82-68de9e3d8bcc","ios":"levelo://app?vid=ca163e8b-d6aa-48fb-ad82-68de9e3d8bcc"},"vehicle_type_id":"4","last_reported":1699733183,"current_range_meters":22000,"station_id":"ce4bgup2rcd13ifvqco0","pricing_plan_id":"free"},{"bike_id":"feff7d8e-9456-4b4b-b917-4f91bb23e023","system_id":"levelo_inurba_marseille","lat":43.3175,"lon":5.39022,"is_reserved":false,"is_disabled":false,"rental_uris":{"android":"levelo://app?vid=feff7d8e-9456-4b4b-b917-4f91bb23e023","ios":"levelo://app?vid=feff7d8e-9456-4b4b-b917-4f91bb23e023"},"vehicle_type_id":"4","last_reported":1699733183,"current_range_meters":17600,"station_id":"","pricing_plan_id":"free"},{"bike_id":"43e8c742-17d8-4f5f-a0f9-45da8e976870","system_id":"levelo_inurba_marseille","lat":43.317557,"lon":5.390173,"is_reserved":false,"is_disabled":false,"rental_uris":{"android":"levelo://app?vid=43e8c742-17d8-4f5f-a0f9-45da8e976870","ios":"levelo://app?vid=43e8c742-17d8-4f5f-a0f9-45da8e976870"},"vehicle_type_id":"4","last_reported":1699733183,"current_range_meters":30000,"station_id":"ce4bhqp2rcd13ifvqhng","pricing_plan_id":"free"},{"bike_id":"9e588716-b81f-44d8-b071-857cbb7449e1","system_id":"levelo_inurba_marseille","lat":43.300227,"lon":5.384203,"is_reserved":false,"is_disabled":false,"rental_uris":{"android":"levelo://app?vid=9e588716-b81f-44d8-b071-857cbb7449e1","ios":"levelo://app?vid=9e588716-b81f-44d8-b071-857cbb7449e1"},"vehicle_type_id":"4","last_reported":1699733183,"current_range_meters":0,"station_id":"","pricing_plan_id":"free"},{"bike_id":"7b4f599b-a99e-4975-9ecf-2f2d681300fc","system_id":"levelo_inurba_marseille","lat":43.298053,"lon":5.380987,"is_reserved":false,"is_disabled":false,"rental_uris":{"android":"levelo://app?vid=7b4f599b-a99e-4975-9ecf-2f2d681300fc","ios":"levelo://app?vid=7b4f599b-a99e-4975-9ecf-2f2d681300fc"},"vehicle_type_id":"4","last_reported":1699733183,"current_range_meters":0,"station_id":"ce4bgip2rcd13ifvqbb0","pricing_plan_id":"free"},{"bike_id":"c276c457-e895-4594-9fa6-5da18c085648","system_id":"levelo_inurba_marseille","lat":43.298037,"lon":5.381066,"is_reserved":false,"is_disabled":false,"rental_uris":{"android":"levelo://app?vid=c276c457-e895-4594-9fa6-5da18c085648","ios":"levelo://app?vid=c276c457-e895-4594-9fa6-5da18c085648"},"vehicle_type_id":"4","last_reported":1699733183,"current_range_meters":9600,"station_id":"ce4bgip2rcd13ifvqbb0","pricing_plan_id":"free"},{"bike_id":"e1c05e3e-eab7-4ce9-a0ea-99608551dd11","system_id":"levelo_inurba_marseille","lat":43.304274,"lon":5.388873,"is_reserved":false,"is_disabled":false,"rental_uris":{"android":"levelo://app?vid=e1c05e3e-eab7-4ce9-a0ea-99608551dd11","ios":"levelo://app?vid=e1c05e3e-eab7-4ce9-a0ea-99608551dd11"},"vehicle_type_id":"4","last_reported":1699733183,"current_range_meters":0,"station_id":"ce4bgk12rcd13ifvqbi0","pricing_plan_id":"free"},{"bike_id":"4112fa8a-3158-4f0c-84df-b0bb2a9e49b5","system_id":"levelo_inurba_marseille","lat":43.304274,"lon":5.388873,"is_reserved":false,"is_disabled":false,"rental_uris":{"android":"levelo://app?vid=4112fa8a-3158-4f0c-84df-b0bb2a9e49b5","ios":"levelo://app?vid=4112fa8a-3158-4f0c-84df-b0bb2a9e49b5"},"vehicle_type_id":"4","last_reported":1699733183,"current_range_meters":29200,"station_id":"ce4bgk12rcd13ifvqbi0","pricing_plan_id":"free"},{"bike_id":"2af59e78-9ac8-45e8-a3aa-111a53873a2a","system_id":"levelo_inurba_marseille","lat":43.29976,"lon":5.3847,"is_reserved":false,"is_disabled":false,"rental_uris":{"android":"levelo://app?vid=2af59e78-9ac8-45e8-a3aa-111a53873a2a","ios":"levelo://app?vid=2af59e78-9ac8-45e8-a3aa-111a53873a2a"},"vehicle_type_id":"4","last_reported":1699733183,"current_range_meters":0,"station_id":"ce4bgj92rcd13ifvqbd0","pricing_plan_id":"free"},{"bike_id":"8b7c4e4f-b3d0-4472-a606-d31720e09bd2","system_id":"levelo_inurba_marseille","lat":43.299717,"lon":5.384845,"is_reserved":false,"is_disabled":false,"rental_uris":{"android":"levelo://app?vid=8b7c4e4f-b3d0-4472-a606-d31720e09bd2","ios":"levelo://app?vid=8b7c4e4f-b3d0-4472-a606-d31720e09bd2"},"vehicle_type_id":"4","last_reported":1699733183,"current_range_meters":9200,"station_id":"ce4bgj92rcd13ifvqbd0","pricing_plan_id":"free"},{"bike_id":"f29d9f59-62b3-4490-a0f8-7ef12f915c48","system_id":"levelo_inurba_marseille","lat":43.299724,"lon":5.384848,"is_reserved":false,"is_disabled":false,"rental_uris":{"android":"levelo://app?vid=f29d9f59-62b3-4490-a0f8-7ef12f915c48","ios":"levelo://app?vid=f29d9f59-62b3-4490-a0f8-7ef12f915c48"},"vehicle_type_id":"4","last_reported":1699733183,"current_range_meters":4800,"station_id":"ce4bgj92rcd13ifvqbd0","pricing_plan_id":"free"},{"bike_id":"cf1e5ae2-a7a2-4696-8ecd-14582cbad1a2","system_id":"levelo_inurba_marseille","lat":43.299724,"lon":5.384848,"is_reserved":false,"is_disabled":false,"rental_uris":{"android":"levelo://app?vid=cf1e5ae2-a7a2-4696-8ecd-14582cbad1a2","ios":"levelo://app?vid=cf1e5ae2-a7a2-4696-8ecd-14582cbad1a2"},"vehicle_type_id":"4","last_reported":1699733183,"current_range_meters":22400,"station_id":"ce4bgj92rcd13ifvqbd0","pricing_plan_id":"free"},{"bike_id":"562d9160-906d-4f11-b808-063ab985ce76","system_id":"levelo_inurba_marseille","lat":43.299014,"lon":5.384813,"is_reserved":false,"is_disabled":false,"rental_uris":{"android":"levelo://app?vid=562d9160-906d-4f11-b808-063ab985ce76","ios":"levelo://app?vid=562d9160-906d-4f11-b808-063ab985ce76"},"vehicle_type_id":"4","last_reported":1699733183,"current_range_meters":0,"station_id":"","pricing_plan_id":"free"},{"bike_id":"661efdb8-89f0-4dba-8290-44ee1cbd9122","system_id":"levelo_inurba_marseille","lat":43.309589,"lon":5.390258,"is_reserved":false,"is_disabled":false,"rental_uris":{"android":"levelo://app?vid=661efdb8-89f0-4dba-8290-44ee1cbd9122","ios":"levelo://app?vid=661efdb8-89f0-4dba-8290-44ee1cbd9122"},"vehicle_type_id":"4","last_reported":1699733183,"current_range_meters":21200,"station_id":"ce4bgup2rcd13ifvqco0","pricing_plan_id":"free"},{"bike_id":"2ba13be5-f219-45f4-9398-66cfcd05fc21","system_id":"levelo_inurba_marseille","lat":43.29601,"lon":5.381084,"is_reserved":false,"is_disabled":false,"rental_uris":{"android":"levelo://app?vid=2ba13be5-f219-45f4-9398-66cfcd05fc21","ios":"levelo://app?vid=2ba13be5-f219-45f4-9398-66cfcd05fc21"},"vehicle_type_id":"4","last_reported":1699733183,"current_range_meters":21600,"station_id":"ce4bgl12rcd13ifvqbo0","pricing_plan_id":"free"},{"bike_id":"e67b3e31-05d1-4058-9cc3-1be4cda5eb7e","system_id":"levelo_inurba_marseille","lat":43.29601,"lon":5.381084,"is_reserved":false,"is_disabled":false,"rental_uris":{"android":"levelo://app?vid=e67b3e31-05d1-4058-9cc3-1be4cda5eb7e","ios":"levelo://app?vid=e67b3e31-05d1-4058-9cc3-1be4cda5eb7e"},"vehicle_type_id":"4","last_reported":1699733183,"current_range_meters":2000,"station_id":"ce4bgl12rcd13ifvqbo0","pricing_plan_id":"free"},{"bike_id":"863376ef-c80b-45a5-96d1-67b45bebfa30","system_id":"levelo_inurba_marseille","lat":43.323732,"lon":5.389294,"is_reserved":false,"is_disabled":false,"rental_uris":{"android":"levelo://app?vid=863376ef-c80b-45a5-96d1-67b45bebfa30","ios":"levelo://app?vid=863376ef-c80b-45a5-96d1-67b45bebfa30"},"vehicle_type_id":"4","last_reported":1699733183,"current_range_meters":0,"station_id":"ce4bhqp2rcd13ifvqhog","pricing_plan_id":"free"},{"bike_id":"dd47bc8a-8aa4-4e78-a770-ca43b1fa1ab3","system_id":"levelo_inurba_marseille","lat":43.293259,"lon":5.371586,"is_reserved":false,"is_disabled":false,"rental_uris":{"android":"levelo://app?vid=dd47bc8a-8aa4-4e78-a770-ca43b1fa1ab3","ios":"levelo://app?vid=dd47bc8a-8aa4-4e78-a770-ca43b1fa1ab3"},"vehicle_type_id":"4","last_reported":1699733183,"current_range_meters":24800,"station_id":"ce4bgh92rcd13ifvqb40","pricing_plan_id":"free"},{"bike_id":"fa0c5c14-98b7-4489-b100-f3ea12cd91f7","system_id":"levelo_inurba_marseille","lat":43.2927,"lon":5.36836,"is_reserved":false,"is_disabled":false,"rental_uris":{"android":"levelo://app?vid=fa0c5c14-98b7-4489-b100-f3ea12cd91f7","ios":"levelo://app?vid=fa0c5c14-98b7-4489-b100-f3ea12cd91f7"},"vehicle_type_id":"4","last_reported":1699733183,"current_range_meters":6000,"station_id":"ce4bhbp2rcd13ifvqesg","pricing_plan_id":"free"},{"bike_id":"1f2edeec-835f-4188-b75a-b19c37bb1dac","system_id":"levelo_inurba_marseille","lat":43.30109,"lon":5.3894,"is_reserved":false,"is_disabled":false,"rental_uris":{"android":"levelo://app?vid=1f2edeec-835f-4188-b75a-b19c37bb1dac","ios":"levelo://app?vid=1f2edeec-835f-4188-b75a-b19c37bb1dac"},"vehicle_type_id":"4","last_reported":1699733183,"current_range_meters":4800,"station_id":"","pricing_plan_id":"free"},{"bike_id":"5d6cfd6f-627c-461d-83c1-02d6d046b5cd","system_id":"levelo_inurba_marseille","lat":43.29298,"lon":5.37446,"is_reserved":false,"is_disabled":false,"rental_uris":{"android":"levelo://app?vid=5d6cfd6f-627c-461d-83c1-02d6d046b5cd","ios":"levelo://app?vid=5d6cfd6f-627c-461d-83c1-02d6d046b5cd"},"vehicle_type_id":"4","last_reported":1699733183,"current_range_meters":0,"station_id":"ce4bgi12rcd13ifvqb70","pricing_plan_id":"free"},{"bike_id":"13007378-e00c-4e4f-b9f2-e9dd9276632d","system_id":"levelo_inurba_marseille","lat":43.305994,"lon":5.393687,"is_reserved":false,"is_disabled":false,"rental_uris":{"android":"levelo://app?vid=13007378-e00c-4e4f-b9f2-e9dd9276632d","ios":"levelo://app?vid=13007378-e00c-4e4f-b9f2-e9dd9276632d"},"vehicle_type_id":"4","last_reported":1699733183,"current_range_meters":22800,"station_id":"ce4bh0p2rcd13ifvqd80","pricing_plan_id":"free"},{"bike_id":"495380ba-d515-451b-9621-31234d4c376c","system_id":"levelo_inurba_marseille","lat":43.30079,"lon":5.39071,"is_reserved":false,"is_disabled":false,"rental_uris":{"android":"levelo://app?vid=495380ba-d515-451b-9621-31234d4c376c","ios":"levelo://app?vid=495380ba-d515-451b-9621-31234d4c376c"},"vehicle_type_id":"4","last_reported":1699733183,"current_range_meters":7200,"station_id":"ce4bh192rcd13ifvqdb0","pricing_plan_id":"free"},{"bike_id":"3ccefd5a-52f2-4ee1-8e77-9a972bfe4acb","system_id":"levelo_inurba_marseille","lat":43.30084,"lon":5.39076,"is_reserved":false,"is_disabled":false,"rental_uris":{"android":"levelo://app?vid=3ccefd5a-52f2-4ee1-8e77-9a972bfe4acb","ios":"levelo://app?vid=3ccefd5a-52f2-4ee1-8e77-9a972bfe4acb"},"vehicle_type_id":"4","last_reported":1699733183,"current_range_meters":11200,"station_id":"ce4bh192rcd13ifvqdb0","pricing_plan_id":"free"},{"bike_id":"4bcb1202-ee43-4f5e-91df-47133b9f5ed1","system_id":"levelo_inurba_marseille","lat":43.291671,"lon":5.371575,"is_reserved":false,"is_disabled":false,"rental_uris":{"android":"levelo://app?vid=4bcb1202-ee43-4f5e-91df-47133b9f5ed1","ios":"levelo://app?vid=4bcb1202-ee43-4f5e-91df-47133b9f5ed1"},"vehicle_type_id":"4","last_reported":1699733183,"current_range_meters":10800,"station_id":"ce4bha92rcd13ifvqeh0","pricing_plan_id":"free"},{"bike_id":"a4372473-11b8-40ed-861a-1a0530e73abf","system_id":"levelo_inurba_marseille","lat":43.291671,"lon":5.371575,"is_reserved":false,"is_disabled":false,"rental_uris":{"android":"levelo://app?vid=a4372473-11b8-40ed-861a-1a0530e73abf","ios":"levelo://app?vid=a4372473-11b8-40ed-861a-1a0530e73abf"},"vehicle_type_id":"4","last_reported":1699733183,"current_range_meters":25600,"station_id":"ce4bha92rcd13ifvqeh0","pricing_plan_id":"free"},{"bike_id":"156f538e-4c0e-4aab-b2a1-2bef9bb3723e","system_id":"levelo_inurba_marseille","lat":43.30888,"lon":5.396352,"is_reserved":false,"is_disabled":false,"rental_uris":{"android":"levelo://app?vid=156f538e-4c0e-4aab-b2a1-2bef9bb3723e","ios":"levelo://app?vid=156f538e-4c0e-4aab-b2a1-2bef9bb3723e"},"vehicle_type_id":"4","last_reported":1699733183,"current_range_meters":0,"station_id":"ce4bh012rcd13ifvqcv0","pricing_plan_id":"free"},{"bike_id":"313dd4a7-00cd-4a51-97c2-2bc4a19f8416","system_id":"levelo_inurba_marseille","lat":43.31324,"lon":5.39695,"is_reserved":false,"is_disabled":false,"rental_uris":{"android":"levelo://app?vid=313dd4a7-00cd-4a51-97c2-2bc4a19f8416","ios":"levelo://app?vid=313dd4a7-00cd-4a51-97c2-2bc4a19f8416"},"vehicle_type_id":"4","last_reported":1699733183,"current_range_meters":0,"station_id":"ce4bgvp2rcd13ifvqcu0","pricing_plan_id":"free"},{"bike_id":"e6c589d6-2502-48bd-bdbe-2e011c5f6bfd","system_id":"levelo_inurba_marseille","lat":43.291853,"lon":5.358067,"is_reserved":false,"is_disabled":false,"rental_uris":{"android":"levelo://app?vid=e6c589d6-2502-48bd-bdbe-2e011c5f6bfd","ios":"levelo://app?vid=e6c589d6-2502-48bd-bdbe-2e011c5f6bfd"},"vehicle_type_id":"4","last_reported":1699733183,"current_range_meters":2400,"station_id":"ce4bhb12rcd13ifvqel0","pricing_plan_id":"free"},{"bike_id":"f46a560a-2800-4ab8-9391-6a4de317c276","system_id":"levelo_inurba_marseille","lat":43.31327,"lon":5.39696,"is_reserved":false,"is_disabled":false,"rental_uris":{"android":"levelo://app?vid=f46a560a-2800-4ab8-9391-6a4de317c276","ios":"levelo://app?vid=f46a560a-2800-4ab8-9391-6a4de317c276"},"vehicle_type_id":"4","last_reported":1699733183,"current_range_meters":1600,"station_id":"ce4bgvp2rcd13ifvqcu0","pricing_plan_id":"free"},{"bike_id":"2ba1c815-ea3f-4d12-97a8-a8d6e5ffee77","system_id":"levelo_inurba_marseille","lat":43.309047,"lon":5.396551,"is_reserved":false,"is_disabled":false,"rental_uris":{"android":"levelo://app?vid=2ba1c815-ea3f-4d12-97a8-a8d6e5ffee77","ios":"levelo://app?vid=2ba1c815-ea3f-4d12-97a8-a8d6e5ffee77"},"vehicle_type_id":"4","last_reported":1699733183,"current_range_meters":1200,"station_id":"ce4bh012rcd13ifvqcv0","pricing_plan_id":"free"},{"bike_id":"e3ff79cf-83f6-48ee-86ce-0eaccf0d8551","system_id":"levelo_inurba_marseille","lat":43.295363,"lon":5.3854,"is_reserved":false,"is_disabled":false,"rental_uris":{"android":"levelo://app?vid=e3ff79cf-83f6-48ee-86ce-0eaccf0d8551","ios":"levelo://app?vid=e3ff79cf-83f6-48ee-86ce-0eaccf0d8551"},"vehicle_type_id":"4","last_reported":1699733183,"current_range_meters":0,"station_id":"ce4bgih2rcd13ifvqba0","pricing_plan_id":"free"},{"bike_id":"1d88a8e7-0bcf-451d-bb40-81f866d1022d","system_id":"levelo_inurba_marseille","lat":43.290779,"lon":5.371482,"is_reserved":false,"is_disabled":false,"rental_uris":{"android":"levelo://app?vid=1d88a8e7-0bcf-451d-bb40-81f866d1022d","ios":"levelo://app?vid=1d88a8e7-0bcf-451d-bb40-81f866d1022d"},"vehicle_type_id":"4","last_reported":1699733183,"current_range_meters":800,"station_id":"ce4bh5p2rcd13ifvqe4g","pricing_plan_id":"free"},{"bike_id":"0ae17692-4cfa-49de-8e86-2273fa84888d","system_id":"levelo_inurba_marseille","lat":43.290779,"lon":5.371482,"is_reserved":false,"is_disabled":false,"rental_uris":{"android":"levelo://app?vid=0ae17692-4cfa-49de-8e86-2273fa84888d","ios":"levelo://app?vid=0ae17692-4cfa-49de-8e86-2273fa84888d"},"vehicle_type_id":"4","last_reported":1699733183,"current_range_meters":6000,"station_id":"ce4bh5p2rcd13ifvqe4g","pricing_plan_id":"free"},{"bike_id":"266911a7-3596-493c-be63-ed601e608209","system_id":"levelo_inurba_marseille","lat":43.290247,"lon":5.369517,"is_reserved":false,"is_disabled":false,"rental_uris":{"android":"levelo://app?vid=266911a7-3596-493c-be63-ed601e608209","ios":"levelo://app?vid=266911a7-3596-493c-be63-ed601e608209"},"vehicle_type_id":"4","last_reported":1699733183,"current_range_meters":0,"station_id":"","pricing_plan_id":"free"},{"bike_id":"8866a971-d76b-4cc2-a3bb-cb201a30390c","system_id":"levelo_inurba_marseille","lat":43.302008,"lon":5.394694,"is_reserved":false,"is_disabled":false,"rental_uris":{"android":"levelo://app?vid=8866a971-d76b-4cc2-a3bb-cb201a30390c","ios":"levelo://app?vid=8866a971-d76b-4cc2-a3bb-cb201a30390c"},"vehicle_type_id":"4","last_reported":1699733183,"current_range_meters":2800,"station_id":"ce4bh0p2rcd13ifvqd70","pricing_plan_id":"free"},{"bike_id":"ddfd4e98-135b-4af4-8c48-d932c8f37848","system_id":"levelo_inurba_marseille","lat":43.30209,"lon":5.39462,"is_reserved":false,"is_disabled":false,"rental_uris":{"android":"levelo://app?vid=ddfd4e98-135b-4af4-8c48-d932c8f37848","ios":"levelo://app?vid=ddfd4e98-135b-4af4-8c48-d932c8f37848"},"vehicle_type_id":"4","last_reported":1699733183,"current_range_meters":6800,"station_id":"ce4bh0p2rcd13ifvqd70","pricing_plan_id":"free"},{"bike_id":"07a68ef5-7535-4f39-b086-46ed70263317","system_id":"levelo_inurba_marseille","lat":43.290624,"lon":5.359245,"is_reserved":false,"is_disabled":false,"rental_uris":{"android":"levelo://app?vid=07a68ef5-7535-4f39-b086-46ed70263317","ios":"levelo://app?vid=07a68ef5-7535-4f39-b086-46ed70263317"},"vehicle_type_id":"4","last_reported":1699733183,"current_range_meters":2000,"station_id":"ce4bha92rcd13ifvqeg0","pricing_plan_id":"free"},{"bike_id":"ebae0fc3-cb01-4dc6-ab21-f76c53480274","system_id":"levelo_inurba_marseille","lat":43.294162,"lon":5.386292,"is_reserved":false,"is_disabled":false,"rental_uris":{"android":"levelo://app?vid=ebae0fc3-cb01-4dc6-ab21-f76c53480274","ios":"levelo://app?vid=ebae0fc3-cb01-4dc6-ab21-f76c53480274"},"vehicle_type_id":"4","last_reported":1699733183,"current_range_meters":2000,"station_id":"ce4bh2h2rcd13ifvqdh0","pricing_plan_id":"free"},{"bike_id":"37e22b0d-b4f1-4270-9fe7-85b1fd264159","system_id":"levelo_inurba_marseille","lat":43.294162,"lon":5.386292,"is_reserved":false,"is_disabled":false,"rental_uris":{"android":"levelo://app?vid=37e22b0d-b4f1-4270-9fe7-85b1fd264159","ios":"levelo://app?vid=37e22b0d-b4f1-4270-9fe7-85b1fd264159"},"vehicle_type_id":"4","last_reported":1699733183,"current_range_meters":19200,"station_id":"ce4bh2h2rcd13ifvqdh0","pricing_plan_id":"free"},{"bike_id":"e3d2f554-7e0c-4382-9c26-489eb34a285e","system_id":"levelo_inurba_marseille","lat":43.294162,"lon":5.386292,"is_reserved":false,"is_disabled":false,"rental_uris":{"android":"levelo://app?vid=e3d2f554-7e0c-4382-9c26-489eb34a285e","ios":"levelo://app?vid=e3d2f554-7e0c-4382-9c26-489eb34a285e"},"vehicle_type_id":"4","last_reported":1699733183,"current_range_meters":13200,"station_id":"ce4bh2h2rcd13ifvqdh0","pricing_plan_id":"free"},{"bike_id":"5658a1d9-48c3-4c84-a1db-cf0e6368c92d","system_id":"levelo_inurba_marseille","lat":43.294162,"lon":5.386292,"is_reserved":false,"is_disabled":false,"rental_uris":{"android":"levelo://app?vid=5658a1d9-48c3-4c84-a1db-cf0e6368c92d","ios":"levelo://app?vid=5658a1d9-48c3-4c84-a1db-cf0e6368c92d"},"vehicle_type_id":"4","last_reported":1699733183,"current_range_meters":0,"station_id":"ce4bh2h2rcd13ifvqdh0","pricing_plan_id":"free"},{"bike_id":"9df5265a-8091-4dff-9724-38a88ef0c44c","system_id":"levelo_inurba_marseille","lat":43.294162,"lon":5.386292,"is_reserved":false,"is_disabled":false,"rental_uris":{"android":"levelo://app?vid=9df5265a-8091-4dff-9724-38a88ef0c44c","ios":"levelo://app?vid=9df5265a-8091-4dff-9724-38a88ef0c44c"},"vehicle_type_id":"4","last_reported":1699733183,"current_range_meters":1200,"station_id":"ce4bh2h2rcd13ifvqdh0","pricing_plan_id":"free"},{"bike_id":"fbdd1ac4-ba93-4b14-bd2f-333bf36a42f7","system_id":"levelo_inurba_marseille","lat":43.29265,"lon":5.38439,"is_reserved":false,"is_disabled":false,"rental_uris":{"android":"levelo://app?vid=fbdd1ac4-ba93-4b14-bd2f-333bf36a42f7","ios":"levelo://app?vid=fbdd1ac4-ba93-4b14-bd2f-333bf36a42f7"},"vehicle_type_id":"4","last_reported":1699733183,"current_range_meters":0,"station_id":"ce4bh692rcd13ifvqea0","pricing_plan_id":"free"},{"bike_id":"648c11aa-4d89-4948-8c5d-8600844ea9ff","system_id":"levelo_inurba_marseille","lat":43.292642,"lon":5.384254,"is_reserved":false,"is_disabled":false,"rental_uris":{"android":"levelo://app?vid=648c11aa-4d89-4948-8c5d-8600844ea9ff","ios":"levelo://app?vid=648c11aa-4d89-4948-8c5d-8600844ea9ff"},"vehicle_type_id":"4","last_reported":1699733183,"current_range_meters":24800,"station_id":"ce4bh692rcd13ifvqea0","pricing_plan_id":"free"},{"bike_id":"6aa11ccf-55ca-4320-ba8a-65691b69d171","system_id":"levelo_inurba_marseille","lat":43.29254,"lon":5.38441,"is_reserved":false,"is_disabled":false,"rental_uris":{"android":"levelo://app?vid=6aa11ccf-55ca-4320-ba8a-65691b69d171","ios":"levelo://app?vid=6aa11ccf-55ca-4320-ba8a-65691b69d171"},"vehicle_type_id":"4","last_reported":1699733183,"current_range_meters":1600,"station_id":"ce4bh692rcd13ifvqea0","pricing_plan_id":"free"},{"bike_id":"d91be78c-ebe2-4f7c-a4da-a0753ed823e7","system_id":"levelo_inurba_marseille","lat":43.33038,"lon":5.38921,"is_reserved":false,"is_disabled":false,"rental_uris":{"android":"levelo://app?vid=d91be78c-ebe2-4f7c-a4da-a0753ed823e7","ios":"levelo://app?vid=d91be78c-ebe2-4f7c-a4da-a0753ed823e7"},"vehicle_type_id":"4","last_reported":1699733183,"current_range_meters":21200,"station_id":"ce4bhr92rcd13ifvqhrg","pricing_plan_id":"free"},{"bike_id":"a3750632-9a89-47d6-b7ad-5016ce3e8fb2","system_id":"levelo_inurba_marseille","lat":43.291541,"lon":5.382344,"is_reserved":false,"is_disabled":false,"rental_uris":{"android":"levelo://app?vid=a3750632-9a89-47d6-b7ad-5016ce3e8fb2","ios":"levelo://app?vid=a3750632-9a89-47d6-b7ad-5016ce3e8fb2"},"vehicle_type_id":"4","last_reported":1699733183,"current_range_meters":0,"station_id":"","pricing_plan_id":"free"},{"bike_id":"3ab72e3c-0d27-431a-a496-5585e2f22788","system_id":"levelo_inurba_marseille","lat":43.33043,"lon":5.3892,"is_reserved":false,"is_disabled":false,"rental_uris":{"android":"levelo://app?vid=3ab72e3c-0d27-431a-a496-5585e2f22788","ios":"levelo://app?vid=3ab72e3c-0d27-431a-a496-5585e2f22788"},"vehicle_type_id":"4","last_reported":1699733183,"current_range_meters":29200,"station_id":"ce4bhr92rcd13ifvqhrg","pricing_plan_id":"free"},{"bike_id":"5af5c8ff-304a-4e4c-8dd0-2a9a98ffbb7d","system_id":"levelo_inurba_marseille","lat":43.33042,"lon":5.38922,"is_reserved":false,"is_disabled":false,"rental_uris":{"android":"levelo://app?vid=5af5c8ff-304a-4e4c-8dd0-2a9a98ffbb7d","ios":"levelo://app?vid=5af5c8ff-304a-4e4c-8dd0-2a9a98ffbb7d"},"vehicle_type_id":"4","last_reported":1699733183,"current_range_meters":12800,"station_id":"ce4bhr92rcd13ifvqhrg","pricing_plan_id":"free"},{"bike_id":"f36c6593-df42-4903-a370-87f0392c8b45","system_id":"levelo_inurba_marseille","lat":43.290995,"lon":5.381361,"is_reserved":false,"is_disabled":false,"rental_uris":{"android":"levelo://app?vid=f36c6593-df42-4903-a370-87f0392c8b45","ios":"levelo://app?vid=f36c6593-df42-4903-a370-87f0392c8b45"},"vehicle_type_id":"4","last_reported":1699733183,"current_range_meters":400,"station_id":"ce4bh512rcd13ifvqe2g","pricing_plan_id":"free"},{"bike_id":"8b58f8a9-c122-4f29-8bdd-47a947a13a0f","system_id":"levelo_inurba_marseille","lat":43.29002,"lon":5.35618,"is_reserved":false,"is_disabled":false,"rental_uris":{"android":"levelo://app?vid=8b58f8a9-c122-4f29-8bdd-47a947a13a0f","ios":"levelo://app?vid=8b58f8a9-c122-4f29-8bdd-47a947a13a0f"},"vehicle_type_id":"4","last_reported":1699733183,"current_range_meters":800,"station_id":"ce4bhb92rcd13ifvqen0","pricing_plan_id":"free"},{"bike_id":"aae1dd2f-d73f-4f88-a9fb-1968c4939f2d","system_id":"levelo_inurba_marseille","lat":43.290103,"lon":5.356114,"is_reserved":false,"is_disabled":false,"rental_uris":{"android":"levelo://app?vid=aae1dd2f-d73f-4f88-a9fb-1968c4939f2d","ios":"levelo://app?vid=aae1dd2f-d73f-4f88-a9fb-1968c4939f2d"},"vehicle_type_id":"4","last_reported":1699733183,"current_range_meters":11200,"station_id":"ce4bhb92rcd13ifvqen0","pricing_plan_id":"free"},{"bike_id":"2f795970-c318-4699-8bdf-a63faa85deb0","system_id":"levelo_inurba_marseille","lat":43.290995,"lon":5.381361,"is_reserved":false,"is_disabled":false,"rental_uris":{"android":"levelo://app?vid=2f795970-c318-4699-8bdf-a63faa85deb0","ios":"levelo://app?vid=2f795970-c318-4699-8bdf-a63faa85deb0"},"vehicle_type_id":"4","last_reported":1699733183,"current_range_meters":4000,"station_id":"ce4bh512rcd13ifvqe2g","pricing_plan_id":"free"},{"bike_id":"d2f717d1-b007-4443-89b9-5b31cd05a6e7","system_id":"levelo_inurba_marseille","lat":43.290995,"lon":5.381361,"is_reserved":false,"is_disabled":false,"rental_uris":{"android":"levelo://app?vid=d2f717d1-b007-4443-89b9-5b31cd05a6e7","ios":"levelo://app?vid=d2f717d1-b007-4443-89b9-5b31cd05a6e7"},"vehicle_type_id":"4","last_reported":1699733183,"current_range_meters":4000,"station_id":"ce4bh512rcd13ifvqe2g","pricing_plan_id":"free"},{"bike_id":"eb60be29-65d6-4b29-abb3-67393550e861","system_id":"levelo_inurba_marseille","lat":43.290995,"lon":5.381361,"is_reserved":false,"is_disabled":false,"rental_uris":{"android":"levelo://app?vid=eb60be29-65d6-4b29-abb3-67393550e861","ios":"levelo://app?vid=eb60be29-65d6-4b29-abb3-67393550e861"},"vehicle_type_id":"4","last_reported":1699733183,"current_range_meters":26000,"station_id":"ce4bh512rcd13ifvqe2g","pricing_plan_id":"free"},{"bike_id":"e7707482-7e17-44fe-a2b2-46c2b54094e7","system_id":"levelo_inurba_marseille","lat":43.290995,"lon":5.381361,"is_reserved":false,"is_disabled":false,"rental_uris":{"android":"levelo://app?vid=e7707482-7e17-44fe-a2b2-46c2b54094e7","ios":"levelo://app?vid=e7707482-7e17-44fe-a2b2-46c2b54094e7"},"vehicle_type_id":"4","last_reported":1699733183,"current_range_meters":4800,"station_id":"ce4bh512rcd13ifvqe2g","pricing_plan_id":"free"},{"bike_id":"ca882c09-7e56-4514-afcb-b2685d54f582","system_id":"levelo_inurba_marseille","lat":43.290995,"lon":5.381361,"is_reserved":false,"is_disabled":false,"rental_uris":{"android":"levelo://app?vid=ca882c09-7e56-4514-afcb-b2685d54f582","ios":"levelo://app?vid=ca882c09-7e56-4514-afcb-b2685d54f582"},"vehicle_type_id":"4","last_reported":1699733183,"current_range_meters":27200,"station_id":"ce4bh512rcd13ifvqe2g","pricing_plan_id":"free"},{"bike_id":"9f3ae9bf-4e21-4aec-b39d-c96194c1ea9b","system_id":"levelo_inurba_marseille","lat":43.295169,"lon":5.390426,"is_reserved":false,"is_disabled":false,"rental_uris":{"android":"levelo://app?vid=9f3ae9bf-4e21-4aec-b39d-c96194c1ea9b","ios":"levelo://app?vid=9f3ae9bf-4e21-4aec-b39d-c96194c1ea9b"},"vehicle_type_id":"4","last_reported":1699733183,"current_range_meters":12400,"station_id":"ce4bh3p2rcd13ifvqdp0","pricing_plan_id":"free"},{"bike_id":"4bc00d32-0a1d-4fea-b4ce-6e22de5883a9","system_id":"levelo_inurba_marseille","lat":43.289694,"lon":5.378232,"is_reserved":false,"is_disabled":false,"rental_uris":{"android":"levelo://app?vid=4bc00d32-0a1d-4fea-b4ce-6e22de5883a9","ios":"levelo://app?vid=4bc00d32-0a1d-4fea-b4ce-6e22de5883a9"},"vehicle_type_id":"4","last_reported":1699733183,"current_range_meters":0,"station_id":"ce4bh9p2rcd13ifvqed0","pricing_plan_id":"free"},{"bike_id":"8956a465-c7c0-4cae-9ed1-052f2fd6bf29","system_id":"levelo_inurba_marseille","lat":43.294162,"lon":5.386292,"is_reserved":false,"is_disabled":false,"rental_uris":{"android":"levelo://app?vid=8956a465-c7c0-4cae-9ed1-052f2fd6bf29","ios":"levelo://app?vid=8956a465-c7c0-4cae-9ed1-052f2fd6bf29"},"vehicle_type_id":"4","last_reported":1699733183,"current_range_meters":1200,"station_id":"ce4bh2h2rcd13ifvqdh0","pricing_plan_id":"free"},{"bike_id":"20996e56-0077-46ab-bf10-aa357f22b41c","system_id":"levelo_inurba_marseille","lat":43.290094,"lon":5.381264,"is_reserved":false,"is_disabled":false,"rental_uris":{"android":"levelo://app?vid=20996e56-0077-46ab-bf10-aa357f22b41c","ios":"levelo://app?vid=20996e56-0077-46ab-bf10-aa357f22b41c"},"vehicle_type_id":"4","last_reported":1699733183,"current_range_meters":14000,"station_id":"ce4bh4p2rcd13ifvqe1g","pricing_plan_id":"free"},{"bike_id":"3867ae79-a935-4b71-98f0-24396f8f0ea7","system_id":"levelo_inurba_marseille","lat":43.2901,"lon":5.381269,"is_reserved":false,"is_disabled":false,"rental_uris":{"android":"levelo://app?vid=3867ae79-a935-4b71-98f0-24396f8f0ea7","ios":"levelo://app?vid=3867ae79-a935-4b71-98f0-24396f8f0ea7"},"vehicle_type_id":"4","last_reported":1699733183,"current_range_meters":17200,"station_id":"ce4bh4p2rcd13ifvqe1g","pricing_plan_id":"free"},{"bike_id":"289247e2-92bb-46e0-91e6-32bea34f90c8","system_id":"levelo_inurba_marseille","lat":43.31258,"lon":5.40171,"is_reserved":false,"is_disabled":false,"rental_uris":{"android":"levelo://app?vid=289247e2-92bb-46e0-91e6-32bea34f90c8","ios":"levelo://app?vid=289247e2-92bb-46e0-91e6-32bea34f90c8"},"vehicle_type_id":"4","last_reported":1699733183,"current_range_meters":0,"station_id":"ce4bh092rcd13ifvqd30","pricing_plan_id":"free"},{"bike_id":"a670b0b4-88a5-4bcf-bd9c-9dc3dc994ff9","system_id":"levelo_inurba_marseille","lat":43.309371,"lon":5.401449,"is_reserved":false,"is_disabled":false,"rental_uris":{"android":"levelo://app?vid=a670b0b4-88a5-4bcf-bd9c-9dc3dc994ff9","ios":"levelo://app?vid=a670b0b4-88a5-4bcf-bd9c-9dc3dc994ff9"},"vehicle_type_id":"4","last_reported":1699733183,"current_range_meters":3200,"station_id":"ce4bgvp2rcd13ifvqct0","pricing_plan_id":"free"},{"bike_id":"562205e6-f4ad-47bb-b216-af120907e94b","system_id":"levelo_inurba_marseille","lat":43.30931,"lon":5.40155,"is_reserved":false,"is_disabled":false,"rental_uris":{"android":"levelo://app?vid=562205e6-f4ad-47bb-b216-af120907e94b","ios":"levelo://app?vid=562205e6-f4ad-47bb-b216-af120907e94b"},"vehicle_type_id":"4","last_reported":1699733183,"current_range_meters":0,"station_id":"ce4bgvp2rcd13ifvqct0","pricing_plan_id":"free"},{"bike_id":"61c9606b-5e0c-419f-a3b5-4fe4d535e889","system_id":"levelo_inurba_marseille","lat":43.33037,"lon":5.392367,"is_reserved":false,"is_disabled":false,"rental_uris":{"android":"levelo://app?vid=61c9606b-5e0c-419f-a3b5-4fe4d535e889","ios":"levelo://app?vid=61c9606b-5e0c-419f-a3b5-4fe4d535e889"},"vehicle_type_id":"4","last_reported":1699733183,"current_range_meters":9200,"station_id":"","pricing_plan_id":"free"},{"bike_id":"48aec1f6-5b31-47b2-b78c-955c0b50f7f7","system_id":"levelo_inurba_marseille","lat":43.306412,"lon":5.401035,"is_reserved":false,"is_disabled":false,"rental_uris":{"android":"levelo://app?vid=48aec1f6-5b31-47b2-b78c-955c0b50f7f7","ios":"levelo://app?vid=48aec1f6-5b31-47b2-b78c-955c0b50f7f7"},"vehicle_type_id":"4","last_reported":1699733183,"current_range_meters":14000,"station_id":"ce4bh112rcd13ifvqda0","pricing_plan_id":"free"},{"bike_id":"7a8bd85a-d802-45ec-b7ee-9ee253cb9a59","system_id":"levelo_inurba_marseille","lat":43.28727,"lon":5.36078,"is_reserved":false,"is_disabled":false,"rental_uris":{"android":"levelo://app?vid=7a8bd85a-d802-45ec-b7ee-9ee253cb9a59","ios":"levelo://app?vid=7a8bd85a-d802-45ec-b7ee-9ee253cb9a59"},"vehicle_type_id":"4","last_reported":1699733183,"current_range_meters":27600,"station_id":"cki0cbj6b192h4jlfktg","pricing_plan_id":"free"},{"bike_id":"358d42b7-48ff-4acf-97fb-09caeea2caa9","system_id":"levelo_inurba_marseille","lat":43.28727,"lon":5.36078,"is_reserved":false,"is_disabled":false,"rental_uris":{"android":"levelo://app?vid=358d42b7-48ff-4acf-97fb-09caeea2caa9","ios":"levelo://app?vid=358d42b7-48ff-4acf-97fb-09caeea2caa9"},"vehicle_type_id":"4","last_reported":1699733183,"current_range_meters":29600,"station_id":"cki0cbj6b192h4jlfktg","pricing_plan_id":"free"},{"bike_id":"1920f3c0-6c8d-4f33-8b7d-86ca6c77f444","system_id":"levelo_inurba_marseille","lat":43.286593,"lon":5.363346,"is_reserved":false,"is_disabled":false,"rental_uris":{"android":"levelo://app?vid=1920f3c0-6c8d-4f33-8b7d-86ca6c77f444","ios":"levelo://app?vid=1920f3c0-6c8d-4f33-8b7d-86ca6c77f444"},"vehicle_type_id":"4","last_reported":1699733183,"current_range_meters":8400,"station_id":"ce4bhah2rcd13ifvqej0","pricing_plan_id":"free"},{"bike_id":"70a75ed4-76f7-41d4-a078-478122738475","system_id":"levelo_inurba_marseille","lat":43.295194,"lon":5.39397,"is_reserved":false,"is_disabled":false,"rental_uris":{"android":"levelo://app?vid=70a75ed4-76f7-41d4-a078-478122738475","ios":"levelo://app?vid=70a75ed4-76f7-41d4-a078-478122738475"},"vehicle_type_id":"4","last_reported":1699733183,"current_range_meters":15600,"station_id":"ce4bh292rcd13ifvqdf0","pricing_plan_id":"free"},{"bike_id":"fd2b60f0-a9c3-4b68-b600-0d5c4a11d455","system_id":"levelo_inurba_marseille","lat":43.290423,"lon":5.38645,"is_reserved":false,"is_disabled":false,"rental_uris":{"android":"levelo://app?vid=fd2b60f0-a9c3-4b68-b600-0d5c4a11d455","ios":"levelo://app?vid=fd2b60f0-a9c3-4b68-b600-0d5c4a11d455"},"vehicle_type_id":"4","last_reported":1699733183,"current_range_meters":16400,"station_id":"ce4bh4p2rcd13ifvqe0g","pricing_plan_id":"free"},{"bike_id":"3e51e252-81c6-49cc-9c96-b3aa3f8ce2a2","system_id":"levelo_inurba_marseille","lat":43.302469,"lon":5.400639,"is_reserved":false,"is_disabled":false,"rental_uris":{"android":"levelo://app?vid=3e51e252-81c6-49cc-9c96-b3aa3f8ce2a2","ios":"levelo://app?vid=3e51e252-81c6-49cc-9c96-b3aa3f8ce2a2"},"vehicle_type_id":"4","last_reported":1699733183,"current_range_meters":2400,"station_id":"ce4bgvh2rcd13ifvqcs0","pricing_plan_id":"free"},{"bike_id":"547a1e48-266f-418c-91ab-da10d6c07cde","system_id":"levelo_inurba_marseille","lat":43.289307,"lon":5.38406,"is_reserved":false,"is_disabled":false,"rental_uris":{"android":"levelo://app?vid=547a1e48-266f-418c-91ab-da10d6c07cde","ios":"levelo://app?vid=547a1e48-266f-418c-91ab-da10d6c07cde"},"vehicle_type_id":"4","last_reported":1699733183,"current_range_meters":25600,"station_id":"ce4bh612rcd13ifvqe6g","pricing_plan_id":"free"},{"bike_id":"0da8d99f-fab6-4535-9ea9-db8dbb4096f7","system_id":"levelo_inurba_marseille","lat":43.29023,"lon":5.38647,"is_reserved":false,"is_disabled":false,"rental_uris":{"android":"levelo://app?vid=0da8d99f-fab6-4535-9ea9-db8dbb4096f7","ios":"levelo://app?vid=0da8d99f-fab6-4535-9ea9-db8dbb4096f7"},"vehicle_type_id":"4","last_reported":1699733183,"current_range_meters":11200,"station_id":"","pricing_plan_id":"free"},{"bike_id":"e8d95ca1-d99b-4ad0-a0f8-e61a8ec65199","system_id":"levelo_inurba_marseille","lat":43.316517,"lon":5.404375,"is_reserved":false,"is_disabled":false,"rental_uris":{"android":"levelo://app?vid=e8d95ca1-d99b-4ad0-a0f8-e61a8ec65199","ios":"levelo://app?vid=e8d95ca1-d99b-4ad0-a0f8-e61a8ec65199"},"vehicle_type_id":"4","last_reported":1699733183,"current_range_meters":13600,"station_id":"ce4bh012rcd13ifvqd00","pricing_plan_id":"free"},{"bike_id":"ec87b0e1-6e36-4b29-a75f-7427b70013d5","system_id":"levelo_inurba_marseille","lat":43.30313,"lon":5.40248,"is_reserved":false,"is_disabled":false,"rental_uris":{"android":"levelo://app?vid=ec87b0e1-6e36-4b29-a75f-7427b70013d5","ios":"levelo://app?vid=ec87b0e1-6e36-4b29-a75f-7427b70013d5"},"vehicle_type_id":"4","last_reported":1699733183,"current_range_meters":19200,"station_id":"","pricing_plan_id":"free"},{"bike_id":"ab3d1f34-44e1-4c7b-aa21-5d9a98591807","system_id":"levelo_inurba_marseille","lat":43.33074,"lon":5.396558,"is_reserved":false,"is_disabled":false,"rental_uris":{"android":"levelo://app?vid=ab3d1f34-44e1-4c7b-aa21-5d9a98591807","ios":"levelo://app?vid=ab3d1f34-44e1-4c7b-aa21-5d9a98591807"},"vehicle_type_id":"4","last_reported":1699733183,"current_range_meters":3600,"station_id":"","pricing_plan_id":"free"},{"bike_id":"e57449c2-d088-47cf-8bf2-271593713c89","system_id":"levelo_inurba_marseille","lat":43.328576,"lon":5.398841,"is_reserved":false,"is_disabled":false,"rental_uris":{"android":"levelo://app?vid=e57449c2-d088-47cf-8bf2-271593713c89","ios":"levelo://app?vid=e57449c2-d088-47cf-8bf2-271593713c89"},"vehicle_type_id":"4","last_reported":1699733183,"current_range_meters":7200,"station_id":"","pricing_plan_id":"free"},{"bike_id":"9f3cc0cc-d7a2-49fd-b834-176b54d9323a","system_id":"levelo_inurba_marseille","lat":43.31676,"lon":5.405205,"is_reserved":false,"is_disabled":false,"rental_uris":{"android":"levelo://app?vid=9f3cc0cc-d7a2-49fd-b834-176b54d9323a","ios":"levelo://app?vid=9f3cc0cc-d7a2-49fd-b834-176b54d9323a"},"vehicle_type_id":"4","last_reported":1699733183,"current_range_meters":0,"station_id":"","pricing_plan_id":"free"},{"bike_id":"1662d3a2-877c-431d-822e-03ffc931a8bf","system_id":"levelo_inurba_marseille","lat":43.291994,"lon":5.392907,"is_reserved":false,"is_disabled":false,"rental_uris":{"android":"levelo://app?vid=1662d3a2-877c-431d-822e-03ffc931a8bf","ios":"levelo://app?vid=1662d3a2-877c-431d-822e-03ffc931a8bf"},"vehicle_type_id":"4","last_reported":1699733183,"current_range_meters":10000,"station_id":"ce4bh192rcd13ifvqdd0","pricing_plan_id":"free"},{"bike_id":"d5477ca5-e76c-4cfa-815d-be203a87f3cc","system_id":"levelo_inurba_marseille","lat":43.291993,"lon":5.393219,"is_reserved":false,"is_disabled":false,"rental_uris":{"android":"levelo://app?vid=d5477ca5-e76c-4cfa-815d-be203a87f3cc","ios":"levelo://app?vid=d5477ca5-e76c-4cfa-815d-be203a87f3cc"},"vehicle_type_id":"4","last_reported":1699733183,"current_range_meters":0,"station_id":"ce4bh192rcd13ifvqdd0","pricing_plan_id":"free"},{"bike_id":"f9234fd4-c18c-45fe-9bc4-bf736f6e494f","system_id":"levelo_inurba_marseille","lat":43.29601,"lon":5.381084,"is_reserved":false,"is_disabled":false,"rental_uris":{"android":"levelo://app?vid=f9234fd4-c18c-45fe-9bc4-bf736f6e494f","ios":"levelo://app?vid=f9234fd4-c18c-45fe-9bc4-bf736f6e494f"},"vehicle_type_id":"4","last_reported":1699733183,"current_range_meters":21600,"station_id":"ce4bgl12rcd13ifvqbo0","pricing_plan_id":"free"},{"bike_id":"c8780321-2b9d-40a6-9623-5394233a6f97","system_id":"levelo_inurba_marseille","lat":43.284534,"lon":5.358662,"is_reserved":false,"is_disabled":false,"rental_uris":{"android":"levelo://app?vid=c8780321-2b9d-40a6-9623-5394233a6f97","ios":"levelo://app?vid=c8780321-2b9d-40a6-9623-5394233a6f97"},"vehicle_type_id":"4","last_reported":1699733183,"current_range_meters":800,"station_id":"ce4bhah2rcd13ifvqei0","pricing_plan_id":"free"},{"bike_id":"5a3e0194-9a70-4aaa-b360-1b40a49a4306","system_id":"levelo_inurba_marseille","lat":43.284534,"lon":5.358662,"is_reserved":false,"is_disabled":false,"rental_uris":{"android":"levelo://app?vid=5a3e0194-9a70-4aaa-b360-1b40a49a4306","ios":"levelo://app?vid=5a3e0194-9a70-4aaa-b360-1b40a49a4306"},"vehicle_type_id":"4","last_reported":1699733183,"current_range_meters":8400,"station_id":"ce4bhah2rcd13ifvqei0","pricing_plan_id":"free"},{"bike_id":"4749d076-7f7b-4b38-8dbc-12fe347e5e3f","system_id":"levelo_inurba_marseille","lat":43.28456,"lon":5.35888,"is_reserved":false,"is_disabled":false,"rental_uris":{"android":"levelo://app?vid=4749d076-7f7b-4b38-8dbc-12fe347e5e3f","ios":"levelo://app?vid=4749d076-7f7b-4b38-8dbc-12fe347e5e3f"},"vehicle_type_id":"4","last_reported":1699733183,"current_range_meters":0,"station_id":"ce4bhah2rcd13ifvqei0","pricing_plan_id":"free"},{"bike_id":"c979e483-0548-4c48-979c-69f20ebfa542","system_id":"levelo_inurba_marseille","lat":43.294314,"lon":5.397498,"is_reserved":false,"is_disabled":false,"rental_uris":{"android":"levelo://app?vid=c979e483-0548-4c48-979c-69f20ebfa542","ios":"levelo://app?vid=c979e483-0548-4c48-979c-69f20ebfa542"},"vehicle_type_id":"4","last_reported":1699733183,"current_range_meters":16000,"station_id":"ce4bh3h2rcd13ifvqdo0","pricing_plan_id":"free"},{"bike_id":"7a989cb3-d42d-4c06-a0bb-7e051cd1028e","system_id":"levelo_inurba_marseille","lat":43.28611,"lon":5.35102,"is_reserved":false,"is_disabled":false,"rental_uris":{"android":"levelo://app?vid=7a989cb3-d42d-4c06-a0bb-7e051cd1028e","ios":"levelo://app?vid=7a989cb3-d42d-4c06-a0bb-7e051cd1028e"},"vehicle_type_id":"4","last_reported":1699733183,"current_range_meters":11200,"station_id":"ce4bhch2rcd13ifvqeug","pricing_plan_id":"free"},{"bike_id":"c64a0937-bd48-4cac-99c4-c238aeed6691","system_id":"levelo_inurba_marseille","lat":43.28687,"lon":5.38662,"is_reserved":false,"is_disabled":false,"rental_uris":{"android":"levelo://app?vid=c64a0937-bd48-4cac-99c4-c238aeed6691","ios":"levelo://app?vid=c64a0937-bd48-4cac-99c4-c238aeed6691"},"vehicle_type_id":"4","last_reported":1699733183,"current_range_meters":0,"station_id":"ce4bh492rcd13ifvqdug","pricing_plan_id":"free"},{"bike_id":"3cb4f39b-b8b7-4aaa-b42d-ed773a4f45b4","system_id":"levelo_inurba_marseille","lat":43.319179,"lon":5.407725,"is_reserved":false,"is_disabled":false,"rental_uris":{"android":"levelo://app?vid=3cb4f39b-b8b7-4aaa-b42d-ed773a4f45b4","ios":"levelo://app?vid=3cb4f39b-b8b7-4aaa-b42d-ed773a4f45b4"},"vehicle_type_id":"4","last_reported":1699733183,"current_range_meters":26800,"station_id":"ce4bhq12rcd13ifvqhig","pricing_plan_id":"free"},{"bike_id":"08295c26-f27a-4ede-85e5-385b363c2964","system_id":"levelo_inurba_marseille","lat":43.319179,"lon":5.407725,"is_reserved":false,"is_disabled":false,"rental_uris":{"android":"levelo://app?vid=08295c26-f27a-4ede-85e5-385b363c2964","ios":"levelo://app?vid=08295c26-f27a-4ede-85e5-385b363c2964"},"vehicle_type_id":"4","last_reported":1699733183,"current_range_meters":400,"station_id":"ce4bhq12rcd13ifvqhig","pricing_plan_id":"free"},{"bike_id":"c9982d22-c49f-43d9-bfbb-1ef6adfe757a","system_id":"levelo_inurba_marseille","lat":43.319179,"lon":5.407725,"is_reserved":false,"is_disabled":false,"rental_uris":{"android":"levelo://app?vid=c9982d22-c49f-43d9-bfbb-1ef6adfe757a","ios":"levelo://app?vid=c9982d22-c49f-43d9-bfbb-1ef6adfe757a"},"vehicle_type_id":"4","last_reported":1699733183,"current_range_meters":2400,"station_id":"ce4bhq12rcd13ifvqhig","pricing_plan_id":"free"},{"bike_id":"030625bd-f8ba-4389-9944-df2973894a22","system_id":"levelo_inurba_marseille","lat":43.325731,"lon":5.404186,"is_reserved":false,"is_disabled":false,"rental_uris":{"android":"levelo://app?vid=030625bd-f8ba-4389-9944-df2973894a22","ios":"levelo://app?vid=030625bd-f8ba-4389-9944-df2973894a22"},"vehicle_type_id":"4","last_reported":1699733183,"current_range_meters":2800,"station_id":"","pricing_plan_id":"free"},{"bike_id":"0b083c6d-d1d4-4abb-84f8-baa4bad07eff","system_id":"levelo_inurba_marseille","lat":43.2873,"lon":5.38913,"is_reserved":false,"is_disabled":false,"rental_uris":{"android":"levelo://app?vid=0b083c6d-d1d4-4abb-84f8-baa4bad07eff","ios":"levelo://app?vid=0b083c6d-d1d4-4abb-84f8-baa4bad07eff"},"vehicle_type_id":"4","last_reported":1699733183,"current_range_meters":2000,"station_id":"","pricing_plan_id":"free"},{"bike_id":"27511aab-823c-465b-826c-e631eb925b28","system_id":"levelo_inurba_marseille","lat":43.33717,"lon":5.391857,"is_reserved":false,"is_disabled":false,"rental_uris":{"android":"levelo://app?vid=27511aab-823c-465b-826c-e631eb925b28","ios":"levelo://app?vid=27511aab-823c-465b-826c-e631eb925b28"},"vehicle_type_id":"4","last_reported":1699733183,"current_range_meters":25200,"station_id":"ce4bhr92rcd13ifvqhsg","pricing_plan_id":"free"},{"bike_id":"8f73f349-a272-4ad6-b8fd-7b017ee1ab31","system_id":"levelo_inurba_marseille","lat":43.337168,"lon":5.391825,"is_reserved":false,"is_disabled":false,"rental_uris":{"android":"levelo://app?vid=8f73f349-a272-4ad6-b8fd-7b017ee1ab31","ios":"levelo://app?vid=8f73f349-a272-4ad6-b8fd-7b017ee1ab31"},"vehicle_type_id":"4","last_reported":1699733183,"current_range_meters":29600,"station_id":"ce4bhr92rcd13ifvqhsg","pricing_plan_id":"free"},{"bike_id":"12320909-d7af-440f-9cea-b888d33b1d6b","system_id":"levelo_inurba_marseille","lat":43.284787,"lon":5.384116,"is_reserved":false,"is_disabled":false,"rental_uris":{"android":"levelo://app?vid=12320909-d7af-440f-9cea-b888d33b1d6b","ios":"levelo://app?vid=12320909-d7af-440f-9cea-b888d33b1d6b"},"vehicle_type_id":"4","last_reported":1699733183,"current_range_meters":0,"station_id":"ce4bh512rcd13ifvqe3g","pricing_plan_id":"free"},{"bike_id":"694cc18d-6823-481a-9d09-67d990c2d197","system_id":"levelo_inurba_marseille","lat":43.324289,"lon":5.407562,"is_reserved":false,"is_disabled":false,"rental_uris":{"android":"levelo://app?vid=694cc18d-6823-481a-9d09-67d990c2d197","ios":"levelo://app?vid=694cc18d-6823-481a-9d09-67d990c2d197"},"vehicle_type_id":"4","last_reported":1699733183,"current_range_meters":0,"station_id":"","pricing_plan_id":"free"},{"bike_id":"6bf2828e-1038-4427-abe4-76ffb872d0ac","system_id":"levelo_inurba_marseille","lat":43.282744,"lon":5.350533,"is_reserved":false,"is_disabled":false,"rental_uris":{"android":"levelo://app?vid=6bf2828e-1038-4427-abe4-76ffb872d0ac","ios":"levelo://app?vid=6bf2828e-1038-4427-abe4-76ffb872d0ac"},"vehicle_type_id":"4","last_reported":1699733183,"current_range_meters":1200,"station_id":"ce4bhbp2rcd13ifvqerg","pricing_plan_id":"free"},{"bike_id":"7c7583b9-d964-4689-b92b-ec2fd0f708a9","system_id":"levelo_inurba_marseille","lat":43.282744,"lon":5.350533,"is_reserved":false,"is_disabled":false,"rental_uris":{"android":"levelo://app?vid=7c7583b9-d964-4689-b92b-ec2fd0f708a9","ios":"levelo://app?vid=7c7583b9-d964-4689-b92b-ec2fd0f708a9"},"vehicle_type_id":"4","last_reported":1699733183,"current_range_meters":17200,"station_id":"ce4bhbp2rcd13ifvqerg","pricing_plan_id":"free"},{"bike_id":"2b5dd37c-450c-4aeb-994e-a507499593d8","system_id":"levelo_inurba_marseille","lat":43.282744,"lon":5.350533,"is_reserved":false,"is_disabled":false,"rental_uris":{"android":"levelo://app?vid=2b5dd37c-450c-4aeb-994e-a507499593d8","ios":"levelo://app?vid=2b5dd37c-450c-4aeb-994e-a507499593d8"},"vehicle_type_id":"4","last_reported":1699733183,"current_range_meters":24000,"station_id":"ce4bhbp2rcd13ifvqerg","pricing_plan_id":"free"},{"bike_id":"e53450ad-8bb6-4ab8-a543-d943e66f9ec0","system_id":"levelo_inurba_marseille","lat":43.282744,"lon":5.350533,"is_reserved":false,"is_disabled":false,"rental_uris":{"android":"levelo://app?vid=e53450ad-8bb6-4ab8-a543-d943e66f9ec0","ios":"levelo://app?vid=e53450ad-8bb6-4ab8-a543-d943e66f9ec0"},"vehicle_type_id":"4","last_reported":1699733183,"current_range_meters":1200,"station_id":"ce4bhbp2rcd13ifvqerg","pricing_plan_id":"free"},{"bike_id":"49490a5c-d24a-4f37-b628-e04274a84e60","system_id":"levelo_inurba_marseille","lat":43.29044,"lon":5.39983,"is_reserved":false,"is_disabled":false,"rental_uris":{"android":"levelo://app?vid=49490a5c-d24a-4f37-b628-e04274a84e60","ios":"levelo://app?vid=49490a5c-d24a-4f37-b628-e04274a84e60"},"vehicle_type_id":"4","last_reported":1699733183,"current_range_meters":0,"station_id":"ce4bh392rcd13ifvqdm0","pricing_plan_id":"free"},{"bike_id":"c5269fde-c094-4163-a2ac-a6350e774e3c","system_id":"levelo_inurba_marseille","lat":43.323447,"lon":5.41003,"is_reserved":false,"is_disabled":false,"rental_uris":{"android":"levelo://app?vid=c5269fde-c094-4163-a2ac-a6350e774e3c","ios":"levelo://app?vid=c5269fde-c094-4163-a2ac-a6350e774e3c"},"vehicle_type_id":"4","last_reported":1699733183,"current_range_meters":4400,"station_id":"","pricing_plan_id":"free"},{"bike_id":"a3f59a75-ecec-41a1-b6f0-cf5fb92476a8","system_id":"levelo_inurba_marseille","lat":43.28573,"lon":5.394992,"is_reserved":false,"is_disabled":false,"rental_uris":{"android":"levelo://app?vid=a3f59a75-ecec-41a1-b6f0-cf5fb92476a8","ios":"levelo://app?vid=a3f59a75-ecec-41a1-b6f0-cf5fb92476a8"},"vehicle_type_id":"4","last_reported":1699733183,"current_range_meters":16800,"station_id":"ce4bh292rcd13ifvqdg0","pricing_plan_id":"free"},{"bike_id":"1b87b58b-285a-4d57-a9dd-7316368b913d","system_id":"levelo_inurba_marseille","lat":43.28573,"lon":5.394992,"is_reserved":false,"is_disabled":false,"rental_uris":{"android":"levelo://app?vid=1b87b58b-285a-4d57-a9dd-7316368b913d","ios":"levelo://app?vid=1b87b58b-285a-4d57-a9dd-7316368b913d"},"vehicle_type_id":"4","last_reported":1699733183,"current_range_meters":5200,"station_id":"ce4bh292rcd13ifvqdg0","pricing_plan_id":"free"},{"bike_id":"a70ef2e4-6fce-4529-bd20-011567271df9","system_id":"levelo_inurba_marseille","lat":43.326605,"lon":5.409903,"is_reserved":false,"is_disabled":false,"rental_uris":{"android":"levelo://app?vid=a70ef2e4-6fce-4529-bd20-011567271df9","ios":"levelo://app?vid=a70ef2e4-6fce-4529-bd20-011567271df9"},"vehicle_type_id":"4","last_reported":1699733183,"current_range_meters":13600,"station_id":"ce4bhpp2rcd13ifvqhgg","pricing_plan_id":"free"},{"bike_id":"a87357b0-fd37-4b76-b31e-b04730a807d6","system_id":"levelo_inurba_marseille","lat":43.304188,"lon":5.412904,"is_reserved":false,"is_disabled":false,"rental_uris":{"android":"levelo://app?vid=a87357b0-fd37-4b76-b31e-b04730a807d6","ios":"levelo://app?vid=a87357b0-fd37-4b76-b31e-b04730a807d6"},"vehicle_type_id":"4","last_reported":1699733183,"current_range_meters":18400,"station_id":"ce4bhop2rcd13ifvqh8g","pricing_plan_id":"free"},{"bike_id":"7a5310f6-6e88-448c-a6ed-ce9b1fbaf769","system_id":"levelo_inurba_marseille","lat":43.279087,"lon":5.380114,"is_reserved":false,"is_disabled":false,"rental_uris":{"android":"levelo://app?vid=7a5310f6-6e88-448c-a6ed-ce9b1fbaf769","ios":"levelo://app?vid=7a5310f6-6e88-448c-a6ed-ce9b1fbaf769"},"vehicle_type_id":"4","last_reported":1699733183,"current_range_meters":9600,"station_id":"ce4bhf92rcd13ifvqf50","pricing_plan_id":"free"},{"bike_id":"1b694de2-5883-489c-8145-425a1874ee44","system_id":"levelo_inurba_marseille","lat":43.279087,"lon":5.380114,"is_reserved":false,"is_disabled":false,"rental_uris":{"android":"levelo://app?vid=1b694de2-5883-489c-8145-425a1874ee44","ios":"levelo://app?vid=1b694de2-5883-489c-8145-425a1874ee44"},"vehicle_type_id":"4","last_reported":1699733183,"current_range_meters":24800,"station_id":"ce4bhf92rcd13ifvqf50","pricing_plan_id":"free"},{"bike_id":"feca28d2-7019-4e39-96be-d7938cc29597","system_id":"levelo_inurba_marseille","lat":43.32435,"lon":5.4137,"is_reserved":false,"is_disabled":false,"rental_uris":{"android":"levelo://app?vid=feca28d2-7019-4e39-96be-d7938cc29597","ios":"levelo://app?vid=feca28d2-7019-4e39-96be-d7938cc29597"},"vehicle_type_id":"4","last_reported":1699733183,"current_range_meters":20400,"station_id":"","pricing_plan_id":"free"},{"bike_id":"69ab6f30-2766-48a5-8da5-1e6dce78cfc6","system_id":"levelo_inurba_marseille","lat":43.279742,"lon":5.38744,"is_reserved":false,"is_disabled":false,"rental_uris":{"android":"levelo://app?vid=69ab6f30-2766-48a5-8da5-1e6dce78cfc6","ios":"levelo://app?vid=69ab6f30-2766-48a5-8da5-1e6dce78cfc6"},"vehicle_type_id":"4","last_reported":1699733183,"current_range_meters":21200,"station_id":"ce4bhg12rcd13ifvqf80","pricing_plan_id":"free"},{"bike_id":"8cfe53b2-f84d-4a13-b084-36397b910162","system_id":"levelo_inurba_marseille","lat":43.279742,"lon":5.38744,"is_reserved":false,"is_disabled":false,"rental_uris":{"android":"levelo://app?vid=8cfe53b2-f84d-4a13-b084-36397b910162","ios":"levelo://app?vid=8cfe53b2-f84d-4a13-b084-36397b910162"},"vehicle_type_id":"4","last_reported":1699733183,"current_range_meters":1600,"station_id":"ce4bhg12rcd13ifvqf80","pricing_plan_id":"free"},{"bike_id":"2cbf46d8-ca07-4a66-8ddf-f5dcef022765","system_id":"levelo_inurba_marseille","lat":43.292571,"lon":5.409107,"is_reserved":false,"is_disabled":false,"rental_uris":{"android":"levelo://app?vid=2cbf46d8-ca07-4a66-8ddf-f5dcef022765","ios":"levelo://app?vid=2cbf46d8-ca07-4a66-8ddf-f5dcef022765"},"vehicle_type_id":"4","last_reported":1699733183,"current_range_meters":0,"station_id":"ce4bh192rcd13ifvqdc0","pricing_plan_id":"free"},{"bike_id":"ccb1f0d3-57f2-4b6c-8ef1-aef04bac80c6","system_id":"levelo_inurba_marseille","lat":43.325233,"lon":5.414318,"is_reserved":false,"is_disabled":false,"rental_uris":{"android":"levelo://app?vid=ccb1f0d3-57f2-4b6c-8ef1-aef04bac80c6","ios":"levelo://app?vid=ccb1f0d3-57f2-4b6c-8ef1-aef04bac80c6"},"vehicle_type_id":"4","last_reported":1699733183,"current_range_meters":30800,"station_id":"ce4bhq12rcd13ifvqhhg","pricing_plan_id":"free"},{"bike_id":"99a86961-4d75-4d3a-96a9-e9d890a0b503","system_id":"levelo_inurba_marseille","lat":43.325243,"lon":5.414326,"is_reserved":false,"is_disabled":false,"rental_uris":{"android":"levelo://app?vid=99a86961-4d75-4d3a-96a9-e9d890a0b503","ios":"levelo://app?vid=99a86961-4d75-4d3a-96a9-e9d890a0b503"},"vehicle_type_id":"4","last_reported":1699733183,"current_range_meters":27200,"station_id":"ce4bhq12rcd13ifvqhhg","pricing_plan_id":"free"},{"bike_id":"3ba97417-810b-4ddb-bd2d-96fba8f7873c","system_id":"levelo_inurba_marseille","lat":43.276179,"lon":5.361009,"is_reserved":false,"is_disabled":false,"rental_uris":{"android":"levelo://app?vid=3ba97417-810b-4ddb-bd2d-96fba8f7873c","ios":"levelo://app?vid=3ba97417-810b-4ddb-bd2d-96fba8f7873c"},"vehicle_type_id":"4","last_reported":1699733183,"current_range_meters":29600,"station_id":"ce4bgj92rcd13ifvqbe0","pricing_plan_id":"free"},{"bike_id":"ff1d36f2-94a1-4cf2-9aa0-202365e5981d","system_id":"levelo_inurba_marseille","lat":43.280784,"lon":5.396622,"is_reserved":false,"is_disabled":false,"rental_uris":{"android":"levelo://app?vid=ff1d36f2-94a1-4cf2-9aa0-202365e5981d","ios":"levelo://app?vid=ff1d36f2-94a1-4cf2-9aa0-202365e5981d"},"vehicle_type_id":"4","last_reported":1699733183,"current_range_meters":28800,"station_id":"ce4bho12rcd13ifvqh2g","pricing_plan_id":"free"},{"bike_id":"9dbe2033-6288-411c-b9f1-bd08dcc8b534","system_id":"levelo_inurba_marseille","lat":43.28076,"lon":5.39656,"is_reserved":false,"is_disabled":false,"rental_uris":{"android":"levelo://app?vid=9dbe2033-6288-411c-b9f1-bd08dcc8b534","ios":"levelo://app?vid=9dbe2033-6288-411c-b9f1-bd08dcc8b534"},"vehicle_type_id":"4","last_reported":1699733183,"current_range_meters":28000,"station_id":"","pricing_plan_id":"free"},{"bike_id":"20392b3b-1fd2-47a2-a1b9-13d0b86b7663","system_id":"levelo_inurba_marseille","lat":43.30353,"lon":5.41882,"is_reserved":false,"is_disabled":false,"rental_uris":{"android":"levelo://app?vid=20392b3b-1fd2-47a2-a1b9-13d0b86b7663","ios":"levelo://app?vid=20392b3b-1fd2-47a2-a1b9-13d0b86b7663"},"vehicle_type_id":"4","last_reported":1699733183,"current_range_meters":24800,"station_id":"ce4bhop2rcd13ifvqh7g","pricing_plan_id":"free"},{"bike_id":"136812b3-b779-45c6-8c39-930fe06ca7d8","system_id":"levelo_inurba_marseille","lat":43.273609,"lon":5.362708,"is_reserved":false,"is_disabled":false,"rental_uris":{"android":"levelo://app?vid=136812b3-b779-45c6-8c39-930fe06ca7d8","ios":"levelo://app?vid=136812b3-b779-45c6-8c39-930fe06ca7d8"},"vehicle_type_id":"4","last_reported":1699733183,"current_range_meters":17600,"station_id":"ce4bhbh2rcd13ifvqeo0","pricing_plan_id":"free"},{"bike_id":"f24e55e5-653c-4d6c-a03f-0b8d01c3ba0d","system_id":"levelo_inurba_marseille","lat":43.273613,"lon":5.362705,"is_reserved":false,"is_disabled":false,"rental_uris":{"android":"levelo://app?vid=f24e55e5-653c-4d6c-a03f-0b8d01c3ba0d","ios":"levelo://app?vid=f24e55e5-653c-4d6c-a03f-0b8d01c3ba0d"},"vehicle_type_id":"4","last_reported":1699733183,"current_range_meters":9600,"station_id":"ce4bhbh2rcd13ifvqeo0","pricing_plan_id":"free"},{"bike_id":"7357421c-dcc0-4ae3-b243-82b4938e19a5","system_id":"levelo_inurba_marseille","lat":43.275625,"lon":5.384392,"is_reserved":false,"is_disabled":false,"rental_uris":{"android":"levelo://app?vid=7357421c-dcc0-4ae3-b243-82b4938e19a5","ios":"levelo://app?vid=7357421c-dcc0-4ae3-b243-82b4938e19a5"},"vehicle_type_id":"4","last_reported":1699733183,"current_range_meters":16400,"station_id":"ce4bhh92rcd13ifvqfi0","pricing_plan_id":"free"},{"bike_id":"30b8a61b-a048-475c-a678-6286a5aa4aa6","system_id":"levelo_inurba_marseille","lat":43.273609,"lon":5.362708,"is_reserved":false,"is_disabled":false,"rental_uris":{"android":"levelo://app?vid=30b8a61b-a048-475c-a678-6286a5aa4aa6","ios":"levelo://app?vid=30b8a61b-a048-475c-a678-6286a5aa4aa6"},"vehicle_type_id":"4","last_reported":1699733183,"current_range_meters":10400,"station_id":"ce4bhbh2rcd13ifvqeo0","pricing_plan_id":"free"},{"bike_id":"087ae938-5fe8-462b-b10d-05b58d1a973d","system_id":"levelo_inurba_marseille","lat":43.275625,"lon":5.384392,"is_reserved":false,"is_disabled":false,"rental_uris":{"android":"levelo://app?vid=087ae938-5fe8-462b-b10d-05b58d1a973d","ios":"levelo://app?vid=087ae938-5fe8-462b-b10d-05b58d1a973d"},"vehicle_type_id":"4","last_reported":1699733183,"current_range_meters":4000,"station_id":"ce4bhh92rcd13ifvqfi0","pricing_plan_id":"free"},{"bike_id":"68ffca5c-f92e-4d2b-b812-3edfa190d5ea","system_id":"levelo_inurba_marseille","lat":43.278275,"lon":5.396505,"is_reserved":false,"is_disabled":false,"rental_uris":{"android":"levelo://app?vid=68ffca5c-f92e-4d2b-b812-3edfa190d5ea","ios":"levelo://app?vid=68ffca5c-f92e-4d2b-b812-3edfa190d5ea"},"vehicle_type_id":"4","last_reported":1699733183,"current_range_meters":7600,"station_id":"","pricing_plan_id":"free"},{"bike_id":"3a740c5c-b5c6-48b8-8736-3c09a24decaa","system_id":"levelo_inurba_marseille","lat":43.279952,"lon":5.400085,"is_reserved":false,"is_disabled":false,"rental_uris":{"android":"levelo://app?vid=3a740c5c-b5c6-48b8-8736-3c09a24decaa","ios":"levelo://app?vid=3a740c5c-b5c6-48b8-8736-3c09a24decaa"},"vehicle_type_id":"4","last_reported":1699733183,"current_range_meters":24400,"station_id":"ce4bho92rcd13ifvqh4g","pricing_plan_id":"free"},{"bike_id":"aa363758-f2a0-4be9-841d-d4f67434389b","system_id":"levelo_inurba_marseille","lat":43.340804,"lon":5.410219,"is_reserved":false,"is_disabled":false,"rental_uris":{"android":"levelo://app?vid=aa363758-f2a0-4be9-841d-d4f67434389b","ios":"levelo://app?vid=aa363758-f2a0-4be9-841d-d4f67434389b"},"vehicle_type_id":"4","last_reported":1699733183,"current_range_meters":2400,"station_id":"ce4bhqh2rcd13ifvqhlg","pricing_plan_id":"free"},{"bike_id":"ad5996fc-0490-4118-acb6-5eaf2d7360ad","system_id":"levelo_inurba_marseille","lat":43.273129,"lon":5.390725,"is_reserved":false,"is_disabled":false,"rental_uris":{"android":"levelo://app?vid=ad5996fc-0490-4118-acb6-5eaf2d7360ad","ios":"levelo://app?vid=ad5996fc-0490-4118-acb6-5eaf2d7360ad"},"vehicle_type_id":"4","last_reported":1699733183,"current_range_meters":0,"station_id":"ce4bhgp2rcd13ifvqfe0","pricing_plan_id":"free"},{"bike_id":"99e71c33-2549-4e0d-9feb-f55f86b0af98","system_id":"levelo_inurba_marseille","lat":43.30411,"lon":5.42545,"is_reserved":false,"is_disabled":false,"rental_uris":{"android":"levelo://app?vid=99e71c33-2549-4e0d-9feb-f55f86b0af98","ios":"levelo://app?vid=99e71c33-2549-4e0d-9feb-f55f86b0af98"},"vehicle_type_id":"4","last_reported":1699733183,"current_range_meters":10000,"station_id":"ce4bhoh2rcd13ifvqh6g","pricing_plan_id":"free"},{"bike_id":"3ae77eb2-738d-48a4-b993-2b33595816f0","system_id":"levelo_inurba_marseille","lat":43.30411,"lon":5.42552,"is_reserved":false,"is_disabled":false,"rental_uris":{"android":"levelo://app?vid=3ae77eb2-738d-48a4-b993-2b33595816f0","ios":"levelo://app?vid=3ae77eb2-738d-48a4-b993-2b33595816f0"},"vehicle_type_id":"4","last_reported":1699733183,"current_range_meters":28400,"station_id":"ce4bhoh2rcd13ifvqh6g","pricing_plan_id":"free"},{"bike_id":"7f7029a1-fbb1-49c4-a3b6-097f36482fc1","system_id":"levelo_inurba_marseille","lat":43.295523,"lon":5.422926,"is_reserved":false,"is_disabled":false,"rental_uris":{"android":"levelo://app?vid=7f7029a1-fbb1-49c4-a3b6-097f36482fc1","ios":"levelo://app?vid=7f7029a1-fbb1-49c4-a3b6-097f36482fc1"},"vehicle_type_id":"4","last_reported":1699733183,"current_range_meters":31200,"station_id":"ce4bhph2rcd13ifvqhdg","pricing_plan_id":"free"},{"bike_id":"c00f6d2a-eb03-4ee8-8df8-2205ae62126f","system_id":"levelo_inurba_marseille","lat":43.295511,"lon":5.422926,"is_reserved":false,"is_disabled":false,"rental_uris":{"android":"levelo://app?vid=c00f6d2a-eb03-4ee8-8df8-2205ae62126f","ios":"levelo://app?vid=c00f6d2a-eb03-4ee8-8df8-2205ae62126f"},"vehicle_type_id":"4","last_reported":1699733183,"current_range_meters":14400,"station_id":"ce4bhph2rcd13ifvqhdg","pricing_plan_id":"free"},{"bike_id":"47066698-1da7-4355-adf7-5ce933ced4af","system_id":"levelo_inurba_marseille","lat":43.269467,"lon":5.386439,"is_reserved":false,"is_disabled":false,"rental_uris":{"android":"levelo://app?vid=47066698-1da7-4355-adf7-5ce933ced4af","ios":"levelo://app?vid=47066698-1da7-4355-adf7-5ce933ced4af"},"vehicle_type_id":"4","last_reported":1699733183,"current_range_meters":16400,"station_id":"ce4bhh92rcd13ifvqfh0","pricing_plan_id":"free"},{"bike_id":"76349eb3-4cb9-4d8a-81aa-565646d90f01","system_id":"levelo_inurba_marseille","lat":43.27199,"lon":5.39187,"is_reserved":false,"is_disabled":false,"rental_uris":{"android":"levelo://app?vid=76349eb3-4cb9-4d8a-81aa-565646d90f01","ios":"levelo://app?vid=76349eb3-4cb9-4d8a-81aa-565646d90f01"},"vehicle_type_id":"4","last_reported":1699733183,"current_range_meters":0,"station_id":"ce4bhhp2rcd13ifvqfm0","pricing_plan_id":"free"},{"bike_id":"fea03e83-2672-4901-b739-2fbff174dd7e","system_id":"levelo_inurba_marseille","lat":43.27216,"lon":5.39252,"is_reserved":false,"is_disabled":false,"rental_uris":{"android":"levelo://app?vid=fea03e83-2672-4901-b739-2fbff174dd7e","ios":"levelo://app?vid=fea03e83-2672-4901-b739-2fbff174dd7e"},"vehicle_type_id":"4","last_reported":1699733183,"current_range_meters":4400,"station_id":"","pricing_plan_id":"free"},{"bike_id":"71e768a2-9b49-49d8-bb9b-827044bbb7f7","system_id":"levelo_inurba_marseille","lat":43.27203,"lon":5.39295,"is_reserved":false,"is_disabled":false,"rental_uris":{"android":"levelo://app?vid=71e768a2-9b49-49d8-bb9b-827044bbb7f7","ios":"levelo://app?vid=71e768a2-9b49-49d8-bb9b-827044bbb7f7"},"vehicle_type_id":"4","last_reported":1699733183,"current_range_meters":18000,"station_id":"","pricing_plan_id":"free"},{"bike_id":"eee6c058-fb9b-4aff-801b-ff161e14e986","system_id":"levelo_inurba_marseille","lat":43.278128,"lon":5.407195,"is_reserved":false,"is_disabled":false,"rental_uris":{"android":"levelo://app?vid=eee6c058-fb9b-4aff-801b-ff161e14e986","ios":"levelo://app?vid=eee6c058-fb9b-4aff-801b-ff161e14e986"},"vehicle_type_id":"4","last_reported":1699733183,"current_range_meters":400,"station_id":"ce4bhnh2rcd13ifvqgtg","pricing_plan_id":"free"},{"bike_id":"eb620939-ae4a-4359-b067-c44d4162d9f6","system_id":"levelo_inurba_marseille","lat":43.278128,"lon":5.407195,"is_reserved":false,"is_disabled":false,"rental_uris":{"android":"levelo://app?vid=eb620939-ae4a-4359-b067-c44d4162d9f6","ios":"levelo://app?vid=eb620939-ae4a-4359-b067-c44d4162d9f6"},"vehicle_type_id":"4","last_reported":1699733183,"current_range_meters":5600,"station_id":"ce4bhnh2rcd13ifvqgtg","pricing_plan_id":"free"},{"bike_id":"e36db96d-e752-4772-a430-747878200b51","system_id":"levelo_inurba_marseille","lat":43.278128,"lon":5.407195,"is_reserved":false,"is_disabled":false,"rental_uris":{"android":"levelo://app?vid=e36db96d-e752-4772-a430-747878200b51","ios":"levelo://app?vid=e36db96d-e752-4772-a430-747878200b51"},"vehicle_type_id":"4","last_reported":1699733183,"current_range_meters":17600,"station_id":"ce4bhnh2rcd13ifvqgtg","pricing_plan_id":"free"},{"bike_id":"3d16b8a5-448e-4d23-b7f7-e5ed3839b6bf","system_id":"levelo_inurba_marseille","lat":43.27806,"lon":5.40713,"is_reserved":false,"is_disabled":false,"rental_uris":{"android":"levelo://app?vid=3d16b8a5-448e-4d23-b7f7-e5ed3839b6bf","ios":"levelo://app?vid=3d16b8a5-448e-4d23-b7f7-e5ed3839b6bf"},"vehicle_type_id":"4","last_reported":1699733183,"current_range_meters":0,"station_id":"ce4bhnh2rcd13ifvqgtg","pricing_plan_id":"free"},{"bike_id":"04e2b25a-ab9c-498c-9ebe-f54fd018f28f","system_id":"levelo_inurba_marseille","lat":43.279465,"lon":5.410561,"is_reserved":false,"is_disabled":false,"rental_uris":{"android":"levelo://app?vid=04e2b25a-ab9c-498c-9ebe-f54fd018f28f","ios":"levelo://app?vid=04e2b25a-ab9c-498c-9ebe-f54fd018f28f"},"vehicle_type_id":"4","last_reported":1699733183,"current_range_meters":15200,"station_id":"ce4bhnp2rcd13ifvqh0g","pricing_plan_id":"free"},{"bike_id":"1b39b01b-b314-4e93-96bc-74d2eae452c4","system_id":"levelo_inurba_marseille","lat":43.269319,"lon":5.389397,"is_reserved":false,"is_disabled":false,"rental_uris":{"android":"levelo://app?vid=1b39b01b-b314-4e93-96bc-74d2eae452c4","ios":"levelo://app?vid=1b39b01b-b314-4e93-96bc-74d2eae452c4"},"vehicle_type_id":"4","last_reported":1699733183,"current_range_meters":0,"station_id":"ce4bhhh2rcd13ifvqfl0","pricing_plan_id":"free"},{"bike_id":"b6c4bb9f-8f54-4ebf-a809-9ba0dcf19f66","system_id":"levelo_inurba_marseille","lat":43.265714,"lon":5.372891,"is_reserved":false,"is_disabled":false,"rental_uris":{"android":"levelo://app?vid=b6c4bb9f-8f54-4ebf-a809-9ba0dcf19f66","ios":"levelo://app?vid=b6c4bb9f-8f54-4ebf-a809-9ba0dcf19f66"},"vehicle_type_id":"4","last_reported":1699733183,"current_range_meters":15600,"station_id":"ce4bhg12rcd13ifvqf70","pricing_plan_id":"free"},{"bike_id":"53ab52e4-f318-4f0f-8547-7c393ca237aa","system_id":"levelo_inurba_marseille","lat":43.26553,"lon":5.37286,"is_reserved":false,"is_disabled":false,"rental_uris":{"android":"levelo://app?vid=53ab52e4-f318-4f0f-8547-7c393ca237aa","ios":"levelo://app?vid=53ab52e4-f318-4f0f-8547-7c393ca237aa"},"vehicle_type_id":"4","last_reported":1699733183,"current_range_meters":24800,"station_id":"ce4bhg12rcd13ifvqf70","pricing_plan_id":"free"},{"bike_id":"63ee411b-4371-446f-8912-36805109bc70","system_id":"levelo_inurba_marseille","lat":43.265714,"lon":5.372891,"is_reserved":false,"is_disabled":false,"rental_uris":{"android":"levelo://app?vid=63ee411b-4371-446f-8912-36805109bc70","ios":"levelo://app?vid=63ee411b-4371-446f-8912-36805109bc70"},"vehicle_type_id":"4","last_reported":1699733183,"current_range_meters":20000,"station_id":"ce4bhg12rcd13ifvqf70","pricing_plan_id":"free"},{"bike_id":"b860e26d-db35-405f-8785-41e3598c986a","system_id":"levelo_inurba_marseille","lat":43.265714,"lon":5.372891,"is_reserved":false,"is_disabled":false,"rental_uris":{"android":"levelo://app?vid=b860e26d-db35-405f-8785-41e3598c986a","ios":"levelo://app?vid=b860e26d-db35-405f-8785-41e3598c986a"},"vehicle_type_id":"4","last_reported":1699733183,"current_range_meters":7600,"station_id":"ce4bhg12rcd13ifvqf70","pricing_plan_id":"free"},{"bike_id":"3609e19e-839b-4f7c-b34b-a8492c696b71","system_id":"levelo_inurba_marseille","lat":43.27995,"lon":5.41658,"is_reserved":false,"is_disabled":false,"rental_uris":{"android":"levelo://app?vid=3609e19e-839b-4f7c-b34b-a8492c696b71","ios":"levelo://app?vid=3609e19e-839b-4f7c-b34b-a8492c696b71"},"vehicle_type_id":"4","last_reported":1699733183,"current_range_meters":15200,"station_id":"ce4bho12rcd13ifvqh1g","pricing_plan_id":"free"},{"bike_id":"ab326ef4-d9f7-40d2-b87c-507b849f4a99","system_id":"levelo_inurba_marseille","lat":43.27994,"lon":5.41657,"is_reserved":false,"is_disabled":false,"rental_uris":{"android":"levelo://app?vid=ab326ef4-d9f7-40d2-b87c-507b849f4a99","ios":"levelo://app?vid=ab326ef4-d9f7-40d2-b87c-507b849f4a99"},"vehicle_type_id":"4","last_reported":1699733183,"current_range_meters":12000,"station_id":"ce4bho12rcd13ifvqh1g","pricing_plan_id":"free"},{"bike_id":"5a6c9f07-165b-4728-9677-c1577636c622","system_id":"levelo_inurba_marseille","lat":43.27996,"lon":5.416624,"is_reserved":false,"is_disabled":false,"rental_uris":{"android":"levelo://app?vid=5a6c9f07-165b-4728-9677-c1577636c622","ios":"levelo://app?vid=5a6c9f07-165b-4728-9677-c1577636c622"},"vehicle_type_id":"4","last_reported":1699733183,"current_range_meters":6400,"station_id":"ce4bho12rcd13ifvqh1g","pricing_plan_id":"free"},{"bike_id":"785d0f9d-c4bf-4c8e-bb45-d3dde57a7fd3","system_id":"levelo_inurba_marseille","lat":43.308051,"lon":5.43527,"is_reserved":false,"is_disabled":false,"rental_uris":{"android":"levelo://app?vid=785d0f9d-c4bf-4c8e-bb45-d3dde57a7fd3","ios":"levelo://app?vid=785d0f9d-c4bf-4c8e-bb45-d3dde57a7fd3"},"vehicle_type_id":"4","last_reported":1699733183,"current_range_meters":26000,"station_id":"ce4bhph2rcd13ifvqheg","pricing_plan_id":"free"},{"bike_id":"90869e21-36f7-4044-8eeb-983d9894930c","system_id":"levelo_inurba_marseille","lat":43.26571,"lon":5.39006,"is_reserved":false,"is_disabled":false,"rental_uris":{"android":"levelo://app?vid=90869e21-36f7-4044-8eeb-983d9894930c","ios":"levelo://app?vid=90869e21-36f7-4044-8eeb-983d9894930c"},"vehicle_type_id":"4","last_reported":1699733183,"current_range_meters":0,"station_id":"ce4bhe12rcd13ifvqf30","pricing_plan_id":"free"},{"bike_id":"67e522cd-7615-4ba2-8304-903517acc0e3","system_id":"levelo_inurba_marseille","lat":43.308,"lon":5.43529,"is_reserved":false,"is_disabled":false,"rental_uris":{"android":"levelo://app?vid=67e522cd-7615-4ba2-8304-903517acc0e3","ios":"levelo://app?vid=67e522cd-7615-4ba2-8304-903517acc0e3"},"vehicle_type_id":"4","last_reported":1699733183,"current_range_meters":16000,"station_id":"ce4bhph2rcd13ifvqheg","pricing_plan_id":"free"},{"bike_id":"2aa6c4b1-a67d-43b7-9eb1-fe5b5bec91bf","system_id":"levelo_inurba_marseille","lat":43.32903,"lon":5.43282,"is_reserved":false,"is_disabled":false,"rental_uris":{"android":"levelo://app?vid=2aa6c4b1-a67d-43b7-9eb1-fe5b5bec91bf","ios":"levelo://app?vid=2aa6c4b1-a67d-43b7-9eb1-fe5b5bec91bf"},"vehicle_type_id":"4","last_reported":1699733183,"current_range_meters":9600,"station_id":"","pricing_plan_id":"free"},{"bike_id":"99d1910d-a84d-4eaf-bf7a-e5a15d325b53","system_id":"levelo_inurba_marseille","lat":43.331823,"lon":5.431664,"is_reserved":false,"is_disabled":false,"rental_uris":{"android":"levelo://app?vid=99d1910d-a84d-4eaf-bf7a-e5a15d325b53","ios":"levelo://app?vid=99d1910d-a84d-4eaf-bf7a-e5a15d325b53"},"vehicle_type_id":"4","last_reported":1699733183,"current_range_meters":0,"station_id":"","pricing_plan_id":"free"},{"bike_id":"a38cf9fe-3dcc-4264-9400-e43504351c00","system_id":"levelo_inurba_marseille","lat":43.317104,"lon":5.436818,"is_reserved":false,"is_disabled":false,"rental_uris":{"android":"levelo://app?vid=a38cf9fe-3dcc-4264-9400-e43504351c00","ios":"levelo://app?vid=a38cf9fe-3dcc-4264-9400-e43504351c00"},"vehicle_type_id":"4","last_reported":1699733183,"current_range_meters":8800,"station_id":"ce4bhp92rcd13ifvqhcg","pricing_plan_id":"free"},{"bike_id":"eebfab70-45c7-4f1a-86fa-5569a0521c48","system_id":"levelo_inurba_marseille","lat":43.317104,"lon":5.436818,"is_reserved":false,"is_disabled":false,"rental_uris":{"android":"levelo://app?vid=eebfab70-45c7-4f1a-86fa-5569a0521c48","ios":"levelo://app?vid=eebfab70-45c7-4f1a-86fa-5569a0521c48"},"vehicle_type_id":"4","last_reported":1699733183,"current_range_meters":11600,"station_id":"ce4bhp92rcd13ifvqhcg","pricing_plan_id":"free"},{"bike_id":"6fc78ab8-d626-47e7-8706-0582855c4fa2","system_id":"levelo_inurba_marseille","lat":43.317104,"lon":5.436818,"is_reserved":false,"is_disabled":false,"rental_uris":{"android":"levelo://app?vid=6fc78ab8-d626-47e7-8706-0582855c4fa2","ios":"levelo://app?vid=6fc78ab8-d626-47e7-8706-0582855c4fa2"},"vehicle_type_id":"4","last_reported":1699733183,"current_range_meters":17600,"station_id":"ce4bhp92rcd13ifvqhcg","pricing_plan_id":"free"},{"bike_id":"c48c9371-7c30-4897-8647-06790164a180","system_id":"levelo_inurba_marseille","lat":43.26501,"lon":5.39732,"is_reserved":false,"is_disabled":false,"rental_uris":{"android":"levelo://app?vid=c48c9371-7c30-4897-8647-06790164a180","ios":"levelo://app?vid=c48c9371-7c30-4897-8647-06790164a180"},"vehicle_type_id":"4","last_reported":1699733183,"current_range_meters":0,"station_id":"","pricing_plan_id":"free"},{"bike_id":"3b5bfcfe-b7e3-4624-abf7-d21c0c861046","system_id":"levelo_inurba_marseille","lat":43.281789,"lon":5.425628,"is_reserved":false,"is_disabled":false,"rental_uris":{"android":"levelo://app?vid=3b5bfcfe-b7e3-4624-abf7-d21c0c861046","ios":"levelo://app?vid=3b5bfcfe-b7e3-4624-abf7-d21c0c861046"},"vehicle_type_id":"4","last_reported":1699733183,"current_range_meters":2400,"station_id":"","pricing_plan_id":"free"},{"bike_id":"4f6880f4-3164-4fc2-9cf7-3c1358040f10","system_id":"levelo_inurba_marseille","lat":43.290501,"lon":5.433305,"is_reserved":false,"is_disabled":false,"rental_uris":{"android":"levelo://app?vid=4f6880f4-3164-4fc2-9cf7-3c1358040f10","ios":"levelo://app?vid=4f6880f4-3164-4fc2-9cf7-3c1358040f10"},"vehicle_type_id":"4","last_reported":1699733183,"current_range_meters":18400,"station_id":"","pricing_plan_id":"free"},{"bike_id":"dd5527bb-2a16-4299-a9f9-2eaaf249312f","system_id":"levelo_inurba_marseille","lat":43.281548,"lon":5.42643,"is_reserved":false,"is_disabled":false,"rental_uris":{"android":"levelo://app?vid=dd5527bb-2a16-4299-a9f9-2eaaf249312f","ios":"levelo://app?vid=dd5527bb-2a16-4299-a9f9-2eaaf249312f"},"vehicle_type_id":"4","last_reported":1699733183,"current_range_meters":26000,"station_id":"ce4bhnh2rcd13ifvqgug","pricing_plan_id":"free"},{"bike_id":"a263486d-f56a-46d5-a1dd-a63185081ceb","system_id":"levelo_inurba_marseille","lat":43.281548,"lon":5.42643,"is_reserved":false,"is_disabled":false,"rental_uris":{"android":"levelo://app?vid=a263486d-f56a-46d5-a1dd-a63185081ceb","ios":"levelo://app?vid=a263486d-f56a-46d5-a1dd-a63185081ceb"},"vehicle_type_id":"4","last_reported":1699733183,"current_range_meters":12000,"station_id":"ce4bhnh2rcd13ifvqgug","pricing_plan_id":"free"},{"bike_id":"cc8788fb-4600-45d6-a28f-8a9389ee11f9","system_id":"levelo_inurba_marseille","lat":43.281548,"lon":5.42643,"is_reserved":false,"is_disabled":false,"rental_uris":{"android":"levelo://app?vid=cc8788fb-4600-45d6-a28f-8a9389ee11f9","ios":"levelo://app?vid=cc8788fb-4600-45d6-a28f-8a9389ee11f9"},"vehicle_type_id":"4","last_reported":1699733183,"current_range_meters":2800,"station_id":"ce4bhnh2rcd13ifvqgug","pricing_plan_id":"free"},{"bike_id":"d21bf39b-4c81-4979-9370-585a387d298e","system_id":"levelo_inurba_marseille","lat":43.281548,"lon":5.42643,"is_reserved":false,"is_disabled":false,"rental_uris":{"android":"levelo://app?vid=d21bf39b-4c81-4979-9370-585a387d298e","ios":"levelo://app?vid=d21bf39b-4c81-4979-9370-585a387d298e"},"vehicle_type_id":"4","last_reported":1699733183,"current_range_meters":4800,"station_id":"ce4bhnh2rcd13ifvqgug","pricing_plan_id":"free"},{"bike_id":"1ed73a19-67b5-4669-8526-685c80708e99","system_id":"levelo_inurba_marseille","lat":43.281548,"lon":5.42643,"is_reserved":false,"is_disabled":false,"rental_uris":{"android":"levelo://app?vid=1ed73a19-67b5-4669-8526-685c80708e99","ios":"levelo://app?vid=1ed73a19-67b5-4669-8526-685c80708e99"},"vehicle_type_id":"4","last_reported":1699733183,"current_range_meters":31600,"station_id":"ce4bhnh2rcd13ifvqgug","pricing_plan_id":"free"},{"bike_id":"36c987c0-f24d-4ba9-8775-bb8cd20b74ec","system_id":"levelo_inurba_marseille","lat":43.281548,"lon":5.42643,"is_reserved":false,"is_disabled":false,"rental_uris":{"android":"levelo://app?vid=36c987c0-f24d-4ba9-8775-bb8cd20b74ec","ios":"levelo://app?vid=36c987c0-f24d-4ba9-8775-bb8cd20b74ec"},"vehicle_type_id":"4","last_reported":1699733183,"current_range_meters":26000,"station_id":"ce4bhnh2rcd13ifvqgug","pricing_plan_id":"free"},{"bike_id":"08e440d5-ba27-492d-9ac0-cfeffa9c671b","system_id":"levelo_inurba_marseille","lat":43.281548,"lon":5.42643,"is_reserved":false,"is_disabled":false,"rental_uris":{"android":"levelo://app?vid=08e440d5-ba27-492d-9ac0-cfeffa9c671b","ios":"levelo://app?vid=08e440d5-ba27-492d-9ac0-cfeffa9c671b"},"vehicle_type_id":"4","last_reported":1699733183,"current_range_meters":16400,"station_id":"ce4bhnh2rcd13ifvqgug","pricing_plan_id":"free"},{"bike_id":"7929fe62-478b-45ed-a32f-4cee63794674","system_id":"levelo_inurba_marseille","lat":43.275005,"lon":5.424511,"is_reserved":false,"is_disabled":false,"rental_uris":{"android":"levelo://app?vid=7929fe62-478b-45ed-a32f-4cee63794674","ios":"levelo://app?vid=7929fe62-478b-45ed-a32f-4cee63794674"},"vehicle_type_id":"4","last_reported":1699733183,"current_range_meters":16400,"station_id":"","pricing_plan_id":"free"},{"bike_id":"d1be4948-3db8-46c6-a0e9-4eb9877553a6","system_id":"levelo_inurba_marseille","lat":43.25497,"lon":5.3765,"is_reserved":false,"is_disabled":false,"rental_uris":{"android":"levelo://app?vid=d1be4948-3db8-46c6-a0e9-4eb9877553a6","ios":"levelo://app?vid=d1be4948-3db8-46c6-a0e9-4eb9877553a6"},"vehicle_type_id":"4","last_reported":1699733183,"current_range_meters":22800,"station_id":"ce4bhh12rcd13ifvqff0","pricing_plan_id":"free"},{"bike_id":"c70b55b3-86c9-4446-83d0-302c2ea2e52b","system_id":"levelo_inurba_marseille","lat":43.24814,"lon":5.374621,"is_reserved":false,"is_disabled":false,"rental_uris":{"android":"levelo://app?vid=c70b55b3-86c9-4446-83d0-302c2ea2e52b","ios":"levelo://app?vid=c70b55b3-86c9-4446-83d0-302c2ea2e52b"},"vehicle_type_id":"4","last_reported":1699733183,"current_range_meters":30800,"station_id":"ce4bhgh2rcd13ifvqfb0","pricing_plan_id":"free"},{"bike_id":"117f8247-c7a1-4bdc-82ec-a6885bad1e28","system_id":"levelo_inurba_marseille","lat":43.2479,"lon":5.374457,"is_reserved":false,"is_disabled":false,"rental_uris":{"android":"levelo://app?vid=117f8247-c7a1-4bdc-82ec-a6885bad1e28","ios":"levelo://app?vid=117f8247-c7a1-4bdc-82ec-a6885bad1e28"},"vehicle_type_id":"4","last_reported":1699733183,"current_range_meters":24000,"station_id":"ce4bhgh2rcd13ifvqfb0","pricing_plan_id":"free"},{"bike_id":"e87d01a5-bec1-417e-b6d0-0b9a60de459e","system_id":"levelo_inurba_marseille","lat":43.2479,"lon":5.374457,"is_reserved":false,"is_disabled":false,"rental_uris":{"android":"levelo://app?vid=e87d01a5-bec1-417e-b6d0-0b9a60de459e","ios":"levelo://app?vid=e87d01a5-bec1-417e-b6d0-0b9a60de459e"},"vehicle_type_id":"4","last_reported":1699733183,"current_range_meters":16000,"station_id":"ce4bhgh2rcd13ifvqfb0","pricing_plan_id":"free"},{"bike_id":"9337b8d7-0e38-45c3-9c02-77b75e0aafad","system_id":"levelo_inurba_marseille","lat":43.2479,"lon":5.374457,"is_reserved":false,"is_disabled":false,"rental_uris":{"android":"levelo://app?vid=9337b8d7-0e38-45c3-9c02-77b75e0aafad","ios":"levelo://app?vid=9337b8d7-0e38-45c3-9c02-77b75e0aafad"},"vehicle_type_id":"4","last_reported":1699733183,"current_range_meters":31200,"station_id":"ce4bhgh2rcd13ifvqfb0","pricing_plan_id":"free"},{"bike_id":"8453bef1-57eb-4c42-8483-4bb26bab1bce","system_id":"levelo_inurba_marseille","lat":43.24693,"lon":5.382096,"is_reserved":false,"is_disabled":false,"rental_uris":{"android":"levelo://app?vid=8453bef1-57eb-4c42-8483-4bb26bab1bce","ios":"levelo://app?vid=8453bef1-57eb-4c42-8483-4bb26bab1bce"},"vehicle_type_id":"4","last_reported":1699733183,"current_range_meters":22000,"station_id":"ce4bhih2rcd13ifvqfr0","pricing_plan_id":"free"},{"bike_id":"2b35464d-63a0-4a02-8eda-eec1e86fbbc2","system_id":"levelo_inurba_marseille","lat":43.24693,"lon":5.382096,"is_reserved":false,"is_disabled":false,"rental_uris":{"android":"levelo://app?vid=2b35464d-63a0-4a02-8eda-eec1e86fbbc2","ios":"levelo://app?vid=2b35464d-63a0-4a02-8eda-eec1e86fbbc2"},"vehicle_type_id":"4","last_reported":1699733183,"current_range_meters":17600,"station_id":"ce4bhih2rcd13ifvqfr0","pricing_plan_id":"free"},{"bike_id":"802e12c6-9e70-46f9-9d14-cb02ab675d15","system_id":"levelo_inurba_marseille","lat":43.24693,"lon":5.382096,"is_reserved":false,"is_disabled":false,"rental_uris":{"android":"levelo://app?vid=802e12c6-9e70-46f9-9d14-cb02ab675d15","ios":"levelo://app?vid=802e12c6-9e70-46f9-9d14-cb02ab675d15"},"vehicle_type_id":"4","last_reported":1699733183,"current_range_meters":18800,"station_id":"ce4bhih2rcd13ifvqfr0","pricing_plan_id":"free"},{"bike_id":"dd3a45de-b87e-4613-8e52-da4559247b3d","system_id":"levelo_inurba_marseille","lat":43.25117,"lon":5.40316,"is_reserved":false,"is_disabled":false,"rental_uris":{"android":"levelo://app?vid=dd3a45de-b87e-4613-8e52-da4559247b3d","ios":"levelo://app?vid=dd3a45de-b87e-4613-8e52-da4559247b3d"},"vehicle_type_id":"4","last_reported":1699733183,"current_range_meters":15600,"station_id":"ce4bhlh2rcd13ifvqgig","pricing_plan_id":"free"},{"bike_id":"2cf684c5-e93b-4e19-a2a4-8828537a0d16","system_id":"levelo_inurba_marseille","lat":43.24693,"lon":5.382096,"is_reserved":false,"is_disabled":false,"rental_uris":{"android":"levelo://app?vid=2cf684c5-e93b-4e19-a2a4-8828537a0d16","ios":"levelo://app?vid=2cf684c5-e93b-4e19-a2a4-8828537a0d16"},"vehicle_type_id":"4","last_reported":1699733183,"current_range_meters":23200,"station_id":"ce4bhih2rcd13ifvqfr0","pricing_plan_id":"free"},{"bike_id":"adda1b89-4988-41f7-a68c-f18da3b493b5","system_id":"levelo_inurba_marseille","lat":43.25107,"lon":5.40325,"is_reserved":false,"is_disabled":false,"rental_uris":{"android":"levelo://app?vid=adda1b89-4988-41f7-a68c-f18da3b493b5","ios":"levelo://app?vid=adda1b89-4988-41f7-a68c-f18da3b493b5"},"vehicle_type_id":"4","last_reported":1699733183,"current_range_meters":8000,"station_id":"ce4bhlh2rcd13ifvqgig","pricing_plan_id":"free"},{"bike_id":"4aec2551-9918-4e76-8b01-60df92e0413b","system_id":"levelo_inurba_marseille","lat":43.243884,"lon":5.370737,"is_reserved":false,"is_disabled":false,"rental_uris":{"android":"levelo://app?vid=4aec2551-9918-4e76-8b01-60df92e0413b","ios":"levelo://app?vid=4aec2551-9918-4e76-8b01-60df92e0413b"},"vehicle_type_id":"4","last_reported":1699733183,"current_range_meters":2000,"station_id":"ce4bhhh2rcd13ifvqfk0","pricing_plan_id":"free"},{"bike_id":"c6a24e48-d3cc-4fe8-8aef-eb9d66fb363f","system_id":"levelo_inurba_marseille","lat":43.245581,"lon":5.395069,"is_reserved":false,"is_disabled":false,"rental_uris":{"android":"levelo://app?vid=c6a24e48-d3cc-4fe8-8aef-eb9d66fb363f","ios":"levelo://app?vid=c6a24e48-d3cc-4fe8-8aef-eb9d66fb363f"},"vehicle_type_id":"4","last_reported":1699733183,"current_range_meters":26400,"station_id":"ce4bhlp2rcd13ifvqgjg","pricing_plan_id":"free"},{"bike_id":"b05a8ece-3033-422a-8788-897daada9393","system_id":"levelo_inurba_marseille","lat":43.240623,"lon":5.377642,"is_reserved":false,"is_disabled":false,"rental_uris":{"android":"levelo://app?vid=b05a8ece-3033-422a-8788-897daada9393","ios":"levelo://app?vid=b05a8ece-3033-422a-8788-897daada9393"},"vehicle_type_id":"4","last_reported":1699733183,"current_range_meters":31200,"station_id":"ce4bhnp2rcd13ifvqgvg","pricing_plan_id":"free"},{"bike_id":"2cb2dfd6-d8dd-4133-bc0b-49e36f1f3b0a","system_id":"levelo_inurba_marseille","lat":43.240623,"lon":5.377642,"is_reserved":false,"is_disabled":false,"rental_uris":{"android":"levelo://app?vid=2cb2dfd6-d8dd-4133-bc0b-49e36f1f3b0a","ios":"levelo://app?vid=2cb2dfd6-d8dd-4133-bc0b-49e36f1f3b0a"},"vehicle_type_id":"4","last_reported":1699733183,"current_range_meters":31200,"station_id":"ce4bhnp2rcd13ifvqgvg","pricing_plan_id":"free"},{"bike_id":"f3db3ba9-7feb-4ab2-acf5-6ebd312fd7f3","system_id":"levelo_inurba_marseille","lat":43.239588,"lon":5.366238,"is_reserved":false,"is_disabled":false,"rental_uris":{"android":"levelo://app?vid=f3db3ba9-7feb-4ab2-acf5-6ebd312fd7f3","ios":"levelo://app?vid=f3db3ba9-7feb-4ab2-acf5-6ebd312fd7f3"},"vehicle_type_id":"4","last_reported":1699733183,"current_range_meters":30000,"station_id":"ce4bhi12rcd13ifvqfp0","pricing_plan_id":"free"},{"bike_id":"25eb023d-d34c-4df4-81ef-c10d918c5091","system_id":"levelo_inurba_marseille","lat":43.241782,"lon":5.397261,"is_reserved":false,"is_disabled":false,"rental_uris":{"android":"levelo://app?vid=25eb023d-d34c-4df4-81ef-c10d918c5091","ios":"levelo://app?vid=25eb023d-d34c-4df4-81ef-c10d918c5091"},"vehicle_type_id":"4","last_reported":1699733183,"current_range_meters":10400,"station_id":"ce4bhn12rcd13ifvqgpg","pricing_plan_id":"free"},{"bike_id":"4f79aa2a-74a2-4509-b77a-57eb459b7e39","system_id":"levelo_inurba_marseille","lat":43.231923,"lon":5.355545,"is_reserved":false,"is_disabled":false,"rental_uris":{"android":"levelo://app?vid=4f79aa2a-74a2-4509-b77a-57eb459b7e39","ios":"levelo://app?vid=4f79aa2a-74a2-4509-b77a-57eb459b7e39"},"vehicle_type_id":"4","last_reported":1699733183,"current_range_meters":23200,"station_id":"ce4bhu92rcd13ifvqi70","pricing_plan_id":"free"},{"bike_id":"0859de7a-4e96-4994-915d-d196bedc1906","system_id":"levelo_inurba_marseille","lat":43.231939,"lon":5.355495,"is_reserved":false,"is_disabled":false,"rental_uris":{"android":"levelo://app?vid=0859de7a-4e96-4994-915d-d196bedc1906","ios":"levelo://app?vid=0859de7a-4e96-4994-915d-d196bedc1906"},"vehicle_type_id":"4","last_reported":1699733183,"current_range_meters":15200,"station_id":"ce4bhu92rcd13ifvqi70","pricing_plan_id":"free"},{"bike_id":"4e116bed-fac4-4a4f-9500-0a5b0e267303","system_id":"levelo_inurba_marseille","lat":43.23193,"lon":5.3556,"is_reserved":false,"is_disabled":false,"rental_uris":{"android":"levelo://app?vid=4e116bed-fac4-4a4f-9500-0a5b0e267303","ios":"levelo://app?vid=4e116bed-fac4-4a4f-9500-0a5b0e267303"},"vehicle_type_id":"4","last_reported":1699733183,"current_range_meters":31200,"station_id":"ce4bhu92rcd13ifvqi70","pricing_plan_id":"free"},{"bike_id":"160b920b-7d61-4adc-a6bf-5bb49b108205","system_id":"levelo_inurba_marseille","lat":43.231884,"lon":5.355474,"is_reserved":false,"is_disabled":false,"rental_uris":{"android":"levelo://app?vid=160b920b-7d61-4adc-a6bf-5bb49b108205","ios":"levelo://app?vid=160b920b-7d61-4adc-a6bf-5bb49b108205"},"vehicle_type_id":"4","last_reported":1699733183,"current_range_meters":29600,"station_id":"ce4bhu92rcd13ifvqi70","pricing_plan_id":"free"},{"bike_id":"693f21cd-b058-4d5a-916a-d8bce96c3e74","system_id":"levelo_inurba_marseille","lat":43.231794,"lon":5.400052,"is_reserved":false,"is_disabled":false,"rental_uris":{"android":"levelo://app?vid=693f21cd-b058-4d5a-916a-d8bce96c3e74","ios":"levelo://app?vid=693f21cd-b058-4d5a-916a-d8bce96c3e74"},"vehicle_type_id":"4","last_reported":1699733183,"current_range_meters":30400,"station_id":"ce4bhn12rcd13ifvqgqg","pricing_plan_id":"free"},