{"last_updated":1749568318,"ttl":60,"version":"2.2","data":{"bikes":[{"bike_id":"b4d1eacb-0913-48c1-af13-8d5f00126e10","system_id":"levelo_inurba_marseille","lat":43.27822,"lon":5.40694,"is_reserved":false,"is_disabled":false,"rental_uris":{"android":"levelo://app?vid=b4d1eacb-0913-48c1-af13-8d5f00126e10","ios":"levelo://app?vid=b4d1eacb-0913-48c1-af13-8d5f00126e10"},"vehicle_type_id":"4","last_reported":1749568318,"current_range_meters":2800,"station_id":"ce4bhnh2rcd13ifvqgtg","pricing_plan_id":"cebpf4jnsgd1na2vs0mg"},{"bike_id":"694aa4d8-8d1c-4e91-aefd-aeedcb7cad61","system_id":"levelo_inurba_marseille","lat":43.28257,"lon":5.35077,"is_reserved":false,"is_disabled":false,"rental_uris":{"android":"levelo://app?vid=694aa4d8-8d1c-4e91-aefd-aeedcb7cad61","ios":"levelo://app?vid=694aa4d8-8d1c-4e91-aefd-aeedcb7cad61"},"vehicle_type_id":"4","last_reported":1749568318,"current_range_meters":2800,"station_id":"ce4bhbp2rcd13ifvqerg","pricing_plan_id":"cebpf4jnsgd1na2vs0mg"},{"bike_id":"01354226-4882-4b0f-9676-279812fd0968","system_id":"levelo_inurba_marseille","lat":43.3112,"lon":5.37759,"is_reserved":false,"is_disabled":true,"rental_uris":{"android":"levelo://app?vid=01354226-4882-4b0f-9676-279812fd0968","ios":"levelo://app?vid=01354226-4882-4b0f-9676-279812fd0968"},"vehicle_type_id":"4","last_reported":1749568318,"current_range_meters":2800,"station_id":"ce4bgt92rcd13ifvqcg0","pricing_plan_id":"cebpf4jnsgd1na2vs0mg"},{"bike_id":"b417b23a-5fce-40ee-92bb-802285966e24","system_id":"levelo_inurba_marseille","lat":43.28664,"lon":5.36353,"is_reserved":false,"is_disabled":false,"rental_uris":{"android":"levelo://app?vid=b417b23a-5fce-40ee-92bb-802285966e24","ios":"levelo://app?vid=b417b23a-5fce-40ee-92bb-802285966e24"},"vehicle_type_id":"4","last_reported":1749568318,"current_range_meters":3200,"station_id":"ce4bhah2rcd13ifvqej0","pricing_plan_id":"cebpf4jnsgd1na2vs0mg"},{"bike_id":"45819890-d14f-4b63-87ce-6482d448750b","system_id":"levelo_inurba_marseille","lat":43.28264,"lon":5.35066,"is_reserved":false,"is_disabled":false,"rental_uris":{"android":"levelo://app?vid=45819890-d14f-4b63-87ce-6482d448750b","ios":"levelo://app?vid=45819890-d14f-4b63-87ce-6482d448750b"},"vehicle_type_id":"4","last_reported":1749568318,"current_range_meters":3200,"station_id":"ce4bhbp2rcd13ifvqerg","pricing_plan_id":"cebpf4jnsgd1na2vs0mg"},{"bike_id":"4fd5984c-ac8b-4faf-8a33-6f5c9b6f5564","system_id":"levelo_inurba_marseille","lat":43.28861,"lon":5.35848,"is_reserved":false,"is_disabled":false,"rental_uris":{"android":"levelo://app?vid=4fd5984c-ac8b-4faf-8a33-6f5c9b6f5564","ios":"levelo://app?vid=4fd5984c-ac8b-4faf-8a33-6f5c9b6f5564"},"vehicle_type_id":"4","last_reported":1749568318,"current_range_meters":3200,"station_id":"ce4bhb12rcd13ifvqem0","pricing_plan_id":"cebpf4jnsgd1na2vs0mg"},{"bike_id":"33ae048d-e975-4d74-86f9-b02b9c7dc347","system_id":"levelo_inurba_marseille","lat":43.29586,"lon":5.36744,"is_reserved":false,"is_disabled":false,"rental_uris":{"android":"levelo://app?vid=33ae048d-e975-4d74-86f9-b02b9c7dc347","ios":"levelo://app?vid=33ae048d-e975-4d74-86f9-b02b9c7dc347"},"vehicle_type_id":"4","last_reported":1749568318,"current_range_meters":3200,"station_id":"ce4bgph2rcd13ifvqc2g","pricing_plan_id":"cebpf4jnsgd1na2vs0mg"},{"bike_id":"1a400732-9cbc-485c-85dd-d81223fb7a52","system_id":"levelo_inurba_marseille","lat":43.31234,"lon":5.36868,"is_reserved":false,"is_disabled":false,"rental_uris":{"android":"levelo://app?vid=1a400732-9cbc-485c-85dd-d81223fb7a52","ios":"levelo://app?vid=1a400732-9cbc-485c-85dd-d81223fb7a52"},"vehicle_type_id":"4","last_reported":1749568318,"current_range_meters":3600,"station_id":"ce4bgl92rcd13ifvqbq0","pricing_plan_id":"cebpf4jnsgd1na2vs0mg"},{"bike_id":"95019e27-3260-48a6-bc2c-e37fda9afa5c","system_id":"levelo_inurba_marseille","lat":43.29007,"lon":5.356229,"is_reserved":false,"is_disabled":false,"rental_uris":{"android":"levelo://app?vid=95019e27-3260-48a6-bc2c-e37fda9afa5c","ios":"levelo://app?vid=95019e27-3260-48a6-bc2c-e37fda9afa5c"},"vehicle_type_id":"4","last_reported":1749568318,"current_range_meters":3600,"station_id":"ce4bhb92rcd13ifvqen0","pricing_plan_id":"cebpf4jnsgd1na2vs0mg"},{"bike_id":"1aed5ece-d58c-4dc4-b0d3-542a238c307c","system_id":"levelo_inurba_marseille","lat":43.29071,"lon":5.37155,"is_reserved":false,"is_disabled":false,"rental_uris":{"android":"levelo://app?vid=1aed5ece-d58c-4dc4-b0d3-542a238c307c","ios":"levelo://app?vid=1aed5ece-d58c-4dc4-b0d3-542a238c307c"},"vehicle_type_id":"4","last_reported":1749568318,"current_range_meters":3600,"station_id":"ce4bh5p2rcd13ifvqe4g","pricing_plan_id":"cebpf4jnsgd1na2vs0mg"},{"bike_id":"9d20cd20-acbf-4733-a4ba-be6ca410f8f8","system_id":"levelo_inurba_marseille","lat":43.29976,"lon":5.38499,"is_reserved":false,"is_disabled":false,"rental_uris":{"android":"levelo://app?vid=9d20cd20-acbf-4733-a4ba-be6ca410f8f8","ios":"levelo://app?vid=9d20cd20-acbf-4733-a4ba-be6ca410f8f8"},"vehicle_type_id":"4","last_reported":1749568318,"current_range_meters":5600,"station_id":"ce4bgj92rcd13ifvqbd0","pricing_plan_id":"cebpf4jnsgd1na2vs0mg"},{"bike_id":"5dae46e8-0a4f-4736-9a24-982bc16c6cde","system_id":"levelo_inurba_marseille","lat":43.28412,"lon":5.34982,"is_reserved":false,"is_disabled":false,"rental_uris":{"android":"levelo://app?vid=5dae46e8-0a4f-4736-9a24-982bc16c6cde","ios":"levelo://app?vid=5dae46e8-0a4f-4736-9a24-982bc16c6cde"},"vehicle_type_id":"4","last_reported":1749568318,"current_range_meters":4400,"station_id":"ce4bhbh2rcd13ifvqepg","pricing_plan_id":"cebpf4jnsgd1na2vs0mg"},{"bike_id":"a9e002af-f922-4d5e-8f47-ad540cdca9e9","system_id":"levelo_inurba_marseille","lat":43.29787,"lon":5.39334,"is_reserved":false,"is_disabled":false,"rental_uris":{"android":"levelo://app?vid=a9e002af-f922-4d5e-8f47-ad540cdca9e9","ios":"levelo://app?vid=a9e002af-f922-4d5e-8f47-ad540cdca9e9"},"vehicle_type_id":"4","last_reported":1749568318,"current_range_meters":4800,"station_id":"chh1huq6cuj3fo74tm60","pricing_plan_id":"cebpf4jnsgd1na2vs0mg"},{"bike_id":"dd67f108-95bf-4a1e-b619-4bb77e009c5b","system_id":"levelo_inurba_marseille","lat":43.29046,"lon":5.42786,"is_reserved":false,"is_disabled":false,"rental_uris":{"android":"levelo://app?vid=dd67f108-95bf-4a1e-b619-4bb77e009c5b","ios":"levelo://app?vid=dd67f108-95bf-4a1e-b619-4bb77e009c5b"},"vehicle_type_id":"4","last_reported":1749568318,"current_range_meters":5600,"station_id":"","pricing_plan_id":"cebpf4jnsgd1na2vs0mg"},{"bike_id":"bc140286-64f8-4683-a5d7-b89e05f56410","system_id":"levelo_inurba_marseille","lat":43.26938,"lon":5.40255,"is_reserved":false,"is_disabled":false,"rental_uris":{"android":"levelo://app?vid=bc140286-64f8-4683-a5d7-b89e05f56410","ios":"levelo://app?vid=bc140286-64f8-4683-a5d7-b89e05f56410"},"vehicle_type_id":"4","last_reported":1749568318,"current_range_meters":5600,"station_id":"cjm6bp8fraef2m0cb0m0","pricing_plan_id":"cebpf4jnsgd1na2vs0mg"},{"bike_id":"30e5f4bb-a69a-4650-8e08-bc1310455a0c","system_id":"levelo_inurba_marseille","lat":43.295823,"lon":5.367495,"is_reserved":false,"is_disabled":false,"rental_uris":{"android":"levelo://app?vid=30e5f4bb-a69a-4650-8e08-bc1310455a0c","ios":"levelo://app?vid=30e5f4bb-a69a-4650-8e08-bc1310455a0c"},"vehicle_type_id":"4","last_reported":1749568318,"current_range_meters":6000,"station_id":"ce4bgph2rcd13ifvqc2g","pricing_plan_id":"cebpf4jnsgd1na2vs0mg"},{"bike_id":"f511734b-78f6-466c-a632-23e9869ef2bc","system_id":"levelo_inurba_marseille","lat":43.31226,"lon":5.36904,"is_reserved":false,"is_disabled":false,"rental_uris":{"android":"levelo://app?vid=f511734b-78f6-466c-a632-23e9869ef2bc","ios":"levelo://app?vid=f511734b-78f6-466c-a632-23e9869ef2bc"},"vehicle_type_id":"4","last_reported":1749568318,"current_range_meters":6000,"station_id":"ce4bgl92rcd13ifvqbq0","pricing_plan_id":"cebpf4jnsgd1na2vs0mg"},{"bike_id":"884d8f82-4234-4e12-9fe3-367aed1fe37c","system_id":"levelo_inurba_marseille","lat":43.28463,"lon":5.35896,"is_reserved":false,"is_disabled":false,"rental_uris":{"android":"levelo://app?vid=884d8f82-4234-4e12-9fe3-367aed1fe37c","ios":"levelo://app?vid=884d8f82-4234-4e12-9fe3-367aed1fe37c"},"vehicle_type_id":"4","last_reported":1749568318,"current_range_meters":6400,"station_id":"ce4bhah2rcd13ifvqei0","pricing_plan_id":"cebpf4jnsgd1na2vs0mg"},{"bike_id":"ccd70131-38c3-4708-9cf5-a7786fe0aaa9","system_id":"levelo_inurba_marseille","lat":43.27673,"lon":5.39816,"is_reserved":false,"is_disabled":false,"rental_uris":{"android":"levelo://app?vid=ccd70131-38c3-4708-9cf5-a7786fe0aaa9","ios":"levelo://app?vid=ccd70131-38c3-4708-9cf5-a7786fe0aaa9"},"vehicle_type_id":"4","last_reported":1749568318,"current_range_meters":6400,"station_id":"","pricing_plan_id":"cebpf4jnsgd1na2vs0mg"},{"bike_id":"ce2c0f7f-9508-4de3-882c-58869b143957","system_id":"levelo_inurba_marseille","lat":43.30148,"lon":5.38078,"is_reserved":false,"is_disabled":false,"rental_uris":{"android":"levelo://app?vid=ce2c0f7f-9508-4de3-882c-58869b143957","ios":"levelo://app?vid=ce2c0f7f-9508-4de3-882c-58869b143957"},"vehicle_type_id":"4","last_reported":1749568318,"current_range_meters":6400,"station_id":"ce4bgjp2rcd13ifvqbh0","pricing_plan_id":"cebpf4jnsgd1na2vs0mg"},{"bike_id":"15b696c1-54fb-44cc-9684-32e53b1bbfcb","system_id":"levelo_inurba_marseille","lat":43.31232,"lon":5.36894,"is_reserved":false,"is_disabled":false,"rental_uris":{"android":"levelo://app?vid=15b696c1-54fb-44cc-9684-32e53b1bbfcb","ios":"levelo://app?vid=15b696c1-54fb-44cc-9684-32e53b1bbfcb"},"vehicle_type_id":"4","last_reported":1749568318,"current_range_meters":6400,"station_id":"ce4bgl92rcd13ifvqbq0","pricing_plan_id":"cebpf4jnsgd1na2vs0mg"},{"bike_id":"9867bfe2-cdd5-4d75-9306-48a3fcf42c28","system_id":"levelo_inurba_marseille","lat":43.27174,"lon":5.40993,"is_reserved":false,"is_disabled":false,"rental_uris":{"android":"levelo://app?vid=9867bfe2-cdd5-4d75-9306-48a3fcf42c28","ios":"levelo://app?vid=9867bfe2-cdd5-4d75-9306-48a3fcf42c28"},"vehicle_type_id":"4","last_reported":1749568318,"current_range_meters":6800,"station_id":"ce4bhl12rcd13ifvqgf0","pricing_plan_id":"cebpf4jnsgd1na2vs0mg"},{"bike_id":"6a395a55-a9b9-4f56-956d-6b00aee0239f","system_id":"levelo_inurba_marseille","lat":43.30888,"lon":5.39661,"is_reserved":false,"is_disabled":false,"rental_uris":{"android":"levelo://app?vid=6a395a55-a9b9-4f56-956d-6b00aee0239f","ios":"levelo://app?vid=6a395a55-a9b9-4f56-956d-6b00aee0239f"},"vehicle_type_id":"4","last_reported":1749568318,"current_range_meters":6800,"station_id":"ce4bh012rcd13ifvqcv0","pricing_plan_id":"cebpf4jnsgd1na2vs0mg"},{"bike_id":"fe52c15f-5aec-4b7e-998e-284a85843b2f","system_id":"levelo_inurba_marseille","lat":43.32154,"lon":5.3677,"is_reserved":false,"is_disabled":false,"rental_uris":{"android":"levelo://app?vid=fe52c15f-5aec-4b7e-998e-284a85843b2f","ios":"levelo://app?vid=fe52c15f-5aec-4b7e-998e-284a85843b2f"},"vehicle_type_id":"4","last_reported":1749568318,"current_range_meters":6800,"station_id":"ce4bhrh2rcd13ifvqhug","pricing_plan_id":"cebpf4jnsgd1na2vs0mg"},{"bike_id":"7e0dbe45-dadd-4ca0-b3e3-cf4e53c201f0","system_id":"levelo_inurba_marseille","lat":43.3237,"lon":5.38885,"is_reserved":false,"is_disabled":false,"rental_uris":{"android":"levelo://app?vid=7e0dbe45-dadd-4ca0-b3e3-cf4e53c201f0","ios":"levelo://app?vid=7e0dbe45-dadd-4ca0-b3e3-cf4e53c201f0"},"vehicle_type_id":"4","last_reported":1749568318,"current_range_meters":6800,"station_id":"ce4bhqp2rcd13ifvqhog","pricing_plan_id":"cebpf4jnsgd1na2vs0mg"},{"bike_id":"36e78b95-39b5-418f-9b44-e3e051c6234e","system_id":"levelo_inurba_marseille","lat":43.273193,"lon":5.390745,"is_reserved":false,"is_disabled":false,"rental_uris":{"android":"levelo://app?vid=36e78b95-39b5-418f-9b44-e3e051c6234e","ios":"levelo://app?vid=36e78b95-39b5-418f-9b44-e3e051c6234e"},"vehicle_type_id":"4","last_reported":1749568318,"current_range_meters":7200,"station_id":"ce4bhgp2rcd13ifvqfe0","pricing_plan_id":"cebpf4jnsgd1na2vs0mg"},{"bike_id":"fb51abf9-afd2-46c2-aa92-afbe6838b5a6","system_id":"levelo_inurba_marseille","lat":43.26057,"lon":5.39396,"is_reserved":false,"is_disabled":false,"rental_uris":{"android":"levelo://app?vid=fb51abf9-afd2-46c2-aa92-afbe6838b5a6","ios":"levelo://app?vid=fb51abf9-afd2-46c2-aa92-afbe6838b5a6"},"vehicle_type_id":"4","last_reported":1749568318,"current_range_meters":7200,"station_id":"ce4bhh92rcd13ifvqfj0","pricing_plan_id":"cebpf4jnsgd1na2vs0mg"},{"bike_id":"9e5d4b58-3f95-439b-972b-c2bc824b8c0e","system_id":"levelo_inurba_marseille","lat":43.26195,"lon":5.37452,"is_reserved":false,"is_disabled":false,"rental_uris":{"android":"levelo://app?vid=9e5d4b58-3f95-439b-972b-c2bc824b8c0e","ios":"levelo://app?vid=9e5d4b58-3f95-439b-972b-c2bc824b8c0e"},"vehicle_type_id":"4","last_reported":1749568318,"current_range_meters":7200,"station_id":"ce4bhgp2rcd13ifvqfc0","pricing_plan_id":"cebpf4jnsgd1na2vs0mg"},{"bike_id":"7fd53d63-126d-4861-83d0-4e84d6398564","system_id":"levelo_inurba_marseille","lat":43.28616,"lon":5.35102,"is_reserved":false,"is_disabled":false,"rental_uris":{"android":"levelo://app?vid=7fd53d63-126d-4861-83d0-4e84d6398564","ios":"levelo://app?vid=7fd53d63-126d-4861-83d0-4e84d6398564"},"vehicle_type_id":"4","last_reported":1749568318,"current_range_meters":7200,"station_id":"ce4bhch2rcd13ifvqeug","pricing_plan_id":"cebpf4jnsgd1na2vs0mg"},{"bike_id":"291ab0bc-bb52-4ad0-a840-58f1558e3677","system_id":"levelo_inurba_marseille","lat":43.2175,"lon":5.34612,"is_reserved":false,"is_disabled":false,"rental_uris":{"android":"levelo://app?vid=291ab0bc-bb52-4ad0-a840-58f1558e3677","ios":"levelo://app?vid=291ab0bc-bb52-4ad0-a840-58f1558e3677"},"vehicle_type_id":"4","last_reported":1749568318,"current_range_meters":7200,"station_id":"st_cvj6r9ubvosntc0bgbag","pricing_plan_id":"cebpf4jnsgd1na2vs0mg"},{"bike_id":"c42694a6-c6f1-4800-8974-560751c61047","system_id":"levelo_inurba_marseille","lat":43.29631,"lon":5.40602,"is_reserved":false,"is_disabled":false,"rental_uris":{"android":"levelo://app?vid=c42694a6-c6f1-4800-8974-560751c61047","ios":"levelo://app?vid=c42694a6-c6f1-4800-8974-560751c61047"},"vehicle_type_id":"4","last_reported":1749568318,"current_range_meters":7200,"station_id":"ce4bh0h2rcd13ifvqd60","pricing_plan_id":"cebpf4jnsgd1na2vs0mg"},{"bike_id":"da14da1f-7442-42b5-98f6-365f4fbd4c56","system_id":"levelo_inurba_marseille","lat":43.32632,"lon":5.41033,"is_reserved":false,"is_disabled":false,"rental_uris":{"android":"levelo://app?vid=da14da1f-7442-42b5-98f6-365f4fbd4c56","ios":"levelo://app?vid=da14da1f-7442-42b5-98f6-365f4fbd4c56"},"vehicle_type_id":"4","last_reported":1749568318,"current_range_meters":7200,"station_id":"ce4bhpp2rcd13ifvqhgg","pricing_plan_id":"cebpf4jnsgd1na2vs0mg"},{"bike_id":"16258f39-8c9a-4382-935e-1fee6ffff156","system_id":"levelo_inurba_marseille","lat":43.29352,"lon":5.37876,"is_reserved":false,"is_disabled":false,"rental_uris":{"android":"levelo://app?vid=16258f39-8c9a-4382-935e-1fee6ffff156","ios":"levelo://app?vid=16258f39-8c9a-4382-935e-1fee6ffff156"},"vehicle_type_id":"4","last_reported":1749568318,"current_range_meters":7200,"station_id":"ce4bgjh2rcd13ifvqbf0","pricing_plan_id":"cebpf4jnsgd1na2vs0mg"},{"bike_id":"f0782932-4f65-40fc-9cee-a635f880f137","system_id":"levelo_inurba_marseille","lat":43.32369,"lon":5.36766,"is_reserved":false,"is_disabled":false,"rental_uris":{"android":"levelo://app?vid=f0782932-4f65-40fc-9cee-a635f880f137","ios":"levelo://app?vid=f0782932-4f65-40fc-9cee-a635f880f137"},"vehicle_type_id":"4","last_reported":1749568318,"current_range_meters":8000,"station_id":"ce4bhsh2rcd13ifvqi2g","pricing_plan_id":"cebpf4jnsgd1na2vs0mg"},{"bike_id":"2f32b755-3ca4-4102-8e33-37fff5e1ff8d","system_id":"levelo_inurba_marseille","lat":43.27173,"lon":5.40196,"is_reserved":false,"is_disabled":false,"rental_uris":{"android":"levelo://app?vid=2f32b755-3ca4-4102-8e33-37fff5e1ff8d","ios":"levelo://app?vid=2f32b755-3ca4-4102-8e33-37fff5e1ff8d"},"vehicle_type_id":"4","last_reported":1749568318,"current_range_meters":8000,"station_id":"","pricing_plan_id":"cebpf4jnsgd1na2vs0mg"},{"bike_id":"7fa8fe03-e761-44b8-8ced-e506fdbc1a3a","system_id":"levelo_inurba_marseille","lat":43.32125,"lon":5.36779,"is_reserved":false,"is_disabled":false,"rental_uris":{"android":"levelo://app?vid=7fa8fe03-e761-44b8-8ced-e506fdbc1a3a","ios":"levelo://app?vid=7fa8fe03-e761-44b8-8ced-e506fdbc1a3a"},"vehicle_type_id":"4","last_reported":1749568318,"current_range_meters":8000,"station_id":"ce4bhrh2rcd13ifvqhug","pricing_plan_id":"cebpf4jnsgd1na2vs0mg"},{"bike_id":"be44ee54-1c1d-4d86-b3c6-cf3476fac573","system_id":"levelo_inurba_marseille","lat":43.26871,"lon":5.369108,"is_reserved":false,"is_disabled":false,"rental_uris":{"android":"levelo://app?vid=be44ee54-1c1d-4d86-b3c6-cf3476fac573","ios":"levelo://app?vid=be44ee54-1c1d-4d86-b3c6-cf3476fac573"},"vehicle_type_id":"4","last_reported":1749568318,"current_range_meters":8000,"station_id":"ce4bgj92rcd13ifvqbe0","pricing_plan_id":"cebpf4jnsgd1na2vs0mg"},{"bike_id":"ea914a32-297c-4e67-99ec-709815751870","system_id":"levelo_inurba_marseille","lat":43.31694,"lon":5.40458,"is_reserved":false,"is_disabled":false,"rental_uris":{"android":"levelo://app?vid=ea914a32-297c-4e67-99ec-709815751870","ios":"levelo://app?vid=ea914a32-297c-4e67-99ec-709815751870"},"vehicle_type_id":"4","last_reported":1749568318,"current_range_meters":8400,"station_id":"ce4bh012rcd13ifvqd00","pricing_plan_id":"cebpf4jnsgd1na2vs0mg"},{"bike_id":"99cbce5f-cbd7-447c-a26a-a497efd720a1","system_id":"levelo_inurba_marseille","lat":43.28596,"lon":5.35122,"is_reserved":false,"is_disabled":false,"rental_uris":{"android":"levelo://app?vid=99cbce5f-cbd7-447c-a26a-a497efd720a1","ios":"levelo://app?vid=99cbce5f-cbd7-447c-a26a-a497efd720a1"},"vehicle_type_id":"4","last_reported":1749568318,"current_range_meters":8000,"station_id":"ce4bhch2rcd13ifvqeug","pricing_plan_id":"cebpf4jnsgd1na2vs0mg"},{"bike_id":"db951ccb-7be8-418d-818a-4e1820e5862e","system_id":"levelo_inurba_marseille","lat":43.23183,"lon":5.39988,"is_reserved":false,"is_disabled":false,"rental_uris":{"android":"levelo://app?vid=db951ccb-7be8-418d-818a-4e1820e5862e","ios":"levelo://app?vid=db951ccb-7be8-418d-818a-4e1820e5862e"},"vehicle_type_id":"4","last_reported":1749568318,"current_range_meters":8000,"station_id":"ce4bhn12rcd13ifvqgqg","pricing_plan_id":"cebpf4jnsgd1na2vs0mg"},{"bike_id":"968a0124-0b32-418b-85f0-edf9fce04197","system_id":"levelo_inurba_marseille","lat":43.27828,"lon":5.39199,"is_reserved":false,"is_disabled":true,"rental_uris":{"android":"levelo://app?vid=968a0124-0b32-418b-85f0-edf9fce04197","ios":"levelo://app?vid=968a0124-0b32-418b-85f0-edf9fce04197"},"vehicle_type_id":"4","last_reported":1749568318,"current_range_meters":8000,"station_id":"ce4bhjp2rcd13ifvqga0","pricing_plan_id":"cebpf4jnsgd1na2vs0mg"},{"bike_id":"ffb8d66d-1af0-4958-9da1-63777558d288","system_id":"levelo_inurba_marseille","lat":43.29631,"lon":5.40598,"is_reserved":false,"is_disabled":false,"rental_uris":{"android":"levelo://app?vid=ffb8d66d-1af0-4958-9da1-63777558d288","ios":"levelo://app?vid=ffb8d66d-1af0-4958-9da1-63777558d288"},"vehicle_type_id":"4","last_reported":1749568318,"current_range_meters":8400,"station_id":"ce4bh0h2rcd13ifvqd60","pricing_plan_id":"cebpf4jnsgd1na2vs0mg"},{"bike_id":"a8967dd2-0252-4559-b62c-936d02cbdc07","system_id":"levelo_inurba_marseille","lat":43.25829,"lon":5.39436,"is_reserved":false,"is_disabled":false,"rental_uris":{"android":"levelo://app?vid=a8967dd2-0252-4559-b62c-936d02cbdc07","ios":"levelo://app?vid=a8967dd2-0252-4559-b62c-936d02cbdc07"},"vehicle_type_id":"4","last_reported":1749568318,"current_range_meters":8400,"station_id":"ce4bhip2rcd13ifvqft0","pricing_plan_id":"cebpf4jnsgd1na2vs0mg"},{"bike_id":"88113087-f0bb-4133-ab2a-bbfce1f3d99a","system_id":"levelo_inurba_marseille","lat":43.317187,"lon":5.404719,"is_reserved":false,"is_disabled":true,"rental_uris":{"android":"levelo://app?vid=88113087-f0bb-4133-ab2a-bbfce1f3d99a","ios":"levelo://app?vid=88113087-f0bb-4133-ab2a-bbfce1f3d99a"},"vehicle_type_id":"4","last_reported":1749568318,"current_range_meters":8400,"station_id":"ce4bh012rcd13ifvqd00","pricing_plan_id":"cebpf4jnsgd1na2vs0mg"},{"bike_id":"0511cb9f-7dd3-4672-945b-236e9f0238ac","system_id":"levelo_inurba_marseille","lat":43.29794,"lon":5.37702,"is_reserved":false,"is_disabled":false,"rental_uris":{"android":"levelo://app?vid=0511cb9f-7dd3-4672-945b-236e9f0238ac","ios":"levelo://app?vid=0511cb9f-7dd3-4672-945b-236e9f0238ac"},"vehicle_type_id":"4","last_reported":1749568318,"current_range_meters":8400,"station_id":"","pricing_plan_id":"cebpf4jnsgd1na2vs0mg"},{"bike_id":"853eae3c-9838-4f99-bf25-04e35d525c63","system_id":"levelo_inurba_marseille","lat":43.28262,"lon":5.35067,"is_reserved":false,"is_disabled":false,"rental_uris":{"android":"levelo://app?vid=853eae3c-9838-4f99-bf25-04e35d525c63","ios":"levelo://app?vid=853eae3c-9838-4f99-bf25-04e35d525c63"},"vehicle_type_id":"4","last_reported":1749568318,"current_range_meters":8800,"station_id":"ce4bhbp2rcd13ifvqerg","pricing_plan_id":"cebpf4jnsgd1na2vs0mg"},{"bike_id":"49917676-8f98-444e-a341-5e35575ebdc8","system_id":"levelo_inurba_marseille","lat":43.28424,"lon":5.34992,"is_reserved":false,"is_disabled":false,"rental_uris":{"android":"levelo://app?vid=49917676-8f98-444e-a341-5e35575ebdc8","ios":"levelo://app?vid=49917676-8f98-444e-a341-5e35575ebdc8"},"vehicle_type_id":"4","last_reported":1749568318,"current_range_meters":8800,"station_id":"ce4bhbh2rcd13ifvqepg","pricing_plan_id":"cebpf4jnsgd1na2vs0mg"},{"bike_id":"dca87b55-b600-4f34-9d5d-a797f5e37680","system_id":"levelo_inurba_marseille","lat":43.28852,"lon":5.35866,"is_reserved":false,"is_disabled":false,"rental_uris":{"android":"levelo://app?vid=dca87b55-b600-4f34-9d5d-a797f5e37680","ios":"levelo://app?vid=dca87b55-b600-4f34-9d5d-a797f5e37680"},"vehicle_type_id":"4","last_reported":1749568318,"current_range_meters":9200,"station_id":"ce4bhb12rcd13ifvqem0","pricing_plan_id":"cebpf4jnsgd1na2vs0mg"},{"bike_id":"03756332-2c6b-4d52-a887-7e21a0e6d703","system_id":"levelo_inurba_marseille","lat":43.26064,"lon":5.39401,"is_reserved":false,"is_disabled":false,"rental_uris":{"android":"levelo://app?vid=03756332-2c6b-4d52-a887-7e21a0e6d703","ios":"levelo://app?vid=03756332-2c6b-4d52-a887-7e21a0e6d703"},"vehicle_type_id":"4","last_reported":1749568318,"current_range_meters":9200,"station_id":"ce4bhh92rcd13ifvqfj0","pricing_plan_id":"cebpf4jnsgd1na2vs0mg"},{"bike_id":"15ea6e95-d077-4786-b649-51f88854f238","system_id":"levelo_inurba_marseille","lat":43.25111,"lon":5.4032,"is_reserved":false,"is_disabled":false,"rental_uris":{"android":"levelo://app?vid=15ea6e95-d077-4786-b649-51f88854f238","ios":"levelo://app?vid=15ea6e95-d077-4786-b649-51f88854f238"},"vehicle_type_id":"4","last_reported":1749568318,"current_range_meters":9200,"station_id":"ce4bhlh2rcd13ifvqgig","pricing_plan_id":"cebpf4jnsgd1na2vs0mg"},{"bike_id":"dc87e812-c668-410c-9a1d-8ad5300bd924","system_id":"levelo_inurba_marseille","lat":43.26786,"lon":5.39412,"is_reserved":false,"is_disabled":false,"rental_uris":{"android":"levelo://app?vid=dc87e812-c668-410c-9a1d-8ad5300bd924","ios":"levelo://app?vid=dc87e812-c668-410c-9a1d-8ad5300bd924"},"vehicle_type_id":"4","last_reported":1749568318,"current_range_meters":9200,"station_id":"ce4bhh12rcd13ifvqfg0","pricing_plan_id":"cebpf4jnsgd1na2vs0mg"},{"bike_id":"e139ca23-e0ec-46e2-8d81-4dfa8bd7d732","system_id":"levelo_inurba_marseille","lat":43.2826,"lon":5.35071,"is_reserved":false,"is_disabled":false,"rental_uris":{"android":"levelo://app?vid=e139ca23-e0ec-46e2-8d81-4dfa8bd7d732","ios":"levelo://app?vid=e139ca23-e0ec-46e2-8d81-4dfa8bd7d732"},"vehicle_type_id":"4","last_reported":1749568318,"current_range_meters":9200,"station_id":"ce4bhbp2rcd13ifvqerg","pricing_plan_id":"cebpf4jnsgd1na2vs0mg"},{"bike_id":"ba509714-11ea-4d63-9ff5-405d995db14c","system_id":"levelo_inurba_marseille","lat":43.21747,"lon":5.346099,"is_reserved":false,"is_disabled":false,"rental_uris":{"android":"levelo://app?vid=ba509714-11ea-4d63-9ff5-405d995db14c","ios":"levelo://app?vid=ba509714-11ea-4d63-9ff5-405d995db14c"},"vehicle_type_id":"4","last_reported":1749568318,"current_range_meters":9200,"station_id":"st_cvj6r9ubvosntc0bgbag","pricing_plan_id":"cebpf4jnsgd1na2vs0mg"},{"bike_id":"bb6010de-0615-40a0-97bf-0d8cd3fe0ae1","system_id":"levelo_inurba_marseille","lat":43.31245,"lon":5.3686,"is_reserved":false,"is_disabled":false,"rental_uris":{"android":"levelo://app?vid=bb6010de-0615-40a0-97bf-0d8cd3fe0ae1","ios":"levelo://app?vid=bb6010de-0615-40a0-97bf-0d8cd3fe0ae1"},"vehicle_type_id":"4","last_reported":1749568318,"current_range_meters":9200,"station_id":"ce4bgl92rcd13ifvqbq0","pricing_plan_id":"cebpf4jnsgd1na2vs0mg"},{"bike_id":"53cec656-20de-48e0-99c2-0fc64785951e","system_id":"levelo_inurba_marseille","lat":43.30545,"lon":5.36551,"is_reserved":false,"is_disabled":false,"rental_uris":{"android":"levelo://app?vid=53cec656-20de-48e0-99c2-0fc64785951e","ios":"levelo://app?vid=53cec656-20de-48e0-99c2-0fc64785951e"},"vehicle_type_id":"4","last_reported":1749568318,"current_range_meters":9600,"station_id":"ce4bgs12rcd13ifvqcag","pricing_plan_id":"cebpf4jnsgd1na2vs0mg"},{"bike_id":"b6285f6b-e9e7-470d-9b6d-1afe99ab71bf","system_id":"levelo_inurba_marseille","lat":43.26188,"lon":5.42072,"is_reserved":false,"is_disabled":false,"rental_uris":{"android":"levelo://app?vid=b6285f6b-e9e7-470d-9b6d-1afe99ab71bf","ios":"levelo://app?vid=b6285f6b-e9e7-470d-9b6d-1afe99ab71bf"},"vehicle_type_id":"4","last_reported":1749568318,"current_range_meters":9600,"station_id":"","pricing_plan_id":"cebpf4jnsgd1na2vs0mg"},{"bike_id":"df1761c6-2f8c-4fac-a2a5-d63a32af35b7","system_id":"levelo_inurba_marseille","lat":43.27813,"lon":5.40712,"is_reserved":false,"is_disabled":false,"rental_uris":{"android":"levelo://app?vid=df1761c6-2f8c-4fac-a2a5-d63a32af35b7","ios":"levelo://app?vid=df1761c6-2f8c-4fac-a2a5-d63a32af35b7"},"vehicle_type_id":"4","last_reported":1749568318,"current_range_meters":9600,"station_id":"ce4bhnh2rcd13ifvqgtg","pricing_plan_id":"cebpf4jnsgd1na2vs0mg"},{"bike_id":"32ec1162-655f-42f8-86b4-297bd9442945","system_id":"levelo_inurba_marseille","lat":43.28278,"lon":5.35089,"is_reserved":false,"is_disabled":false,"rental_uris":{"android":"levelo://app?vid=32ec1162-655f-42f8-86b4-297bd9442945","ios":"levelo://app?vid=32ec1162-655f-42f8-86b4-297bd9442945"},"vehicle_type_id":"4","last_reported":1749568318,"current_range_meters":10000,"station_id":"ce4bhbp2rcd13ifvqerg","pricing_plan_id":"cebpf4jnsgd1na2vs0mg"},{"bike_id":"39d32260-51d5-455a-ba53-6471389bd255","system_id":"levelo_inurba_marseille","lat":43.32011,"lon":5.37626,"is_reserved":false,"is_disabled":false,"rental_uris":{"android":"levelo://app?vid=39d32260-51d5-455a-ba53-6471389bd255","ios":"levelo://app?vid=39d32260-51d5-455a-ba53-6471389bd255"},"vehicle_type_id":"4","last_reported":1749568318,"current_range_meters":10000,"station_id":"","pricing_plan_id":"cebpf4jnsgd1na2vs0mg"},{"bike_id":"9bc9ad1c-2084-441a-a98d-bf30c9eccafd","system_id":"levelo_inurba_marseille","lat":43.23152,"lon":5.43713,"is_reserved":false,"is_disabled":false,"rental_uris":{"android":"levelo://app?vid=9bc9ad1c-2084-441a-a98d-bf30c9eccafd","ios":"levelo://app?vid=9bc9ad1c-2084-441a-a98d-bf30c9eccafd"},"vehicle_type_id":"4","last_reported":1749568318,"current_range_meters":9600,"station_id":"ce4bhmp2rcd13ifvqgog","pricing_plan_id":"cebpf4jnsgd1na2vs0mg"},{"bike_id":"4932431b-3da2-47ce-8dc3-bb8b79200129","system_id":"levelo_inurba_marseille","lat":43.29619,"lon":5.371599,"is_reserved":false,"is_disabled":false,"rental_uris":{"android":"levelo://app?vid=4932431b-3da2-47ce-8dc3-bb8b79200129","ios":"levelo://app?vid=4932431b-3da2-47ce-8dc3-bb8b79200129"},"vehicle_type_id":"4","last_reported":1749568318,"current_range_meters":10800,"station_id":"","pricing_plan_id":"cebpf4jnsgd1na2vs0mg"},{"bike_id":"dd509fef-6595-4c27-829b-d8f2502ff560","system_id":"levelo_inurba_marseille","lat":43.28147,"lon":5.42632,"is_reserved":false,"is_disabled":false,"rental_uris":{"android":"levelo://app?vid=dd509fef-6595-4c27-829b-d8f2502ff560","ios":"levelo://app?vid=dd509fef-6595-4c27-829b-d8f2502ff560"},"vehicle_type_id":"4","last_reported":1749568318,"current_range_meters":10800,"station_id":"ce4bhnh2rcd13ifvqgug","pricing_plan_id":"cebpf4jnsgd1na2vs0mg"},{"bike_id":"9e70fb7b-e755-41b8-b358-73c5ea8136a3","system_id":"levelo_inurba_marseille","lat":43.28262,"lon":5.35078,"is_reserved":false,"is_disabled":false,"rental_uris":{"android":"levelo://app?vid=9e70fb7b-e755-41b8-b358-73c5ea8136a3","ios":"levelo://app?vid=9e70fb7b-e755-41b8-b358-73c5ea8136a3"},"vehicle_type_id":"4","last_reported":1749568318,"current_range_meters":10800,"station_id":"ce4bhbp2rcd13ifvqerg","pricing_plan_id":"cebpf4jnsgd1na2vs0mg"},{"bike_id":"b3965c46-e369-4bb2-b94c-cd3f8fe6d96b","system_id":"levelo_inurba_marseille","lat":43.27908,"lon":5.38016,"is_reserved":false,"is_disabled":false,"rental_uris":{"android":"levelo://app?vid=b3965c46-e369-4bb2-b94c-cd3f8fe6d96b","ios":"levelo://app?vid=b3965c46-e369-4bb2-b94c-cd3f8fe6d96b"},"vehicle_type_id":"4","last_reported":1749568318,"current_range_meters":10800,"station_id":"ce4bhf92rcd13ifvqf50","pricing_plan_id":"cebpf4jnsgd1na2vs0mg"},{"bike_id":"6499d1fc-3cb6-4458-b525-3c5d08b64f0c","system_id":"levelo_inurba_marseille","lat":43.301835,"lon":5.366145,"is_reserved":false,"is_disabled":false,"rental_uris":{"android":"levelo://app?vid=6499d1fc-3cb6-4458-b525-3c5d08b64f0c","ios":"levelo://app?vid=6499d1fc-3cb6-4458-b525-3c5d08b64f0c"},"vehicle_type_id":"4","last_reported":1749568318,"current_range_meters":10800,"station_id":"ce4bgrh2rcd13ifvqc8g","pricing_plan_id":"cebpf4jnsgd1na2vs0mg"},{"bike_id":"f1d43a1e-5d65-4af6-9422-e04e5425eab2","system_id":"levelo_inurba_marseille","lat":43.31178,"lon":5.38722,"is_reserved":false,"is_disabled":false,"rental_uris":{"android":"levelo://app?vid=f1d43a1e-5d65-4af6-9422-e04e5425eab2","ios":"levelo://app?vid=f1d43a1e-5d65-4af6-9422-e04e5425eab2"},"vehicle_type_id":"4","last_reported":1749568318,"current_range_meters":10000,"station_id":"ce4bgv12rcd13ifvqcp0","pricing_plan_id":"cebpf4jnsgd1na2vs0mg"},{"bike_id":"4e643616-64a8-4cb4-a699-5c99f31870eb","system_id":"levelo_inurba_marseille","lat":43.21749,"lon":5.34606,"is_reserved":false,"is_disabled":false,"rental_uris":{"android":"levelo://app?vid=4e643616-64a8-4cb4-a699-5c99f31870eb","ios":"levelo://app?vid=4e643616-64a8-4cb4-a699-5c99f31870eb"},"vehicle_type_id":"4","last_reported":1749568318,"current_range_meters":10800,"station_id":"st_cvj6r9ubvosntc0bgbag","pricing_plan_id":"cebpf4jnsgd1na2vs0mg"},{"bike_id":"1b760162-f793-424a-a929-ef3cd8eff0f8","system_id":"levelo_inurba_marseille","lat":43.28605,"lon":5.37059,"is_reserved":false,"is_disabled":false,"rental_uris":{"android":"levelo://app?vid=1b760162-f793-424a-a929-ef3cd8eff0f8","ios":"levelo://app?vid=1b760162-f793-424a-a929-ef3cd8eff0f8"},"vehicle_type_id":"4","last_reported":1749568318,"current_range_meters":11200,"station_id":"ce4bht12rcd13ifvqi60","pricing_plan_id":"cebpf4jnsgd1na2vs0mg"},{"bike_id":"5077581b-cebb-46fc-ba69-4fa8272d4810","system_id":"levelo_inurba_marseille","lat":43.21364,"lon":5.35556,"is_reserved":false,"is_disabled":false,"rental_uris":{"android":"levelo://app?vid=5077581b-cebb-46fc-ba69-4fa8272d4810","ios":"levelo://app?vid=5077581b-cebb-46fc-ba69-4fa8272d4810"},"vehicle_type_id":"4","last_reported":1749568318,"current_range_meters":11200,"station_id":"","pricing_plan_id":"cebpf4jnsgd1na2vs0mg"},{"bike_id":"6e0fa9a5-f3a1-4491-ad6c-fa566771e5ae","system_id":"levelo_inurba_marseille","lat":43.282684,"lon":5.35063,"is_reserved":false,"is_disabled":false,"rental_uris":{"android":"levelo://app?vid=6e0fa9a5-f3a1-4491-ad6c-fa566771e5ae","ios":"levelo://app?vid=6e0fa9a5-f3a1-4491-ad6c-fa566771e5ae"},"vehicle_type_id":"4","last_reported":1749568318,"current_range_meters":11200,"station_id":"ce4bhbp2rcd13ifvqerg","pricing_plan_id":"cebpf4jnsgd1na2vs0mg"},{"bike_id":"6890b9e2-87e1-40b6-9e0f-8af99f456400","system_id":"levelo_inurba_marseille","lat":43.29603,"lon":5.38096,"is_reserved":false,"is_disabled":true,"rental_uris":{"android":"levelo://app?vid=6890b9e2-87e1-40b6-9e0f-8af99f456400","ios":"levelo://app?vid=6890b9e2-87e1-40b6-9e0f-8af99f456400"},"vehicle_type_id":"4","last_reported":1749568318,"current_range_meters":11200,"station_id":"ce4bgl12rcd13ifvqbo0","pricing_plan_id":"cebpf4jnsgd1na2vs0mg"},{"bike_id":"eda1030c-0d36-4514-ae8b-a6130495d3ca","system_id":"levelo_inurba_marseille","lat":43.28618,"lon":5.35103,"is_reserved":false,"is_disabled":false,"rental_uris":{"android":"levelo://app?vid=eda1030c-0d36-4514-ae8b-a6130495d3ca","ios":"levelo://app?vid=eda1030c-0d36-4514-ae8b-a6130495d3ca"},"vehicle_type_id":"4","last_reported":1749568318,"current_range_meters":11200,"station_id":"ce4bhch2rcd13ifvqeug","pricing_plan_id":"cebpf4jnsgd1na2vs0mg"},{"bike_id":"f674397b-b6b4-424e-a877-b49e78b2472b","system_id":"levelo_inurba_marseille","lat":43.28276,"lon":5.35093,"is_reserved":false,"is_disabled":false,"rental_uris":{"android":"levelo://app?vid=f674397b-b6b4-424e-a877-b49e78b2472b","ios":"levelo://app?vid=f674397b-b6b4-424e-a877-b49e78b2472b"},"vehicle_type_id":"4","last_reported":1749568318,"current_range_meters":11200,"station_id":"ce4bhbp2rcd13ifvqerg","pricing_plan_id":"cebpf4jnsgd1na2vs0mg"},{"bike_id":"c31dcfd9-6048-45b7-8b1d-fae158fe1439","system_id":"levelo_inurba_marseille","lat":43.28262,"lon":5.35078,"is_reserved":false,"is_disabled":false,"rental_uris":{"android":"levelo://app?vid=c31dcfd9-6048-45b7-8b1d-fae158fe1439","ios":"levelo://app?vid=c31dcfd9-6048-45b7-8b1d-fae158fe1439"},"vehicle_type_id":"4","last_reported":1749568318,"current_range_meters":11600,"station_id":"ce4bhbp2rcd13ifvqerg","pricing_plan_id":"cebpf4jnsgd1na2vs0mg"},{"bike_id":"75d5aaa7-d932-4da7-9e2e-20b15e0eaeee","system_id":"levelo_inurba_marseille","lat":43.28418,"lon":5.34995,"is_reserved":false,"is_disabled":false,"rental_uris":{"android":"levelo://app?vid=75d5aaa7-d932-4da7-9e2e-20b15e0eaeee","ios":"levelo://app?vid=75d5aaa7-d932-4da7-9e2e-20b15e0eaeee"},"vehicle_type_id":"4","last_reported":1749568318,"current_range_meters":11600,"station_id":"ce4bhbh2rcd13ifvqepg","pricing_plan_id":"cebpf4jnsgd1na2vs0mg"},{"bike_id":"ef555bdb-3115-4b1f-9398-9c76776e1204","system_id":"levelo_inurba_marseille","lat":43.26034,"lon":5.37436,"is_reserved":false,"is_disabled":false,"rental_uris":{"android":"levelo://app?vid=ef555bdb-3115-4b1f-9398-9c76776e1204","ios":"levelo://app?vid=ef555bdb-3115-4b1f-9398-9c76776e1204"},"vehicle_type_id":"4","last_reported":1749568318,"current_range_meters":11600,"station_id":"","pricing_plan_id":"cebpf4jnsgd1na2vs0mg"},{"bike_id":"126dc6fe-026e-41ac-9bb4-cdee4325911f","system_id":"levelo_inurba_marseille","lat":43.2582,"lon":5.3944,"is_reserved":false,"is_disabled":false,"rental_uris":{"android":"levelo://app?vid=126dc6fe-026e-41ac-9bb4-cdee4325911f","ios":"levelo://app?vid=126dc6fe-026e-41ac-9bb4-cdee4325911f"},"vehicle_type_id":"4","last_reported":1749568318,"current_range_meters":11600,"station_id":"ce4bhip2rcd13ifvqft0","pricing_plan_id":"cebpf4jnsgd1na2vs0mg"},{"bike_id":"2fb82a4e-0ee1-4839-87e1-0819fb18ed3d","system_id":"levelo_inurba_marseille","lat":43.27085,"lon":5.42288,"is_reserved":false,"is_disabled":true,"rental_uris":{"android":"levelo://app?vid=2fb82a4e-0ee1-4839-87e1-0819fb18ed3d","ios":"levelo://app?vid=2fb82a4e-0ee1-4839-87e1-0819fb18ed3d"},"vehicle_type_id":"4","last_reported":1749568318,"current_range_meters":11600,"station_id":"ce4bhk92rcd13ifvqgb0","pricing_plan_id":"cebpf4jnsgd1na2vs0mg"},{"bike_id":"0c85c753-fd04-4708-af5f-4d116b4c9b81","system_id":"levelo_inurba_marseille","lat":43.28851,"lon":5.35857,"is_reserved":false,"is_disabled":false,"rental_uris":{"android":"levelo://app?vid=0c85c753-fd04-4708-af5f-4d116b4c9b81","ios":"levelo://app?vid=0c85c753-fd04-4708-af5f-4d116b4c9b81"},"vehicle_type_id":"4","last_reported":1749568318,"current_range_meters":12000,"station_id":"ce4bhb12rcd13ifvqem0","pricing_plan_id":"cebpf4jnsgd1na2vs0mg"},{"bike_id":"04454412-5695-4368-af93-7f2f0bb8ec7e","system_id":"levelo_inurba_marseille","lat":43.23192,"lon":5.3556,"is_reserved":false,"is_disabled":false,"rental_uris":{"android":"levelo://app?vid=04454412-5695-4368-af93-7f2f0bb8ec7e","ios":"levelo://app?vid=04454412-5695-4368-af93-7f2f0bb8ec7e"},"vehicle_type_id":"4","last_reported":1749568318,"current_range_meters":12000,"station_id":"ce4bhu92rcd13ifvqi70","pricing_plan_id":"cebpf4jnsgd1na2vs0mg"},{"bike_id":"01b92f52-b586-4f02-9e33-ecdd33cb62c9","system_id":"levelo_inurba_marseille","lat":43.29854,"lon":5.36298,"is_reserved":false,"is_disabled":true,"rental_uris":{"android":"levelo://app?vid=01b92f52-b586-4f02-9e33-ecdd33cb62c9","ios":"levelo://app?vid=01b92f52-b586-4f02-9e33-ecdd33cb62c9"},"vehicle_type_id":"4","last_reported":1749568318,"current_range_meters":12000,"station_id":"ce4bgpp2rcd13ifvqc3g","pricing_plan_id":"cebpf4jnsgd1na2vs0mg"},{"bike_id":"c6639a7f-d557-4df5-b118-3e3fe9ed0a11","system_id":"levelo_inurba_marseille","lat":43.231959,"lon":5.355427,"is_reserved":false,"is_disabled":false,"rental_uris":{"android":"levelo://app?vid=c6639a7f-d557-4df5-b118-3e3fe9ed0a11","ios":"levelo://app?vid=c6639a7f-d557-4df5-b118-3e3fe9ed0a11"},"vehicle_type_id":"4","last_reported":1749568318,"current_range_meters":12000,"station_id":"ce4bhu92rcd13ifvqi70","pricing_plan_id":"cebpf4jnsgd1na2vs0mg"},{"bike_id":"0762674f-1e89-4d4c-aa36-9ccaf8f24fa7","system_id":"levelo_inurba_marseille","lat":43.28403,"lon":5.35009,"is_reserved":false,"is_disabled":false,"rental_uris":{"android":"levelo://app?vid=0762674f-1e89-4d4c-aa36-9ccaf8f24fa7","ios":"levelo://app?vid=0762674f-1e89-4d4c-aa36-9ccaf8f24fa7"},"vehicle_type_id":"4","last_reported":1749568318,"current_range_meters":12000,"station_id":"ce4bhbh2rcd13ifvqepg","pricing_plan_id":"cebpf4jnsgd1na2vs0mg"},{"bike_id":"3d59d2ec-b59a-43e8-abae-40ac02fdcdb8","system_id":"levelo_inurba_marseille","lat":43.29538,"lon":5.42299,"is_reserved":false,"is_disabled":false,"rental_uris":{"android":"levelo://app?vid=3d59d2ec-b59a-43e8-abae-40ac02fdcdb8","ios":"levelo://app?vid=3d59d2ec-b59a-43e8-abae-40ac02fdcdb8"},"vehicle_type_id":"4","last_reported":1749568318,"current_range_meters":12000,"station_id":"ce4bhph2rcd13ifvqhdg","pricing_plan_id":"cebpf4jnsgd1na2vs0mg"},{"bike_id":"38ffe1f7-137b-4201-9829-10ae667b63fd","system_id":"levelo_inurba_marseille","lat":43.24804,"lon":5.37455,"is_reserved":false,"is_disabled":false,"rental_uris":{"android":"levelo://app?vid=38ffe1f7-137b-4201-9829-10ae667b63fd","ios":"levelo://app?vid=38ffe1f7-137b-4201-9829-10ae667b63fd"},"vehicle_type_id":"4","last_reported":1749568318,"current_range_meters":12000,"station_id":"ce4bhgh2rcd13ifvqfb0","pricing_plan_id":"cebpf4jnsgd1na2vs0mg"},{"bike_id":"77629c69-45e0-4b43-b1e0-c79e6d03681c","system_id":"levelo_inurba_marseille","lat":43.240698,"lon":5.377661,"is_reserved":false,"is_disabled":false,"rental_uris":{"android":"levelo://app?vid=77629c69-45e0-4b43-b1e0-c79e6d03681c","ios":"levelo://app?vid=77629c69-45e0-4b43-b1e0-c79e6d03681c"},"vehicle_type_id":"4","last_reported":1749568318,"current_range_meters":12000,"station_id":"ce4bhnp2rcd13ifvqgvg","pricing_plan_id":"cebpf4jnsgd1na2vs0mg"},{"bike_id":"6928e466-519a-43b8-8ee0-554ccb89f881","system_id":"levelo_inurba_marseille","lat":43.28426,"lon":5.34993,"is_reserved":false,"is_disabled":false,"rental_uris":{"android":"levelo://app?vid=6928e466-519a-43b8-8ee0-554ccb89f881","ios":"levelo://app?vid=6928e466-519a-43b8-8ee0-554ccb89f881"},"vehicle_type_id":"4","last_reported":1749568318,"current_range_meters":12400,"station_id":"ce4bhbh2rcd13ifvqepg","pricing_plan_id":"cebpf4jnsgd1na2vs0mg"},{"bike_id":"ca27e12a-1f2d-4cf2-be29-12a2b9ff1547","system_id":"levelo_inurba_marseille","lat":43.31712,"lon":5.42432,"is_reserved":false,"is_disabled":false,"rental_uris":{"android":"levelo://app?vid=ca27e12a-1f2d-4cf2-be29-12a2b9ff1547","ios":"levelo://app?vid=ca27e12a-1f2d-4cf2-be29-12a2b9ff1547"},"vehicle_type_id":"4","last_reported":1749568318,"current_range_meters":12400,"station_id":"ce4bhp92rcd13ifvqhbg","pricing_plan_id":"cebpf4jnsgd1na2vs0mg"},{"bike_id":"0e221310-b06c-4fac-920d-4a19aba5506d","system_id":"levelo_inurba_marseille","lat":43.29592,"lon":5.36747,"is_reserved":false,"is_disabled":false,"rental_uris":{"android":"levelo://app?vid=0e221310-b06c-4fac-920d-4a19aba5506d","ios":"levelo://app?vid=0e221310-b06c-4fac-920d-4a19aba5506d"},"vehicle_type_id":"4","last_reported":1749568318,"current_range_meters":12800,"station_id":"ce4bgph2rcd13ifvqc2g","pricing_plan_id":"cebpf4jnsgd1na2vs0mg"},{"bike_id":"905fb5f7-0d7b-455a-acc1-82ade1745a8a","system_id":"levelo_inurba_marseille","lat":43.28131,"lon":5.4268,"is_reserved":false,"is_disabled":false,"rental_uris":{"android":"levelo://app?vid=905fb5f7-0d7b-455a-acc1-82ade1745a8a","ios":"levelo://app?vid=905fb5f7-0d7b-455a-acc1-82ade1745a8a"},"vehicle_type_id":"4","last_reported":1749568318,"current_range_meters":13600,"station_id":"ce4bhnh2rcd13ifvqgug","pricing_plan_id":"cebpf4jnsgd1na2vs0mg"},{"bike_id":"e731bcd8-8502-4702-8819-ceb520200a7e","system_id":"levelo_inurba_marseille","lat":43.3172,"lon":5.43703,"is_reserved":false,"is_disabled":false,"rental_uris":{"android":"levelo://app?vid=e731bcd8-8502-4702-8819-ceb520200a7e","ios":"levelo://app?vid=e731bcd8-8502-4702-8819-ceb520200a7e"},"vehicle_type_id":"4","last_reported":1749568318,"current_range_meters":12800,"station_id":"ce4bhp92rcd13ifvqhcg","pricing_plan_id":"cebpf4jnsgd1na2vs0mg"},{"bike_id":"b7cfc3d2-8992-4ae5-bc0e-f8e3ccd246e3","system_id":"levelo_inurba_marseille","lat":43.29939,"lon":5.3654,"is_reserved":false,"is_disabled":false,"rental_uris":{"android":"levelo://app?vid=b7cfc3d2-8992-4ae5-bc0e-f8e3ccd246e3","ios":"levelo://app?vid=b7cfc3d2-8992-4ae5-bc0e-f8e3ccd246e3"},"vehicle_type_id":"4","last_reported":1749568318,"current_range_meters":12800,"station_id":"ce4bgm92rcd13ifvqbr0","pricing_plan_id":"cebpf4jnsgd1na2vs0mg"},{"bike_id":"1e11feb0-0a6e-4b0e-aa98-d035d3992658","system_id":"levelo_inurba_marseille","lat":43.32447,"lon":5.42432,"is_reserved":false,"is_disabled":false,"rental_uris":{"android":"levelo://app?vid=1e11feb0-0a6e-4b0e-aa98-d035d3992658","ios":"levelo://app?vid=1e11feb0-0a6e-4b0e-aa98-d035d3992658"},"vehicle_type_id":"4","last_reported":1749568318,"current_range_meters":12800,"station_id":"","pricing_plan_id":"cebpf4jnsgd1na2vs0mg"},{"bike_id":"ce8f7d10-44ab-420f-b298-a9db13697faf","system_id":"levelo_inurba_marseille","lat":43.27211,"lon":5.39183,"is_reserved":false,"is_disabled":false,"rental_uris":{"android":"levelo://app?vid=ce8f7d10-44ab-420f-b298-a9db13697faf","ios":"levelo://app?vid=ce8f7d10-44ab-420f-b298-a9db13697faf"},"vehicle_type_id":"4","last_reported":1749568318,"current_range_meters":12800,"station_id":"ce4bhhp2rcd13ifvqfm0","pricing_plan_id":"cebpf4jnsgd1na2vs0mg"},{"bike_id":"6fe96216-7cf9-40ce-a273-bfe0929c74e9","system_id":"levelo_inurba_marseille","lat":43.29555,"lon":5.42283,"is_reserved":false,"is_disabled":false,"rental_uris":{"android":"levelo://app?vid=6fe96216-7cf9-40ce-a273-bfe0929c74e9","ios":"levelo://app?vid=6fe96216-7cf9-40ce-a273-bfe0929c74e9"},"vehicle_type_id":"4","last_reported":1749568318,"current_range_meters":13600,"station_id":"ce4bhph2rcd13ifvqhdg","pricing_plan_id":"cebpf4jnsgd1na2vs0mg"},{"bike_id":"187b0a7b-e256-4c19-9794-bb250a6c5653","system_id":"levelo_inurba_marseille","lat":43.31849,"lon":5.37957,"is_reserved":false,"is_disabled":false,"rental_uris":{"android":"levelo://app?vid=187b0a7b-e256-4c19-9794-bb250a6c5653","ios":"levelo://app?vid=187b0a7b-e256-4c19-9794-bb250a6c5653"},"vehicle_type_id":"4","last_reported":1749568318,"current_range_meters":13600,"station_id":"","pricing_plan_id":"cebpf4jnsgd1na2vs0mg"},{"bike_id":"9967ed2b-467e-4f7a-b922-53e261357019","system_id":"levelo_inurba_marseille","lat":43.28266,"lon":5.35074,"is_reserved":false,"is_disabled":false,"rental_uris":{"android":"levelo://app?vid=9967ed2b-467e-4f7a-b922-53e261357019","ios":"levelo://app?vid=9967ed2b-467e-4f7a-b922-53e261357019"},"vehicle_type_id":"4","last_reported":1749568318,"current_range_meters":14000,"station_id":"ce4bhbp2rcd13ifvqerg","pricing_plan_id":"cebpf4jnsgd1na2vs0mg"},{"bike_id":"d831da99-2889-4464-b339-3bcdbad54991","system_id":"levelo_inurba_marseille","lat":43.28263,"lon":5.35068,"is_reserved":false,"is_disabled":false,"rental_uris":{"android":"levelo://app?vid=d831da99-2889-4464-b339-3bcdbad54991","ios":"levelo://app?vid=d831da99-2889-4464-b339-3bcdbad54991"},"vehicle_type_id":"4","last_reported":1749568318,"current_range_meters":14000,"station_id":"ce4bhbp2rcd13ifvqerg","pricing_plan_id":"cebpf4jnsgd1na2vs0mg"},{"bike_id":"c9375876-5227-4f49-a416-c76eb38d7bf4","system_id":"levelo_inurba_marseille","lat":43.31313,"lon":5.39762,"is_reserved":false,"is_disabled":false,"rental_uris":{"android":"levelo://app?vid=c9375876-5227-4f49-a416-c76eb38d7bf4","ios":"levelo://app?vid=c9375876-5227-4f49-a416-c76eb38d7bf4"},"vehicle_type_id":"4","last_reported":1749568318,"current_range_meters":14000,"station_id":"","pricing_plan_id":"cebpf4jnsgd1na2vs0mg"},{"bike_id":"5fcd45c0-08dc-495e-bf99-96800ccebb2a","system_id":"levelo_inurba_marseille","lat":43.23195,"lon":5.39996,"is_reserved":false,"is_disabled":false,"rental_uris":{"android":"levelo://app?vid=5fcd45c0-08dc-495e-bf99-96800ccebb2a","ios":"levelo://app?vid=5fcd45c0-08dc-495e-bf99-96800ccebb2a"},"vehicle_type_id":"4","last_reported":1749568318,"current_range_meters":13600,"station_id":"ce4bhn12rcd13ifvqgqg","pricing_plan_id":"cebpf4jnsgd1na2vs0mg"},{"bike_id":"15138ce4-9850-4a09-9eb2-0da12393d0d8","system_id":"levelo_inurba_marseille","lat":43.31711,"lon":5.43707,"is_reserved":false,"is_disabled":false,"rental_uris":{"android":"levelo://app?vid=15138ce4-9850-4a09-9eb2-0da12393d0d8","ios":"levelo://app?vid=15138ce4-9850-4a09-9eb2-0da12393d0d8"},"vehicle_type_id":"4","last_reported":1749568318,"current_range_meters":14000,"station_id":"ce4bhp92rcd13ifvqhcg","pricing_plan_id":"cebpf4jnsgd1na2vs0mg"},{"bike_id":"a984632f-b31d-4061-b7e9-60898a82f4a1","system_id":"levelo_inurba_marseille","lat":43.33108,"lon":5.35515,"is_reserved":false,"is_disabled":false,"rental_uris":{"android":"levelo://app?vid=a984632f-b31d-4061-b7e9-60898a82f4a1","ios":"levelo://app?vid=a984632f-b31d-4061-b7e9-60898a82f4a1"},"vehicle_type_id":"4","last_reported":1749568318,"current_range_meters":14400,"station_id":"","pricing_plan_id":"cebpf4jnsgd1na2vs0mg"},{"bike_id":"c30dbedc-c866-492b-a092-32c1ee0c1f22","system_id":"levelo_inurba_marseille","lat":43.29523,"lon":5.38537,"is_reserved":false,"is_disabled":true,"rental_uris":{"android":"levelo://app?vid=c30dbedc-c866-492b-a092-32c1ee0c1f22","ios":"levelo://app?vid=c30dbedc-c866-492b-a092-32c1ee0c1f22"},"vehicle_type_id":"4","last_reported":1749568318,"current_range_meters":14400,"station_id":"ce4bgih2rcd13ifvqba0","pricing_plan_id":"cebpf4jnsgd1na2vs0mg"},{"bike_id":"550f8228-d554-4819-a428-97c5e8f98831","system_id":"levelo_inurba_marseille","lat":43.31707,"lon":5.4371,"is_reserved":false,"is_disabled":false,"rental_uris":{"android":"levelo://app?vid=550f8228-d554-4819-a428-97c5e8f98831","ios":"levelo://app?vid=550f8228-d554-4819-a428-97c5e8f98831"},"vehicle_type_id":"4","last_reported":1749568318,"current_range_meters":14400,"station_id":"ce4bhp92rcd13ifvqhcg","pricing_plan_id":"cebpf4jnsgd1na2vs0mg"},{"bike_id":"1e20f032-0f6a-40b2-ad29-e4d2225496fa","system_id":"levelo_inurba_marseille","lat":43.30301,"lon":5.37044,"is_reserved":false,"is_disabled":false,"rental_uris":{"android":"levelo://app?vid=1e20f032-0f6a-40b2-ad29-e4d2225496fa","ios":"levelo://app?vid=1e20f032-0f6a-40b2-ad29-e4d2225496fa"},"vehicle_type_id":"4","last_reported":1749568318,"current_range_meters":14400,"station_id":"","pricing_plan_id":"cebpf4jnsgd1na2vs0mg"},{"bike_id":"ab5d796b-6f87-4b6e-a5bd-6ac051fcacd1","system_id":"levelo_inurba_marseille","lat":43.32481,"lon":5.36552,"is_reserved":false,"is_disabled":false,"rental_uris":{"android":"levelo://app?vid=ab5d796b-6f87-4b6e-a5bd-6ac051fcacd1","ios":"levelo://app?vid=ab5d796b-6f87-4b6e-a5bd-6ac051fcacd1"},"vehicle_type_id":"4","last_reported":1749568318,"current_range_meters":14400,"station_id":"ce4bhs12rcd13ifvqhvg","pricing_plan_id":"cebpf4jnsgd1na2vs0mg"},{"bike_id":"4048381d-258e-450d-8327-4b00034566d9","system_id":"levelo_inurba_marseille","lat":43.29625,"lon":5.37155,"is_reserved":false,"is_disabled":false,"rental_uris":{"android":"levelo://app?vid=4048381d-258e-450d-8327-4b00034566d9","ios":"levelo://app?vid=4048381d-258e-450d-8327-4b00034566d9"},"vehicle_type_id":"4","last_reported":1749568318,"current_range_meters":14400,"station_id":"ce4bgnh2rcd13ifvqc0g","pricing_plan_id":"cebpf4jnsgd1na2vs0mg"},{"bike_id":"04fd5128-6c6e-484d-a7a4-c88b38dd70d3","system_id":"levelo_inurba_marseille","lat":43.28254,"lon":5.35082,"is_reserved":false,"is_disabled":false,"rental_uris":{"android":"levelo://app?vid=04fd5128-6c6e-484d-a7a4-c88b38dd70d3","ios":"levelo://app?vid=04fd5128-6c6e-484d-a7a4-c88b38dd70d3"},"vehicle_type_id":"4","last_reported":1749568318,"current_range_meters":14800,"station_id":"ce4bhbp2rcd13ifvqerg","pricing_plan_id":"cebpf4jnsgd1na2vs0mg"},{"bike_id":"bdb32e09-7f0b-4f69-b7e0-411447983ac2","system_id":"levelo_inurba_marseille","lat":43.32045,"lon":5.41544,"is_reserved":false,"is_disabled":false,"rental_uris":{"android":"levelo://app?vid=bdb32e09-7f0b-4f69-b7e0-411447983ac2","ios":"levelo://app?vid=bdb32e09-7f0b-4f69-b7e0-411447983ac2"},"vehicle_type_id":"4","last_reported":1749568318,"current_range_meters":14800,"station_id":"ce4bhq92rcd13ifvqhkg","pricing_plan_id":"cebpf4jnsgd1na2vs0mg"},{"bike_id":"af3bfb0d-9020-47df-b339-5c8204a1b70c","system_id":"levelo_inurba_marseille","lat":43.27814,"lon":5.40721,"is_reserved":false,"is_disabled":false,"rental_uris":{"android":"levelo://app?vid=af3bfb0d-9020-47df-b339-5c8204a1b70c","ios":"levelo://app?vid=af3bfb0d-9020-47df-b339-5c8204a1b70c"},"vehicle_type_id":"4","last_reported":1749568318,"current_range_meters":14400,"station_id":"ce4bhnh2rcd13ifvqgtg","pricing_plan_id":"cebpf4jnsgd1na2vs0mg"},{"bike_id":"dbc59a63-553e-4a56-9edf-63244243f263","system_id":"levelo_inurba_marseille","lat":43.28444,"lon":5.3501,"is_reserved":false,"is_disabled":false,"rental_uris":{"android":"levelo://app?vid=dbc59a63-553e-4a56-9edf-63244243f263","ios":"levelo://app?vid=dbc59a63-553e-4a56-9edf-63244243f263"},"vehicle_type_id":"4","last_reported":1749568318,"current_range_meters":15200,"station_id":"ce4bhbh2rcd13ifvqepg","pricing_plan_id":"cebpf4jnsgd1na2vs0mg"},{"bike_id":"f8641d6d-eca9-4726-80f7-b51cc7bb3720","system_id":"levelo_inurba_marseille","lat":43.31078,"lon":5.38354,"is_reserved":false,"is_disabled":false,"rental_uris":{"android":"levelo://app?vid=f8641d6d-eca9-4726-80f7-b51cc7bb3720","ios":"levelo://app?vid=f8641d6d-eca9-4726-80f7-b51cc7bb3720"},"vehicle_type_id":"4","last_reported":1749568318,"current_range_meters":15200,"station_id":"ce4bgv92rcd13ifvqcr0","pricing_plan_id":"cebpf4jnsgd1na2vs0mg"},{"bike_id":"6ade5ee6-b8ac-4a91-bf27-bc43b5b39ffd","system_id":"levelo_inurba_marseille","lat":43.240807,"lon":5.37761,"is_reserved":false,"is_disabled":false,"rental_uris":{"android":"levelo://app?vid=6ade5ee6-b8ac-4a91-bf27-bc43b5b39ffd","ios":"levelo://app?vid=6ade5ee6-b8ac-4a91-bf27-bc43b5b39ffd"},"vehicle_type_id":"4","last_reported":1749568318,"current_range_meters":15200,"station_id":"ce4bhnp2rcd13ifvqgvg","pricing_plan_id":"cebpf4jnsgd1na2vs0mg"},{"bike_id":"1112870b-7d61-4c5e-867e-015df8afa9c0","system_id":"levelo_inurba_marseille","lat":43.28412,"lon":5.35001,"is_reserved":false,"is_disabled":false,"rental_uris":{"android":"levelo://app?vid=1112870b-7d61-4c5e-867e-015df8afa9c0","ios":"levelo://app?vid=1112870b-7d61-4c5e-867e-015df8afa9c0"},"vehicle_type_id":"4","last_reported":1749568318,"current_range_meters":15200,"station_id":"ce4bhbh2rcd13ifvqepg","pricing_plan_id":"cebpf4jnsgd1na2vs0mg"},{"bike_id":"66025746-7a76-491e-a745-765530b8fd53","system_id":"levelo_inurba_marseille","lat":43.2931,"lon":5.37174,"is_reserved":false,"is_disabled":false,"rental_uris":{"android":"levelo://app?vid=66025746-7a76-491e-a745-765530b8fd53","ios":"levelo://app?vid=66025746-7a76-491e-a745-765530b8fd53"},"vehicle_type_id":"4","last_reported":1749568318,"current_range_meters":14800,"station_id":"ce4bgh92rcd13ifvqb40","pricing_plan_id":"cebpf4jnsgd1na2vs0mg"},{"bike_id":"a46e8da4-80d3-4f0d-bbcb-8e01773f7633","system_id":"levelo_inurba_marseille","lat":43.27384,"lon":5.36261,"is_reserved":false,"is_disabled":false,"rental_uris":{"android":"levelo://app?vid=a46e8da4-80d3-4f0d-bbcb-8e01773f7633","ios":"levelo://app?vid=a46e8da4-80d3-4f0d-bbcb-8e01773f7633"},"vehicle_type_id":"4","last_reported":1749568318,"current_range_meters":15200,"station_id":"ce4bhbh2rcd13ifvqeo0","pricing_plan_id":"cebpf4jnsgd1na2vs0mg"},{"bike_id":"8e1895e8-f102-4cf2-b40e-b15e855d0379","system_id":"levelo_inurba_marseille","lat":43.27925,"lon":5.41059,"is_reserved":false,"is_disabled":false,"rental_uris":{"android":"levelo://app?vid=8e1895e8-f102-4cf2-b40e-b15e855d0379","ios":"levelo://app?vid=8e1895e8-f102-4cf2-b40e-b15e855d0379"},"vehicle_type_id":"4","last_reported":1749568318,"current_range_meters":15200,"station_id":"ce4bhnp2rcd13ifvqh0g","pricing_plan_id":"cebpf4jnsgd1na2vs0mg"},{"bike_id":"cc898d4b-58d7-41b2-ac35-a6b615758b1d","system_id":"levelo_inurba_marseille","lat":43.2972,"lon":5.36607,"is_reserved":false,"is_disabled":false,"rental_uris":{"android":"levelo://app?vid=cc898d4b-58d7-41b2-ac35-a6b615758b1d","ios":"levelo://app?vid=cc898d4b-58d7-41b2-ac35-a6b615758b1d"},"vehicle_type_id":"4","last_reported":1749568318,"current_range_meters":14800,"station_id":"ce4bgn12rcd13ifvqbt0","pricing_plan_id":"cebpf4jnsgd1na2vs0mg"},{"bike_id":"66a554b0-1440-4449-9b9a-dcf9e0415ba6","system_id":"levelo_inurba_marseille","lat":43.29974,"lon":5.38485,"is_reserved":false,"is_disabled":true,"rental_uris":{"android":"levelo://app?vid=66a554b0-1440-4449-9b9a-dcf9e0415ba6","ios":"levelo://app?vid=66a554b0-1440-4449-9b9a-dcf9e0415ba6"},"vehicle_type_id":"4","last_reported":1749568318,"current_range_meters":15200,"station_id":"ce4bgj92rcd13ifvqbd0","pricing_plan_id":"cebpf4jnsgd1na2vs0mg"},{"bike_id":"262903a9-22b9-4b2d-96c2-2e5dbd155090","system_id":"levelo_inurba_marseille","lat":43.32426,"lon":5.36563,"is_reserved":false,"is_disabled":false,"rental_uris":{"android":"levelo://app?vid=262903a9-22b9-4b2d-96c2-2e5dbd155090","ios":"levelo://app?vid=262903a9-22b9-4b2d-96c2-2e5dbd155090"},"vehicle_type_id":"4","last_reported":1749568318,"current_range_meters":16000,"station_id":"","pricing_plan_id":"cebpf4jnsgd1na2vs0mg"},{"bike_id":"e61a5abb-c900-4d6e-8217-a46fab06e9f4","system_id":"levelo_inurba_marseille","lat":43.3301,"lon":5.39268,"is_reserved":false,"is_disabled":false,"rental_uris":{"android":"levelo://app?vid=e61a5abb-c900-4d6e-8217-a46fab06e9f4","ios":"levelo://app?vid=e61a5abb-c900-4d6e-8217-a46fab06e9f4"},"vehicle_type_id":"4","last_reported":1749568318,"current_range_meters":16000,"station_id":"","pricing_plan_id":"cebpf4jnsgd1na2vs0mg"},{"bike_id":"1cb49127-83c2-42e5-a0c1-a209212b201e","system_id":"levelo_inurba_marseille","lat":43.28446,"lon":5.35038,"is_reserved":false,"is_disabled":false,"rental_uris":{"android":"levelo://app?vid=1cb49127-83c2-42e5-a0c1-a209212b201e","ios":"levelo://app?vid=1cb49127-83c2-42e5-a0c1-a209212b201e"},"vehicle_type_id":"4","last_reported":1749568318,"current_range_meters":16000,"station_id":"ce4bhbh2rcd13ifvqepg","pricing_plan_id":"cebpf4jnsgd1na2vs0mg"},{"bike_id":"557104e5-12ad-4811-8d87-d8392375329d","system_id":"levelo_inurba_marseille","lat":43.28286,"lon":5.3508,"is_reserved":false,"is_disabled":false,"rental_uris":{"android":"levelo://app?vid=557104e5-12ad-4811-8d87-d8392375329d","ios":"levelo://app?vid=557104e5-12ad-4811-8d87-d8392375329d"},"vehicle_type_id":"4","last_reported":1749568318,"current_range_meters":16000,"station_id":"ce4bhbp2rcd13ifvqerg","pricing_plan_id":"cebpf4jnsgd1na2vs0mg"},{"bike_id":"84f5a926-1dd6-4535-b647-2764ce0ca103","system_id":"levelo_inurba_marseille","lat":43.32154,"lon":5.36766,"is_reserved":false,"is_disabled":false,"rental_uris":{"android":"levelo://app?vid=84f5a926-1dd6-4535-b647-2764ce0ca103","ios":"levelo://app?vid=84f5a926-1dd6-4535-b647-2764ce0ca103"},"vehicle_type_id":"4","last_reported":1749568318,"current_range_meters":16000,"station_id":"ce4bhrh2rcd13ifvqhug","pricing_plan_id":"cebpf4jnsgd1na2vs0mg"},{"bike_id":"002ad4e8-6140-4bdd-b14b-f38ee707447e","system_id":"levelo_inurba_marseille","lat":43.30987,"lon":5.38578,"is_reserved":false,"is_disabled":false,"rental_uris":{"android":"levelo://app?vid=002ad4e8-6140-4bdd-b14b-f38ee707447e","ios":"levelo://app?vid=002ad4e8-6140-4bdd-b14b-f38ee707447e"},"vehicle_type_id":"4","last_reported":1749568318,"current_range_meters":16000,"station_id":"","pricing_plan_id":"cebpf4jnsgd1na2vs0mg"},{"bike_id":"dc0cc1d4-b59d-4f94-9922-0bf0110a5fbb","system_id":"levelo_inurba_marseille","lat":43.28417,"lon":5.34985,"is_reserved":false,"is_disabled":false,"rental_uris":{"android":"levelo://app?vid=dc0cc1d4-b59d-4f94-9922-0bf0110a5fbb","ios":"levelo://app?vid=dc0cc1d4-b59d-4f94-9922-0bf0110a5fbb"},"vehicle_type_id":"4","last_reported":1749568318,"current_range_meters":16400,"station_id":"ce4bhbh2rcd13ifvqepg","pricing_plan_id":"cebpf4jnsgd1na2vs0mg"},{"bike_id":"3d5a5857-4f49-48ea-a587-aa5b87e9656f","system_id":"levelo_inurba_marseille","lat":43.239713,"lon":5.366847,"is_reserved":false,"is_disabled":false,"rental_uris":{"android":"levelo://app?vid=3d5a5857-4f49-48ea-a587-aa5b87e9656f","ios":"levelo://app?vid=3d5a5857-4f49-48ea-a587-aa5b87e9656f"},"vehicle_type_id":"4","last_reported":1749568318,"current_range_meters":16400,"station_id":"","pricing_plan_id":"cebpf4jnsgd1na2vs0mg"},{"bike_id":"2570b8d2-8993-4a8a-bd9c-bb6b693b3851","system_id":"levelo_inurba_marseille","lat":43.28288,"lon":5.35084,"is_reserved":false,"is_disabled":false,"rental_uris":{"android":"levelo://app?vid=2570b8d2-8993-4a8a-bd9c-bb6b693b3851","ios":"levelo://app?vid=2570b8d2-8993-4a8a-bd9c-bb6b693b3851"},"vehicle_type_id":"4","last_reported":1749568318,"current_range_meters":16400,"station_id":"ce4bhbp2rcd13ifvqerg","pricing_plan_id":"cebpf4jnsgd1na2vs0mg"},{"bike_id":"594e838f-8e55-4b81-b2b1-3200308e0a12","system_id":"levelo_inurba_marseille","lat":43.23966,"lon":5.36638,"is_reserved":false,"is_disabled":false,"rental_uris":{"android":"levelo://app?vid=594e838f-8e55-4b81-b2b1-3200308e0a12","ios":"levelo://app?vid=594e838f-8e55-4b81-b2b1-3200308e0a12"},"vehicle_type_id":"4","last_reported":1749568318,"current_range_meters":16400,"station_id":"ce4bhi12rcd13ifvqfp0","pricing_plan_id":"cebpf4jnsgd1na2vs0mg"},{"bike_id":"72befdc9-9f00-42fe-9fa3-196160650a86","system_id":"levelo_inurba_marseille","lat":43.28629,"lon":5.35107,"is_reserved":false,"is_disabled":false,"rental_uris":{"android":"levelo://app?vid=72befdc9-9f00-42fe-9fa3-196160650a86","ios":"levelo://app?vid=72befdc9-9f00-42fe-9fa3-196160650a86"},"vehicle_type_id":"4","last_reported":1749568318,"current_range_meters":16400,"station_id":"ce4bhch2rcd13ifvqeug","pricing_plan_id":"cebpf4jnsgd1na2vs0mg"},{"bike_id":"f86c871e-5691-4061-a487-aa146b09dc41","system_id":"levelo_inurba_marseille","lat":43.28421,"lon":5.34995,"is_reserved":false,"is_disabled":false,"rental_uris":{"android":"levelo://app?vid=f86c871e-5691-4061-a487-aa146b09dc41","ios":"levelo://app?vid=f86c871e-5691-4061-a487-aa146b09dc41"},"vehicle_type_id":"4","last_reported":1749568318,"current_range_meters":16400,"station_id":"ce4bhbh2rcd13ifvqepg","pricing_plan_id":"cebpf4jnsgd1na2vs0mg"},{"bike_id":"f6c2b664-d919-4f64-8418-1a0716286061","system_id":"levelo_inurba_marseille","lat":43.28734,"lon":5.36082,"is_reserved":false,"is_disabled":false,"rental_uris":{"android":"levelo://app?vid=f6c2b664-d919-4f64-8418-1a0716286061","ios":"levelo://app?vid=f6c2b664-d919-4f64-8418-1a0716286061"},"vehicle_type_id":"4","last_reported":1749568318,"current_range_meters":16400,"station_id":"cki0cbj6b192h4jlfktg","pricing_plan_id":"cebpf4jnsgd1na2vs0mg"},{"bike_id":"03b5290d-c596-4067-adda-74fb07463890","system_id":"levelo_inurba_marseille","lat":43.28615,"lon":5.35108,"is_reserved":false,"is_disabled":false,"rental_uris":{"android":"levelo://app?vid=03b5290d-c596-4067-adda-74fb07463890","ios":"levelo://app?vid=03b5290d-c596-4067-adda-74fb07463890"},"vehicle_type_id":"4","last_reported":1749568318,"current_range_meters":16400,"station_id":"ce4bhch2rcd13ifvqeug","pricing_plan_id":"cebpf4jnsgd1na2vs0mg"},{"bike_id":"e857b26f-e98d-4e5b-a472-9489934cc3bc","system_id":"levelo_inurba_marseille","lat":43.3092,"lon":5.40154,"is_reserved":false,"is_disabled":true,"rental_uris":{"android":"levelo://app?vid=e857b26f-e98d-4e5b-a472-9489934cc3bc","ios":"levelo://app?vid=e857b26f-e98d-4e5b-a472-9489934cc3bc"},"vehicle_type_id":"4","last_reported":1749568318,"current_range_meters":16400,"station_id":"ce4bgvp2rcd13ifvqct0","pricing_plan_id":"cebpf4jnsgd1na2vs0mg"},{"bike_id":"26199f87-b769-495d-8ca4-d0b83437443b","system_id":"levelo_inurba_marseille","lat":43.29262,"lon":5.40906,"is_reserved":false,"is_disabled":false,"rental_uris":{"android":"levelo://app?vid=26199f87-b769-495d-8ca4-d0b83437443b","ios":"levelo://app?vid=26199f87-b769-495d-8ca4-d0b83437443b"},"vehicle_type_id":"4","last_reported":1749568318,"current_range_meters":16400,"station_id":"ce4bh192rcd13ifvqdc0","pricing_plan_id":"cebpf4jnsgd1na2vs0mg"},{"bike_id":"0892bce3-a34e-4755-b1cc-a42f48f26fdd","system_id":"levelo_inurba_marseille","lat":43.28417,"lon":5.34987,"is_reserved":false,"is_disabled":false,"rental_uris":{"android":"levelo://app?vid=0892bce3-a34e-4755-b1cc-a42f48f26fdd","ios":"levelo://app?vid=0892bce3-a34e-4755-b1cc-a42f48f26fdd"},"vehicle_type_id":"4","last_reported":1749568318,"current_range_meters":16400,"station_id":"ce4bhbh2rcd13ifvqepg","pricing_plan_id":"cebpf4jnsgd1na2vs0mg"},{"bike_id":"360698b9-753d-4929-b083-8e827c7f2f61","system_id":"levelo_inurba_marseille","lat":43.31317,"lon":5.39719,"is_reserved":false,"is_disabled":false,"rental_uris":{"android":"levelo://app?vid=360698b9-753d-4929-b083-8e827c7f2f61","ios":"levelo://app?vid=360698b9-753d-4929-b083-8e827c7f2f61"},"vehicle_type_id":"4","last_reported":1749568318,"current_range_meters":16400,"station_id":"ce4bgvp2rcd13ifvqcu0","pricing_plan_id":"cebpf4jnsgd1na2vs0mg"},{"bike_id":"4b780e47-5600-4181-984d-00a4c434b562","system_id":"levelo_inurba_marseille","lat":43.28267,"lon":5.35089,"is_reserved":false,"is_disabled":false,"rental_uris":{"android":"levelo://app?vid=4b780e47-5600-4181-984d-00a4c434b562","ios":"levelo://app?vid=4b780e47-5600-4181-984d-00a4c434b562"},"vehicle_type_id":"4","last_reported":1749568318,"current_range_meters":16400,"station_id":"ce4bhbp2rcd13ifvqerg","pricing_plan_id":"cebpf4jnsgd1na2vs0mg"},{"bike_id":"32cfb1b8-0de6-47ac-8ba4-e47f2210c5bc","system_id":"levelo_inurba_marseille","lat":43.29941,"lon":5.36544,"is_reserved":false,"is_disabled":false,"rental_uris":{"android":"levelo://app?vid=32cfb1b8-0de6-47ac-8ba4-e47f2210c5bc","ios":"levelo://app?vid=32cfb1b8-0de6-47ac-8ba4-e47f2210c5bc"},"vehicle_type_id":"4","last_reported":1749568318,"current_range_meters":16400,"station_id":"ce4bgm92rcd13ifvqbr0","pricing_plan_id":"cebpf4jnsgd1na2vs0mg"},{"bike_id":"2e365f6f-482a-4b2b-b2bb-782be57c2e83","system_id":"levelo_inurba_marseille","lat":43.317057,"lon":5.377019,"is_reserved":false,"is_disabled":false,"rental_uris":{"android":"levelo://app?vid=2e365f6f-482a-4b2b-b2bb-782be57c2e83","ios":"levelo://app?vid=2e365f6f-482a-4b2b-b2bb-782be57c2e83"},"vehicle_type_id":"4","last_reported":1749568318,"current_range_meters":16800,"station_id":"ce4bgth2rcd13ifvqch0","pricing_plan_id":"cebpf4jnsgd1na2vs0mg"},{"bike_id":"013041b7-e6f3-48be-9bd2-3e96b2a52fd1","system_id":"levelo_inurba_marseille","lat":43.30461,"lon":5.37896,"is_reserved":false,"is_disabled":false,"rental_uris":{"android":"levelo://app?vid=013041b7-e6f3-48be-9bd2-3e96b2a52fd1","ios":"levelo://app?vid=013041b7-e6f3-48be-9bd2-3e96b2a52fd1"},"vehicle_type_id":"4","last_reported":1749568318,"current_range_meters":16800,"station_id":"ce4bgup2rcd13ifvqcn0","pricing_plan_id":"cebpf4jnsgd1na2vs0mg"},{"bike_id":"f9b391cf-6792-4710-8eba-9a1812245b6b","system_id":"levelo_inurba_marseille","lat":43.27375,"lon":5.36255,"is_reserved":false,"is_disabled":false,"rental_uris":{"android":"levelo://app?vid=f9b391cf-6792-4710-8eba-9a1812245b6b","ios":"levelo://app?vid=f9b391cf-6792-4710-8eba-9a1812245b6b"},"vehicle_type_id":"4","last_reported":1749568318,"current_range_meters":16800,"station_id":"ce4bhbh2rcd13ifvqeo0","pricing_plan_id":"cebpf4jnsgd1na2vs0mg"},{"bike_id":"387eab84-bea0-4bae-b80e-a4b82f8999cd","system_id":"levelo_inurba_marseille","lat":43.26225,"lon":5.37438,"is_reserved":false,"is_disabled":false,"rental_uris":{"android":"levelo://app?vid=387eab84-bea0-4bae-b80e-a4b82f8999cd","ios":"levelo://app?vid=387eab84-bea0-4bae-b80e-a4b82f8999cd"},"vehicle_type_id":"4","last_reported":1749568318,"current_range_meters":16800,"station_id":"ce4bhgp2rcd13ifvqfc0","pricing_plan_id":"cebpf4jnsgd1na2vs0mg"},{"bike_id":"802af40f-d35c-43e0-8287-27fbf5df1ff1","system_id":"levelo_inurba_marseille","lat":43.27207,"lon":5.39173,"is_reserved":false,"is_disabled":false,"rental_uris":{"android":"levelo://app?vid=802af40f-d35c-43e0-8287-27fbf5df1ff1","ios":"levelo://app?vid=802af40f-d35c-43e0-8287-27fbf5df1ff1"},"vehicle_type_id":"4","last_reported":1749568318,"current_range_meters":16400,"station_id":"ce4bhhp2rcd13ifvqfm0","pricing_plan_id":"cebpf4jnsgd1na2vs0mg"},{"bike_id":"4497bc7b-bd64-47d5-92de-a3021c6fff2f","system_id":"levelo_inurba_marseille","lat":43.32493,"lon":5.36583,"is_reserved":false,"is_disabled":false,"rental_uris":{"android":"levelo://app?vid=4497bc7b-bd64-47d5-92de-a3021c6fff2f","ios":"levelo://app?vid=4497bc7b-bd64-47d5-92de-a3021c6fff2f"},"vehicle_type_id":"4","last_reported":1749568318,"current_range_meters":16800,"station_id":"ce4bhs12rcd13ifvqhvg","pricing_plan_id":"cebpf4jnsgd1na2vs0mg"},{"bike_id":"1acfb620-cad7-48c0-8901-d7a5b74a5b65","system_id":"levelo_inurba_marseille","lat":43.33751,"lon":5.37456,"is_reserved":false,"is_disabled":false,"rental_uris":{"android":"levelo://app?vid=1acfb620-cad7-48c0-8901-d7a5b74a5b65","ios":"levelo://app?vid=1acfb620-cad7-48c0-8901-d7a5b74a5b65"},"vehicle_type_id":"4","last_reported":1749568318,"current_range_meters":16800,"station_id":"","pricing_plan_id":"cebpf4jnsgd1na2vs0mg"},{"bike_id":"12505cb3-b5c3-46b6-984d-d7b7f82bee59","system_id":"levelo_inurba_marseille","lat":43.31329,"lon":5.39689,"is_reserved":false,"is_disabled":false,"rental_uris":{"android":"levelo://app?vid=12505cb3-b5c3-46b6-984d-d7b7f82bee59","ios":"levelo://app?vid=12505cb3-b5c3-46b6-984d-d7b7f82bee59"},"vehicle_type_id":"4","last_reported":1749568318,"current_range_meters":17200,"station_id":"ce4bgvp2rcd13ifvqcu0","pricing_plan_id":"cebpf4jnsgd1na2vs0mg"},{"bike_id":"31cf0f6d-51a2-4e13-87e9-a96ee21ac562","system_id":"levelo_inurba_marseille","lat":43.28157,"lon":5.42642,"is_reserved":false,"is_disabled":false,"rental_uris":{"android":"levelo://app?vid=31cf0f6d-51a2-4e13-87e9-a96ee21ac562","ios":"levelo://app?vid=31cf0f6d-51a2-4e13-87e9-a96ee21ac562"},"vehicle_type_id":"4","last_reported":1749568318,"current_range_meters":17200,"station_id":"ce4bhnh2rcd13ifvqgug","pricing_plan_id":"cebpf4jnsgd1na2vs0mg"},{"bike_id":"d26bfb5d-12c6-4583-add6-07a0a80e3384","system_id":"levelo_inurba_marseille","lat":43.30141,"lon":5.37415,"is_reserved":false,"is_disabled":false,"rental_uris":{"android":"levelo://app?vid=d26bfb5d-12c6-4583-add6-07a0a80e3384","ios":"levelo://app?vid=d26bfb5d-12c6-4583-add6-07a0a80e3384"},"vehicle_type_id":"4","last_reported":1749568318,"current_range_meters":17200,"station_id":"ce4bgs92rcd13ifvqcc0","pricing_plan_id":"cebpf4jnsgd1na2vs0mg"},{"bike_id":"2397c1f8-0a3f-415b-a03a-faa26b384aba","system_id":"levelo_inurba_marseille","lat":43.3015,"lon":5.39885,"is_reserved":false,"is_disabled":false,"rental_uris":{"android":"levelo://app?vid=2397c1f8-0a3f-415b-a03a-faa26b384aba","ios":"levelo://app?vid=2397c1f8-0a3f-415b-a03a-faa26b384aba"},"vehicle_type_id":"4","last_reported":1749568318,"current_range_meters":17200,"station_id":"ce4bh0h2rcd13ifvqd40","pricing_plan_id":"cebpf4jnsgd1na2vs0mg"},{"bike_id":"6f91e7fa-050f-412d-a3ad-4a76590c212f","system_id":"levelo_inurba_marseille","lat":43.31327,"lon":5.39691,"is_reserved":false,"is_disabled":false,"rental_uris":{"android":"levelo://app?vid=6f91e7fa-050f-412d-a3ad-4a76590c212f","ios":"levelo://app?vid=6f91e7fa-050f-412d-a3ad-4a76590c212f"},"vehicle_type_id":"4","last_reported":1749568318,"current_range_meters":17200,"station_id":"ce4bgvp2rcd13ifvqcu0","pricing_plan_id":"cebpf4jnsgd1na2vs0mg"},{"bike_id":"4f277a40-c562-419c-82d0-1686b6d2030f","system_id":"levelo_inurba_marseille","lat":43.28425,"lon":5.34999,"is_reserved":false,"is_disabled":false,"rental_uris":{"android":"levelo://app?vid=4f277a40-c562-419c-82d0-1686b6d2030f","ios":"levelo://app?vid=4f277a40-c562-419c-82d0-1686b6d2030f"},"vehicle_type_id":"4","last_reported":1749568318,"current_range_meters":17600,"station_id":"ce4bhbh2rcd13ifvqepg","pricing_plan_id":"cebpf4jnsgd1na2vs0mg"},{"bike_id":"b5ec1ac0-b8b2-4979-be02-58fd93b05844","system_id":"levelo_inurba_marseille","lat":43.24063,"lon":5.37736,"is_reserved":false,"is_disabled":false,"rental_uris":{"android":"levelo://app?vid=b5ec1ac0-b8b2-4979-be02-58fd93b05844","ios":"levelo://app?vid=b5ec1ac0-b8b2-4979-be02-58fd93b05844"},"vehicle_type_id":"4","last_reported":1749568318,"current_range_meters":17200,"station_id":"ce4bhnp2rcd13ifvqgvg","pricing_plan_id":"cebpf4jnsgd1na2vs0mg"},{"bike_id":"2f39a991-9c41-402a-a8c1-5407e2198892","system_id":"levelo_inurba_marseille","lat":43.31533,"lon":5.38037,"is_reserved":false,"is_disabled":false,"rental_uris":{"android":"levelo://app?vid=2f39a991-9c41-402a-a8c1-5407e2198892","ios":"levelo://app?vid=2f39a991-9c41-402a-a8c1-5407e2198892"},"vehicle_type_id":"4","last_reported":1749568318,"current_range_meters":16800,"station_id":"ce4bhsp2rcd13ifvqi50","pricing_plan_id":"cebpf4jnsgd1na2vs0mg"},{"bike_id":"f53bc08c-3129-4fc3-9174-862ec7b43c8b","system_id":"levelo_inurba_marseille","lat":43.2829,"lon":5.35107,"is_reserved":false,"is_disabled":false,"rental_uris":{"android":"levelo://app?vid=f53bc08c-3129-4fc3-9174-862ec7b43c8b","ios":"levelo://app?vid=f53bc08c-3129-4fc3-9174-862ec7b43c8b"},"vehicle_type_id":"4","last_reported":1749568318,"current_range_meters":17600,"station_id":"ce4bhbp2rcd13ifvqerg","pricing_plan_id":"cebpf4jnsgd1na2vs0mg"},{"bike_id":"d49963c9-4a74-4b7c-ae71-2e7f71f19deb","system_id":"levelo_inurba_marseille","lat":43.29604,"lon":5.36733,"is_reserved":false,"is_disabled":true,"rental_uris":{"android":"levelo://app?vid=d49963c9-4a74-4b7c-ae71-2e7f71f19deb","ios":"levelo://app?vid=d49963c9-4a74-4b7c-ae71-2e7f71f19deb"},"vehicle_type_id":"4","last_reported":1749568318,"current_range_meters":17600,"station_id":"ce4bgph2rcd13ifvqc2g","pricing_plan_id":"cebpf4jnsgd1na2vs0mg"},{"bike_id":"9d276ca0-b582-482a-88bd-86fef94ca3e5","system_id":"levelo_inurba_marseille","lat":43.28616,"lon":5.37074,"is_reserved":false,"is_disabled":false,"rental_uris":{"android":"levelo://app?vid=9d276ca0-b582-482a-88bd-86fef94ca3e5","ios":"levelo://app?vid=9d276ca0-b582-482a-88bd-86fef94ca3e5"},"vehicle_type_id":"4","last_reported":1749568318,"current_range_meters":17600,"station_id":"ce4bht12rcd13ifvqi60","pricing_plan_id":"cebpf4jnsgd1na2vs0mg"},{"bike_id":"29e2b634-3f4e-43f4-b1ec-4910daf2fc2f","system_id":"levelo_inurba_marseille","lat":43.2738,"lon":5.36264,"is_reserved":false,"is_disabled":false,"rental_uris":{"android":"levelo://app?vid=29e2b634-3f4e-43f4-b1ec-4910daf2fc2f","ios":"levelo://app?vid=29e2b634-3f4e-43f4-b1ec-4910daf2fc2f"},"vehicle_type_id":"4","last_reported":1749568318,"current_range_meters":17600,"station_id":"ce4bhbh2rcd13ifvqeo0","pricing_plan_id":"cebpf4jnsgd1na2vs0mg"},{"bike_id":"c4d56ae3-ee40-41ca-903f-79dd79ed730b","system_id":"levelo_inurba_marseille","lat":43.28944,"lon":5.36635,"is_reserved":false,"is_disabled":false,"rental_uris":{"android":"levelo://app?vid=c4d56ae3-ee40-41ca-903f-79dd79ed730b","ios":"levelo://app?vid=c4d56ae3-ee40-41ca-903f-79dd79ed730b"},"vehicle_type_id":"4","last_reported":1749568318,"current_range_meters":17600,"station_id":"ce4bhap2rcd13ifvqek0","pricing_plan_id":"cebpf4jnsgd1na2vs0mg"},{"bike_id":"70ad019b-bef1-44ea-955c-db8632c6c16d","system_id":"levelo_inurba_marseille","lat":43.2418,"lon":5.36389,"is_reserved":false,"is_disabled":false,"rental_uris":{"android":"levelo://app?vid=70ad019b-bef1-44ea-955c-db8632c6c16d","ios":"levelo://app?vid=70ad019b-bef1-44ea-955c-db8632c6c16d"},"vehicle_type_id":"4","last_reported":1749568318,"current_range_meters":17600,"station_id":"cpo36qri1sfpv3e86is0","pricing_plan_id":"cebpf4jnsgd1na2vs0mg"},{"bike_id":"4dbe109a-c165-4c6a-b380-9379b54fe4e1","system_id":"levelo_inurba_marseille","lat":43.28705,"lon":5.37387,"is_reserved":false,"is_disabled":false,"rental_uris":{"android":"levelo://app?vid=4dbe109a-c165-4c6a-b380-9379b54fe4e1","ios":"levelo://app?vid=4dbe109a-c165-4c6a-b380-9379b54fe4e1"},"vehicle_type_id":"4","last_reported":1749568318,"current_range_meters":17600,"station_id":"ce4bh3p2rcd13ifvqdq0","pricing_plan_id":"cebpf4jnsgd1na2vs0mg"},{"bike_id":"0d12547c-03da-42f4-b762-ca2cc3499fe0","system_id":"levelo_inurba_marseille","lat":43.28431,"lon":5.35002,"is_reserved":false,"is_disabled":false,"rental_uris":{"android":"levelo://app?vid=0d12547c-03da-42f4-b762-ca2cc3499fe0","ios":"levelo://app?vid=0d12547c-03da-42f4-b762-ca2cc3499fe0"},"vehicle_type_id":"4","last_reported":1749568318,"current_range_meters":17600,"station_id":"ce4bhbh2rcd13ifvqepg","pricing_plan_id":"cebpf4jnsgd1na2vs0mg"},{"bike_id":"0d4cea50-5c7c-4e23-84fe-a2da6015eaa2","system_id":"levelo_inurba_marseille","lat":43.273833,"lon":5.362587,"is_reserved":false,"is_disabled":false,"rental_uris":{"android":"levelo://app?vid=0d4cea50-5c7c-4e23-84fe-a2da6015eaa2","ios":"levelo://app?vid=0d4cea50-5c7c-4e23-84fe-a2da6015eaa2"},"vehicle_type_id":"4","last_reported":1749568318,"current_range_meters":18000,"station_id":"ce4bhbh2rcd13ifvqeo0","pricing_plan_id":"cebpf4jnsgd1na2vs0mg"},{"bike_id":"0a61a83d-30f6-461d-afb3-c145799620b8","system_id":"levelo_inurba_marseille","lat":43.32462,"lon":5.36581,"is_reserved":false,"is_disabled":false,"rental_uris":{"android":"levelo://app?vid=0a61a83d-30f6-461d-afb3-c145799620b8","ios":"levelo://app?vid=0a61a83d-30f6-461d-afb3-c145799620b8"},"vehicle_type_id":"4","last_reported":1749568318,"current_range_meters":18000,"station_id":"ce4bhs12rcd13ifvqhvg","pricing_plan_id":"cebpf4jnsgd1na2vs0mg"},{"bike_id":"50715bf9-4ab0-4f4d-a9c7-02360ffaf817","system_id":"levelo_inurba_marseille","lat":43.29523,"lon":5.37506,"is_reserved":false,"is_disabled":false,"rental_uris":{"android":"levelo://app?vid=50715bf9-4ab0-4f4d-a9c7-02360ffaf817","ios":"levelo://app?vid=50715bf9-4ab0-4f4d-a9c7-02360ffaf817"},"vehicle_type_id":"4","last_reported":1749568318,"current_range_meters":18000,"station_id":"ce4bgkp2rcd13ifvqbmg","pricing_plan_id":"cebpf4jnsgd1na2vs0mg"},{"bike_id":"c967a05b-91b4-483c-8cfb-c91308b2e9d7","system_id":"levelo_inurba_marseille","lat":43.29558,"lon":5.42285,"is_reserved":false,"is_disabled":false,"rental_uris":{"android":"levelo://app?vid=c967a05b-91b4-483c-8cfb-c91308b2e9d7","ios":"levelo://app?vid=c967a05b-91b4-483c-8cfb-c91308b2e9d7"},"vehicle_type_id":"4","last_reported":1749568318,"current_range_meters":18000,"station_id":"ce4bhph2rcd13ifvqhdg","pricing_plan_id":"cebpf4jnsgd1na2vs0mg"},{"bike_id":"da7b5705-ad62-427f-8dda-7e9c08a4ee41","system_id":"levelo_inurba_marseille","lat":43.28613,"lon":5.35098,"is_reserved":false,"is_disabled":false,"rental_uris":{"android":"levelo://app?vid=da7b5705-ad62-427f-8dda-7e9c08a4ee41","ios":"levelo://app?vid=da7b5705-ad62-427f-8dda-7e9c08a4ee41"},"vehicle_type_id":"4","last_reported":1749568318,"current_range_meters":18000,"station_id":"ce4bhch2rcd13ifvqeug","pricing_plan_id":"cebpf4jnsgd1na2vs0mg"},{"bike_id":"9231f021-d06e-4dc9-b555-e59bf1d45ecd","system_id":"levelo_inurba_marseille","lat":43.321157,"lon":5.367766,"is_reserved":false,"is_disabled":false,"rental_uris":{"android":"levelo://app?vid=9231f021-d06e-4dc9-b555-e59bf1d45ecd","ios":"levelo://app?vid=9231f021-d06e-4dc9-b555-e59bf1d45ecd"},"vehicle_type_id":"4","last_reported":1749568318,"current_range_meters":18000,"station_id":"ce4bhrh2rcd13ifvqhug","pricing_plan_id":"cebpf4jnsgd1na2vs0mg"},{"bike_id":"87482a76-4b31-421e-ad48-ed975817f9e4","system_id":"levelo_inurba_marseille","lat":43.21744,"lon":5.34599,"is_reserved":false,"is_disabled":false,"rental_uris":{"android":"levelo://app?vid=87482a76-4b31-421e-ad48-ed975817f9e4","ios":"levelo://app?vid=87482a76-4b31-421e-ad48-ed975817f9e4"},"vehicle_type_id":"4","last_reported":1749568318,"current_range_meters":18000,"station_id":"st_cvj6r9ubvosntc0bgbag","pricing_plan_id":"cebpf4jnsgd1na2vs0mg"},{"bike_id":"b918f339-a33d-489c-826a-8fffafca2d2e","system_id":"levelo_inurba_marseille","lat":43.32319,"lon":5.38869,"is_reserved":false,"is_disabled":false,"rental_uris":{"android":"levelo://app?vid=b918f339-a33d-489c-826a-8fffafca2d2e","ios":"levelo://app?vid=b918f339-a33d-489c-826a-8fffafca2d2e"},"vehicle_type_id":"4","last_reported":1749568318,"current_range_meters":18000,"station_id":"ce4bhqp2rcd13ifvqhog","pricing_plan_id":"cebpf4jnsgd1na2vs0mg"},{"bike_id":"ef82d3bb-77d5-4e5f-a672-159dfe609ed3","system_id":"levelo_inurba_marseille","lat":43.282854,"lon":5.350811,"is_reserved":false,"is_disabled":false,"rental_uris":{"android":"levelo://app?vid=ef82d3bb-77d5-4e5f-a672-159dfe609ed3","ios":"levelo://app?vid=ef82d3bb-77d5-4e5f-a672-159dfe609ed3"},"vehicle_type_id":"4","last_reported":1749568318,"current_range_meters":18000,"station_id":"ce4bhbp2rcd13ifvqerg","pricing_plan_id":"cebpf4jnsgd1na2vs0mg"},{"bike_id":"d551d13a-ed55-4bb5-91ba-8997be56be39","system_id":"levelo_inurba_marseille","lat":43.23194,"lon":5.35554,"is_reserved":false,"is_disabled":false,"rental_uris":{"android":"levelo://app?vid=d551d13a-ed55-4bb5-91ba-8997be56be39","ios":"levelo://app?vid=d551d13a-ed55-4bb5-91ba-8997be56be39"},"vehicle_type_id":"4","last_reported":1749568318,"current_range_meters":18000,"station_id":"ce4bhu92rcd13ifvqi70","pricing_plan_id":"cebpf4jnsgd1na2vs0mg"},{"bike_id":"6b38077c-4ca3-4670-b9da-f123cf2f1b09","system_id":"levelo_inurba_marseille","lat":43.29002,"lon":5.35623,"is_reserved":false,"is_disabled":false,"rental_uris":{"android":"levelo://app?vid=6b38077c-4ca3-4670-b9da-f123cf2f1b09","ios":"levelo://app?vid=6b38077c-4ca3-4670-b9da-f123cf2f1b09"},"vehicle_type_id":"4","last_reported":1749568318,"current_range_meters":18800,"station_id":"ce4bhb92rcd13ifvqen0","pricing_plan_id":"cebpf4jnsgd1na2vs0mg"},{"bike_id":"63e40138-141f-4768-876a-d09ed0ddb6e8","system_id":"levelo_inurba_marseille","lat":43.28619,"lon":5.35103,"is_reserved":false,"is_disabled":false,"rental_uris":{"android":"levelo://app?vid=63e40138-141f-4768-876a-d09ed0ddb6e8","ios":"levelo://app?vid=63e40138-141f-4768-876a-d09ed0ddb6e8"},"vehicle_type_id":"4","last_reported":1749568318,"current_range_meters":18800,"station_id":"ce4bhch2rcd13ifvqeug","pricing_plan_id":"cebpf4jnsgd1na2vs0mg"},{"bike_id":"86bc70ad-1b1a-4c26-94f3-447d2e2108c8","system_id":"levelo_inurba_marseille","lat":43.32464,"lon":5.36613,"is_reserved":false,"is_disabled":false,"rental_uris":{"android":"levelo://app?vid=86bc70ad-1b1a-4c26-94f3-447d2e2108c8","ios":"levelo://app?vid=86bc70ad-1b1a-4c26-94f3-447d2e2108c8"},"vehicle_type_id":"4","last_reported":1749568318,"current_range_meters":18800,"station_id":"ce4bhs12rcd13ifvqhvg","pricing_plan_id":"cebpf4jnsgd1na2vs0mg"},{"bike_id":"550a1098-7acf-4b38-b1ab-5a38033e2f9a","system_id":"levelo_inurba_marseille","lat":43.30313,"lon":5.36895,"is_reserved":false,"is_disabled":false,"rental_uris":{"android":"levelo://app?vid=550a1098-7acf-4b38-b1ab-5a38033e2f9a","ios":"levelo://app?vid=550a1098-7acf-4b38-b1ab-5a38033e2f9a"},"vehicle_type_id":"4","last_reported":1749568318,"current_range_meters":18800,"station_id":"ce4bgqh2rcd13ifvqc5g","pricing_plan_id":"cebpf4jnsgd1na2vs0mg"},{"bike_id":"c4370a6d-f1d4-4391-870f-6398766924d4","system_id":"levelo_inurba_marseille","lat":43.29204,"lon":5.39317,"is_reserved":false,"is_disabled":false,"rental_uris":{"android":"levelo://app?vid=c4370a6d-f1d4-4391-870f-6398766924d4","ios":"levelo://app?vid=c4370a6d-f1d4-4391-870f-6398766924d4"},"vehicle_type_id":"4","last_reported":1749568318,"current_range_meters":18800,"station_id":"ce4bh192rcd13ifvqdd0","pricing_plan_id":"cebpf4jnsgd1na2vs0mg"},{"bike_id":"f8acd800-e6b4-4533-b01c-589ab2c6bd01","system_id":"levelo_inurba_marseille","lat":43.28264,"lon":5.35074,"is_reserved":false,"is_disabled":false,"rental_uris":{"android":"levelo://app?vid=f8acd800-e6b4-4533-b01c-589ab2c6bd01","ios":"levelo://app?vid=f8acd800-e6b4-4533-b01c-589ab2c6bd01"},"vehicle_type_id":"4","last_reported":1749568318,"current_range_meters":18800,"station_id":"ce4bhbp2rcd13ifvqerg","pricing_plan_id":"cebpf4jnsgd1na2vs0mg"},{"bike_id":"62c06447-73b8-4989-a396-50d358919c5b","system_id":"levelo_inurba_marseille","lat":43.28424,"lon":5.34975,"is_reserved":false,"is_disabled":false,"rental_uris":{"android":"levelo://app?vid=62c06447-73b8-4989-a396-50d358919c5b","ios":"levelo://app?vid=62c06447-73b8-4989-a396-50d358919c5b"},"vehicle_type_id":"4","last_reported":1749568318,"current_range_meters":18800,"station_id":"ce4bhbh2rcd13ifvqepg","pricing_plan_id":"cebpf4jnsgd1na2vs0mg"},{"bike_id":"8d14009e-de24-4a07-9f7f-f6faf38015af","system_id":"levelo_inurba_marseille","lat":43.27366,"lon":5.36257,"is_reserved":false,"is_disabled":false,"rental_uris":{"android":"levelo://app?vid=8d14009e-de24-4a07-9f7f-f6faf38015af","ios":"levelo://app?vid=8d14009e-de24-4a07-9f7f-f6faf38015af"},"vehicle_type_id":"4","last_reported":1749568318,"current_range_meters":18800,"station_id":"ce4bhbh2rcd13ifvqeo0","pricing_plan_id":"cebpf4jnsgd1na2vs0mg"},{"bike_id":"314bac2c-e47f-46cd-afcd-53cd84a7d142","system_id":"levelo_inurba_marseille","lat":43.27613,"lon":5.36114,"is_reserved":false,"is_disabled":true,"rental_uris":{"android":"levelo://app?vid=314bac2c-e47f-46cd-afcd-53cd84a7d142","ios":"levelo://app?vid=314bac2c-e47f-46cd-afcd-53cd84a7d142"},"vehicle_type_id":"4","last_reported":1749568318,"current_range_meters":18800,"station_id":"ce4bgj92rcd13ifvqbe0","pricing_plan_id":"cebpf4jnsgd1na2vs0mg"},{"bike_id":"9caab4f7-8e70-451b-94ce-2f3a3e04dff8","system_id":"levelo_inurba_marseille","lat":43.31074,"lon":5.38368,"is_reserved":false,"is_disabled":false,"rental_uris":{"android":"levelo://app?vid=9caab4f7-8e70-451b-94ce-2f3a3e04dff8","ios":"levelo://app?vid=9caab4f7-8e70-451b-94ce-2f3a3e04dff8"},"vehicle_type_id":"4","last_reported":1749568318,"current_range_meters":19200,"station_id":"ce4bgv92rcd13ifvqcr0","pricing_plan_id":"cebpf4jnsgd1na2vs0mg"},{"bike_id":"98178e55-41de-4e82-a5ef-89328e1396f0","system_id":"levelo_inurba_marseille","lat":43.2826,"lon":5.35092,"is_reserved":false,"is_disabled":false,"rental_uris":{"android":"levelo://app?vid=98178e55-41de-4e82-a5ef-89328e1396f0","ios":"levelo://app?vid=98178e55-41de-4e82-a5ef-89328e1396f0"},"vehicle_type_id":"4","last_reported":1749568318,"current_range_meters":19200,"station_id":"ce4bhbp2rcd13ifvqerg","pricing_plan_id":"cebpf4jnsgd1na2vs0mg"},{"bike_id":"730df074-3e99-4c5f-9e6f-ce4650b984b2","system_id":"levelo_inurba_marseille","lat":43.2816,"lon":5.4264,"is_reserved":false,"is_disabled":false,"rental_uris":{"android":"levelo://app?vid=730df074-3e99-4c5f-9e6f-ce4650b984b2","ios":"levelo://app?vid=730df074-3e99-4c5f-9e6f-ce4650b984b2"},"vehicle_type_id":"4","last_reported":1749568318,"current_range_meters":19200,"station_id":"ce4bhnh2rcd13ifvqgug","pricing_plan_id":"cebpf4jnsgd1na2vs0mg"},{"bike_id":"4f4e0a1c-979e-4d49-ae63-4241598b0a04","system_id":"levelo_inurba_marseille","lat":43.21748,"lon":5.34651,"is_reserved":false,"is_disabled":false,"rental_uris":{"android":"levelo://app?vid=4f4e0a1c-979e-4d49-ae63-4241598b0a04","ios":"levelo://app?vid=4f4e0a1c-979e-4d49-ae63-4241598b0a04"},"vehicle_type_id":"4","last_reported":1749568318,"current_range_meters":19200,"station_id":"st_cvj6r9ubvosntc0bgbag","pricing_plan_id":"cebpf4jnsgd1na2vs0mg"},{"bike_id":"a2421370-e442-436f-a98a-844d44299694","system_id":"levelo_inurba_marseille","lat":43.32358,"lon":5.36756,"is_reserved":false,"is_disabled":false,"rental_uris":{"android":"levelo://app?vid=a2421370-e442-436f-a98a-844d44299694","ios":"levelo://app?vid=a2421370-e442-436f-a98a-844d44299694"},"vehicle_type_id":"4","last_reported":1749568318,"current_range_meters":19200,"station_id":"ce4bhsh2rcd13ifvqi2g","pricing_plan_id":"cebpf4jnsgd1na2vs0mg"},{"bike_id":"b0d642a2-4d8f-4ade-867d-eb59ff052bfd","system_id":"levelo_inurba_marseille","lat":43.33027,"lon":5.39037,"is_reserved":false,"is_disabled":false,"rental_uris":{"android":"levelo://app?vid=b0d642a2-4d8f-4ade-867d-eb59ff052bfd","ios":"levelo://app?vid=b0d642a2-4d8f-4ade-867d-eb59ff052bfd"},"vehicle_type_id":"4","last_reported":1749568318,"current_range_meters":19200,"station_id":"ce4bhr92rcd13ifvqhrg","pricing_plan_id":"cebpf4jnsgd1na2vs0mg"},{"bike_id":"3e0fa52d-62db-4e2e-a01b-24f8b921d540","system_id":"levelo_inurba_marseille","lat":43.303249,"lon":5.396902,"is_reserved":false,"is_disabled":false,"rental_uris":{"android":"levelo://app?vid=3e0fa52d-62db-4e2e-a01b-24f8b921d540","ios":"levelo://app?vid=3e0fa52d-62db-4e2e-a01b-24f8b921d540"},"vehicle_type_id":"4","last_reported":1749568318,"current_range_meters":19200,"station_id":"","pricing_plan_id":"cebpf4jnsgd1na2vs0mg"},{"bike_id":"c6d21e26-26b7-4a15-9f95-3af0bce0ea14","system_id":"levelo_inurba_marseille","lat":43.24161,"lon":5.3644,"is_reserved":false,"is_disabled":false,"rental_uris":{"android":"levelo://app?vid=c6d21e26-26b7-4a15-9f95-3af0bce0ea14","ios":"levelo://app?vid=c6d21e26-26b7-4a15-9f95-3af0bce0ea14"},"vehicle_type_id":"4","last_reported":1749568318,"current_range_meters":19200,"station_id":"cpo36qri1sfpv3e86is0","pricing_plan_id":"cebpf4jnsgd1na2vs0mg"},{"bike_id":"25a4c875-602e-485b-a883-bfff2f4afc41","system_id":"levelo_inurba_marseille","lat":43.28428,"lon":5.35035,"is_reserved":false,"is_disabled":false,"rental_uris":{"android":"levelo://app?vid=25a4c875-602e-485b-a883-bfff2f4afc41","ios":"levelo://app?vid=25a4c875-602e-485b-a883-bfff2f4afc41"},"vehicle_type_id":"4","last_reported":1749568318,"current_range_meters":19200,"station_id":"ce4bhbh2rcd13ifvqepg","pricing_plan_id":"cebpf4jnsgd1na2vs0mg"},{"bike_id":"7ef3da07-42be-4ecd-85de-c4956f7338e4","system_id":"levelo_inurba_marseille","lat":43.30241,"lon":5.38825,"is_reserved":false,"is_disabled":false,"rental_uris":{"android":"levelo://app?vid=7ef3da07-42be-4ecd-85de-c4956f7338e4","ios":"levelo://app?vid=7ef3da07-42be-4ecd-85de-c4956f7338e4"},"vehicle_type_id":"4","last_reported":1749568318,"current_range_meters":19200,"station_id":"","pricing_plan_id":"cebpf4jnsgd1na2vs0mg"},{"bike_id":"de7b1ebb-f406-444c-a6d4-62243773bc8b","system_id":"levelo_inurba_marseille","lat":43.28419,"lon":5.35004,"is_reserved":false,"is_disabled":false,"rental_uris":{"android":"levelo://app?vid=de7b1ebb-f406-444c-a6d4-62243773bc8b","ios":"levelo://app?vid=de7b1ebb-f406-444c-a6d4-62243773bc8b"},"vehicle_type_id":"4","last_reported":1749568318,"current_range_meters":19200,"station_id":"ce4bhbh2rcd13ifvqepg","pricing_plan_id":"cebpf4jnsgd1na2vs0mg"},{"bike_id":"94412bad-4301-48d6-b548-6b7fb7b66f22","system_id":"levelo_inurba_marseille","lat":43.31332,"lon":5.36729,"is_reserved":false,"is_disabled":false,"rental_uris":{"android":"levelo://app?vid=94412bad-4301-48d6-b548-6b7fb7b66f22","ios":"levelo://app?vid=94412bad-4301-48d6-b548-6b7fb7b66f22"},"vehicle_type_id":"4","last_reported":1749568318,"current_range_meters":19200,"station_id":"ce4bgr92rcd13ifvqc6g","pricing_plan_id":"cebpf4jnsgd1na2vs0mg"},{"bike_id":"a172b0cf-62c4-4c52-a818-ce564350df02","system_id":"levelo_inurba_marseille","lat":43.212087,"lon":5.35082,"is_reserved":false,"is_disabled":false,"rental_uris":{"android":"levelo://app?vid=a172b0cf-62c4-4c52-a818-ce564350df02","ios":"levelo://app?vid=a172b0cf-62c4-4c52-a818-ce564350df02"},"vehicle_type_id":"4","last_reported":1749568318,"current_range_meters":19200,"station_id":"st_cvj6sg6p6f1abm77japg","pricing_plan_id":"cebpf4jnsgd1na2vs0mg"},{"bike_id":"f10adc7e-6a3a-4a5d-9515-dc52fefe2058","system_id":"levelo_inurba_marseille","lat":43.323673,"lon":5.367404,"is_reserved":false,"is_disabled":false,"rental_uris":{"android":"levelo://app?vid=f10adc7e-6a3a-4a5d-9515-dc52fefe2058","ios":"levelo://app?vid=f10adc7e-6a3a-4a5d-9515-dc52fefe2058"},"vehicle_type_id":"4","last_reported":1749568318,"current_range_meters":19600,"station_id":"ce4bhsh2rcd13ifvqi2g","pricing_plan_id":"cebpf4jnsgd1na2vs0mg"},{"bike_id":"f0a41289-444e-4f1d-be83-095e26d79cca","system_id":"levelo_inurba_marseille","lat":43.21752,"lon":5.34597,"is_reserved":false,"is_disabled":false,"rental_uris":{"android":"levelo://app?vid=f0a41289-444e-4f1d-be83-095e26d79cca","ios":"levelo://app?vid=f0a41289-444e-4f1d-be83-095e26d79cca"},"vehicle_type_id":"4","last_reported":1749568318,"current_range_meters":19600,"station_id":"st_cvj6r9ubvosntc0bgbag","pricing_plan_id":"cebpf4jnsgd1na2vs0mg"},{"bike_id":"56330c84-cded-4bde-ae9e-768026649efa","system_id":"levelo_inurba_marseille","lat":43.31333,"lon":5.39712,"is_reserved":false,"is_disabled":false,"rental_uris":{"android":"levelo://app?vid=56330c84-cded-4bde-ae9e-768026649efa","ios":"levelo://app?vid=56330c84-cded-4bde-ae9e-768026649efa"},"vehicle_type_id":"4","last_reported":1749568318,"current_range_meters":19600,"station_id":"ce4bgvp2rcd13ifvqcu0","pricing_plan_id":"cebpf4jnsgd1na2vs0mg"},{"bike_id":"867a5170-b0c6-41ca-b070-059085fe693d","system_id":"levelo_inurba_marseille","lat":43.29908,"lon":5.38128,"is_reserved":false,"is_disabled":false,"rental_uris":{"android":"levelo://app?vid=867a5170-b0c6-41ca-b070-059085fe693d","ios":"levelo://app?vid=867a5170-b0c6-41ca-b070-059085fe693d"},"vehicle_type_id":"4","last_reported":1749568318,"current_range_meters":19600,"station_id":"ce4bgj12rcd13ifvqbc0","pricing_plan_id":"cebpf4jnsgd1na2vs0mg"},{"bike_id":"c784a8bb-cad9-4cb7-a4db-38a41b2642db","system_id":"levelo_inurba_marseille","lat":43.23199,"lon":5.35554,"is_reserved":false,"is_disabled":false,"rental_uris":{"android":"levelo://app?vid=c784a8bb-cad9-4cb7-a4db-38a41b2642db","ios":"levelo://app?vid=c784a8bb-cad9-4cb7-a4db-38a41b2642db"},"vehicle_type_id":"4","last_reported":1749568318,"current_range_meters":19600,"station_id":"ce4bhu92rcd13ifvqi70","pricing_plan_id":"cebpf4jnsgd1na2vs0mg"},{"bike_id":"390d10d2-a74e-4e66-9276-d0dc93391c1e","system_id":"levelo_inurba_marseille","lat":43.28421,"lon":5.34987,"is_reserved":false,"is_disabled":false,"rental_uris":{"android":"levelo://app?vid=390d10d2-a74e-4e66-9276-d0dc93391c1e","ios":"levelo://app?vid=390d10d2-a74e-4e66-9276-d0dc93391c1e"},"vehicle_type_id":"4","last_reported":1749568318,"current_range_meters":19600,"station_id":"ce4bhbh2rcd13ifvqepg","pricing_plan_id":"cebpf4jnsgd1na2vs0mg"},{"bike_id":"6f01253b-35f5-4d77-ac8b-9d8fe48c81d0","system_id":"levelo_inurba_marseille","lat":43.30192,"lon":5.38166,"is_reserved":false,"is_disabled":false,"rental_uris":{"android":"levelo://app?vid=6f01253b-35f5-4d77-ac8b-9d8fe48c81d0","ios":"levelo://app?vid=6f01253b-35f5-4d77-ac8b-9d8fe48c81d0"},"vehicle_type_id":"4","last_reported":1749568318,"current_range_meters":20000,"station_id":"ce4bgjp2rcd13ifvqbh0","pricing_plan_id":"cebpf4jnsgd1na2vs0mg"},{"bike_id":"7eb531f6-2d3a-456f-8dfb-2684daeb8e43","system_id":"levelo_inurba_marseille","lat":43.24655,"lon":5.38889,"is_reserved":false,"is_disabled":false,"rental_uris":{"android":"levelo://app?vid=7eb531f6-2d3a-456f-8dfb-2684daeb8e43","ios":"levelo://app?vid=7eb531f6-2d3a-456f-8dfb-2684daeb8e43"},"vehicle_type_id":"4","last_reported":1749568318,"current_range_meters":20000,"station_id":"ce4bhg12rcd13ifvqf60","pricing_plan_id":"cebpf4jnsgd1na2vs0mg"},{"bike_id":"c80b951c-40ca-49ec-bb96-9b23afa6204e","system_id":"levelo_inurba_marseille","lat":43.282623,"lon":5.350695,"is_reserved":false,"is_disabled":false,"rental_uris":{"android":"levelo://app?vid=c80b951c-40ca-49ec-bb96-9b23afa6204e","ios":"levelo://app?vid=c80b951c-40ca-49ec-bb96-9b23afa6204e"},"vehicle_type_id":"4","last_reported":1749568318,"current_range_meters":20000,"station_id":"ce4bhbp2rcd13ifvqerg","pricing_plan_id":"cebpf4jnsgd1na2vs0mg"},{"bike_id":"e5f72e0b-a874-49c2-9099-8c92831223d6","system_id":"levelo_inurba_marseille","lat":43.26236,"lon":5.37894,"is_reserved":false,"is_disabled":false,"rental_uris":{"android":"levelo://app?vid=e5f72e0b-a874-49c2-9099-8c92831223d6","ios":"levelo://app?vid=e5f72e0b-a874-49c2-9099-8c92831223d6"},"vehicle_type_id":"4","last_reported":1749568318,"current_range_meters":20000,"station_id":"ce4bhjp2rcd13ifvqg90","pricing_plan_id":"cebpf4jnsgd1na2vs0mg"},{"bike_id":"dc0fb223-7feb-43a0-a901-ffa2d971228b","system_id":"levelo_inurba_marseille","lat":43.31376,"lon":5.40262,"is_reserved":false,"is_disabled":false,"rental_uris":{"android":"levelo://app?vid=dc0fb223-7feb-43a0-a901-ffa2d971228b","ios":"levelo://app?vid=dc0fb223-7feb-43a0-a901-ffa2d971228b"},"vehicle_type_id":"4","last_reported":1749568318,"current_range_meters":20800,"station_id":"","pricing_plan_id":"cebpf4jnsgd1na2vs0mg"},{"bike_id":"11203ba6-4134-49eb-9e7c-e643018e9808","system_id":"levelo_inurba_marseille","lat":43.284209,"lon":5.349954,"is_reserved":false,"is_disabled":false,"rental_uris":{"android":"levelo://app?vid=11203ba6-4134-49eb-9e7c-e643018e9808","ios":"levelo://app?vid=11203ba6-4134-49eb-9e7c-e643018e9808"},"vehicle_type_id":"4","last_reported":1749568318,"current_range_meters":20400,"station_id":"ce4bhbh2rcd13ifvqepg","pricing_plan_id":"cebpf4jnsgd1na2vs0mg"},{"bike_id":"9416031a-d730-435a-b710-92440d1c38e1","system_id":"levelo_inurba_marseille","lat":43.28256,"lon":5.35086,"is_reserved":false,"is_disabled":false,"rental_uris":{"android":"levelo://app?vid=9416031a-d730-435a-b710-92440d1c38e1","ios":"levelo://app?vid=9416031a-d730-435a-b710-92440d1c38e1"},"vehicle_type_id":"4","last_reported":1749568318,"current_range_meters":20400,"station_id":"ce4bhbp2rcd13ifvqerg","pricing_plan_id":"cebpf4jnsgd1na2vs0mg"},{"bike_id":"a81b7f12-9f5d-4775-aeaf-81483c500521","system_id":"levelo_inurba_marseille","lat":43.24183,"lon":5.36391,"is_reserved":false,"is_disabled":false,"rental_uris":{"android":"levelo://app?vid=a81b7f12-9f5d-4775-aeaf-81483c500521","ios":"levelo://app?vid=a81b7f12-9f5d-4775-aeaf-81483c500521"},"vehicle_type_id":"4","last_reported":1749568318,"current_range_meters":20400,"station_id":"cpo36qri1sfpv3e86is0","pricing_plan_id":"cebpf4jnsgd1na2vs0mg"},{"bike_id":"f2f29d17-c90b-4f86-a702-80ae88bddaca","system_id":"levelo_inurba_marseille","lat":43.26559,"lon":5.37279,"is_reserved":false,"is_disabled":false,"rental_uris":{"android":"levelo://app?vid=f2f29d17-c90b-4f86-a702-80ae88bddaca","ios":"levelo://app?vid=f2f29d17-c90b-4f86-a702-80ae88bddaca"},"vehicle_type_id":"4","last_reported":1749568318,"current_range_meters":20800,"station_id":"ce4bhg12rcd13ifvqf70","pricing_plan_id":"cebpf4jnsgd1na2vs0mg"},{"bike_id":"ec5b4fe3-f025-4f7d-a63b-430286806af8","system_id":"levelo_inurba_marseille","lat":43.28457,"lon":5.35892,"is_reserved":false,"is_disabled":false,"rental_uris":{"android":"levelo://app?vid=ec5b4fe3-f025-4f7d-a63b-430286806af8","ios":"levelo://app?vid=ec5b4fe3-f025-4f7d-a63b-430286806af8"},"vehicle_type_id":"4","last_reported":1749568318,"current_range_meters":20400,"station_id":"ce4bhah2rcd13ifvqei0","pricing_plan_id":"cebpf4jnsgd1na2vs0mg"},{"bike_id":"7e97aab5-3f2d-40fb-a406-6b0fd1d65d62","system_id":"levelo_inurba_marseille","lat":43.31354,"lon":5.38494,"is_reserved":false,"is_disabled":false,"rental_uris":{"android":"levelo://app?vid=7e97aab5-3f2d-40fb-a406-6b0fd1d65d62","ios":"levelo://app?vid=7e97aab5-3f2d-40fb-a406-6b0fd1d65d62"},"vehicle_type_id":"4","last_reported":1749568318,"current_range_meters":20800,"station_id":"ce4bgt92rcd13ifvqcf0","pricing_plan_id":"cebpf4jnsgd1na2vs0mg"},{"bike_id":"877b6d3a-fbec-4a11-82bb-cb48fe77180f","system_id":"levelo_inurba_marseille","lat":43.25579,"lon":5.38244,"is_reserved":false,"is_disabled":false,"rental_uris":{"android":"levelo://app?vid=877b6d3a-fbec-4a11-82bb-cb48fe77180f","ios":"levelo://app?vid=877b6d3a-fbec-4a11-82bb-cb48fe77180f"},"vehicle_type_id":"4","last_reported":1749568318,"current_range_meters":20800,"station_id":"ce4bhih2rcd13ifvqfs0","pricing_plan_id":"cebpf4jnsgd1na2vs0mg"},{"bike_id":"2ec42470-350a-46de-8574-76f46c56b208","system_id":"levelo_inurba_marseille","lat":43.27795,"lon":5.40719,"is_reserved":false,"is_disabled":false,"rental_uris":{"android":"levelo://app?vid=2ec42470-350a-46de-8574-76f46c56b208","ios":"levelo://app?vid=2ec42470-350a-46de-8574-76f46c56b208"},"vehicle_type_id":"4","last_reported":1749568318,"current_range_meters":22000,"station_id":"ce4bhnh2rcd13ifvqgtg","pricing_plan_id":"cebpf4jnsgd1na2vs0mg"},{"bike_id":"53da7ec5-503a-4a1b-9dd1-1f22447f713a","system_id":"levelo_inurba_marseille","lat":43.28857,"lon":5.35846,"is_reserved":false,"is_disabled":false,"rental_uris":{"android":"levelo://app?vid=53da7ec5-503a-4a1b-9dd1-1f22447f713a","ios":"levelo://app?vid=53da7ec5-503a-4a1b-9dd1-1f22447f713a"},"vehicle_type_id":"4","last_reported":1749568318,"current_range_meters":20800,"station_id":"ce4bhb12rcd13ifvqem0","pricing_plan_id":"cebpf4jnsgd1na2vs0mg"},{"bike_id":"a85e455f-2e10-4354-b9a6-1665f8bb0396","system_id":"levelo_inurba_marseille","lat":43.24998,"lon":5.38934,"is_reserved":false,"is_disabled":false,"rental_uris":{"android":"levelo://app?vid=a85e455f-2e10-4354-b9a6-1665f8bb0396","ios":"levelo://app?vid=a85e455f-2e10-4354-b9a6-1665f8bb0396"},"vehicle_type_id":"4","last_reported":1749568318,"current_range_meters":20800,"station_id":"ce4bhgp2rcd13ifvqfd0","pricing_plan_id":"cebpf4jnsgd1na2vs0mg"},{"bike_id":"3db8fde5-dc25-47f9-adb5-1429f5338e31","system_id":"levelo_inurba_marseille","lat":43.31756,"lon":5.38491,"is_reserved":false,"is_disabled":false,"rental_uris":{"android":"levelo://app?vid=3db8fde5-dc25-47f9-adb5-1429f5338e31","ios":"levelo://app?vid=3db8fde5-dc25-47f9-adb5-1429f5338e31"},"vehicle_type_id":"4","last_reported":1749568318,"current_range_meters":20800,"station_id":"","pricing_plan_id":"cebpf4jnsgd1na2vs0mg"},{"bike_id":"c6e18437-b280-4200-9f22-3f258eb6b288","system_id":"levelo_inurba_marseille","lat":43.282697,"lon":5.35091,"is_reserved":false,"is_disabled":false,"rental_uris":{"android":"levelo://app?vid=c6e18437-b280-4200-9f22-3f258eb6b288","ios":"levelo://app?vid=c6e18437-b280-4200-9f22-3f258eb6b288"},"vehicle_type_id":"4","last_reported":1749568318,"current_range_meters":21600,"station_id":"ce4bhbp2rcd13ifvqerg","pricing_plan_id":"cebpf4jnsgd1na2vs0mg"},{"bike_id":"b4e0430e-3544-4b19-8a99-ead521d4a15e","system_id":"levelo_inurba_marseille","lat":43.27401,"lon":5.36255,"is_reserved":false,"is_disabled":false,"rental_uris":{"android":"levelo://app?vid=b4e0430e-3544-4b19-8a99-ead521d4a15e","ios":"levelo://app?vid=b4e0430e-3544-4b19-8a99-ead521d4a15e"},"vehicle_type_id":"4","last_reported":1749568318,"current_range_meters":21600,"station_id":"ce4bhbh2rcd13ifvqeo0","pricing_plan_id":"cebpf4jnsgd1na2vs0mg"},{"bike_id":"131a22c5-2c23-41a1-8993-48538638085c","system_id":"levelo_inurba_marseille","lat":43.32131,"lon":5.36777,"is_reserved":false,"is_disabled":false,"rental_uris":{"android":"levelo://app?vid=131a22c5-2c23-41a1-8993-48538638085c","ios":"levelo://app?vid=131a22c5-2c23-41a1-8993-48538638085c"},"vehicle_type_id":"4","last_reported":1749568318,"current_range_meters":21600,"station_id":"ce4bhrh2rcd13ifvqhug","pricing_plan_id":"cebpf4jnsgd1na2vs0mg"},{"bike_id":"5dd5a24a-29a2-4e26-ae68-78acfeaec450","system_id":"levelo_inurba_marseille","lat":43.28855,"lon":5.35858,"is_reserved":false,"is_disabled":false,"rental_uris":{"android":"levelo://app?vid=5dd5a24a-29a2-4e26-ae68-78acfeaec450","ios":"levelo://app?vid=5dd5a24a-29a2-4e26-ae68-78acfeaec450"},