{"last_updated":1679249314,"ttl":30,"version":"2.2","data":{"bikes":[{"bike_id":"07046387-8cd4-4f78-8de3-725855f720ec","system_id":"levelo_inurba_marseille","lat":43.312239,"lon":5.368562,"is_reserved":false,"is_disabled":false,"rental_uris":{"android":"levelo://app?vid=07046387-8cd4-4f78-8de3-725855f720ec","ios":"levelo://app?vid=07046387-8cd4-4f78-8de3-725855f720ec"},"vehicle_type_id":"4","last_reported":1679249315,"current_range_meters":0,"station_id":"ce4bgl92rcd13ifvqbq0","pricing_plan_id":"free"},{"bike_id":"5378e18e-a3b6-4e83-8b1c-37e5224fc2fc","system_id":"levelo_inurba_marseille","lat":43.312239,"lon":5.368562,"is_reserved":false,"is_disabled":false,"rental_uris":{"android":"levelo://app?vid=5378e18e-a3b6-4e83-8b1c-37e5224fc2fc","ios":"levelo://app?vid=5378e18e-a3b6-4e83-8b1c-37e5224fc2fc"},"vehicle_type_id":"4","last_reported":1679249315,"current_range_meters":0,"station_id":"ce4bgl92rcd13ifvqbq0","pricing_plan_id":"free"},{"bike_id":"a126460c-b791-4dc4-87bd-dcde496f5a81","system_id":"levelo_inurba_marseille","lat":43.312239,"lon":5.368562,"is_reserved":false,"is_disabled":false,"rental_uris":{"android":"levelo://app?vid=a126460c-b791-4dc4-87bd-dcde496f5a81","ios":"levelo://app?vid=a126460c-b791-4dc4-87bd-dcde496f5a81"},"vehicle_type_id":"4","last_reported":1679249315,"current_range_meters":0,"station_id":"ce4bgl92rcd13ifvqbq0","pricing_plan_id":"free"},{"bike_id":"c6b75221-99d1-41d2-8b73-2b9b53678d8a","system_id":"levelo_inurba_marseille","lat":43.30907,"lon":5.36848,"is_reserved":false,"is_disabled":false,"rental_uris":{"android":"levelo://app?vid=c6b75221-99d1-41d2-8b73-2b9b53678d8a","ios":"levelo://app?vid=c6b75221-99d1-41d2-8b73-2b9b53678d8a"},"vehicle_type_id":"4","last_reported":1679249315,"current_range_meters":5600,"station_id":"ce4bgn92rcd13ifvqbvg","pricing_plan_id":"free"},{"bike_id":"dce87d7b-dc18-4e95-b07b-4c5bdba2a389","system_id":"levelo_inurba_marseille","lat":43.30903,"lon":5.36849,"is_reserved":false,"is_disabled":false,"rental_uris":{"android":"levelo://app?vid=dce87d7b-dc18-4e95-b07b-4c5bdba2a389","ios":"levelo://app?vid=dce87d7b-dc18-4e95-b07b-4c5bdba2a389"},"vehicle_type_id":"4","last_reported":1679249315,"current_range_meters":4800,"station_id":"ce4bgn92rcd13ifvqbvg","pricing_plan_id":"free"},{"bike_id":"c60df01c-d495-408d-b277-d3628919918e","system_id":"levelo_inurba_marseille","lat":43.30174,"lon":5.3662,"is_reserved":false,"is_disabled":false,"rental_uris":{"android":"levelo://app?vid=c60df01c-d495-408d-b277-d3628919918e","ios":"levelo://app?vid=c60df01c-d495-408d-b277-d3628919918e"},"vehicle_type_id":"4","last_reported":1679249315,"current_range_meters":0,"station_id":"","pricing_plan_id":"free"},{"bike_id":"c2684829-8fa0-4125-ba87-32c9128712df","system_id":"levelo_inurba_marseille","lat":43.308012,"lon":5.381511,"is_reserved":false,"is_disabled":false,"rental_uris":{"android":"levelo://app?vid=c2684829-8fa0-4125-ba87-32c9128712df","ios":"levelo://app?vid=c2684829-8fa0-4125-ba87-32c9128712df"},"vehicle_type_id":"4","last_reported":1679249315,"current_range_meters":11200,"station_id":"ce4bgt12rcd13ifvqce0","pricing_plan_id":"free"},{"bike_id":"93b691a8-6f58-4638-a761-1a7f981c942a","system_id":"levelo_inurba_marseille","lat":43.308075,"lon":5.381585,"is_reserved":false,"is_disabled":false,"rental_uris":{"android":"levelo://app?vid=93b691a8-6f58-4638-a761-1a7f981c942a","ios":"levelo://app?vid=93b691a8-6f58-4638-a761-1a7f981c942a"},"vehicle_type_id":"4","last_reported":1679249315,"current_range_meters":400,"station_id":"","pricing_plan_id":"free"},{"bike_id":"4e070b7b-b7e7-4049-8abd-079c4d4df740","system_id":"levelo_inurba_marseille","lat":43.308023,"lon":5.381651,"is_reserved":false,"is_disabled":false,"rental_uris":{"android":"levelo://app?vid=4e070b7b-b7e7-4049-8abd-079c4d4df740","ios":"levelo://app?vid=4e070b7b-b7e7-4049-8abd-079c4d4df740"},"vehicle_type_id":"4","last_reported":1679249315,"current_range_meters":0,"station_id":"","pricing_plan_id":"free"},{"bike_id":"04862b91-eae2-439e-9271-7b0c239c0155","system_id":"levelo_inurba_marseille","lat":43.304606,"lon":5.379026,"is_reserved":false,"is_disabled":false,"rental_uris":{"android":"levelo://app?vid=04862b91-eae2-439e-9271-7b0c239c0155","ios":"levelo://app?vid=04862b91-eae2-439e-9271-7b0c239c0155"},"vehicle_type_id":"4","last_reported":1679249315,"current_range_meters":0,"station_id":"ce4bgup2rcd13ifvqcn0","pricing_plan_id":"free"},{"bike_id":"36aaacaa-3f0f-4320-bd73-8e28faa62868","system_id":"levelo_inurba_marseille","lat":43.30138,"lon":5.3741,"is_reserved":false,"is_disabled":false,"rental_uris":{"android":"levelo://app?vid=36aaacaa-3f0f-4320-bd73-8e28faa62868","ios":"levelo://app?vid=36aaacaa-3f0f-4320-bd73-8e28faa62868"},"vehicle_type_id":"4","last_reported":1679249315,"current_range_meters":2800,"station_id":"","pricing_plan_id":"free"},{"bike_id":"088e6036-4bc4-4d47-ba51-c59d853a6994","system_id":"levelo_inurba_marseille","lat":43.30139,"lon":5.3742,"is_reserved":false,"is_disabled":false,"rental_uris":{"android":"levelo://app?vid=088e6036-4bc4-4d47-ba51-c59d853a6994","ios":"levelo://app?vid=088e6036-4bc4-4d47-ba51-c59d853a6994"},"vehicle_type_id":"4","last_reported":1679249315,"current_range_meters":11200,"station_id":"ce4bgs92rcd13ifvqcc0","pricing_plan_id":"free"},{"bike_id":"382cbfbe-582a-4ea8-a2f0-def037dc7ce1","system_id":"levelo_inurba_marseille","lat":43.313571,"lon":5.384829,"is_reserved":false,"is_disabled":false,"rental_uris":{"android":"levelo://app?vid=382cbfbe-582a-4ea8-a2f0-def037dc7ce1","ios":"levelo://app?vid=382cbfbe-582a-4ea8-a2f0-def037dc7ce1"},"vehicle_type_id":"4","last_reported":1679249315,"current_range_meters":22000,"station_id":"ce4bgt92rcd13ifvqcf0","pricing_plan_id":"free"},{"bike_id":"86cedb37-3703-402f-89dd-e6618775cc28","system_id":"levelo_inurba_marseille","lat":43.300871,"lon":5.374813,"is_reserved":false,"is_disabled":false,"rental_uris":{"android":"levelo://app?vid=86cedb37-3703-402f-89dd-e6618775cc28","ios":"levelo://app?vid=86cedb37-3703-402f-89dd-e6618775cc28"},"vehicle_type_id":"4","last_reported":1679249315,"current_range_meters":0,"station_id":"","pricing_plan_id":"free"},{"bike_id":"f5409a4c-5174-44f6-b97d-32b1656e76a8","system_id":"levelo_inurba_marseille","lat":43.311722,"lon":5.387247,"is_reserved":false,"is_disabled":false,"rental_uris":{"android":"levelo://app?vid=f5409a4c-5174-44f6-b97d-32b1656e76a8","ios":"levelo://app?vid=f5409a4c-5174-44f6-b97d-32b1656e76a8"},"vehicle_type_id":"4","last_reported":1679249315,"current_range_meters":3200,"station_id":"ce4bgv12rcd13ifvqcp0","pricing_plan_id":"free"},{"bike_id":"d6aabfc5-3d5f-42bb-883c-87c2ae6c5b80","system_id":"levelo_inurba_marseille","lat":43.299243,"lon":5.374807,"is_reserved":false,"is_disabled":false,"rental_uris":{"android":"levelo://app?vid=d6aabfc5-3d5f-42bb-883c-87c2ae6c5b80","ios":"levelo://app?vid=d6aabfc5-3d5f-42bb-883c-87c2ae6c5b80"},"vehicle_type_id":"4","last_reported":1679249315,"current_range_meters":0,"station_id":"ce4bgjh2rcd13ifvqbg0","pricing_plan_id":"free"},{"bike_id":"4be3b5ed-a27c-4e06-9354-c6c3ffcaffdd","system_id":"levelo_inurba_marseille","lat":43.311722,"lon":5.387247,"is_reserved":false,"is_disabled":false,"rental_uris":{"android":"levelo://app?vid=4be3b5ed-a27c-4e06-9354-c6c3ffcaffdd","ios":"levelo://app?vid=4be3b5ed-a27c-4e06-9354-c6c3ffcaffdd"},"vehicle_type_id":"4","last_reported":1679249315,"current_range_meters":15600,"station_id":"ce4bgv12rcd13ifvqcp0","pricing_plan_id":"free"},{"bike_id":"2c8814b4-4cf8-4543-a9d0-95ea028fc881","system_id":"levelo_inurba_marseille","lat":43.311722,"lon":5.387247,"is_reserved":false,"is_disabled":false,"rental_uris":{"android":"levelo://app?vid=2c8814b4-4cf8-4543-a9d0-95ea028fc881","ios":"levelo://app?vid=2c8814b4-4cf8-4543-a9d0-95ea028fc881"},"vehicle_type_id":"4","last_reported":1679249315,"current_range_meters":20800,"station_id":"ce4bgv12rcd13ifvqcp0","pricing_plan_id":"free"},{"bike_id":"7c2758b8-a313-4bb8-b74c-edcaa9abc04c","system_id":"levelo_inurba_marseille","lat":43.296131,"lon":5.370791,"is_reserved":false,"is_disabled":false,"rental_uris":{"android":"levelo://app?vid=7c2758b8-a313-4bb8-b74c-edcaa9abc04c","ios":"levelo://app?vid=7c2758b8-a313-4bb8-b74c-edcaa9abc04c"},"vehicle_type_id":"4","last_reported":1679249315,"current_range_meters":0,"station_id":"ce4bgnh2rcd13ifvqc0g","pricing_plan_id":"free"},{"bike_id":"51b3ffe5-81a6-4487-b247-ec3701c4ba9e","system_id":"levelo_inurba_marseille","lat":43.29573,"lon":5.367355,"is_reserved":false,"is_disabled":false,"rental_uris":{"android":"levelo://app?vid=51b3ffe5-81a6-4487-b247-ec3701c4ba9e","ios":"levelo://app?vid=51b3ffe5-81a6-4487-b247-ec3701c4ba9e"},"vehicle_type_id":"4","last_reported":1679249315,"current_range_meters":0,"station_id":"ce4bgph2rcd13ifvqc2g","pricing_plan_id":"free"},{"bike_id":"ee651426-e190-4666-aabf-6ec090de55e1","system_id":"levelo_inurba_marseille","lat":43.299028,"lon":5.381509,"is_reserved":false,"is_disabled":false,"rental_uris":{"android":"levelo://app?vid=ee651426-e190-4666-aabf-6ec090de55e1","ios":"levelo://app?vid=ee651426-e190-4666-aabf-6ec090de55e1"},"vehicle_type_id":"4","last_reported":1679249315,"current_range_meters":0,"station_id":"ce4bgj12rcd13ifvqbc0","pricing_plan_id":"free"},{"bike_id":"c7295a1b-cfce-4538-9b7d-681d1d9cb731","system_id":"levelo_inurba_marseille","lat":43.309589,"lon":5.390258,"is_reserved":false,"is_disabled":false,"rental_uris":{"android":"levelo://app?vid=c7295a1b-cfce-4538-9b7d-681d1d9cb731","ios":"levelo://app?vid=c7295a1b-cfce-4538-9b7d-681d1d9cb731"},"vehicle_type_id":"4","last_reported":1679249315,"current_range_meters":0,"station_id":"ce4bgup2rcd13ifvqco0","pricing_plan_id":"free"},{"bike_id":"c16a6333-e5a6-4887-8cc4-35754b9103ce","system_id":"levelo_inurba_marseille","lat":43.299,"lon":5.38128,"is_reserved":false,"is_disabled":false,"rental_uris":{"android":"levelo://app?vid=c16a6333-e5a6-4887-8cc4-35754b9103ce","ios":"levelo://app?vid=c16a6333-e5a6-4887-8cc4-35754b9103ce"},"vehicle_type_id":"4","last_reported":1679249315,"current_range_meters":5200,"station_id":"ce4bgj12rcd13ifvqbc0","pricing_plan_id":"free"},{"bike_id":"194e0fd4-620c-4b69-8730-fe893385c914","system_id":"levelo_inurba_marseille","lat":43.299028,"lon":5.381509,"is_reserved":false,"is_disabled":false,"rental_uris":{"android":"levelo://app?vid=194e0fd4-620c-4b69-8730-fe893385c914","ios":"levelo://app?vid=194e0fd4-620c-4b69-8730-fe893385c914"},"vehicle_type_id":"4","last_reported":1679249315,"current_range_meters":26000,"station_id":"ce4bgj12rcd13ifvqbc0","pricing_plan_id":"free"},{"bike_id":"6af575b9-ad8e-432e-84d0-3b59b494ff36","system_id":"levelo_inurba_marseille","lat":43.299028,"lon":5.381509,"is_reserved":false,"is_disabled":false,"rental_uris":{"android":"levelo://app?vid=6af575b9-ad8e-432e-84d0-3b59b494ff36","ios":"levelo://app?vid=6af575b9-ad8e-432e-84d0-3b59b494ff36"},"vehicle_type_id":"4","last_reported":1679249315,"current_range_meters":0,"station_id":"ce4bgj12rcd13ifvqbc0","pricing_plan_id":"free"},{"bike_id":"0a828f1d-be64-4c10-86cc-12c6d20a2999","system_id":"levelo_inurba_marseille","lat":43.317557,"lon":5.390173,"is_reserved":false,"is_disabled":false,"rental_uris":{"android":"levelo://app?vid=0a828f1d-be64-4c10-86cc-12c6d20a2999","ios":"levelo://app?vid=0a828f1d-be64-4c10-86cc-12c6d20a2999"},"vehicle_type_id":"4","last_reported":1679249315,"current_range_meters":1600,"station_id":"ce4bhqp2rcd13ifvqhng","pricing_plan_id":"free"},{"bike_id":"9ae4ac68-6977-4feb-b8e8-b76d632ab699","system_id":"levelo_inurba_marseille","lat":43.317557,"lon":5.390173,"is_reserved":false,"is_disabled":false,"rental_uris":{"android":"levelo://app?vid=9ae4ac68-6977-4feb-b8e8-b76d632ab699","ios":"levelo://app?vid=9ae4ac68-6977-4feb-b8e8-b76d632ab699"},"vehicle_type_id":"4","last_reported":1679249315,"current_range_meters":20400,"station_id":"ce4bhqp2rcd13ifvqhng","pricing_plan_id":"free"},{"bike_id":"8f0253d3-dd17-42cf-841b-2d4082d06618","system_id":"levelo_inurba_marseille","lat":43.298045,"lon":5.380888,"is_reserved":false,"is_disabled":false,"rental_uris":{"android":"levelo://app?vid=8f0253d3-dd17-42cf-841b-2d4082d06618","ios":"levelo://app?vid=8f0253d3-dd17-42cf-841b-2d4082d06618"},"vehicle_type_id":"4","last_reported":1679249315,"current_range_meters":0,"station_id":"ce4bgip2rcd13ifvqbb0","pricing_plan_id":"free"},{"bike_id":"7a1f7b3e-7d19-41ac-ac74-387356ba2d0f","system_id":"levelo_inurba_marseille","lat":43.296075,"lon":5.377135,"is_reserved":false,"is_disabled":false,"rental_uris":{"android":"levelo://app?vid=7a1f7b3e-7d19-41ac-ac74-387356ba2d0f","ios":"levelo://app?vid=7a1f7b3e-7d19-41ac-ac74-387356ba2d0f"},"vehicle_type_id":"4","last_reported":1679249315,"current_range_meters":5600,"station_id":"","pricing_plan_id":"free"},{"bike_id":"374d4f5a-7a3e-47c4-96dd-a9ec0e9ae871","system_id":"levelo_inurba_marseille","lat":43.32366,"lon":5.38877,"is_reserved":false,"is_disabled":false,"rental_uris":{"android":"levelo://app?vid=374d4f5a-7a3e-47c4-96dd-a9ec0e9ae871","ios":"levelo://app?vid=374d4f5a-7a3e-47c4-96dd-a9ec0e9ae871"},"vehicle_type_id":"4","last_reported":1679249315,"current_range_meters":5200,"station_id":"","pricing_plan_id":"free"},{"bike_id":"408a07ee-86f3-48ed-b1a7-98354319c3d4","system_id":"levelo_inurba_marseille","lat":43.32367,"lon":5.388836,"is_reserved":false,"is_disabled":false,"rental_uris":{"android":"levelo://app?vid=408a07ee-86f3-48ed-b1a7-98354319c3d4","ios":"levelo://app?vid=408a07ee-86f3-48ed-b1a7-98354319c3d4"},"vehicle_type_id":"4","last_reported":1679249315,"current_range_meters":0,"station_id":"ce4bhqp2rcd13ifvqhog","pricing_plan_id":"free"},{"bike_id":"42bed595-717f-4f13-ae43-516b43ca9fa9","system_id":"levelo_inurba_marseille","lat":43.29232,"lon":5.371936,"is_reserved":false,"is_disabled":false,"rental_uris":{"android":"levelo://app?vid=42bed595-717f-4f13-ae43-516b43ca9fa9","ios":"levelo://app?vid=42bed595-717f-4f13-ae43-516b43ca9fa9"},"vehicle_type_id":"4","last_reported":1679249315,"current_range_meters":0,"station_id":"","pricing_plan_id":"free"},{"bike_id":"b061d5ba-d0af-4fbe-9dd8-d1690a00543e","system_id":"levelo_inurba_marseille","lat":43.2936,"lon":5.37835,"is_reserved":false,"is_disabled":false,"rental_uris":{"android":"levelo://app?vid=b061d5ba-d0af-4fbe-9dd8-d1690a00543e","ios":"levelo://app?vid=b061d5ba-d0af-4fbe-9dd8-d1690a00543e"},"vehicle_type_id":"4","last_reported":1679249315,"current_range_meters":3600,"station_id":"ce4bgjh2rcd13ifvqbf0","pricing_plan_id":"free"},{"bike_id":"54eb1ce2-27df-4942-8d88-8ae2953aa112","system_id":"levelo_inurba_marseille","lat":43.300852,"lon":5.390859,"is_reserved":false,"is_disabled":false,"rental_uris":{"android":"levelo://app?vid=54eb1ce2-27df-4942-8d88-8ae2953aa112","ios":"levelo://app?vid=54eb1ce2-27df-4942-8d88-8ae2953aa112"},"vehicle_type_id":"4","last_reported":1679249315,"current_range_meters":7600,"station_id":"ce4bh192rcd13ifvqdb0","pricing_plan_id":"free"},{"bike_id":"403f422e-682a-44ee-857e-842c6db25f1b","system_id":"levelo_inurba_marseille","lat":43.298764,"lon":5.388973,"is_reserved":false,"is_disabled":false,"rental_uris":{"android":"levelo://app?vid=403f422e-682a-44ee-857e-842c6db25f1b","ios":"levelo://app?vid=403f422e-682a-44ee-857e-842c6db25f1b"},"vehicle_type_id":"4","last_reported":1679249315,"current_range_meters":0,"station_id":"ce4bh392rcd13ifvqdl0","pricing_plan_id":"free"},{"bike_id":"c1f35cff-b56a-4d4d-8a62-a88b3d84212e","system_id":"levelo_inurba_marseille","lat":43.298764,"lon":5.388973,"is_reserved":false,"is_disabled":false,"rental_uris":{"android":"levelo://app?vid=c1f35cff-b56a-4d4d-8a62-a88b3d84212e","ios":"levelo://app?vid=c1f35cff-b56a-4d4d-8a62-a88b3d84212e"},"vehicle_type_id":"4","last_reported":1679249315,"current_range_meters":0,"station_id":"ce4bh392rcd13ifvqdl0","pricing_plan_id":"free"},{"bike_id":"f5e65b7e-5b58-4fbe-9842-9327998d7654","system_id":"levelo_inurba_marseille","lat":43.291675,"lon":5.371583,"is_reserved":false,"is_disabled":false,"rental_uris":{"android":"levelo://app?vid=f5e65b7e-5b58-4fbe-9842-9327998d7654","ios":"levelo://app?vid=f5e65b7e-5b58-4fbe-9842-9327998d7654"},"vehicle_type_id":"4","last_reported":1679249315,"current_range_meters":14800,"station_id":"ce4bha92rcd13ifvqeh0","pricing_plan_id":"free"},{"bike_id":"b5dd1728-096e-4698-b381-2ba60eba44df","system_id":"levelo_inurba_marseille","lat":43.2916,"lon":5.37163,"is_reserved":false,"is_disabled":false,"rental_uris":{"android":"levelo://app?vid=b5dd1728-096e-4698-b381-2ba60eba44df","ios":"levelo://app?vid=b5dd1728-096e-4698-b381-2ba60eba44df"},"vehicle_type_id":"4","last_reported":1679249315,"current_range_meters":4000,"station_id":"","pricing_plan_id":"free"},{"bike_id":"99d285f3-e3c1-450d-b734-597eb67adaae","system_id":"levelo_inurba_marseille","lat":43.313291,"lon":5.396838,"is_reserved":false,"is_disabled":false,"rental_uris":{"android":"levelo://app?vid=99d285f3-e3c1-450d-b734-597eb67adaae","ios":"levelo://app?vid=99d285f3-e3c1-450d-b734-597eb67adaae"},"vehicle_type_id":"4","last_reported":1679249315,"current_range_meters":14400,"station_id":"ce4bgvp2rcd13ifvqcu0","pricing_plan_id":"free"},{"bike_id":"4e538dd2-8e8f-44d5-96dd-81282b0dbd3f","system_id":"levelo_inurba_marseille","lat":43.29529,"lon":5.385581,"is_reserved":false,"is_disabled":false,"rental_uris":{"android":"levelo://app?vid=4e538dd2-8e8f-44d5-96dd-81282b0dbd3f","ios":"levelo://app?vid=4e538dd2-8e8f-44d5-96dd-81282b0dbd3f"},"vehicle_type_id":"4","last_reported":1679249315,"current_range_meters":0,"station_id":"ce4bgih2rcd13ifvqba0","pricing_plan_id":"free"},{"bike_id":"a8ab4f06-3d8b-4b79-8fb7-3daadc2069a7","system_id":"levelo_inurba_marseille","lat":43.294162,"lon":5.386292,"is_reserved":false,"is_disabled":false,"rental_uris":{"android":"levelo://app?vid=a8ab4f06-3d8b-4b79-8fb7-3daadc2069a7","ios":"levelo://app?vid=a8ab4f06-3d8b-4b79-8fb7-3daadc2069a7"},"vehicle_type_id":"4","last_reported":1679249315,"current_range_meters":0,"station_id":"ce4bh2h2rcd13ifvqdh0","pricing_plan_id":"free"},{"bike_id":"6baf82fe-8533-44bf-9b6f-f6340613daef","system_id":"levelo_inurba_marseille","lat":43.292642,"lon":5.384254,"is_reserved":false,"is_disabled":false,"rental_uris":{"android":"levelo://app?vid=6baf82fe-8533-44bf-9b6f-f6340613daef","ios":"levelo://app?vid=6baf82fe-8533-44bf-9b6f-f6340613daef"},"vehicle_type_id":"4","last_reported":1679249315,"current_range_meters":16400,"station_id":"ce4bh692rcd13ifvqea0","pricing_plan_id":"free"},{"bike_id":"0dc36835-dcef-4526-8025-7942ee48ceb3","system_id":"levelo_inurba_marseille","lat":43.304274,"lon":5.397513,"is_reserved":false,"is_disabled":false,"rental_uris":{"android":"levelo://app?vid=0dc36835-dcef-4526-8025-7942ee48ceb3","ios":"levelo://app?vid=0dc36835-dcef-4526-8025-7942ee48ceb3"},"vehicle_type_id":"4","last_reported":1679249315,"current_range_meters":16000,"station_id":"ce4bh092rcd13ifvqd20","pricing_plan_id":"free"},{"bike_id":"5a2301e3-a2de-426b-bcfb-3a61d8a03c53","system_id":"levelo_inurba_marseille","lat":43.33037,"lon":5.38921,"is_reserved":false,"is_disabled":false,"rental_uris":{"android":"levelo://app?vid=5a2301e3-a2de-426b-bcfb-3a61d8a03c53","ios":"levelo://app?vid=5a2301e3-a2de-426b-bcfb-3a61d8a03c53"},"vehicle_type_id":"4","last_reported":1679249315,"current_range_meters":400,"station_id":"","pricing_plan_id":"free"},{"bike_id":"e67211ba-820c-43f7-bcb4-31413ba5df25","system_id":"levelo_inurba_marseille","lat":43.330442,"lon":5.389148,"is_reserved":false,"is_disabled":false,"rental_uris":{"android":"levelo://app?vid=e67211ba-820c-43f7-bcb4-31413ba5df25","ios":"levelo://app?vid=e67211ba-820c-43f7-bcb4-31413ba5df25"},"vehicle_type_id":"4","last_reported":1679249315,"current_range_meters":16800,"station_id":"ce4bhr92rcd13ifvqhrg","pricing_plan_id":"free"},{"bike_id":"78894e05-30a2-480d-abb1-409077750066","system_id":"levelo_inurba_marseille","lat":43.330442,"lon":5.389148,"is_reserved":false,"is_disabled":false,"rental_uris":{"android":"levelo://app?vid=78894e05-30a2-480d-abb1-409077750066","ios":"levelo://app?vid=78894e05-30a2-480d-abb1-409077750066"},"vehicle_type_id":"4","last_reported":1679249315,"current_range_meters":12000,"station_id":"ce4bhr92rcd13ifvqhrg","pricing_plan_id":"free"},{"bike_id":"15f97604-f078-4131-972a-f9279bc198fe","system_id":"levelo_inurba_marseille","lat":43.33045,"lon":5.38916,"is_reserved":false,"is_disabled":false,"rental_uris":{"android":"levelo://app?vid=15f97604-f078-4131-972a-f9279bc198fe","ios":"levelo://app?vid=15f97604-f078-4131-972a-f9279bc198fe"},"vehicle_type_id":"4","last_reported":1679249315,"current_range_meters":5600,"station_id":"","pricing_plan_id":"free"},{"bike_id":"619992b2-4c4f-4345-ad4e-7688cfe937a5","system_id":"levelo_inurba_marseille","lat":43.33043,"lon":5.38921,"is_reserved":false,"is_disabled":false,"rental_uris":{"android":"levelo://app?vid=619992b2-4c4f-4345-ad4e-7688cfe937a5","ios":"levelo://app?vid=619992b2-4c4f-4345-ad4e-7688cfe937a5"},"vehicle_type_id":"4","last_reported":1679249315,"current_range_meters":7200,"station_id":"","pricing_plan_id":"free"},{"bike_id":"df0c2606-157c-4f94-a911-beefcb304858","system_id":"levelo_inurba_marseille","lat":43.290104,"lon":5.356111,"is_reserved":false,"is_disabled":false,"rental_uris":{"android":"levelo://app?vid=df0c2606-157c-4f94-a911-beefcb304858","ios":"levelo://app?vid=df0c2606-157c-4f94-a911-beefcb304858"},"vehicle_type_id":"4","last_reported":1679249315,"current_range_meters":4400,"station_id":"ce4bhb92rcd13ifvqen0","pricing_plan_id":"free"},{"bike_id":"a0a7c75d-cc2a-4590-a5df-abac261c8663","system_id":"levelo_inurba_marseille","lat":43.290104,"lon":5.356111,"is_reserved":false,"is_disabled":false,"rental_uris":{"android":"levelo://app?vid=a0a7c75d-cc2a-4590-a5df-abac261c8663","ios":"levelo://app?vid=a0a7c75d-cc2a-4590-a5df-abac261c8663"},"vehicle_type_id":"4","last_reported":1679249315,"current_range_meters":13200,"station_id":"ce4bhb92rcd13ifvqen0","pricing_plan_id":"free"},{"bike_id":"8371e466-d8d1-483c-86fd-cd7126981c8b","system_id":"levelo_inurba_marseille","lat":43.290104,"lon":5.356111,"is_reserved":false,"is_disabled":false,"rental_uris":{"android":"levelo://app?vid=8371e466-d8d1-483c-86fd-cd7126981c8b","ios":"levelo://app?vid=8371e466-d8d1-483c-86fd-cd7126981c8b"},"vehicle_type_id":"4","last_reported":1679249315,"current_range_meters":6400,"station_id":"ce4bhb92rcd13ifvqen0","pricing_plan_id":"free"},{"bike_id":"7c90d7d5-e834-42be-8c6b-9dec32cd622d","system_id":"levelo_inurba_marseille","lat":43.291023,"lon":5.381373,"is_reserved":false,"is_disabled":false,"rental_uris":{"android":"levelo://app?vid=7c90d7d5-e834-42be-8c6b-9dec32cd622d","ios":"levelo://app?vid=7c90d7d5-e834-42be-8c6b-9dec32cd622d"},"vehicle_type_id":"4","last_reported":1679249315,"current_range_meters":16000,"station_id":"ce4bh8p2rcd13ifvqeb0","pricing_plan_id":"free"},{"bike_id":"d0d7df32-c37a-428a-9862-70b0480dd19b","system_id":"levelo_inurba_marseille","lat":43.337455,"lon":5.374605,"is_reserved":false,"is_disabled":false,"rental_uris":{"android":"levelo://app?vid=d0d7df32-c37a-428a-9862-70b0480dd19b","ios":"levelo://app?vid=d0d7df32-c37a-428a-9862-70b0480dd19b"},"vehicle_type_id":"4","last_reported":1679249315,"current_range_meters":4400,"station_id":"","pricing_plan_id":"free"},{"bike_id":"3691d997-1cad-46ed-b7e6-586680d35f2f","system_id":"levelo_inurba_marseille","lat":43.337472,"lon":5.374588,"is_reserved":false,"is_disabled":false,"rental_uris":{"android":"levelo://app?vid=3691d997-1cad-46ed-b7e6-586680d35f2f","ios":"levelo://app?vid=3691d997-1cad-46ed-b7e6-586680d35f2f"},"vehicle_type_id":"4","last_reported":1679249315,"current_range_meters":17200,"station_id":"","pricing_plan_id":"free"},{"bike_id":"f3e60a9c-2b74-43cb-ac11-5dfafdbb73c0","system_id":"levelo_inurba_marseille","lat":43.337606,"lon":5.374666,"is_reserved":false,"is_disabled":false,"rental_uris":{"android":"levelo://app?vid=f3e60a9c-2b74-43cb-ac11-5dfafdbb73c0","ios":"levelo://app?vid=f3e60a9c-2b74-43cb-ac11-5dfafdbb73c0"},"vehicle_type_id":"4","last_reported":1679249315,"current_range_meters":20800,"station_id":"","pricing_plan_id":"free"},{"bike_id":"02ead24a-2583-49ca-a9b2-eaa93cbc059d","system_id":"levelo_inurba_marseille","lat":43.301117,"lon":5.398795,"is_reserved":false,"is_disabled":false,"rental_uris":{"android":"levelo://app?vid=02ead24a-2583-49ca-a9b2-eaa93cbc059d","ios":"levelo://app?vid=02ead24a-2583-49ca-a9b2-eaa93cbc059d"},"vehicle_type_id":"4","last_reported":1679249315,"current_range_meters":17200,"station_id":"ce4bh0h2rcd13ifvqd40","pricing_plan_id":"free"},{"bike_id":"7d323d4d-f43f-4608-af08-82dce341bf76","system_id":"levelo_inurba_marseille","lat":43.301117,"lon":5.398795,"is_reserved":false,"is_disabled":false,"rental_uris":{"android":"levelo://app?vid=7d323d4d-f43f-4608-af08-82dce341bf76","ios":"levelo://app?vid=7d323d4d-f43f-4608-af08-82dce341bf76"},"vehicle_type_id":"4","last_reported":1679249315,"current_range_meters":17200,"station_id":"ce4bh0h2rcd13ifvqd40","pricing_plan_id":"free"},{"bike_id":"c676272f-f648-4774-957e-6d79b74d1c17","system_id":"levelo_inurba_marseille","lat":43.301117,"lon":5.398795,"is_reserved":false,"is_disabled":false,"rental_uris":{"android":"levelo://app?vid=c676272f-f648-4774-957e-6d79b74d1c17","ios":"levelo://app?vid=c676272f-f648-4774-957e-6d79b74d1c17"},"vehicle_type_id":"4","last_reported":1679249315,"current_range_meters":6800,"station_id":"ce4bh0h2rcd13ifvqd40","pricing_plan_id":"free"},{"bike_id":"a94248f1-3c0d-42e2-8cb1-cf4fa92ab279","system_id":"levelo_inurba_marseille","lat":43.28665,"lon":5.36348,"is_reserved":false,"is_disabled":false,"rental_uris":{"android":"levelo://app?vid=a94248f1-3c0d-42e2-8cb1-cf4fa92ab279","ios":"levelo://app?vid=a94248f1-3c0d-42e2-8cb1-cf4fa92ab279"},"vehicle_type_id":"4","last_reported":1679249315,"current_range_meters":0,"station_id":"ce4bhah2rcd13ifvqej0","pricing_plan_id":"free"},{"bike_id":"de8361ac-9397-4e05-8cb3-87c53b95741f","system_id":"levelo_inurba_marseille","lat":43.286593,"lon":5.363346,"is_reserved":false,"is_disabled":false,"rental_uris":{"android":"levelo://app?vid=de8361ac-9397-4e05-8cb3-87c53b95741f","ios":"levelo://app?vid=de8361ac-9397-4e05-8cb3-87c53b95741f"},"vehicle_type_id":"4","last_reported":1679249315,"current_range_meters":15600,"station_id":"ce4bhah2rcd13ifvqej0","pricing_plan_id":"free"},{"bike_id":"1aba5335-c86b-4e77-9197-a13c7b9c5479","system_id":"levelo_inurba_marseille","lat":43.29523,"lon":5.394065,"is_reserved":false,"is_disabled":false,"rental_uris":{"android":"levelo://app?vid=1aba5335-c86b-4e77-9197-a13c7b9c5479","ios":"levelo://app?vid=1aba5335-c86b-4e77-9197-a13c7b9c5479"},"vehicle_type_id":"4","last_reported":1679249315,"current_range_meters":20800,"station_id":"ce4bh212rcd13ifvqde0","pricing_plan_id":"free"},{"bike_id":"5dbabb59-86fa-4c8b-be0b-67a446e7f48b","system_id":"levelo_inurba_marseille","lat":43.302759,"lon":5.400793,"is_reserved":false,"is_disabled":false,"rental_uris":{"android":"levelo://app?vid=5dbabb59-86fa-4c8b-be0b-67a446e7f48b","ios":"levelo://app?vid=5dbabb59-86fa-4c8b-be0b-67a446e7f48b"},"vehicle_type_id":"4","last_reported":1679249315,"current_range_meters":6400,"station_id":"ce4bgvh2rcd13ifvqcs0","pricing_plan_id":"free"},{"bike_id":"b7793b47-11cc-48a5-a006-6cb758169c70","system_id":"levelo_inurba_marseille","lat":43.302759,"lon":5.400793,"is_reserved":false,"is_disabled":false,"rental_uris":{"android":"levelo://app?vid=b7793b47-11cc-48a5-a006-6cb758169c70","ios":"levelo://app?vid=b7793b47-11cc-48a5-a006-6cb758169c70"},"vehicle_type_id":"4","last_reported":1679249315,"current_range_meters":30800,"station_id":"ce4bgvh2rcd13ifvqcs0","pricing_plan_id":"free"},{"bike_id":"a0ef2fa5-9cc5-48e1-b875-549ac3ec5707","system_id":"levelo_inurba_marseille","lat":43.302759,"lon":5.400793,"is_reserved":false,"is_disabled":false,"rental_uris":{"android":"levelo://app?vid=a0ef2fa5-9cc5-48e1-b875-549ac3ec5707","ios":"levelo://app?vid=a0ef2fa5-9cc5-48e1-b875-549ac3ec5707"},"vehicle_type_id":"4","last_reported":1679249315,"current_range_meters":0,"station_id":"ce4bgvh2rcd13ifvqcs0","pricing_plan_id":"free"},{"bike_id":"9fe59fc1-4e6e-46a7-ab46-d9ef191eec09","system_id":"levelo_inurba_marseille","lat":43.302759,"lon":5.400793,"is_reserved":false,"is_disabled":false,"rental_uris":{"android":"levelo://app?vid=9fe59fc1-4e6e-46a7-ab46-d9ef191eec09","ios":"levelo://app?vid=9fe59fc1-4e6e-46a7-ab46-d9ef191eec09"},"vehicle_type_id":"4","last_reported":1679249315,"current_range_meters":0,"station_id":"ce4bgvh2rcd13ifvqcs0","pricing_plan_id":"free"},{"bike_id":"d71512e1-025d-4c29-9521-19d1bdc8ec4b","system_id":"levelo_inurba_marseille","lat":43.302759,"lon":5.400793,"is_reserved":false,"is_disabled":false,"rental_uris":{"android":"levelo://app?vid=d71512e1-025d-4c29-9521-19d1bdc8ec4b","ios":"levelo://app?vid=d71512e1-025d-4c29-9521-19d1bdc8ec4b"},"vehicle_type_id":"4","last_reported":1679249315,"current_range_meters":5600,"station_id":"ce4bgvh2rcd13ifvqcs0","pricing_plan_id":"free"},{"bike_id":"55375b31-a446-4e1f-a116-250baebcca9d","system_id":"levelo_inurba_marseille","lat":43.286039,"lon":5.370679,"is_reserved":false,"is_disabled":false,"rental_uris":{"android":"levelo://app?vid=55375b31-a446-4e1f-a116-250baebcca9d","ios":"levelo://app?vid=55375b31-a446-4e1f-a116-250baebcca9d"},"vehicle_type_id":"4","last_reported":1679249315,"current_range_meters":3200,"station_id":"ce4bht12rcd13ifvqi60","pricing_plan_id":"free"},{"bike_id":"e2b2ad56-15f4-420b-bb62-a6c3c16613a2","system_id":"levelo_inurba_marseille","lat":43.287185,"lon":5.379373,"is_reserved":false,"is_disabled":false,"rental_uris":{"android":"levelo://app?vid=e2b2ad56-15f4-420b-bb62-a6c3c16613a2","ios":"levelo://app?vid=e2b2ad56-15f4-420b-bb62-a6c3c16613a2"},"vehicle_type_id":"4","last_reported":1679249315,"current_range_meters":2000,"station_id":"ce4bh9p2rcd13ifvqec0","pricing_plan_id":"free"},{"bike_id":"ffb79631-21b0-40ad-9106-941f9739b273","system_id":"levelo_inurba_marseille","lat":43.284534,"lon":5.358662,"is_reserved":false,"is_disabled":false,"rental_uris":{"android":"levelo://app?vid=ffb79631-21b0-40ad-9106-941f9739b273","ios":"levelo://app?vid=ffb79631-21b0-40ad-9106-941f9739b273"},"vehicle_type_id":"4","last_reported":1679249315,"current_range_meters":2000,"station_id":"ce4bhah2rcd13ifvqei0","pricing_plan_id":"free"},{"bike_id":"571297be-2597-4e73-9155-2c59f9ecf269","system_id":"levelo_inurba_marseille","lat":43.295426,"lon":5.400051,"is_reserved":false,"is_disabled":false,"rental_uris":{"android":"levelo://app?vid=571297be-2597-4e73-9155-2c59f9ecf269","ios":"levelo://app?vid=571297be-2597-4e73-9155-2c59f9ecf269"},"vehicle_type_id":"4","last_reported":1679249315,"current_range_meters":11200,"station_id":"","pricing_plan_id":"free"},{"bike_id":"ad25ad90-be03-48a3-a1fd-d873bd3132e0","system_id":"levelo_inurba_marseille","lat":43.286595,"lon":5.386795,"is_reserved":false,"is_disabled":false,"rental_uris":{"android":"levelo://app?vid=ad25ad90-be03-48a3-a1fd-d873bd3132e0","ios":"levelo://app?vid=ad25ad90-be03-48a3-a1fd-d873bd3132e0"},"vehicle_type_id":"4","last_reported":1679249315,"current_range_meters":0,"station_id":"ce4bh492rcd13ifvqdug","pricing_plan_id":"free"},{"bike_id":"f8b96477-8260-47ea-a7f6-c9be3e6c08e1","system_id":"levelo_inurba_marseille","lat":43.288501,"lon":5.393087,"is_reserved":false,"is_disabled":false,"rental_uris":{"android":"levelo://app?vid=f8b96477-8260-47ea-a7f6-c9be3e6c08e1","ios":"levelo://app?vid=f8b96477-8260-47ea-a7f6-c9be3e6c08e1"},"vehicle_type_id":"4","last_reported":1679249315,"current_range_meters":5200,"station_id":"ce4bh2p2rcd13ifvqdi0","pricing_plan_id":"free"},{"bike_id":"766fad11-bbff-4ea0-a5c0-30e6a069017e","system_id":"levelo_inurba_marseille","lat":43.288501,"lon":5.393087,"is_reserved":false,"is_disabled":false,"rental_uris":{"android":"levelo://app?vid=766fad11-bbff-4ea0-a5c0-30e6a069017e","ios":"levelo://app?vid=766fad11-bbff-4ea0-a5c0-30e6a069017e"},"vehicle_type_id":"4","last_reported":1679249315,"current_range_meters":800,"station_id":"ce4bh2p2rcd13ifvqdi0","pricing_plan_id":"free"},{"bike_id":"a6933cad-916c-4767-94fa-b5a0f23ab67e","system_id":"levelo_inurba_marseille","lat":43.288501,"lon":5.393087,"is_reserved":false,"is_disabled":false,"rental_uris":{"android":"levelo://app?vid=a6933cad-916c-4767-94fa-b5a0f23ab67e","ios":"levelo://app?vid=a6933cad-916c-4767-94fa-b5a0f23ab67e"},"vehicle_type_id":"4","last_reported":1679249315,"current_range_meters":3600,"station_id":"ce4bh2p2rcd13ifvqdi0","pricing_plan_id":"free"},{"bike_id":"387c465b-dbdc-4c92-bb7f-c06b5957437e","system_id":"levelo_inurba_marseille","lat":43.280375,"lon":5.369466,"is_reserved":false,"is_disabled":false,"rental_uris":{"android":"levelo://app?vid=387c465b-dbdc-4c92-bb7f-c06b5957437e","ios":"levelo://app?vid=387c465b-dbdc-4c92-bb7f-c06b5957437e"},"vehicle_type_id":"4","last_reported":1679249315,"current_range_meters":3200,"station_id":"ce4bha12rcd13ifvqef0","pricing_plan_id":"free"},{"bike_id":"66d60667-a91f-4256-99e8-82f598a32ff4","system_id":"levelo_inurba_marseille","lat":43.283502,"lon":5.386471,"is_reserved":false,"is_disabled":false,"rental_uris":{"android":"levelo://app?vid=66d60667-a91f-4256-99e8-82f598a32ff4","ios":"levelo://app?vid=66d60667-a91f-4256-99e8-82f598a32ff4"},"vehicle_type_id":"4","last_reported":1679249315,"current_range_meters":29200,"station_id":"ce4bh492rcd13ifvqdvg","pricing_plan_id":"free"},{"bike_id":"0c8d1f88-f123-4a55-b23c-8239751104cf","system_id":"levelo_inurba_marseille","lat":43.281044,"lon":5.378308,"is_reserved":false,"is_disabled":false,"rental_uris":{"android":"levelo://app?vid=0c8d1f88-f123-4a55-b23c-8239751104cf","ios":"levelo://app?vid=0c8d1f88-f123-4a55-b23c-8239751104cf"},"vehicle_type_id":"4","last_reported":1679249315,"current_range_meters":7600,"station_id":"ce4bha12rcd13ifvqee0","pricing_plan_id":"free"},{"bike_id":"d0337a83-f533-4822-91a7-5e8ae1b6f6b4","system_id":"levelo_inurba_marseille","lat":43.296263,"lon":5.40601,"is_reserved":false,"is_disabled":false,"rental_uris":{"android":"levelo://app?vid=d0337a83-f533-4822-91a7-5e8ae1b6f6b4","ios":"levelo://app?vid=d0337a83-f533-4822-91a7-5e8ae1b6f6b4"},"vehicle_type_id":"4","last_reported":1679249315,"current_range_meters":12400,"station_id":"ce4bh0h2rcd13ifvqd60","pricing_plan_id":"free"},{"bike_id":"247ee84d-88ee-466a-8c50-6b3e7f713ceb","system_id":"levelo_inurba_marseille","lat":43.281044,"lon":5.378308,"is_reserved":false,"is_disabled":false,"rental_uris":{"android":"levelo://app?vid=247ee84d-88ee-466a-8c50-6b3e7f713ceb","ios":"levelo://app?vid=247ee84d-88ee-466a-8c50-6b3e7f713ceb"},"vehicle_type_id":"4","last_reported":1679249315,"current_range_meters":11200,"station_id":"ce4bha12rcd13ifvqee0","pricing_plan_id":"free"},{"bike_id":"e6bea31a-cd91-4819-9e33-76899e0f7c2c","system_id":"levelo_inurba_marseille","lat":43.284462,"lon":5.392121,"is_reserved":false,"is_disabled":false,"rental_uris":{"android":"levelo://app?vid=e6bea31a-cd91-4819-9e33-76899e0f7c2c","ios":"levelo://app?vid=e6bea31a-cd91-4819-9e33-76899e0f7c2c"},"vehicle_type_id":"4","last_reported":1679249315,"current_range_meters":15600,"station_id":"ce4bhoh2rcd13ifvqh5g","pricing_plan_id":"free"},{"bike_id":"08017d5e-a537-4dca-b50c-94eba153bd60","system_id":"levelo_inurba_marseille","lat":43.284462,"lon":5.392121,"is_reserved":false,"is_disabled":false,"rental_uris":{"android":"levelo://app?vid=08017d5e-a537-4dca-b50c-94eba153bd60","ios":"levelo://app?vid=08017d5e-a537-4dca-b50c-94eba153bd60"},"vehicle_type_id":"4","last_reported":1679249315,"current_range_meters":4800,"station_id":"ce4bhoh2rcd13ifvqh5g","pricing_plan_id":"free"},{"bike_id":"54393fad-6b2e-4f24-b9e3-dafc10a414d7","system_id":"levelo_inurba_marseille","lat":43.304188,"lon":5.412904,"is_reserved":false,"is_disabled":false,"rental_uris":{"android":"levelo://app?vid=54393fad-6b2e-4f24-b9e3-dafc10a414d7","ios":"levelo://app?vid=54393fad-6b2e-4f24-b9e3-dafc10a414d7"},"vehicle_type_id":"4","last_reported":1679249315,"current_range_meters":7200,"station_id":"ce4bhop2rcd13ifvqh8g","pricing_plan_id":"free"},{"bike_id":"cd41526e-ee40-431d-ad0a-39c51135ff9d","system_id":"levelo_inurba_marseille","lat":43.304188,"lon":5.412904,"is_reserved":false,"is_disabled":false,"rental_uris":{"android":"levelo://app?vid=cd41526e-ee40-431d-ad0a-39c51135ff9d","ios":"levelo://app?vid=cd41526e-ee40-431d-ad0a-39c51135ff9d"},"vehicle_type_id":"4","last_reported":1679249315,"current_range_meters":24000,"station_id":"ce4bhop2rcd13ifvqh8g","pricing_plan_id":"free"},{"bike_id":"55f2c8c4-a1b3-4e25-85e3-0dc931df826e","system_id":"levelo_inurba_marseille","lat":43.304188,"lon":5.412904,"is_reserved":false,"is_disabled":false,"rental_uris":{"android":"levelo://app?vid=55f2c8c4-a1b3-4e25-85e3-0dc931df826e","ios":"levelo://app?vid=55f2c8c4-a1b3-4e25-85e3-0dc931df826e"},"vehicle_type_id":"4","last_reported":1679249315,"current_range_meters":16800,"station_id":"ce4bhop2rcd13ifvqh8g","pricing_plan_id":"free"},{"bike_id":"29671d63-0cc7-4cdf-8065-727b82ee79aa","system_id":"levelo_inurba_marseille","lat":43.304188,"lon":5.412904,"is_reserved":false,"is_disabled":false,"rental_uris":{"android":"levelo://app?vid=29671d63-0cc7-4cdf-8065-727b82ee79aa","ios":"levelo://app?vid=29671d63-0cc7-4cdf-8065-727b82ee79aa"},"vehicle_type_id":"4","last_reported":1679249315,"current_range_meters":28400,"station_id":"ce4bhop2rcd13ifvqh8g","pricing_plan_id":"free"},{"bike_id":"e73e8b25-20e2-4698-850f-be87b5764e3b","system_id":"levelo_inurba_marseille","lat":43.320045,"lon":5.415048,"is_reserved":false,"is_disabled":false,"rental_uris":{"android":"levelo://app?vid=e73e8b25-20e2-4698-850f-be87b5764e3b","ios":"levelo://app?vid=e73e8b25-20e2-4698-850f-be87b5764e3b"},"vehicle_type_id":"4","last_reported":1679249315,"current_range_meters":1200,"station_id":"ce4bhq92rcd13ifvqhkg","pricing_plan_id":"free"},{"bike_id":"e9d41ed9-6722-49f9-9845-ae38f2ce7d48","system_id":"levelo_inurba_marseille","lat":43.29959,"lon":5.41319,"is_reserved":false,"is_disabled":false,"rental_uris":{"android":"levelo://app?vid=e9d41ed9-6722-49f9-9845-ae38f2ce7d48","ios":"levelo://app?vid=e9d41ed9-6722-49f9-9845-ae38f2ce7d48"},"vehicle_type_id":"4","last_reported":1679249315,"current_range_meters":4800,"station_id":"","pricing_plan_id":"free"},{"bike_id":"b950997e-06ea-446c-b341-3c916be53914","system_id":"levelo_inurba_marseille","lat":43.32481,"lon":5.4144,"is_reserved":false,"is_disabled":false,"rental_uris":{"android":"levelo://app?vid=b950997e-06ea-446c-b341-3c916be53914","ios":"levelo://app?vid=b950997e-06ea-446c-b341-3c916be53914"},"vehicle_type_id":"4","last_reported":1679249315,"current_range_meters":4400,"station_id":"","pricing_plan_id":"free"},{"bike_id":"5f4b27df-7370-4663-9882-3043aab0ae75","system_id":"levelo_inurba_marseille","lat":43.28192,"lon":5.39724,"is_reserved":false,"is_disabled":false,"rental_uris":{"android":"levelo://app?vid=5f4b27df-7370-4663-9882-3043aab0ae75","ios":"levelo://app?vid=5f4b27df-7370-4663-9882-3043aab0ae75"},"vehicle_type_id":"4","last_reported":1679249315,"current_range_meters":20800,"station_id":"","pricing_plan_id":"free"},{"bike_id":"67bdcdf4-1bc8-4800-8cc7-90e39fd4f85c","system_id":"levelo_inurba_marseille","lat":43.27646,"lon":5.38388,"is_reserved":false,"is_disabled":false,"rental_uris":{"android":"levelo://app?vid=67bdcdf4-1bc8-4800-8cc7-90e39fd4f85c","ios":"levelo://app?vid=67bdcdf4-1bc8-4800-8cc7-90e39fd4f85c"},"vehicle_type_id":"4","last_reported":1679249315,"current_range_meters":28400,"station_id":"","pricing_plan_id":"free"},{"bike_id":"efba8028-34ff-4bd6-bc39-20a0dea58dfa","system_id":"levelo_inurba_marseille","lat":43.28071,"lon":5.39659,"is_reserved":false,"is_disabled":false,"rental_uris":{"android":"levelo://app?vid=efba8028-34ff-4bd6-bc39-20a0dea58dfa","ios":"levelo://app?vid=efba8028-34ff-4bd6-bc39-20a0dea58dfa"},"vehicle_type_id":"4","last_reported":1679249315,"current_range_meters":12800,"station_id":"","pricing_plan_id":"free"},{"bike_id":"bb48d04b-5cc4-4d1d-b87a-e06f4e125701","system_id":"levelo_inurba_marseille","lat":43.33612,"lon":5.410321,"is_reserved":false,"is_disabled":false,"rental_uris":{"android":"levelo://app?vid=bb48d04b-5cc4-4d1d-b87a-e06f4e125701","ios":"levelo://app?vid=bb48d04b-5cc4-4d1d-b87a-e06f4e125701"},"vehicle_type_id":"4","last_reported":1679249315,"current_range_meters":17200,"station_id":"ce4bhqh2rcd13ifvqhmg","pricing_plan_id":"free"},{"bike_id":"1bbe12ac-4818-4bc8-9363-f7e5cbb64b16","system_id":"levelo_inurba_marseille","lat":43.336134,"lon":5.410341,"is_reserved":false,"is_disabled":false,"rental_uris":{"android":"levelo://app?vid=1bbe12ac-4818-4bc8-9363-f7e5cbb64b16","ios":"levelo://app?vid=1bbe12ac-4818-4bc8-9363-f7e5cbb64b16"},"vehicle_type_id":"4","last_reported":1679249315,"current_range_meters":4400,"station_id":"ce4bhqh2rcd13ifvqhmg","pricing_plan_id":"free"},{"bike_id":"80bd5605-326b-4e48-9a89-54da81c23953","system_id":"levelo_inurba_marseille","lat":43.336148,"lon":5.410349,"is_reserved":false,"is_disabled":false,"rental_uris":{"android":"levelo://app?vid=80bd5605-326b-4e48-9a89-54da81c23953","ios":"levelo://app?vid=80bd5605-326b-4e48-9a89-54da81c23953"},"vehicle_type_id":"4","last_reported":1679249315,"current_range_meters":13600,"station_id":"ce4bhqh2rcd13ifvqhmg","pricing_plan_id":"free"},{"bike_id":"f2a4cbaf-10a9-4d58-977b-5eebc8eba43c","system_id":"levelo_inurba_marseille","lat":43.310785,"lon":5.424305,"is_reserved":false,"is_disabled":false,"rental_uris":{"android":"levelo://app?vid=f2a4cbaf-10a9-4d58-977b-5eebc8eba43c","ios":"levelo://app?vid=f2a4cbaf-10a9-4d58-977b-5eebc8eba43c"},"vehicle_type_id":"4","last_reported":1679249315,"current_range_meters":4000,"station_id":"ce4bhp92rcd13ifvqhag","pricing_plan_id":"free"},{"bike_id":"ea9cbed5-dd56-4e3d-8519-5b6f412a10ce","system_id":"levelo_inurba_marseille","lat":43.27231,"lon":5.39098,"is_reserved":false,"is_disabled":false,"rental_uris":{"android":"levelo://app?vid=ea9cbed5-dd56-4e3d-8519-5b6f412a10ce","ios":"levelo://app?vid=ea9cbed5-dd56-4e3d-8519-5b6f412a10ce"},"vehicle_type_id":"4","last_reported":1679249315,"current_range_meters":0,"station_id":"","pricing_plan_id":"free"},{"bike_id":"da814b6d-8ebf-466b-938b-52569edbc6a9","system_id":"levelo_inurba_marseille","lat":43.295484,"lon":5.422878,"is_reserved":false,"is_disabled":false,"rental_uris":{"android":"levelo://app?vid=da814b6d-8ebf-466b-938b-52569edbc6a9","ios":"levelo://app?vid=da814b6d-8ebf-466b-938b-52569edbc6a9"},"vehicle_type_id":"4","last_reported":1679249315,"current_range_meters":6400,"station_id":"ce4bhph2rcd13ifvqhdg","pricing_plan_id":"free"},{"bike_id":"87f0a20b-30d2-431b-9d8c-bbe200acabae","system_id":"levelo_inurba_marseille","lat":43.29555,"lon":5.42293,"is_reserved":false,"is_disabled":false,"rental_uris":{"android":"levelo://app?vid=87f0a20b-30d2-431b-9d8c-bbe200acabae","ios":"levelo://app?vid=87f0a20b-30d2-431b-9d8c-bbe200acabae"},"vehicle_type_id":"4","last_reported":1679249315,"current_range_meters":22400,"station_id":"ce4bhph2rcd13ifvqhdg","pricing_plan_id":"free"},{"bike_id":"bc064ba5-50f6-4ce3-8d9b-1239bb2d9bd3","system_id":"levelo_inurba_marseille","lat":43.29552,"lon":5.42293,"is_reserved":false,"is_disabled":false,"rental_uris":{"android":"levelo://app?vid=bc064ba5-50f6-4ce3-8d9b-1239bb2d9bd3","ios":"levelo://app?vid=bc064ba5-50f6-4ce3-8d9b-1239bb2d9bd3"},"vehicle_type_id":"4","last_reported":1679249315,"current_range_meters":1200,"station_id":"ce4bhph2rcd13ifvqhdg","pricing_plan_id":"free"},{"bike_id":"174d8219-1ac7-46cb-b5c4-428ffdc0aaaf","system_id":"levelo_inurba_marseille","lat":43.272116,"lon":5.391747,"is_reserved":false,"is_disabled":false,"rental_uris":{"android":"levelo://app?vid=174d8219-1ac7-46cb-b5c4-428ffdc0aaaf","ios":"levelo://app?vid=174d8219-1ac7-46cb-b5c4-428ffdc0aaaf"},"vehicle_type_id":"4","last_reported":1679249315,"current_range_meters":10400,"station_id":"ce4bhhp2rcd13ifvqfm0","pricing_plan_id":"free"},{"bike_id":"2b3b7be3-0519-4ab0-bb7e-0bc4501b20c2","system_id":"levelo_inurba_marseille","lat":43.278128,"lon":5.407195,"is_reserved":false,"is_disabled":false,"rental_uris":{"android":"levelo://app?vid=2b3b7be3-0519-4ab0-bb7e-0bc4501b20c2","ios":"levelo://app?vid=2b3b7be3-0519-4ab0-bb7e-0bc4501b20c2"},"vehicle_type_id":"4","last_reported":1679249315,"current_range_meters":26800,"station_id":"ce4bhnh2rcd13ifvqgtg","pricing_plan_id":"free"},{"bike_id":"16d1a5d8-0934-4b84-9429-63126b577cf8","system_id":"levelo_inurba_marseille","lat":43.27996,"lon":5.416624,"is_reserved":false,"is_disabled":false,"rental_uris":{"android":"levelo://app?vid=16d1a5d8-0934-4b84-9429-63126b577cf8","ios":"levelo://app?vid=16d1a5d8-0934-4b84-9429-63126b577cf8"},"vehicle_type_id":"4","last_reported":1679249315,"current_range_meters":0,"station_id":"ce4bho12rcd13ifvqh1g","pricing_plan_id":"free"},{"bike_id":"bd2daade-40ab-4262-b210-8df1251f0691","system_id":"levelo_inurba_marseille","lat":43.27996,"lon":5.416624,"is_reserved":false,"is_disabled":false,"rental_uris":{"android":"levelo://app?vid=bd2daade-40ab-4262-b210-8df1251f0691","ios":"levelo://app?vid=bd2daade-40ab-4262-b210-8df1251f0691"},"vehicle_type_id":"4","last_reported":1679249315,"current_range_meters":2000,"station_id":"ce4bho12rcd13ifvqh1g","pricing_plan_id":"free"},{"bike_id":"d8bd42c2-449f-4f97-afe5-ffb7a889a8ac","system_id":"levelo_inurba_marseille","lat":43.27996,"lon":5.416624,"is_reserved":false,"is_disabled":false,"rental_uris":{"android":"levelo://app?vid=d8bd42c2-449f-4f97-afe5-ffb7a889a8ac","ios":"levelo://app?vid=d8bd42c2-449f-4f97-afe5-ffb7a889a8ac"},"vehicle_type_id":"4","last_reported":1679249315,"current_range_meters":0,"station_id":"ce4bho12rcd13ifvqh1g","pricing_plan_id":"free"},{"bike_id":"33045929-265b-4fb9-873c-434d82a23d43","system_id":"levelo_inurba_marseille","lat":43.265587,"lon":5.390167,"is_reserved":false,"is_disabled":false,"rental_uris":{"android":"levelo://app?vid=33045929-265b-4fb9-873c-434d82a23d43","ios":"levelo://app?vid=33045929-265b-4fb9-873c-434d82a23d43"},"vehicle_type_id":"4","last_reported":1679249315,"current_range_meters":0,"station_id":"ce4bhe12rcd13ifvqf30","pricing_plan_id":"free"},{"bike_id":"b5fd0508-197a-4071-8a3a-2378b72b0be9","system_id":"levelo_inurba_marseille","lat":43.2607,"lon":5.393983,"is_reserved":false,"is_disabled":false,"rental_uris":{"android":"levelo://app?vid=b5fd0508-197a-4071-8a3a-2378b72b0be9","ios":"levelo://app?vid=b5fd0508-197a-4071-8a3a-2378b72b0be9"},"vehicle_type_id":"4","last_reported":1679249315,"current_range_meters":29200,"station_id":"ce4bhh92rcd13ifvqfj0","pricing_plan_id":"free"},{"bike_id":"39ae7553-5b15-41ed-be49-d087d1ff66f8","system_id":"levelo_inurba_marseille","lat":43.2607,"lon":5.393983,"is_reserved":false,"is_disabled":false,"rental_uris":{"android":"levelo://app?vid=39ae7553-5b15-41ed-be49-d087d1ff66f8","ios":"levelo://app?vid=39ae7553-5b15-41ed-be49-d087d1ff66f8"},"vehicle_type_id":"4","last_reported":1679249315,"current_range_meters":0,"station_id":"ce4bhh92rcd13ifvqfj0","pricing_plan_id":"free"},{"bike_id":"35fc7a24-e61d-47f0-b4bf-71352137ddbf","system_id":"levelo_inurba_marseille","lat":43.2607,"lon":5.393983,"is_reserved":false,"is_disabled":false,"rental_uris":{"android":"levelo://app?vid=35fc7a24-e61d-47f0-b4bf-71352137ddbf","ios":"levelo://app?vid=35fc7a24-e61d-47f0-b4bf-71352137ddbf"},"vehicle_type_id":"4","last_reported":1679249315,"current_range_meters":1600,"station_id":"ce4bhh92rcd13ifvqfj0","pricing_plan_id":"free"},{"bike_id":"106ba0d7-eee6-4035-a2fc-25d6d4db5d3a","system_id":"levelo_inurba_marseille","lat":43.260589,"lon":5.394085,"is_reserved":false,"is_disabled":false,"rental_uris":{"android":"levelo://app?vid=106ba0d7-eee6-4035-a2fc-25d6d4db5d3a","ios":"levelo://app?vid=106ba0d7-eee6-4035-a2fc-25d6d4db5d3a"},"vehicle_type_id":"4","last_reported":1679249315,"current_range_meters":1600,"station_id":"","pricing_plan_id":"free"},{"bike_id":"5bcc2b03-2661-45ba-b3e5-5e662bec71f1","system_id":"levelo_inurba_marseille","lat":43.260909,"lon":5.397624,"is_reserved":false,"is_disabled":false,"rental_uris":{"android":"levelo://app?vid=5bcc2b03-2661-45ba-b3e5-5e662bec71f1","ios":"levelo://app?vid=5bcc2b03-2661-45ba-b3e5-5e662bec71f1"},"vehicle_type_id":"4","last_reported":1679249315,"current_range_meters":20000,"station_id":"","pricing_plan_id":"free"},{"bike_id":"217a32fe-0161-43b0-bec3-ad3345425f35","system_id":"levelo_inurba_marseille","lat":43.29255,"lon":5.44146,"is_reserved":false,"is_disabled":false,"rental_uris":{"android":"levelo://app?vid=217a32fe-0161-43b0-bec3-ad3345425f35","ios":"levelo://app?vid=217a32fe-0161-43b0-bec3-ad3345425f35"},"vehicle_type_id":"4","last_reported":1679249315,"current_range_meters":18800,"station_id":"","pricing_plan_id":"free"},{"bike_id":"1c32bc81-8038-4da8-acc4-bd2c818e818c","system_id":"levelo_inurba_marseille","lat":43.25579,"lon":5.38229,"is_reserved":false,"is_disabled":false,"rental_uris":{"android":"levelo://app?vid=1c32bc81-8038-4da8-acc4-bd2c818e818c","ios":"levelo://app?vid=1c32bc81-8038-4da8-acc4-bd2c818e818c"},"vehicle_type_id":"4","last_reported":1679249315,"current_range_meters":2800,"station_id":"","pricing_plan_id":"free"},{"bike_id":"4f38cb02-8c2b-46f7-b32f-f7210cb52da4","system_id":"levelo_inurba_marseille","lat":43.254947,"lon":5.376454,"is_reserved":false,"is_disabled":false,"rental_uris":{"android":"levelo://app?vid=4f38cb02-8c2b-46f7-b32f-f7210cb52da4","ios":"levelo://app?vid=4f38cb02-8c2b-46f7-b32f-f7210cb52da4"},"vehicle_type_id":"4","last_reported":1679249315,"current_range_meters":0,"station_id":"ce4bhh12rcd13ifvqff0","pricing_plan_id":"free"},{"bike_id":"fe83b89a-8426-474d-a46f-8277b491676d","system_id":"levelo_inurba_marseille","lat":43.270721,"lon":5.422764,"is_reserved":false,"is_disabled":false,"rental_uris":{"android":"levelo://app?vid=fe83b89a-8426-474d-a46f-8277b491676d","ios":"levelo://app?vid=fe83b89a-8426-474d-a46f-8277b491676d"},"vehicle_type_id":"4","last_reported":1679249315,"current_range_meters":5600,"station_id":"ce4bhk92rcd13ifvqgb0","pricing_plan_id":"free"},{"bike_id":"baa06baa-3496-40e3-b482-d1f7fcf9f7c6","system_id":"levelo_inurba_marseille","lat":43.258658,"lon":5.398935,"is_reserved":false,"is_disabled":false,"rental_uris":{"android":"levelo://app?vid=baa06baa-3496-40e3-b482-d1f7fcf9f7c6","ios":"levelo://app?vid=baa06baa-3496-40e3-b482-d1f7fcf9f7c6"},"vehicle_type_id":"4","last_reported":1679249315,"current_range_meters":7600,"station_id":"ce4bhl92rcd13ifvqghg","pricing_plan_id":"free"},{"bike_id":"3647aa3d-2a3f-41e2-8431-ae491d547389","system_id":"levelo_inurba_marseille","lat":43.250023,"lon":5.38919,"is_reserved":false,"is_disabled":false,"rental_uris":{"android":"levelo://app?vid=3647aa3d-2a3f-41e2-8431-ae491d547389","ios":"levelo://app?vid=3647aa3d-2a3f-41e2-8431-ae491d547389"},"vehicle_type_id":"4","last_reported":1679249315,"current_range_meters":0,"station_id":"ce4bhgp2rcd13ifvqfd0","pricing_plan_id":"free"},{"bike_id":"3585c490-cebe-421a-a099-ce16104e898b","system_id":"levelo_inurba_marseille","lat":43.250966,"lon":5.395186,"is_reserved":false,"is_disabled":false,"rental_uris":{"android":"levelo://app?vid=3585c490-cebe-421a-a099-ce16104e898b","ios":"levelo://app?vid=3585c490-cebe-421a-a099-ce16104e898b"},"vehicle_type_id":"4","last_reported":1679249315,"current_range_meters":10800,"station_id":"ce4bhm12rcd13ifvqgkg","pricing_plan_id":"free"},{"bike_id":"b85b0e03-10ff-400a-b1b0-9439acdad1e5","system_id":"levelo_inurba_marseille","lat":43.250966,"lon":5.395186,"is_reserved":false,"is_disabled":false,"rental_uris":{"android":"levelo://app?vid=b85b0e03-10ff-400a-b1b0-9439acdad1e5","ios":"levelo://app?vid=b85b0e03-10ff-400a-b1b0-9439acdad1e5"},"vehicle_type_id":"4","last_reported":1679249315,"current_range_meters":10400,"station_id":"ce4bhm12rcd13ifvqgkg","pricing_plan_id":"free"},{"bike_id":"082232a0-5ec0-4677-91b0-6a5c3eeb4180","system_id":"levelo_inurba_marseille","lat":43.25102,"lon":5.403214,"is_reserved":false,"is_disabled":false,"rental_uris":{"android":"levelo://app?vid=082232a0-5ec0-4677-91b0-6a5c3eeb4180","ios":"levelo://app?vid=082232a0-5ec0-4677-91b0-6a5c3eeb4180"},"vehicle_type_id":"4","last_reported":1679249315,"current_range_meters":10000,"station_id":"ce4bhlh2rcd13ifvqgig","pricing_plan_id":"free"},{"bike_id":"6613659d-f8ef-47cb-bf40-6a08aa55d76f","system_id":"levelo_inurba_marseille","lat":43.25102,"lon":5.403214,"is_reserved":false,"is_disabled":false,"rental_uris":{"android":"levelo://app?vid=6613659d-f8ef-47cb-bf40-6a08aa55d76f","ios":"levelo://app?vid=6613659d-f8ef-47cb-bf40-6a08aa55d76f"},"vehicle_type_id":"4","last_reported":1679249315,"current_range_meters":30000,"station_id":"ce4bhlh2rcd13ifvqgig","pricing_plan_id":"free"},{"bike_id":"31e2cfca-c025-4163-9c1e-08c3490961e9","system_id":"levelo_inurba_marseille","lat":43.25102,"lon":5.403214,"is_reserved":false,"is_disabled":false,"rental_uris":{"android":"levelo://app?vid=31e2cfca-c025-4163-9c1e-08c3490961e9","ios":"levelo://app?vid=31e2cfca-c025-4163-9c1e-08c3490961e9"},"vehicle_type_id":"4","last_reported":1679249315,"current_range_meters":24000,"station_id":"ce4bhlh2rcd13ifvqgig","pricing_plan_id":"free"},{"bike_id":"2e810dbc-99d5-47f5-8563-d273b10c9b22","system_id":"levelo_inurba_marseille","lat":43.24693,"lon":5.382096,"is_reserved":false,"is_disabled":false,"rental_uris":{"android":"levelo://app?vid=2e810dbc-99d5-47f5-8563-d273b10c9b22","ios":"levelo://app?vid=2e810dbc-99d5-47f5-8563-d273b10c9b22"},"vehicle_type_id":"4","last_reported":1679249315,"current_range_meters":0,"station_id":"ce4bhih2rcd13ifvqfr0","pricing_plan_id":"free"},{"bike_id":"d61a875c-fecb-4a3b-bea9-24c27bc06a0c","system_id":"levelo_inurba_marseille","lat":43.25102,"lon":5.403214,"is_reserved":false,"is_disabled":false,"rental_uris":{"android":"levelo://app?vid=d61a875c-fecb-4a3b-bea9-24c27bc06a0c","ios":"levelo://app?vid=d61a875c-fecb-4a3b-bea9-24c27bc06a0c"},"vehicle_type_id":"4","last_reported":1679249315,"current_range_meters":7200,"station_id":"ce4bhlh2rcd13ifvqgig","pricing_plan_id":"free"},{"bike_id":"63040bd0-2ddb-4182-ba96-27f00698088b","system_id":"levelo_inurba_marseille","lat":43.24693,"lon":5.382096,"is_reserved":false,"is_disabled":false,"rental_uris":{"android":"levelo://app?vid=63040bd0-2ddb-4182-ba96-27f00698088b","ios":"levelo://app?vid=63040bd0-2ddb-4182-ba96-27f00698088b"},"vehicle_type_id":"4","last_reported":1679249315,"current_range_meters":3600,"station_id":"ce4bhih2rcd13ifvqfr0","pricing_plan_id":"free"},{"bike_id":"f6f36674-b5d0-4577-a395-834b30a5d003","system_id":"levelo_inurba_marseille","lat":43.25102,"lon":5.403214,"is_reserved":false,"is_disabled":false,"rental_uris":{"android":"levelo://app?vid=f6f36674-b5d0-4577-a395-834b30a5d003","ios":"levelo://app?vid=f6f36674-b5d0-4577-a395-834b30a5d003"},"vehicle_type_id":"4","last_reported":1679249315,"current_range_meters":6800,"station_id":"ce4bhlh2rcd13ifvqgig","pricing_plan_id":"free"},{"bike_id":"deb17e38-3262-467f-aa24-e048ce6fa21d","system_id":"levelo_inurba_marseille","lat":43.25102,"lon":5.403214,"is_reserved":false,"is_disabled":false,"rental_uris":{"android":"levelo://app?vid=deb17e38-3262-467f-aa24-e048ce6fa21d","ios":"levelo://app?vid=deb17e38-3262-467f-aa24-e048ce6fa21d"},"vehicle_type_id":"4","last_reported":1679249315,"current_range_meters":1600,"station_id":"ce4bhlh2rcd13ifvqgig","pricing_plan_id":"free"},{"bike_id":"c60a6cc1-84f6-453b-9c98-a78c1039425a","system_id":"levelo_inurba_marseille","lat":43.24546,"lon":5.39523,"is_reserved":false,"is_disabled":false,"rental_uris":{"android":"levelo://app?vid=c60a6cc1-84f6-453b-9c98-a78c1039425a","ios":"levelo://app?vid=c60a6cc1-84f6-453b-9c98-a78c1039425a"},"vehicle_type_id":"4","last_reported":1679249315,"current_range_meters":4800,"station_id":"","pricing_plan_id":"free"},{"bike_id":"aef9a913-d895-40a2-ae34-00ce2ca1b427","system_id":"levelo_inurba_marseille","lat":43.239682,"lon":5.366262,"is_reserved":false,"is_disabled":false,"rental_uris":{"android":"levelo://app?vid=aef9a913-d895-40a2-ae34-00ce2ca1b427","ios":"levelo://app?vid=aef9a913-d895-40a2-ae34-00ce2ca1b427"},"vehicle_type_id":"4","last_reported":1679249315,"current_range_meters":0,"station_id":"ce4bhi12rcd13ifvqfp0","pricing_plan_id":"free"},{"bike_id":"341ffb58-525e-434c-8dd7-78f858384802","system_id":"levelo_inurba_marseille","lat":43.239588,"lon":5.366238,"is_reserved":false,"is_disabled":false,"rental_uris":{"android":"levelo://app?vid=341ffb58-525e-434c-8dd7-78f858384802","ios":"levelo://app?vid=341ffb58-525e-434c-8dd7-78f858384802"},"vehicle_type_id":"4","last_reported":1679249315,"current_range_meters":2000,"station_id":"ce4bhi12rcd13ifvqfp0","pricing_plan_id":"free"},{"bike_id":"eab36753-26ed-466f-84d6-35a62879bbd1","system_id":"levelo_inurba_marseille","lat":43.241782,"lon":5.397261,"is_reserved":false,"is_disabled":false,"rental_uris":{"android":"levelo://app?vid=eab36753-26ed-466f-84d6-35a62879bbd1","ios":"levelo://app?vid=eab36753-26ed-466f-84d6-35a62879bbd1"},"vehicle_type_id":"4","last_reported":1679249315,"current_range_meters":18400,"station_id":"ce4bhn12rcd13ifvqgpg","pricing_plan_id":"free"},{"bike_id":"12aa1d7e-659a-42cd-b557-e163f41bcc4d","system_id":"levelo_inurba_marseille","lat":43.241782,"lon":5.397264,"is_reserved":false,"is_disabled":false,"rental_uris":{"android":"levelo://app?vid=12aa1d7e-659a-42cd-b557-e163f41bcc4d","ios":"levelo://app?vid=12aa1d7e-659a-42cd-b557-e163f41bcc4d"},"vehicle_type_id":"4","last_reported":1679249315,"current_range_meters":14800,"station_id":"ce4bhn12rcd13ifvqgpg","pricing_plan_id":"free"}]}}