{"last_updated":1752819428,"ttl":60,"version":"2.2","data":{"bikes":[{"bike_id":"53b742a7-31ae-4272-9bba-7740339e2a2f","system_id":"levelo_inurba_marseille","lat":43.33747,"lon":5.37463,"is_reserved":false,"is_disabled":false,"rental_uris":{"android":"levelo://app?vid=53b742a7-31ae-4272-9bba-7740339e2a2f","ios":"levelo://app?vid=53b742a7-31ae-4272-9bba-7740339e2a2f"},"vehicle_type_id":"1","last_reported":1752819428,"current_range_meters":20800,"station_id":"","pricing_plan_id":"cebpf4jnsgd1na2vs0mg"},{"bike_id":"b29b4439-b50e-4dd9-8839-d0b59179f1e7","system_id":"levelo_inurba_marseille","lat":43.26943,"lon":5.38654,"is_reserved":false,"is_disabled":true,"rental_uris":{"android":"levelo://app?vid=b29b4439-b50e-4dd9-8839-d0b59179f1e7","ios":"levelo://app?vid=b29b4439-b50e-4dd9-8839-d0b59179f1e7"},"vehicle_type_id":"4","last_reported":1752819428,"current_range_meters":2800,"station_id":"ce4bhh92rcd13ifvqfh0","pricing_plan_id":"cebpf4jnsgd1na2vs0mg"},{"bike_id":"9eb11d44-370d-464b-b78f-5461a3b04cc3","system_id":"levelo_inurba_marseille","lat":43.31084,"lon":5.3834,"is_reserved":false,"is_disabled":true,"rental_uris":{"android":"levelo://app?vid=9eb11d44-370d-464b-b78f-5461a3b04cc3","ios":"levelo://app?vid=9eb11d44-370d-464b-b78f-5461a3b04cc3"},"vehicle_type_id":"4","last_reported":1752819428,"current_range_meters":3600,"station_id":"ce4bgv92rcd13ifvqcr0","pricing_plan_id":"cebpf4jnsgd1na2vs0mg"},{"bike_id":"d7b66a69-6c98-4e2d-b675-1fae3aa944d5","system_id":"levelo_inurba_marseille","lat":43.301466,"lon":5.380774,"is_reserved":false,"is_disabled":false,"rental_uris":{"android":"levelo://app?vid=d7b66a69-6c98-4e2d-b675-1fae3aa944d5","ios":"levelo://app?vid=d7b66a69-6c98-4e2d-b675-1fae3aa944d5"},"vehicle_type_id":"4","last_reported":1752819428,"current_range_meters":3600,"station_id":"ce4bgjp2rcd13ifvqbh0","pricing_plan_id":"cebpf4jnsgd1na2vs0mg"},{"bike_id":"cbb5315f-c89d-4216-bbe4-aa317c340e75","system_id":"levelo_inurba_marseille","lat":43.28616,"lon":5.35099,"is_reserved":false,"is_disabled":false,"rental_uris":{"android":"levelo://app?vid=cbb5315f-c89d-4216-bbe4-aa317c340e75","ios":"levelo://app?vid=cbb5315f-c89d-4216-bbe4-aa317c340e75"},"vehicle_type_id":"4","last_reported":1752819428,"current_range_meters":3600,"station_id":"ce4bhch2rcd13ifvqeug","pricing_plan_id":"cebpf4jnsgd1na2vs0mg"},{"bike_id":"3051449b-679c-47d5-9495-432a16a18d79","system_id":"levelo_inurba_marseille","lat":43.28421,"lon":5.38482,"is_reserved":false,"is_disabled":false,"rental_uris":{"android":"levelo://app?vid=3051449b-679c-47d5-9495-432a16a18d79","ios":"levelo://app?vid=3051449b-679c-47d5-9495-432a16a18d79"},"vehicle_type_id":"4","last_reported":1752819428,"current_range_meters":4000,"station_id":"","pricing_plan_id":"cebpf4jnsgd1na2vs0mg"},{"bike_id":"9b983459-406f-4b32-ba08-0c5c5fc9d4ad","system_id":"levelo_inurba_marseille","lat":43.29573,"lon":5.387339,"is_reserved":false,"is_disabled":false,"rental_uris":{"android":"levelo://app?vid=9b983459-406f-4b32-ba08-0c5c5fc9d4ad","ios":"levelo://app?vid=9b983459-406f-4b32-ba08-0c5c5fc9d4ad"},"vehicle_type_id":"4","last_reported":1752819428,"current_range_meters":4400,"station_id":"","pricing_plan_id":"cebpf4jnsgd1na2vs0mg"},{"bike_id":"292c6c89-c7f8-4da9-beff-c7501f46c646","system_id":"levelo_inurba_marseille","lat":43.30251,"lon":5.40062,"is_reserved":false,"is_disabled":false,"rental_uris":{"android":"levelo://app?vid=292c6c89-c7f8-4da9-beff-c7501f46c646","ios":"levelo://app?vid=292c6c89-c7f8-4da9-beff-c7501f46c646"},"vehicle_type_id":"4","last_reported":1752819428,"current_range_meters":4800,"station_id":"ce4bgvh2rcd13ifvqcs0","pricing_plan_id":"cebpf4jnsgd1na2vs0mg"},{"bike_id":"51de7427-7c78-40b8-b137-52d7c01a1b54","system_id":"levelo_inurba_marseille","lat":43.29902,"lon":5.43669,"is_reserved":false,"is_disabled":false,"rental_uris":{"android":"levelo://app?vid=51de7427-7c78-40b8-b137-52d7c01a1b54","ios":"levelo://app?vid=51de7427-7c78-40b8-b137-52d7c01a1b54"},"vehicle_type_id":"4","last_reported":1752819428,"current_range_meters":4800,"station_id":"ce4bhpp2rcd13ifvqhfg","pricing_plan_id":"cebpf4jnsgd1na2vs0mg"},{"bike_id":"da581d50-8a7a-4fd1-b852-3e78907ad563","system_id":"levelo_inurba_marseille","lat":43.32469,"lon":5.409425,"is_reserved":false,"is_disabled":false,"rental_uris":{"android":"levelo://app?vid=da581d50-8a7a-4fd1-b852-3e78907ad563","ios":"levelo://app?vid=da581d50-8a7a-4fd1-b852-3e78907ad563"},"vehicle_type_id":"4","last_reported":1752819428,"current_range_meters":5600,"station_id":"","pricing_plan_id":"cebpf4jnsgd1na2vs0mg"},{"bike_id":"d623986c-dd17-438f-b4c2-e7aa7161013e","system_id":"levelo_inurba_marseille","lat":43.29625,"lon":5.40598,"is_reserved":false,"is_disabled":false,"rental_uris":{"android":"levelo://app?vid=d623986c-dd17-438f-b4c2-e7aa7161013e","ios":"levelo://app?vid=d623986c-dd17-438f-b4c2-e7aa7161013e"},"vehicle_type_id":"4","last_reported":1752819428,"current_range_meters":6400,"station_id":"ce4bh0h2rcd13ifvqd60","pricing_plan_id":"cebpf4jnsgd1na2vs0mg"},{"bike_id":"94b69e40-3760-41cd-8465-f1e4ad4bb7be","system_id":"levelo_inurba_marseille","lat":43.313355,"lon":5.367195,"is_reserved":false,"is_disabled":false,"rental_uris":{"android":"levelo://app?vid=94b69e40-3760-41cd-8465-f1e4ad4bb7be","ios":"levelo://app?vid=94b69e40-3760-41cd-8465-f1e4ad4bb7be"},"vehicle_type_id":"4","last_reported":1752819428,"current_range_meters":6400,"station_id":"ce4bgr92rcd13ifvqc6g","pricing_plan_id":"cebpf4jnsgd1na2vs0mg"},{"bike_id":"7f9ad9d2-b85b-49e4-b338-9cf6d8a89d59","system_id":"levelo_inurba_marseille","lat":43.30479,"lon":5.37906,"is_reserved":false,"is_disabled":false,"rental_uris":{"android":"levelo://app?vid=7f9ad9d2-b85b-49e4-b338-9cf6d8a89d59","ios":"levelo://app?vid=7f9ad9d2-b85b-49e4-b338-9cf6d8a89d59"},"vehicle_type_id":"4","last_reported":1752819428,"current_range_meters":6400,"station_id":"ce4bgup2rcd13ifvqcn0","pricing_plan_id":"cebpf4jnsgd1na2vs0mg"},{"bike_id":"855fe289-abc3-4060-a253-17de79729855","system_id":"levelo_inurba_marseille","lat":43.25089,"lon":5.39525,"is_reserved":false,"is_disabled":false,"rental_uris":{"android":"levelo://app?vid=855fe289-abc3-4060-a253-17de79729855","ios":"levelo://app?vid=855fe289-abc3-4060-a253-17de79729855"},"vehicle_type_id":"4","last_reported":1752819428,"current_range_meters":2800,"station_id":"ce4bhm12rcd13ifvqgkg","pricing_plan_id":"cebpf4jnsgd1na2vs0mg"},{"bike_id":"6a5e8f5d-aa97-4ff5-b22b-3c317bf1b588","system_id":"levelo_inurba_marseille","lat":43.27916,"lon":5.39575,"is_reserved":false,"is_disabled":false,"rental_uris":{"android":"levelo://app?vid=6a5e8f5d-aa97-4ff5-b22b-3c317bf1b588","ios":"levelo://app?vid=6a5e8f5d-aa97-4ff5-b22b-3c317bf1b588"},"vehicle_type_id":"4","last_reported":1752819428,"current_range_meters":6800,"station_id":"ce4bhf92rcd13ifvqf40","pricing_plan_id":"cebpf4jnsgd1na2vs0mg"},{"bike_id":"a762fb99-4cb8-41f5-aac4-7a493181edb2","system_id":"levelo_inurba_marseille","lat":43.31085,"lon":5.42429,"is_reserved":false,"is_disabled":false,"rental_uris":{"android":"levelo://app?vid=a762fb99-4cb8-41f5-aac4-7a493181edb2","ios":"levelo://app?vid=a762fb99-4cb8-41f5-aac4-7a493181edb2"},"vehicle_type_id":"4","last_reported":1752819428,"current_range_meters":6800,"station_id":"ce4bhp92rcd13ifvqhag","pricing_plan_id":"cebpf4jnsgd1na2vs0mg"},{"bike_id":"7e15bd0c-124a-4838-9659-201a01f3e407","system_id":"levelo_inurba_marseille","lat":43.28485,"lon":5.3588,"is_reserved":false,"is_disabled":true,"rental_uris":{"android":"levelo://app?vid=7e15bd0c-124a-4838-9659-201a01f3e407","ios":"levelo://app?vid=7e15bd0c-124a-4838-9659-201a01f3e407"},"vehicle_type_id":"4","last_reported":1752819428,"current_range_meters":6800,"station_id":"ce4bhah2rcd13ifvqei0","pricing_plan_id":"cebpf4jnsgd1na2vs0mg"},{"bike_id":"99731028-82d6-4e1b-90d4-958b19820d22","system_id":"levelo_inurba_marseille","lat":43.30463,"lon":5.37909,"is_reserved":false,"is_disabled":false,"rental_uris":{"android":"levelo://app?vid=99731028-82d6-4e1b-90d4-958b19820d22","ios":"levelo://app?vid=99731028-82d6-4e1b-90d4-958b19820d22"},"vehicle_type_id":"4","last_reported":1752819428,"current_range_meters":6800,"station_id":"ce4bgup2rcd13ifvqcn0","pricing_plan_id":"cebpf4jnsgd1na2vs0mg"},{"bike_id":"a4fd652b-34f8-4c68-a6e6-032a5cc5e418","system_id":"levelo_inurba_marseille","lat":43.3128,"lon":5.36836,"is_reserved":false,"is_disabled":false,"rental_uris":{"android":"levelo://app?vid=a4fd652b-34f8-4c68-a6e6-032a5cc5e418","ios":"levelo://app?vid=a4fd652b-34f8-4c68-a6e6-032a5cc5e418"},"vehicle_type_id":"4","last_reported":1752819428,"current_range_meters":7200,"station_id":"","pricing_plan_id":"cebpf4jnsgd1na2vs0mg"},{"bike_id":"83b3c9b8-d66e-43ea-82d7-ef2eeaff7945","system_id":"levelo_inurba_marseille","lat":43.26788,"lon":5.39428,"is_reserved":false,"is_disabled":false,"rental_uris":{"android":"levelo://app?vid=83b3c9b8-d66e-43ea-82d7-ef2eeaff7945","ios":"levelo://app?vid=83b3c9b8-d66e-43ea-82d7-ef2eeaff7945"},"vehicle_type_id":"4","last_reported":1752819428,"current_range_meters":7200,"station_id":"ce4bhh12rcd13ifvqfg0","pricing_plan_id":"cebpf4jnsgd1na2vs0mg"},{"bike_id":"f1a7f3b0-3bad-4ded-bc92-3fb1685f68ed","system_id":"levelo_inurba_marseille","lat":43.29695,"lon":5.37647,"is_reserved":false,"is_disabled":true,"rental_uris":{"android":"levelo://app?vid=f1a7f3b0-3bad-4ded-bc92-3fb1685f68ed","ios":"levelo://app?vid=f1a7f3b0-3bad-4ded-bc92-3fb1685f68ed"},"vehicle_type_id":"4","last_reported":1752819428,"current_range_meters":8000,"station_id":"ce4bgkh2rcd13ifvqbl0","pricing_plan_id":"cebpf4jnsgd1na2vs0mg"},{"bike_id":"38b6737c-9670-4c35-bc0b-14976925247b","system_id":"levelo_inurba_marseille","lat":43.298796,"lon":5.397314,"is_reserved":false,"is_disabled":false,"rental_uris":{"android":"levelo://app?vid=38b6737c-9670-4c35-bc0b-14976925247b","ios":"levelo://app?vid=38b6737c-9670-4c35-bc0b-14976925247b"},"vehicle_type_id":"4","last_reported":1752819428,"current_range_meters":8000,"station_id":"ce4bh0h2rcd13ifvqd50","pricing_plan_id":"cebpf4jnsgd1na2vs0mg"},{"bike_id":"284e77d9-ff07-46f1-8f76-ffd17c0d0ea3","system_id":"levelo_inurba_marseille","lat":43.28633,"lon":5.36353,"is_reserved":false,"is_disabled":false,"rental_uris":{"android":"levelo://app?vid=284e77d9-ff07-46f1-8f76-ffd17c0d0ea3","ios":"levelo://app?vid=284e77d9-ff07-46f1-8f76-ffd17c0d0ea3"},"vehicle_type_id":"4","last_reported":1752819428,"current_range_meters":8000,"station_id":"ce4bhah2rcd13ifvqej0","pricing_plan_id":"cebpf4jnsgd1na2vs0mg"},{"bike_id":"a8828ca8-fdac-48cd-8e10-9e410175fdf5","system_id":"levelo_inurba_marseille","lat":43.28424,"lon":5.37513,"is_reserved":false,"is_disabled":false,"rental_uris":{"android":"levelo://app?vid=a8828ca8-fdac-48cd-8e10-9e410175fdf5","ios":"levelo://app?vid=a8828ca8-fdac-48cd-8e10-9e410175fdf5"},"vehicle_type_id":"4","last_reported":1752819428,"current_range_meters":8000,"station_id":"ce4bh412rcd13ifvqds0","pricing_plan_id":"cebpf4jnsgd1na2vs0mg"},{"bike_id":"fd57c3e8-ed99-4a54-b50d-16c8cb5147c1","system_id":"levelo_inurba_marseille","lat":43.26563,"lon":5.38692,"is_reserved":false,"is_disabled":false,"rental_uris":{"android":"levelo://app?vid=fd57c3e8-ed99-4a54-b50d-16c8cb5147c1","ios":"levelo://app?vid=fd57c3e8-ed99-4a54-b50d-16c8cb5147c1"},"vehicle_type_id":"4","last_reported":1752819428,"current_range_meters":8000,"station_id":"","pricing_plan_id":"cebpf4jnsgd1na2vs0mg"},{"bike_id":"81f88721-00d0-431c-83bf-446e11578408","system_id":"levelo_inurba_marseille","lat":43.225044,"lon":5.347758,"is_reserved":false,"is_disabled":false,"rental_uris":{"android":"levelo://app?vid=81f88721-00d0-431c-83bf-446e11578408","ios":"levelo://app?vid=81f88721-00d0-431c-83bf-446e11578408"},"vehicle_type_id":"4","last_reported":1752819428,"current_range_meters":8000,"station_id":"st_cvj5dfep6f1abm77gieg","pricing_plan_id":"cebpf4jnsgd1na2vs0mg"},{"bike_id":"5c122070-7a96-43cd-81b8-2820c9074c6f","system_id":"levelo_inurba_marseille","lat":43.30466,"lon":5.37901,"is_reserved":false,"is_disabled":false,"rental_uris":{"android":"levelo://app?vid=5c122070-7a96-43cd-81b8-2820c9074c6f","ios":"levelo://app?vid=5c122070-7a96-43cd-81b8-2820c9074c6f"},"vehicle_type_id":"4","last_reported":1752819428,"current_range_meters":8400,"station_id":"ce4bgup2rcd13ifvqcn0","pricing_plan_id":"cebpf4jnsgd1na2vs0mg"},{"bike_id":"0d28abcf-770f-4ad0-a9a2-c9e37fe2f979","system_id":"levelo_inurba_marseille","lat":43.29635,"lon":5.40594,"is_reserved":false,"is_disabled":false,"rental_uris":{"android":"levelo://app?vid=0d28abcf-770f-4ad0-a9a2-c9e37fe2f979","ios":"levelo://app?vid=0d28abcf-770f-4ad0-a9a2-c9e37fe2f979"},"vehicle_type_id":"4","last_reported":1752819428,"current_range_meters":8400,"station_id":"ce4bh0h2rcd13ifvqd60","pricing_plan_id":"cebpf4jnsgd1na2vs0mg"},{"bike_id":"492a419e-7fc3-43b7-b688-aee4d064f5a3","system_id":"levelo_inurba_marseille","lat":43.29301,"lon":5.37197,"is_reserved":false,"is_disabled":true,"rental_uris":{"android":"levelo://app?vid=492a419e-7fc3-43b7-b688-aee4d064f5a3","ios":"levelo://app?vid=492a419e-7fc3-43b7-b688-aee4d064f5a3"},"vehicle_type_id":"4","last_reported":1752819428,"current_range_meters":8400,"station_id":"ce4bgh92rcd13ifvqb40","pricing_plan_id":"cebpf4jnsgd1na2vs0mg"},{"bike_id":"0b4aeec2-26f8-4cc4-b7a9-87e25034d77d","system_id":"levelo_inurba_marseille","lat":43.30382,"lon":5.4249,"is_reserved":false,"is_disabled":true,"rental_uris":{"android":"levelo://app?vid=0b4aeec2-26f8-4cc4-b7a9-87e25034d77d","ios":"levelo://app?vid=0b4aeec2-26f8-4cc4-b7a9-87e25034d77d"},"vehicle_type_id":"4","last_reported":1752819428,"current_range_meters":8400,"station_id":"ce4bhoh2rcd13ifvqh6g","pricing_plan_id":"cebpf4jnsgd1na2vs0mg"},{"bike_id":"4fcbc793-825f-4081-95c8-77b7c6037c8e","system_id":"levelo_inurba_marseille","lat":43.30321,"lon":5.40441,"is_reserved":false,"is_disabled":false,"rental_uris":{"android":"levelo://app?vid=4fcbc793-825f-4081-95c8-77b7c6037c8e","ios":"levelo://app?vid=4fcbc793-825f-4081-95c8-77b7c6037c8e"},"vehicle_type_id":"4","last_reported":1752819428,"current_range_meters":8400,"station_id":"ce4bh012rcd13ifvqd10","pricing_plan_id":"cebpf4jnsgd1na2vs0mg"},{"bike_id":"0ae0d65f-0631-47aa-9bde-e7b7a311ab4e","system_id":"levelo_inurba_marseille","lat":43.30462,"lon":5.37912,"is_reserved":false,"is_disabled":false,"rental_uris":{"android":"levelo://app?vid=0ae0d65f-0631-47aa-9bde-e7b7a311ab4e","ios":"levelo://app?vid=0ae0d65f-0631-47aa-9bde-e7b7a311ab4e"},"vehicle_type_id":"4","last_reported":1752819428,"current_range_meters":8400,"station_id":"ce4bgup2rcd13ifvqcn0","pricing_plan_id":"cebpf4jnsgd1na2vs0mg"},{"bike_id":"a03fc55f-e337-4e33-8a6e-8c173e415b91","system_id":"levelo_inurba_marseille","lat":43.307833,"lon":5.376535,"is_reserved":false,"is_disabled":true,"rental_uris":{"android":"levelo://app?vid=a03fc55f-e337-4e33-8a6e-8c173e415b91","ios":"levelo://app?vid=a03fc55f-e337-4e33-8a6e-8c173e415b91"},"vehicle_type_id":"4","last_reported":1752819428,"current_range_meters":8800,"station_id":"","pricing_plan_id":"cebpf4jnsgd1na2vs0mg"},{"bike_id":"4d45f1e9-194f-47b9-b021-5eab9e1c0b12","system_id":"levelo_inurba_marseille","lat":43.31221,"lon":5.36851,"is_reserved":false,"is_disabled":false,"rental_uris":{"android":"levelo://app?vid=4d45f1e9-194f-47b9-b021-5eab9e1c0b12","ios":"levelo://app?vid=4d45f1e9-194f-47b9-b021-5eab9e1c0b12"},"vehicle_type_id":"4","last_reported":1752819428,"current_range_meters":8800,"station_id":"ce4bgl92rcd13ifvqbq0","pricing_plan_id":"cebpf4jnsgd1na2vs0mg"},{"bike_id":"90f54ea4-e306-4792-9966-1cc1bc24176c","system_id":"levelo_inurba_marseille","lat":43.26487,"lon":5.39572,"is_reserved":false,"is_disabled":true,"rental_uris":{"android":"levelo://app?vid=90f54ea4-e306-4792-9966-1cc1bc24176c","ios":"levelo://app?vid=90f54ea4-e306-4792-9966-1cc1bc24176c"},"vehicle_type_id":"4","last_reported":1752819428,"current_range_meters":8800,"station_id":"ce4bhi12rcd13ifvqfq0","pricing_plan_id":"cebpf4jnsgd1na2vs0mg"},{"bike_id":"f917674a-db6e-41d3-a9b6-f8499e0e194f","system_id":"levelo_inurba_marseille","lat":43.292683,"lon":5.384295,"is_reserved":false,"is_disabled":false,"rental_uris":{"android":"levelo://app?vid=f917674a-db6e-41d3-a9b6-f8499e0e194f","ios":"levelo://app?vid=f917674a-db6e-41d3-a9b6-f8499e0e194f"},"vehicle_type_id":"4","last_reported":1752819428,"current_range_meters":9200,"station_id":"ce4bh692rcd13ifvqea0","pricing_plan_id":"cebpf4jnsgd1na2vs0mg"},{"bike_id":"b2a298e9-19e9-4d30-9a09-a4722cdf6a7b","system_id":"levelo_inurba_marseille","lat":43.21191,"lon":5.3508,"is_reserved":false,"is_disabled":false,"rental_uris":{"android":"levelo://app?vid=b2a298e9-19e9-4d30-9a09-a4722cdf6a7b","ios":"levelo://app?vid=b2a298e9-19e9-4d30-9a09-a4722cdf6a7b"},"vehicle_type_id":"4","last_reported":1752819428,"current_range_meters":9200,"station_id":"st_cvj6sg6p6f1abm77japg","pricing_plan_id":"cebpf4jnsgd1na2vs0mg"},{"bike_id":"8e6e1ca6-9684-4865-bcc2-4f4c40c74eff","system_id":"levelo_inurba_marseille","lat":43.296639,"lon":5.387613,"is_reserved":false,"is_disabled":false,"rental_uris":{"android":"levelo://app?vid=8e6e1ca6-9684-4865-bcc2-4f4c40c74eff","ios":"levelo://app?vid=8e6e1ca6-9684-4865-bcc2-4f4c40c74eff"},"vehicle_type_id":"4","last_reported":1752819428,"current_range_meters":9200,"station_id":"","pricing_plan_id":"cebpf4jnsgd1na2vs0mg"},{"bike_id":"555bc53e-5286-4fb6-9154-af42b3fd9792","system_id":"levelo_inurba_marseille","lat":43.30072,"lon":5.37286,"is_reserved":false,"is_disabled":false,"rental_uris":{"android":"levelo://app?vid=555bc53e-5286-4fb6-9154-af42b3fd9792","ios":"levelo://app?vid=555bc53e-5286-4fb6-9154-af42b3fd9792"},"vehicle_type_id":"4","last_reported":1752819428,"current_range_meters":9200,"station_id":"","pricing_plan_id":"cebpf4jnsgd1na2vs0mg"},{"bike_id":"04d15a50-cb94-495c-969c-c09473f1fcda","system_id":"levelo_inurba_marseille","lat":43.296223,"lon":5.377025,"is_reserved":false,"is_disabled":false,"rental_uris":{"android":"levelo://app?vid=04d15a50-cb94-495c-969c-c09473f1fcda","ios":"levelo://app?vid=04d15a50-cb94-495c-969c-c09473f1fcda"},"vehicle_type_id":"4","last_reported":1752819428,"current_range_meters":9600,"station_id":"","pricing_plan_id":"cebpf4jnsgd1na2vs0mg"},{"bike_id":"3444bdc6-514a-4ba6-9650-f9073305e33d","system_id":"levelo_inurba_marseille","lat":43.29682,"lon":5.3698,"is_reserved":false,"is_disabled":false,"rental_uris":{"android":"levelo://app?vid=3444bdc6-514a-4ba6-9650-f9073305e33d","ios":"levelo://app?vid=3444bdc6-514a-4ba6-9650-f9073305e33d"},"vehicle_type_id":"4","last_reported":1752819428,"current_range_meters":9600,"station_id":"","pricing_plan_id":"cebpf4jnsgd1na2vs0mg"},{"bike_id":"139acd6c-d496-466b-a201-601abf871911","system_id":"levelo_inurba_marseille","lat":43.28577,"lon":5.39505,"is_reserved":false,"is_disabled":false,"rental_uris":{"android":"levelo://app?vid=139acd6c-d496-466b-a201-601abf871911","ios":"levelo://app?vid=139acd6c-d496-466b-a201-601abf871911"},"vehicle_type_id":"4","last_reported":1752819428,"current_range_meters":9600,"station_id":"ce4bh292rcd13ifvqdg0","pricing_plan_id":"cebpf4jnsgd1na2vs0mg"},{"bike_id":"28d27c17-e6ca-4cec-aec9-f1f6696b8a12","system_id":"levelo_inurba_marseille","lat":43.29901,"lon":5.4365,"is_reserved":false,"is_disabled":true,"rental_uris":{"android":"levelo://app?vid=28d27c17-e6ca-4cec-aec9-f1f6696b8a12","ios":"levelo://app?vid=28d27c17-e6ca-4cec-aec9-f1f6696b8a12"},"vehicle_type_id":"4","last_reported":1752819428,"current_range_meters":9600,"station_id":"ce4bhpp2rcd13ifvqhfg","pricing_plan_id":"cebpf4jnsgd1na2vs0mg"},{"bike_id":"4aff3131-c2f0-49aa-9f71-6988eb132719","system_id":"levelo_inurba_marseille","lat":43.2944,"lon":5.38638,"is_reserved":false,"is_disabled":true,"rental_uris":{"android":"levelo://app?vid=4aff3131-c2f0-49aa-9f71-6988eb132719","ios":"levelo://app?vid=4aff3131-c2f0-49aa-9f71-6988eb132719"},"vehicle_type_id":"4","last_reported":1752819428,"current_range_meters":10000,"station_id":"ce4bh2h2rcd13ifvqdh0","pricing_plan_id":"cebpf4jnsgd1na2vs0mg"},{"bike_id":"2d789971-b5c1-40c6-a126-5395b51c4522","system_id":"levelo_inurba_marseille","lat":43.29039,"lon":5.37556,"is_reserved":false,"is_disabled":true,"rental_uris":{"android":"levelo://app?vid=2d789971-b5c1-40c6-a126-5395b51c4522","ios":"levelo://app?vid=2d789971-b5c1-40c6-a126-5395b51c4522"},"vehicle_type_id":"4","last_reported":1752819428,"current_range_meters":10000,"station_id":"ce4bh692rcd13ifvqe90","pricing_plan_id":"cebpf4jnsgd1na2vs0mg"},{"bike_id":"fd82ca6c-71b1-4cdd-804d-14091e652fe0","system_id":"levelo_inurba_marseille","lat":43.31361,"lon":5.36693,"is_reserved":false,"is_disabled":false,"rental_uris":{"android":"levelo://app?vid=fd82ca6c-71b1-4cdd-804d-14091e652fe0","ios":"levelo://app?vid=fd82ca6c-71b1-4cdd-804d-14091e652fe0"},"vehicle_type_id":"4","last_reported":1752819428,"current_range_meters":10000,"station_id":"ce4bgr92rcd13ifvqc6g","pricing_plan_id":"cebpf4jnsgd1na2vs0mg"},{"bike_id":"46ba418d-29e7-40ac-845a-614c86e866b4","system_id":"levelo_inurba_marseille","lat":43.31234,"lon":5.3686,"is_reserved":false,"is_disabled":false,"rental_uris":{"android":"levelo://app?vid=46ba418d-29e7-40ac-845a-614c86e866b4","ios":"levelo://app?vid=46ba418d-29e7-40ac-845a-614c86e866b4"},"vehicle_type_id":"4","last_reported":1752819428,"current_range_meters":10000,"station_id":"ce4bgl92rcd13ifvqbq0","pricing_plan_id":"cebpf4jnsgd1na2vs0mg"},{"bike_id":"315722f5-6bac-4164-b3db-9490e0530c22","system_id":"levelo_inurba_marseille","lat":43.24667,"lon":5.38161,"is_reserved":false,"is_disabled":false,"rental_uris":{"android":"levelo://app?vid=315722f5-6bac-4164-b3db-9490e0530c22","ios":"levelo://app?vid=315722f5-6bac-4164-b3db-9490e0530c22"},"vehicle_type_id":"4","last_reported":1752819428,"current_range_meters":10000,"station_id":"","pricing_plan_id":"cebpf4jnsgd1na2vs0mg"},{"bike_id":"07f5ae19-0925-43ef-aab4-48ec58bc62b9","system_id":"levelo_inurba_marseille","lat":43.314463,"lon":5.37437,"is_reserved":false,"is_disabled":false,"rental_uris":{"android":"levelo://app?vid=07f5ae19-0925-43ef-aab4-48ec58bc62b9","ios":"levelo://app?vid=07f5ae19-0925-43ef-aab4-48ec58bc62b9"},"vehicle_type_id":"4","last_reported":1752819428,"current_range_meters":10000,"station_id":"","pricing_plan_id":"cebpf4jnsgd1na2vs0mg"},{"bike_id":"d1e94785-07c9-4567-977b-a1d086ccac8d","system_id":"levelo_inurba_marseille","lat":43.299001,"lon":5.436752,"is_reserved":false,"is_disabled":false,"rental_uris":{"android":"levelo://app?vid=d1e94785-07c9-4567-977b-a1d086ccac8d","ios":"levelo://app?vid=d1e94785-07c9-4567-977b-a1d086ccac8d"},"vehicle_type_id":"4","last_reported":1752819428,"current_range_meters":10800,"station_id":"ce4bhpp2rcd13ifvqhfg","pricing_plan_id":"cebpf4jnsgd1na2vs0mg"},{"bike_id":"57c10aef-3375-4a77-9864-0c2a1301425c","system_id":"levelo_inurba_marseille","lat":43.262251,"lon":5.404563,"is_reserved":false,"is_disabled":false,"rental_uris":{"android":"levelo://app?vid=57c10aef-3375-4a77-9864-0c2a1301425c","ios":"levelo://app?vid=57c10aef-3375-4a77-9864-0c2a1301425c"},"vehicle_type_id":"4","last_reported":1752819428,"current_range_meters":10800,"station_id":"ce4bhmh2rcd13ifvqgmg","pricing_plan_id":"cebpf4jnsgd1na2vs0mg"},{"bike_id":"c8ba7c1f-49fa-4cf4-9d36-d90213a277e0","system_id":"levelo_inurba_marseille","lat":43.24075,"lon":5.37752,"is_reserved":false,"is_disabled":false,"rental_uris":{"android":"levelo://app?vid=c8ba7c1f-49fa-4cf4-9d36-d90213a277e0","ios":"levelo://app?vid=c8ba7c1f-49fa-4cf4-9d36-d90213a277e0"},"vehicle_type_id":"4","last_reported":1752819428,"current_range_meters":10800,"station_id":"ce4bhnp2rcd13ifvqgvg","pricing_plan_id":"cebpf4jnsgd1na2vs0mg"},{"bike_id":"6d70d6d4-7776-4d1e-a307-46e9e54de733","system_id":"levelo_inurba_marseille","lat":43.295835,"lon":5.39951,"is_reserved":false,"is_disabled":false,"rental_uris":{"android":"levelo://app?vid=6d70d6d4-7776-4d1e-a307-46e9e54de733","ios":"levelo://app?vid=6d70d6d4-7776-4d1e-a307-46e9e54de733"},"vehicle_type_id":"4","last_reported":1752819428,"current_range_meters":10800,"station_id":"ce4bh312rcd13ifvqdj0","pricing_plan_id":"cebpf4jnsgd1na2vs0mg"},{"bike_id":"35f23052-6b6b-4b2f-a3cc-bcfb8640b2a5","system_id":"levelo_inurba_marseille","lat":43.29274,"lon":5.37638,"is_reserved":false,"is_disabled":false,"rental_uris":{"android":"levelo://app?vid=35f23052-6b6b-4b2f-a3cc-bcfb8640b2a5","ios":"levelo://app?vid=35f23052-6b6b-4b2f-a3cc-bcfb8640b2a5"},"vehicle_type_id":"4","last_reported":1752819428,"current_range_meters":10800,"station_id":"ce4bgi12rcd13ifvqb80","pricing_plan_id":"cebpf4jnsgd1na2vs0mg"},{"bike_id":"3e2535f8-7d7e-418e-8d9a-1404dd8a8196","system_id":"levelo_inurba_marseille","lat":43.293054,"lon":5.371909,"is_reserved":false,"is_disabled":true,"rental_uris":{"android":"levelo://app?vid=3e2535f8-7d7e-418e-8d9a-1404dd8a8196","ios":"levelo://app?vid=3e2535f8-7d7e-418e-8d9a-1404dd8a8196"},"vehicle_type_id":"4","last_reported":1752819428,"current_range_meters":10800,"station_id":"ce4bgh92rcd13ifvqb40","pricing_plan_id":"cebpf4jnsgd1na2vs0mg"},{"bike_id":"d02be204-a98a-4f6b-8932-241d18945b6f","system_id":"levelo_inurba_marseille","lat":43.31707,"lon":5.3773,"is_reserved":false,"is_disabled":false,"rental_uris":{"android":"levelo://app?vid=d02be204-a98a-4f6b-8932-241d18945b6f","ios":"levelo://app?vid=d02be204-a98a-4f6b-8932-241d18945b6f"},"vehicle_type_id":"4","last_reported":1752819428,"current_range_meters":10800,"station_id":"ce4bgth2rcd13ifvqch0","pricing_plan_id":"cebpf4jnsgd1na2vs0mg"},{"bike_id":"f60ad352-b67b-45ab-b596-432efa0c9111","system_id":"levelo_inurba_marseille","lat":43.27071,"lon":5.42292,"is_reserved":false,"is_disabled":true,"rental_uris":{"android":"levelo://app?vid=f60ad352-b67b-45ab-b596-432efa0c9111","ios":"levelo://app?vid=f60ad352-b67b-45ab-b596-432efa0c9111"},"vehicle_type_id":"4","last_reported":1752819428,"current_range_meters":10800,"station_id":"ce4bhk92rcd13ifvqgb0","pricing_plan_id":"cebpf4jnsgd1na2vs0mg"},{"bike_id":"78274e74-ab73-4fa7-b1a3-d1a684863996","system_id":"levelo_inurba_marseille","lat":43.22496,"lon":5.34765,"is_reserved":false,"is_disabled":false,"rental_uris":{"android":"levelo://app?vid=78274e74-ab73-4fa7-b1a3-d1a684863996","ios":"levelo://app?vid=78274e74-ab73-4fa7-b1a3-d1a684863996"},"vehicle_type_id":"4","last_reported":1752819428,"current_range_meters":10800,"station_id":"st_cvj5dfep6f1abm77gieg","pricing_plan_id":"cebpf4jnsgd1na2vs0mg"},{"bike_id":"fffad06e-bed8-4e73-ab4a-c4c2e82208b9","system_id":"levelo_inurba_marseille","lat":43.241687,"lon":5.363931,"is_reserved":false,"is_disabled":false,"rental_uris":{"android":"levelo://app?vid=fffad06e-bed8-4e73-ab4a-c4c2e82208b9","ios":"levelo://app?vid=fffad06e-bed8-4e73-ab4a-c4c2e82208b9"},"vehicle_type_id":"4","last_reported":1752819428,"current_range_meters":10800,"station_id":"cpo36qri1sfpv3e86is0","pricing_plan_id":"cebpf4jnsgd1na2vs0mg"},{"bike_id":"b861e845-045e-4bb7-9260-06d3fafca4ef","system_id":"levelo_inurba_marseille","lat":43.298953,"lon":5.436705,"is_reserved":false,"is_disabled":false,"rental_uris":{"android":"levelo://app?vid=b861e845-045e-4bb7-9260-06d3fafca4ef","ios":"levelo://app?vid=b861e845-045e-4bb7-9260-06d3fafca4ef"},"vehicle_type_id":"4","last_reported":1752819428,"current_range_meters":11200,"station_id":"ce4bhpp2rcd13ifvqhfg","pricing_plan_id":"cebpf4jnsgd1na2vs0mg"},{"bike_id":"232aa5c2-257b-4205-bf01-a071b37cd6e2","system_id":"levelo_inurba_marseille","lat":43.33718,"lon":5.39188,"is_reserved":false,"is_disabled":false,"rental_uris":{"android":"levelo://app?vid=232aa5c2-257b-4205-bf01-a071b37cd6e2","ios":"levelo://app?vid=232aa5c2-257b-4205-bf01-a071b37cd6e2"},"vehicle_type_id":"4","last_reported":1752819428,"current_range_meters":11600,"station_id":"ce4bhr92rcd13ifvqhsg","pricing_plan_id":"cebpf4jnsgd1na2vs0mg"},{"bike_id":"d688bfdb-1dcf-48f3-98f4-1c5765e6b7ae","system_id":"levelo_inurba_marseille","lat":43.240674,"lon":5.377571,"is_reserved":false,"is_disabled":false,"rental_uris":{"android":"levelo://app?vid=d688bfdb-1dcf-48f3-98f4-1c5765e6b7ae","ios":"levelo://app?vid=d688bfdb-1dcf-48f3-98f4-1c5765e6b7ae"},"vehicle_type_id":"4","last_reported":1752819428,"current_range_meters":11200,"station_id":"ce4bhnp2rcd13ifvqgvg","pricing_plan_id":"cebpf4jnsgd1na2vs0mg"},{"bike_id":"6b3b8af8-50ca-406a-9303-eb2e95f3c093","system_id":"levelo_inurba_marseille","lat":43.279474,"lon":5.410389,"is_reserved":false,"is_disabled":false,"rental_uris":{"android":"levelo://app?vid=6b3b8af8-50ca-406a-9303-eb2e95f3c093","ios":"levelo://app?vid=6b3b8af8-50ca-406a-9303-eb2e95f3c093"},"vehicle_type_id":"4","last_reported":1752819428,"current_range_meters":11200,"station_id":"ce4bhnp2rcd13ifvqh0g","pricing_plan_id":"cebpf4jnsgd1na2vs0mg"},{"bike_id":"ca9604a0-cadd-4cb6-8ad0-59945ea42660","system_id":"levelo_inurba_marseille","lat":43.302534,"lon":5.400607,"is_reserved":false,"is_disabled":false,"rental_uris":{"android":"levelo://app?vid=ca9604a0-cadd-4cb6-8ad0-59945ea42660","ios":"levelo://app?vid=ca9604a0-cadd-4cb6-8ad0-59945ea42660"},"vehicle_type_id":"4","last_reported":1752819428,"current_range_meters":11600,"station_id":"ce4bgvh2rcd13ifvqcs0","pricing_plan_id":"cebpf4jnsgd1na2vs0mg"},{"bike_id":"2c6e34ec-e4ad-4b55-908f-732bdcecdb2f","system_id":"levelo_inurba_marseille","lat":43.212013,"lon":5.350741,"is_reserved":false,"is_disabled":false,"rental_uris":{"android":"levelo://app?vid=2c6e34ec-e4ad-4b55-908f-732bdcecdb2f","ios":"levelo://app?vid=2c6e34ec-e4ad-4b55-908f-732bdcecdb2f"},"vehicle_type_id":"4","last_reported":1752819428,"current_range_meters":11600,"station_id":"st_cvj6sg6p6f1abm77japg","pricing_plan_id":"cebpf4jnsgd1na2vs0mg"},{"bike_id":"1a326e5c-9d59-478d-864d-bfd7f0c1e441","system_id":"levelo_inurba_marseille","lat":43.31225,"lon":5.36851,"is_reserved":false,"is_disabled":false,"rental_uris":{"android":"levelo://app?vid=1a326e5c-9d59-478d-864d-bfd7f0c1e441","ios":"levelo://app?vid=1a326e5c-9d59-478d-864d-bfd7f0c1e441"},"vehicle_type_id":"4","last_reported":1752819428,"current_range_meters":11600,"station_id":"ce4bgl92rcd13ifvqbq0","pricing_plan_id":"cebpf4jnsgd1na2vs0mg"},{"bike_id":"0698bc0a-1356-460f-8b6d-fca0137a6217","system_id":"levelo_inurba_marseille","lat":43.211908,"lon":5.350733,"is_reserved":false,"is_disabled":false,"rental_uris":{"android":"levelo://app?vid=0698bc0a-1356-460f-8b6d-fca0137a6217","ios":"levelo://app?vid=0698bc0a-1356-460f-8b6d-fca0137a6217"},"vehicle_type_id":"4","last_reported":1752819428,"current_range_meters":11600,"station_id":"st_cvj6sg6p6f1abm77japg","pricing_plan_id":"cebpf4jnsgd1na2vs0mg"},{"bike_id":"ba3823fb-c6a3-4066-b41a-411ec979f129","system_id":"levelo_inurba_marseille","lat":43.323344,"lon":5.406226,"is_reserved":false,"is_disabled":false,"rental_uris":{"android":"levelo://app?vid=ba3823fb-c6a3-4066-b41a-411ec979f129","ios":"levelo://app?vid=ba3823fb-c6a3-4066-b41a-411ec979f129"},"vehicle_type_id":"4","last_reported":1752819428,"current_range_meters":11600,"station_id":"ce4bhq92rcd13ifvqhjg","pricing_plan_id":"cebpf4jnsgd1na2vs0mg"},{"bike_id":"0eb328fc-7155-45df-a8a3-5fbcd6cf1b49","system_id":"levelo_inurba_marseille","lat":43.26236,"lon":5.40447,"is_reserved":false,"is_disabled":false,"rental_uris":{"android":"levelo://app?vid=0eb328fc-7155-45df-a8a3-5fbcd6cf1b49","ios":"levelo://app?vid=0eb328fc-7155-45df-a8a3-5fbcd6cf1b49"},"vehicle_type_id":"4","last_reported":1752819428,"current_range_meters":11600,"station_id":"ce4bhmh2rcd13ifvqgmg","pricing_plan_id":"cebpf4jnsgd1na2vs0mg"},{"bike_id":"c4a884fa-f392-4687-844a-0b862b12dbc5","system_id":"levelo_inurba_marseille","lat":43.246514,"lon":5.388935,"is_reserved":false,"is_disabled":false,"rental_uris":{"android":"levelo://app?vid=c4a884fa-f392-4687-844a-0b862b12dbc5","ios":"levelo://app?vid=c4a884fa-f392-4687-844a-0b862b12dbc5"},"vehicle_type_id":"4","last_reported":1752819428,"current_range_meters":12000,"station_id":"ce4bhg12rcd13ifvqf60","pricing_plan_id":"cebpf4jnsgd1na2vs0mg"},{"bike_id":"630e276c-c1f0-4d68-9d66-dc970d8081c8","system_id":"levelo_inurba_marseille","lat":43.28415,"lon":5.34974,"is_reserved":false,"is_disabled":false,"rental_uris":{"android":"levelo://app?vid=630e276c-c1f0-4d68-9d66-dc970d8081c8","ios":"levelo://app?vid=630e276c-c1f0-4d68-9d66-dc970d8081c8"},"vehicle_type_id":"4","last_reported":1752819428,"current_range_meters":12000,"station_id":"ce4bhbh2rcd13ifvqepg","pricing_plan_id":"cebpf4jnsgd1na2vs0mg"},{"bike_id":"8b7a97f8-d02c-44f3-9876-9ca62ee11cbb","system_id":"levelo_inurba_marseille","lat":43.27189,"lon":5.40987,"is_reserved":false,"is_disabled":false,"rental_uris":{"android":"levelo://app?vid=8b7a97f8-d02c-44f3-9876-9ca62ee11cbb","ios":"levelo://app?vid=8b7a97f8-d02c-44f3-9876-9ca62ee11cbb"},"vehicle_type_id":"4","last_reported":1752819428,"current_range_meters":12000,"station_id":"ce4bhl12rcd13ifvqgf0","pricing_plan_id":"cebpf4jnsgd1na2vs0mg"},{"bike_id":"2ac93549-5c94-4228-8eea-782a21384d10","system_id":"levelo_inurba_marseille","lat":43.29634,"lon":5.37793,"is_reserved":false,"is_disabled":false,"rental_uris":{"android":"levelo://app?vid=2ac93549-5c94-4228-8eea-782a21384d10","ios":"levelo://app?vid=2ac93549-5c94-4228-8eea-782a21384d10"},"vehicle_type_id":"4","last_reported":1752819428,"current_range_meters":12000,"station_id":"","pricing_plan_id":"cebpf4jnsgd1na2vs0mg"},{"bike_id":"5c2c3db6-3940-44f5-b26f-2ea3c60b6226","system_id":"levelo_inurba_marseille","lat":43.29427,"lon":5.386085,"is_reserved":false,"is_disabled":false,"rental_uris":{"android":"levelo://app?vid=5c2c3db6-3940-44f5-b26f-2ea3c60b6226","ios":"levelo://app?vid=5c2c3db6-3940-44f5-b26f-2ea3c60b6226"},"vehicle_type_id":"4","last_reported":1752819428,"current_range_meters":12000,"station_id":"ce4bh2h2rcd13ifvqdh0","pricing_plan_id":"cebpf4jnsgd1na2vs0mg"},{"bike_id":"09c5b9c5-b5f7-40b8-b50b-8886dbc6f8de","system_id":"levelo_inurba_marseille","lat":43.25085,"lon":5.40294,"is_reserved":false,"is_disabled":true,"rental_uris":{"android":"levelo://app?vid=09c5b9c5-b5f7-40b8-b50b-8886dbc6f8de","ios":"levelo://app?vid=09c5b9c5-b5f7-40b8-b50b-8886dbc6f8de"},"vehicle_type_id":"4","last_reported":1752819428,"current_range_meters":12000,"station_id":"ce4bhlh2rcd13ifvqgig","pricing_plan_id":"cebpf4jnsgd1na2vs0mg"},{"bike_id":"a317db79-8de3-4840-bb2f-bf20752c48a2","system_id":"levelo_inurba_marseille","lat":43.30318,"lon":5.40442,"is_reserved":false,"is_disabled":false,"rental_uris":{"android":"levelo://app?vid=a317db79-8de3-4840-bb2f-bf20752c48a2","ios":"levelo://app?vid=a317db79-8de3-4840-bb2f-bf20752c48a2"},"vehicle_type_id":"4","last_reported":1752819428,"current_range_meters":12400,"station_id":"ce4bh012rcd13ifvqd10","pricing_plan_id":"cebpf4jnsgd1na2vs0mg"},{"bike_id":"ae28ea44-06e0-468d-b104-f45ecdf62a40","system_id":"levelo_inurba_marseille","lat":43.23196,"lon":5.35551,"is_reserved":false,"is_disabled":false,"rental_uris":{"android":"levelo://app?vid=ae28ea44-06e0-468d-b104-f45ecdf62a40","ios":"levelo://app?vid=ae28ea44-06e0-468d-b104-f45ecdf62a40"},"vehicle_type_id":"4","last_reported":1752819428,"current_range_meters":12400,"station_id":"ce4bhu92rcd13ifvqi70","pricing_plan_id":"cebpf4jnsgd1na2vs0mg"},{"bike_id":"9c837b99-081f-4caa-a8a3-7d6dc61e9d18","system_id":"levelo_inurba_marseille","lat":43.23062,"lon":5.35489,"is_reserved":false,"is_disabled":false,"rental_uris":{"android":"levelo://app?vid=9c837b99-081f-4caa-a8a3-7d6dc61e9d18","ios":"levelo://app?vid=9c837b99-081f-4caa-a8a3-7d6dc61e9d18"},"vehicle_type_id":"4","last_reported":1752819428,"current_range_meters":12400,"station_id":"cpo3342slgdg3j2ifvpg","pricing_plan_id":"cebpf4jnsgd1na2vs0mg"},{"bike_id":"da891840-0cec-4ccc-961c-48903736c6fa","system_id":"levelo_inurba_marseille","lat":43.31139,"lon":5.37692,"is_reserved":false,"is_disabled":false,"rental_uris":{"android":"levelo://app?vid=da891840-0cec-4ccc-961c-48903736c6fa","ios":"levelo://app?vid=da891840-0cec-4ccc-961c-48903736c6fa"},"vehicle_type_id":"4","last_reported":1752819428,"current_range_meters":12400,"station_id":"","pricing_plan_id":"cebpf4jnsgd1na2vs0mg"},{"bike_id":"d0573d96-ddb4-4622-bd15-49483cac3810","system_id":"levelo_inurba_marseille","lat":43.25856,"lon":5.3996,"is_reserved":false,"is_disabled":true,"rental_uris":{"android":"levelo://app?vid=d0573d96-ddb4-4622-bd15-49483cac3810","ios":"levelo://app?vid=d0573d96-ddb4-4622-bd15-49483cac3810"},"vehicle_type_id":"4","last_reported":1752819428,"current_range_meters":12400,"station_id":"ce4bhl92rcd13ifvqghg","pricing_plan_id":"cebpf4jnsgd1na2vs0mg"},{"bike_id":"fd213dc5-468f-46fe-a48a-37ece95b9dec","system_id":"levelo_inurba_marseille","lat":43.292617,"lon":5.408979,"is_reserved":false,"is_disabled":false,"rental_uris":{"android":"levelo://app?vid=fd213dc5-468f-46fe-a48a-37ece95b9dec","ios":"levelo://app?vid=fd213dc5-468f-46fe-a48a-37ece95b9dec"},"vehicle_type_id":"4","last_reported":1752819428,"current_range_meters":12400,"station_id":"ce4bh192rcd13ifvqdc0","pricing_plan_id":"cebpf4jnsgd1na2vs0mg"},{"bike_id":"c674aab0-0a86-4343-b6ed-b8d8892c6874","system_id":"levelo_inurba_marseille","lat":43.2419,"lon":5.39702,"is_reserved":false,"is_disabled":false,"rental_uris":{"android":"levelo://app?vid=c674aab0-0a86-4343-b6ed-b8d8892c6874","ios":"levelo://app?vid=c674aab0-0a86-4343-b6ed-b8d8892c6874"},"vehicle_type_id":"4","last_reported":1752819428,"current_range_meters":12400,"station_id":"ce4bhn12rcd13ifvqgpg","pricing_plan_id":"cebpf4jnsgd1na2vs0mg"},{"bike_id":"e555b545-304c-4dce-8496-1643c0f2600e","system_id":"levelo_inurba_marseille","lat":43.337444,"lon":5.374475,"is_reserved":false,"is_disabled":false,"rental_uris":{"android":"levelo://app?vid=e555b545-304c-4dce-8496-1643c0f2600e","ios":"levelo://app?vid=e555b545-304c-4dce-8496-1643c0f2600e"},"vehicle_type_id":"4","last_reported":1752819428,"current_range_meters":12400,"station_id":"","pricing_plan_id":"cebpf4jnsgd1na2vs0mg"},{"bike_id":"aae6b6c2-435c-44bc-92e8-386ba737ce76","system_id":"levelo_inurba_marseille","lat":43.31142,"lon":5.40368,"is_reserved":false,"is_disabled":false,"rental_uris":{"android":"levelo://app?vid=aae6b6c2-435c-44bc-92e8-386ba737ce76","ios":"levelo://app?vid=aae6b6c2-435c-44bc-92e8-386ba737ce76"},"vehicle_type_id":"4","last_reported":1752819428,"current_range_meters":12400,"station_id":"","pricing_plan_id":"cebpf4jnsgd1na2vs0mg"},{"bike_id":"531dca68-8617-41b0-a6cd-abffc94e1d45","system_id":"levelo_inurba_marseille","lat":43.312073,"lon":5.373208,"is_reserved":false,"is_disabled":false,"rental_uris":{"android":"levelo://app?vid=531dca68-8617-41b0-a6cd-abffc94e1d45","ios":"levelo://app?vid=531dca68-8617-41b0-a6cd-abffc94e1d45"},"vehicle_type_id":"4","last_reported":1752819428,"current_range_meters":12400,"station_id":"","pricing_plan_id":"cebpf4jnsgd1na2vs0mg"},{"bike_id":"c2335717-a71f-4bf5-b07e-82e31094f775","system_id":"levelo_inurba_marseille","lat":43.28416,"lon":5.3752,"is_reserved":false,"is_disabled":false,"rental_uris":{"android":"levelo://app?vid=c2335717-a71f-4bf5-b07e-82e31094f775","ios":"levelo://app?vid=c2335717-a71f-4bf5-b07e-82e31094f775"},"vehicle_type_id":"4","last_reported":1752819428,"current_range_meters":12400,"station_id":"ce4bh412rcd13ifvqds0","pricing_plan_id":"cebpf4jnsgd1na2vs0mg"},{"bike_id":"6be86623-c65c-4a0d-b3a4-c58891bfa931","system_id":"levelo_inurba_marseille","lat":43.22501,"lon":5.34772,"is_reserved":false,"is_disabled":false,"rental_uris":{"android":"levelo://app?vid=6be86623-c65c-4a0d-b3a4-c58891bfa931","ios":"levelo://app?vid=6be86623-c65c-4a0d-b3a4-c58891bfa931"},"vehicle_type_id":"4","last_reported":1752819428,"current_range_meters":12800,"station_id":"st_cvj5dfep6f1abm77gieg","pricing_plan_id":"cebpf4jnsgd1na2vs0mg"},{"bike_id":"dfef3fa2-f761-4b92-8905-7e3cb4d78849","system_id":"levelo_inurba_marseille","lat":43.292514,"lon":5.409124,"is_reserved":false,"is_disabled":false,"rental_uris":{"android":"levelo://app?vid=dfef3fa2-f761-4b92-8905-7e3cb4d78849","ios":"levelo://app?vid=dfef3fa2-f761-4b92-8905-7e3cb4d78849"},"vehicle_type_id":"4","last_reported":1752819428,"current_range_meters":12800,"station_id":"ce4bh192rcd13ifvqdc0","pricing_plan_id":"cebpf4jnsgd1na2vs0mg"},{"bike_id":"b77ccfc6-970a-4c6a-8818-872455eb83d8","system_id":"levelo_inurba_marseille","lat":43.31691,"lon":5.40465,"is_reserved":false,"is_disabled":false,"rental_uris":{"android":"levelo://app?vid=b77ccfc6-970a-4c6a-8818-872455eb83d8","ios":"levelo://app?vid=b77ccfc6-970a-4c6a-8818-872455eb83d8"},"vehicle_type_id":"4","last_reported":1752819428,"current_range_meters":12800,"station_id":"ce4bh012rcd13ifvqd00","pricing_plan_id":"cebpf4jnsgd1na2vs0mg"},{"bike_id":"b9c220fa-ce21-46e5-9c5b-52d91725030b","system_id":"levelo_inurba_marseille","lat":43.22932,"lon":5.35372,"is_reserved":false,"is_disabled":false,"rental_uris":{"android":"levelo://app?vid=b9c220fa-ce21-46e5-9c5b-52d91725030b","ios":"levelo://app?vid=b9c220fa-ce21-46e5-9c5b-52d91725030b"},"vehicle_type_id":"4","last_reported":1752819428,"current_range_meters":12800,"station_id":"cpo3532slgdg3j2ikp40","pricing_plan_id":"cebpf4jnsgd1na2vs0mg"},{"bike_id":"31695fe3-ba1a-451d-a7a2-e6e81aefdddc","system_id":"levelo_inurba_marseille","lat":43.28636,"lon":5.35101,"is_reserved":false,"is_disabled":true,"rental_uris":{"android":"levelo://app?vid=31695fe3-ba1a-451d-a7a2-e6e81aefdddc","ios":"levelo://app?vid=31695fe3-ba1a-451d-a7a2-e6e81aefdddc"},"vehicle_type_id":"4","last_reported":1752819428,"current_range_meters":12800,"station_id":"ce4bhch2rcd13ifvqeug","pricing_plan_id":"cebpf4jnsgd1na2vs0mg"},{"bike_id":"168a7671-aba6-4148-ba70-c792dfe2e642","system_id":"levelo_inurba_marseille","lat":43.21175,"lon":5.35069,"is_reserved":false,"is_disabled":false,"rental_uris":{"android":"levelo://app?vid=168a7671-aba6-4148-ba70-c792dfe2e642","ios":"levelo://app?vid=168a7671-aba6-4148-ba70-c792dfe2e642"},"vehicle_type_id":"4","last_reported":1752819428,"current_range_meters":12800,"station_id":"st_cvj6sg6p6f1abm77japg","pricing_plan_id":"cebpf4jnsgd1na2vs0mg"},{"bike_id":"2272a1cb-30d4-47dd-bed5-39b01483f853","system_id":"levelo_inurba_marseille","lat":43.229455,"lon":5.353659,"is_reserved":false,"is_disabled":false,"rental_uris":{"android":"levelo://app?vid=2272a1cb-30d4-47dd-bed5-39b01483f853","ios":"levelo://app?vid=2272a1cb-30d4-47dd-bed5-39b01483f853"},"vehicle_type_id":"4","last_reported":1752819428,"current_range_meters":12800,"station_id":"cpo3532slgdg3j2ikp40","pricing_plan_id":"cebpf4jnsgd1na2vs0mg"},{"bike_id":"2819abb2-c895-4686-a4c8-192e5cb6704b","system_id":"levelo_inurba_marseille","lat":43.3266,"lon":5.40991,"is_reserved":false,"is_disabled":false,"rental_uris":{"android":"levelo://app?vid=2819abb2-c895-4686-a4c8-192e5cb6704b","ios":"levelo://app?vid=2819abb2-c895-4686-a4c8-192e5cb6704b"},"vehicle_type_id":"4","last_reported":1752819428,"current_range_meters":12800,"station_id":"ce4bhpp2rcd13ifvqhgg","pricing_plan_id":"cebpf4jnsgd1na2vs0mg"},{"bike_id":"0d87ca24-976c-4967-995f-815e40a697aa","system_id":"levelo_inurba_marseille","lat":43.3212,"lon":5.36797,"is_reserved":false,"is_disabled":false,"rental_uris":{"android":"levelo://app?vid=0d87ca24-976c-4967-995f-815e40a697aa","ios":"levelo://app?vid=0d87ca24-976c-4967-995f-815e40a697aa"},"vehicle_type_id":"4","last_reported":1752819428,"current_range_meters":13600,"station_id":"ce4bhrh2rcd13ifvqhug","pricing_plan_id":"cebpf4jnsgd1na2vs0mg"},{"bike_id":"4c0ea010-fab1-4680-b798-1d8aad58bcd3","system_id":"levelo_inurba_marseille","lat":43.27202,"lon":5.4104,"is_reserved":false,"is_disabled":false,"rental_uris":{"android":"levelo://app?vid=4c0ea010-fab1-4680-b798-1d8aad58bcd3","ios":"levelo://app?vid=4c0ea010-fab1-4680-b798-1d8aad58bcd3"},"vehicle_type_id":"4","last_reported":1752819428,"current_range_meters":13600,"station_id":"ce4bhl12rcd13ifvqgf0","pricing_plan_id":"cebpf4jnsgd1na2vs0mg"},{"bike_id":"e54582ed-ba92-4640-a97f-9e97144ce87f","system_id":"levelo_inurba_marseille","lat":43.32268,"lon":5.40656,"is_reserved":false,"is_disabled":false,"rental_uris":{"android":"levelo://app?vid=e54582ed-ba92-4640-a97f-9e97144ce87f","ios":"levelo://app?vid=e54582ed-ba92-4640-a97f-9e97144ce87f"},"vehicle_type_id":"4","last_reported":1752819428,"current_range_meters":13600,"station_id":"","pricing_plan_id":"cebpf4jnsgd1na2vs0mg"},{"bike_id":"9e4abb97-e380-41ad-a9cd-7b2e7b64f3c5","system_id":"levelo_inurba_marseille","lat":43.291689,"lon":5.398241,"is_reserved":false,"is_disabled":false,"rental_uris":{"android":"levelo://app?vid=9e4abb97-e380-41ad-a9cd-7b2e7b64f3c5","ios":"levelo://app?vid=9e4abb97-e380-41ad-a9cd-7b2e7b64f3c5"},"vehicle_type_id":"4","last_reported":1752819428,"current_range_meters":13600,"station_id":"","pricing_plan_id":"cebpf4jnsgd1na2vs0mg"},{"bike_id":"7a6aca03-37b0-40ef-9d9a-27893d501471","system_id":"levelo_inurba_marseille","lat":43.2503,"lon":5.38937,"is_reserved":false,"is_disabled":false,"rental_uris":{"android":"levelo://app?vid=7a6aca03-37b0-40ef-9d9a-27893d501471","ios":"levelo://app?vid=7a6aca03-37b0-40ef-9d9a-27893d501471"},"vehicle_type_id":"4","last_reported":1752819428,"current_range_meters":13600,"station_id":"ce4bhgp2rcd13ifvqfd0","pricing_plan_id":"cebpf4jnsgd1na2vs0mg"},{"bike_id":"93064a8f-6df9-4f93-85e3-ab80e6e91177","system_id":"levelo_inurba_marseille","lat":43.262375,"lon":5.404486,"is_reserved":false,"is_disabled":false,"rental_uris":{"android":"levelo://app?vid=93064a8f-6df9-4f93-85e3-ab80e6e91177","ios":"levelo://app?vid=93064a8f-6df9-4f93-85e3-ab80e6e91177"},"vehicle_type_id":"4","last_reported":1752819428,"current_range_meters":14000,"station_id":"ce4bhmh2rcd13ifvqgmg","pricing_plan_id":"cebpf4jnsgd1na2vs0mg"},{"bike_id":"084eace8-045f-4012-9455-c501cad7ce10","system_id":"levelo_inurba_marseille","lat":43.225044,"lon":5.347735,"is_reserved":false,"is_disabled":false,"rental_uris":{"android":"levelo://app?vid=084eace8-045f-4012-9455-c501cad7ce10","ios":"levelo://app?vid=084eace8-045f-4012-9455-c501cad7ce10"},"vehicle_type_id":"4","last_reported":1752819428,"current_range_meters":14000,"station_id":"st_cvj5dfep6f1abm77gieg","pricing_plan_id":"cebpf4jnsgd1na2vs0mg"},{"bike_id":"321fd4e3-65b8-4d22-a4a9-5d46ae1081de","system_id":"levelo_inurba_marseille","lat":43.29802,"lon":5.37424,"is_reserved":false,"is_disabled":false,"rental_uris":{"android":"levelo://app?vid=321fd4e3-65b8-4d22-a4a9-5d46ae1081de","ios":"levelo://app?vid=321fd4e3-65b8-4d22-a4a9-5d46ae1081de"},"vehicle_type_id":"4","last_reported":1752819428,"current_range_meters":14000,"station_id":"ce4bgjh2rcd13ifvqbg0","pricing_plan_id":"cebpf4jnsgd1na2vs0mg"},{"bike_id":"7d3c03a2-207b-4ac4-a008-29cefc053288","system_id":"levelo_inurba_marseille","lat":43.299803,"lon":5.384921,"is_reserved":false,"is_disabled":false,"rental_uris":{"android":"levelo://app?vid=7d3c03a2-207b-4ac4-a008-29cefc053288","ios":"levelo://app?vid=7d3c03a2-207b-4ac4-a008-29cefc053288"},"vehicle_type_id":"4","last_reported":1752819428,"current_range_meters":14000,"station_id":"ce4bgj92rcd13ifvqbd0","pricing_plan_id":"cebpf4jnsgd1na2vs0mg"},{"bike_id":"9b7a5c76-646b-47e4-9aaf-9e0ac1e776a5","system_id":"levelo_inurba_marseille","lat":43.2694,"lon":5.4025,"is_reserved":false,"is_disabled":false,"rental_uris":{"android":"levelo://app?vid=9b7a5c76-646b-47e4-9aaf-9e0ac1e776a5","ios":"levelo://app?vid=9b7a5c76-646b-47e4-9aaf-9e0ac1e776a5"},"vehicle_type_id":"4","last_reported":1752819428,"current_range_meters":14400,"station_id":"cjm6bp8fraef2m0cb0m0","pricing_plan_id":"cebpf4jnsgd1na2vs0mg"},{"bike_id":"409515f8-3415-426d-b0c7-61f840c7c187","system_id":"levelo_inurba_marseille","lat":43.22498,"lon":5.3478,"is_reserved":false,"is_disabled":false,"rental_uris":{"android":"levelo://app?vid=409515f8-3415-426d-b0c7-61f840c7c187","ios":"levelo://app?vid=409515f8-3415-426d-b0c7-61f840c7c187"},"vehicle_type_id":"4","last_reported":1752819428,"current_range_meters":14000,"station_id":"st_cvj5dfep6f1abm77gieg","pricing_plan_id":"cebpf4jnsgd1na2vs0mg"},{"bike_id":"243d5e52-71ae-4400-a272-be2828048f58","system_id":"levelo_inurba_marseille","lat":43.29267,"lon":5.40136,"is_reserved":false,"is_disabled":false,"rental_uris":{"android":"levelo://app?vid=243d5e52-71ae-4400-a272-be2828048f58","ios":"levelo://app?vid=243d5e52-71ae-4400-a272-be2828048f58"},"vehicle_type_id":"4","last_reported":1752819428,"current_range_meters":14000,"station_id":"ce4bh312rcd13ifvqdk0","pricing_plan_id":"cebpf4jnsgd1na2vs0mg"},{"bike_id":"2eddec5a-cb55-4ace-9774-1833d967cd18","system_id":"levelo_inurba_marseille","lat":43.2904,"lon":5.38113,"is_reserved":false,"is_disabled":false,"rental_uris":{"android":"levelo://app?vid=2eddec5a-cb55-4ace-9774-1833d967cd18","ios":"levelo://app?vid=2eddec5a-cb55-4ace-9774-1833d967cd18"},"vehicle_type_id":"4","last_reported":1752819428,"current_range_meters":14000,"station_id":"","pricing_plan_id":"cebpf4jnsgd1na2vs0mg"},{"bike_id":"d01966a7-5e23-40f7-8323-4d6534e79969","system_id":"levelo_inurba_marseille","lat":43.22938,"lon":5.35383,"is_reserved":false,"is_disabled":false,"rental_uris":{"android":"levelo://app?vid=d01966a7-5e23-40f7-8323-4d6534e79969","ios":"levelo://app?vid=d01966a7-5e23-40f7-8323-4d6534e79969"},"vehicle_type_id":"4","last_reported":1752819428,"current_range_meters":14400,"station_id":"cpo3532slgdg3j2ikp40","pricing_plan_id":"cebpf4jnsgd1na2vs0mg"},{"bike_id":"08ce6a10-5e93-48a8-8222-dca9bb1b4189","system_id":"levelo_inurba_marseille","lat":43.29691,"lon":5.3728,"is_reserved":false,"is_disabled":false,"rental_uris":{"android":"levelo://app?vid=08ce6a10-5e93-48a8-8222-dca9bb1b4189","ios":"levelo://app?vid=08ce6a10-5e93-48a8-8222-dca9bb1b4189"},"vehicle_type_id":"4","last_reported":1752819428,"current_range_meters":14400,"station_id":"ce4bgk12rcd13ifvqbj0","pricing_plan_id":"cebpf4jnsgd1na2vs0mg"},{"bike_id":"ead09c4a-6226-4ee7-b4b0-321133093605","system_id":"levelo_inurba_marseille","lat":43.26562,"lon":5.39022,"is_reserved":false,"is_disabled":false,"rental_uris":{"android":"levelo://app?vid=ead09c4a-6226-4ee7-b4b0-321133093605","ios":"levelo://app?vid=ead09c4a-6226-4ee7-b4b0-321133093605"},"vehicle_type_id":"4","last_reported":1752819428,"current_range_meters":14400,"station_id":"ce4bhe12rcd13ifvqf30","pricing_plan_id":"cebpf4jnsgd1na2vs0mg"},{"bike_id":"defbc65a-15d5-4b49-857f-4a84140a51ad","system_id":"levelo_inurba_marseille","lat":43.303701,"lon":5.424903,"is_reserved":false,"is_disabled":false,"rental_uris":{"android":"levelo://app?vid=defbc65a-15d5-4b49-857f-4a84140a51ad","ios":"levelo://app?vid=defbc65a-15d5-4b49-857f-4a84140a51ad"},"vehicle_type_id":"4","last_reported":1752819428,"current_range_meters":14800,"station_id":"ce4bhoh2rcd13ifvqh6g","pricing_plan_id":"cebpf4jnsgd1na2vs0mg"},{"bike_id":"1d94feba-c90e-4d75-9f8d-9ea4bb03490e","system_id":"levelo_inurba_marseille","lat":43.290989,"lon":5.381609,"is_reserved":false,"is_disabled":true,"rental_uris":{"android":"levelo://app?vid=1d94feba-c90e-4d75-9f8d-9ea4bb03490e","ios":"levelo://app?vid=1d94feba-c90e-4d75-9f8d-9ea4bb03490e"},"vehicle_type_id":"4","last_reported":1752819428,"current_range_meters":14800,"station_id":"ce4bh512rcd13ifvqe2g","pricing_plan_id":"cebpf4jnsgd1na2vs0mg"},{"bike_id":"b1411f20-9712-40f9-a9cc-407b4e40f865","system_id":"levelo_inurba_marseille","lat":43.26818,"lon":5.41499,"is_reserved":false,"is_disabled":false,"rental_uris":{"android":"levelo://app?vid=b1411f20-9712-40f9-a9cc-407b4e40f865","ios":"levelo://app?vid=b1411f20-9712-40f9-a9cc-407b4e40f865"},"vehicle_type_id":"4","last_reported":1752819428,"current_range_meters":14800,"station_id":"","pricing_plan_id":"cebpf4jnsgd1na2vs0mg"},{"bike_id":"008d9fa4-24c0-40e3-afc2-6e09b4bdbf02","system_id":"levelo_inurba_marseille","lat":43.30644,"lon":5.40036,"is_reserved":false,"is_disabled":false,"rental_uris":{"android":"levelo://app?vid=008d9fa4-24c0-40e3-afc2-6e09b4bdbf02","ios":"levelo://app?vid=008d9fa4-24c0-40e3-afc2-6e09b4bdbf02"},"vehicle_type_id":"4","last_reported":1752819428,"current_range_meters":14800,"station_id":"","pricing_plan_id":"cebpf4jnsgd1na2vs0mg"},{"bike_id":"5b4e5f0f-cac3-450a-9463-e6a77e2c277e","system_id":"levelo_inurba_marseille","lat":43.246423,"lon":5.388921,"is_reserved":false,"is_disabled":true,"rental_uris":{"android":"levelo://app?vid=5b4e5f0f-cac3-450a-9463-e6a77e2c277e","ios":"levelo://app?vid=5b4e5f0f-cac3-450a-9463-e6a77e2c277e"},"vehicle_type_id":"4","last_reported":1752819428,"current_range_meters":14800,"station_id":"ce4bhg12rcd13ifvqf60","pricing_plan_id":"cebpf4jnsgd1na2vs0mg"},{"bike_id":"00cb9e03-8028-497f-8c29-77cd4bf2e8d6","system_id":"levelo_inurba_marseille","lat":43.28632,"lon":5.35075,"is_reserved":false,"is_disabled":false,"rental_uris":{"android":"levelo://app?vid=00cb9e03-8028-497f-8c29-77cd4bf2e8d6","ios":"levelo://app?vid=00cb9e03-8028-497f-8c29-77cd4bf2e8d6"},"vehicle_type_id":"4","last_reported":1752819428,"current_range_meters":14800,"station_id":"ce4bhch2rcd13ifvqeug","pricing_plan_id":"cebpf4jnsgd1na2vs0mg"},{"bike_id":"00ecada3-8577-4c51-98e2-f760bc2bb718","system_id":"levelo_inurba_marseille","lat":43.29432,"lon":5.43214,"is_reserved":false,"is_disabled":false,"rental_uris":{"android":"levelo://app?vid=00ecada3-8577-4c51-98e2-f760bc2bb718","ios":"levelo://app?vid=00ecada3-8577-4c51-98e2-f760bc2bb718"},"vehicle_type_id":"4","last_reported":1752819428,"current_range_meters":14800,"station_id":"","pricing_plan_id":"cebpf4jnsgd1na2vs0mg"},{"bike_id":"fa547442-e410-4868-83ea-de2cfacec7b4","system_id":"levelo_inurba_marseille","lat":43.29034,"lon":5.35915,"is_reserved":false,"is_disabled":false,"rental_uris":{"android":"levelo://app?vid=fa547442-e410-4868-83ea-de2cfacec7b4","ios":"levelo://app?vid=fa547442-e410-4868-83ea-de2cfacec7b4"},"vehicle_type_id":"4","last_reported":1752819428,"current_range_meters":14800,"station_id":"ce4bha92rcd13ifvqeg0","pricing_plan_id":"cebpf4jnsgd1na2vs0mg"},{"bike_id":"c6db0f6a-96fe-4e1d-8ded-c2ef38c9bab4","system_id":"levelo_inurba_marseille","lat":43.304183,"lon":5.412838,"is_reserved":false,"is_disabled":true,"rental_uris":{"android":"levelo://app?vid=c6db0f6a-96fe-4e1d-8ded-c2ef38c9bab4","ios":"levelo://app?vid=c6db0f6a-96fe-4e1d-8ded-c2ef38c9bab4"},"vehicle_type_id":"4","last_reported":1752819428,"current_range_meters":15200,"station_id":"ce4bhop2rcd13ifvqh8g","pricing_plan_id":"cebpf4jnsgd1na2vs0mg"},{"bike_id":"1850f743-29e7-4f13-84cd-ff716c167093","system_id":"levelo_inurba_marseille","lat":43.29357,"lon":5.37839,"is_reserved":false,"is_disabled":false,"rental_uris":{"android":"levelo://app?vid=1850f743-29e7-4f13-84cd-ff716c167093","ios":"levelo://app?vid=1850f743-29e7-4f13-84cd-ff716c167093"},"vehicle_type_id":"4","last_reported":1752819428,"current_range_meters":15200,"station_id":"ce4bgjh2rcd13ifvqbf0","pricing_plan_id":"cebpf4jnsgd1na2vs0mg"},{"bike_id":"a092d05c-8017-44f5-ba8a-35792463d6a3","system_id":"levelo_inurba_marseille","lat":43.22501,"lon":5.34799,"is_reserved":false,"is_disabled":false,"rental_uris":{"android":"levelo://app?vid=a092d05c-8017-44f5-ba8a-35792463d6a3","ios":"levelo://app?vid=a092d05c-8017-44f5-ba8a-35792463d6a3"},"vehicle_type_id":"4","last_reported":1752819428,"current_range_meters":15200,"station_id":"st_cvj5dfep6f1abm77gieg","pricing_plan_id":"cebpf4jnsgd1na2vs0mg"},{"bike_id":"ed822664-f978-4865-b4d3-8b7323601ddf","system_id":"levelo_inurba_marseille","lat":43.29788,"lon":5.39349,"is_reserved":false,"is_disabled":true,"rental_uris":{"android":"levelo://app?vid=ed822664-f978-4865-b4d3-8b7323601ddf","ios":"levelo://app?vid=ed822664-f978-4865-b4d3-8b7323601ddf"},"vehicle_type_id":"4","last_reported":1752819428,"current_range_meters":15200,"station_id":"chh1huq6cuj3fo74tm60","pricing_plan_id":"cebpf4jnsgd1na2vs0mg"},{"bike_id":"dba9ad02-c391-4468-bc6b-ecee0a550373","system_id":"levelo_inurba_marseille","lat":43.271854,"lon":5.362776,"is_reserved":false,"is_disabled":false,"rental_uris":{"android":"levelo://app?vid=dba9ad02-c391-4468-bc6b-ecee0a550373","ios":"levelo://app?vid=dba9ad02-c391-4468-bc6b-ecee0a550373"},"vehicle_type_id":"4","last_reported":1752819428,"current_range_meters":15200,"station_id":"","pricing_plan_id":"cebpf4jnsgd1na2vs0mg"},{"bike_id":"4600b47a-0ab2-4d9a-b00a-1957f82b8f99","system_id":"levelo_inurba_marseille","lat":43.27565,"lon":5.38421,"is_reserved":false,"is_disabled":true,"rental_uris":{"android":"levelo://app?vid=4600b47a-0ab2-4d9a-b00a-1957f82b8f99","ios":"levelo://app?vid=4600b47a-0ab2-4d9a-b00a-1957f82b8f99"},"vehicle_type_id":"4","last_reported":1752819428,"current_range_meters":15200,"station_id":"ce4bhh92rcd13ifvqfi0","pricing_plan_id":"cebpf4jnsgd1na2vs0mg"},{"bike_id":"297914b4-f29d-4efa-a16f-6b7800ec2454","system_id":"levelo_inurba_marseille","lat":43.290233,"lon":5.371766,"is_reserved":false,"is_disabled":false,"rental_uris":{"android":"levelo://app?vid=297914b4-f29d-4efa-a16f-6b7800ec2454","ios":"levelo://app?vid=297914b4-f29d-4efa-a16f-6b7800ec2454"},"vehicle_type_id":"4","last_reported":1752819428,"current_range_meters":15200,"station_id":"","pricing_plan_id":"cebpf4jnsgd1na2vs0mg"},{"bike_id":"be60c88c-1453-4626-be80-200258f79626","system_id":"levelo_inurba_marseille","lat":43.231934,"lon":5.355506,"is_reserved":false,"is_disabled":false,"rental_uris":{"android":"levelo://app?vid=be60c88c-1453-4626-be80-200258f79626","ios":"levelo://app?vid=be60c88c-1453-4626-be80-200258f79626"},"vehicle_type_id":"4","last_reported":1752819428,"current_range_meters":15200,"station_id":"ce4bhu92rcd13ifvqi70","pricing_plan_id":"cebpf4jnsgd1na2vs0mg"},{"bike_id":"5dda7472-9949-46fe-b9fa-ab272459a5d6","system_id":"levelo_inurba_marseille","lat":43.32351,"lon":5.36762,"is_reserved":false,"is_disabled":false,"rental_uris":{"android":"levelo://app?vid=5dda7472-9949-46fe-b9fa-ab272459a5d6","ios":"levelo://app?vid=5dda7472-9949-46fe-b9fa-ab272459a5d6"},"vehicle_type_id":"4","last_reported":1752819428,"current_range_meters":15200,"station_id":"ce4bhsh2rcd13ifvqi2g","pricing_plan_id":"cebpf4jnsgd1na2vs0mg"},{"bike_id":"c4b06bb9-00e9-4c3c-b8b0-13254dda5d64","system_id":"levelo_inurba_marseille","lat":43.30156,"lon":5.38091,"is_reserved":false,"is_disabled":false,"rental_uris":{"android":"levelo://app?vid=c4b06bb9-00e9-4c3c-b8b0-13254dda5d64","ios":"levelo://app?vid=c4b06bb9-00e9-4c3c-b8b0-13254dda5d64"},"vehicle_type_id":"4","last_reported":1752819428,"current_range_meters":16000,"station_id":"ce4bgjp2rcd13ifvqbh0","pricing_plan_id":"cebpf4jnsgd1na2vs0mg"},{"bike_id":"2ed1350f-0b6e-4182-a8b4-561741333858","system_id":"levelo_inurba_marseille","lat":43.2794,"lon":5.41045,"is_reserved":false,"is_disabled":false,"rental_uris":{"android":"levelo://app?vid=2ed1350f-0b6e-4182-a8b4-561741333858","ios":"levelo://app?vid=2ed1350f-0b6e-4182-a8b4-561741333858"},"vehicle_type_id":"4","last_reported":1752819428,"current_range_meters":16000,"station_id":"ce4bhnp2rcd13ifvqh0g","pricing_plan_id":"cebpf4jnsgd1na2vs0mg"},{"bike_id":"ce40837d-3edf-4cc2-a747-2f8d4ee2c7fb","system_id":"levelo_inurba_marseille","lat":43.22498,"lon":5.34774,"is_reserved":false,"is_disabled":false,"rental_uris":{"android":"levelo://app?vid=ce40837d-3edf-4cc2-a747-2f8d4ee2c7fb","ios":"levelo://app?vid=ce40837d-3edf-4cc2-a747-2f8d4ee2c7fb"},"vehicle_type_id":"4","last_reported":1752819428,"current_range_meters":16000,"station_id":"st_cvj5dfep6f1abm77gieg","pricing_plan_id":"cebpf4jnsgd1na2vs0mg"},{"bike_id":"e622471f-e223-45c0-979c-dbbcfdfe8946","system_id":"levelo_inurba_marseille","lat":43.320681,"lon":5.415201,"is_reserved":false,"is_disabled":false,"rental_uris":{"android":"levelo://app?vid=e622471f-e223-45c0-979c-dbbcfdfe8946","ios":"levelo://app?vid=e622471f-e223-45c0-979c-dbbcfdfe8946"},"vehicle_type_id":"4","last_reported":1752819428,"current_range_meters":16000,"station_id":"ce4bhq92rcd13ifvqhkg","pricing_plan_id":"cebpf4jnsgd1na2vs0mg"},{"bike_id":"ae61525c-e54c-46d9-8f7e-09654e70b6d9","system_id":"levelo_inurba_marseille","lat":43.312437,"lon":5.368639,"is_reserved":false,"is_disabled":false,"rental_uris":{"android":"levelo://app?vid=ae61525c-e54c-46d9-8f7e-09654e70b6d9","ios":"levelo://app?vid=ae61525c-e54c-46d9-8f7e-09654e70b6d9"},"vehicle_type_id":"4","last_reported":1752819428,"current_range_meters":16000,"station_id":"ce4bgl92rcd13ifvqbq0","pricing_plan_id":"cebpf4jnsgd1na2vs0mg"},{"bike_id":"9e46aa88-7b19-47c3-b789-71b8902b53cb","system_id":"levelo_inurba_marseille","lat":43.28146,"lon":5.42634,"is_reserved":false,"is_disabled":false,"rental_uris":{"android":"levelo://app?vid=9e46aa88-7b19-47c3-b789-71b8902b53cb","ios":"levelo://app?vid=9e46aa88-7b19-47c3-b789-71b8902b53cb"},"vehicle_type_id":"4","last_reported":1752819428,"current_range_meters":16000,"station_id":"ce4bhnh2rcd13ifvqgug","pricing_plan_id":"cebpf4jnsgd1na2vs0mg"},{"bike_id":"ce7bd25b-5213-4881-a28b-f582e6a1d712","system_id":"levelo_inurba_marseille","lat":43.31191,"lon":5.36797,"is_reserved":false,"is_disabled":true,"rental_uris":{"android":"levelo://app?vid=ce7bd25b-5213-4881-a28b-f582e6a1d712","ios":"levelo://app?vid=ce7bd25b-5213-4881-a28b-f582e6a1d712"},"vehicle_type_id":"4","last_reported":1752819428,"current_range_meters":16000,"station_id":"ce4bgl92rcd13ifvqbq0","pricing_plan_id":"cebpf4jnsgd1na2vs0mg"},{"bike_id":"ed7e6f26-bb3b-422c-9672-4eed9dcad72b","system_id":"levelo_inurba_marseille","lat":43.30544,"lon":5.36538,"is_reserved":false,"is_disabled":false,"rental_uris":{"android":"levelo://app?vid=ed7e6f26-bb3b-422c-9672-4eed9dcad72b","ios":"levelo://app?vid=ed7e6f26-bb3b-422c-9672-4eed9dcad72b"},"vehicle_type_id":"4","last_reported":1752819428,"current_range_meters":16000,"station_id":"ce4bgs12rcd13ifvqcag","pricing_plan_id":"cebpf4jnsgd1na2vs0mg"},{"bike_id":"dae05621-e174-4ad1-ae88-3a8038512e1f","system_id":"levelo_inurba_marseille","lat":43.30795,"lon":5.38152,"is_reserved":false,"is_disabled":false,"rental_uris":{"android":"levelo://app?vid=dae05621-e174-4ad1-ae88-3a8038512e1f","ios":"levelo://app?vid=dae05621-e174-4ad1-ae88-3a8038512e1f"},"vehicle_type_id":"4","last_reported":1752819428,"current_range_meters":16000,"station_id":"ce4bgt12rcd13ifvqce0","pricing_plan_id":"cebpf4jnsgd1na2vs0mg"},{"bike_id":"88761124-1b21-4ab5-a7df-57a53f764661","system_id":"levelo_inurba_marseille","lat":43.31273,"lon":5.40176,"is_reserved":false,"is_disabled":false,"rental_uris":{"android":"levelo://app?vid=88761124-1b21-4ab5-a7df-57a53f764661","ios":"levelo://app?vid=88761124-1b21-4ab5-a7df-57a53f764661"},"vehicle_type_id":"4","last_reported":1752819428,"current_range_meters":16400,"station_id":"ce4bh092rcd13ifvqd30","pricing_plan_id":"cebpf4jnsgd1na2vs0mg"},{"bike_id":"8ca35254-0a78-41fe-ba14-d16c8017b384","system_id":"levelo_inurba_marseille","lat":43.280824,"lon":5.396601,"is_reserved":false,"is_disabled":false,"rental_uris":{"android":"levelo://app?vid=8ca35254-0a78-41fe-ba14-d16c8017b384","ios":"levelo://app?vid=8ca35254-0a78-41fe-ba14-d16c8017b384"},"vehicle_type_id":"4","last_reported":1752819428,"current_range_meters":16400,"station_id":"ce4bho12rcd13ifvqh2g","pricing_plan_id":"cebpf4jnsgd1na2vs0mg"},{"bike_id":"2d95b47d-d06f-40a4-bb6e-c13e954e3c8f","system_id":"levelo_inurba_marseille","lat":43.27742,"lon":5.41423,"is_reserved":false,"is_disabled":false,"rental_uris":{"android":"levelo://app?vid=2d95b47d-d06f-40a4-bb6e-c13e954e3c8f","ios":"levelo://app?vid=2d95b47d-d06f-40a4-bb6e-c13e954e3c8f"},"vehicle_type_id":"4","last_reported":1752819428,"current_range_meters":16400,"station_id":"","pricing_plan_id":"cebpf4jnsgd1na2vs0mg"},{"bike_id":"f310b61a-0922-4b58-99ec-3c007edcb4df","system_id":"levelo_inurba_marseille","lat":43.279256,"lon":5.395806,"is_reserved":false,"is_disabled":false,"rental_uris":{"android":"levelo://app?vid=f310b61a-0922-4b58-99ec-3c007edcb4df","ios":"levelo://app?vid=f310b61a-0922-4b58-99ec-3c007edcb4df"},"vehicle_type_id":"4","last_reported":1752819428,"current_range_meters":16400,"station_id":"ce4bhf92rcd13ifvqf40","pricing_plan_id":"cebpf4jnsgd1na2vs0mg"},{"bike_id":"6cd13d7f-1155-433a-bba2-9bb2be544c72","system_id":"levelo_inurba_marseille","lat":43.270722,"lon":5.42278,"is_reserved":false,"is_disabled":false,"rental_uris":{"android":"levelo://app?vid=6cd13d7f-1155-433a-bba2-9bb2be544c72","ios":"levelo://app?vid=6cd13d7f-1155-433a-bba2-9bb2be544c72"},"vehicle_type_id":"4","last_reported":1752819428,"current_range_meters":16400,"station_id":"ce4bhk92rcd13ifvqgb0","pricing_plan_id":"cebpf4jnsgd1na2vs0mg"},{"bike_id":"57bb565d-2136-465a-803d-648474c4a3a7","system_id":"levelo_inurba_marseille","lat":43.31544,"lon":5.36496,"is_reserved":false,"is_disabled":false,"rental_uris":{"android":"levelo://app?vid=57bb565d-2136-465a-803d-648474c4a3a7","ios":"levelo://app?vid=57bb565d-2136-465a-803d-648474c4a3a7"},"vehicle_type_id":"4","last_reported":1752819428,"current_range_meters":16400,"station_id":"","pricing_plan_id":"cebpf4jnsgd1na2vs0mg"},{"bike_id":"1fa6e47a-247c-43f3-a2d5-2457ee6c5d39","system_id":"levelo_inurba_marseille","lat":43.211902,"lon":5.350743,"is_reserved":false,"is_disabled":false,"rental_uris":{"android":"levelo://app?vid=1fa6e47a-247c-43f3-a2d5-2457ee6c5d39","ios":"levelo://app?vid=1fa6e47a-247c-43f3-a2d5-2457ee6c5d39"},"vehicle_type_id":"4","last_reported":1752819428,"current_range_meters":16400,"station_id":"st_cvj6sg6p6f1abm77japg","pricing_plan_id":"cebpf4jnsgd1na2vs0mg"},{"bike_id":"a1881e68-3bc7-4577-bc37-aa55f0c2885c","system_id":"levelo_inurba_marseille","lat":43.3053,"lon":5.36687,"is_reserved":false,"is_disabled":false,"rental_uris":{"android":"levelo://app?vid=a1881e68-3bc7-4577-bc37-aa55f0c2885c","ios":"levelo://app?vid=a1881e68-3bc7-4577-bc37-aa55f0c2885c"},"vehicle_type_id":"4","last_reported":1752819428,"current_range_meters":16400,"station_id":"ce4bgrp2rcd13ifvqc9g","pricing_plan_id":"cebpf4jnsgd1na2vs0mg"},{"bike_id":"ab40eab5-f236-4422-a5a5-b90da08304bc","system_id":"levelo_inurba_marseille","lat":43.30705,"lon":5.37176,"is_reserved":false,"is_disabled":false,"rental_uris":{"android":"levelo://app?vid=ab40eab5-f236-4422-a5a5-b90da08304bc","ios":"levelo://app?vid=ab40eab5-f236-4422-a5a5-b90da08304bc"},"vehicle_type_id":"4","last_reported":1752819428,"current_range_meters":16400,"station_id":"","pricing_plan_id":"cebpf4jnsgd1na2vs0mg"},{"bike_id":"8cf92f2c-8407-4cb4-951f-fa500b9dc5b7","system_id":"levelo_inurba_marseille","lat":43.3094,"lon":5.40133,"is_reserved":false,"is_disabled":false,"rental_uris":{"android":"levelo://app?vid=8cf92f2c-8407-4cb4-951f-fa500b9dc5b7","ios":"levelo://app?vid=8cf92f2c-8407-4cb4-951f-fa500b9dc5b7"},"vehicle_type_id":"4","last_reported":1752819428,"current_range_meters":16400,"station_id":"ce4bgvp2rcd13ifvqct0","pricing_plan_id":"cebpf4jnsgd1na2vs0mg"},{"bike_id":"3dd53699-95df-4ee3-81a9-ba42f3db478b","system_id":"levelo_inurba_marseille","lat":43.30345,"lon":5.40428,"is_reserved":false,"is_disabled":false,"rental_uris":{"android":"levelo://app?vid=3dd53699-95df-4ee3-81a9-ba42f3db478b","ios":"levelo://app?vid=3dd53699-95df-4ee3-81a9-ba42f3db478b"},"vehicle_type_id":"4","last_reported":1752819428,"current_range_meters":16800,"station_id":"ce4bh012rcd13ifvqd10","pricing_plan_id":"cebpf4jnsgd1na2vs0mg"},{"bike_id":"67c51c44-9727-47b2-8b06-4f2c8b182a9e","system_id":"levelo_inurba_marseille","lat":43.24391,"lon":5.37061,"is_reserved":false,"is_disabled":false,"rental_uris":{"android":"levelo://app?vid=67c51c44-9727-47b2-8b06-4f2c8b182a9e","ios":"levelo://app?vid=67c51c44-9727-47b2-8b06-4f2c8b182a9e"},"vehicle_type_id":"4","last_reported":1752819428,"current_range_meters":16800,"station_id":"ce4bhhh2rcd13ifvqfk0","pricing_plan_id":"cebpf4jnsgd1na2vs0mg"},{"bike_id":"ac0ed4be-466c-4caa-b855-3c6bbe5a11b5","system_id":"levelo_inurba_marseille","lat":43.267531,"lon":5.371871,"is_reserved":false,"is_disabled":false,"rental_uris":{"android":"levelo://app?vid=ac0ed4be-466c-4caa-b855-3c6bbe5a11b5","ios":"levelo://app?vid=ac0ed4be-466c-4caa-b855-3c6bbe5a11b5"},"vehicle_type_id":"4","last_reported":1752819428,"current_range_meters":16800,"station_id":"","pricing_plan_id":"cebpf4jnsgd1na2vs0mg"},{"bike_id":"0f07b6ef-5476-4e90-9a84-f3ec0e666f0f","system_id":"levelo_inurba_marseille","lat":43.260133,"lon":5.375269,"is_reserved":false,"is_disabled":false,"rental_uris":{"android":"levelo://app?vid=0f07b6ef-5476-4e90-9a84-f3ec0e666f0f","ios":"levelo://app?vid=0f07b6ef-5476-4e90-9a84-f3ec0e666f0f"},"vehicle_type_id":"4","last_reported":1752819428,"current_range_meters":16800,"station_id":"ce4bh0h2rcd13ifvqd50","pricing_plan_id":"cebpf4jnsgd1na2vs0mg"},{"bike_id":"3e3ea796-dba7-4b02-b380-ab58b77a4b41","system_id":"levelo_inurba_marseille","lat":43.32354,"lon":5.36756,"is_reserved":false,"is_disabled":false,"rental_uris":{"android":"levelo://app?vid=3e3ea796-dba7-4b02-b380-ab58b77a4b41","ios":"levelo://app?vid=3e3ea796-dba7-4b02-b380-ab58b77a4b41"},"vehicle_type_id":"4","last_reported":1752819428,"current_range_meters":16800,"station_id":"ce4bhsh2rcd13ifvqi2g","pricing_plan_id":"cebpf4jnsgd1na2vs0mg"},{"bike_id":"db7bad39-17ec-4f0b-95ae-0ccbb39420e1","system_id":"levelo_inurba_marseille","lat":43.225054,"lon":5.347756,"is_reserved":false,"is_disabled":false,"rental_uris":{"android":"levelo://app?vid=db7bad39-17ec-4f0b-95ae-0ccbb39420e1","ios":"levelo://app?vid=db7bad39-17ec-4f0b-95ae-0ccbb39420e1"},"vehicle_type_id":"4","last_reported":1752819428,"current_range_meters":16800,"station_id":"st_cvj5dfep6f1abm77gieg","pricing_plan_id":"cebpf4jnsgd1na2vs0mg"},{"bike_id":"a67156ae-789e-45f5-ab3f-ed7d95b24540","system_id":"levelo_inurba_marseille","lat":43.21193,"lon":5.350756,"is_reserved":false,"is_disabled":false,"rental_uris":{"android":"levelo://app?vid=a67156ae-789e-45f5-ab3f-ed7d95b24540","ios":"levelo://app?vid=a67156ae-789e-45f5-ab3f-ed7d95b24540"},"vehicle_type_id":"4","last_reported":1752819428,"current_range_meters":16800,"station_id":"st_cvj6sg6p6f1abm77japg","pricing_plan_id":"cebpf4jnsgd1na2vs0mg"},{"bike_id":"68d3533b-4c6f-4fc8-bf0e-8f31e9e437ca","system_id":"levelo_inurba_marseille","lat":43.243913,"lon":5.370515,"is_reserved":false,"is_disabled":false,"rental_uris":{"android":"levelo://app?vid=68d3533b-4c6f-4fc8-bf0e-8f31e9e437ca","ios":"levelo://app?vid=68d3533b-4c6f-4fc8-bf0e-8f31e9e437ca"},"vehicle_type_id":"4","last_reported":1752819428,"current_range_meters":16800,"station_id":"ce4bhhh2rcd13ifvqfk0","pricing_plan_id":"cebpf4jnsgd1na2vs0mg"},{"bike_id":"5ac93e7c-286a-4c1e-b6c0-4e9963e5a9f8","system_id":"levelo_inurba_marseille","lat":43.211901,"lon":5.350705,"is_reserved":false,"is_disabled":false,"rental_uris":{"android":"levelo://app?vid=5ac93e7c-286a-4c1e-b6c0-4e9963e5a9f8","ios":"levelo://app?vid=5ac93e7c-286a-4c1e-b6c0-4e9963e5a9f8"},"vehicle_type_id":"4","last_reported":1752819428,"current_range_meters":16800,"station_id":"st_cvj6sg6p6f1abm77japg","pricing_plan_id":"cebpf4jnsgd1na2vs0mg"},{"bike_id":"12717973-3258-43e4-91e2-6d6cc1b5725a","system_id":"levelo_inurba_marseille","lat":43.28926,"lon":5.38394,"is_reserved":false,"is_disabled":false,"rental_uris":{"android":"levelo://app?vid=12717973-3258-43e4-91e2-6d6cc1b5725a","ios":"levelo://app?vid=12717973-3258-43e4-91e2-6d6cc1b5725a"},"vehicle_type_id":"4","last_reported":1752819428,"current_range_meters":16800,"station_id":"ce4bh612rcd13ifvqe6g","pricing_plan_id":"cebpf4jnsgd1na2vs0mg"},{"bike_id":"f14c1941-7787-425c-8a0a-cc7496c6fdd9","system_id":"levelo_inurba_marseille","lat":43.31335,"lon":5.36723,"is_reserved":false,"is_disabled":false,"rental_uris":{"android":"levelo://app?vid=f14c1941-7787-425c-8a0a-cc7496c6fdd9","ios":"levelo://app?vid=f14c1941-7787-425c-8a0a-cc7496c6fdd9"},"vehicle_type_id":"4","last_reported":1752819428,"current_range_meters":16800,"station_id":"ce4bgr92rcd13ifvqc6g","pricing_plan_id":"cebpf4jnsgd1na2vs0mg"},{"bike_id":"8ce9b80c-19c6-4985-81c6-50f285c26740","system_id":"levelo_inurba_marseille","lat":43.23952,"lon":5.36653,"is_reserved":false,"is_disabled":false,"rental_uris":{"android":"levelo://app?vid=8ce9b80c-19c6-4985-81c6-50f285c26740","ios":"levelo://app?vid=8ce9b80c-19c6-4985-81c6-50f285c26740"},"vehicle_type_id":"4","last_reported":1752819428,"current_range_meters":17200,"station_id":"ce4bhi12rcd13ifvqfp0","pricing_plan_id":"cebpf4jnsgd1na2vs0mg"},{"bike_id":"b5ecd6f5-ffe3-476b-9516-848976918979","system_id":"levelo_inurba_marseille","lat":43.292803,"lon":5.40137,"is_reserved":false,"is_disabled":false,"rental_uris":{"android":"levelo://app?vid=b5ecd6f5-ffe3-476b-9516-848976918979","ios":"levelo://app?vid=b5ecd6f5-ffe3-476b-9516-848976918979"},"vehicle_type_id":"4","last_reported":1752819428,"current_range_meters":17200,"station_id":"ce4bh312rcd13ifvqdk0","pricing_plan_id":"cebpf4jnsgd1na2vs0mg"},{"bike_id":"069e2087-a51d-416a-b9f7-0ef6a30f8082","system_id":"levelo_inurba_marseille","lat":43.211895,"lon":5.350759,"is_reserved":false,"is_disabled":false,"rental_uris":{"android":"levelo://app?vid=069e2087-a51d-416a-b9f7-0ef6a30f8082","ios":"levelo://app?vid=069e2087-a51d-416a-b9f7-0ef6a30f8082"},"vehicle_type_id":"4","last_reported":1752819428,"current_range_meters":17200,"station_id":"st_cvj6sg6p6f1abm77japg","pricing_plan_id":"cebpf4jnsgd1na2vs0mg"},{"bike_id":"edd0079d-996b-4ae3-9a31-d781f3a059ec","system_id":"levelo_inurba_marseille","lat":43.33786,"lon":5.37426,"is_reserved":false,"is_disabled":false,"rental_uris":{"android":"levelo://app?vid=edd0079d-996b-4ae3-9a31-d781f3a059ec","ios":"levelo://app?vid=edd0079d-996b-4ae3-9a31-d781f3a059ec"},"vehicle_type_id":"4","last_reported":1752819428,"current_range_meters":17200,"station_id":"","pricing_plan_id":"cebpf4jnsgd1na2vs0mg"},{"bike_id":"b7fe52dd-f025-4212-9e78-19e7f6f09593","system_id":"levelo_inurba_marseille","lat":43.212055,"lon":5.35065,"is_reserved":false,"is_disabled":false,"rental_uris":{"android":"levelo://app?vid=b7fe52dd-f025-4212-9e78-19e7f6f09593","ios":"levelo://app?vid=b7fe52dd-f025-4212-9e78-19e7f6f09593"},"vehicle_type_id":"4","last_reported":1752819428,"current_range_meters":17200,"station_id":"st_cvj6sg6p6f1abm77japg","pricing_plan_id":"cebpf4jnsgd1na2vs0mg"},{"bike_id":"cfb52d04-9134-4c86-8269-771716b20f27","system_id":"levelo_inurba_marseille","lat":43.21183,"lon":5.35079,"is_reserved":false,"is_disabled":false,"rental_uris":{"android":"levelo://app?vid=cfb52d04-9134-4c86-8269-771716b20f27","ios":"levelo://app?vid=cfb52d04-9134-4c86-8269-771716b20f27"},"vehicle_type_id":"4","last_reported":1752819428,"current_range_meters":17200,"station_id":"st_cvj6sg6p6f1abm77japg","pricing_plan_id":"cebpf4jnsgd1na2vs0mg"},{"bike_id":"a81b787c-9737-45e1-a2ac-42a96e4d8972","system_id":"levelo_inurba_marseille","lat":43.26557,"lon":5.3728,"is_reserved":false,"is_disabled":false,"rental_uris":{"android":"levelo://app?vid=a81b787c-9737-45e1-a2ac-42a96e4d8972","ios":"levelo://app?vid=a81b787c-9737-45e1-a2ac-42a96e4d8972"},"vehicle_type_id":"4","last_reported":1752819428,"current_range_meters":17200,"station_id":"ce4bhg12rcd13ifvqf70","pricing_plan_id":"cebpf4jnsgd1na2vs0mg"},{"bike_id":"1790c2e8-4aaf-42ef-9a8f-6f7e3518bdda","system_id":"levelo_inurba_marseille","lat":43.32482,"lon":5.36571,"is_reserved":false,"is_disabled":false,"rental_uris":{"android":"levelo://app?vid=1790c2e8-4aaf-42ef-9a8f-6f7e3518bdda","ios":"levelo://app?vid=1790c2e8-4aaf-42ef-9a8f-6f7e3518bdda"},"vehicle_type_id":"4","last_reported":1752819428,"current_range_meters":17200,"station_id":"ce4bhs12rcd13ifvqhvg","pricing_plan_id":"cebpf4jnsgd1na2vs0mg"},{"bike_id":"a9931991-07f0-48f8-a3d2-6ad41207c5cb","system_id":"levelo_inurba_marseille","lat":43.309253,"lon":5.401409,"is_reserved":false,"is_disabled":false,"rental_uris":{"android":"levelo://app?vid=a9931991-07f0-48f8-a3d2-6ad41207c5cb","ios":"levelo://app?vid=a9931991-07f0-48f8-a3d2-6ad41207c5cb"},"vehicle_type_id":"4","last_reported":1752819428,"current_range_meters":17600,"station_id":"ce4bgvp2rcd13ifvqct0","pricing_plan_id":"cebpf4jnsgd1na2vs0mg"},{"bike_id":"c8f71e4f-86e8-4c13-a052-b668c5b486f6","system_id":"levelo_inurba_marseille","lat":43.29533,"lon":5.38527,"is_reserved":false,"is_disabled":false,"rental_uris":{"android":"levelo://app?vid=c8f71e4f-86e8-4c13-a052-b668c5b486f6","ios":"levelo://app?vid=c8f71e4f-86e8-4c13-a052-b668c5b486f6"},"vehicle_type_id":"4","last_reported":1752819428,"current_range_meters":17600,"station_id":"ce4bgih2rcd13ifvqba0","pricing_plan_id":"cebpf4jnsgd1na2vs0mg"},{"bike_id":"103dabb4-2e04-4070-8ec8-d982f857d7ff","system_id":"levelo_inurba_marseille","lat":43.30913,"lon":5.3686,"is_reserved":false,"is_disabled":false,"rental_uris":{"android":"levelo://app?vid=103dabb4-2e04-4070-8ec8-d982f857d7ff","ios":"levelo://app?vid=103dabb4-2e04-4070-8ec8-d982f857d7ff"},"vehicle_type_id":"4","last_reported":1752819428,"current_range_meters":17600,"station_id":"ce4bgn92rcd13ifvqbvg","pricing_plan_id":"cebpf4jnsgd1na2vs0mg"},{"bike_id":"efad4d56-c499-4f8b-9b57-b58df3e794e2","system_id":"levelo_inurba_marseille","lat":43.23966,"lon":5.36632,"is_reserved":false,"is_disabled":false,"rental_uris":{"android":"levelo://app?vid=efad4d56-c499-4f8b-9b57-b58df3e794e2","ios":"levelo://app?vid=efad4d56-c499-4f8b-9b57-b58df3e794e2"},"vehicle_type_id":"4","last_reported":1752819428,"current_range_meters":17600,"station_id":"ce4bhi12rcd13ifvqfp0","pricing_plan_id":"cebpf4jnsgd1na2vs0mg"},{"bike_id":"ba9f3e38-527b-4abb-aed1-dabb2d5ce59f","system_id":"levelo_inurba_marseille","lat":43.26945,"lon":5.40228,"is_reserved":false,"is_disabled":false,"rental_uris":{"android":"levelo://app?vid=ba9f3e38-527b-4abb-aed1-dabb2d5ce59f","ios":"levelo://app?vid=ba9f3e38-527b-4abb-aed1-dabb2d5ce59f"},"vehicle_type_id":"4","last_reported":1752819428,"current_range_meters":17600,"station_id":"cjm6bp8fraef2m0cb0m0","pricing_plan_id":"cebpf4jnsgd1na2vs0mg"},{"bike_id":"e14223fe-92ca-40a2-9254-fe9eff8851d5","system_id":"levelo_inurba_marseille","lat":43.30377,"lon":5.4249,"is_reserved":false,"is_disabled":false,"rental_uris":{"android":"levelo://app?vid=e14223fe-92ca-40a2-9254-fe9eff8851d5","ios":"levelo://app?vid=e14223fe-92ca-40a2-9254-fe9eff8851d5"},"vehicle_type_id":"4","last_reported":1752819428,"current_range_meters":18000,"station_id":"ce4bhoh2rcd13ifvqh6g","pricing_plan_id":"cebpf4jnsgd1na2vs0mg"},{"bike_id":"9750a32d-ca79-4f11-ab1e-7f1b7faa0e67","system_id":"levelo_inurba_marseille","lat":43.27679,"lon":5.38878,"is_reserved":false,"is_disabled":false,"rental_uris":{"android":"levelo://app?vid=9750a32d-ca79-4f11-ab1e-7f1b7faa0e67","ios":"levelo://app?vid=9750a32d-ca79-4f11-ab1e-7f1b7faa0e67"},"vehicle_type_id":"4","last_reported":1752819428,"current_range_meters":18000,"station_id":"ce4bhi12rcd13ifvqfo0","pricing_plan_id":"cebpf4jnsgd1na2vs0mg"},{"bike_id":"e12e0172-8a8f-433d-8168-acbe61a1a376","system_id":"levelo_inurba_marseille","lat":43.3139,"lon":5.38497,"is_reserved":false,"is_disabled":false,"rental_uris":{"android":"levelo://app?vid=e12e0172-8a8f-433d-8168-acbe61a1a376","ios":"levelo://app?vid=e12e0172-8a8f-433d-8168-acbe61a1a376"},"vehicle_type_id":"4","last_reported":1752819428,"current_range_meters":18000,"station_id":"ce4bgt92rcd13ifvqcf0","pricing_plan_id":"cebpf4jnsgd1na2vs0mg"},{"bike_id":"500542d6-86a5-41ea-ad3b-7ed3dfd2aada","system_id":"levelo_inurba_marseille","lat":43.30373,"lon":5.424812,"is_reserved":false,"is_disabled":false,"rental_uris":{"android":"levelo://app?vid=500542d6-86a5-41ea-ad3b-7ed3dfd2aada","ios":"levelo://app?vid=500542d6-86a5-41ea-ad3b-7ed3dfd2aada"},"vehicle_type_id":"4","last_reported":1752819428,"current_range_meters":18000,"station_id":"ce4bhoh2rcd13ifvqh6g","pricing_plan_id":"cebpf4jnsgd1na2vs0mg"},{"bike_id":"1572dd02-0a2c-4561-887a-3e5a9f01fef3","system_id":"levelo_inurba_marseille","lat":43.30274,"lon":5.37696,"is_reserved":false,"is_disabled":false,"rental_uris":{"android":"levelo://app?vid=1572dd02-0a2c-4561-887a-3e5a9f01fef3","ios":"levelo://app?vid=1572dd02-0a2c-4561-887a-3e5a9f01fef3"},"vehicle_type_id":"4","last_reported":1752819428,"current_range_meters":18000,"station_id":"ce4bguh2rcd13ifvqcj0","pricing_plan_id":"cebpf4jnsgd1na2vs0mg"},{"bike_id":"a74a5ce9-0f2a-44af-8621-7aa725f71655","system_id":"levelo_inurba_marseille","lat":43.32338,"lon":5.40625,"is_reserved":false,"is_disabled":false,"rental_uris":{"android":"levelo://app?vid=a74a5ce9-0f2a-44af-8621-7aa725f71655","ios":"levelo://app?vid=a74a5ce9-0f2a-44af-8621-7aa725f71655"},"vehicle_type_id":"4","last_reported":1752819428,"current_range_meters":18000,"station_id":"ce4bhq92rcd13ifvqhjg","pricing_plan_id":"cebpf4jnsgd1na2vs0mg"},{"bike_id":"afc91c81-7042-4270-a28e-07e325ae83c9","system_id":"levelo_inurba_marseille","lat":43.21192,"lon":5.35074,"is_reserved":false,"is_disabled":false,"rental_uris":{"android":"levelo://app?vid=afc91c81-7042-4270-a28e-07e325ae83c9","ios":"levelo://app?vid=afc91c81-7042-4270-a28e-07e325ae83c9"},"vehicle_type_id":"4","last_reported":1752819428,"current_range_meters":18800,"station_id":"st_cvj6sg6p6f1abm77japg","pricing_plan_id":"cebpf4jnsgd1na2vs0mg"},{"bike_id":"9a8280a9-1905-43b5-8539-0f2efd6be0e5","system_id":"levelo_inurba_marseille","lat":43.29876,"lon":5.39745,"is_reserved":false,"is_disabled":false,"rental_uris":{"android":"levelo://app?vid=9a8280a9-1905-43b5-8539-0f2efd6be0e5","ios":"levelo://app?vid=9a8280a9-1905-43b5-8539-0f2efd6be0e5"},"vehicle_type_id":"4","last_reported":1752819428,"current_range_meters":18800,"station_id":"ce4bh0h2rcd13ifvqd50","pricing_plan_id":"cebpf4jnsgd1na2vs0mg"},{"bike_id":"79d20d0d-5afa-4650-91fe-cb32f26ae19e","system_id":"levelo_inurba_marseille","lat":43.2405,"lon":5.37737,"is_reserved":false,"is_disabled":false,"rental_uris":{"android":"levelo://app?vid=79d20d0d-5afa-4650-91fe-cb32f26ae19e","ios":"levelo://app?vid=79d20d0d-5afa-4650-91fe-cb32f26ae19e"},"vehicle_type_id":"4","last_reported":1752819428,"current_range_meters":18800,"station_id":"ce4bhnp2rcd13ifvqgvg","pricing_plan_id":"cebpf4jnsgd1na2vs0mg"},{"bike_id":"4f3a0988-0550-491c-bf91-afee47b9458f","system_id":"levelo_inurba_marseille","lat":43.2929,"lon":5.37192,"is_reserved":false,"is_disabled":true,"rental_uris":{"android":"levelo://app?vid=4f3a0988-0550-491c-bf91-afee47b9458f","ios":"levelo://app?vid=4f3a0988-0550-491c-bf91-afee47b9458f"},"vehicle_type_id":"4","last_reported":1752819428,"current_range_meters":18800,"station_id":"ce4bgh92rcd13ifvqb40","pricing_plan_id":"cebpf4jnsgd1na2vs0mg"},{"bike_id":"bd342ea2-41b1-42f8-91b4-e4696431ba1e","system_id":"levelo_inurba_marseille","lat":43.27965,"lon":5.3868,"is_reserved":false,"is_disabled":false,"rental_uris":{"android":"levelo://app?vid=bd342ea2-41b1-42f8-91b4-e4696431ba1e","ios":"levelo://app?vid=bd342ea2-41b1-42f8-91b4-e4696431ba1e"},"vehicle_type_id":"4","last_reported":1752819428,"current_range_meters":19200,"station_id":"","pricing_plan_id":"cebpf4jnsgd1na2vs0mg"},{"bike_id":"1dabc333-36c5-41e5-9ed3-17b4c3c9fd9a","system_id":"levelo_inurba_marseille","lat":43.28424,"lon":5.34997,"is_reserved":false,"is_disabled":true,"rental_uris":{"android":"levelo://app?vid=1dabc333-36c5-41e5-9ed3-17b4c3c9fd9a","ios":"levelo://app?vid=1dabc333-36c5-41e5-9ed3-17b4c3c9fd9a"},"vehicle_type_id":"4","last_reported":1752819428,"current_range_meters":19200,"station_id":"ce4bhbh2rcd13ifvqepg","pricing_plan_id":"cebpf4jnsgd1na2vs0mg"},{"bike_id":"276d5ecc-70d3-4d30-a67a-d45e6ac8d108","system_id":"levelo_inurba_marseille","lat":43.30532,"lon":5.36709,"is_reserved":false,"is_disabled":false,"rental_uris":{"android":"levelo://app?vid=276d5ecc-70d3-4d30-a67a-d45e6ac8d108","ios":"levelo://app?vid=276d5ecc-70d3-4d30-a67a-d45e6ac8d108"},"vehicle_type_id":"4","last_reported":1752819428,"current_range_meters":19200,"station_id":"ce4bgrp2rcd13ifvqc9g","pricing_plan_id":"cebpf4jnsgd1na2vs0mg"},{"bike_id":"d051c226-9f2e-4e50-9128-93fddd784f1a","system_id":"levelo_inurba_marseille","lat":43.26234,"lon":5.40456,"is_reserved":false,"is_disabled":false,"rental_uris":{"android":"levelo://app?vid=d051c226-9f2e-4e50-9128-93fddd784f1a","ios":"levelo://app?vid=d051c226-9f2e-4e50-9128-93fddd784f1a"},"vehicle_type_id":"4","last_reported":1752819428,"current_range_meters":19200,"station_id":"ce4bhmh2rcd13ifvqgmg","pricing_plan_id":"cebpf4jnsgd1na2vs0mg"},{"bike_id":"2b2ee66a-f628-4f79-bbed-b1299bc7573d","system_id":"levelo_inurba_marseille","lat":43.30209,"lon":5.39979,"is_reserved":false,"is_disabled":true,"rental_uris":{"android":"levelo://app?vid=2b2ee66a-f628-4f79-bbed-b1299bc7573d","ios":"levelo://app?vid=2b2ee66a-f628-4f79-bbed-b1299bc7573d"},"vehicle_type_id":"4","last_reported":1752819428,"current_range_meters":19200,"station_id":"","pricing_plan_id":"cebpf4jnsgd1na2vs0mg"},{"bike_id":"09ce2634-f19f-432a-bceb-c0c3e1769c16","system_id":"levelo_inurba_marseille","lat":43.303296,"lon":5.404316,"is_reserved":false,"is_disabled":false,"rental_uris":{"android":"levelo://app?vid=09ce2634-f19f-432a-bceb-c0c3e1769c16","ios":"levelo://app?vid=09ce2634-f19f-432a-bceb-c0c3e1769c16"},"vehicle_type_id":"4","last_reported":1752819428,"current_range_meters":19200,"station_id":"ce4bh012rcd13ifvqd10","pricing_plan_id":"cebpf4jnsgd1na2vs0mg"},{"bike_id":"df41e1d3-5b98-4940-b0e6-55f9c27d5951","system_id":"levelo_inurba_marseille","lat":43.23455,"lon":5.41252,"is_reserved":false,"is_disabled":false,"rental_uris":{"android":"levelo://app?vid=df41e1d3-5b98-4940-b0e6-55f9c27d5951","ios":"levelo://app?vid=df41e1d3-5b98-4940-b0e6-55f9c27d5951"},"vehicle_type_id":"4","last_reported":1752819428,"current_range_meters":19200,"station_id":"","pricing_plan_id":"cebpf4jnsgd1na2vs0mg"},{"bike_id":"94c07cb2-0943-4d24-99f2-97bdab47aa3f","system_id":"levelo_inurba_marseille","lat":43.337444,"lon":5.374475,"is_reserved":false,"is_disabled":false,"rental_uris":{"android":"levelo://app?vid=94c07cb2-0943-4d24-99f2-97bdab47aa3f","ios":"levelo://app?vid=94c07cb2-0943-4d24-99f2-97bdab47aa3f"},"vehicle_type_id":"4","last_reported":1752819428,"current_range_meters":19200,"station_id":"","pricing_plan_id":"cebpf4jnsgd1na2vs0mg"},{"bike_id":"f0f5d048-f8e9-45fa-9ac6-4a0d2afb5381","system_id":"levelo_inurba_marseille","lat":43.26927,"lon":5.40271,"is_reserved":false,"is_disabled":false,"rental_uris":{"android":"levelo://app?vid=f0f5d048-f8e9-45fa-9ac6-4a0d2afb5381","ios":"levelo://app?vid=f0f5d048-f8e9-45fa-9ac6-4a0d2afb5381"},"vehicle_type_id":"4","last_reported":1752819428,"current_range_meters":19600,"station_id":"cjm6bp8fraef2m0cb0m0","pricing_plan_id":"cebpf4jnsgd1na2vs0mg"},{"bike_id":"f90f1efc-2add-4576-a300-db6e14a5c471","system_id":"levelo_inurba_marseille","lat":43.32104,"lon":5.36769,"is_reserved":false,"is_disabled":false,"rental_uris":{"android":"levelo://app?vid=f90f1efc-2add-4576-a300-db6e14a5c471","ios":"levelo://app?vid=f90f1efc-2add-4576-a300-db6e14a5c471"},"vehicle_type_id":"4","last_reported":1752819428,"current_range_meters":19600,"station_id":"ce4bhrh2rcd13ifvqhug","pricing_plan_id":"cebpf4jnsgd1na2vs0mg"},{"bike_id":"dc1012d1-b7eb-4c1c-b257-4a94248be1a1","system_id":"levelo_inurba_marseille","lat":43.27946,"lon":5.41056,"is_reserved":false,"is_disabled":false,"rental_uris":{"android":"levelo://app?vid=dc1012d1-b7eb-4c1c-b257-4a94248be1a1","ios":"levelo://app?vid=dc1012d1-b7eb-4c1c-b257-4a94248be1a1"},"vehicle_type_id":"4","last_reported":1752819428,"current_range_meters":19600,"station_id":"ce4bhnp2rcd13ifvqh0g","pricing_plan_id":"cebpf4jnsgd1na2vs0mg"},{"bike_id":"5ed7e33c-75eb-4f80-9ced-f5eee5190af4","system_id":"levelo_inurba_marseille","lat":43.295581,"lon":5.422888,"is_reserved":false,"is_disabled":false,"rental_uris":{"android":"levelo://app?vid=5ed7e33c-75eb-4f80-9ced-f5eee5190af4","ios":"levelo://app?vid=5ed7e33c-75eb-4f80-9ced-f5eee5190af4"},"vehicle_type_id":"4","last_reported":1752819428,"current_range_meters":19600,"station_id":"ce4bhph2rcd13ifvqhdg","pricing_plan_id":"cebpf4jnsgd1na2vs0mg"},{"bike_id":"63d07e46-7c89-4161-9ac8-c870438f00dd","system_id":"levelo_inurba_marseille","lat":43.30548,"lon":5.36546,"is_reserved":false,"is_disabled":false,"rental_uris":{"android":"levelo://app?vid=63d07e46-7c89-4161-9ac8-c870438f00dd","ios":"levelo://app?vid=63d07e46-7c89-4161-9ac8-c870438f00dd"},"vehicle_type_id":"4","last_reported":1752819428,"current_range_meters":19600,"station_id":"ce4bgs12rcd13ifvqcag","pricing_plan_id":"cebpf4jnsgd1na2vs0mg"},{"bike_id":"d89dfe77-50a4-4c72-9050-42a52a3b9a57","system_id":"levelo_inurba_marseille","lat":43.29868,"lon":5.39734,"is_reserved":false,"is_disabled":false,"rental_uris":{"android":"levelo://app?vid=d89dfe77-50a4-4c72-9050-42a52a3b9a57","ios":"levelo://app?vid=d89dfe77-50a4-4c72-9050-42a52a3b9a57"},"vehicle_type_id":"4","last_reported":1752819428,"current_range_meters":19600,"station_id":"","pricing_plan_id":"cebpf4jnsgd1na2vs0mg"},{"bike_id":"1bea52eb-b99a-43e3-8fce-07ed497a87d3","system_id":"levelo_inurba_marseille","lat":43.32336,"lon":5.40629,"is_reserved":false,"is_disabled":false,"rental_uris":{"android":"levelo://app?vid=1bea52eb-b99a-43e3-8fce-07ed497a87d3","ios":"levelo://app?vid=1bea52eb-b99a-43e3-8fce-07ed497a87d3"},"vehicle_type_id":"4","last_reported":1752819428,"current_range_meters":19600,"station_id":"ce4bhq92rcd13ifvqhjg","pricing_plan_id":"cebpf4jnsgd1na2vs0mg"},{"bike_id":"35d7c238-1986-45e0-98e6-150f7b00844a","system_id":"levelo_inurba_marseille","lat":43.31738,"lon":5.42375,"is_reserved":false,"is_disabled":false,"rental_uris":{"android":"levelo://app?vid=35d7c238-1986-45e0-98e6-150f7b00844a","ios":"levelo://app?vid=35d7c238-1986-45e0-98e6-150f7b00844a"},"vehicle_type_id":"4","last_reported":1752819428,"current_range_meters":19600,"station_id":"ce4bhp92rcd13ifvqhbg","pricing_plan_id":"cebpf4jnsgd1na2vs0mg"},{"bike_id":"96579d04-b9e9-484c-9b9a-af500e5e8552","system_id":"levelo_inurba_marseille","lat":43.32678,"lon":5.36418,"is_reserved":false,"is_disabled":false,"rental_uris":{"android":"levelo://app?vid=96579d04-b9e9-484c-9b9a-af500e5e8552","ios":"levelo://app?vid=96579d04-b9e9-484c-9b9a-af500e5e8552"},"vehicle_type_id":"4","last_reported":1752819428,"current_range_meters":19600,"station_id":"","pricing_plan_id":"cebpf4jnsgd1na2vs0mg"},{"bike_id":"b788a2dd-efd6-48c2-ab22-c5bf878f04b3","system_id":"levelo_inurba_marseille","lat":43.259296,"lon":5.409074,"is_reserved":false,"is_disabled":false,"rental_uris":{"android":"levelo://app?vid=b788a2dd-efd6-48c2-ab22-c5bf878f04b3","ios":"levelo://app?vid=b788a2dd-efd6-48c2-ab22-c5bf878f04b3"},"vehicle_type_id":"4","last_reported":1752819428,"current_range_meters":20000,"station_id":"ce4bhm92rcd13ifvqglg","pricing_plan_id":"cebpf4jnsgd1na2vs0mg"},{"bike_id":"86a29a9c-3f1c-44e7-854e-5dac74ce264e","system_id":"levelo_inurba_marseille","lat":43.27426,"lon":5.39414,"is_reserved":false,"is_disabled":false,"rental_uris":{"android":"levelo://app?vid=86a29a9c-3f1c-44e7-854e-5dac74ce264e","ios":"levelo://app?vid=86a29a9c-3f1c-44e7-854e-5dac74ce264e"},"vehicle_type_id":"4","last_reported":1752819428,"current_range_meters":20000,"station_id":"ce4bhdp2rcd13ifvqf20","pricing_plan_id":"cebpf4jnsgd1na2vs0mg"},{"bike_id":"52c5c06c-938f-4748-be82-bdf4ecb97f05","system_id":"levelo_inurba_marseille","lat":43.292502,"lon":5.409143,"is_reserved":false,"is_disabled":false,"rental_uris":{"android":"levelo://app?vid=52c5c06c-938f-4748-be82-bdf4ecb97f05","ios":"levelo://app?vid=52c5c06c-938f-4748-be82-bdf4ecb97f05"},"vehicle_type_id":"4","last_reported":1752819428,"current_range_meters":20000,"station_id":"ce4bh192rcd13ifvqdc0","pricing_plan_id":"cebpf4jnsgd1na2vs0mg"},{"bike_id":"fbd64516-72f4-4298-a351-2ea26d393f0a","system_id":"levelo_inurba_marseille","lat":43.30757,"lon":5.4242,"is_reserved":false,"is_disabled":false,"rental_uris":{"android":"levelo://app?vid=fbd64516-72f4-4298-a351-2ea26d393f0a","ios":"levelo://app?vid=fbd64516-72f4-4298-a351-2ea26d393f0a"},"vehicle_type_id":"4","last_reported":1752819428,"current_range_meters":20000,"station_id":"st_cvj6ca6bvosntc0bfgr0","pricing_plan_id":"cebpf4jnsgd1na2vs0mg"},{"bike_id":"2a52123a-1d25-4712-ac8b-dde042790f49","system_id":"levelo_inurba_marseille","lat":43.31333,"lon":5.39688,"is_reserved":false,"is_disabled":false,"rental_uris":{"android":"levelo://app?vid=2a52123a-1d25-4712-ac8b-dde042790f49","ios":"levelo://app?vid=2a52123a-1d25-4712-ac8b-dde042790f49"},"vehicle_type_id":"4","last_reported":1752819428,"current_range_meters":20000,"station_id":"ce4bgvp2rcd13ifvqcu0","pricing_plan_id":"cebpf4jnsgd1na2vs0mg"},{"bike_id":"21049745-15b1-4e4c-aa19-b33aeae249eb","system_id":"levelo_inurba_marseille","lat":43.30273,"lon":5.37693,"is_reserved":false,"is_disabled":false,"rental_uris":{"android":"levelo://app?vid=21049745-15b1-4e4c-aa19-b33aeae249eb","ios":"levelo://app?vid=21049745-15b1-4e4c-aa19-b33aeae249eb"},"vehicle_type_id":"4","last_reported":1752819428,"current_range_meters":19600,"station_id":"ce4bguh2rcd13ifvqcj0","pricing_plan_id":"cebpf4jnsgd1na2vs0mg"},{"bike_id":"6d1a5811-4117-41c5-a767-6b28cc4c80e0","system_id":"levelo_inurba_marseille","lat":43.2795,"lon":5.4104,"is_reserved":false,"is_disabled":false,"rental_uris":{"android":"levelo://app?vid=6d1a5811-4117-41c5-a767-6b28cc4c80e0","ios":"levelo://app?vid=6d1a5811-4117-41c5-a767-6b28cc4c80e0"},"vehicle_type_id":"4","last_reported":1752819428,"current_range_meters":20000,"station_id":"ce4bhnp2rcd13ifvqh0g","pricing_plan_id":"cebpf4jnsgd1na2vs0mg"},{"bike_id":"fda613f1-6e35-4013-9a50-57acf51f7ab0","system_id":"levelo_inurba_marseille","lat":43.31758,"lon":5.39031,"is_reserved":false,"is_disabled":false,"rental_uris":{"android":"levelo://app?vid=fda613f1-6e35-4013-9a50-57acf51f7ab0","ios":"levelo://app?vid=fda613f1-6e35-4013-9a50-57acf51f7ab0"},"vehicle_type_id":"4","last_reported":1752819428,"current_range_meters":20000,"station_id":"ce4bhqp2rcd13ifvqhng","pricing_plan_id":"cebpf4jnsgd1na2vs0mg"},{"bike_id":"5990edc1-1f85-4ae3-bc9c-a4bd7429e4ba","system_id":"levelo_inurba_marseille","lat":43.30345,"lon":5.40403,"is_reserved":false,"is_disabled":false,"rental_uris":{"android":"levelo://app?vid=5990edc1-1f85-4ae3-bc9c-a4bd7429e4ba","ios":"levelo://app?vid=5990edc1-1f85-4ae3-bc9c-a4bd7429e4ba"},"vehicle_type_id":"4","last_reported":1752819428,"current_range_meters":20000,"station_id":"ce4bh012rcd13ifvqd10","pricing_plan_id":"cebpf4jnsgd1na2vs0mg"},{"bike_id":"c0da53dd-da4e-4b16-b0f5-911512ec00b4","system_id":"levelo_inurba_marseille","lat":43.25863,"lon":5.399,"is_reserved":false,"is_disabled":false,"rental_uris":{"android":"levelo://app?vid=c0da53dd-da4e-4b16-b0f5-911512ec00b4","ios":"levelo://app?vid=c0da53dd-da4e-4b16-b0f5-911512ec00b4"},"vehicle_type_id":"4","last_reported":1752819428,"current_range_meters":20400,"station_id":"ce4bhl92rcd13ifvqghg","pricing_plan_id":"cebpf4jnsgd1na2vs0mg"},{"bike_id":"2ffc5795-62f8-4b9c-9b98-d06aa5124be3","system_id":"levelo_inurba_marseille","lat":43.303256,"lon":5.404444,"is_reserved":false,"is_disabled":false,"rental_uris":{"android":"levelo://app?vid=2ffc5795-62f8-4b9c-9b98-d06aa5124be3","ios":"levelo://app?vid=2ffc5795-62f8-4b9c-9b98-d06aa5124be3"},"vehicle_type_id":"4","last_reported":1752819428,"current_range_meters":20400,"station_id":"ce4bh012rcd13ifvqd10","pricing_plan_id":"cebpf4jnsgd1na2vs0mg"},{"bike_id":"dc72538a-58ac-48f6-9e6d-aedcae0f751b","system_id":"levelo_inurba_marseille","lat":43.28878,"lon":5.39291,"is_reserved":false,"is_disabled":false,"rental_uris":{"android":"levelo://app?vid=dc72538a-58ac-48f6-9e6d-aedcae0f751b","ios":"levelo://app?vid=dc72538a-58ac-48f6-9e6d-aedcae0f751b"},"vehicle_type_id":"4","last_reported":1752819428,"current_range_meters":20400,"station_id":"ce4bh2p2rcd13ifvqdi0","pricing_plan_id":"cebpf4jnsgd1na2vs0mg"},{"bike_id":"a7b92e07-0d22-4b45-8ef1-b763127c437f","system_id":"levelo_inurba_marseille","lat":43.325207,"lon":5.375647,"is_reserved":false,"is_disabled":false,"rental_uris":{"android":"levelo://app?vid=a7b92e07-0d22-4b45-8ef1-b763127c437f","ios":"levelo://app?vid=a7b92e07-0d22-4b45-8ef1-b763127c437f"},"vehicle_type_id":"4","last_reported":1752819428,"current_range_meters":20400,"station_id":"","pricing_plan_id":"cebpf4jnsgd1na2vs0mg"},{"bike_id":"10d391b5-c179-4f9b-944d-e8c56b01a775","system_id":"levelo_inurba_marseille","lat":43.22484,"lon":5.34754,"is_reserved":false,"is_disabled":false,"rental_uris":{"android":"levelo://app?vid=10d391b5-c179-4f9b-944d-e8c56b01a775","ios":"levelo://app?vid=10d391b5-c179-4f9b-944d-e8c56b01a775"},"vehicle_type_id":"4","last_reported":1752819428,"current_range_meters":20400,"station_id":"st_cvj5dfep6f1abm77gieg","pricing_plan_id":"cebpf4jnsgd1na2vs0mg"},{"bike_id":"d49f7a33-07ca-4b2a-a6b6-09684ba2f163","system_id":"levelo_inurba_marseille","lat":43.30312,"lon":5.40457,"is_reserved":false,"is_disabled":false,"rental_uris":{"android":"levelo://app?vid=d49f7a33-07ca-4b2a-a6b6-09684ba2f163","ios":"levelo://app?vid=d49f7a33-07ca-4b2a-a6b6-09684ba2f163"},"vehicle_type_id":"4","last_reported":1752819428,"current_range_meters":20400,"station_id":"ce4bh012rcd13ifvqd10","pricing_plan_id":"cebpf4jnsgd1na2vs0mg"},{"bike_id":"ea17f707-a93b-4469-942f-4292a90cb2ee","system_id":"levelo_inurba_marseille","lat":43.3069,"lon":5.40038,"is_reserved":false,"is_disabled":false,"rental_uris":{"android":"levelo://app?vid=ea17f707-a93b-4469-942f-4292a90cb2ee","ios":"levelo://app?vid=ea17f707-a93b-4469-942f-4292a90cb2ee"},"vehicle_type_id":"4","last_reported":1752819428,"current_range_meters":20800,"station_id":"","pricing_plan_id":"cebpf4jnsgd1na2vs0mg"},{"bike_id":"ced40597-4989-4515-a3ac-bdab54cf1a22","system_id":"levelo_inurba_marseille","lat":43.29657,"lon":5.37834,"is_reserved":false,"is_disabled":false,"rental_uris":{"android":"levelo://app?vid=ced40597-4989-4515-a3ac-bdab54cf1a22","ios":"levelo://app?vid=ced40597-4989-4515-a3ac-bdab54cf1a22"},"vehicle_type_id":"4","last_reported":1752819428,"current_range_meters":20800,"station_id":"","pricing_plan_id":"cebpf4jnsgd1na2vs0mg"},{"bike_id":"75c386ec-2b11-4ceb-a42e-98a6dc1d6c01","system_id":"levelo_inurba_marseille","lat":43.21182,"lon":5.35071,"is_reserved":false,"is_disabled":false,"rental_uris":{"android":"levelo://app?vid=75c386ec-2b11-4ceb-a42e-98a6dc1d6c01","ios":"levelo://app?vid=75c386ec-2b11-4ceb-a42e-98a6dc1d6c01"},"vehicle_type_id":"4","last_reported":1752819428,"current_range_meters":20800,"station_id":"st_cvj6sg6p6f1abm77japg","pricing_plan_id":"cebpf4jnsgd1na2vs0mg"},{"bike_id":"aacce92b-4365-4bf0-ae27-3a02b5869286","system_id":"levelo_inurba_marseille","lat":43.33713,"lon":5.39187,"is_reserved":false,"is_disabled":false,"rental_uris":{"android":"levelo://app?vid=aacce92b-4365-4bf0-ae27-3a02b5869286","ios":"levelo://app?vid=aacce92b-4365-4bf0-ae27-3a02b5869286"},"vehicle_type_id":"4","last_reported":1752819428,"current_range_meters":21600,"station_id":"ce4bhr92rcd13ifvqhsg","pricing_plan_id":"cebpf4jnsgd1na2vs0mg"},{"bike_id":"36378d46-39bd-4ee5-ab7f-d802c9096549","system_id":"levelo_inurba_marseille","lat":43.30906,"lon":5.36854,"is_reserved":false,"is_disabled":false,"rental_uris":{"android":"levelo://app?vid=36378d46-39bd-4ee5-ab7f-d802c9096549","ios":"levelo://app?vid=36378d46-39bd-4ee5-ab7f-d802c9096549"},"vehicle_type_id":"4","last_reported":1752819428,"current_range_meters":21600,"station_id":"ce4bgn92rcd13ifvqbvg","pricing_plan_id":"cebpf4jnsgd1na2vs0mg"},{"bike_id":"4681d997-a4e6-4213-a818-e46c32952b78","system_id":"levelo_inurba_marseille","lat":43.251111,"lon":5.403236,"is_reserved":false,"is_disabled":false,"rental_uris":{"android":"levelo://app?vid=4681d997-a4e6-4213-a818-e46c32952b78","ios":"levelo://app?vid=4681d997-a4e6-4213-a818-e46c32952b78"},"vehicle_type_id":"4","last_reported":1752819428,"current_range_meters":21600,"station_id":"ce4bhlh2rcd13ifvqgig","pricing_plan_id":"cebpf4jnsgd1na2vs0mg"},{"bike_id":"44e89ad7-16a2-4910-805f-061f2aee5ab7","system_id":"levelo_inurba_marseille","lat":43.23195,"lon":5.35548,"is_reserved":false,"is_disabled":false,"rental_uris":{"android":"levelo://app?vid=44e89ad7-16a2-4910-805f-061f2aee5ab7","ios":"levelo://app?vid=44e89ad7-16a2-4910-805f-061f2aee5ab7"},"vehicle_type_id":"4","last_reported":1752819428,"current_range_meters":21600,"station_id":"ce4bhu92rcd13ifvqi70","pricing_plan_id":"cebpf4jnsgd1na2vs0mg"},{"bike_id":"e5fae530-aa4d-419c-ab7d-2b2c826eb2cc","system_id":"levelo_inurba_marseille","lat":43.29259,"lon":5.40917,"is_reserved":false,"is_disabled":false,"rental_uris":{"android":"levelo://app?vid=e5fae530-aa4d-419c-ab7d-2b2c826eb2cc","ios":"levelo://app?vid=e5fae530-aa4d-419c-ab7d-2b2c826eb2cc"},"vehicle_type_id":"4","last_reported":1752819428,"current_range_meters":21600,"station_id":"ce4bh192rcd13ifvqdc0","pricing_plan_id":"cebpf4jnsgd1na2vs0mg"},