{"last_updated":1736446371,"ttl":60,"version":"2.2","data":{"bikes":[{"bike_id":"01030598-7e5b-4658-9c08-654b4b038c29","system_id":"levelo_inurba_marseille","lat":43.32288,"lon":5.38281,"is_reserved":false,"is_disabled":false,"rental_uris":{"android":"levelo://app?vid=01030598-7e5b-4658-9c08-654b4b038c29","ios":"levelo://app?vid=01030598-7e5b-4658-9c08-654b4b038c29"},"vehicle_type_id":"4","last_reported":1736446372,"current_range_meters":19600,"station_id":"ce4bhr12rcd13ifvqhqg","pricing_plan_id":"cebpf4jnsgd1na2vs0mg"},{"bike_id":"5ad0ecd3-adc5-4657-990a-b256b0dc168c","system_id":"levelo_inurba_marseille","lat":43.32657,"lon":5.40999,"is_reserved":false,"is_disabled":false,"rental_uris":{"android":"levelo://app?vid=5ad0ecd3-adc5-4657-990a-b256b0dc168c","ios":"levelo://app?vid=5ad0ecd3-adc5-4657-990a-b256b0dc168c"},"vehicle_type_id":"4","last_reported":1736446372,"current_range_meters":24000,"station_id":"ce4bhpp2rcd13ifvqhgg","pricing_plan_id":"cebpf4jnsgd1na2vs0mg"},{"bike_id":"f145cc86-8330-404c-a4f3-328f9d5501dc","system_id":"levelo_inurba_marseille","lat":43.30465,"lon":5.37915,"is_reserved":false,"is_disabled":false,"rental_uris":{"android":"levelo://app?vid=f145cc86-8330-404c-a4f3-328f9d5501dc","ios":"levelo://app?vid=f145cc86-8330-404c-a4f3-328f9d5501dc"},"vehicle_type_id":"4","last_reported":1736446372,"current_range_meters":16400,"station_id":"ce4bgup2rcd13ifvqcn0","pricing_plan_id":"cebpf4jnsgd1na2vs0mg"},{"bike_id":"87c59741-1f05-4e3d-8c14-38f01f8816a9","system_id":"levelo_inurba_marseille","lat":43.23201,"lon":5.35552,"is_reserved":false,"is_disabled":false,"rental_uris":{"android":"levelo://app?vid=87c59741-1f05-4e3d-8c14-38f01f8816a9","ios":"levelo://app?vid=87c59741-1f05-4e3d-8c14-38f01f8816a9"},"vehicle_type_id":"4","last_reported":1736446372,"current_range_meters":14800,"station_id":"ce4bhu92rcd13ifvqi70","pricing_plan_id":"cebpf4jnsgd1na2vs0mg"},{"bike_id":"e3ed715f-8540-4a0c-8d1a-84fadaf0dd0f","system_id":"levelo_inurba_marseille","lat":43.34358,"lon":5.38319,"is_reserved":false,"is_disabled":false,"rental_uris":{"android":"levelo://app?vid=e3ed715f-8540-4a0c-8d1a-84fadaf0dd0f","ios":"levelo://app?vid=e3ed715f-8540-4a0c-8d1a-84fadaf0dd0f"},"vehicle_type_id":"4","last_reported":1736446372,"current_range_meters":38000,"station_id":"","pricing_plan_id":"cebpf4jnsgd1na2vs0mg"},{"bike_id":"079a2489-d193-414b-8b47-82e93bfb4b65","system_id":"levelo_inurba_marseille","lat":43.28905,"lon":5.37983,"is_reserved":false,"is_disabled":false,"rental_uris":{"android":"levelo://app?vid=079a2489-d193-414b-8b47-82e93bfb4b65","ios":"levelo://app?vid=079a2489-d193-414b-8b47-82e93bfb4b65"},"vehicle_type_id":"4","last_reported":1736446372,"current_range_meters":31200,"station_id":"","pricing_plan_id":"cebpf4jnsgd1na2vs0mg"},{"bike_id":"081b19b6-856a-4928-8213-e8a704da9536","system_id":"levelo_inurba_marseille","lat":43.27059,"lon":5.40258,"is_reserved":false,"is_disabled":false,"rental_uris":{"android":"levelo://app?vid=081b19b6-856a-4928-8213-e8a704da9536","ios":"levelo://app?vid=081b19b6-856a-4928-8213-e8a704da9536"},"vehicle_type_id":"4","last_reported":1736446372,"current_range_meters":26000,"station_id":"ce4bhk92rcd13ifvqgc0","pricing_plan_id":"cebpf4jnsgd1na2vs0mg"},{"bike_id":"55a02019-1e86-4005-a9d2-298fc0cff8d0","system_id":"levelo_inurba_marseille","lat":43.29788,"lon":5.39346,"is_reserved":false,"is_disabled":false,"rental_uris":{"android":"levelo://app?vid=55a02019-1e86-4005-a9d2-298fc0cff8d0","ios":"levelo://app?vid=55a02019-1e86-4005-a9d2-298fc0cff8d0"},"vehicle_type_id":"4","last_reported":1736446372,"current_range_meters":24400,"station_id":"chh1huq6cuj3fo74tm60","pricing_plan_id":"cebpf4jnsgd1na2vs0mg"},{"bike_id":"90665ac2-a6cf-443c-89c0-0f0e8642d0af","system_id":"levelo_inurba_marseille","lat":43.29529,"lon":5.3854,"is_reserved":false,"is_disabled":false,"rental_uris":{"android":"levelo://app?vid=90665ac2-a6cf-443c-89c0-0f0e8642d0af","ios":"levelo://app?vid=90665ac2-a6cf-443c-89c0-0f0e8642d0af"},"vehicle_type_id":"4","last_reported":1736446372,"current_range_meters":34000,"station_id":"ce4bgih2rcd13ifvqba0","pricing_plan_id":"cebpf4jnsgd1na2vs0mg"},{"bike_id":"6727a1a4-fd3a-4415-a389-697df82e67ba","system_id":"levelo_inurba_marseille","lat":43.27995,"lon":5.41666,"is_reserved":false,"is_disabled":true,"rental_uris":{"android":"levelo://app?vid=6727a1a4-fd3a-4415-a389-697df82e67ba","ios":"levelo://app?vid=6727a1a4-fd3a-4415-a389-697df82e67ba"},"vehicle_type_id":"4","last_reported":1736446372,"current_range_meters":27200,"station_id":"ce4bho12rcd13ifvqh1g","pricing_plan_id":"cebpf4jnsgd1na2vs0mg"},{"bike_id":"b1346f2c-7cab-41f4-b9e9-053904c9fb2b","system_id":"levelo_inurba_marseille","lat":43.23962,"lon":5.36623,"is_reserved":false,"is_disabled":false,"rental_uris":{"android":"levelo://app?vid=b1346f2c-7cab-41f4-b9e9-053904c9fb2b","ios":"levelo://app?vid=b1346f2c-7cab-41f4-b9e9-053904c9fb2b"},"vehicle_type_id":"4","last_reported":1736446372,"current_range_meters":10000,"station_id":"ce4bhi12rcd13ifvqfp0","pricing_plan_id":"cebpf4jnsgd1na2vs0mg"},{"bike_id":"e3caf4fe-1067-47fd-8fc1-7a292d695a1f","system_id":"levelo_inurba_marseille","lat":43.30142,"lon":5.39879,"is_reserved":false,"is_disabled":false,"rental_uris":{"android":"levelo://app?vid=e3caf4fe-1067-47fd-8fc1-7a292d695a1f","ios":"levelo://app?vid=e3caf4fe-1067-47fd-8fc1-7a292d695a1f"},"vehicle_type_id":"4","last_reported":1736446372,"current_range_meters":28800,"station_id":"ce4bh0h2rcd13ifvqd40","pricing_plan_id":"cebpf4jnsgd1na2vs0mg"},{"bike_id":"557828ed-5fea-4a16-bdd7-bb456bb41c1c","system_id":"levelo_inurba_marseille","lat":43.29576,"lon":5.39974,"is_reserved":false,"is_disabled":false,"rental_uris":{"android":"levelo://app?vid=557828ed-5fea-4a16-bdd7-bb456bb41c1c","ios":"levelo://app?vid=557828ed-5fea-4a16-bdd7-bb456bb41c1c"},"vehicle_type_id":"4","last_reported":1736446372,"current_range_meters":22000,"station_id":"ce4bh312rcd13ifvqdj0","pricing_plan_id":"cebpf4jnsgd1na2vs0mg"},{"bike_id":"93fa7c71-5d8f-4feb-89b1-77e70dee5a4d","system_id":"levelo_inurba_marseille","lat":43.28447,"lon":5.39208,"is_reserved":false,"is_disabled":true,"rental_uris":{"android":"levelo://app?vid=93fa7c71-5d8f-4feb-89b1-77e70dee5a4d","ios":"levelo://app?vid=93fa7c71-5d8f-4feb-89b1-77e70dee5a4d"},"vehicle_type_id":"4","last_reported":1736446372,"current_range_meters":16000,"station_id":"ce4bhoh2rcd13ifvqh5g","pricing_plan_id":"cebpf4jnsgd1na2vs0mg"},{"bike_id":"1dd50d83-8960-43b6-9680-5ca7c87a3318","system_id":"levelo_inurba_marseille","lat":43.28929,"lon":5.38402,"is_reserved":false,"is_disabled":false,"rental_uris":{"android":"levelo://app?vid=1dd50d83-8960-43b6-9680-5ca7c87a3318","ios":"levelo://app?vid=1dd50d83-8960-43b6-9680-5ca7c87a3318"},"vehicle_type_id":"4","last_reported":1736446372,"current_range_meters":39200,"station_id":"ce4bh612rcd13ifvqe6g","pricing_plan_id":"cebpf4jnsgd1na2vs0mg"},{"bike_id":"ece82557-6569-4215-9027-5b44a37fe52e","system_id":"levelo_inurba_marseille","lat":43.29094,"lon":5.38015,"is_reserved":false,"is_disabled":true,"rental_uris":{"android":"levelo://app?vid=ece82557-6569-4215-9027-5b44a37fe52e","ios":"levelo://app?vid=ece82557-6569-4215-9027-5b44a37fe52e"},"vehicle_type_id":"4","last_reported":1736446372,"current_range_meters":0,"station_id":"","pricing_plan_id":"cebpf4jnsgd1na2vs0mg"},{"bike_id":"7e512c8d-b0d0-4ed3-8ad0-dfeb94018a1a","system_id":"levelo_inurba_marseille","lat":43.28463,"lon":5.3589,"is_reserved":false,"is_disabled":false,"rental_uris":{"android":"levelo://app?vid=7e512c8d-b0d0-4ed3-8ad0-dfeb94018a1a","ios":"levelo://app?vid=7e512c8d-b0d0-4ed3-8ad0-dfeb94018a1a"},"vehicle_type_id":"4","last_reported":1736446372,"current_range_meters":8800,"station_id":"ce4bhah2rcd13ifvqei0","pricing_plan_id":"cebpf4jnsgd1na2vs0mg"},{"bike_id":"3695d691-9835-4811-94e6-31475e203adb","system_id":"levelo_inurba_marseille","lat":43.31344,"lon":5.38486,"is_reserved":false,"is_disabled":false,"rental_uris":{"android":"levelo://app?vid=3695d691-9835-4811-94e6-31475e203adb","ios":"levelo://app?vid=3695d691-9835-4811-94e6-31475e203adb"},"vehicle_type_id":"4","last_reported":1736446372,"current_range_meters":25600,"station_id":"ce4bgt92rcd13ifvqcf0","pricing_plan_id":"cebpf4jnsgd1na2vs0mg"},{"bike_id":"ccc543ce-d5ee-40ff-a9ec-f59fca2d3d0a","system_id":"levelo_inurba_marseille","lat":43.2902,"lon":5.3864,"is_reserved":false,"is_disabled":false,"rental_uris":{"android":"levelo://app?vid=ccc543ce-d5ee-40ff-a9ec-f59fca2d3d0a","ios":"levelo://app?vid=ccc543ce-d5ee-40ff-a9ec-f59fca2d3d0a"},"vehicle_type_id":"4","last_reported":1736446372,"current_range_meters":33600,"station_id":"ce4bh4p2rcd13ifvqe0g","pricing_plan_id":"cebpf4jnsgd1na2vs0mg"},{"bike_id":"38f0dbc0-5843-45de-a0cf-8d4a0f6c60f2","system_id":"levelo_inurba_marseille","lat":43.28671,"lon":5.36351,"is_reserved":false,"is_disabled":false,"rental_uris":{"android":"levelo://app?vid=38f0dbc0-5843-45de-a0cf-8d4a0f6c60f2","ios":"levelo://app?vid=38f0dbc0-5843-45de-a0cf-8d4a0f6c60f2"},"vehicle_type_id":"4","last_reported":1736446372,"current_range_meters":37600,"station_id":"ce4bhah2rcd13ifvqej0","pricing_plan_id":"cebpf4jnsgd1na2vs0mg"},{"bike_id":"563c4a7d-5391-46eb-ab20-093cc97fac26","system_id":"levelo_inurba_marseille","lat":43.28463,"lon":5.35897,"is_reserved":false,"is_disabled":false,"rental_uris":{"android":"levelo://app?vid=563c4a7d-5391-46eb-ab20-093cc97fac26","ios":"levelo://app?vid=563c4a7d-5391-46eb-ab20-093cc97fac26"},"vehicle_type_id":"4","last_reported":1736446372,"current_range_meters":11600,"station_id":"ce4bhah2rcd13ifvqei0","pricing_plan_id":"cebpf4jnsgd1na2vs0mg"},{"bike_id":"4bf95e96-add7-4b29-a56b-49a43054368a","system_id":"levelo_inurba_marseille","lat":43.24801,"lon":5.3749,"is_reserved":false,"is_disabled":false,"rental_uris":{"android":"levelo://app?vid=4bf95e96-add7-4b29-a56b-49a43054368a","ios":"levelo://app?vid=4bf95e96-add7-4b29-a56b-49a43054368a"},"vehicle_type_id":"4","last_reported":1736446372,"current_range_meters":38800,"station_id":"ce4bhgh2rcd13ifvqfb0","pricing_plan_id":"cebpf4jnsgd1na2vs0mg"},{"bike_id":"004c2ac5-7f25-4e48-8a80-9a02537f6ba6","system_id":"levelo_inurba_marseille","lat":43.32108,"lon":5.36802,"is_reserved":false,"is_disabled":false,"rental_uris":{"android":"levelo://app?vid=004c2ac5-7f25-4e48-8a80-9a02537f6ba6","ios":"levelo://app?vid=004c2ac5-7f25-4e48-8a80-9a02537f6ba6"},"vehicle_type_id":"4","last_reported":1736446372,"current_range_meters":38800,"station_id":"ce4bhrh2rcd13ifvqhug","pricing_plan_id":"cebpf4jnsgd1na2vs0mg"},{"bike_id":"da418221-1976-48cc-9879-50b500d03b62","system_id":"levelo_inurba_marseille","lat":43.2979,"lon":5.3809,"is_reserved":false,"is_disabled":false,"rental_uris":{"android":"levelo://app?vid=da418221-1976-48cc-9879-50b500d03b62","ios":"levelo://app?vid=da418221-1976-48cc-9879-50b500d03b62"},"vehicle_type_id":"4","last_reported":1736446372,"current_range_meters":34800,"station_id":"ce4bgip2rcd13ifvqbb0","pricing_plan_id":"cebpf4jnsgd1na2vs0mg"},{"bike_id":"bb173ba5-b705-43ab-b902-db5980b6575f","system_id":"levelo_inurba_marseille","lat":43.2835,"lon":5.38097,"is_reserved":false,"is_disabled":false,"rental_uris":{"android":"levelo://app?vid=bb173ba5-b705-43ab-b902-db5980b6575f","ios":"levelo://app?vid=bb173ba5-b705-43ab-b902-db5980b6575f"},"vehicle_type_id":"4","last_reported":1736446372,"current_range_meters":6800,"station_id":"ce4bh412rcd13ifvqdr0","pricing_plan_id":"cebpf4jnsgd1na2vs0mg"},{"bike_id":"649a2a58-34bd-4c0d-9385-73dee88ba11e","system_id":"levelo_inurba_marseille","lat":43.29963,"lon":5.38502,"is_reserved":false,"is_disabled":false,"rental_uris":{"android":"levelo://app?vid=649a2a58-34bd-4c0d-9385-73dee88ba11e","ios":"levelo://app?vid=649a2a58-34bd-4c0d-9385-73dee88ba11e"},"vehicle_type_id":"4","last_reported":1736446372,"current_range_meters":8800,"station_id":"ce4bgj92rcd13ifvqbd0","pricing_plan_id":"cebpf4jnsgd1na2vs0mg"},{"bike_id":"533bc63a-db50-4c62-9b68-283781947748","system_id":"levelo_inurba_marseille","lat":43.28464,"lon":5.35889,"is_reserved":false,"is_disabled":false,"rental_uris":{"android":"levelo://app?vid=533bc63a-db50-4c62-9b68-283781947748","ios":"levelo://app?vid=533bc63a-db50-4c62-9b68-283781947748"},"vehicle_type_id":"4","last_reported":1736446372,"current_range_meters":6800,"station_id":"ce4bhah2rcd13ifvqei0","pricing_plan_id":"cebpf4jnsgd1na2vs0mg"},{"bike_id":"4a2601ce-b8a3-401d-9bcf-b1a5174e0572","system_id":"levelo_inurba_marseille","lat":43.29527,"lon":5.3905,"is_reserved":false,"is_disabled":false,"rental_uris":{"android":"levelo://app?vid=4a2601ce-b8a3-401d-9bcf-b1a5174e0572","ios":"levelo://app?vid=4a2601ce-b8a3-401d-9bcf-b1a5174e0572"},"vehicle_type_id":"4","last_reported":1736446372,"current_range_meters":37600,"station_id":"ce4bh3p2rcd13ifvqdp0","pricing_plan_id":"cebpf4jnsgd1na2vs0mg"},{"bike_id":"8a0df70f-3b60-4510-bdf9-1eb41a2abb80","system_id":"levelo_inurba_marseille","lat":43.33608,"lon":5.41012,"is_reserved":false,"is_disabled":true,"rental_uris":{"android":"levelo://app?vid=8a0df70f-3b60-4510-bdf9-1eb41a2abb80","ios":"levelo://app?vid=8a0df70f-3b60-4510-bdf9-1eb41a2abb80"},"vehicle_type_id":"4","last_reported":1736446372,"current_range_meters":0,"station_id":"ce4bhqh2rcd13ifvqhmg","pricing_plan_id":"cebpf4jnsgd1na2vs0mg"},{"bike_id":"cb153d91-817b-4c66-9c1b-0ef2fcb66fe0","system_id":"levelo_inurba_marseille","lat":43.313812,"lon":5.379726,"is_reserved":false,"is_disabled":false,"rental_uris":{"android":"levelo://app?vid=cb153d91-817b-4c66-9c1b-0ef2fcb66fe0","ios":"levelo://app?vid=cb153d91-817b-4c66-9c1b-0ef2fcb66fe0"},"vehicle_type_id":"4","last_reported":1736446372,"current_range_meters":20000,"station_id":"ce4bhsp2rcd13ifvqi50","pricing_plan_id":"cebpf4jnsgd1na2vs0mg"},{"bike_id":"9a070174-94da-43ba-9721-0f57af354527","system_id":"levelo_inurba_marseille","lat":43.29543,"lon":5.39394,"is_reserved":false,"is_disabled":false,"rental_uris":{"android":"levelo://app?vid=9a070174-94da-43ba-9721-0f57af354527","ios":"levelo://app?vid=9a070174-94da-43ba-9721-0f57af354527"},"vehicle_type_id":"4","last_reported":1736446372,"current_range_meters":32800,"station_id":"ce4bh292rcd13ifvqdf0","pricing_plan_id":"cebpf4jnsgd1na2vs0mg"},{"bike_id":"bcbb9fd1-764c-4b9c-a936-c3a6fd85faae","system_id":"levelo_inurba_marseille","lat":43.30887,"lon":5.37195,"is_reserved":false,"is_disabled":false,"rental_uris":{"android":"levelo://app?vid=bcbb9fd1-764c-4b9c-a936-c3a6fd85faae","ios":"levelo://app?vid=bcbb9fd1-764c-4b9c-a936-c3a6fd85faae"},"vehicle_type_id":"4","last_reported":1736446372,"current_range_meters":12000,"station_id":"ce4bguh2rcd13ifvqckg","pricing_plan_id":"cebpf4jnsgd1na2vs0mg"},{"bike_id":"a890ddda-8431-42d9-95b9-2952fd899a75","system_id":"levelo_inurba_marseille","lat":43.27987,"lon":5.41682,"is_reserved":false,"is_disabled":true,"rental_uris":{"android":"levelo://app?vid=a890ddda-8431-42d9-95b9-2952fd899a75","ios":"levelo://app?vid=a890ddda-8431-42d9-95b9-2952fd899a75"},"vehicle_type_id":"4","last_reported":1736446372,"current_range_meters":24800,"station_id":"ce4bho12rcd13ifvqh1g","pricing_plan_id":"cebpf4jnsgd1na2vs0mg"},{"bike_id":"ef844d6b-8fbb-4910-ba06-943625b66ced","system_id":"levelo_inurba_marseille","lat":43.30593,"lon":5.39351,"is_reserved":false,"is_disabled":false,"rental_uris":{"android":"levelo://app?vid=ef844d6b-8fbb-4910-ba06-943625b66ced","ios":"levelo://app?vid=ef844d6b-8fbb-4910-ba06-943625b66ced"},"vehicle_type_id":"4","last_reported":1736446372,"current_range_meters":38800,"station_id":"ce4bh0p2rcd13ifvqd80","pricing_plan_id":"cebpf4jnsgd1na2vs0mg"},{"bike_id":"9d5535df-7edb-47f9-ac14-54793dd626e0","system_id":"levelo_inurba_marseille","lat":43.22934,"lon":5.35379,"is_reserved":false,"is_disabled":false,"rental_uris":{"android":"levelo://app?vid=9d5535df-7edb-47f9-ac14-54793dd626e0","ios":"levelo://app?vid=9d5535df-7edb-47f9-ac14-54793dd626e0"},"vehicle_type_id":"4","last_reported":1736446372,"current_range_meters":27600,"station_id":"cpo3532slgdg3j2ikp40","pricing_plan_id":"cebpf4jnsgd1na2vs0mg"},{"bike_id":"3ca2cf6e-3b23-4345-a859-0106a2e40ca6","system_id":"levelo_inurba_marseille","lat":43.33609,"lon":5.41035,"is_reserved":false,"is_disabled":false,"rental_uris":{"android":"levelo://app?vid=3ca2cf6e-3b23-4345-a859-0106a2e40ca6","ios":"levelo://app?vid=3ca2cf6e-3b23-4345-a859-0106a2e40ca6"},"vehicle_type_id":"4","last_reported":1736446372,"current_range_meters":32800,"station_id":"ce4bhqh2rcd13ifvqhmg","pricing_plan_id":"cebpf4jnsgd1na2vs0mg"},{"bike_id":"0617fde0-97c2-4716-8570-25581d6a6543","system_id":"levelo_inurba_marseille","lat":43.2749,"lon":5.4246,"is_reserved":false,"is_disabled":true,"rental_uris":{"android":"levelo://app?vid=0617fde0-97c2-4716-8570-25581d6a6543","ios":"levelo://app?vid=0617fde0-97c2-4716-8570-25581d6a6543"},"vehicle_type_id":"4","last_reported":1736446372,"current_range_meters":0,"station_id":"ce4bhn92rcd13ifvqgrg","pricing_plan_id":"cebpf4jnsgd1na2vs0mg"},{"bike_id":"30dba63a-a770-457b-9ff6-ffd38dfa754b","system_id":"levelo_inurba_marseille","lat":43.27004,"lon":5.39954,"is_reserved":false,"is_disabled":false,"rental_uris":{"android":"levelo://app?vid=30dba63a-a770-457b-9ff6-ffd38dfa754b","ios":"levelo://app?vid=30dba63a-a770-457b-9ff6-ffd38dfa754b"},"vehicle_type_id":"4","last_reported":1736446372,"current_range_meters":6400,"station_id":"","pricing_plan_id":"cebpf4jnsgd1na2vs0mg"},{"bike_id":"985f4a98-88ce-44df-a377-306817541fa4","system_id":"levelo_inurba_marseille","lat":43.28617,"lon":5.35096,"is_reserved":false,"is_disabled":false,"rental_uris":{"android":"levelo://app?vid=985f4a98-88ce-44df-a377-306817541fa4","ios":"levelo://app?vid=985f4a98-88ce-44df-a377-306817541fa4"},"vehicle_type_id":"4","last_reported":1736446372,"current_range_meters":14400,"station_id":"ce4bhch2rcd13ifvqeug","pricing_plan_id":"cebpf4jnsgd1na2vs0mg"},{"bike_id":"feeeae9a-4bcc-477a-bc8c-e9391fa8aedd","system_id":"levelo_inurba_marseille","lat":43.29198,"lon":5.39292,"is_reserved":false,"is_disabled":true,"rental_uris":{"android":"levelo://app?vid=feeeae9a-4bcc-477a-bc8c-e9391fa8aedd","ios":"levelo://app?vid=feeeae9a-4bcc-477a-bc8c-e9391fa8aedd"},"vehicle_type_id":"4","last_reported":1736446372,"current_range_meters":0,"station_id":"ce4bh192rcd13ifvqdd0","pricing_plan_id":"cebpf4jnsgd1na2vs0mg"},{"bike_id":"bbb42691-618e-438b-93dc-2acd2c34e075","system_id":"levelo_inurba_marseille","lat":43.30809,"lon":5.435181,"is_reserved":false,"is_disabled":false,"rental_uris":{"android":"levelo://app?vid=bbb42691-618e-438b-93dc-2acd2c34e075","ios":"levelo://app?vid=bbb42691-618e-438b-93dc-2acd2c34e075"},"vehicle_type_id":"4","last_reported":1736446372,"current_range_meters":39200,"station_id":"ce4bhph2rcd13ifvqheg","pricing_plan_id":"cebpf4jnsgd1na2vs0mg"},{"bike_id":"dbe4d7d2-95f9-4a28-b000-f9ac7c3f52eb","system_id":"levelo_inurba_marseille","lat":43.29215,"lon":5.39338,"is_reserved":false,"is_disabled":true,"rental_uris":{"android":"levelo://app?vid=dbe4d7d2-95f9-4a28-b000-f9ac7c3f52eb","ios":"levelo://app?vid=dbe4d7d2-95f9-4a28-b000-f9ac7c3f52eb"},"vehicle_type_id":"4","last_reported":1736446372,"current_range_meters":0,"station_id":"ce4bh192rcd13ifvqdd0","pricing_plan_id":"cebpf4jnsgd1na2vs0mg"},{"bike_id":"1f332f31-305b-4f1a-b8af-5b121ba52cb2","system_id":"levelo_inurba_marseille","lat":43.2757,"lon":5.38421,"is_reserved":false,"is_disabled":false,"rental_uris":{"android":"levelo://app?vid=1f332f31-305b-4f1a-b8af-5b121ba52cb2","ios":"levelo://app?vid=1f332f31-305b-4f1a-b8af-5b121ba52cb2"},"vehicle_type_id":"4","last_reported":1736446372,"current_range_meters":10000,"station_id":"ce4bhh92rcd13ifvqfi0","pricing_plan_id":"cebpf4jnsgd1na2vs0mg"},{"bike_id":"fe1fc552-cf86-4a4d-83a6-ef2f55037509","system_id":"levelo_inurba_marseille","lat":43.30147,"lon":5.39858,"is_reserved":false,"is_disabled":false,"rental_uris":{"android":"levelo://app?vid=fe1fc552-cf86-4a4d-83a6-ef2f55037509","ios":"levelo://app?vid=fe1fc552-cf86-4a4d-83a6-ef2f55037509"},"vehicle_type_id":"4","last_reported":1736446372,"current_range_meters":30400,"station_id":"ce4bh0h2rcd13ifvqd40","pricing_plan_id":"cebpf4jnsgd1na2vs0mg"},{"bike_id":"3b0e496e-fb5d-467b-9517-d654f577d492","system_id":"levelo_inurba_marseille","lat":43.31071,"lon":5.38349,"is_reserved":false,"is_disabled":false,"rental_uris":{"android":"levelo://app?vid=3b0e496e-fb5d-467b-9517-d654f577d492","ios":"levelo://app?vid=3b0e496e-fb5d-467b-9517-d654f577d492"},"vehicle_type_id":"4","last_reported":1736446372,"current_range_meters":32000,"station_id":"ce4bgv92rcd13ifvqcr0","pricing_plan_id":"cebpf4jnsgd1na2vs0mg"},{"bike_id":"1b347b6b-23fa-46e1-b35b-40be16793e4d","system_id":"levelo_inurba_marseille","lat":43.31082,"lon":5.42432,"is_reserved":false,"is_disabled":false,"rental_uris":{"android":"levelo://app?vid=1b347b6b-23fa-46e1-b35b-40be16793e4d","ios":"levelo://app?vid=1b347b6b-23fa-46e1-b35b-40be16793e4d"},"vehicle_type_id":"4","last_reported":1736446372,"current_range_meters":27200,"station_id":"ce4bhp92rcd13ifvqhag","pricing_plan_id":"cebpf4jnsgd1na2vs0mg"},{"bike_id":"6d907632-b7a4-409f-98d5-031bae93ab87","system_id":"levelo_inurba_marseille","lat":43.23959,"lon":5.36632,"is_reserved":false,"is_disabled":false,"rental_uris":{"android":"levelo://app?vid=6d907632-b7a4-409f-98d5-031bae93ab87","ios":"levelo://app?vid=6d907632-b7a4-409f-98d5-031bae93ab87"},"vehicle_type_id":"4","last_reported":1736446372,"current_range_meters":10000,"station_id":"ce4bhi12rcd13ifvqfp0","pricing_plan_id":"cebpf4jnsgd1na2vs0mg"},{"bike_id":"9ff6c79f-1655-47c9-9a82-00fc79052237","system_id":"levelo_inurba_marseille","lat":43.28945,"lon":5.36646,"is_reserved":false,"is_disabled":false,"rental_uris":{"android":"levelo://app?vid=9ff6c79f-1655-47c9-9a82-00fc79052237","ios":"levelo://app?vid=9ff6c79f-1655-47c9-9a82-00fc79052237"},"vehicle_type_id":"4","last_reported":1736446372,"current_range_meters":33600,"station_id":"ce4bhap2rcd13ifvqek0","pricing_plan_id":"cebpf4jnsgd1na2vs0mg"},{"bike_id":"72bab1d4-ca6a-4af0-b086-b7d3f10c746e","system_id":"levelo_inurba_marseille","lat":43.30806,"lon":5.38163,"is_reserved":false,"is_disabled":false,"rental_uris":{"android":"levelo://app?vid=72bab1d4-ca6a-4af0-b086-b7d3f10c746e","ios":"levelo://app?vid=72bab1d4-ca6a-4af0-b086-b7d3f10c746e"},"vehicle_type_id":"4","last_reported":1736446372,"current_range_meters":30000,"station_id":"ce4bgt12rcd13ifvqce0","pricing_plan_id":"cebpf4jnsgd1na2vs0mg"},{"bike_id":"10462dcc-e13f-45f1-946d-e86779b50486","system_id":"levelo_inurba_marseille","lat":43.3081,"lon":5.38155,"is_reserved":false,"is_disabled":true,"rental_uris":{"android":"levelo://app?vid=10462dcc-e13f-45f1-946d-e86779b50486","ios":"levelo://app?vid=10462dcc-e13f-45f1-946d-e86779b50486"},"vehicle_type_id":"4","last_reported":1736446372,"current_range_meters":800,"station_id":"ce4bgt12rcd13ifvqce0","pricing_plan_id":"cebpf4jnsgd1na2vs0mg"},{"bike_id":"a816258e-3246-4099-b421-3c9b784b731d","system_id":"levelo_inurba_marseille","lat":43.24167,"lon":5.39709,"is_reserved":false,"is_disabled":false,"rental_uris":{"android":"levelo://app?vid=a816258e-3246-4099-b421-3c9b784b731d","ios":"levelo://app?vid=a816258e-3246-4099-b421-3c9b784b731d"},"vehicle_type_id":"4","last_reported":1736446372,"current_range_meters":38800,"station_id":"ce4bhn12rcd13ifvqgpg","pricing_plan_id":"cebpf4jnsgd1na2vs0mg"},{"bike_id":"8b16fe75-4fb4-4490-bf9c-50851b300223","system_id":"levelo_inurba_marseille","lat":43.29536,"lon":5.38543,"is_reserved":false,"is_disabled":false,"rental_uris":{"android":"levelo://app?vid=8b16fe75-4fb4-4490-bf9c-50851b300223","ios":"levelo://app?vid=8b16fe75-4fb4-4490-bf9c-50851b300223"},"vehicle_type_id":"4","last_reported":1736446372,"current_range_meters":38800,"station_id":"ce4bgih2rcd13ifvqba0","pricing_plan_id":"cebpf4jnsgd1na2vs0mg"},{"bike_id":"20daafc9-4aaa-4b54-8b79-eac236f93e15","system_id":"levelo_inurba_marseille","lat":43.279179,"lon":5.395837,"is_reserved":false,"is_disabled":false,"rental_uris":{"android":"levelo://app?vid=20daafc9-4aaa-4b54-8b79-eac236f93e15","ios":"levelo://app?vid=20daafc9-4aaa-4b54-8b79-eac236f93e15"},"vehicle_type_id":"4","last_reported":1736446372,"current_range_meters":16400,"station_id":"ce4bhf92rcd13ifvqf40","pricing_plan_id":"cebpf4jnsgd1na2vs0mg"},{"bike_id":"7a8815b0-b3da-47e7-ba3a-9a1b15d56a99","system_id":"levelo_inurba_marseille","lat":43.29441,"lon":5.3974,"is_reserved":false,"is_disabled":false,"rental_uris":{"android":"levelo://app?vid=7a8815b0-b3da-47e7-ba3a-9a1b15d56a99","ios":"levelo://app?vid=7a8815b0-b3da-47e7-ba3a-9a1b15d56a99"},"vehicle_type_id":"4","last_reported":1736446372,"current_range_meters":39200,"station_id":"ce4bh3h2rcd13ifvqdo0","pricing_plan_id":"cebpf4jnsgd1na2vs0mg"},{"bike_id":"12aac73f-6586-4b71-a4c7-8bc7522a187e","system_id":"levelo_inurba_marseille","lat":43.30801,"lon":5.43531,"is_reserved":false,"is_disabled":false,"rental_uris":{"android":"levelo://app?vid=12aac73f-6586-4b71-a4c7-8bc7522a187e","ios":"levelo://app?vid=12aac73f-6586-4b71-a4c7-8bc7522a187e"},"vehicle_type_id":"4","last_reported":1736446372,"current_range_meters":18000,"station_id":"ce4bhph2rcd13ifvqheg","pricing_plan_id":"cebpf4jnsgd1na2vs0mg"},{"bike_id":"8fe05cd3-a784-46ac-b769-4a3bb713f28f","system_id":"levelo_inurba_marseille","lat":43.22935,"lon":5.40379,"is_reserved":false,"is_disabled":false,"rental_uris":{"android":"levelo://app?vid=8fe05cd3-a784-46ac-b769-4a3bb713f28f","ios":"levelo://app?vid=8fe05cd3-a784-46ac-b769-4a3bb713f28f"},"vehicle_type_id":"4","last_reported":1736446372,"current_range_meters":39200,"station_id":"ce4bhn12rcd13ifvqgqg","pricing_plan_id":"cebpf4jnsgd1na2vs0mg"},{"bike_id":"38d0c53e-a765-4eb8-9fcf-204c9744ffd4","system_id":"levelo_inurba_marseille","lat":43.26196,"lon":5.3793,"is_reserved":false,"is_disabled":false,"rental_uris":{"android":"levelo://app?vid=38d0c53e-a765-4eb8-9fcf-204c9744ffd4","ios":"levelo://app?vid=38d0c53e-a765-4eb8-9fcf-204c9744ffd4"},"vehicle_type_id":"4","last_reported":1736446372,"current_range_meters":28400,"station_id":"ce4bhjp2rcd13ifvqg90","pricing_plan_id":"cebpf4jnsgd1na2vs0mg"},{"bike_id":"0d525e6b-0822-426d-b5b7-18fa677efc60","system_id":"levelo_inurba_marseille","lat":43.28039,"lon":5.36952,"is_reserved":false,"is_disabled":false,"rental_uris":{"android":"levelo://app?vid=0d525e6b-0822-426d-b5b7-18fa677efc60","ios":"levelo://app?vid=0d525e6b-0822-426d-b5b7-18fa677efc60"},"vehicle_type_id":"4","last_reported":1736446372,"current_range_meters":15200,"station_id":"ce4bha12rcd13ifvqef0","pricing_plan_id":"cebpf4jnsgd1na2vs0mg"},{"bike_id":"120c4d4b-acde-4f17-a9c0-a60a79b74caa","system_id":"levelo_inurba_marseille","lat":43.2606,"lon":5.39399,"is_reserved":false,"is_disabled":false,"rental_uris":{"android":"levelo://app?vid=120c4d4b-acde-4f17-a9c0-a60a79b74caa","ios":"levelo://app?vid=120c4d4b-acde-4f17-a9c0-a60a79b74caa"},"vehicle_type_id":"4","last_reported":1736446372,"current_range_meters":38800,"station_id":"ce4bhh92rcd13ifvqfj0","pricing_plan_id":"cebpf4jnsgd1na2vs0mg"},{"bike_id":"aea0c8dd-839d-431b-bdb1-e11ca0aca4b1","system_id":"levelo_inurba_marseille","lat":43.26684,"lon":5.38279,"is_reserved":false,"is_disabled":false,"rental_uris":{"android":"levelo://app?vid=aea0c8dd-839d-431b-bdb1-e11ca0aca4b1","ios":"levelo://app?vid=aea0c8dd-839d-431b-bdb1-e11ca0aca4b1"},"vehicle_type_id":"4","last_reported":1736446372,"current_range_meters":22000,"station_id":"ce4bhg92rcd13ifvqf90","pricing_plan_id":"cebpf4jnsgd1na2vs0mg"},{"bike_id":"3965b4bc-83b0-48b6-8bba-edbef38dd6c5","system_id":"levelo_inurba_marseille","lat":43.29418,"lon":5.38611,"is_reserved":false,"is_disabled":false,"rental_uris":{"android":"levelo://app?vid=3965b4bc-83b0-48b6-8bba-edbef38dd6c5","ios":"levelo://app?vid=3965b4bc-83b0-48b6-8bba-edbef38dd6c5"},"vehicle_type_id":"4","last_reported":1736446372,"current_range_meters":36800,"station_id":"ce4bh2h2rcd13ifvqdh0","pricing_plan_id":"cebpf4jnsgd1na2vs0mg"},{"bike_id":"24181dd3-0787-4379-b3c6-dd5adf68524c","system_id":"levelo_inurba_marseille","lat":43.30441,"lon":5.38883,"is_reserved":false,"is_disabled":false,"rental_uris":{"android":"levelo://app?vid=24181dd3-0787-4379-b3c6-dd5adf68524c","ios":"levelo://app?vid=24181dd3-0787-4379-b3c6-dd5adf68524c"},"vehicle_type_id":"4","last_reported":1736446372,"current_range_meters":32000,"station_id":"ce4bgk12rcd13ifvqbi0","pricing_plan_id":"cebpf4jnsgd1na2vs0mg"},{"bike_id":"f5ca1267-8796-4e04-ae34-eb0613d65667","system_id":"levelo_inurba_marseille","lat":43.29624,"lon":5.37684,"is_reserved":false,"is_disabled":true,"rental_uris":{"android":"levelo://app?vid=f5ca1267-8796-4e04-ae34-eb0613d65667","ios":"levelo://app?vid=f5ca1267-8796-4e04-ae34-eb0613d65667"},"vehicle_type_id":"4","last_reported":1736446372,"current_range_meters":18800,"station_id":"ce4bgi92rcd13ifvqb90","pricing_plan_id":"cebpf4jnsgd1na2vs0mg"},{"bike_id":"15051c65-5c4b-4bdb-850a-a57182cb428f","system_id":"levelo_inurba_marseille","lat":43.317,"lon":5.37756,"is_reserved":false,"is_disabled":false,"rental_uris":{"android":"levelo://app?vid=15051c65-5c4b-4bdb-850a-a57182cb428f","ios":"levelo://app?vid=15051c65-5c4b-4bdb-850a-a57182cb428f"},"vehicle_type_id":"4","last_reported":1736446372,"current_range_meters":28400,"station_id":"ce4bgth2rcd13ifvqch0","pricing_plan_id":"cebpf4jnsgd1na2vs0mg"},{"bike_id":"9830738e-97da-4a17-82b3-27a5096ab396","system_id":"levelo_inurba_marseille","lat":43.30352,"lon":5.41881,"is_reserved":false,"is_disabled":false,"rental_uris":{"android":"levelo://app?vid=9830738e-97da-4a17-82b3-27a5096ab396","ios":"levelo://app?vid=9830738e-97da-4a17-82b3-27a5096ab396"},"vehicle_type_id":"4","last_reported":1736446372,"current_range_meters":20000,"station_id":"ce4bhop2rcd13ifvqh7g","pricing_plan_id":"cebpf4jnsgd1na2vs0mg"},{"bike_id":"facfac4b-caaa-4315-8852-2f8e0cacaeea","system_id":"levelo_inurba_marseille","lat":43.31322,"lon":5.39688,"is_reserved":false,"is_disabled":false,"rental_uris":{"android":"levelo://app?vid=facfac4b-caaa-4315-8852-2f8e0cacaeea","ios":"levelo://app?vid=facfac4b-caaa-4315-8852-2f8e0cacaeea"},"vehicle_type_id":"4","last_reported":1736446372,"current_range_meters":12400,"station_id":"ce4bgvp2rcd13ifvqcu0","pricing_plan_id":"cebpf4jnsgd1na2vs0mg"},{"bike_id":"4b38882c-ba9d-4741-88fd-5a0cd2a690f7","system_id":"levelo_inurba_marseille","lat":43.28435,"lon":5.39185,"is_reserved":false,"is_disabled":true,"rental_uris":{"android":"levelo://app?vid=4b38882c-ba9d-4741-88fd-5a0cd2a690f7","ios":"levelo://app?vid=4b38882c-ba9d-4741-88fd-5a0cd2a690f7"},"vehicle_type_id":"4","last_reported":1736446372,"current_range_meters":16800,"station_id":"ce4bhoh2rcd13ifvqh5g","pricing_plan_id":"cebpf4jnsgd1na2vs0mg"},{"bike_id":"72695a90-f74a-4962-9a9d-a8645f38fe53","system_id":"levelo_inurba_marseille","lat":43.24178,"lon":5.39725,"is_reserved":false,"is_disabled":false,"rental_uris":{"android":"levelo://app?vid=72695a90-f74a-4962-9a9d-a8645f38fe53","ios":"levelo://app?vid=72695a90-f74a-4962-9a9d-a8645f38fe53"},"vehicle_type_id":"4","last_reported":1736446372,"current_range_meters":38000,"station_id":"ce4bhn12rcd13ifvqgpg","pricing_plan_id":"cebpf4jnsgd1na2vs0mg"},{"bike_id":"caf5ed2e-07d8-4a5f-ab48-1ed045ef0cf9","system_id":"levelo_inurba_marseille","lat":43.32334,"lon":5.41404,"is_reserved":false,"is_disabled":true,"rental_uris":{"android":"levelo://app?vid=caf5ed2e-07d8-4a5f-ab48-1ed045ef0cf9","ios":"levelo://app?vid=caf5ed2e-07d8-4a5f-ab48-1ed045ef0cf9"},"vehicle_type_id":"4","last_reported":1736446372,"current_range_meters":8400,"station_id":"","pricing_plan_id":"cebpf4jnsgd1na2vs0mg"},{"bike_id":"2265611f-d5d9-449a-9b3f-b3fd2fa0d0b4","system_id":"levelo_inurba_marseille","lat":43.31731,"lon":5.40355,"is_reserved":false,"is_disabled":false,"rental_uris":{"android":"levelo://app?vid=2265611f-d5d9-449a-9b3f-b3fd2fa0d0b4","ios":"levelo://app?vid=2265611f-d5d9-449a-9b3f-b3fd2fa0d0b4"},"vehicle_type_id":"4","last_reported":1736446372,"current_range_meters":32000,"station_id":"","pricing_plan_id":"cebpf4jnsgd1na2vs0mg"},{"bike_id":"88c98fdb-e6ef-4d4a-b03f-b63184fecd5d","system_id":"levelo_inurba_marseille","lat":43.33023,"lon":5.39043,"is_reserved":false,"is_disabled":false,"rental_uris":{"android":"levelo://app?vid=88c98fdb-e6ef-4d4a-b03f-b63184fecd5d","ios":"levelo://app?vid=88c98fdb-e6ef-4d4a-b03f-b63184fecd5d"},"vehicle_type_id":"4","last_reported":1736446372,"current_range_meters":30000,"station_id":"ce4bhr92rcd13ifvqhrg","pricing_plan_id":"cebpf4jnsgd1na2vs0mg"},{"bike_id":"6f350ce5-d059-48a9-a90e-2ae70aae492e","system_id":"levelo_inurba_marseille","lat":43.29424,"lon":5.38623,"is_reserved":false,"is_disabled":false,"rental_uris":{"android":"levelo://app?vid=6f350ce5-d059-48a9-a90e-2ae70aae492e","ios":"levelo://app?vid=6f350ce5-d059-48a9-a90e-2ae70aae492e"},"vehicle_type_id":"4","last_reported":1736446372,"current_range_meters":14000,"station_id":"ce4bh2h2rcd13ifvqdh0","pricing_plan_id":"cebpf4jnsgd1na2vs0mg"},{"bike_id":"7204382d-7bfe-417e-b422-b4108664db9a","system_id":"levelo_inurba_marseille","lat":43.30427,"lon":5.39755,"is_reserved":false,"is_disabled":false,"rental_uris":{"android":"levelo://app?vid=7204382d-7bfe-417e-b422-b4108664db9a","ios":"levelo://app?vid=7204382d-7bfe-417e-b422-b4108664db9a"},"vehicle_type_id":"4","last_reported":1736446372,"current_range_meters":30800,"station_id":"ce4bh092rcd13ifvqd20","pricing_plan_id":"cebpf4jnsgd1na2vs0mg"},{"bike_id":"21ba3b7b-2da4-4989-b2e0-82d6a2fd66d2","system_id":"levelo_inurba_marseille","lat":43.25881,"lon":5.39902,"is_reserved":false,"is_disabled":false,"rental_uris":{"android":"levelo://app?vid=21ba3b7b-2da4-4989-b2e0-82d6a2fd66d2","ios":"levelo://app?vid=21ba3b7b-2da4-4989-b2e0-82d6a2fd66d2"},"vehicle_type_id":"4","last_reported":1736446372,"current_range_meters":20400,"station_id":"ce4bhl92rcd13ifvqghg","pricing_plan_id":"cebpf4jnsgd1na2vs0mg"},{"bike_id":"6c16b955-c13c-49a6-a5bb-29559922d02c","system_id":"levelo_inurba_marseille","lat":43.23962,"lon":5.36625,"is_reserved":false,"is_disabled":false,"rental_uris":{"android":"levelo://app?vid=6c16b955-c13c-49a6-a5bb-29559922d02c","ios":"levelo://app?vid=6c16b955-c13c-49a6-a5bb-29559922d02c"},"vehicle_type_id":"4","last_reported":1736446372,"current_range_meters":26800,"station_id":"ce4bhi12rcd13ifvqfp0","pricing_plan_id":"cebpf4jnsgd1na2vs0mg"},{"bike_id":"fccbecdc-7f6b-4c85-b510-cd5a92912b79","system_id":"levelo_inurba_marseille","lat":43.29706,"lon":5.37299,"is_reserved":false,"is_disabled":false,"rental_uris":{"android":"levelo://app?vid=fccbecdc-7f6b-4c85-b510-cd5a92912b79","ios":"levelo://app?vid=fccbecdc-7f6b-4c85-b510-cd5a92912b79"},"vehicle_type_id":"4","last_reported":1736446372,"current_range_meters":38800,"station_id":"ce4bgk12rcd13ifvqbj0","pricing_plan_id":"cebpf4jnsgd1na2vs0mg"},{"bike_id":"3fbdda11-26ab-4d79-94fa-413bedce8d9d","system_id":"levelo_inurba_marseille","lat":43.2903,"lon":5.38656,"is_reserved":false,"is_disabled":false,"rental_uris":{"android":"levelo://app?vid=3fbdda11-26ab-4d79-94fa-413bedce8d9d","ios":"levelo://app?vid=3fbdda11-26ab-4d79-94fa-413bedce8d9d"},"vehicle_type_id":"4","last_reported":1736446372,"current_range_meters":28400,"station_id":"ce4bh4p2rcd13ifvqe0g","pricing_plan_id":"cebpf4jnsgd1na2vs0mg"},{"bike_id":"dd95b172-24fd-4056-9bb1-1ba37d74b460","system_id":"levelo_inurba_marseille","lat":43.25586,"lon":5.38218,"is_reserved":false,"is_disabled":false,"rental_uris":{"android":"levelo://app?vid=dd95b172-24fd-4056-9bb1-1ba37d74b460","ios":"levelo://app?vid=dd95b172-24fd-4056-9bb1-1ba37d74b460"},"vehicle_type_id":"4","last_reported":1736446372,"current_range_meters":19200,"station_id":"ce4bhih2rcd13ifvqfs0","pricing_plan_id":"cebpf4jnsgd1na2vs0mg"},{"bike_id":"0bbc859e-e283-4bab-84ca-62723c8ed104","system_id":"levelo_inurba_marseille","lat":43.30128,"lon":5.39875,"is_reserved":false,"is_disabled":false,"rental_uris":{"android":"levelo://app?vid=0bbc859e-e283-4bab-84ca-62723c8ed104","ios":"levelo://app?vid=0bbc859e-e283-4bab-84ca-62723c8ed104"},"vehicle_type_id":"4","last_reported":1736446372,"current_range_meters":8400,"station_id":"ce4bh0h2rcd13ifvqd40","pricing_plan_id":"cebpf4jnsgd1na2vs0mg"},{"bike_id":"22ac7b71-1a85-40cf-b497-8c8a2d755c87","system_id":"levelo_inurba_marseille","lat":43.29251,"lon":5.4091,"is_reserved":false,"is_disabled":false,"rental_uris":{"android":"levelo://app?vid=22ac7b71-1a85-40cf-b497-8c8a2d755c87","ios":"levelo://app?vid=22ac7b71-1a85-40cf-b497-8c8a2d755c87"},"vehicle_type_id":"4","last_reported":1736446372,"current_range_meters":32800,"station_id":"ce4bh192rcd13ifvqdc0","pricing_plan_id":"cebpf4jnsgd1na2vs0mg"},{"bike_id":"abc68c02-1fb1-41e3-8c98-1e3a89327a9e","system_id":"levelo_inurba_marseille","lat":43.28849,"lon":5.39343,"is_reserved":false,"is_disabled":false,"rental_uris":{"android":"levelo://app?vid=abc68c02-1fb1-41e3-8c98-1e3a89327a9e","ios":"levelo://app?vid=abc68c02-1fb1-41e3-8c98-1e3a89327a9e"},"vehicle_type_id":"4","last_reported":1736446372,"current_range_meters":4800,"station_id":"ce4bh2p2rcd13ifvqdi0","pricing_plan_id":"cebpf4jnsgd1na2vs0mg"},{"bike_id":"2af16f84-bbd1-4100-9266-148d4163daee","system_id":"levelo_inurba_marseille","lat":43.30799,"lon":5.37656,"is_reserved":false,"is_disabled":false,"rental_uris":{"android":"levelo://app?vid=2af16f84-bbd1-4100-9266-148d4163daee","ios":"levelo://app?vid=2af16f84-bbd1-4100-9266-148d4163daee"},"vehicle_type_id":"4","last_reported":1736446372,"current_range_meters":14000,"station_id":"ce4bgv92rcd13ifvqcq0","pricing_plan_id":"cebpf4jnsgd1na2vs0mg"},{"bike_id":"b90c285c-20bd-4cca-986d-b2269de9b38e","system_id":"levelo_inurba_marseille","lat":43.30773,"lon":5.37698,"is_reserved":false,"is_disabled":false,"rental_uris":{"android":"levelo://app?vid=b90c285c-20bd-4cca-986d-b2269de9b38e","ios":"levelo://app?vid=b90c285c-20bd-4cca-986d-b2269de9b38e"},"vehicle_type_id":"4","last_reported":1736446372,"current_range_meters":38800,"station_id":"ce4bgv92rcd13ifvqcq0","pricing_plan_id":"cebpf4jnsgd1na2vs0mg"},{"bike_id":"c6c08f57-1b2b-4d53-aabf-26763484169b","system_id":"levelo_inurba_marseille","lat":43.26572,"lon":5.39006,"is_reserved":false,"is_disabled":true,"rental_uris":{"android":"levelo://app?vid=c6c08f57-1b2b-4d53-aabf-26763484169b","ios":"levelo://app?vid=c6c08f57-1b2b-4d53-aabf-26763484169b"},"vehicle_type_id":"4","last_reported":1736446372,"current_range_meters":800,"station_id":"ce4bhe12rcd13ifvqf30","pricing_plan_id":"cebpf4jnsgd1na2vs0mg"},{"bike_id":"3b4478aa-aa08-44e3-8c3e-0ca0badb5e7a","system_id":"levelo_inurba_marseille","lat":43.3151,"lon":5.38974,"is_reserved":false,"is_disabled":false,"rental_uris":{"android":"levelo://app?vid=3b4478aa-aa08-44e3-8c3e-0ca0badb5e7a","ios":"levelo://app?vid=3b4478aa-aa08-44e3-8c3e-0ca0badb5e7a"},"vehicle_type_id":"4","last_reported":1736446372,"current_range_meters":38800,"station_id":"","pricing_plan_id":"cebpf4jnsgd1na2vs0mg"},{"bike_id":"2eb2a1c3-93f7-45c1-948b-84060aee1987","system_id":"levelo_inurba_marseille","lat":43.29263,"lon":5.40906,"is_reserved":false,"is_disabled":false,"rental_uris":{"android":"levelo://app?vid=2eb2a1c3-93f7-45c1-948b-84060aee1987","ios":"levelo://app?vid=2eb2a1c3-93f7-45c1-948b-84060aee1987"},"vehicle_type_id":"4","last_reported":1736446372,"current_range_meters":28000,"station_id":"ce4bh192rcd13ifvqdc0","pricing_plan_id":"cebpf4jnsgd1na2vs0mg"},{"bike_id":"2a2319f3-5df5-4a7d-afc9-396339b99459","system_id":"levelo_inurba_marseille","lat":43.27178,"lon":5.41003,"is_reserved":false,"is_disabled":true,"rental_uris":{"android":"levelo://app?vid=2a2319f3-5df5-4a7d-afc9-396339b99459","ios":"levelo://app?vid=2a2319f3-5df5-4a7d-afc9-396339b99459"},"vehicle_type_id":"4","last_reported":1736446372,"current_range_meters":32400,"station_id":"ce4bhl12rcd13ifvqgf0","pricing_plan_id":"cebpf4jnsgd1na2vs0mg"},{"bike_id":"db2bb327-84ca-49b3-a980-9c69d6ef41a2","system_id":"levelo_inurba_marseille","lat":43.23193,"lon":5.35567,"is_reserved":false,"is_disabled":false,"rental_uris":{"android":"levelo://app?vid=db2bb327-84ca-49b3-a980-9c69d6ef41a2","ios":"levelo://app?vid=db2bb327-84ca-49b3-a980-9c69d6ef41a2"},"vehicle_type_id":"4","last_reported":1736446372,"current_range_meters":38800,"station_id":"ce4bhu92rcd13ifvqi70","pricing_plan_id":"cebpf4jnsgd1na2vs0mg"},{"bike_id":"b1cd05bd-cc6d-452b-8b8c-f24ee7fb627f","system_id":"levelo_inurba_marseille","lat":43.2582,"lon":5.39432,"is_reserved":false,"is_disabled":false,"rental_uris":{"android":"levelo://app?vid=b1cd05bd-cc6d-452b-8b8c-f24ee7fb627f","ios":"levelo://app?vid=b1cd05bd-cc6d-452b-8b8c-f24ee7fb627f"},"vehicle_type_id":"4","last_reported":1736446372,"current_range_meters":37600,"station_id":"ce4bhip2rcd13ifvqft0","pricing_plan_id":"cebpf4jnsgd1na2vs0mg"},{"bike_id":"c4588984-704d-41d3-8b2b-b7423c0bdb8d","system_id":"levelo_inurba_marseille","lat":43.29305,"lon":5.37171,"is_reserved":false,"is_disabled":false,"rental_uris":{"android":"levelo://app?vid=c4588984-704d-41d3-8b2b-b7423c0bdb8d","ios":"levelo://app?vid=c4588984-704d-41d3-8b2b-b7423c0bdb8d"},"vehicle_type_id":"4","last_reported":1736446372,"current_range_meters":22400,"station_id":"ce4bgh92rcd13ifvqb40","pricing_plan_id":"cebpf4jnsgd1na2vs0mg"},{"bike_id":"9d27d288-9638-4ffa-a41f-98c9e72676c0","system_id":"levelo_inurba_marseille","lat":43.23191,"lon":5.35556,"is_reserved":false,"is_disabled":false,"rental_uris":{"android":"levelo://app?vid=9d27d288-9638-4ffa-a41f-98c9e72676c0","ios":"levelo://app?vid=9d27d288-9638-4ffa-a41f-98c9e72676c0"},"vehicle_type_id":"4","last_reported":1736446372,"current_range_meters":11600,"station_id":"ce4bhu92rcd13ifvqi70","pricing_plan_id":"cebpf4jnsgd1na2vs0mg"},{"bike_id":"5aee579e-4d1a-4cdd-b13b-286ee35e83d9","system_id":"levelo_inurba_marseille","lat":43.2592,"lon":5.40879,"is_reserved":false,"is_disabled":true,"rental_uris":{"android":"levelo://app?vid=5aee579e-4d1a-4cdd-b13b-286ee35e83d9","ios":"levelo://app?vid=5aee579e-4d1a-4cdd-b13b-286ee35e83d9"},"vehicle_type_id":"4","last_reported":1736446372,"current_range_meters":800,"station_id":"ce4bhm92rcd13ifvqglg","pricing_plan_id":"cebpf4jnsgd1na2vs0mg"},{"bike_id":"1fcfc3b5-a74d-41da-a178-1d1da04d9bdd","system_id":"levelo_inurba_marseille","lat":43.28938,"lon":5.39643,"is_reserved":false,"is_disabled":false,"rental_uris":{"android":"levelo://app?vid=1fcfc3b5-a74d-41da-a178-1d1da04d9bdd","ios":"levelo://app?vid=1fcfc3b5-a74d-41da-a178-1d1da04d9bdd"},"vehicle_type_id":"4","last_reported":1736446372,"current_range_meters":38800,"station_id":"ce4bh3h2rcd13ifvqdn0","pricing_plan_id":"cebpf4jnsgd1na2vs0mg"},{"bike_id":"36435023-15d2-44c3-9410-0d2b25524aaf","system_id":"levelo_inurba_marseille","lat":43.26628,"lon":5.38616,"is_reserved":false,"is_disabled":false,"rental_uris":{"android":"levelo://app?vid=36435023-15d2-44c3-9410-0d2b25524aaf","ios":"levelo://app?vid=36435023-15d2-44c3-9410-0d2b25524aaf"},"vehicle_type_id":"4","last_reported":1736446372,"current_range_meters":17200,"station_id":"ce4bhhh2rcd13ifvqfl0","pricing_plan_id":"cebpf4jnsgd1na2vs0mg"},{"bike_id":"a023b9e2-2413-4b3d-a218-b9727e7097b5","system_id":"levelo_inurba_marseille","lat":43.292991,"lon":5.374633,"is_reserved":false,"is_disabled":true,"rental_uris":{"android":"levelo://app?vid=a023b9e2-2413-4b3d-a218-b9727e7097b5","ios":"levelo://app?vid=a023b9e2-2413-4b3d-a218-b9727e7097b5"},"vehicle_type_id":"4","last_reported":1736446372,"current_range_meters":28400,"station_id":"ce4bgi12rcd13ifvqb70","pricing_plan_id":"cebpf4jnsgd1na2vs0mg"},{"bike_id":"0674d2ef-86ed-4426-8d32-8e7450b119f1","system_id":"levelo_inurba_marseille","lat":43.33023,"lon":5.39047,"is_reserved":false,"is_disabled":false,"rental_uris":{"android":"levelo://app?vid=0674d2ef-86ed-4426-8d32-8e7450b119f1","ios":"levelo://app?vid=0674d2ef-86ed-4426-8d32-8e7450b119f1"},"vehicle_type_id":"4","last_reported":1736446372,"current_range_meters":24800,"station_id":"ce4bhr92rcd13ifvqhrg","pricing_plan_id":"cebpf4jnsgd1na2vs0mg"},{"bike_id":"b61410a3-14e1-4aff-ac94-d44098cd6c7f","system_id":"levelo_inurba_marseille","lat":43.31362,"lon":5.38497,"is_reserved":false,"is_disabled":false,"rental_uris":{"android":"levelo://app?vid=b61410a3-14e1-4aff-ac94-d44098cd6c7f","ios":"levelo://app?vid=b61410a3-14e1-4aff-ac94-d44098cd6c7f"},"vehicle_type_id":"4","last_reported":1736446372,"current_range_meters":38800,"station_id":"ce4bgt92rcd13ifvqcf0","pricing_plan_id":"cebpf4jnsgd1na2vs0mg"},{"bike_id":"205f2137-8395-4cb7-bca0-efc24bb31e80","system_id":"levelo_inurba_marseille","lat":43.3014,"lon":5.39874,"is_reserved":false,"is_disabled":false,"rental_uris":{"android":"levelo://app?vid=205f2137-8395-4cb7-bca0-efc24bb31e80","ios":"levelo://app?vid=205f2137-8395-4cb7-bca0-efc24bb31e80"},"vehicle_type_id":"4","last_reported":1736446372,"current_range_meters":27600,"station_id":"ce4bh0h2rcd13ifvqd40","pricing_plan_id":"cebpf4jnsgd1na2vs0mg"},{"bike_id":"009b4081-956e-4bb1-aaf7-4285a5596d11","system_id":"levelo_inurba_marseille","lat":43.31367,"lon":5.384823,"is_reserved":false,"is_disabled":false,"rental_uris":{"android":"levelo://app?vid=009b4081-956e-4bb1-aaf7-4285a5596d11","ios":"levelo://app?vid=009b4081-956e-4bb1-aaf7-4285a5596d11"},"vehicle_type_id":"4","last_reported":1736446372,"current_range_meters":35600,"station_id":"ce4bgt92rcd13ifvqcf0","pricing_plan_id":"cebpf4jnsgd1na2vs0mg"},{"bike_id":"063cbda8-456d-4f34-94f5-412d67beccb1","system_id":"levelo_inurba_marseille","lat":43.30797,"lon":5.38142,"is_reserved":false,"is_disabled":false,"rental_uris":{"android":"levelo://app?vid=063cbda8-456d-4f34-94f5-412d67beccb1","ios":"levelo://app?vid=063cbda8-456d-4f34-94f5-412d67beccb1"},"vehicle_type_id":"4","last_reported":1736446372,"current_range_meters":28400,"station_id":"ce4bgt12rcd13ifvqce0","pricing_plan_id":"cebpf4jnsgd1na2vs0mg"},{"bike_id":"d0cb6644-6994-4b59-8ded-2c511cef14e7","system_id":"levelo_inurba_marseille","lat":43.30309,"lon":5.39201,"is_reserved":false,"is_disabled":false,"rental_uris":{"android":"levelo://app?vid=d0cb6644-6994-4b59-8ded-2c511cef14e7","ios":"levelo://app?vid=d0cb6644-6994-4b59-8ded-2c511cef14e7"},"vehicle_type_id":"4","last_reported":1736446372,"current_range_meters":11200,"station_id":"ce4bgkh2rcd13ifvqbk0","pricing_plan_id":"cebpf4jnsgd1na2vs0mg"},{"bike_id":"d1f1a38d-ffc5-45d8-bb7b-5e810c833bf4","system_id":"levelo_inurba_marseille","lat":43.29193,"lon":5.35792,"is_reserved":false,"is_disabled":false,"rental_uris":{"android":"levelo://app?vid=d1f1a38d-ffc5-45d8-bb7b-5e810c833bf4","ios":"levelo://app?vid=d1f1a38d-ffc5-45d8-bb7b-5e810c833bf4"},"vehicle_type_id":"4","last_reported":1736446372,"current_range_meters":38400,"station_id":"ce4bhb12rcd13ifvqel0","pricing_plan_id":"cebpf4jnsgd1na2vs0mg"},{"bike_id":"5aa46582-8066-4fee-8988-4c6252810ea1","system_id":"levelo_inurba_marseille","lat":43.323658,"lon":5.388832,"is_reserved":false,"is_disabled":false,"rental_uris":{"android":"levelo://app?vid=5aa46582-8066-4fee-8988-4c6252810ea1","ios":"levelo://app?vid=5aa46582-8066-4fee-8988-4c6252810ea1"},"vehicle_type_id":"4","last_reported":1736446372,"current_range_meters":17600,"station_id":"ce4bhqp2rcd13ifvqhog","pricing_plan_id":"cebpf4jnsgd1na2vs0mg"},{"bike_id":"7d07b36d-5d45-4280-9782-dfcb99caab96","system_id":"levelo_inurba_marseille","lat":43.28415,"lon":5.37504,"is_reserved":false,"is_disabled":false,"rental_uris":{"android":"levelo://app?vid=7d07b36d-5d45-4280-9782-dfcb99caab96","ios":"levelo://app?vid=7d07b36d-5d45-4280-9782-dfcb99caab96"},"vehicle_type_id":"4","last_reported":1736446372,"current_range_meters":27600,"station_id":"ce4bh412rcd13ifvqds0","pricing_plan_id":"cebpf4jnsgd1na2vs0mg"},{"bike_id":"250d1db1-7f26-4a8a-9433-64837cd3fe58","system_id":"levelo_inurba_marseille","lat":43.25016,"lon":5.3892,"is_reserved":false,"is_disabled":false,"rental_uris":{"android":"levelo://app?vid=250d1db1-7f26-4a8a-9433-64837cd3fe58","ios":"levelo://app?vid=250d1db1-7f26-4a8a-9433-64837cd3fe58"},"vehicle_type_id":"4","last_reported":1736446372,"current_range_meters":27200,"station_id":"ce4bhgp2rcd13ifvqfd0","pricing_plan_id":"cebpf4jnsgd1na2vs0mg"},{"bike_id":"877806f5-fd4c-4780-b9e2-22d68bbc29a6","system_id":"levelo_inurba_marseille","lat":43.28442,"lon":5.3919,"is_reserved":false,"is_disabled":true,"rental_uris":{"android":"levelo://app?vid=877806f5-fd4c-4780-b9e2-22d68bbc29a6","ios":"levelo://app?vid=877806f5-fd4c-4780-b9e2-22d68bbc29a6"},"vehicle_type_id":"4","last_reported":1736446372,"current_range_meters":0,"station_id":"ce4bhoh2rcd13ifvqh5g","pricing_plan_id":"cebpf4jnsgd1na2vs0mg"},{"bike_id":"b373a3f4-759d-4e2a-9ed0-30b7bfc7326d","system_id":"levelo_inurba_marseille","lat":43.2903,"lon":5.38637,"is_reserved":false,"is_disabled":false,"rental_uris":{"android":"levelo://app?vid=b373a3f4-759d-4e2a-9ed0-30b7bfc7326d","ios":"levelo://app?vid=b373a3f4-759d-4e2a-9ed0-30b7bfc7326d"},"vehicle_type_id":"4","last_reported":1736446372,"current_range_meters":20800,"station_id":"ce4bh4p2rcd13ifvqe0g","pricing_plan_id":"cebpf4jnsgd1na2vs0mg"},{"bike_id":"7a0a8a69-615c-43f3-a001-073b74f4a57b","system_id":"levelo_inurba_marseille","lat":43.25589,"lon":5.3821,"is_reserved":false,"is_disabled":false,"rental_uris":{"android":"levelo://app?vid=7a0a8a69-615c-43f3-a001-073b74f4a57b","ios":"levelo://app?vid=7a0a8a69-615c-43f3-a001-073b74f4a57b"},"vehicle_type_id":"4","last_reported":1736446372,"current_range_meters":29600,"station_id":"ce4bhih2rcd13ifvqfs0","pricing_plan_id":"cebpf4jnsgd1na2vs0mg"},{"bike_id":"8e9b7426-4337-4cd7-9c5d-8fb0e8d9b77e","system_id":"levelo_inurba_marseille","lat":43.25864,"lon":5.39902,"is_reserved":false,"is_disabled":true,"rental_uris":{"android":"levelo://app?vid=8e9b7426-4337-4cd7-9c5d-8fb0e8d9b77e","ios":"levelo://app?vid=8e9b7426-4337-4cd7-9c5d-8fb0e8d9b77e"},"vehicle_type_id":"4","last_reported":1736446372,"current_range_meters":800,"station_id":"ce4bhl92rcd13ifvqghg","pricing_plan_id":"cebpf4jnsgd1na2vs0mg"},{"bike_id":"ad744619-fbc5-4026-9541-81b1adebd4d3","system_id":"levelo_inurba_marseille","lat":43.26031,"lon":5.37542,"is_reserved":false,"is_disabled":true,"rental_uris":{"android":"levelo://app?vid=ad744619-fbc5-4026-9541-81b1adebd4d3","ios":"levelo://app?vid=ad744619-fbc5-4026-9541-81b1adebd4d3"},"vehicle_type_id":"4","last_reported":1736446372,"current_range_meters":38800,"station_id":"ce4bhgh2rcd13ifvqfa0","pricing_plan_id":"cebpf4jnsgd1na2vs0mg"},{"bike_id":"2b68127b-8c99-46f9-b65f-98bf288dc9b7","system_id":"levelo_inurba_marseille","lat":43.25587,"lon":5.38214,"is_reserved":false,"is_disabled":false,"rental_uris":{"android":"levelo://app?vid=2b68127b-8c99-46f9-b65f-98bf288dc9b7","ios":"levelo://app?vid=2b68127b-8c99-46f9-b65f-98bf288dc9b7"},"vehicle_type_id":"4","last_reported":1736446372,"current_range_meters":9200,"station_id":"ce4bhih2rcd13ifvqfs0","pricing_plan_id":"cebpf4jnsgd1na2vs0mg"},{"bike_id":"158ce550-9027-4eb4-a6f3-847091d6ac12","system_id":"levelo_inurba_marseille","lat":43.29425,"lon":5.38626,"is_reserved":false,"is_disabled":false,"rental_uris":{"android":"levelo://app?vid=158ce550-9027-4eb4-a6f3-847091d6ac12","ios":"levelo://app?vid=158ce550-9027-4eb4-a6f3-847091d6ac12"},"vehicle_type_id":"4","last_reported":1736446372,"current_range_meters":37600,"station_id":"ce4bh2h2rcd13ifvqdh0","pricing_plan_id":"cebpf4jnsgd1na2vs0mg"},{"bike_id":"a909d044-925f-4cad-9d20-5633b42ae69f","system_id":"levelo_inurba_marseille","lat":43.24649,"lon":5.38896,"is_reserved":false,"is_disabled":false,"rental_uris":{"android":"levelo://app?vid=a909d044-925f-4cad-9d20-5633b42ae69f","ios":"levelo://app?vid=a909d044-925f-4cad-9d20-5633b42ae69f"},"vehicle_type_id":"4","last_reported":1736446372,"current_range_meters":38000,"station_id":"ce4bhg12rcd13ifvqf60","pricing_plan_id":"cebpf4jnsgd1na2vs0mg"},{"bike_id":"f72ec506-2b55-4620-84fe-c24c2d579719","system_id":"levelo_inurba_marseille","lat":43.3108,"lon":5.38351,"is_reserved":false,"is_disabled":false,"rental_uris":{"android":"levelo://app?vid=f72ec506-2b55-4620-84fe-c24c2d579719","ios":"levelo://app?vid=f72ec506-2b55-4620-84fe-c24c2d579719"},"vehicle_type_id":"4","last_reported":1736446372,"current_range_meters":17600,"station_id":"ce4bgv92rcd13ifvqcr0","pricing_plan_id":"cebpf4jnsgd1na2vs0mg"},{"bike_id":"55fea5e7-e440-416a-842c-fc1fe848fa87","system_id":"levelo_inurba_marseille","lat":43.30814,"lon":5.43514,"is_reserved":false,"is_disabled":false,"rental_uris":{"android":"levelo://app?vid=55fea5e7-e440-416a-842c-fc1fe848fa87","ios":"levelo://app?vid=55fea5e7-e440-416a-842c-fc1fe848fa87"},"vehicle_type_id":"4","last_reported":1736446372,"current_range_meters":9200,"station_id":"ce4bhph2rcd13ifvqheg","pricing_plan_id":"cebpf4jnsgd1na2vs0mg"},{"bike_id":"5d684afe-3749-41c9-ace1-e345b0530b92","system_id":"levelo_inurba_marseille","lat":43.3109,"lon":5.37574,"is_reserved":false,"is_disabled":true,"rental_uris":{"android":"levelo://app?vid=5d684afe-3749-41c9-ace1-e345b0530b92","ios":"levelo://app?vid=5d684afe-3749-41c9-ace1-e345b0530b92"},"vehicle_type_id":"4","last_reported":1736446372,"current_range_meters":800,"station_id":"","pricing_plan_id":"cebpf4jnsgd1na2vs0mg"},{"bike_id":"f2cc7ce5-c3ca-4b59-b7f3-1f4f9d9d69e6","system_id":"levelo_inurba_marseille","lat":43.29441,"lon":5.39749,"is_reserved":false,"is_disabled":false,"rental_uris":{"android":"levelo://app?vid=f2cc7ce5-c3ca-4b59-b7f3-1f4f9d9d69e6","ios":"levelo://app?vid=f2cc7ce5-c3ca-4b59-b7f3-1f4f9d9d69e6"},"vehicle_type_id":"4","last_reported":1736446372,"current_range_meters":38800,"station_id":"ce4bh3h2rcd13ifvqdo0","pricing_plan_id":"cebpf4jnsgd1na2vs0mg"},{"bike_id":"e93f83ab-0e3e-4fd9-8d9e-6775678c8e02","system_id":"levelo_inurba_marseille","lat":43.33108,"lon":5.3915,"is_reserved":false,"is_disabled":false,"rental_uris":{"android":"levelo://app?vid=e93f83ab-0e3e-4fd9-8d9e-6775678c8e02","ios":"levelo://app?vid=e93f83ab-0e3e-4fd9-8d9e-6775678c8e02"},"vehicle_type_id":"4","last_reported":1736446372,"current_range_meters":38800,"station_id":"ce4bhr92rcd13ifvqhrg","pricing_plan_id":"cebpf4jnsgd1na2vs0mg"},{"bike_id":"63c28a27-4281-4c19-a194-95b864bba408","system_id":"levelo_inurba_marseille","lat":43.31051,"lon":5.38366,"is_reserved":false,"is_disabled":false,"rental_uris":{"android":"levelo://app?vid=63c28a27-4281-4c19-a194-95b864bba408","ios":"levelo://app?vid=63c28a27-4281-4c19-a194-95b864bba408"},"vehicle_type_id":"4","last_reported":1736446372,"current_range_meters":6400,"station_id":"ce4bgv92rcd13ifvqcr0","pricing_plan_id":"cebpf4jnsgd1na2vs0mg"},{"bike_id":"93328267-bd22-4e29-9e8f-103a6c6d683f","system_id":"levelo_inurba_marseille","lat":43.26567,"lon":5.39017,"is_reserved":false,"is_disabled":false,"rental_uris":{"android":"levelo://app?vid=93328267-bd22-4e29-9e8f-103a6c6d683f","ios":"levelo://app?vid=93328267-bd22-4e29-9e8f-103a6c6d683f"},"vehicle_type_id":"4","last_reported":1736446372,"current_range_meters":19200,"station_id":"ce4bhe12rcd13ifvqf30","pricing_plan_id":"cebpf4jnsgd1na2vs0mg"},{"bike_id":"85b73f4a-74db-454b-85c0-9ce23ef13905","system_id":"levelo_inurba_marseille","lat":43.28936,"lon":5.36642,"is_reserved":false,"is_disabled":false,"rental_uris":{"android":"levelo://app?vid=85b73f4a-74db-454b-85c0-9ce23ef13905","ios":"levelo://app?vid=85b73f4a-74db-454b-85c0-9ce23ef13905"},"vehicle_type_id":"4","last_reported":1736446372,"current_range_meters":38400,"station_id":"ce4bhap2rcd13ifvqek0","pricing_plan_id":"cebpf4jnsgd1na2vs0mg"},{"bike_id":"d3e98672-9ecb-4046-88da-ea717b1f5092","system_id":"levelo_inurba_marseille","lat":43.28078,"lon":5.39665,"is_reserved":false,"is_disabled":false,"rental_uris":{"android":"levelo://app?vid=d3e98672-9ecb-4046-88da-ea717b1f5092","ios":"levelo://app?vid=d3e98672-9ecb-4046-88da-ea717b1f5092"},"vehicle_type_id":"4","last_reported":1736446372,"current_range_meters":28400,"station_id":"ce4bho12rcd13ifvqh2g","pricing_plan_id":"cebpf4jnsgd1na2vs0mg"},{"bike_id":"62c6b563-ee4d-4e11-8319-cdc61329d480","system_id":"levelo_inurba_marseille","lat":43.30597,"lon":5.37249,"is_reserved":false,"is_disabled":false,"rental_uris":{"android":"levelo://app?vid=62c6b563-ee4d-4e11-8319-cdc61329d480","ios":"levelo://app?vid=62c6b563-ee4d-4e11-8319-cdc61329d480"},"vehicle_type_id":"4","last_reported":1736446372,"current_range_meters":38800,"station_id":"ce4bgqh2rcd13ifvqc4g","pricing_plan_id":"cebpf4jnsgd1na2vs0mg"},{"bike_id":"725e1796-e8db-4864-b0f4-aa6493a9abf6","system_id":"levelo_inurba_marseille","lat":43.30594,"lon":5.39359,"is_reserved":false,"is_disabled":false,"rental_uris":{"android":"levelo://app?vid=725e1796-e8db-4864-b0f4-aa6493a9abf6","ios":"levelo://app?vid=725e1796-e8db-4864-b0f4-aa6493a9abf6"},"vehicle_type_id":"4","last_reported":1736446372,"current_range_meters":38400,"station_id":"ce4bh0p2rcd13ifvqd80","pricing_plan_id":"cebpf4jnsgd1na2vs0mg"},{"bike_id":"285094c8-1653-4966-a361-ca5e541b78a0","system_id":"levelo_inurba_marseille","lat":43.30439,"lon":5.38879,"is_reserved":false,"is_disabled":false,"rental_uris":{"android":"levelo://app?vid=285094c8-1653-4966-a361-ca5e541b78a0","ios":"levelo://app?vid=285094c8-1653-4966-a361-ca5e541b78a0"},"vehicle_type_id":"4","last_reported":1736446372,"current_range_meters":11200,"station_id":"ce4bgk12rcd13ifvqbi0","pricing_plan_id":"cebpf4jnsgd1na2vs0mg"},{"bike_id":"7a90bf00-42ea-4ea7-9051-1d2cf613640e","system_id":"levelo_inurba_marseille","lat":43.25718,"lon":5.41075,"is_reserved":false,"is_disabled":false,"rental_uris":{"android":"levelo://app?vid=7a90bf00-42ea-4ea7-9051-1d2cf613640e","ios":"levelo://app?vid=7a90bf00-42ea-4ea7-9051-1d2cf613640e"},"vehicle_type_id":"4","last_reported":1736446372,"current_range_meters":35600,"station_id":"ce4bhkp2rcd13ifvqgd0","pricing_plan_id":"cebpf4jnsgd1na2vs0mg"},{"bike_id":"9c034c72-3b9e-49ce-9a4d-4c4d5e20e5dd","system_id":"levelo_inurba_marseille","lat":43.33025,"lon":5.39033,"is_reserved":false,"is_disabled":false,"rental_uris":{"android":"levelo://app?vid=9c034c72-3b9e-49ce-9a4d-4c4d5e20e5dd","ios":"levelo://app?vid=9c034c72-3b9e-49ce-9a4d-4c4d5e20e5dd"},"vehicle_type_id":"4","last_reported":1736446372,"current_range_meters":12400,"station_id":"ce4bhr92rcd13ifvqhrg","pricing_plan_id":"cebpf4jnsgd1na2vs0mg"},{"bike_id":"5521374a-910d-44eb-8d93-ffc242709188","system_id":"levelo_inurba_marseille","lat":43.31403,"lon":5.37404,"is_reserved":false,"is_disabled":false,"rental_uris":{"android":"levelo://app?vid=5521374a-910d-44eb-8d93-ffc242709188","ios":"levelo://app?vid=5521374a-910d-44eb-8d93-ffc242709188"},"vehicle_type_id":"4","last_reported":1736446372,"current_range_meters":12400,"station_id":"","pricing_plan_id":"cebpf4jnsgd1na2vs0mg"},{"bike_id":"d4b9ec52-492e-41b6-8dae-be3aec56cf81","system_id":"levelo_inurba_marseille","lat":43.28615,"lon":5.35107,"is_reserved":false,"is_disabled":false,"rental_uris":{"android":"levelo://app?vid=d4b9ec52-492e-41b6-8dae-be3aec56cf81","ios":"levelo://app?vid=d4b9ec52-492e-41b6-8dae-be3aec56cf81"},"vehicle_type_id":"4","last_reported":1736446372,"current_range_meters":14800,"station_id":"ce4bhch2rcd13ifvqeug","pricing_plan_id":"cebpf4jnsgd1na2vs0mg"},{"bike_id":"09a06a3b-8f4a-44a5-9d27-cad3e64e2388","system_id":"levelo_inurba_marseille","lat":43.27918,"lon":5.39583,"is_reserved":false,"is_disabled":false,"rental_uris":{"android":"levelo://app?vid=09a06a3b-8f4a-44a5-9d27-cad3e64e2388","ios":"levelo://app?vid=09a06a3b-8f4a-44a5-9d27-cad3e64e2388"},"vehicle_type_id":"4","last_reported":1736446372,"current_range_meters":19600,"station_id":"ce4bhf92rcd13ifvqf40","pricing_plan_id":"cebpf4jnsgd1na2vs0mg"},{"bike_id":"37d8e1ef-d932-49d7-b893-49542cf44d13","system_id":"levelo_inurba_marseille","lat":43.32345,"lon":5.40629,"is_reserved":false,"is_disabled":true,"rental_uris":{"android":"levelo://app?vid=37d8e1ef-d932-49d7-b893-49542cf44d13","ios":"levelo://app?vid=37d8e1ef-d932-49d7-b893-49542cf44d13"},"vehicle_type_id":"4","last_reported":1736446372,"current_range_meters":0,"station_id":"ce4bhq92rcd13ifvqhjg","pricing_plan_id":"cebpf4jnsgd1na2vs0mg"},{"bike_id":"458c3d58-e6a5-4d1a-8df2-05d9cb3e0072","system_id":"levelo_inurba_marseille","lat":43.2558,"lon":5.38232,"is_reserved":false,"is_disabled":false,"rental_uris":{"android":"levelo://app?vid=458c3d58-e6a5-4d1a-8df2-05d9cb3e0072","ios":"levelo://app?vid=458c3d58-e6a5-4d1a-8df2-05d9cb3e0072"},"vehicle_type_id":"4","last_reported":1736446372,"current_range_meters":20000,"station_id":"ce4bhih2rcd13ifvqfs0","pricing_plan_id":"cebpf4jnsgd1na2vs0mg"},{"bike_id":"46b44dc2-d756-4d81-b503-d802b4d8de00","system_id":"levelo_inurba_marseille","lat":43.24396,"lon":5.37038,"is_reserved":false,"is_disabled":false,"rental_uris":{"android":"levelo://app?vid=46b44dc2-d756-4d81-b503-d802b4d8de00","ios":"levelo://app?vid=46b44dc2-d756-4d81-b503-d802b4d8de00"},"vehicle_type_id":"4","last_reported":1736446372,"current_range_meters":28000,"station_id":"ce4bhhh2rcd13ifvqfk0","pricing_plan_id":"cebpf4jnsgd1na2vs0mg"},{"bike_id":"c2776010-a4e4-43aa-9af1-6dd82f4c2730","system_id":"levelo_inurba_marseille","lat":43.28943,"lon":5.39638,"is_reserved":false,"is_disabled":false,"rental_uris":{"android":"levelo://app?vid=c2776010-a4e4-43aa-9af1-6dd82f4c2730","ios":"levelo://app?vid=c2776010-a4e4-43aa-9af1-6dd82f4c2730"},"vehicle_type_id":"4","last_reported":1736446372,"current_range_meters":20400,"station_id":"ce4bh3h2rcd13ifvqdn0","pricing_plan_id":"cebpf4jnsgd1na2vs0mg"},{"bike_id":"265ccaa9-677e-4387-a485-17aa67c4f6fa","system_id":"levelo_inurba_marseille","lat":43.29241,"lon":5.37194,"is_reserved":false,"is_disabled":false,"rental_uris":{"android":"levelo://app?vid=265ccaa9-677e-4387-a485-17aa67c4f6fa","ios":"levelo://app?vid=265ccaa9-677e-4387-a485-17aa67c4f6fa"},"vehicle_type_id":"4","last_reported":1736446372,"current_range_meters":30000,"station_id":"","pricing_plan_id":"cebpf4jnsgd1na2vs0mg"},{"bike_id":"a2b8733f-18d3-4c7f-a699-4ad1eee082fe","system_id":"levelo_inurba_marseille","lat":43.3172,"lon":5.42411,"is_reserved":false,"is_disabled":false,"rental_uris":{"android":"levelo://app?vid=a2b8733f-18d3-4c7f-a699-4ad1eee082fe","ios":"levelo://app?vid=a2b8733f-18d3-4c7f-a699-4ad1eee082fe"},"vehicle_type_id":"4","last_reported":1736446372,"current_range_meters":38800,"station_id":"ce4bhp92rcd13ifvqhbg","pricing_plan_id":"cebpf4jnsgd1na2vs0mg"},{"bike_id":"c0206d3b-e2e9-423c-9056-fc2381d7e8b1","system_id":"levelo_inurba_marseille","lat":43.296,"lon":5.38103,"is_reserved":false,"is_disabled":true,"rental_uris":{"android":"levelo://app?vid=c0206d3b-e2e9-423c-9056-fc2381d7e8b1","ios":"levelo://app?vid=c0206d3b-e2e9-423c-9056-fc2381d7e8b1"},"vehicle_type_id":"4","last_reported":1736446372,"current_range_meters":28800,"station_id":"ce4bgl12rcd13ifvqbo0","pricing_plan_id":"cebpf4jnsgd1na2vs0mg"},{"bike_id":"385264b1-4061-488d-8853-f978ac44f3cb","system_id":"levelo_inurba_marseille","lat":43.29254,"lon":5.40917,"is_reserved":false,"is_disabled":false,"rental_uris":{"android":"levelo://app?vid=385264b1-4061-488d-8853-f978ac44f3cb","ios":"levelo://app?vid=385264b1-4061-488d-8853-f978ac44f3cb"},"vehicle_type_id":"4","last_reported":1736446372,"current_range_meters":39200,"station_id":"ce4bh192rcd13ifvqdc0","pricing_plan_id":"cebpf4jnsgd1na2vs0mg"},{"bike_id":"4b9552e7-7313-44cc-ba72-6ebb3cfea997","system_id":"levelo_inurba_marseille","lat":43.26051,"lon":5.39394,"is_reserved":false,"is_disabled":false,"rental_uris":{"android":"levelo://app?vid=4b9552e7-7313-44cc-ba72-6ebb3cfea997","ios":"levelo://app?vid=4b9552e7-7313-44cc-ba72-6ebb3cfea997"},"vehicle_type_id":"4","last_reported":1736446372,"current_range_meters":39200,"station_id":"ce4bhh92rcd13ifvqfj0","pricing_plan_id":"cebpf4jnsgd1na2vs0mg"},{"bike_id":"c150f8af-fc8f-4eb5-ac98-0b06dadf4ce0","system_id":"levelo_inurba_marseille","lat":43.25583,"lon":5.38234,"is_reserved":false,"is_disabled":false,"rental_uris":{"android":"levelo://app?vid=c150f8af-fc8f-4eb5-ac98-0b06dadf4ce0","ios":"levelo://app?vid=c150f8af-fc8f-4eb5-ac98-0b06dadf4ce0"},"vehicle_type_id":"4","last_reported":1736446372,"current_range_meters":36800,"station_id":"ce4bhih2rcd13ifvqfs0","pricing_plan_id":"cebpf4jnsgd1na2vs0mg"},{"bike_id":"98516c6c-770c-419d-b009-47d399b69de8","system_id":"levelo_inurba_marseille","lat":43.28035,"lon":5.36942,"is_reserved":false,"is_disabled":false,"rental_uris":{"android":"levelo://app?vid=98516c6c-770c-419d-b009-47d399b69de8","ios":"levelo://app?vid=98516c6c-770c-419d-b009-47d399b69de8"},"vehicle_type_id":"4","last_reported":1736446372,"current_range_meters":34000,"station_id":"ce4bha12rcd13ifvqef0","pricing_plan_id":"cebpf4jnsgd1na2vs0mg"},{"bike_id":"0f9bc863-fa76-4b4c-bd15-a6e228378091","system_id":"levelo_inurba_marseille","lat":43.28702,"lon":5.37383,"is_reserved":false,"is_disabled":false,"rental_uris":{"android":"levelo://app?vid=0f9bc863-fa76-4b4c-bd15-a6e228378091","ios":"levelo://app?vid=0f9bc863-fa76-4b4c-bd15-a6e228378091"},"vehicle_type_id":"4","last_reported":1736446372,"current_range_meters":10800,"station_id":"ce4bh3p2rcd13ifvqdq0","pricing_plan_id":"cebpf4jnsgd1na2vs0mg"},{"bike_id":"3802f60b-1086-4694-a9f7-3c1f6de2582f","system_id":"levelo_inurba_marseille","lat":43.24814,"lon":5.37457,"is_reserved":false,"is_disabled":false,"rental_uris":{"android":"levelo://app?vid=3802f60b-1086-4694-a9f7-3c1f6de2582f","ios":"levelo://app?vid=3802f60b-1086-4694-a9f7-3c1f6de2582f"},"vehicle_type_id":"4","last_reported":1736446372,"current_range_meters":27600,"station_id":"ce4bhgh2rcd13ifvqfb0","pricing_plan_id":"cebpf4jnsgd1na2vs0mg"},{"bike_id":"08865dc0-63c5-48bd-9a7d-eaaf67b57930","system_id":"levelo_inurba_marseille","lat":43.30447,"lon":5.38858,"is_reserved":false,"is_disabled":false,"rental_uris":{"android":"levelo://app?vid=08865dc0-63c5-48bd-9a7d-eaaf67b57930","ios":"levelo://app?vid=08865dc0-63c5-48bd-9a7d-eaaf67b57930"},"vehicle_type_id":"4","last_reported":1736446372,"current_range_meters":28000,"station_id":"ce4bgk12rcd13ifvqbi0","pricing_plan_id":"cebpf4jnsgd1na2vs0mg"},{"bike_id":"60ce1b70-e47d-4caf-abee-52e7d5bfe299","system_id":"levelo_inurba_marseille","lat":43.246458,"lon":5.38898,"is_reserved":false,"is_disabled":false,"rental_uris":{"android":"levelo://app?vid=60ce1b70-e47d-4caf-abee-52e7d5bfe299","ios":"levelo://app?vid=60ce1b70-e47d-4caf-abee-52e7d5bfe299"},"vehicle_type_id":"4","last_reported":1736446372,"current_range_meters":37600,"station_id":"ce4bhg12rcd13ifvqf60","pricing_plan_id":"cebpf4jnsgd1na2vs0mg"},{"bike_id":"7627c0f8-e30b-4018-a991-3dd21750fc78","system_id":"levelo_inurba_marseille","lat":43.28718,"lon":5.37941,"is_reserved":false,"is_disabled":true,"rental_uris":{"android":"levelo://app?vid=7627c0f8-e30b-4018-a991-3dd21750fc78","ios":"levelo://app?vid=7627c0f8-e30b-4018-a991-3dd21750fc78"},"vehicle_type_id":"4","last_reported":1736446372,"current_range_meters":38800,"station_id":"ce4bh9p2rcd13ifvqec0","pricing_plan_id":"cebpf4jnsgd1na2vs0mg"},{"bike_id":"bf34816d-cef3-45df-a814-b99e8dc67c6d","system_id":"levelo_inurba_marseille","lat":43.23192,"lon":5.3998,"is_reserved":false,"is_disabled":false,"rental_uris":{"android":"levelo://app?vid=bf34816d-cef3-45df-a814-b99e8dc67c6d","ios":"levelo://app?vid=bf34816d-cef3-45df-a814-b99e8dc67c6d"},"vehicle_type_id":"4","last_reported":1736446372,"current_range_meters":38800,"station_id":"ce4bhn12rcd13ifvqgqg","pricing_plan_id":"cebpf4jnsgd1na2vs0mg"},{"bike_id":"fdd1c975-72e3-4a95-84d0-3b98dbe8418d","system_id":"levelo_inurba_marseille","lat":43.27815,"lon":5.40724,"is_reserved":false,"is_disabled":false,"rental_uris":{"android":"levelo://app?vid=fdd1c975-72e3-4a95-84d0-3b98dbe8418d","ios":"levelo://app?vid=fdd1c975-72e3-4a95-84d0-3b98dbe8418d"},"vehicle_type_id":"4","last_reported":1736446372,"current_range_meters":38000,"station_id":"ce4bhnh2rcd13ifvqgtg","pricing_plan_id":"cebpf4jnsgd1na2vs0mg"},{"bike_id":"b7fa7034-b1b7-4432-81ad-7cd9060b906d","system_id":"levelo_inurba_marseille","lat":43.30141,"lon":5.39871,"is_reserved":false,"is_disabled":false,"rental_uris":{"android":"levelo://app?vid=b7fa7034-b1b7-4432-81ad-7cd9060b906d","ios":"levelo://app?vid=b7fa7034-b1b7-4432-81ad-7cd9060b906d"},"vehicle_type_id":"4","last_reported":1736446372,"current_range_meters":39200,"station_id":"ce4bh0h2rcd13ifvqd40","pricing_plan_id":"cebpf4jnsgd1na2vs0mg"},{"bike_id":"46c5285c-92dd-4d2f-adc2-d47c981c8703","system_id":"levelo_inurba_marseille","lat":43.29221,"lon":5.36074,"is_reserved":false,"is_disabled":false,"rental_uris":{"android":"levelo://app?vid=46c5285c-92dd-4d2f-adc2-d47c981c8703","ios":"levelo://app?vid=46c5285c-92dd-4d2f-adc2-d47c981c8703"},"vehicle_type_id":"4","last_reported":1736446372,"current_range_meters":24000,"station_id":"ce4bhbh2rcd13ifvqeqg","pricing_plan_id":"cebpf4jnsgd1na2vs0mg"},{"bike_id":"4b4165a2-cf34-497a-a955-c9336504b59d","system_id":"levelo_inurba_marseille","lat":43.29201,"lon":5.35771,"is_reserved":false,"is_disabled":false,"rental_uris":{"android":"levelo://app?vid=4b4165a2-cf34-497a-a955-c9336504b59d","ios":"levelo://app?vid=4b4165a2-cf34-497a-a955-c9336504b59d"},"vehicle_type_id":"4","last_reported":1736446372,"current_range_meters":39200,"station_id":"ce4bhb12rcd13ifvqel0","pricing_plan_id":"cebpf4jnsgd1na2vs0mg"},{"bike_id":"48998462-e2fe-4046-8dbf-a3db091ad704","system_id":"levelo_inurba_marseille","lat":43.25581,"lon":5.38215,"is_reserved":false,"is_disabled":true,"rental_uris":{"android":"levelo://app?vid=48998462-e2fe-4046-8dbf-a3db091ad704","ios":"levelo://app?vid=48998462-e2fe-4046-8dbf-a3db091ad704"},"vehicle_type_id":"4","last_reported":1736446372,"current_range_meters":26800,"station_id":"ce4bhih2rcd13ifvqfs0","pricing_plan_id":"cebpf4jnsgd1na2vs0mg"},{"bike_id":"cad4a6a5-5208-47dd-a17d-ca38efa63f22","system_id":"levelo_inurba_marseille","lat":43.31073,"lon":5.38234,"is_reserved":false,"is_disabled":true,"rental_uris":{"android":"levelo://app?vid=cad4a6a5-5208-47dd-a17d-ca38efa63f22","ios":"levelo://app?vid=cad4a6a5-5208-47dd-a17d-ca38efa63f22"},"vehicle_type_id":"4","last_reported":1736446372,"current_range_meters":29600,"station_id":"","pricing_plan_id":"cebpf4jnsgd1na2vs0mg"},{"bike_id":"59680959-993e-49d5-827b-d5b17bfefc71","system_id":"levelo_inurba_marseille","lat":43.27836,"lon":5.39197,"is_reserved":false,"is_disabled":false,"rental_uris":{"android":"levelo://app?vid=59680959-993e-49d5-827b-d5b17bfefc71","ios":"levelo://app?vid=59680959-993e-49d5-827b-d5b17bfefc71"},"vehicle_type_id":"4","last_reported":1736446372,"current_range_meters":3200,"station_id":"ce4bhjp2rcd13ifvqga0","pricing_plan_id":"cebpf4jnsgd1na2vs0mg"},{"bike_id":"20446b4d-08fa-4d1a-8eef-2aa7f8d6d1eb","system_id":"levelo_inurba_marseille","lat":43.28456,"lon":5.35889,"is_reserved":false,"is_disabled":false,"rental_uris":{"android":"levelo://app?vid=20446b4d-08fa-4d1a-8eef-2aa7f8d6d1eb","ios":"levelo://app?vid=20446b4d-08fa-4d1a-8eef-2aa7f8d6d1eb"},"vehicle_type_id":"4","last_reported":1736446372,"current_range_meters":38400,"station_id":"ce4bhah2rcd13ifvqei0","pricing_plan_id":"cebpf4jnsgd1na2vs0mg"},{"bike_id":"87dcb616-7c96-474b-942f-21410f44ff72","system_id":"levelo_inurba_marseille","lat":43.29711,"lon":5.377,"is_reserved":false,"is_disabled":true,"rental_uris":{"android":"levelo://app?vid=87dcb616-7c96-474b-942f-21410f44ff72","ios":"levelo://app?vid=87dcb616-7c96-474b-942f-21410f44ff72"},"vehicle_type_id":"4","last_reported":1736446372,"current_range_meters":1600,"station_id":"ce4bgkh2rcd13ifvqbl0","pricing_plan_id":"cebpf4jnsgd1na2vs0mg"},{"bike_id":"aa637afa-5dab-4e4f-a5b1-a846e41a59b6","system_id":"levelo_inurba_marseille","lat":43.24075,"lon":5.3775,"is_reserved":false,"is_disabled":false,"rental_uris":{"android":"levelo://app?vid=aa637afa-5dab-4e4f-a5b1-a846e41a59b6","ios":"levelo://app?vid=aa637afa-5dab-4e4f-a5b1-a846e41a59b6"},"vehicle_type_id":"4","last_reported":1736446372,"current_range_meters":9600,"station_id":"ce4bhnp2rcd13ifvqgvg","pricing_plan_id":"cebpf4jnsgd1na2vs0mg"},{"bike_id":"22da297a-eb32-46a8-aa0d-63cbf5da6476","system_id":"levelo_inurba_marseille","lat":43.31359,"lon":5.38514,"is_reserved":false,"is_disabled":false,"rental_uris":{"android":"levelo://app?vid=22da297a-eb32-46a8-aa0d-63cbf5da6476","ios":"levelo://app?vid=22da297a-eb32-46a8-aa0d-63cbf5da6476"},"vehicle_type_id":"4","last_reported":1736446372,"current_range_meters":36000,"station_id":"ce4bgt92rcd13ifvqcf0","pricing_plan_id":"cebpf4jnsgd1na2vs0mg"},{"bike_id":"7475f743-fa68-4b23-ab37-60e01b01184f","system_id":"levelo_inurba_marseille","lat":43.32119,"lon":5.36804,"is_reserved":false,"is_disabled":false,"rental_uris":{"android":"levelo://app?vid=7475f743-fa68-4b23-ab37-60e01b01184f","ios":"levelo://app?vid=7475f743-fa68-4b23-ab37-60e01b01184f"},"vehicle_type_id":"4","last_reported":1736446372,"current_range_meters":36000,"station_id":"ce4bhrh2rcd13ifvqhug","pricing_plan_id":"cebpf4jnsgd1na2vs0mg"},{"bike_id":"89608420-8481-4393-a670-5fb3db31b751","system_id":"levelo_inurba_marseille","lat":43.2876,"lon":5.40054,"is_reserved":false,"is_disabled":false,"rental_uris":{"android":"levelo://app?vid=89608420-8481-4393-a670-5fb3db31b751","ios":"levelo://app?vid=89608420-8481-4393-a670-5fb3db31b751"},"vehicle_type_id":"4","last_reported":1736446372,"current_range_meters":4800,"station_id":"ce4bh0h2rcd13ifvqd60","pricing_plan_id":"cebpf4jnsgd1na2vs0mg"},{"bike_id":"5cf29208-2372-494a-8ba6-49dc999fdb5d","system_id":"levelo_inurba_marseille","lat":43.2846,"lon":5.35888,"is_reserved":false,"is_disabled":false,"rental_uris":{"android":"levelo://app?vid=5cf29208-2372-494a-8ba6-49dc999fdb5d","ios":"levelo://app?vid=5cf29208-2372-494a-8ba6-49dc999fdb5d"},"vehicle_type_id":"4","last_reported":1736446372,"current_range_meters":6400,"station_id":"ce4bhah2rcd13ifvqei0","pricing_plan_id":"cebpf4jnsgd1na2vs0mg"},{"bike_id":"32e4f23c-4681-4116-80d2-6e73c5fc5a79","system_id":"levelo_inurba_marseille","lat":43.28459,"lon":5.35895,"is_reserved":false,"is_disabled":false,"rental_uris":{"android":"levelo://app?vid=32e4f23c-4681-4116-80d2-6e73c5fc5a79","ios":"levelo://app?vid=32e4f23c-4681-4116-80d2-6e73c5fc5a79"},"vehicle_type_id":"4","last_reported":1736446372,"current_range_meters":30800,"station_id":"ce4bhah2rcd13ifvqei0","pricing_plan_id":"cebpf4jnsgd1na2vs0mg"},{"bike_id":"a6d29160-7dcb-4dc1-ad80-3af8255c9f21","system_id":"levelo_inurba_marseille","lat":43.31332,"lon":5.37037,"is_reserved":false,"is_disabled":false,"rental_uris":{"android":"levelo://app?vid=a6d29160-7dcb-4dc1-ad80-3af8255c9f21","ios":"levelo://app?vid=a6d29160-7dcb-4dc1-ad80-3af8255c9f21"},"vehicle_type_id":"4","last_reported":1736446372,"current_range_meters":32000,"station_id":"","pricing_plan_id":"cebpf4jnsgd1na2vs0mg"},{"bike_id":"3d97d3e0-d45c-47c2-9a56-3b2182dc5b15","system_id":"levelo_inurba_marseille","lat":43.28002,"lon":5.38681,"is_reserved":false,"is_disabled":true,"rental_uris":{"android":"levelo://app?vid=3d97d3e0-d45c-47c2-9a56-3b2182dc5b15","ios":"levelo://app?vid=3d97d3e0-d45c-47c2-9a56-3b2182dc5b15"},"vehicle_type_id":"4","last_reported":1736446372,"current_range_meters":0,"station_id":"","pricing_plan_id":"cebpf4jnsgd1na2vs0mg"},{"bike_id":"2eb264c8-1e8d-4f17-a831-3cda07857865","system_id":"levelo_inurba_marseille","lat":43.32111,"lon":5.36786,"is_reserved":false,"is_disabled":false,"rental_uris":{"android":"levelo://app?vid=2eb264c8-1e8d-4f17-a831-3cda07857865","ios":"levelo://app?vid=2eb264c8-1e8d-4f17-a831-3cda07857865"},"vehicle_type_id":"4","last_reported":1736446372,"current_range_meters":37600,"station_id":"ce4bhrh2rcd13ifvqhug","pricing_plan_id":"cebpf4jnsgd1na2vs0mg"},{"bike_id":"a07235a1-873e-49af-ac23-cf1aef86ce0b","system_id":"levelo_inurba_marseille","lat":43.282668,"lon":5.350574,"is_reserved":false,"is_disabled":true,"rental_uris":{"android":"levelo://app?vid=a07235a1-873e-49af-ac23-cf1aef86ce0b","ios":"levelo://app?vid=a07235a1-873e-49af-ac23-cf1aef86ce0b"},"vehicle_type_id":"4","last_reported":1736446372,"current_range_meters":400,"station_id":"ce4bgn12rcd13ifvqbt0","pricing_plan_id":"cebpf4jnsgd1na2vs0mg"},{"bike_id":"c6797cf1-f0cd-4826-b75a-873856b4d3b9","system_id":"levelo_inurba_marseille","lat":43.30439,"lon":5.38886,"is_reserved":false,"is_disabled":false,"rental_uris":{"android":"levelo://app?vid=c6797cf1-f0cd-4826-b75a-873856b4d3b9","ios":"levelo://app?vid=c6797cf1-f0cd-4826-b75a-873856b4d3b9"},"vehicle_type_id":"4","last_reported":1736446372,"current_range_meters":38800,"station_id":"ce4bgk12rcd13ifvqbi0","pricing_plan_id":"cebpf4jnsgd1na2vs0mg"},{"bike_id":"1e2223a2-c032-49e7-8dbf-982df86a0520","system_id":"levelo_inurba_marseille","lat":43.22928,"lon":5.35371,"is_reserved":false,"is_disabled":false,"rental_uris":{"android":"levelo://app?vid=1e2223a2-c032-49e7-8dbf-982df86a0520","ios":"levelo://app?vid=1e2223a2-c032-49e7-8dbf-982df86a0520"},"vehicle_type_id":"4","last_reported":1736446372,"current_range_meters":36000,"station_id":"cpo3532slgdg3j2ikp40","pricing_plan_id":"cebpf4jnsgd1na2vs0mg"},{"bike_id":"4a20735a-ebc8-49e8-b75a-98caa4fb63fb","system_id":"levelo_inurba_marseille","lat":43.29886,"lon":5.3974,"is_reserved":false,"is_disabled":false,"rental_uris":{"android":"levelo://app?vid=4a20735a-ebc8-49e8-b75a-98caa4fb63fb","ios":"levelo://app?vid=4a20735a-ebc8-49e8-b75a-98caa4fb63fb"},"vehicle_type_id":"4","last_reported":1736446372,"current_range_meters":33600,"station_id":"ce4bh0h2rcd13ifvqd50","pricing_plan_id":"cebpf4jnsgd1na2vs0mg"},{"bike_id":"b3cae444-a187-4808-83e8-a4d3eec30618","system_id":"levelo_inurba_marseille","lat":43.30637,"lon":5.40067,"is_reserved":false,"is_disabled":false,"rental_uris":{"android":"levelo://app?vid=b3cae444-a187-4808-83e8-a4d3eec30618","ios":"levelo://app?vid=b3cae444-a187-4808-83e8-a4d3eec30618"},"vehicle_type_id":"4","last_reported":1736446372,"current_range_meters":18800,"station_id":"ce4bh112rcd13ifvqda0","pricing_plan_id":"cebpf4jnsgd1na2vs0mg"},{"bike_id":"d46f057d-b699-44ae-990e-92298c2b7139","system_id":"levelo_inurba_marseille","lat":43.23152,"lon":5.437,"is_reserved":false,"is_disabled":false,"rental_uris":{"android":"levelo://app?vid=d46f057d-b699-44ae-990e-92298c2b7139","ios":"levelo://app?vid=d46f057d-b699-44ae-990e-92298c2b7139"},"vehicle_type_id":"4","last_reported":1736446372,"current_range_meters":18800,"station_id":"ce4bhmp2rcd13ifvqgog","pricing_plan_id":"cebpf4jnsgd1na2vs0mg"},{"bike_id":"be8a233f-ad85-41b2-af03-bfa1e3033438","system_id":"levelo_inurba_marseille","lat":43.23203,"lon":5.35547,"is_reserved":false,"is_disabled":false,"rental_uris":{"android":"levelo://app?vid=be8a233f-ad85-41b2-af03-bfa1e3033438","ios":"levelo://app?vid=be8a233f-ad85-41b2-af03-bfa1e3033438"},"vehicle_type_id":"4","last_reported":1736446372,"current_range_meters":27600,"station_id":"ce4bhu92rcd13ifvqi70","pricing_plan_id":"cebpf4jnsgd1na2vs0mg"},{"bike_id":"b124ca2f-2fd0-4c56-960f-1b8a90949c3b","system_id":"levelo_inurba_marseille","lat":43.295266,"lon":5.374986,"is_reserved":false,"is_disabled":true,"rental_uris":{"android":"levelo://app?vid=b124ca2f-2fd0-4c56-960f-1b8a90949c3b","ios":"levelo://app?vid=b124ca2f-2fd0-4c56-960f-1b8a90949c3b"},"vehicle_type_id":"4","last_reported":1736446372,"current_range_meters":28400,"station_id":"ce4bgkp2rcd13ifvqbmg","pricing_plan_id":"cebpf4jnsgd1na2vs0mg"},{"bike_id":"4e961a78-0f5c-4fc7-98ca-40069191b9f0","system_id":"levelo_inurba_marseille","lat":43.2842,"lon":5.34975,"is_reserved":false,"is_disabled":false,"rental_uris":{"android":"levelo://app?vid=4e961a78-0f5c-4fc7-98ca-40069191b9f0","ios":"levelo://app?vid=4e961a78-0f5c-4fc7-98ca-40069191b9f0"},"vehicle_type_id":"4","last_reported":1736446372,"current_range_meters":36800,"station_id":"ce4bhbh2rcd13ifvqepg","pricing_plan_id":"cebpf4jnsgd1na2vs0mg"},{"bike_id":"2bf137df-75b1-44ad-8782-8d7ae5906911","system_id":"levelo_inurba_marseille","lat":43.30465,"lon":5.38894,"is_reserved":false,"is_disabled":false,"rental_uris":{"android":"levelo://app?vid=2bf137df-75b1-44ad-8782-8d7ae5906911","ios":"levelo://app?vid=2bf137df-75b1-44ad-8782-8d7ae5906911"},"vehicle_type_id":"4","last_reported":1736446372,"current_range_meters":36800,"station_id":"ce4bgk12rcd13ifvqbi0","pricing_plan_id":"cebpf4jnsgd1na2vs0mg"},{"bike_id":"ea0719f3-eceb-440b-85a2-c16b31e4d610","system_id":"levelo_inurba_marseille","lat":43.29238,"lon":5.36061,"is_reserved":false,"is_disabled":false,"rental_uris":{"android":"levelo://app?vid=ea0719f3-eceb-440b-85a2-c16b31e4d610","ios":"levelo://app?vid=ea0719f3-eceb-440b-85a2-c16b31e4d610"},"vehicle_type_id":"4","last_reported":1736446372,"current_range_meters":38800,"station_id":"ce4bhbh2rcd13ifvqeqg","pricing_plan_id":"cebpf4jnsgd1na2vs0mg"},{"bike_id":"d85f28c7-d3a2-47fc-8fc7-067b6a5a5b57","system_id":"levelo_inurba_marseille","lat":43.29084,"lon":5.38125,"is_reserved":false,"is_disabled":true,"rental_uris":{"android":"levelo://app?vid=d85f28c7-d3a2-47fc-8fc7-067b6a5a5b57","ios":"levelo://app?vid=d85f28c7-d3a2-47fc-8fc7-067b6a5a5b57"},"vehicle_type_id":"4","last_reported":1736446372,"current_range_meters":30800,"station_id":"ce4bh512rcd13ifvqe2g","pricing_plan_id":"cebpf4jnsgd1na2vs0mg"},{"bike_id":"e4cd9167-1ac4-4f3e-96a9-1a577bffaaed","system_id":"levelo_inurba_marseille","lat":43.25585,"lon":5.38234,"is_reserved":false,"is_disabled":false,"rental_uris":{"android":"levelo://app?vid=e4cd9167-1ac4-4f3e-96a9-1a577bffaaed","ios":"levelo://app?vid=e4cd9167-1ac4-4f3e-96a9-1a577bffaaed"},"vehicle_type_id":"4","last_reported":1736446372,"current_range_meters":20800,"station_id":"ce4bhih2rcd13ifvqfs0","pricing_plan_id":"cebpf4jnsgd1na2vs0mg"},{"bike_id":"785a4f56-45b0-4c96-9fd6-635a7dba914d","system_id":"levelo_inurba_marseille","lat":43.30944,"lon":5.39018,"is_reserved":false,"is_disabled":false,"rental_uris":{"android":"levelo://app?vid=785a4f56-45b0-4c96-9fd6-635a7dba914d","ios":"levelo://app?vid=785a4f56-45b0-4c96-9fd6-635a7dba914d"},"vehicle_type_id":"4","last_reported":1736446372,"current_range_meters":20000,"station_id":"ce4bgup2rcd13ifvqco0","pricing_plan_id":"cebpf4jnsgd1na2vs0mg"},{"bike_id":"bf9f8dc0-fe29-4988-b195-24737592967a","system_id":"levelo_inurba_marseille","lat":43.23189,"lon":5.39986,"is_reserved":false,"is_disabled":false,"rental_uris":{"android":"levelo://app?vid=bf9f8dc0-fe29-4988-b195-24737592967a","ios":"levelo://app?vid=bf9f8dc0-fe29-4988-b195-24737592967a"},"vehicle_type_id":"4","last_reported":1736446372,"current_range_meters":28000,"station_id":"ce4bhn12rcd13ifvqgqg","pricing_plan_id":"cebpf4jnsgd1na2vs0mg"},{"bike_id":"d6fe99c7-fe9f-49e5-a419-a129f29461de","system_id":"levelo_inurba_marseille","lat":43.23149,"lon":5.4372,"is_reserved":false,"is_disabled":false,"rental_uris":{"android":"levelo://app?vid=d6fe99c7-fe9f-49e5-a419-a129f29461de","ios":"levelo://app?vid=d6fe99c7-fe9f-49e5-a419-a129f29461de"},"vehicle_type_id":"4","last_reported":1736446372,"current_range_meters":28800,"station_id":"ce4bhmp2rcd13ifvqgog","pricing_plan_id":"cebpf4jnsgd1na2vs0mg"},{"bike_id":"fd1791cc-d513-46aa-86f5-45066a889da9","system_id":"levelo_inurba_marseille","lat":43.31724,"lon":5.424,"is_reserved":false,"is_disabled":false,"rental_uris":{"android":"levelo://app?vid=fd1791cc-d513-46aa-86f5-45066a889da9","ios":"levelo://app?vid=fd1791cc-d513-46aa-86f5-45066a889da9"},"vehicle_type_id":"4","last_reported":1736446372,"current_range_meters":38000,"station_id":"ce4bhp92rcd13ifvqhbg","pricing_plan_id":"cebpf4jnsgd1na2vs0mg"},{"bike_id":"661421ef-43d8-4a9a-9b63-a317032c4e73","system_id":"levelo_inurba_marseille","lat":43.30138,"lon":5.38792,"is_reserved":false,"is_disabled":true,"rental_uris":{"android":"levelo://app?vid=661421ef-43d8-4a9a-9b63-a317032c4e73","ios":"levelo://app?vid=661421ef-43d8-4a9a-9b63-a317032c4e73"},"vehicle_type_id":"4","last_reported":1736446372,"current_range_meters":38800,"station_id":"ce4bghh2rcd13ifvqb60","pricing_plan_id":"cebpf4jnsgd1na2vs0mg"},{"bike_id":"d72e0a36-626b-4bfe-8710-79b936ad8a8d","system_id":"levelo_inurba_marseille","lat":43.26509,"lon":5.39541,"is_reserved":false,"is_disabled":false,"rental_uris":{"android":"levelo://app?vid=d72e0a36-626b-4bfe-8710-79b936ad8a8d","ios":"levelo://app?vid=d72e0a36-626b-4bfe-8710-79b936ad8a8d"},"vehicle_type_id":"4","last_reported":1736446372,"current_range_meters":19600,"station_id":"ce4bhi12rcd13ifvqfq0","pricing_plan_id":"cebpf4jnsgd1na2vs0mg"},{"bike_id":"fc9288ed-9da0-4c7f-9aba-d64070cdbf51","system_id":"levelo_inurba_marseille","lat":43.231553,"lon":5.436903,"is_reserved":false,"is_disabled":false,"rental_uris":{"android":"levelo://app?vid=fc9288ed-9da0-4c7f-9aba-d64070cdbf51","ios":"levelo://app?vid=fc9288ed-9da0-4c7f-9aba-d64070cdbf51"},"vehicle_type_id":"4","last_reported":1736446372,"current_range_meters":38800,"station_id":"ce4bhmp2rcd13ifvqgog","pricing_plan_id":"cebpf4jnsgd1na2vs0mg"},{"bike_id":"f00205c7-8cb0-4d0c-95f3-2e232a9eb57f","system_id":"levelo_inurba_marseille","lat":43.29516,"lon":5.39036,"is_reserved":false,"is_disabled":false,"rental_uris":{"android":"levelo://app?vid=f00205c7-8cb0-4d0c-95f3-2e232a9eb57f","ios":"levelo://app?vid=f00205c7-8cb0-4d0c-95f3-2e232a9eb57f"},"vehicle_type_id":"4","last_reported":1736446372,"current_range_meters":37600,"station_id":"ce4bh3p2rcd13ifvqdp0","pricing_plan_id":"cebpf4jnsgd1na2vs0mg"},{"bike_id":"ad28bd53-1c8c-44ea-9a1c-1e5a5b2498fe","system_id":"levelo_inurba_marseille","lat":43.24165,"lon":5.36399,"is_reserved":false,"is_disabled":false,"rental_uris":{"android":"levelo://app?vid=ad28bd53-1c8c-44ea-9a1c-1e5a5b2498fe","ios":"levelo://app?vid=ad28bd53-1c8c-44ea-9a1c-1e5a5b2498fe"},"vehicle_type_id":"4","last_reported":1736446372,"current_range_meters":13600,"station_id":"cpo36qri1sfpv3e86is0","pricing_plan_id":"cebpf4jnsgd1na2vs0mg"},{"bike_id":"970d10bb-46c6-40b5-9cf1-b55c5b0f64c4","system_id":"levelo_inurba_marseille","lat":43.24077,"lon":5.37751,"is_reserved":false,"is_disabled":false,"rental_uris":{"android":"levelo://app?vid=970d10bb-46c6-40b5-9cf1-b55c5b0f64c4","ios":"levelo://app?vid=970d10bb-46c6-40b5-9cf1-b55c5b0f64c4"},"vehicle_type_id":"4","last_reported":1736446372,"current_range_meters":38000,"station_id":"ce4bhnp2rcd13ifvqgvg","pricing_plan_id":"cebpf4jnsgd1na2vs0mg"},{"bike_id":"0d56b9fd-129e-43d5-9153-9f87dcdd40ec","system_id":"levelo_inurba_marseille","lat":43.3025,"lon":5.40054,"is_reserved":false,"is_disabled":false,"rental_uris":{"android":"levelo://app?vid=0d56b9fd-129e-43d5-9153-9f87dcdd40ec","ios":"levelo://app?vid=0d56b9fd-129e-43d5-9153-9f87dcdd40ec"},"vehicle_type_id":"4","last_reported":1736446372,"current_range_meters":12000,"station_id":"ce4bgvh2rcd13ifvqcs0","pricing_plan_id":"cebpf4jnsgd1na2vs0mg"},{"bike_id":"e3dc1723-c304-42fb-b1ea-ebc3611aa765","system_id":"levelo_inurba_marseille","lat":43.25937,"lon":5.40897,"is_reserved":false,"is_disabled":true,"rental_uris":{"android":"levelo://app?vid=e3dc1723-c304-42fb-b1ea-ebc3611aa765","ios":"levelo://app?vid=e3dc1723-c304-42fb-b1ea-ebc3611aa765"},"vehicle_type_id":"4","last_reported":1736446372,"current_range_meters":0,"station_id":"ce4bhm92rcd13ifvqglg","pricing_plan_id":"cebpf4jnsgd1na2vs0mg"},{"bike_id":"69193c43-77f1-4f09-92b5-288a5a6474bb","system_id":"levelo_inurba_marseille","lat":43.29202,"lon":5.35813,"is_reserved":false,"is_disabled":false,"rental_uris":{"android":"levelo://app?vid=69193c43-77f1-4f09-92b5-288a5a6474bb","ios":"levelo://app?vid=69193c43-77f1-4f09-92b5-288a5a6474bb"},"vehicle_type_id":"4","last_reported":1736446372,"current_range_meters":26000,"station_id":"ce4bhb12rcd13ifvqel0","pricing_plan_id":"cebpf4jnsgd1na2vs0mg"},{"bike_id":"7cc324a9-304a-4a9d-933c-9a915149f8fc","system_id":"levelo_inurba_marseille","lat":43.26715,"lon":5.38258,"is_reserved":false,"is_disabled":true,"rental_uris":{"android":"levelo://app?vid=7cc324a9-304a-4a9d-933c-9a915149f8fc","ios":"levelo://app?vid=7cc324a9-304a-4a9d-933c-9a915149f8fc"},"vehicle_type_id":"4","last_reported":1736446372,"current_range_meters":38800,"station_id":"ce4bhg92rcd13ifvqf90","pricing_plan_id":"cebpf4jnsgd1na2vs0mg"},{"bike_id":"a3ba9cf9-4001-4a5e-84c4-beff355874aa","system_id":"levelo_inurba_marseille","lat":43.312251,"lon":5.368534,"is_reserved":false,"is_disabled":false,"rental_uris":{"android":"levelo://app?vid=a3ba9cf9-4001-4a5e-84c4-beff355874aa","ios":"levelo://app?vid=a3ba9cf9-4001-4a5e-84c4-beff355874aa"},"vehicle_type_id":"4","last_reported":1736446372,"current_range_meters":28000,"station_id":"ce4bgl92rcd13ifvqbq0","pricing_plan_id":"cebpf4jnsgd1na2vs0mg"},{"bike_id":"f413de04-6d04-4eec-b46e-ebe29d5929e2","system_id":"levelo_inurba_marseille","lat":43.27566,"lon":5.3842,"is_reserved":false,"is_disabled":false,"rental_uris":{"android":"levelo://app?vid=f413de04-6d04-4eec-b46e-ebe29d5929e2","ios":"levelo://app?vid=f413de04-6d04-4eec-b46e-ebe29d5929e2"},"vehicle_type_id":"4","last_reported":1736446372,"current_range_meters":19600,"station_id":"ce4bhh92rcd13ifvqfi0","pricing_plan_id":"cebpf4jnsgd1na2vs0mg"},{"bike_id":"b8acbba0-a715-4ced-a2aa-0517db10ac9d","system_id":"levelo_inurba_marseille","lat":43.2293,"lon":5.3538,"is_reserved":false,"is_disabled":false,"rental_uris":{"android":"levelo://app?vid=b8acbba0-a715-4ced-a2aa-0517db10ac9d","ios":"levelo://app?vid=b8acbba0-a715-4ced-a2aa-0517db10ac9d"},"vehicle_type_id":"4","last_reported":1736446372,"current_range_meters":10000,"station_id":"cpo3532slgdg3j2ikp40","pricing_plan_id":"cebpf4jnsgd1na2vs0mg"},{"bike_id":"24310845-dd7b-4d25-a99d-65d599b0ee35","system_id":"levelo_inurba_marseille","lat":43.2603,"lon":5.37553,"is_reserved":false,"is_disabled":false,"rental_uris":{"android":"levelo://app?vid=24310845-dd7b-4d25-a99d-65d599b0ee35","ios":"levelo://app?vid=24310845-dd7b-4d25-a99d-65d599b0ee35"},"vehicle_type_id":"4","last_reported":1736446372,"current_range_meters":39200,"station_id":"ce4bhgh2rcd13ifvqfa0","pricing_plan_id":"cebpf4jnsgd1na2vs0mg"},{"bike_id":"536b15cc-7a99-4402-85f8-f584d13ee569","system_id":"levelo_inurba_marseille","lat":43.26209,"lon":5.37447,"is_reserved":false,"is_disabled":false,"rental_uris":{"android":"levelo://app?vid=536b15cc-7a99-4402-85f8-f584d13ee569","ios":"levelo://app?vid=536b15cc-7a99-4402-85f8-f584d13ee569"},"vehicle_type_id":"4","last_reported":1736446372,"current_range_meters":3600,"station_id":"ce4bhgp2rcd13ifvqfc0","pricing_plan_id":"cebpf4jnsgd1na2vs0mg"},{"bike_id":"62f87a94-556e-4521-8c9a-cb113eefc874","system_id":"levelo_inurba_marseille","lat":43.28927,"lon":5.38389,"is_reserved":false,"is_disabled":false,"rental_uris":{"android":"levelo://app?vid=62f87a94-556e-4521-8c9a-cb113eefc874","ios":"levelo://app?vid=62f87a94-556e-4521-8c9a-cb113eefc874"},"vehicle_type_id":"4","last_reported":1736446372,"current_range_meters":3600,"station_id":"ce4bh612rcd13ifvqe6g","pricing_plan_id":"cebpf4jnsgd1na2vs0mg"},{"bike_id":"35de7980-a643-42db-babb-81db69a14938","system_id":"levelo_inurba_marseille","lat":43.28413,"lon":5.37517,"is_reserved":false,"is_disabled":false,"rental_uris":{"android":"levelo://app?vid=35de7980-a643-42db-babb-81db69a14938","ios":"levelo://app?vid=35de7980-a643-42db-babb-81db69a14938"},"vehicle_type_id":"4","last_reported":1736446372,"current_range_meters":19200,"station_id":"ce4bh412rcd13ifvqds0","pricing_plan_id":"cebpf4jnsgd1na2vs0mg"},{"bike_id":"9f45806b-0439-44e8-9147-35b59088d5f3","system_id":"levelo_inurba_marseille","lat":43.241706,"lon":5.364054,"is_reserved":false,"is_disabled":false,"rental_uris":{"android":"levelo://app?vid=9f45806b-0439-44e8-9147-35b59088d5f3","ios":"levelo://app?vid=9f45806b-0439-44e8-9147-35b59088d5f3"},"vehicle_type_id":"4","last_reported":1736446372,"current_range_meters":17600,"station_id":"cpo36qri1sfpv3e86is0","pricing_plan_id":"cebpf4jnsgd1na2vs0mg"},{"bike_id":"e1a78c6c-d52f-43aa-a070-98ed484e0a69","system_id":"levelo_inurba_marseille","lat":43.26557,"lon":5.37287,"is_reserved":false,"is_disabled":false,"rental_uris":{"android":"levelo://app?vid=e1a78c6c-d52f-43aa-a070-98ed484e0a69","ios":"levelo://app?vid=e1a78c6c-d52f-43aa-a070-98ed484e0a69"},"vehicle_type_id":"4","last_reported":1736446372,"current_range_meters":2800,"station_id":"ce4bhg12rcd13ifvqf70","pricing_plan_id":"cebpf4jnsgd1na2vs0mg"},{"bike_id":"74e35f42-f972-4234-b7e5-b2d2317b4f8a","system_id":"levelo_inurba_marseille","lat":43.3236,"lon":5.38888,"is_reserved":false,"is_disabled":false,"rental_uris":{"android":"levelo://app?vid=74e35f42-f972-4234-b7e5-b2d2317b4f8a","ios":"levelo://app?vid=74e35f42-f972-4234-b7e5-b2d2317b4f8a"},"vehicle_type_id":"4","last_reported":1736446372,"current_range_meters":26000,"station_id":"ce4bhqp2rcd13ifvqhog","pricing_plan_id":"cebpf4jnsgd1na2vs0mg"},{"bike_id":"0d0fcadd-d586-4ca8-9078-9ea31b6eebd6","system_id":"levelo_inurba_marseille","lat":43.28469,"lon":5.38422,"is_reserved":false,"is_disabled":false,"rental_uris":{"android":"levelo://app?vid=0d0fcadd-d586-4ca8-9078-9ea31b6eebd6","ios":"levelo://app?vid=0d0fcadd-d586-4ca8-9078-9ea31b6eebd6"},"vehicle_type_id":"4","last_reported":1736446372,"current_range_meters":17600,"station_id":"ce4bh512rcd13ifvqe3g","pricing_plan_id":"cebpf4jnsgd1na2vs0mg"},{"bike_id":"3d6648c7-3598-40a4-b4d3-b049bf073b48","system_id":"levelo_inurba_marseille","lat":43.29419,"lon":5.38614,"is_reserved":false,"is_disabled":true,"rental_uris":{"android":"levelo://app?vid=3d6648c7-3598-40a4-b4d3-b049bf073b48","ios":"levelo://app?vid=3d6648c7-3598-40a4-b4d3-b049bf073b48"},"vehicle_type_id":"4","last_reported":1736446372,"current_range_meters":32800,"station_id":"ce4bh2h2rcd13ifvqdh0","pricing_plan_id":"cebpf4jnsgd1na2vs0mg"},{"bike_id":"07ccab10-cdda-4c0b-bba3-cb0e1013117c","system_id":"levelo_inurba_marseille","lat":43.29782,"lon":5.3935,"is_reserved":false,"is_disabled":true,"rental_uris":{"android":"levelo://app?vid=07ccab10-cdda-4c0b-bba3-cb0e1013117c","ios":"levelo://app?vid=07ccab10-cdda-4c0b-bba3-cb0e1013117c"},"vehicle_type_id":"4","last_reported":1736446372,"current_range_meters":9200,"station_id":"chh1huq6cuj3fo74tm60","pricing_plan_id":"cebpf4jnsgd1na2vs0mg"},{"bike_id":"350eba4b-9862-40db-b5bc-9fc482d0453d","system_id":"levelo_inurba_marseille","lat":43.31359,"lon":5.38488,"is_reserved":false,"is_disabled":false,"rental_uris":{"android":"levelo://app?vid=350eba4b-9862-40db-b5bc-9fc482d0453d","ios":"levelo://app?vid=350eba4b-9862-40db-b5bc-9fc482d0453d"},"vehicle_type_id":"4","last_reported":1736446372,"current_range_meters":26000,"station_id":"ce4bgt92rcd13ifvqcf0","pricing_plan_id":"cebpf4jnsgd1na2vs0mg"},{"bike_id":"22ca2bde-8e2e-4e8d-8353-5770785e67d8","system_id":"levelo_inurba_marseille","lat":43.28083,"lon":5.3966,"is_reserved":false,"is_disabled":false,"rental_uris":{"android":"levelo://app?vid=22ca2bde-8e2e-4e8d-8353-5770785e67d8","ios":"levelo://app?vid=22ca2bde-8e2e-4e8d-8353-5770785e67d8"},"vehicle_type_id":"4","last_reported":1736446372,"current_range_meters":27200,"station_id":"ce4bho12rcd13ifvqh2g","pricing_plan_id":"cebpf4jnsgd1na2vs0mg"},{"bike_id":"fb280a7f-1a02-4782-ac89-27d60a619844","system_id":"levelo_inurba_marseille","lat":43.30417,"lon":5.39752,"is_reserved":false,"is_disabled":false,"rental_uris":{"android":"levelo://app?vid=fb280a7f-1a02-4782-ac89-27d60a619844","ios":"levelo://app?vid=fb280a7f-1a02-4782-ac89-27d60a619844"},"vehicle_type_id":"4","last_reported":1736446372,"current_range_meters":38800,"station_id":"ce4bh092rcd13ifvqd20","pricing_plan_id":"cebpf4jnsgd1na2vs0mg"},{"bike_id":"cc93c07f-c34c-4113-92b1-28f8b781782c","system_id":"levelo_inurba_marseille","lat":43.3004,"lon":5.37343,"is_reserved":false,"is_disabled":false,"rental_uris":{"android":"levelo://app?vid=cc93c07f-c34c-4113-92b1-28f8b781782c","ios":"levelo://app?vid=cc93c07f-c34c-4113-92b1-28f8b781782c"},"vehicle_type_id":"4","last_reported":1736446372,"current_range_meters":34800,"station_id":"","pricing_plan_id":"cebpf4jnsgd1na2vs0mg"},{"bike_id":"0178fb55-6dd5-491b-80a0-d3f8dd8cb9f7","system_id":"levelo_inurba_marseille","lat":43.28152,"lon":5.42649,"is_reserved":false,"is_disabled":false,"rental_uris":{"android":"levelo://app?vid=0178fb55-6dd5-491b-80a0-d3f8dd8cb9f7","ios":"levelo://app?vid=0178fb55-6dd5-491b-80a0-d3f8dd8cb9f7"},"vehicle_type_id":"4","last_reported":1736446372,"current_range_meters":27600,"station_id":"ce4bhnh2rcd13ifvqgug","pricing_plan_id":"cebpf4jnsgd1na2vs0mg"},{"bike_id":"c9e32936-e752-4479-9e2c-ab05b11cc431","system_id":"levelo_inurba_marseille","lat":43.2961,"lon":5.38097,"is_reserved":false,"is_disabled":false,"rental_uris":{"android":"levelo://app?vid=c9e32936-e752-4479-9e2c-ab05b11cc431","ios":"levelo://app?vid=c9e32936-e752-4479-9e2c-ab05b11cc431"},"vehicle_type_id":"4","last_reported":1736446372,"current_range_meters":13600,"station_id":"ce4bgl12rcd13ifvqbo0","pricing_plan_id":"cebpf4jnsgd1na2vs0mg"},{"bike_id":"a02335ae-6ecf-4558-a33e-05dce8c3b768","system_id":"levelo_inurba_marseille","lat":43.29524,"lon":5.42258,"is_reserved":false,"is_disabled":false,"rental_uris":{"android":"levelo://app?vid=a02335ae-6ecf-4558-a33e-05dce8c3b768","ios":"levelo://app?vid=a02335ae-6ecf-4558-a33e-05dce8c3b768"},"vehicle_type_id":"4","last_reported":1736446372,"current_range_meters":13600,"station_id":"ce4bhph2rcd13ifvqhdg","pricing_plan_id":"cebpf4jnsgd1na2vs0mg"},{"bike_id":"fa64230b-b3a1-4eda-8c91-7fc07d541de7","system_id":"levelo_inurba_marseille","lat":43.26494,"lon":5.39546,"is_reserved":false,"is_disabled":false,"rental_uris":{"android":"levelo://app?vid=fa64230b-b3a1-4eda-8c91-7fc07d541de7","ios":"levelo://app?vid=fa64230b-b3a1-4eda-8c91-7fc07d541de7"},"vehicle_type_id":"4","last_reported":1736446372,"current_range_meters":18000,"station_id":"ce4bhi12rcd13ifvqfq0","pricing_plan_id":"cebpf4jnsgd1na2vs0mg"},{"bike_id":"4cbf0fc9-c411-45fa-9fcc-28e6aca10e21","system_id":"levelo_inurba_marseille","lat":43.28673,"lon":5.36325,"is_reserved":false,"is_disabled":false,"rental_uris":{"android":"levelo://app?vid=4cbf0fc9-c411-45fa-9fcc-28e6aca10e21","ios":"levelo://app?vid=4cbf0fc9-c411-45fa-9fcc-28e6aca10e21"},"vehicle_type_id":"4","last_reported":1736446372,"current_range_meters":34000,"station_id":"ce4bhah2rcd13ifvqej0","pricing_plan_id":"cebpf4jnsgd1na2vs0mg"},{"bike_id":"522f8f33-6ce1-444d-954f-85b296770c9d","system_id":"levelo_inurba_marseille","lat":43.30309,"lon":5.39222,"is_reserved":false,"is_disabled":true,"rental_uris":{"android":"levelo://app?vid=522f8f33-6ce1-444d-954f-85b296770c9d","ios":"levelo://app?vid=522f8f33-6ce1-444d-954f-85b296770c9d"},"vehicle_type_id":"4","last_reported":1736446372,"current_range_meters":38000,"station_id":"ce4bgkh2rcd13ifvqbk0","pricing_plan_id":"cebpf4jnsgd1na2vs0mg"},{"bike_id":"ca186c50-0f19-4dfb-8d6a-f5c0cec7459e","system_id":"levelo_inurba_marseille","lat":43.27827,"lon":5.40712,"is_reserved":false,"is_disabled":false,"rental_uris":{"android":"levelo://app?vid=ca186c50-0f19-4dfb-8d6a-f5c0cec7459e","ios":"levelo://app?vid=ca186c50-0f19-4dfb-8d6a-f5c0cec7459e"},"vehicle_type_id":"4","last_reported":1736446372,"current_range_meters":29600,"station_id":"ce4bhnh2rcd13ifvqgtg","pricing_plan_id":"cebpf4jnsgd1na2vs0mg"},{"bike_id":"10837590-8cff-4e9e-a42f-5348f2c9d3bc","system_id":"levelo_inurba_marseille","lat":43.26872,"lon":5.38886,"is_reserved":false,"is_disabled":true,"rental_uris":{"android":"levelo://app?vid=10837590-8cff-4e9e-a42f-5348f2c9d3bc","ios":"levelo://app?vid=10837590-8cff-4e9e-a42f-5348f2c9d3bc"},"vehicle_type_id":"4","last_reported":1736446372,"current_range_meters":0,"station_id":"","pricing_plan_id":"cebpf4jnsgd1na2vs0mg"},{"bike_id":"55bab4ce-1801-4a3e-bf2e-c5ea7f9d118f","system_id":"levelo_inurba_marseille","lat":43.2848,"lon":5.37795,"is_reserved":false,"is_disabled":true,"rental_uris":{"android":"levelo://app?vid=55bab4ce-1801-4a3e-bf2e-c5ea7f9d118f","ios":"levelo://app?vid=55bab4ce-1801-4a3e-bf2e-c5ea7f9d118f"},"vehicle_type_id":"4","last_reported":1736446372,"current_range_meters":400,"station_id":"","pricing_plan_id":"cebpf4jnsgd1na2vs0mg"},{"bike_id":"c3a1c8c5-50fd-426a-8619-274e52648066","system_id":"levelo_inurba_marseille","lat":43.28859,"lon":5.35854,"is_reserved":false,"is_disabled":false,"rental_uris":{"android":"levelo://app?vid=c3a1c8c5-50fd-426a-8619-274e52648066","ios":"levelo://app?vid=c3a1c8c5-50fd-426a-8619-274e52648066"},"vehicle_type_id":"4","last_reported":1736446372,"current_range_meters":38800,"station_id":"ce4bhb12rcd13ifvqem0","pricing_plan_id":"cebpf4jnsgd1na2vs0mg"},{"bike_id":"644f53a2-1cc4-4b75-8551-0f7e809980a1","system_id":"levelo_inurba_marseille","lat":43.29725,"lon":5.37709,"is_reserved":false,"is_disabled":false,"rental_uris":{"android":"levelo://app?vid=644f53a2-1cc4-4b75-8551-0f7e809980a1","ios":"levelo://app?vid=644f53a2-1cc4-4b75-8551-0f7e809980a1"},