{"last_updated":1742303971,"ttl":60,"version":"2.2","data":{"bikes":[{"bike_id":"850e8b51-2e65-463a-92c2-ffb230c60538","system_id":"levelo_inurba_marseille","lat":43.29612,"lon":5.38099,"is_reserved":false,"is_disabled":false,"rental_uris":{"android":"levelo://app?vid=850e8b51-2e65-463a-92c2-ffb230c60538","ios":"levelo://app?vid=850e8b51-2e65-463a-92c2-ffb230c60538"},"vehicle_type_id":"4","last_reported":1742303972,"current_range_meters":2800,"station_id":"ce4bgl12rcd13ifvqbo0","pricing_plan_id":"cebpf4jnsgd1na2vs0mg"},{"bike_id":"784d9120-add7-4963-ab75-e1eb7c983ec3","system_id":"levelo_inurba_marseille","lat":43.32472,"lon":5.36589,"is_reserved":false,"is_disabled":false,"rental_uris":{"android":"levelo://app?vid=784d9120-add7-4963-ab75-e1eb7c983ec3","ios":"levelo://app?vid=784d9120-add7-4963-ab75-e1eb7c983ec3"},"vehicle_type_id":"4","last_reported":1742303972,"current_range_meters":2800,"station_id":"ce4bhs12rcd13ifvqhvg","pricing_plan_id":"cebpf4jnsgd1na2vs0mg"},{"bike_id":"b421c14d-4fb6-432c-8c65-9617555d0601","system_id":"levelo_inurba_marseille","lat":43.28355,"lon":5.38115,"is_reserved":false,"is_disabled":false,"rental_uris":{"android":"levelo://app?vid=b421c14d-4fb6-432c-8c65-9617555d0601","ios":"levelo://app?vid=b421c14d-4fb6-432c-8c65-9617555d0601"},"vehicle_type_id":"4","last_reported":1742303972,"current_range_meters":2800,"station_id":"ce4bh412rcd13ifvqdr0","pricing_plan_id":"cebpf4jnsgd1na2vs0mg"},{"bike_id":"e39f083d-4542-4f7b-9173-1e8fe9e09597","system_id":"levelo_inurba_marseille","lat":43.275,"lon":5.42439,"is_reserved":false,"is_disabled":true,"rental_uris":{"android":"levelo://app?vid=e39f083d-4542-4f7b-9173-1e8fe9e09597","ios":"levelo://app?vid=e39f083d-4542-4f7b-9173-1e8fe9e09597"},"vehicle_type_id":"4","last_reported":1742303972,"current_range_meters":2800,"station_id":"ce4bhn92rcd13ifvqgrg","pricing_plan_id":"cebpf4jnsgd1na2vs0mg"},{"bike_id":"779bed00-78ba-4636-ac0d-caad29f34578","system_id":"levelo_inurba_marseille","lat":43.268037,"lon":5.402678,"is_reserved":false,"is_disabled":false,"rental_uris":{"android":"levelo://app?vid=779bed00-78ba-4636-ac0d-caad29f34578","ios":"levelo://app?vid=779bed00-78ba-4636-ac0d-caad29f34578"},"vehicle_type_id":"4","last_reported":1742303972,"current_range_meters":2800,"station_id":"ce501612rcd8frsf0b60","pricing_plan_id":"cebpf4jnsgd1na2vs0mg"},{"bike_id":"2abdbb59-c646-46ee-86cc-7ef56f088124","system_id":"levelo_inurba_marseille","lat":43.2979,"lon":5.38115,"is_reserved":false,"is_disabled":false,"rental_uris":{"android":"levelo://app?vid=2abdbb59-c646-46ee-86cc-7ef56f088124","ios":"levelo://app?vid=2abdbb59-c646-46ee-86cc-7ef56f088124"},"vehicle_type_id":"4","last_reported":1742303972,"current_range_meters":2800,"station_id":"ce4bgip2rcd13ifvqbb0","pricing_plan_id":"cebpf4jnsgd1na2vs0mg"},{"bike_id":"67bd65ec-d516-4389-8270-5079567bc944","system_id":"levelo_inurba_marseille","lat":43.23155,"lon":5.4372,"is_reserved":false,"is_disabled":false,"rental_uris":{"android":"levelo://app?vid=67bd65ec-d516-4389-8270-5079567bc944","ios":"levelo://app?vid=67bd65ec-d516-4389-8270-5079567bc944"},"vehicle_type_id":"4","last_reported":1742303972,"current_range_meters":4400,"station_id":"ce4bhmp2rcd13ifvqgog","pricing_plan_id":"cebpf4jnsgd1na2vs0mg"},{"bike_id":"40ede74d-ff93-4049-a630-17c5a647fbf7","system_id":"levelo_inurba_marseille","lat":43.268492,"lon":5.395523,"is_reserved":false,"is_disabled":false,"rental_uris":{"android":"levelo://app?vid=40ede74d-ff93-4049-a630-17c5a647fbf7","ios":"levelo://app?vid=40ede74d-ff93-4049-a630-17c5a647fbf7"},"vehicle_type_id":"4","last_reported":1742303972,"current_range_meters":3200,"station_id":"ce4bhk92rcd13ifvqgb0","pricing_plan_id":"cebpf4jnsgd1na2vs0mg"},{"bike_id":"7bd60e55-e82f-4ac8-93f5-f0c8fc659d1f","system_id":"levelo_inurba_marseille","lat":43.28353,"lon":5.38114,"is_reserved":false,"is_disabled":false,"rental_uris":{"android":"levelo://app?vid=7bd60e55-e82f-4ac8-93f5-f0c8fc659d1f","ios":"levelo://app?vid=7bd60e55-e82f-4ac8-93f5-f0c8fc659d1f"},"vehicle_type_id":"4","last_reported":1742303972,"current_range_meters":3200,"station_id":"ce4bh412rcd13ifvqdr0","pricing_plan_id":"cebpf4jnsgd1na2vs0mg"},{"bike_id":"c869a08e-31bb-4b3b-855d-5547b736ee84","system_id":"levelo_inurba_marseille","lat":43.28428,"lon":5.34993,"is_reserved":false,"is_disabled":false,"rental_uris":{"android":"levelo://app?vid=c869a08e-31bb-4b3b-855d-5547b736ee84","ios":"levelo://app?vid=c869a08e-31bb-4b3b-855d-5547b736ee84"},"vehicle_type_id":"4","last_reported":1742303972,"current_range_meters":3200,"station_id":"ce4bhbh2rcd13ifvqepg","pricing_plan_id":"cebpf4jnsgd1na2vs0mg"},{"bike_id":"558ab4fd-8d49-432d-a3ea-02229c3af17f","system_id":"levelo_inurba_marseille","lat":43.32485,"lon":5.36632,"is_reserved":false,"is_disabled":true,"rental_uris":{"android":"levelo://app?vid=558ab4fd-8d49-432d-a3ea-02229c3af17f","ios":"levelo://app?vid=558ab4fd-8d49-432d-a3ea-02229c3af17f"},"vehicle_type_id":"4","last_reported":1742303972,"current_range_meters":3200,"station_id":"ce4bhs12rcd13ifvqhvg","pricing_plan_id":"cebpf4jnsgd1na2vs0mg"},{"bike_id":"2620d77c-9822-456c-b6a1-d24fdd674fd0","system_id":"levelo_inurba_marseille","lat":43.33031,"lon":5.39051,"is_reserved":false,"is_disabled":false,"rental_uris":{"android":"levelo://app?vid=2620d77c-9822-456c-b6a1-d24fdd674fd0","ios":"levelo://app?vid=2620d77c-9822-456c-b6a1-d24fdd674fd0"},"vehicle_type_id":"4","last_reported":1742303972,"current_range_meters":3200,"station_id":"ce4bhr92rcd13ifvqhrg","pricing_plan_id":"cebpf4jnsgd1na2vs0mg"},{"bike_id":"55ba7983-7669-435c-9daa-d84960f8c444","system_id":"levelo_inurba_marseille","lat":43.32143,"lon":5.36773,"is_reserved":false,"is_disabled":false,"rental_uris":{"android":"levelo://app?vid=55ba7983-7669-435c-9daa-d84960f8c444","ios":"levelo://app?vid=55ba7983-7669-435c-9daa-d84960f8c444"},"vehicle_type_id":"4","last_reported":1742303972,"current_range_meters":3200,"station_id":"ce4bhrh2rcd13ifvqhug","pricing_plan_id":"cebpf4jnsgd1na2vs0mg"},{"bike_id":"410282ca-4b59-48b0-bf1f-482bc1a52ab7","system_id":"levelo_inurba_marseille","lat":43.2928,"lon":5.36847,"is_reserved":false,"is_disabled":false,"rental_uris":{"android":"levelo://app?vid=410282ca-4b59-48b0-bf1f-482bc1a52ab7","ios":"levelo://app?vid=410282ca-4b59-48b0-bf1f-482bc1a52ab7"},"vehicle_type_id":"4","last_reported":1742303972,"current_range_meters":3600,"station_id":"ce4bhbp2rcd13ifvqesg","pricing_plan_id":"cebpf4jnsgd1na2vs0mg"},{"bike_id":"9498b8d1-1a26-4adb-94b7-abf5278caff7","system_id":"levelo_inurba_marseille","lat":43.25868,"lon":5.39905,"is_reserved":false,"is_disabled":true,"rental_uris":{"android":"levelo://app?vid=9498b8d1-1a26-4adb-94b7-abf5278caff7","ios":"levelo://app?vid=9498b8d1-1a26-4adb-94b7-abf5278caff7"},"vehicle_type_id":"4","last_reported":1742303972,"current_range_meters":3600,"station_id":"ce4bhl92rcd13ifvqghg","pricing_plan_id":"cebpf4jnsgd1na2vs0mg"},{"bike_id":"28c8681e-f2dd-4551-9c08-ba0f44e07122","system_id":"levelo_inurba_marseille","lat":43.29168,"lon":5.37152,"is_reserved":false,"is_disabled":false,"rental_uris":{"android":"levelo://app?vid=28c8681e-f2dd-4551-9c08-ba0f44e07122","ios":"levelo://app?vid=28c8681e-f2dd-4551-9c08-ba0f44e07122"},"vehicle_type_id":"4","last_reported":1742303972,"current_range_meters":3600,"station_id":"ce4bha92rcd13ifvqeh0","pricing_plan_id":"cebpf4jnsgd1na2vs0mg"},{"bike_id":"4f4e8f9d-64bc-4477-af11-38241ec3aac0","system_id":"levelo_inurba_marseille","lat":43.26083,"lon":5.39398,"is_reserved":false,"is_disabled":false,"rental_uris":{"android":"levelo://app?vid=4f4e8f9d-64bc-4477-af11-38241ec3aac0","ios":"levelo://app?vid=4f4e8f9d-64bc-4477-af11-38241ec3aac0"},"vehicle_type_id":"4","last_reported":1742303972,"current_range_meters":3600,"station_id":"ce4bhh92rcd13ifvqfj0","pricing_plan_id":"cebpf4jnsgd1na2vs0mg"},{"bike_id":"59c056eb-e95a-40a5-a1ab-98bdceb48cf5","system_id":"levelo_inurba_marseille","lat":43.30138,"lon":5.39865,"is_reserved":false,"is_disabled":false,"rental_uris":{"android":"levelo://app?vid=59c056eb-e95a-40a5-a1ab-98bdceb48cf5","ios":"levelo://app?vid=59c056eb-e95a-40a5-a1ab-98bdceb48cf5"},"vehicle_type_id":"4","last_reported":1742303972,"current_range_meters":4000,"station_id":"ce4bh0h2rcd13ifvqd40","pricing_plan_id":"cebpf4jnsgd1na2vs0mg"},{"bike_id":"d78a7945-9354-4c42-9500-7bdbf08592be","system_id":"levelo_inurba_marseille","lat":43.2397,"lon":5.36633,"is_reserved":false,"is_disabled":false,"rental_uris":{"android":"levelo://app?vid=d78a7945-9354-4c42-9500-7bdbf08592be","ios":"levelo://app?vid=d78a7945-9354-4c42-9500-7bdbf08592be"},"vehicle_type_id":"4","last_reported":1742303972,"current_range_meters":4000,"station_id":"ce4bhi12rcd13ifvqfp0","pricing_plan_id":"cebpf4jnsgd1na2vs0mg"},{"bike_id":"268ae582-fc6b-4794-b71f-914ab0733e53","system_id":"levelo_inurba_marseille","lat":43.28873,"lon":5.35847,"is_reserved":false,"is_disabled":false,"rental_uris":{"android":"levelo://app?vid=268ae582-fc6b-4794-b71f-914ab0733e53","ios":"levelo://app?vid=268ae582-fc6b-4794-b71f-914ab0733e53"},"vehicle_type_id":"4","last_reported":1742303972,"current_range_meters":4400,"station_id":"ce4bhb12rcd13ifvqem0","pricing_plan_id":"cebpf4jnsgd1na2vs0mg"},{"bike_id":"cf9a9bf6-9f27-4074-b1c5-254b92a0b26a","system_id":"levelo_inurba_marseille","lat":43.2938,"lon":5.37862,"is_reserved":false,"is_disabled":false,"rental_uris":{"android":"levelo://app?vid=cf9a9bf6-9f27-4074-b1c5-254b92a0b26a","ios":"levelo://app?vid=cf9a9bf6-9f27-4074-b1c5-254b92a0b26a"},"vehicle_type_id":"4","last_reported":1742303972,"current_range_meters":4000,"station_id":"ce4bgjh2rcd13ifvqbf0","pricing_plan_id":"cebpf4jnsgd1na2vs0mg"},{"bike_id":"13030fe0-f542-4016-b5c9-0b3ccfd48774","system_id":"levelo_inurba_marseille","lat":43.31196,"lon":5.36851,"is_reserved":false,"is_disabled":false,"rental_uris":{"android":"levelo://app?vid=13030fe0-f542-4016-b5c9-0b3ccfd48774","ios":"levelo://app?vid=13030fe0-f542-4016-b5c9-0b3ccfd48774"},"vehicle_type_id":"4","last_reported":1742303972,"current_range_meters":4400,"station_id":"ce4bgl92rcd13ifvqbq0","pricing_plan_id":"cebpf4jnsgd1na2vs0mg"},{"bike_id":"05bb0d60-3824-491a-bb5c-c8ef2ff861ce","system_id":"levelo_inurba_marseille","lat":43.28726,"lon":5.3794,"is_reserved":false,"is_disabled":false,"rental_uris":{"android":"levelo://app?vid=05bb0d60-3824-491a-bb5c-c8ef2ff861ce","ios":"levelo://app?vid=05bb0d60-3824-491a-bb5c-c8ef2ff861ce"},"vehicle_type_id":"4","last_reported":1742303972,"current_range_meters":4400,"station_id":"ce4bh9p2rcd13ifvqec0","pricing_plan_id":"cebpf4jnsgd1na2vs0mg"},{"bike_id":"6c6e5693-f098-4bb7-966b-91c38ee2d48f","system_id":"levelo_inurba_marseille","lat":43.30483,"lon":5.37889,"is_reserved":false,"is_disabled":false,"rental_uris":{"android":"levelo://app?vid=6c6e5693-f098-4bb7-966b-91c38ee2d48f","ios":"levelo://app?vid=6c6e5693-f098-4bb7-966b-91c38ee2d48f"},"vehicle_type_id":"4","last_reported":1742303972,"current_range_meters":4800,"station_id":"ce4bgup2rcd13ifvqcn0","pricing_plan_id":"cebpf4jnsgd1na2vs0mg"},{"bike_id":"b0e2fd3b-ed1a-4ac1-96a1-1bab6e2dcf15","system_id":"levelo_inurba_marseille","lat":43.30142,"lon":5.39867,"is_reserved":false,"is_disabled":false,"rental_uris":{"android":"levelo://app?vid=b0e2fd3b-ed1a-4ac1-96a1-1bab6e2dcf15","ios":"levelo://app?vid=b0e2fd3b-ed1a-4ac1-96a1-1bab6e2dcf15"},"vehicle_type_id":"4","last_reported":1742303972,"current_range_meters":2000,"station_id":"ce4bh0h2rcd13ifvqd40","pricing_plan_id":"cebpf4jnsgd1na2vs0mg"},{"bike_id":"32f36ae6-dd4a-4b63-ba45-c41ce3a39e8c","system_id":"levelo_inurba_marseille","lat":43.24999,"lon":5.3893,"is_reserved":false,"is_disabled":false,"rental_uris":{"android":"levelo://app?vid=32f36ae6-dd4a-4b63-ba45-c41ce3a39e8c","ios":"levelo://app?vid=32f36ae6-dd4a-4b63-ba45-c41ce3a39e8c"},"vehicle_type_id":"4","last_reported":1742303972,"current_range_meters":4800,"station_id":"ce4bhgp2rcd13ifvqfd0","pricing_plan_id":"cebpf4jnsgd1na2vs0mg"},{"bike_id":"9e72aea0-2d8f-4bb9-91c4-a12429d870fb","system_id":"levelo_inurba_marseille","lat":43.29287,"lon":5.36847,"is_reserved":false,"is_disabled":false,"rental_uris":{"android":"levelo://app?vid=9e72aea0-2d8f-4bb9-91c4-a12429d870fb","ios":"levelo://app?vid=9e72aea0-2d8f-4bb9-91c4-a12429d870fb"},"vehicle_type_id":"4","last_reported":1742303972,"current_range_meters":4800,"station_id":"ce4bhbp2rcd13ifvqesg","pricing_plan_id":"cebpf4jnsgd1na2vs0mg"},{"bike_id":"8a9ebab9-839a-4dde-a54d-c51e7c927e6b","system_id":"levelo_inurba_marseille","lat":43.28722,"lon":5.37952,"is_reserved":false,"is_disabled":false,"rental_uris":{"android":"levelo://app?vid=8a9ebab9-839a-4dde-a54d-c51e7c927e6b","ios":"levelo://app?vid=8a9ebab9-839a-4dde-a54d-c51e7c927e6b"},"vehicle_type_id":"4","last_reported":1742303972,"current_range_meters":4800,"station_id":"ce4bh9p2rcd13ifvqec0","pricing_plan_id":"cebpf4jnsgd1na2vs0mg"},{"bike_id":"6f35d8d6-c03c-45a9-903a-ccee5c078165","system_id":"levelo_inurba_marseille","lat":43.28996,"lon":5.37839,"is_reserved":false,"is_disabled":false,"rental_uris":{"android":"levelo://app?vid=6f35d8d6-c03c-45a9-903a-ccee5c078165","ios":"levelo://app?vid=6f35d8d6-c03c-45a9-903a-ccee5c078165"},"vehicle_type_id":"4","last_reported":1742303972,"current_range_meters":5600,"station_id":"ce4bh9p2rcd13ifvqed0","pricing_plan_id":"cebpf4jnsgd1na2vs0mg"},{"bike_id":"057c4299-c24d-4a02-8ede-b4bf9523726b","system_id":"levelo_inurba_marseille","lat":43.23156,"lon":5.4372,"is_reserved":false,"is_disabled":true,"rental_uris":{"android":"levelo://app?vid=057c4299-c24d-4a02-8ede-b4bf9523726b","ios":"levelo://app?vid=057c4299-c24d-4a02-8ede-b4bf9523726b"},"vehicle_type_id":"4","last_reported":1742303972,"current_range_meters":6000,"station_id":"ce4bhmp2rcd13ifvqgog","pricing_plan_id":"cebpf4jnsgd1na2vs0mg"},{"bike_id":"e95151cd-abc4-4dae-8ab5-1de4cba734f5","system_id":"levelo_inurba_marseille","lat":43.24178,"lon":5.39727,"is_reserved":false,"is_disabled":false,"rental_uris":{"android":"levelo://app?vid=e95151cd-abc4-4dae-8ab5-1de4cba734f5","ios":"levelo://app?vid=e95151cd-abc4-4dae-8ab5-1de4cba734f5"},"vehicle_type_id":"4","last_reported":1742303972,"current_range_meters":6000,"station_id":"ce4bhn12rcd13ifvqgpg","pricing_plan_id":"cebpf4jnsgd1na2vs0mg"},{"bike_id":"b44ac867-8fe0-4d31-9d48-b44cdef430fc","system_id":"levelo_inurba_marseille","lat":43.296104,"lon":5.377204,"is_reserved":false,"is_disabled":true,"rental_uris":{"android":"levelo://app?vid=b44ac867-8fe0-4d31-9d48-b44cdef430fc","ios":"levelo://app?vid=b44ac867-8fe0-4d31-9d48-b44cdef430fc"},"vehicle_type_id":"4","last_reported":1742303972,"current_range_meters":6000,"station_id":"ce4bhh12rcd13ifvqff0","pricing_plan_id":"cebpf4jnsgd1na2vs0mg"},{"bike_id":"bd9b416b-17de-405d-b3e2-6e2bd0d8c654","system_id":"levelo_inurba_marseille","lat":43.29037,"lon":5.37565,"is_reserved":false,"is_disabled":false,"rental_uris":{"android":"levelo://app?vid=bd9b416b-17de-405d-b3e2-6e2bd0d8c654","ios":"levelo://app?vid=bd9b416b-17de-405d-b3e2-6e2bd0d8c654"},"vehicle_type_id":"4","last_reported":1742303972,"current_range_meters":6000,"station_id":"ce4bh692rcd13ifvqe90","pricing_plan_id":"cebpf4jnsgd1na2vs0mg"},{"bike_id":"4754067c-1424-4e49-adfc-54b87e00a987","system_id":"levelo_inurba_marseille","lat":43.30897,"lon":5.37203,"is_reserved":false,"is_disabled":false,"rental_uris":{"android":"levelo://app?vid=4754067c-1424-4e49-adfc-54b87e00a987","ios":"levelo://app?vid=4754067c-1424-4e49-adfc-54b87e00a987"},"vehicle_type_id":"4","last_reported":1742303972,"current_range_meters":6000,"station_id":"ce4bguh2rcd13ifvqckg","pricing_plan_id":"cebpf4jnsgd1na2vs0mg"},{"bike_id":"dd117a7c-a536-40a1-91af-43693b0b8fe5","system_id":"levelo_inurba_marseille","lat":43.25953,"lon":5.40898,"is_reserved":false,"is_disabled":false,"rental_uris":{"android":"levelo://app?vid=dd117a7c-a536-40a1-91af-43693b0b8fe5","ios":"levelo://app?vid=dd117a7c-a536-40a1-91af-43693b0b8fe5"},"vehicle_type_id":"4","last_reported":1742303972,"current_range_meters":6000,"station_id":"ce4bhm92rcd13ifvqglg","pricing_plan_id":"cebpf4jnsgd1na2vs0mg"},{"bike_id":"d9e96b24-e0f4-4ebb-9963-a6a7c93d494b","system_id":"levelo_inurba_marseille","lat":43.28494,"lon":5.38521,"is_reserved":false,"is_disabled":false,"rental_uris":{"android":"levelo://app?vid=d9e96b24-e0f4-4ebb-9963-a6a7c93d494b","ios":"levelo://app?vid=d9e96b24-e0f4-4ebb-9963-a6a7c93d494b"},"vehicle_type_id":"4","last_reported":1742303972,"current_range_meters":6400,"station_id":"ce4bh8p2rcd13ifvqeb0","pricing_plan_id":"cebpf4jnsgd1na2vs0mg"},{"bike_id":"d1676c12-45d0-460a-ab7d-e6bd42a8628c","system_id":"levelo_inurba_marseille","lat":43.25915,"lon":5.40878,"is_reserved":false,"is_disabled":false,"rental_uris":{"android":"levelo://app?vid=d1676c12-45d0-460a-ab7d-e6bd42a8628c","ios":"levelo://app?vid=d1676c12-45d0-460a-ab7d-e6bd42a8628c"},"vehicle_type_id":"4","last_reported":1742303972,"current_range_meters":6400,"station_id":"ce4bhm92rcd13ifvqglg","pricing_plan_id":"cebpf4jnsgd1na2vs0mg"},{"bike_id":"2e4297ee-69d3-4fdd-99a1-aead5b887d02","system_id":"levelo_inurba_marseille","lat":43.29575,"lon":5.3754,"is_reserved":false,"is_disabled":false,"rental_uris":{"android":"levelo://app?vid=2e4297ee-69d3-4fdd-99a1-aead5b887d02","ios":"levelo://app?vid=2e4297ee-69d3-4fdd-99a1-aead5b887d02"},"vehicle_type_id":"4","last_reported":1742303972,"current_range_meters":6400,"station_id":"ce4bgh92rcd13ifvqb50","pricing_plan_id":"cebpf4jnsgd1na2vs0mg"},{"bike_id":"fa5f15ab-8994-45e1-84de-31aa4c8b3ced","system_id":"levelo_inurba_marseille","lat":43.23223,"lon":5.35548,"is_reserved":false,"is_disabled":false,"rental_uris":{"android":"levelo://app?vid=fa5f15ab-8994-45e1-84de-31aa4c8b3ced","ios":"levelo://app?vid=fa5f15ab-8994-45e1-84de-31aa4c8b3ced"},"vehicle_type_id":"4","last_reported":1742303972,"current_range_meters":6400,"station_id":"ce4bhu92rcd13ifvqi70","pricing_plan_id":"cebpf4jnsgd1na2vs0mg"},{"bike_id":"632c2221-e019-48de-aac3-9d806f0056f4","system_id":"levelo_inurba_marseille","lat":43.24183,"lon":5.39727,"is_reserved":false,"is_disabled":false,"rental_uris":{"android":"levelo://app?vid=632c2221-e019-48de-aac3-9d806f0056f4","ios":"levelo://app?vid=632c2221-e019-48de-aac3-9d806f0056f4"},"vehicle_type_id":"4","last_reported":1742303972,"current_range_meters":6400,"station_id":"ce4bhn12rcd13ifvqgpg","pricing_plan_id":"cebpf4jnsgd1na2vs0mg"},{"bike_id":"b54a649d-2707-4569-87ee-d2c230e19409","system_id":"levelo_inurba_marseille","lat":43.27471,"lon":5.4088,"is_reserved":false,"is_disabled":false,"rental_uris":{"android":"levelo://app?vid=b54a649d-2707-4569-87ee-d2c230e19409","ios":"levelo://app?vid=b54a649d-2707-4569-87ee-d2c230e19409"},"vehicle_type_id":"4","last_reported":1742303972,"current_range_meters":6400,"station_id":"","pricing_plan_id":"cebpf4jnsgd1na2vs0mg"},{"bike_id":"2d09f959-a102-4e82-81e5-f5242077dd37","system_id":"levelo_inurba_marseille","lat":43.26952,"lon":5.38644,"is_reserved":false,"is_disabled":false,"rental_uris":{"android":"levelo://app?vid=2d09f959-a102-4e82-81e5-f5242077dd37","ios":"levelo://app?vid=2d09f959-a102-4e82-81e5-f5242077dd37"},"vehicle_type_id":"4","last_reported":1742303972,"current_range_meters":6400,"station_id":"ce4bhh92rcd13ifvqfh0","pricing_plan_id":"cebpf4jnsgd1na2vs0mg"},{"bike_id":"64ec1f7b-80b6-4b55-802d-ff36e8c801b9","system_id":"levelo_inurba_marseille","lat":43.28859,"lon":5.35884,"is_reserved":false,"is_disabled":false,"rental_uris":{"android":"levelo://app?vid=64ec1f7b-80b6-4b55-802d-ff36e8c801b9","ios":"levelo://app?vid=64ec1f7b-80b6-4b55-802d-ff36e8c801b9"},"vehicle_type_id":"4","last_reported":1742303972,"current_range_meters":6800,"station_id":"ce4bhb12rcd13ifvqem0","pricing_plan_id":"cebpf4jnsgd1na2vs0mg"},{"bike_id":"694e2550-26c1-4e5d-b544-75ec19648790","system_id":"levelo_inurba_marseille","lat":43.32358,"lon":5.36751,"is_reserved":false,"is_disabled":false,"rental_uris":{"android":"levelo://app?vid=694e2550-26c1-4e5d-b544-75ec19648790","ios":"levelo://app?vid=694e2550-26c1-4e5d-b544-75ec19648790"},"vehicle_type_id":"4","last_reported":1742303972,"current_range_meters":6800,"station_id":"ce4bhsh2rcd13ifvqi2g","pricing_plan_id":"cebpf4jnsgd1na2vs0mg"},{"bike_id":"25e73a09-0202-4d58-940a-553229993c3b","system_id":"levelo_inurba_marseille","lat":43.259366,"lon":5.40915,"is_reserved":false,"is_disabled":false,"rental_uris":{"android":"levelo://app?vid=25e73a09-0202-4d58-940a-553229993c3b","ios":"levelo://app?vid=25e73a09-0202-4d58-940a-553229993c3b"},"vehicle_type_id":"4","last_reported":1742303972,"current_range_meters":6800,"station_id":"ce4bhm92rcd13ifvqglg","pricing_plan_id":"cebpf4jnsgd1na2vs0mg"},{"bike_id":"5b73d02d-7930-4bfb-92d7-ee14338b06ab","system_id":"levelo_inurba_marseille","lat":43.31351,"lon":5.36715,"is_reserved":false,"is_disabled":false,"rental_uris":{"android":"levelo://app?vid=5b73d02d-7930-4bfb-92d7-ee14338b06ab","ios":"levelo://app?vid=5b73d02d-7930-4bfb-92d7-ee14338b06ab"},"vehicle_type_id":"4","last_reported":1742303972,"current_range_meters":6800,"station_id":"ce4bgr92rcd13ifvqc6g","pricing_plan_id":"cebpf4jnsgd1na2vs0mg"},{"bike_id":"2665cc4b-07ed-4ae6-a66f-2b09983c709d","system_id":"levelo_inurba_marseille","lat":43.33761,"lon":5.37489,"is_reserved":false,"is_disabled":false,"rental_uris":{"android":"levelo://app?vid=2665cc4b-07ed-4ae6-a66f-2b09983c709d","ios":"levelo://app?vid=2665cc4b-07ed-4ae6-a66f-2b09983c709d"},"vehicle_type_id":"4","last_reported":1742303972,"current_range_meters":6800,"station_id":"","pricing_plan_id":"cebpf4jnsgd1na2vs0mg"},{"bike_id":"a14bcbfb-67d9-465e-b627-470c231309f7","system_id":"levelo_inurba_marseille","lat":43.31688,"lon":5.4047,"is_reserved":false,"is_disabled":false,"rental_uris":{"android":"levelo://app?vid=a14bcbfb-67d9-465e-b627-470c231309f7","ios":"levelo://app?vid=a14bcbfb-67d9-465e-b627-470c231309f7"},"vehicle_type_id":"4","last_reported":1742303972,"current_range_meters":6800,"station_id":"ce4bh012rcd13ifvqd00","pricing_plan_id":"cebpf4jnsgd1na2vs0mg"},{"bike_id":"804128c7-633e-4c74-b021-ca536452f71f","system_id":"levelo_inurba_marseille","lat":43.31507,"lon":5.37299,"is_reserved":false,"is_disabled":false,"rental_uris":{"android":"levelo://app?vid=804128c7-633e-4c74-b021-ca536452f71f","ios":"levelo://app?vid=804128c7-633e-4c74-b021-ca536452f71f"},"vehicle_type_id":"4","last_reported":1742303972,"current_range_meters":7200,"station_id":"ce4bgt12rcd13ifvqcd0","pricing_plan_id":"cebpf4jnsgd1na2vs0mg"},{"bike_id":"934a38f2-8427-4e81-acd6-bf27b71dbb3e","system_id":"levelo_inurba_marseille","lat":43.29246,"lon":5.4097,"is_reserved":false,"is_disabled":false,"rental_uris":{"android":"levelo://app?vid=934a38f2-8427-4e81-acd6-bf27b71dbb3e","ios":"levelo://app?vid=934a38f2-8427-4e81-acd6-bf27b71dbb3e"},"vehicle_type_id":"4","last_reported":1742303972,"current_range_meters":7200,"station_id":"ce4bh192rcd13ifvqdc0","pricing_plan_id":"cebpf4jnsgd1na2vs0mg"},{"bike_id":"b1b41327-66f3-4983-ac80-93a6af2a034d","system_id":"levelo_inurba_marseille","lat":43.2307,"lon":5.35501,"is_reserved":false,"is_disabled":false,"rental_uris":{"android":"levelo://app?vid=b1b41327-66f3-4983-ac80-93a6af2a034d","ios":"levelo://app?vid=b1b41327-66f3-4983-ac80-93a6af2a034d"},"vehicle_type_id":"4","last_reported":1742303972,"current_range_meters":7200,"station_id":"cpo3342slgdg3j2ifvpg","pricing_plan_id":"cebpf4jnsgd1na2vs0mg"},{"bike_id":"9fa6ae8d-033c-4169-b61b-78f6567eb84e","system_id":"levelo_inurba_marseille","lat":43.3117,"lon":5.3871,"is_reserved":false,"is_disabled":false,"rental_uris":{"android":"levelo://app?vid=9fa6ae8d-033c-4169-b61b-78f6567eb84e","ios":"levelo://app?vid=9fa6ae8d-033c-4169-b61b-78f6567eb84e"},"vehicle_type_id":"4","last_reported":1742303972,"current_range_meters":7200,"station_id":"ce4bgv12rcd13ifvqcp0","pricing_plan_id":"cebpf4jnsgd1na2vs0mg"},{"bike_id":"6d8e8090-a4c7-4966-a3f4-a833922b9e5a","system_id":"levelo_inurba_marseille","lat":43.23206,"lon":5.35551,"is_reserved":false,"is_disabled":false,"rental_uris":{"android":"levelo://app?vid=6d8e8090-a4c7-4966-a3f4-a833922b9e5a","ios":"levelo://app?vid=6d8e8090-a4c7-4966-a3f4-a833922b9e5a"},"vehicle_type_id":"4","last_reported":1742303972,"current_range_meters":7200,"station_id":"ce4bhu92rcd13ifvqi70","pricing_plan_id":"cebpf4jnsgd1na2vs0mg"},{"bike_id":"6aa4444c-5c40-4312-b8a6-5ba22fff9f10","system_id":"levelo_inurba_marseille","lat":43.28345,"lon":5.38104,"is_reserved":false,"is_disabled":false,"rental_uris":{"android":"levelo://app?vid=6aa4444c-5c40-4312-b8a6-5ba22fff9f10","ios":"levelo://app?vid=6aa4444c-5c40-4312-b8a6-5ba22fff9f10"},"vehicle_type_id":"4","last_reported":1742303972,"current_range_meters":7200,"station_id":"ce4bh412rcd13ifvqdr0","pricing_plan_id":"cebpf4jnsgd1na2vs0mg"},{"bike_id":"6aed93c0-bb32-4569-b0ba-5debbba8cd5e","system_id":"levelo_inurba_marseille","lat":43.30288,"lon":5.37716,"is_reserved":false,"is_disabled":false,"rental_uris":{"android":"levelo://app?vid=6aed93c0-bb32-4569-b0ba-5debbba8cd5e","ios":"levelo://app?vid=6aed93c0-bb32-4569-b0ba-5debbba8cd5e"},"vehicle_type_id":"4","last_reported":1742303972,"current_range_meters":7200,"station_id":"ce4bguh2rcd13ifvqcj0","pricing_plan_id":"cebpf4jnsgd1na2vs0mg"},{"bike_id":"85e5375e-de83-408d-9f4f-6aca724e20a6","system_id":"levelo_inurba_marseille","lat":43.2895,"lon":5.36649,"is_reserved":false,"is_disabled":false,"rental_uris":{"android":"levelo://app?vid=85e5375e-de83-408d-9f4f-6aca724e20a6","ios":"levelo://app?vid=85e5375e-de83-408d-9f4f-6aca724e20a6"},"vehicle_type_id":"4","last_reported":1742303972,"current_range_meters":7200,"station_id":"ce4bhap2rcd13ifvqek0","pricing_plan_id":"cebpf4jnsgd1na2vs0mg"},{"bike_id":"4b4ef384-1988-4f2d-87eb-17fa715d657c","system_id":"levelo_inurba_marseille","lat":43.28345,"lon":5.38113,"is_reserved":false,"is_disabled":false,"rental_uris":{"android":"levelo://app?vid=4b4ef384-1988-4f2d-87eb-17fa715d657c","ios":"levelo://app?vid=4b4ef384-1988-4f2d-87eb-17fa715d657c"},"vehicle_type_id":"4","last_reported":1742303972,"current_range_meters":7200,"station_id":"ce4bh412rcd13ifvqdr0","pricing_plan_id":"cebpf4jnsgd1na2vs0mg"},{"bike_id":"7d731d78-45c0-4678-986e-ebfa303faba2","system_id":"levelo_inurba_marseille","lat":43.2811,"lon":5.37845,"is_reserved":false,"is_disabled":false,"rental_uris":{"android":"levelo://app?vid=7d731d78-45c0-4678-986e-ebfa303faba2","ios":"levelo://app?vid=7d731d78-45c0-4678-986e-ebfa303faba2"},"vehicle_type_id":"4","last_reported":1742303972,"current_range_meters":7200,"station_id":"ce4bha12rcd13ifvqee0","pricing_plan_id":"cebpf4jnsgd1na2vs0mg"},{"bike_id":"700b44cc-da28-4bb1-b5a0-510d23fecc78","system_id":"levelo_inurba_marseille","lat":43.2471,"lon":5.40733,"is_reserved":false,"is_disabled":false,"rental_uris":{"android":"levelo://app?vid=700b44cc-da28-4bb1-b5a0-510d23fecc78","ios":"levelo://app?vid=700b44cc-da28-4bb1-b5a0-510d23fecc78"},"vehicle_type_id":"4","last_reported":1742303972,"current_range_meters":7200,"station_id":"","pricing_plan_id":"cebpf4jnsgd1na2vs0mg"},{"bike_id":"dea5d43d-a88c-42fc-9bc3-471c30135488","system_id":"levelo_inurba_marseille","lat":43.31278,"lon":5.40156,"is_reserved":false,"is_disabled":false,"rental_uris":{"android":"levelo://app?vid=dea5d43d-a88c-42fc-9bc3-471c30135488","ios":"levelo://app?vid=dea5d43d-a88c-42fc-9bc3-471c30135488"},"vehicle_type_id":"4","last_reported":1742303972,"current_range_meters":7200,"station_id":"ce4bh092rcd13ifvqd30","pricing_plan_id":"cebpf4jnsgd1na2vs0mg"},{"bike_id":"551cc65b-fe42-4531-8213-651475bbd808","system_id":"levelo_inurba_marseille","lat":43.24976,"lon":5.38947,"is_reserved":false,"is_disabled":false,"rental_uris":{"android":"levelo://app?vid=551cc65b-fe42-4531-8213-651475bbd808","ios":"levelo://app?vid=551cc65b-fe42-4531-8213-651475bbd808"},"vehicle_type_id":"4","last_reported":1742303972,"current_range_meters":7200,"station_id":"ce4bhgp2rcd13ifvqfd0","pricing_plan_id":"cebpf4jnsgd1na2vs0mg"},{"bike_id":"e113ab42-ac6c-409f-a210-0c652769b4aa","system_id":"levelo_inurba_marseille","lat":43.24996,"lon":5.38946,"is_reserved":false,"is_disabled":false,"rental_uris":{"android":"levelo://app?vid=e113ab42-ac6c-409f-a210-0c652769b4aa","ios":"levelo://app?vid=e113ab42-ac6c-409f-a210-0c652769b4aa"},"vehicle_type_id":"4","last_reported":1742303972,"current_range_meters":7200,"station_id":"ce4bhgp2rcd13ifvqfd0","pricing_plan_id":"cebpf4jnsgd1na2vs0mg"},{"bike_id":"45286ae3-a0ff-444f-928c-44d1ca499de8","system_id":"levelo_inurba_marseille","lat":43.28356,"lon":5.38102,"is_reserved":false,"is_disabled":false,"rental_uris":{"android":"levelo://app?vid=45286ae3-a0ff-444f-928c-44d1ca499de8","ios":"levelo://app?vid=45286ae3-a0ff-444f-928c-44d1ca499de8"},"vehicle_type_id":"4","last_reported":1742303972,"current_range_meters":7200,"station_id":"ce4bh412rcd13ifvqdr0","pricing_plan_id":"cebpf4jnsgd1na2vs0mg"},{"bike_id":"4e98cc9a-2c15-4e32-9793-e01bc10451a4","system_id":"levelo_inurba_marseille","lat":43.26968,"lon":5.38626,"is_reserved":false,"is_disabled":false,"rental_uris":{"android":"levelo://app?vid=4e98cc9a-2c15-4e32-9793-e01bc10451a4","ios":"levelo://app?vid=4e98cc9a-2c15-4e32-9793-e01bc10451a4"},"vehicle_type_id":"4","last_reported":1742303972,"current_range_meters":8000,"station_id":"ce4bhh92rcd13ifvqfh0","pricing_plan_id":"cebpf4jnsgd1na2vs0mg"},{"bike_id":"dcaf4a78-9578-4c55-ad86-195b8f6ec236","system_id":"levelo_inurba_marseille","lat":43.31163,"lon":5.37729,"is_reserved":false,"is_disabled":false,"rental_uris":{"android":"levelo://app?vid=dcaf4a78-9578-4c55-ad86-195b8f6ec236","ios":"levelo://app?vid=dcaf4a78-9578-4c55-ad86-195b8f6ec236"},"vehicle_type_id":"4","last_reported":1742303972,"current_range_meters":8000,"station_id":"ce4bgt92rcd13ifvqcg0","pricing_plan_id":"cebpf4jnsgd1na2vs0mg"},{"bike_id":"8b199baf-6e95-4e00-ba17-c56c85812882","system_id":"levelo_inurba_marseille","lat":43.28978,"lon":5.37837,"is_reserved":false,"is_disabled":false,"rental_uris":{"android":"levelo://app?vid=8b199baf-6e95-4e00-ba17-c56c85812882","ios":"levelo://app?vid=8b199baf-6e95-4e00-ba17-c56c85812882"},"vehicle_type_id":"4","last_reported":1742303972,"current_range_meters":7200,"station_id":"ce4bh9p2rcd13ifvqed0","pricing_plan_id":"cebpf4jnsgd1na2vs0mg"},{"bike_id":"0414c92c-7144-48ed-abc0-69cdccd9ea5d","system_id":"levelo_inurba_marseille","lat":43.24199,"lon":5.39713,"is_reserved":false,"is_disabled":false,"rental_uris":{"android":"levelo://app?vid=0414c92c-7144-48ed-abc0-69cdccd9ea5d","ios":"levelo://app?vid=0414c92c-7144-48ed-abc0-69cdccd9ea5d"},"vehicle_type_id":"4","last_reported":1742303972,"current_range_meters":8000,"station_id":"ce4bhn12rcd13ifvqgpg","pricing_plan_id":"cebpf4jnsgd1na2vs0mg"},{"bike_id":"35695dd4-791c-4486-b261-10bd7a9e52e9","system_id":"levelo_inurba_marseille","lat":43.26229,"lon":5.4045,"is_reserved":false,"is_disabled":false,"rental_uris":{"android":"levelo://app?vid=35695dd4-791c-4486-b261-10bd7a9e52e9","ios":"levelo://app?vid=35695dd4-791c-4486-b261-10bd7a9e52e9"},"vehicle_type_id":"4","last_reported":1742303972,"current_range_meters":8000,"station_id":"ce4bhmh2rcd13ifvqgmg","pricing_plan_id":"cebpf4jnsgd1na2vs0mg"},{"bike_id":"96a13dcb-c936-4e81-a601-a0af533f7057","system_id":"levelo_inurba_marseille","lat":43.30477,"lon":5.37905,"is_reserved":false,"is_disabled":false,"rental_uris":{"android":"levelo://app?vid=96a13dcb-c936-4e81-a601-a0af533f7057","ios":"levelo://app?vid=96a13dcb-c936-4e81-a601-a0af533f7057"},"vehicle_type_id":"4","last_reported":1742303972,"current_range_meters":8000,"station_id":"ce4bgup2rcd13ifvqcn0","pricing_plan_id":"cebpf4jnsgd1na2vs0mg"},{"bike_id":"0d3accb9-853e-4df0-b9d8-4607b8048f46","system_id":"levelo_inurba_marseille","lat":43.24168,"lon":5.364,"is_reserved":false,"is_disabled":false,"rental_uris":{"android":"levelo://app?vid=0d3accb9-853e-4df0-b9d8-4607b8048f46","ios":"levelo://app?vid=0d3accb9-853e-4df0-b9d8-4607b8048f46"},"vehicle_type_id":"4","last_reported":1742303972,"current_range_meters":8000,"station_id":"cpo36qri1sfpv3e86is0","pricing_plan_id":"cebpf4jnsgd1na2vs0mg"},{"bike_id":"8fe7e33b-57fc-439c-ba02-015988635c80","system_id":"levelo_inurba_marseille","lat":43.27075,"lon":5.42272,"is_reserved":false,"is_disabled":true,"rental_uris":{"android":"levelo://app?vid=8fe7e33b-57fc-439c-ba02-015988635c80","ios":"levelo://app?vid=8fe7e33b-57fc-439c-ba02-015988635c80"},"vehicle_type_id":"4","last_reported":1742303972,"current_range_meters":8000,"station_id":"ce4bhk92rcd13ifvqgb0","pricing_plan_id":"cebpf4jnsgd1na2vs0mg"},{"bike_id":"8b47e242-36c2-4968-ba43-3579a3760cf7","system_id":"levelo_inurba_marseille","lat":43.26228,"lon":5.40451,"is_reserved":false,"is_disabled":false,"rental_uris":{"android":"levelo://app?vid=8b47e242-36c2-4968-ba43-3579a3760cf7","ios":"levelo://app?vid=8b47e242-36c2-4968-ba43-3579a3760cf7"},"vehicle_type_id":"4","last_reported":1742303972,"current_range_meters":8000,"station_id":"ce4bhmh2rcd13ifvqgmg","pricing_plan_id":"cebpf4jnsgd1na2vs0mg"},{"bike_id":"bf53558a-323c-40e3-9c37-ac64ba388e1c","system_id":"levelo_inurba_marseille","lat":43.23972,"lon":5.36606,"is_reserved":false,"is_disabled":false,"rental_uris":{"android":"levelo://app?vid=bf53558a-323c-40e3-9c37-ac64ba388e1c","ios":"levelo://app?vid=bf53558a-323c-40e3-9c37-ac64ba388e1c"},"vehicle_type_id":"4","last_reported":1742303972,"current_range_meters":8000,"station_id":"ce4bhi12rcd13ifvqfp0","pricing_plan_id":"cebpf4jnsgd1na2vs0mg"},{"bike_id":"54e3c9c4-35fb-4d09-9bc0-613b2665a24a","system_id":"levelo_inurba_marseille","lat":43.26947,"lon":5.3864,"is_reserved":false,"is_disabled":false,"rental_uris":{"android":"levelo://app?vid=54e3c9c4-35fb-4d09-9bc0-613b2665a24a","ios":"levelo://app?vid=54e3c9c4-35fb-4d09-9bc0-613b2665a24a"},"vehicle_type_id":"4","last_reported":1742303972,"current_range_meters":8000,"station_id":"ce4bhh92rcd13ifvqfh0","pricing_plan_id":"cebpf4jnsgd1na2vs0mg"},{"bike_id":"82d3dad7-63f3-4a7e-8219-54f8cb3f7636","system_id":"levelo_inurba_marseille","lat":43.23139,"lon":5.43732,"is_reserved":false,"is_disabled":false,"rental_uris":{"android":"levelo://app?vid=82d3dad7-63f3-4a7e-8219-54f8cb3f7636","ios":"levelo://app?vid=82d3dad7-63f3-4a7e-8219-54f8cb3f7636"},"vehicle_type_id":"4","last_reported":1742303972,"current_range_meters":8400,"station_id":"ce4bhmp2rcd13ifvqgog","pricing_plan_id":"cebpf4jnsgd1na2vs0mg"},{"bike_id":"5acfff0d-6883-40b9-90d2-621af333cea4","system_id":"levelo_inurba_marseille","lat":43.25921,"lon":5.40913,"is_reserved":false,"is_disabled":false,"rental_uris":{"android":"levelo://app?vid=5acfff0d-6883-40b9-90d2-621af333cea4","ios":"levelo://app?vid=5acfff0d-6883-40b9-90d2-621af333cea4"},"vehicle_type_id":"4","last_reported":1742303972,"current_range_meters":8400,"station_id":"ce4bhm92rcd13ifvqglg","pricing_plan_id":"cebpf4jnsgd1na2vs0mg"},{"bike_id":"8237cd2c-40d5-4f92-bf44-83fcaa49a848","system_id":"levelo_inurba_marseille","lat":43.2408,"lon":5.37757,"is_reserved":false,"is_disabled":false,"rental_uris":{"android":"levelo://app?vid=8237cd2c-40d5-4f92-bf44-83fcaa49a848","ios":"levelo://app?vid=8237cd2c-40d5-4f92-bf44-83fcaa49a848"},"vehicle_type_id":"4","last_reported":1742303972,"current_range_meters":8400,"station_id":"","pricing_plan_id":"cebpf4jnsgd1na2vs0mg"},{"bike_id":"2d2cc216-0298-408d-9222-9bdc662aa771","system_id":"levelo_inurba_marseille","lat":43.31217,"lon":5.36857,"is_reserved":false,"is_disabled":false,"rental_uris":{"android":"levelo://app?vid=2d2cc216-0298-408d-9222-9bdc662aa771","ios":"levelo://app?vid=2d2cc216-0298-408d-9222-9bdc662aa771"},"vehicle_type_id":"4","last_reported":1742303972,"current_range_meters":8400,"station_id":"ce4bgl92rcd13ifvqbq0","pricing_plan_id":"cebpf4jnsgd1na2vs0mg"},{"bike_id":"97a1e633-c2b3-487e-8569-9036bf18d175","system_id":"levelo_inurba_marseille","lat":43.24179,"lon":5.36397,"is_reserved":false,"is_disabled":false,"rental_uris":{"android":"levelo://app?vid=97a1e633-c2b3-487e-8569-9036bf18d175","ios":"levelo://app?vid=97a1e633-c2b3-487e-8569-9036bf18d175"},"vehicle_type_id":"4","last_reported":1742303972,"current_range_meters":8400,"station_id":"cpo36qri1sfpv3e86is0","pricing_plan_id":"cebpf4jnsgd1na2vs0mg"},{"bike_id":"b5252eee-64a5-4e8c-ba61-0df02bf8abc5","system_id":"levelo_inurba_marseille","lat":43.29936,"lon":5.38147,"is_reserved":false,"is_disabled":false,"rental_uris":{"android":"levelo://app?vid=b5252eee-64a5-4e8c-ba61-0df02bf8abc5","ios":"levelo://app?vid=b5252eee-64a5-4e8c-ba61-0df02bf8abc5"},"vehicle_type_id":"4","last_reported":1742303972,"current_range_meters":8400,"station_id":"ce4bgj12rcd13ifvqbc0","pricing_plan_id":"cebpf4jnsgd1na2vs0mg"},{"bike_id":"c7210302-a7fc-4dd4-8df3-138bbb26d5f3","system_id":"levelo_inurba_marseille","lat":43.25003,"lon":5.38961,"is_reserved":false,"is_disabled":false,"rental_uris":{"android":"levelo://app?vid=c7210302-a7fc-4dd4-8df3-138bbb26d5f3","ios":"levelo://app?vid=c7210302-a7fc-4dd4-8df3-138bbb26d5f3"},"vehicle_type_id":"4","last_reported":1742303972,"current_range_meters":8400,"station_id":"ce4bhgp2rcd13ifvqfd0","pricing_plan_id":"cebpf4jnsgd1na2vs0mg"},{"bike_id":"f73ba149-3151-40b1-8750-d5ff63fd4adb","system_id":"levelo_inurba_marseille","lat":43.30486,"lon":5.37913,"is_reserved":false,"is_disabled":false,"rental_uris":{"android":"levelo://app?vid=f73ba149-3151-40b1-8750-d5ff63fd4adb","ios":"levelo://app?vid=f73ba149-3151-40b1-8750-d5ff63fd4adb"},"vehicle_type_id":"4","last_reported":1742303972,"current_range_meters":8400,"station_id":"ce4bgup2rcd13ifvqcn0","pricing_plan_id":"cebpf4jnsgd1na2vs0mg"},{"bike_id":"b6ed82ed-6cc5-42ba-803e-53ce8f49405d","system_id":"levelo_inurba_marseille","lat":43.25021,"lon":5.38942,"is_reserved":false,"is_disabled":false,"rental_uris":{"android":"levelo://app?vid=b6ed82ed-6cc5-42ba-803e-53ce8f49405d","ios":"levelo://app?vid=b6ed82ed-6cc5-42ba-803e-53ce8f49405d"},"vehicle_type_id":"4","last_reported":1742303972,"current_range_meters":8400,"station_id":"ce4bhgp2rcd13ifvqfd0","pricing_plan_id":"cebpf4jnsgd1na2vs0mg"},{"bike_id":"4d9ae2f3-a796-49dc-a321-2b64b628a9e2","system_id":"levelo_inurba_marseille","lat":43.2408,"lon":5.37752,"is_reserved":false,"is_disabled":false,"rental_uris":{"android":"levelo://app?vid=4d9ae2f3-a796-49dc-a321-2b64b628a9e2","ios":"levelo://app?vid=4d9ae2f3-a796-49dc-a321-2b64b628a9e2"},"vehicle_type_id":"4","last_reported":1742303972,"current_range_meters":8400,"station_id":"","pricing_plan_id":"cebpf4jnsgd1na2vs0mg"},{"bike_id":"5f45fabe-4370-4661-8c5d-1ccb3acdd2c3","system_id":"levelo_inurba_marseille","lat":43.32343,"lon":5.38907,"is_reserved":false,"is_disabled":false,"rental_uris":{"android":"levelo://app?vid=5f45fabe-4370-4661-8c5d-1ccb3acdd2c3","ios":"levelo://app?vid=5f45fabe-4370-4661-8c5d-1ccb3acdd2c3"},"vehicle_type_id":"4","last_reported":1742303972,"current_range_meters":8400,"station_id":"ce4bhqp2rcd13ifvqhog","pricing_plan_id":"cebpf4jnsgd1na2vs0mg"},{"bike_id":"e639ebe9-94a8-43a0-967b-7436265e68f6","system_id":"levelo_inurba_marseille","lat":43.30645,"lon":5.40086,"is_reserved":false,"is_disabled":false,"rental_uris":{"android":"levelo://app?vid=e639ebe9-94a8-43a0-967b-7436265e68f6","ios":"levelo://app?vid=e639ebe9-94a8-43a0-967b-7436265e68f6"},"vehicle_type_id":"4","last_reported":1742303972,"current_range_meters":8400,"station_id":"ce4bh112rcd13ifvqda0","pricing_plan_id":"cebpf4jnsgd1na2vs0mg"},{"bike_id":"d5eac55a-aa84-4ada-84c6-ba4f953623a8","system_id":"levelo_inurba_marseille","lat":43.30136,"lon":5.38775,"is_reserved":false,"is_disabled":false,"rental_uris":{"android":"levelo://app?vid=d5eac55a-aa84-4ada-84c6-ba4f953623a8","ios":"levelo://app?vid=d5eac55a-aa84-4ada-84c6-ba4f953623a8"},"vehicle_type_id":"4","last_reported":1742303972,"current_range_meters":8400,"station_id":"ce4bghh2rcd13ifvqb60","pricing_plan_id":"cebpf4jnsgd1na2vs0mg"},{"bike_id":"ea7f16e6-de90-4692-b642-b4503d1ac536","system_id":"levelo_inurba_marseille","lat":43.24406,"lon":5.37053,"is_reserved":false,"is_disabled":false,"rental_uris":{"android":"levelo://app?vid=ea7f16e6-de90-4692-b642-b4503d1ac536","ios":"levelo://app?vid=ea7f16e6-de90-4692-b642-b4503d1ac536"},"vehicle_type_id":"4","last_reported":1742303972,"current_range_meters":8800,"station_id":"ce4bhhh2rcd13ifvqfk0","pricing_plan_id":"cebpf4jnsgd1na2vs0mg"},{"bike_id":"a9860ef0-4ab4-4f50-8438-bb46abdaf740","system_id":"levelo_inurba_marseille","lat":43.290202,"lon":5.381428,"is_reserved":false,"is_disabled":false,"rental_uris":{"android":"levelo://app?vid=a9860ef0-4ab4-4f50-8438-bb46abdaf740","ios":"levelo://app?vid=a9860ef0-4ab4-4f50-8438-bb46abdaf740"},"vehicle_type_id":"4","last_reported":1742303972,"current_range_meters":8400,"station_id":"ce4bh4p2rcd13ifvqe1g","pricing_plan_id":"cebpf4jnsgd1na2vs0mg"},{"bike_id":"48a3d8c2-00b3-40d9-8ae4-7b25a670b406","system_id":"levelo_inurba_marseille","lat":43.26968,"lon":5.38641,"is_reserved":false,"is_disabled":false,"rental_uris":{"android":"levelo://app?vid=48a3d8c2-00b3-40d9-8ae4-7b25a670b406","ios":"levelo://app?vid=48a3d8c2-00b3-40d9-8ae4-7b25a670b406"},"vehicle_type_id":"4","last_reported":1742303972,"current_range_meters":8800,"station_id":"ce4bhh92rcd13ifvqfh0","pricing_plan_id":"cebpf4jnsgd1na2vs0mg"},{"bike_id":"6a7c8868-0197-4f4d-9880-a2f40aa7cc17","system_id":"levelo_inurba_marseille","lat":43.28351,"lon":5.3811,"is_reserved":false,"is_disabled":false,"rental_uris":{"android":"levelo://app?vid=6a7c8868-0197-4f4d-9880-a2f40aa7cc17","ios":"levelo://app?vid=6a7c8868-0197-4f4d-9880-a2f40aa7cc17"},"vehicle_type_id":"4","last_reported":1742303972,"current_range_meters":8800,"station_id":"ce4bh412rcd13ifvqdr0","pricing_plan_id":"cebpf4jnsgd1na2vs0mg"},{"bike_id":"5aa9bfef-c861-49bb-8db4-f533133b0fd5","system_id":"levelo_inurba_marseille","lat":43.29633,"lon":5.37723,"is_reserved":false,"is_disabled":false,"rental_uris":{"android":"levelo://app?vid=5aa9bfef-c861-49bb-8db4-f533133b0fd5","ios":"levelo://app?vid=5aa9bfef-c861-49bb-8db4-f533133b0fd5"},"vehicle_type_id":"4","last_reported":1742303972,"current_range_meters":8800,"station_id":"ce4bgi92rcd13ifvqb90","pricing_plan_id":"cebpf4jnsgd1na2vs0mg"},{"bike_id":"bf9ac3b0-fbee-4a48-9c90-a1b00732a6b7","system_id":"levelo_inurba_marseille","lat":43.26789,"lon":5.39411,"is_reserved":false,"is_disabled":false,"rental_uris":{"android":"levelo://app?vid=bf9ac3b0-fbee-4a48-9c90-a1b00732a6b7","ios":"levelo://app?vid=bf9ac3b0-fbee-4a48-9c90-a1b00732a6b7"},"vehicle_type_id":"4","last_reported":1742303972,"current_range_meters":8800,"station_id":"ce4bhh12rcd13ifvqfg0","pricing_plan_id":"cebpf4jnsgd1na2vs0mg"},{"bike_id":"f15037cb-8e7a-400d-b4bc-bd332e9bb5c5","system_id":"levelo_inurba_marseille","lat":43.31774,"lon":5.39017,"is_reserved":false,"is_disabled":false,"rental_uris":{"android":"levelo://app?vid=f15037cb-8e7a-400d-b4bc-bd332e9bb5c5","ios":"levelo://app?vid=f15037cb-8e7a-400d-b4bc-bd332e9bb5c5"},"vehicle_type_id":"4","last_reported":1742303972,"current_range_meters":8800,"station_id":"ce4bhqp2rcd13ifvqhng","pricing_plan_id":"cebpf4jnsgd1na2vs0mg"},{"bike_id":"67fc2f6f-d0cd-4470-ba51-ffeba572efb9","system_id":"levelo_inurba_marseille","lat":43.29202,"lon":5.39321,"is_reserved":false,"is_disabled":false,"rental_uris":{"android":"levelo://app?vid=67fc2f6f-d0cd-4470-ba51-ffeba572efb9","ios":"levelo://app?vid=67fc2f6f-d0cd-4470-ba51-ffeba572efb9"},"vehicle_type_id":"4","last_reported":1742303972,"current_range_meters":13600,"station_id":"ce4bh192rcd13ifvqdd0","pricing_plan_id":"cebpf4jnsgd1na2vs0mg"},{"bike_id":"e376a398-a04f-49d8-89d9-373c1aeddc5e","system_id":"levelo_inurba_marseille","lat":43.29789,"lon":5.39348,"is_reserved":false,"is_disabled":false,"rental_uris":{"android":"levelo://app?vid=e376a398-a04f-49d8-89d9-373c1aeddc5e","ios":"levelo://app?vid=e376a398-a04f-49d8-89d9-373c1aeddc5e"},"vehicle_type_id":"4","last_reported":1742303972,"current_range_meters":8800,"station_id":"chh1huq6cuj3fo74tm60","pricing_plan_id":"cebpf4jnsgd1na2vs0mg"},{"bike_id":"88a59591-0c64-4e7c-826d-6b9574c6f954","system_id":"levelo_inurba_marseille","lat":43.24404,"lon":5.37059,"is_reserved":false,"is_disabled":false,"rental_uris":{"android":"levelo://app?vid=88a59591-0c64-4e7c-826d-6b9574c6f954","ios":"levelo://app?vid=88a59591-0c64-4e7c-826d-6b9574c6f954"},"vehicle_type_id":"4","last_reported":1742303972,"current_range_meters":9200,"station_id":"ce4bhhh2rcd13ifvqfk0","pricing_plan_id":"cebpf4jnsgd1na2vs0mg"},{"bike_id":"8af005aa-0fa6-4215-8cdf-561254428b7d","system_id":"levelo_inurba_marseille","lat":43.29046,"lon":5.39972,"is_reserved":false,"is_disabled":false,"rental_uris":{"android":"levelo://app?vid=8af005aa-0fa6-4215-8cdf-561254428b7d","ios":"levelo://app?vid=8af005aa-0fa6-4215-8cdf-561254428b7d"},"vehicle_type_id":"4","last_reported":1742303972,"current_range_meters":9200,"station_id":"ce4bh392rcd13ifvqdm0","pricing_plan_id":"cebpf4jnsgd1na2vs0mg"},{"bike_id":"eb11b094-bf47-43ab-bffd-d6c6fa0bddc2","system_id":"levelo_inurba_marseille","lat":43.25006,"lon":5.38935,"is_reserved":false,"is_disabled":false,"rental_uris":{"android":"levelo://app?vid=eb11b094-bf47-43ab-bffd-d6c6fa0bddc2","ios":"levelo://app?vid=eb11b094-bf47-43ab-bffd-d6c6fa0bddc2"},"vehicle_type_id":"4","last_reported":1742303972,"current_range_meters":9200,"station_id":"ce4bhgp2rcd13ifvqfd0","pricing_plan_id":"cebpf4jnsgd1na2vs0mg"},{"bike_id":"fb0ffda9-5a26-4999-bb9e-ea956bf8766e","system_id":"levelo_inurba_marseille","lat":43.29854,"lon":5.36285,"is_reserved":false,"is_disabled":false,"rental_uris":{"android":"levelo://app?vid=fb0ffda9-5a26-4999-bb9e-ea956bf8766e","ios":"levelo://app?vid=fb0ffda9-5a26-4999-bb9e-ea956bf8766e"},"vehicle_type_id":"4","last_reported":1742303972,"current_range_meters":9200,"station_id":"ce4bgpp2rcd13ifvqc3g","pricing_plan_id":"cebpf4jnsgd1na2vs0mg"},{"bike_id":"ffeb7b93-583a-4026-8a15-1fd7eaf75cb9","system_id":"levelo_inurba_marseille","lat":43.26683,"lon":5.38277,"is_reserved":false,"is_disabled":false,"rental_uris":{"android":"levelo://app?vid=ffeb7b93-583a-4026-8a15-1fd7eaf75cb9","ios":"levelo://app?vid=ffeb7b93-583a-4026-8a15-1fd7eaf75cb9"},"vehicle_type_id":"4","last_reported":1742303972,"current_range_meters":9200,"station_id":"ce4bhg92rcd13ifvqf90","pricing_plan_id":"cebpf4jnsgd1na2vs0mg"},{"bike_id":"b73d4104-b747-4b3f-9858-c508f4b18edd","system_id":"levelo_inurba_marseille","lat":43.32461,"lon":5.36596,"is_reserved":false,"is_disabled":false,"rental_uris":{"android":"levelo://app?vid=b73d4104-b747-4b3f-9858-c508f4b18edd","ios":"levelo://app?vid=b73d4104-b747-4b3f-9858-c508f4b18edd"},"vehicle_type_id":"4","last_reported":1742303972,"current_range_meters":9200,"station_id":"ce4bhs12rcd13ifvqhvg","pricing_plan_id":"cebpf4jnsgd1na2vs0mg"},{"bike_id":"1ebf2e8f-468e-4ae8-a2d3-09b3b1d8cbbd","system_id":"levelo_inurba_marseille","lat":43.32491,"lon":5.36577,"is_reserved":false,"is_disabled":false,"rental_uris":{"android":"levelo://app?vid=1ebf2e8f-468e-4ae8-a2d3-09b3b1d8cbbd","ios":"levelo://app?vid=1ebf2e8f-468e-4ae8-a2d3-09b3b1d8cbbd"},"vehicle_type_id":"4","last_reported":1742303972,"current_range_meters":9200,"station_id":"ce4bhs12rcd13ifvqhvg","pricing_plan_id":"cebpf4jnsgd1na2vs0mg"},{"bike_id":"09be20b3-ccfa-43d5-8616-036d82fe33a0","system_id":"levelo_inurba_marseille","lat":43.2503,"lon":5.38913,"is_reserved":false,"is_disabled":false,"rental_uris":{"android":"levelo://app?vid=09be20b3-ccfa-43d5-8616-036d82fe33a0","ios":"levelo://app?vid=09be20b3-ccfa-43d5-8616-036d82fe33a0"},"vehicle_type_id":"4","last_reported":1742303972,"current_range_meters":9200,"station_id":"ce4bhgp2rcd13ifvqfd0","pricing_plan_id":"cebpf4jnsgd1na2vs0mg"},{"bike_id":"02f219f4-ab1e-4f3c-b8f8-0f3f096d2dc6","system_id":"levelo_inurba_marseille","lat":43.29598,"lon":5.38097,"is_reserved":false,"is_disabled":true,"rental_uris":{"android":"levelo://app?vid=02f219f4-ab1e-4f3c-b8f8-0f3f096d2dc6","ios":"levelo://app?vid=02f219f4-ab1e-4f3c-b8f8-0f3f096d2dc6"},"vehicle_type_id":"4","last_reported":1742303972,"current_range_meters":9200,"station_id":"ce4bgl12rcd13ifvqbo0","pricing_plan_id":"cebpf4jnsgd1na2vs0mg"},{"bike_id":"393025a0-1c51-472e-a5fd-83bb9b39b412","system_id":"levelo_inurba_marseille","lat":43.25589,"lon":5.38228,"is_reserved":false,"is_disabled":false,"rental_uris":{"android":"levelo://app?vid=393025a0-1c51-472e-a5fd-83bb9b39b412","ios":"levelo://app?vid=393025a0-1c51-472e-a5fd-83bb9b39b412"},"vehicle_type_id":"4","last_reported":1742303972,"current_range_meters":9200,"station_id":"ce4bhih2rcd13ifvqfs0","pricing_plan_id":"cebpf4jnsgd1na2vs0mg"},{"bike_id":"741d391f-90d7-4181-bd12-a5dd4665e554","system_id":"levelo_inurba_marseille","lat":43.25926,"lon":5.40889,"is_reserved":false,"is_disabled":false,"rental_uris":{"android":"levelo://app?vid=741d391f-90d7-4181-bd12-a5dd4665e554","ios":"levelo://app?vid=741d391f-90d7-4181-bd12-a5dd4665e554"},"vehicle_type_id":"4","last_reported":1742303972,"current_range_meters":9200,"station_id":"ce4bhm92rcd13ifvqglg","pricing_plan_id":"cebpf4jnsgd1na2vs0mg"},{"bike_id":"13ee90d6-43f1-4f5d-94d8-e0b0679e9a53","system_id":"levelo_inurba_marseille","lat":43.32115,"lon":5.36762,"is_reserved":false,"is_disabled":false,"rental_uris":{"android":"levelo://app?vid=13ee90d6-43f1-4f5d-94d8-e0b0679e9a53","ios":"levelo://app?vid=13ee90d6-43f1-4f5d-94d8-e0b0679e9a53"},"vehicle_type_id":"4","last_reported":1742303972,"current_range_meters":9200,"station_id":"ce4bhrh2rcd13ifvqhug","pricing_plan_id":"cebpf4jnsgd1na2vs0mg"},{"bike_id":"60b51ac5-12f7-407a-b44a-0edddd5fe7ad","system_id":"levelo_inurba_marseille","lat":43.27079,"lon":5.42266,"is_reserved":false,"is_disabled":false,"rental_uris":{"android":"levelo://app?vid=60b51ac5-12f7-407a-b44a-0edddd5fe7ad","ios":"levelo://app?vid=60b51ac5-12f7-407a-b44a-0edddd5fe7ad"},"vehicle_type_id":"4","last_reported":1742303972,"current_range_meters":9200,"station_id":"ce4bhk92rcd13ifvqgb0","pricing_plan_id":"cebpf4jnsgd1na2vs0mg"},{"bike_id":"8de11a8b-fb2a-4b45-bab5-f46fbb0a1147","system_id":"levelo_inurba_marseille","lat":43.23189,"lon":5.35557,"is_reserved":false,"is_disabled":false,"rental_uris":{"android":"levelo://app?vid=8de11a8b-fb2a-4b45-bab5-f46fbb0a1147","ios":"levelo://app?vid=8de11a8b-fb2a-4b45-bab5-f46fbb0a1147"},"vehicle_type_id":"4","last_reported":1742303972,"current_range_meters":9200,"station_id":"ce4bhu92rcd13ifvqi70","pricing_plan_id":"cebpf4jnsgd1na2vs0mg"},{"bike_id":"3648eed6-3546-4ec9-a9f9-609f66ee7d66","system_id":"levelo_inurba_marseille","lat":43.25913,"lon":5.409171,"is_reserved":false,"is_disabled":false,"rental_uris":{"android":"levelo://app?vid=3648eed6-3546-4ec9-a9f9-609f66ee7d66","ios":"levelo://app?vid=3648eed6-3546-4ec9-a9f9-609f66ee7d66"},"vehicle_type_id":"4","last_reported":1742303972,"current_range_meters":9200,"station_id":"ce4bhkp2rcd13ifvqgd0","pricing_plan_id":"cebpf4jnsgd1na2vs0mg"},{"bike_id":"0b60e72b-d8b1-4266-9b63-b94b87c1ad4b","system_id":"levelo_inurba_marseille","lat":43.23191,"lon":5.39988,"is_reserved":false,"is_disabled":false,"rental_uris":{"android":"levelo://app?vid=0b60e72b-d8b1-4266-9b63-b94b87c1ad4b","ios":"levelo://app?vid=0b60e72b-d8b1-4266-9b63-b94b87c1ad4b"},"vehicle_type_id":"4","last_reported":1742303972,"current_range_meters":9600,"station_id":"ce4bhn12rcd13ifvqgqg","pricing_plan_id":"cebpf4jnsgd1na2vs0mg"},{"bike_id":"6ae282b9-d978-41d7-9848-3239671b5019","system_id":"levelo_inurba_marseille","lat":43.23066,"lon":5.35491,"is_reserved":false,"is_disabled":false,"rental_uris":{"android":"levelo://app?vid=6ae282b9-d978-41d7-9848-3239671b5019","ios":"levelo://app?vid=6ae282b9-d978-41d7-9848-3239671b5019"},"vehicle_type_id":"4","last_reported":1742303972,"current_range_meters":9600,"station_id":"cpo3342slgdg3j2ifvpg","pricing_plan_id":"cebpf4jnsgd1na2vs0mg"},{"bike_id":"39d2df96-c36f-4593-8a68-432fe8c8d072","system_id":"levelo_inurba_marseille","lat":43.29889,"lon":5.43621,"is_reserved":false,"is_disabled":false,"rental_uris":{"android":"levelo://app?vid=39d2df96-c36f-4593-8a68-432fe8c8d072","ios":"levelo://app?vid=39d2df96-c36f-4593-8a68-432fe8c8d072"},"vehicle_type_id":"4","last_reported":1742303972,"current_range_meters":9600,"station_id":"ce4bhpp2rcd13ifvqhfg","pricing_plan_id":"cebpf4jnsgd1na2vs0mg"},{"bike_id":"4a038e92-3cbf-4f3f-8faf-a6cb09ab3765","system_id":"levelo_inurba_marseille","lat":43.25727,"lon":5.41101,"is_reserved":false,"is_disabled":false,"rental_uris":{"android":"levelo://app?vid=4a038e92-3cbf-4f3f-8faf-a6cb09ab3765","ios":"levelo://app?vid=4a038e92-3cbf-4f3f-8faf-a6cb09ab3765"},"vehicle_type_id":"4","last_reported":1742303972,"current_range_meters":9600,"station_id":"ce4bhkp2rcd13ifvqgd0","pricing_plan_id":"cebpf4jnsgd1na2vs0mg"},{"bike_id":"9a6ef679-dbe9-4fb7-9f1c-7d1d1d539349","system_id":"levelo_inurba_marseille","lat":43.30977,"lon":5.37223,"is_reserved":false,"is_disabled":false,"rental_uris":{"android":"levelo://app?vid=9a6ef679-dbe9-4fb7-9f1c-7d1d1d539349","ios":"levelo://app?vid=9a6ef679-dbe9-4fb7-9f1c-7d1d1d539349"},"vehicle_type_id":"4","last_reported":1742303972,"current_range_meters":9600,"station_id":"ce4bguh2rcd13ifvqckg","pricing_plan_id":"cebpf4jnsgd1na2vs0mg"},{"bike_id":"d0ecd06f-b344-485c-8550-9fa5bf448f53","system_id":"levelo_inurba_marseille","lat":43.258274,"lon":5.394299,"is_reserved":false,"is_disabled":false,"rental_uris":{"android":"levelo://app?vid=d0ecd06f-b344-485c-8550-9fa5bf448f53","ios":"levelo://app?vid=d0ecd06f-b344-485c-8550-9fa5bf448f53"},"vehicle_type_id":"4","last_reported":1742303972,"current_range_meters":9600,"station_id":"ce4bhip2rcd13ifvqft0","pricing_plan_id":"cebpf4jnsgd1na2vs0mg"},{"bike_id":"5b9cb4fb-da91-4a94-9225-43feed2c2457","system_id":"levelo_inurba_marseille","lat":43.25724,"lon":5.41103,"is_reserved":false,"is_disabled":false,"rental_uris":{"android":"levelo://app?vid=5b9cb4fb-da91-4a94-9225-43feed2c2457","ios":"levelo://app?vid=5b9cb4fb-da91-4a94-9225-43feed2c2457"},"vehicle_type_id":"4","last_reported":1742303972,"current_range_meters":9600,"station_id":"ce4bhkp2rcd13ifvqgd0","pricing_plan_id":"cebpf4jnsgd1na2vs0mg"},{"bike_id":"3f38565d-9acc-4cea-a077-e74c3367f9a8","system_id":"levelo_inurba_marseille","lat":43.313643,"lon":5.384953,"is_reserved":false,"is_disabled":false,"rental_uris":{"android":"levelo://app?vid=3f38565d-9acc-4cea-a077-e74c3367f9a8","ios":"levelo://app?vid=3f38565d-9acc-4cea-a077-e74c3367f9a8"},"vehicle_type_id":"4","last_reported":1742303972,"current_range_meters":9600,"station_id":"ce4bgkh2rcd13ifvqbl0","pricing_plan_id":"cebpf4jnsgd1na2vs0mg"},{"bike_id":"5184aca7-02f3-461c-95fd-5bad0508fe1a","system_id":"levelo_inurba_marseille","lat":43.27969,"lon":5.38737,"is_reserved":false,"is_disabled":false,"rental_uris":{"android":"levelo://app?vid=5184aca7-02f3-461c-95fd-5bad0508fe1a","ios":"levelo://app?vid=5184aca7-02f3-461c-95fd-5bad0508fe1a"},"vehicle_type_id":"4","last_reported":1742303972,"current_range_meters":9600,"station_id":"ce4bhg12rcd13ifvqf80","pricing_plan_id":"cebpf4jnsgd1na2vs0mg"},{"bike_id":"4e950670-b096-4049-8c8c-3012830ea5a4","system_id":"levelo_inurba_marseille","lat":43.24396,"lon":5.37068,"is_reserved":false,"is_disabled":false,"rental_uris":{"android":"levelo://app?vid=4e950670-b096-4049-8c8c-3012830ea5a4","ios":"levelo://app?vid=4e950670-b096-4049-8c8c-3012830ea5a4"},"vehicle_type_id":"4","last_reported":1742303972,"current_range_meters":9600,"station_id":"ce4bhhh2rcd13ifvqfk0","pricing_plan_id":"cebpf4jnsgd1na2vs0mg"},{"bike_id":"6d1d8c63-fd6f-43eb-be55-d6676a5712f0","system_id":"levelo_inurba_marseille","lat":43.28004,"lon":5.40012,"is_reserved":false,"is_disabled":false,"rental_uris":{"android":"levelo://app?vid=6d1d8c63-fd6f-43eb-be55-d6676a5712f0","ios":"levelo://app?vid=6d1d8c63-fd6f-43eb-be55-d6676a5712f0"},"vehicle_type_id":"4","last_reported":1742303972,"current_range_meters":9600,"station_id":"ce4bho92rcd13ifvqh4g","pricing_plan_id":"cebpf4jnsgd1na2vs0mg"},{"bike_id":"2f8f85ee-8579-4204-9863-7d98a65fea59","system_id":"levelo_inurba_marseille","lat":43.30441,"lon":5.37895,"is_reserved":false,"is_disabled":false,"rental_uris":{"android":"levelo://app?vid=2f8f85ee-8579-4204-9863-7d98a65fea59","ios":"levelo://app?vid=2f8f85ee-8579-4204-9863-7d98a65fea59"},"vehicle_type_id":"4","last_reported":1742303972,"current_range_meters":10000,"station_id":"ce4bgup2rcd13ifvqcn0","pricing_plan_id":"cebpf4jnsgd1na2vs0mg"},{"bike_id":"519efbbc-7577-4063-8eac-658ef30e98a3","system_id":"levelo_inurba_marseille","lat":43.25003,"lon":5.3894,"is_reserved":false,"is_disabled":false,"rental_uris":{"android":"levelo://app?vid=519efbbc-7577-4063-8eac-658ef30e98a3","ios":"levelo://app?vid=519efbbc-7577-4063-8eac-658ef30e98a3"},"vehicle_type_id":"4","last_reported":1742303972,"current_range_meters":10000,"station_id":"ce4bhgp2rcd13ifvqfd0","pricing_plan_id":"cebpf4jnsgd1na2vs0mg"},{"bike_id":"39cd1c3b-9fb8-4996-990c-fc7d7fd9055f","system_id":"levelo_inurba_marseille","lat":43.25726,"lon":5.41112,"is_reserved":false,"is_disabled":false,"rental_uris":{"android":"levelo://app?vid=39cd1c3b-9fb8-4996-990c-fc7d7fd9055f","ios":"levelo://app?vid=39cd1c3b-9fb8-4996-990c-fc7d7fd9055f"},"vehicle_type_id":"4","last_reported":1742303972,"current_range_meters":9600,"station_id":"ce4bhkp2rcd13ifvqgd0","pricing_plan_id":"cebpf4jnsgd1na2vs0mg"},{"bike_id":"b611c071-f0bb-41a2-aa25-420b921bc079","system_id":"levelo_inurba_marseille","lat":43.23076,"lon":5.35495,"is_reserved":false,"is_disabled":false,"rental_uris":{"android":"levelo://app?vid=b611c071-f0bb-41a2-aa25-420b921bc079","ios":"levelo://app?vid=b611c071-f0bb-41a2-aa25-420b921bc079"},"vehicle_type_id":"4","last_reported":1742303972,"current_range_meters":10000,"station_id":"cpo3342slgdg3j2ifvpg","pricing_plan_id":"cebpf4jnsgd1na2vs0mg"},{"bike_id":"794247f9-0198-41ae-9af5-991ded60b492","system_id":"levelo_inurba_marseille","lat":43.24679,"lon":5.38173,"is_reserved":false,"is_disabled":false,"rental_uris":{"android":"levelo://app?vid=794247f9-0198-41ae-9af5-991ded60b492","ios":"levelo://app?vid=794247f9-0198-41ae-9af5-991ded60b492"},"vehicle_type_id":"4","last_reported":1742303972,"current_range_meters":10000,"station_id":"ce4bhih2rcd13ifvqfr0","pricing_plan_id":"cebpf4jnsgd1na2vs0mg"},{"bike_id":"80352524-42cd-42a0-9692-c3382a370bec","system_id":"levelo_inurba_marseille","lat":43.30923,"lon":5.36847,"is_reserved":false,"is_disabled":false,"rental_uris":{"android":"levelo://app?vid=80352524-42cd-42a0-9692-c3382a370bec","ios":"levelo://app?vid=80352524-42cd-42a0-9692-c3382a370bec"},"vehicle_type_id":"4","last_reported":1742303972,"current_range_meters":10000,"station_id":"ce4bgn92rcd13ifvqbvg","pricing_plan_id":"cebpf4jnsgd1na2vs0mg"},{"bike_id":"d88717fb-c201-404b-aef8-f29f5a01efb1","system_id":"levelo_inurba_marseille","lat":43.28162,"lon":5.42644,"is_reserved":false,"is_disabled":false,"rental_uris":{"android":"levelo://app?vid=d88717fb-c201-404b-aef8-f29f5a01efb1","ios":"levelo://app?vid=d88717fb-c201-404b-aef8-f29f5a01efb1"},"vehicle_type_id":"4","last_reported":1742303972,"current_range_meters":10000,"station_id":"ce4bhnh2rcd13ifvqgug","pricing_plan_id":"cebpf4jnsgd1na2vs0mg"},{"bike_id":"db20ab49-0619-4786-b57d-ac0c4776a160","system_id":"levelo_inurba_marseille","lat":43.30412,"lon":5.38872,"is_reserved":false,"is_disabled":false,"rental_uris":{"android":"levelo://app?vid=db20ab49-0619-4786-b57d-ac0c4776a160","ios":"levelo://app?vid=db20ab49-0619-4786-b57d-ac0c4776a160"},"vehicle_type_id":"4","last_reported":1742303972,"current_range_meters":10000,"station_id":"ce4bgk12rcd13ifvqbi0","pricing_plan_id":"cebpf4jnsgd1na2vs0mg"},{"bike_id":"9331b619-4b30-4212-b267-c04dc023b135","system_id":"levelo_inurba_marseille","lat":43.3304,"lon":5.39037,"is_reserved":false,"is_disabled":false,"rental_uris":{"android":"levelo://app?vid=9331b619-4b30-4212-b267-c04dc023b135","ios":"levelo://app?vid=9331b619-4b30-4212-b267-c04dc023b135"},"vehicle_type_id":"4","last_reported":1742303972,"current_range_meters":10000,"station_id":"ce4bhr92rcd13ifvqhrg","pricing_plan_id":"cebpf4jnsgd1na2vs0mg"},{"bike_id":"2fc9495d-c829-4229-a4db-5c8674880d7a","system_id":"levelo_inurba_marseille","lat":43.23054,"lon":5.35498,"is_reserved":false,"is_disabled":false,"rental_uris":{"android":"levelo://app?vid=2fc9495d-c829-4229-a4db-5c8674880d7a","ios":"levelo://app?vid=2fc9495d-c829-4229-a4db-5c8674880d7a"},"vehicle_type_id":"4","last_reported":1742303972,"current_range_meters":10000,"station_id":"cpo3342slgdg3j2ifvpg","pricing_plan_id":"cebpf4jnsgd1na2vs0mg"},{"bike_id":"89a9a07a-5569-426e-baa6-da72a98a25be","system_id":"levelo_inurba_marseille","lat":43.32376,"lon":5.38888,"is_reserved":false,"is_disabled":false,"rental_uris":{"android":"levelo://app?vid=89a9a07a-5569-426e-baa6-da72a98a25be","ios":"levelo://app?vid=89a9a07a-5569-426e-baa6-da72a98a25be"},"vehicle_type_id":"4","last_reported":1742303972,"current_range_meters":10000,"station_id":"ce4bhqp2rcd13ifvqhog","pricing_plan_id":"cebpf4jnsgd1na2vs0mg"},{"bike_id":"7515219e-64b5-4597-bc02-3b6dbeec46b4","system_id":"levelo_inurba_marseille","lat":43.27961,"lon":5.38745,"is_reserved":false,"is_disabled":false,"rental_uris":{"android":"levelo://app?vid=7515219e-64b5-4597-bc02-3b6dbeec46b4","ios":"levelo://app?vid=7515219e-64b5-4597-bc02-3b6dbeec46b4"},"vehicle_type_id":"4","last_reported":1742303972,"current_range_meters":10000,"station_id":"ce4bhg12rcd13ifvqf80","pricing_plan_id":"cebpf4jnsgd1na2vs0mg"},{"bike_id":"25ced1d0-c7f3-4b5e-b25e-0f66ead06834","system_id":"levelo_inurba_marseille","lat":43.25876,"lon":5.39895,"is_reserved":false,"is_disabled":true,"rental_uris":{"android":"levelo://app?vid=25ced1d0-c7f3-4b5e-b25e-0f66ead06834","ios":"levelo://app?vid=25ced1d0-c7f3-4b5e-b25e-0f66ead06834"},"vehicle_type_id":"4","last_reported":1742303972,"current_range_meters":10800,"station_id":"ce4bhl92rcd13ifvqghg","pricing_plan_id":"cebpf4jnsgd1na2vs0mg"},{"bike_id":"42daeb7e-ed6d-44a7-8b81-6841e21173e8","system_id":"levelo_inurba_marseille","lat":43.28948,"lon":5.36643,"is_reserved":false,"is_disabled":false,"rental_uris":{"android":"levelo://app?vid=42daeb7e-ed6d-44a7-8b81-6841e21173e8","ios":"levelo://app?vid=42daeb7e-ed6d-44a7-8b81-6841e21173e8"},"vehicle_type_id":"4","last_reported":1742303972,"current_range_meters":10000,"station_id":"ce4bhap2rcd13ifvqek0","pricing_plan_id":"cebpf4jnsgd1na2vs0mg"},{"bike_id":"6ae6f76c-6a01-4d75-9d3f-dfa610803a78","system_id":"levelo_inurba_marseille","lat":43.23058,"lon":5.35524,"is_reserved":false,"is_disabled":false,"rental_uris":{"android":"levelo://app?vid=6ae6f76c-6a01-4d75-9d3f-dfa610803a78","ios":"levelo://app?vid=6ae6f76c-6a01-4d75-9d3f-dfa610803a78"},"vehicle_type_id":"4","last_reported":1742303972,"current_range_meters":10800,"station_id":"cpo3342slgdg3j2ifvpg","pricing_plan_id":"cebpf4jnsgd1na2vs0mg"},{"bike_id":"181e3e56-f011-4aab-956d-9d49d55e063c","system_id":"levelo_inurba_marseille","lat":43.32357,"lon":5.36771,"is_reserved":false,"is_disabled":false,"rental_uris":{"android":"levelo://app?vid=181e3e56-f011-4aab-956d-9d49d55e063c","ios":"levelo://app?vid=181e3e56-f011-4aab-956d-9d49d55e063c"},"vehicle_type_id":"4","last_reported":1742303972,"current_range_meters":10800,"station_id":"ce4bhsh2rcd13ifvqi2g","pricing_plan_id":"cebpf4jnsgd1na2vs0mg"},{"bike_id":"5d5ccb33-c39c-47b6-8043-ec75af598b61","system_id":"levelo_inurba_marseille","lat":43.3066,"lon":5.40074,"is_reserved":false,"is_disabled":false,"rental_uris":{"android":"levelo://app?vid=5d5ccb33-c39c-47b6-8043-ec75af598b61","ios":"levelo://app?vid=5d5ccb33-c39c-47b6-8043-ec75af598b61"},"vehicle_type_id":"4","last_reported":1742303972,"current_range_meters":10000,"station_id":"ce4bh112rcd13ifvqda0","pricing_plan_id":"cebpf4jnsgd1na2vs0mg"},{"bike_id":"f158cb0f-0380-45cd-a82f-e7d941bda018","system_id":"levelo_inurba_marseille","lat":43.31715,"lon":5.43693,"is_reserved":false,"is_disabled":false,"rental_uris":{"android":"levelo://app?vid=f158cb0f-0380-45cd-a82f-e7d941bda018","ios":"levelo://app?vid=f158cb0f-0380-45cd-a82f-e7d941bda018"},"vehicle_type_id":"4","last_reported":1742303972,"current_range_meters":10800,"station_id":"ce4bhp92rcd13ifvqhcg","pricing_plan_id":"cebpf4jnsgd1na2vs0mg"},{"bike_id":"84b8f04b-e88f-4221-9bad-0f76762dfac4","system_id":"levelo_inurba_marseille","lat":43.24061,"lon":5.3773,"is_reserved":false,"is_disabled":true,"rental_uris":{"android":"levelo://app?vid=84b8f04b-e88f-4221-9bad-0f76762dfac4","ios":"levelo://app?vid=84b8f04b-e88f-4221-9bad-0f76762dfac4"},"vehicle_type_id":"4","last_reported":1742303972,"current_range_meters":10800,"station_id":"ce4bhnp2rcd13ifvqgvg","pricing_plan_id":"cebpf4jnsgd1na2vs0mg"},{"bike_id":"b885f75f-3c96-46ec-8caf-25e821eabbb9","system_id":"levelo_inurba_marseille","lat":43.23154,"lon":5.43708,"is_reserved":false,"is_disabled":false,"rental_uris":{"android":"levelo://app?vid=b885f75f-3c96-46ec-8caf-25e821eabbb9","ios":"levelo://app?vid=b885f75f-3c96-46ec-8caf-25e821eabbb9"},"vehicle_type_id":"4","last_reported":1742303972,"current_range_meters":10800,"station_id":"ce4bhmp2rcd13ifvqgog","pricing_plan_id":"cebpf4jnsgd1na2vs0mg"},{"bike_id":"7f2d3a10-fb38-49e6-9c91-ea2286af82e2","system_id":"levelo_inurba_marseille","lat":43.25906,"lon":5.40876,"is_reserved":false,"is_disabled":false,"rental_uris":{"android":"levelo://app?vid=7f2d3a10-fb38-49e6-9c91-ea2286af82e2","ios":"levelo://app?vid=7f2d3a10-fb38-49e6-9c91-ea2286af82e2"},"vehicle_type_id":"4","last_reported":1742303972,"current_range_meters":10800,"station_id":"ce4bhm92rcd13ifvqglg","pricing_plan_id":"cebpf4jnsgd1na2vs0mg"},{"bike_id":"fe78a566-04ec-4269-a62f-23329583c7d4","system_id":"levelo_inurba_marseille","lat":43.32472,"lon":5.36609,"is_reserved":false,"is_disabled":false,"rental_uris":{"android":"levelo://app?vid=fe78a566-04ec-4269-a62f-23329583c7d4","ios":"levelo://app?vid=fe78a566-04ec-4269-a62f-23329583c7d4"},"vehicle_type_id":"4","last_reported":1742303972,"current_range_meters":10800,"station_id":"ce4bhs12rcd13ifvqhvg","pricing_plan_id":"cebpf4jnsgd1na2vs0mg"},{"bike_id":"7535554e-025a-4daa-8183-4d40ff58526f","system_id":"levelo_inurba_marseille","lat":43.296,"lon":5.38115,"is_reserved":false,"is_disabled":false,"rental_uris":{"android":"levelo://app?vid=7535554e-025a-4daa-8183-4d40ff58526f","ios":"levelo://app?vid=7535554e-025a-4daa-8183-4d40ff58526f"},"vehicle_type_id":"4","last_reported":1742303972,"current_range_meters":11200,"station_id":"ce4bgl12rcd13ifvqbo0","pricing_plan_id":"cebpf4jnsgd1na2vs0mg"},{"bike_id":"aa1bfbfb-dfd3-4a6f-9911-203b69a0f921","system_id":"levelo_inurba_marseille","lat":43.2816,"lon":5.42658,"is_reserved":false,"is_disabled":false,"rental_uris":{"android":"levelo://app?vid=aa1bfbfb-dfd3-4a6f-9911-203b69a0f921","ios":"levelo://app?vid=aa1bfbfb-dfd3-4a6f-9911-203b69a0f921"},"vehicle_type_id":"4","last_reported":1742303972,"current_range_meters":11200,"station_id":"ce4bhnh2rcd13ifvqgug","pricing_plan_id":"cebpf4jnsgd1na2vs0mg"},{"bike_id":"27b9eeb9-c9e1-4dff-8dc3-cc4da9aafde5","system_id":"levelo_inurba_marseille","lat":43.2408,"lon":5.37749,"is_reserved":false,"is_disabled":false,"rental_uris":{"android":"levelo://app?vid=27b9eeb9-c9e1-4dff-8dc3-cc4da9aafde5","ios":"levelo://app?vid=27b9eeb9-c9e1-4dff-8dc3-cc4da9aafde5"},"vehicle_type_id":"4","last_reported":1742303972,"current_range_meters":11600,"station_id":"","pricing_plan_id":"cebpf4jnsgd1na2vs0mg"},{"bike_id":"d00028dc-9b0d-47df-ad9d-778d21fb21b2","system_id":"levelo_inurba_marseille","lat":43.23195,"lon":5.35559,"is_reserved":false,"is_disabled":false,"rental_uris":{"android":"levelo://app?vid=d00028dc-9b0d-47df-ad9d-778d21fb21b2","ios":"levelo://app?vid=d00028dc-9b0d-47df-ad9d-778d21fb21b2"},"vehicle_type_id":"4","last_reported":1742303972,"current_range_meters":11600,"station_id":"ce4bhu92rcd13ifvqi70","pricing_plan_id":"cebpf4jnsgd1na2vs0mg"},{"bike_id":"ca1c0a28-8faf-435f-9d8b-370c3a07ff34","system_id":"levelo_inurba_marseille","lat":43.24175,"lon":5.36386,"is_reserved":false,"is_disabled":false,"rental_uris":{"android":"levelo://app?vid=ca1c0a28-8faf-435f-9d8b-370c3a07ff34","ios":"levelo://app?vid=ca1c0a28-8faf-435f-9d8b-370c3a07ff34"},"vehicle_type_id":"4","last_reported":1742303972,"current_range_meters":11600,"station_id":"cpo36qri1sfpv3e86is0","pricing_plan_id":"cebpf4jnsgd1na2vs0mg"},{"bike_id":"f90278bd-3d2d-4e44-b34e-5089d6c88170","system_id":"levelo_inurba_marseille","lat":43.24663,"lon":5.38877,"is_reserved":false,"is_disabled":false,"rental_uris":{"android":"levelo://app?vid=f90278bd-3d2d-4e44-b34e-5089d6c88170","ios":"levelo://app?vid=f90278bd-3d2d-4e44-b34e-5089d6c88170"},"vehicle_type_id":"4","last_reported":1742303972,"current_range_meters":11600,"station_id":"","pricing_plan_id":"cebpf4jnsgd1na2vs0mg"},{"bike_id":"5457bffc-09e4-4fb6-9ccb-4637f6549971","system_id":"levelo_inurba_marseille","lat":43.30149,"lon":5.37424,"is_reserved":false,"is_disabled":false,"rental_uris":{"android":"levelo://app?vid=5457bffc-09e4-4fb6-9ccb-4637f6549971","ios":"levelo://app?vid=5457bffc-09e4-4fb6-9ccb-4637f6549971"},"vehicle_type_id":"4","last_reported":1742303972,"current_range_meters":11600,"station_id":"ce4bgs92rcd13ifvqcc0","pricing_plan_id":"cebpf4jnsgd1na2vs0mg"},{"bike_id":"931ef41a-ed62-4c6b-87e8-3c687753a70c","system_id":"levelo_inurba_marseille","lat":43.31704,"lon":5.3774,"is_reserved":false,"is_disabled":false,"rental_uris":{"android":"levelo://app?vid=931ef41a-ed62-4c6b-87e8-3c687753a70c","ios":"levelo://app?vid=931ef41a-ed62-4c6b-87e8-3c687753a70c"},"vehicle_type_id":"4","last_reported":1742303972,"current_range_meters":11200,"station_id":"ce4bgth2rcd13ifvqch0","pricing_plan_id":"cebpf4jnsgd1na2vs0mg"},{"bike_id":"ad21d957-c0ea-4c86-82f5-b3682e2201c9","system_id":"levelo_inurba_marseille","lat":43.24188,"lon":5.39728,"is_reserved":false,"is_disabled":false,"rental_uris":{"android":"levelo://app?vid=ad21d957-c0ea-4c86-82f5-b3682e2201c9","ios":"levelo://app?vid=ad21d957-c0ea-4c86-82f5-b3682e2201c9"},"vehicle_type_id":"4","last_reported":1742303972,"current_range_meters":11600,"station_id":"ce4bhn12rcd13ifvqgpg","pricing_plan_id":"cebpf4jnsgd1na2vs0mg"},{"bike_id":"2fa5754c-ba4c-4be7-abf6-9b7abdbb3735","system_id":"levelo_inurba_marseille","lat":43.24081,"lon":5.37755,"is_reserved":false,"is_disabled":false,"rental_uris":{"android":"levelo://app?vid=2fa5754c-ba4c-4be7-abf6-9b7abdbb3735","ios":"levelo://app?vid=2fa5754c-ba4c-4be7-abf6-9b7abdbb3735"},"vehicle_type_id":"4","last_reported":1742303972,"current_range_meters":12000,"station_id":"","pricing_plan_id":"cebpf4jnsgd1na2vs0mg"},{"bike_id":"a1a51917-b6b3-4d1f-a2ec-3217fd18d626","system_id":"levelo_inurba_marseille","lat":43.26126,"lon":5.41471,"is_reserved":false,"is_disabled":false,"rental_uris":{"android":"levelo://app?vid=a1a51917-b6b3-4d1f-a2ec-3217fd18d626","ios":"levelo://app?vid=a1a51917-b6b3-4d1f-a2ec-3217fd18d626"},"vehicle_type_id":"4","last_reported":1742303972,"current_range_meters":12000,"station_id":"","pricing_plan_id":"cebpf4jnsgd1na2vs0mg"},{"bike_id":"c4fa1600-28c7-4ded-8f21-822e986887d7","system_id":"levelo_inurba_marseille","lat":43.33599,"lon":5.40985,"is_reserved":false,"is_disabled":false,"rental_uris":{"android":"levelo://app?vid=c4fa1600-28c7-4ded-8f21-822e986887d7","ios":"levelo://app?vid=c4fa1600-28c7-4ded-8f21-822e986887d7"},"vehicle_type_id":"4","last_reported":1742303972,"current_range_meters":12000,"station_id":"ce4bhqh2rcd13ifvqhmg","pricing_plan_id":"cebpf4jnsgd1na2vs0mg"},{"bike_id":"ab11fa9b-759f-447f-a4f1-b143e2360775","system_id":"levelo_inurba_marseille","lat":43.31351,"lon":5.39171,"is_reserved":false,"is_disabled":false,"rental_uris":{"android":"levelo://app?vid=ab11fa9b-759f-447f-a4f1-b143e2360775","ios":"levelo://app?vid=ab11fa9b-759f-447f-a4f1-b143e2360775"},"vehicle_type_id":"4","last_reported":1742303972,"current_range_meters":12000,"station_id":"","pricing_plan_id":"cebpf4jnsgd1na2vs0mg"},{"bike_id":"d36c89e8-07d2-4942-be59-0b2e43ed175d","system_id":"levelo_inurba_marseille","lat":43.25909,"lon":5.40908,"is_reserved":false,"is_disabled":false,"rental_uris":{"android":"levelo://app?vid=d36c89e8-07d2-4942-be59-0b2e43ed175d","ios":"levelo://app?vid=d36c89e8-07d2-4942-be59-0b2e43ed175d"},"vehicle_type_id":"4","last_reported":1742303972,"current_range_meters":12000,"station_id":"ce4bhm92rcd13ifvqglg","pricing_plan_id":"cebpf4jnsgd1na2vs0mg"},{"bike_id":"8581e34a-e545-4ecd-94c3-9ab5366e4794","system_id":"levelo_inurba_marseille","lat":43.27506,"lon":5.42461,"is_reserved":false,"is_disabled":false,"rental_uris":{"android":"levelo://app?vid=8581e34a-e545-4ecd-94c3-9ab5366e4794","ios":"levelo://app?vid=8581e34a-e545-4ecd-94c3-9ab5366e4794"},"vehicle_type_id":"4","last_reported":1742303972,"current_range_meters":12000,"station_id":"ce4bhn92rcd13ifvqgrg","pricing_plan_id":"cebpf4jnsgd1na2vs0mg"},{"bike_id":"51340ab1-538a-4c08-bec1-bdaac5a5d72f","system_id":"levelo_inurba_marseille","lat":43.23152,"lon":5.43704,"is_reserved":false,"is_disabled":false,"rental_uris":{"android":"levelo://app?vid=51340ab1-538a-4c08-bec1-bdaac5a5d72f","ios":"levelo://app?vid=51340ab1-538a-4c08-bec1-bdaac5a5d72f"},"vehicle_type_id":"4","last_reported":1742303972,"current_range_meters":12000,"station_id":"ce4bhmp2rcd13ifvqgog","pricing_plan_id":"cebpf4jnsgd1na2vs0mg"},{"bike_id":"30afd827-1af8-40de-a576-149b865b7207","system_id":"levelo_inurba_marseille","lat":43.24053,"lon":5.37735,"is_reserved":false,"is_disabled":true,"rental_uris":{"android":"levelo://app?vid=30afd827-1af8-40de-a576-149b865b7207","ios":"levelo://app?vid=30afd827-1af8-40de-a576-149b865b7207"},"vehicle_type_id":"4","last_reported":1742303972,"current_range_meters":12400,"station_id":"ce4bhnp2rcd13ifvqgvg","pricing_plan_id":"cebpf4jnsgd1na2vs0mg"},{"bike_id":"555cd317-6697-49af-a4a2-f46d1e905b25","system_id":"levelo_inurba_marseille","lat":43.28715,"lon":5.37939,"is_reserved":false,"is_disabled":false,"rental_uris":{"android":"levelo://app?vid=555cd317-6697-49af-a4a2-f46d1e905b25","ios":"levelo://app?vid=555cd317-6697-49af-a4a2-f46d1e905b25"},"vehicle_type_id":"4","last_reported":1742303972,"current_range_meters":12400,"station_id":"ce4bh9p2rcd13ifvqec0","pricing_plan_id":"cebpf4jnsgd1na2vs0mg"},{"bike_id":"8fcebb31-b88a-4f8a-8f75-28a67eaab6c5","system_id":"levelo_inurba_marseille","lat":43.30224,"lon":5.39471,"is_reserved":false,"is_disabled":false,"rental_uris":{"android":"levelo://app?vid=8fcebb31-b88a-4f8a-8f75-28a67eaab6c5","ios":"levelo://app?vid=8fcebb31-b88a-4f8a-8f75-28a67eaab6c5"},"vehicle_type_id":"4","last_reported":1742303972,"current_range_meters":12400,"station_id":"ce4bh0p2rcd13ifvqd70","pricing_plan_id":"cebpf4jnsgd1na2vs0mg"},{"bike_id":"0cb439ba-c73c-4e00-a10d-d81c8bff11ec","system_id":"levelo_inurba_marseille","lat":43.32485,"lon":5.36592,"is_reserved":false,"is_disabled":false,"rental_uris":{"android":"levelo://app?vid=0cb439ba-c73c-4e00-a10d-d81c8bff11ec","ios":"levelo://app?vid=0cb439ba-c73c-4e00-a10d-d81c8bff11ec"},"vehicle_type_id":"4","last_reported":1742303972,"current_range_meters":12400,"station_id":"ce4bhs12rcd13ifvqhvg","pricing_plan_id":"cebpf4jnsgd1na2vs0mg"},{"bike_id":"83b27a1e-d2f4-4049-a5a4-a359e4106ed3","system_id":"levelo_inurba_marseille","lat":43.26685,"lon":5.38276,"is_reserved":false,"is_disabled":false,"rental_uris":{"android":"levelo://app?vid=83b27a1e-d2f4-4049-a5a4-a359e4106ed3","ios":"levelo://app?vid=83b27a1e-d2f4-4049-a5a4-a359e4106ed3"},"vehicle_type_id":"4","last_reported":1742303972,"current_range_meters":12400,"station_id":"ce4bhg92rcd13ifvqf90","pricing_plan_id":"cebpf4jnsgd1na2vs0mg"},{"bike_id":"882d5b04-baa2-4dc9-9e53-64f01cb7663b","system_id":"levelo_inurba_marseille","lat":43.3014,"lon":5.37426,"is_reserved":false,"is_disabled":false,"rental_uris":{"android":"levelo://app?vid=882d5b04-baa2-4dc9-9e53-64f01cb7663b","ios":"levelo://app?vid=882d5b04-baa2-4dc9-9e53-64f01cb7663b"},"vehicle_type_id":"4","last_reported":1742303972,"current_range_meters":12400,"station_id":"ce4bgs92rcd13ifvqcc0","pricing_plan_id":"cebpf4jnsgd1na2vs0mg"},{"bike_id":"b59dcec8-37cb-424d-a257-1df19beff6cb","system_id":"levelo_inurba_marseille","lat":43.30919,"lon":5.36849,"is_reserved":false,"is_disabled":false,"rental_uris":{"android":"levelo://app?vid=b59dcec8-37cb-424d-a257-1df19beff6cb","ios":"levelo://app?vid=b59dcec8-37cb-424d-a257-1df19beff6cb"},"vehicle_type_id":"4","last_reported":1742303972,"current_range_meters":12400,"station_id":"ce4bgn92rcd13ifvqbvg","pricing_plan_id":"cebpf4jnsgd1na2vs0mg"},{"bike_id":"32a9ea3c-58cc-427f-b7b6-4bd58278d60c","system_id":"levelo_inurba_marseille","lat":43.27498,"lon":5.42454,"is_reserved":false,"is_disabled":false,"rental_uris":{"android":"levelo://app?vid=32a9ea3c-58cc-427f-b7b6-4bd58278d60c","ios":"levelo://app?vid=32a9ea3c-58cc-427f-b7b6-4bd58278d60c"},"vehicle_type_id":"4","last_reported":1742303972,"current_range_meters":12400,"station_id":"ce4bhn92rcd13ifvqgrg","pricing_plan_id":"cebpf4jnsgd1na2vs0mg"},{"bike_id":"175919c0-deb0-4e48-9a06-eea90edc3e69","system_id":"levelo_inurba_marseille","lat":43.23206,"lon":5.3554,"is_reserved":false,"is_disabled":false,"rental_uris":{"android":"levelo://app?vid=175919c0-deb0-4e48-9a06-eea90edc3e69","ios":"levelo://app?vid=175919c0-deb0-4e48-9a06-eea90edc3e69"},"vehicle_type_id":"4","last_reported":1742303972,"current_range_meters":12400,"station_id":"ce4bhu92rcd13ifvqi70","pricing_plan_id":"cebpf4jnsgd1na2vs0mg"},{"bike_id":"08058f9b-5fd7-489c-a6cd-58711359da60","system_id":"levelo_inurba_marseille","lat":43.32559,"lon":5.41436,"is_reserved":false,"is_disabled":false,"rental_uris":{"android":"levelo://app?vid=08058f9b-5fd7-489c-a6cd-58711359da60","ios":"levelo://app?vid=08058f9b-5fd7-489c-a6cd-58711359da60"},"vehicle_type_id":"4","last_reported":1742303972,"current_range_meters":12400,"station_id":"ce4bhq12rcd13ifvqhhg","pricing_plan_id":"cebpf4jnsgd1na2vs0mg"},{"bike_id":"4f8dbda1-8a12-4edc-bec8-4a37467b3866","system_id":"levelo_inurba_marseille","lat":43.27814,"lon":5.40722,"is_reserved":false,"is_disabled":false,"rental_uris":{"android":"levelo://app?vid=4f8dbda1-8a12-4edc-bec8-4a37467b3866","ios":"levelo://app?vid=4f8dbda1-8a12-4edc-bec8-4a37467b3866"},"vehicle_type_id":"4","last_reported":1742303972,"current_range_meters":12400,"station_id":"ce4bhnh2rcd13ifvqgtg","pricing_plan_id":"cebpf4jnsgd1na2vs0mg"},{"bike_id":"ebaa3e1e-7ff3-426b-9181-67e6cec359f4","system_id":"levelo_inurba_marseille","lat":43.30213,"lon":5.39453,"is_reserved":false,"is_disabled":false,"rental_uris":{"android":"levelo://app?vid=ebaa3e1e-7ff3-426b-9181-67e6cec359f4","ios":"levelo://app?vid=ebaa3e1e-7ff3-426b-9181-67e6cec359f4"},"vehicle_type_id":"4","last_reported":1742303972,"current_range_meters":12800,"station_id":"ce4bh0p2rcd13ifvqd70","pricing_plan_id":"cebpf4jnsgd1na2vs0mg"},{"bike_id":"89cb3140-d211-4c4d-97ca-7e01c3c4da90","system_id":"levelo_inurba_marseille","lat":43.23207,"lon":5.35534,"is_reserved":false,"is_disabled":false,"rental_uris":{"android":"levelo://app?vid=89cb3140-d211-4c4d-97ca-7e01c3c4da90","ios":"levelo://app?vid=89cb3140-d211-4c4d-97ca-7e01c3c4da90"},"vehicle_type_id":"4","last_reported":1742303972,"current_range_meters":12800,"station_id":"ce4bhu92rcd13ifvqi70","pricing_plan_id":"cebpf4jnsgd1na2vs0mg"},{"bike_id":"06f6e7fc-8392-4dae-9268-ebec79666bad","system_id":"levelo_inurba_marseille","lat":43.25723,"lon":5.4112,"is_reserved":false,"is_disabled":false,"rental_uris":{"android":"levelo://app?vid=06f6e7fc-8392-4dae-9268-ebec79666bad","ios":"levelo://app?vid=06f6e7fc-8392-4dae-9268-ebec79666bad"},"vehicle_type_id":"4","last_reported":1742303972,"current_range_meters":12400,"station_id":"ce4bhkp2rcd13ifvqgd0","pricing_plan_id":"cebpf4jnsgd1na2vs0mg"},{"bike_id":"fb702ae0-ac8f-4e42-95aa-d94b79cc2676","system_id":"levelo_inurba_marseille","lat":43.30439,"lon":5.39737,"is_reserved":false,"is_disabled":false,"rental_uris":{"android":"levelo://app?vid=fb702ae0-ac8f-4e42-95aa-d94b79cc2676","ios":"levelo://app?vid=fb702ae0-ac8f-4e42-95aa-d94b79cc2676"},"vehicle_type_id":"4","last_reported":1742303972,"current_range_meters":12800,"station_id":"ce4bh092rcd13ifvqd20","pricing_plan_id":"cebpf4jnsgd1na2vs0mg"},{"bike_id":"a7c6daee-84bd-45a4-832d-68ec30bd8800","system_id":"levelo_inurba_marseille","lat":43.24077,"lon":5.37755,"is_reserved":false,"is_disabled":false,"rental_uris":{"android":"levelo://app?vid=a7c6daee-84bd-45a4-832d-68ec30bd8800","ios":"levelo://app?vid=a7c6daee-84bd-45a4-832d-68ec30bd8800"},"vehicle_type_id":"4","last_reported":1742303972,"current_range_meters":12800,"station_id":"","pricing_plan_id":"cebpf4jnsgd1na2vs0mg"},{"bike_id":"2e5ecf31-30b5-467e-9117-e49fe2c181fc","system_id":"levelo_inurba_marseille","lat":43.24675,"lon":5.38146,"is_reserved":false,"is_disabled":false,"rental_uris":{"android":"levelo://app?vid=2e5ecf31-30b5-467e-9117-e49fe2c181fc","ios":"levelo://app?vid=2e5ecf31-30b5-467e-9117-e49fe2c181fc"},"vehicle_type_id":"4","last_reported":1742303972,"current_range_meters":13600,"station_id":"ce4bhih2rcd13ifvqfr0","pricing_plan_id":"cebpf4jnsgd1na2vs0mg"},{"bike_id":"bf4be79b-9026-4b82-94c1-e6cf04153714","system_id":"levelo_inurba_marseille","lat":43.28464,"lon":5.38561,"is_reserved":false,"is_disabled":false,"rental_uris":{"android":"levelo://app?vid=bf4be79b-9026-4b82-94c1-e6cf04153714","ios":"levelo://app?vid=bf4be79b-9026-4b82-94c1-e6cf04153714"},"vehicle_type_id":"4","last_reported":1742303972,"current_range_meters":13600,"station_id":"ce4bh8p2rcd13ifvqeb0","pricing_plan_id":"cebpf4jnsgd1na2vs0mg"},{"bike_id":"18f93f43-a911-41c2-af3b-364d126809f7","system_id":"levelo_inurba_marseille","lat":43.29083,"lon":5.37178,"is_reserved":false,"is_disabled":false,"rental_uris":{"android":"levelo://app?vid=18f93f43-a911-41c2-af3b-364d126809f7","ios":"levelo://app?vid=18f93f43-a911-41c2-af3b-364d126809f7"},"vehicle_type_id":"4","last_reported":1742303972,"current_range_meters":12800,"station_id":"ce4bh5p2rcd13ifvqe4g","pricing_plan_id":"cebpf4jnsgd1na2vs0mg"},{"bike_id":"a76ee630-06ee-46c8-a5cb-9fbed5c09f05","system_id":"levelo_inurba_marseille","lat":43.29277,"lon":5.38441,"is_reserved":false,"is_disabled":false,"rental_uris":{"android":"levelo://app?vid=a76ee630-06ee-46c8-a5cb-9fbed5c09f05","ios":"levelo://app?vid=a76ee630-06ee-46c8-a5cb-9fbed5c09f05"},"vehicle_type_id":"4","last_reported":1742303972,"current_range_meters":13600,"station_id":"ce4bh692rcd13ifvqea0","pricing_plan_id":"cebpf4jnsgd1na2vs0mg"},{"bike_id":"79957c16-001b-4c2b-96d3-d6aa0c834a91","system_id":"levelo_inurba_marseille","lat":43.30469,"lon":5.37908,"is_reserved":false,"is_disabled":false,"rental_uris":{"android":"levelo://app?vid=79957c16-001b-4c2b-96d3-d6aa0c834a91","ios":"levelo://app?vid=79957c16-001b-4c2b-96d3-d6aa0c834a91"},"vehicle_type_id":"4","last_reported":1742303972,"current_range_meters":13600,"station_id":"ce4bgup2rcd13ifvqcn0","pricing_plan_id":"cebpf4jnsgd1na2vs0mg"},{"bike_id":"ad24286e-51f2-4c87-86db-bb3d69add269","system_id":"levelo_inurba_marseille","lat":43.26549,"lon":5.37259,"is_reserved":false,"is_disabled":false,"rental_uris":{"android":"levelo://app?vid=ad24286e-51f2-4c87-86db-bb3d69add269","ios":"levelo://app?vid=ad24286e-51f2-4c87-86db-bb3d69add269"},"vehicle_type_id":"4","last_reported":1742303972,"current_range_meters":13600,"station_id":"ce4bhg12rcd13ifvqf70","pricing_plan_id":"cebpf4jnsgd1na2vs0mg"},{"bike_id":"18c8ab89-f1c1-441e-97fe-390bc9fe5f94","system_id":"levelo_inurba_marseille","lat":43.27503,"lon":5.42447,"is_reserved":false,"is_disabled":false,"rental_uris":{"android":"levelo://app?vid=18c8ab89-f1c1-441e-97fe-390bc9fe5f94","ios":"levelo://app?vid=18c8ab89-f1c1-441e-97fe-390bc9fe5f94"},"vehicle_type_id":"4","last_reported":1742303972,"current_range_meters":13600,"station_id":"ce4bhn92rcd13ifvqgrg","pricing_plan_id":"cebpf4jnsgd1na2vs0mg"},{"bike_id":"f142dc05-f5d3-4cbc-afe5-c54cd3d760d6","system_id":"levelo_inurba_marseille","lat":43.28092,"lon":5.39668,"is_reserved":false,"is_disabled":false,"rental_uris":{"android":"levelo://app?vid=f142dc05-f5d3-4cbc-afe5-c54cd3d760d6","ios":"levelo://app?vid=f142dc05-f5d3-4cbc-afe5-c54cd3d760d6"},"vehicle_type_id":"4","last_reported":1742303972,"current_range_meters":13600,"station_id":"ce4bho12rcd13ifvqh2g","pricing_plan_id":"cebpf4jnsgd1na2vs0mg"},{"bike_id":"12e6b414-43d2-4df4-8334-243f4fe9e0c9","system_id":"levelo_inurba_marseille","lat":43.27981,"lon":5.38731,"is_reserved":false,"is_disabled":false,"rental_uris":{"android":"levelo://app?vid=12e6b414-43d2-4df4-8334-243f4fe9e0c9","ios":"levelo://app?vid=12e6b414-43d2-4df4-8334-243f4fe9e0c9"},"vehicle_type_id":"4","last_reported":1742303972,"current_range_meters":13600,"station_id":"ce4bhg12rcd13ifvqf80","pricing_plan_id":"cebpf4jnsgd1na2vs0mg"},{"bike_id":"a2e55a99-87c6-4fc7-a9da-cd2189293e68","system_id":"levelo_inurba_marseille","lat":43.30219,"lon":5.39454,"is_reserved":false,"is_disabled":false,"rental_uris":{"android":"levelo://app?vid=a2e55a99-87c6-4fc7-a9da-cd2189293e68","ios":"levelo://app?vid=a2e55a99-87c6-4fc7-a9da-cd2189293e68"},"vehicle_type_id":"4","last_reported":1742303972,"current_range_meters":14000,"station_id":"ce4bh0p2rcd13ifvqd70","pricing_plan_id":"cebpf4jnsgd1na2vs0mg"},{"bike_id":"9566c453-14a2-40c4-be45-2b3c7ee3ac54","system_id":"levelo_inurba_marseille","lat":43.30335,"lon":5.4043,"is_reserved":false,"is_disabled":false,"rental_uris":{"android":"levelo://app?vid=9566c453-14a2-40c4-be45-2b3c7ee3ac54","ios":"levelo://app?vid=9566c453-14a2-40c4-be45-2b3c7ee3ac54"},"vehicle_type_id":"4","last_reported":1742303972,"current_range_meters":14000,"station_id":"ce4bh012rcd13ifvqd10","pricing_plan_id":"cebpf4jnsgd1na2vs0mg"},{"bike_id":"8a0b7b2a-e220-408f-9a10-2992c028ed3c","system_id":"levelo_inurba_marseille","lat":43.27988,"lon":5.38749,"is_reserved":false,"is_disabled":false,"rental_uris":{"android":"levelo://app?vid=8a0b7b2a-e220-408f-9a10-2992c028ed3c","ios":"levelo://app?vid=8a0b7b2a-e220-408f-9a10-2992c028ed3c"},"vehicle_type_id":"4","last_reported":1742303972,"current_range_meters":14000,"station_id":"ce4bhg12rcd13ifvqf80","pricing_plan_id":"cebpf4jnsgd1na2vs0mg"},{"bike_id":"1b816da1-b5df-49f9-9180-41dff3e2b872","system_id":"levelo_inurba_marseille","lat":43.24183,"lon":5.39728,"is_reserved":false,"is_disabled":false,"rental_uris":{"android":"levelo://app?vid=1b816da1-b5df-49f9-9180-41dff3e2b872","ios":"levelo://app?vid=1b816da1-b5df-49f9-9180-41dff3e2b872"},"vehicle_type_id":"4","last_reported":1742303972,"current_range_meters":14000,"station_id":"ce4bhn12rcd13ifvqgpg","pricing_plan_id":"cebpf4jnsgd1na2vs0mg"},{"bike_id":"623b1d48-fe8c-4a6a-b45e-f5a8ef1ac996","system_id":"levelo_inurba_marseille","lat":43.30547,"lon":5.3652,"is_reserved":false,"is_disabled":false,"rental_uris":{"android":"levelo://app?vid=623b1d48-fe8c-4a6a-b45e-f5a8ef1ac996","ios":"levelo://app?vid=623b1d48-fe8c-4a6a-b45e-f5a8ef1ac996"},"vehicle_type_id":"4","last_reported":1742303972,"current_range_meters":14000,"station_id":"ce4bgs12rcd13ifvqcag","pricing_plan_id":"cebpf4jnsgd1na2vs0mg"},{"bike_id":"d8c1ae52-2a9e-4470-a363-aadad54f73dd","system_id":"levelo_inurba_marseille","lat":43.26228,"lon":5.40457,"is_reserved":false,"is_disabled":false,"rental_uris":{"android":"levelo://app?vid=d8c1ae52-2a9e-4470-a363-aadad54f73dd","ios":"levelo://app?vid=d8c1ae52-2a9e-4470-a363-aadad54f73dd"},"vehicle_type_id":"4","last_reported":1742303972,"current_range_meters":14000,"station_id":"ce4bhmh2rcd13ifvqgmg","pricing_plan_id":"cebpf4jnsgd1na2vs0mg"},{"bike_id":"33fe3b78-a5dc-438d-befd-ac5b01db2e11","system_id":"levelo_inurba_marseille","lat":43.29615,"lon":5.38107,"is_reserved":false,"is_disabled":false,"rental_uris":{"android":"levelo://app?vid=33fe3b78-a5dc-438d-befd-ac5b01db2e11","ios":"levelo://app?vid=33fe3b78-a5dc-438d-befd-ac5b01db2e11"},"vehicle_type_id":"4","last_reported":1742303972,"current_range_meters":14400,"station_id":"ce4bgl12rcd13ifvqbo0","pricing_plan_id":"cebpf4jnsgd1na2vs0mg"},{"bike_id":"ef1c1528-aa7a-46e8-a577-9de7cbd990cb","system_id":"levelo_inurba_marseille","lat":43.24184,"lon":5.36393,"is_reserved":false,"is_disabled":false,"rental_uris":{"android":"levelo://app?vid=ef1c1528-aa7a-46e8-a577-9de7cbd990cb","ios":"levelo://app?vid=ef1c1528-aa7a-46e8-a577-9de7cbd990cb"},"vehicle_type_id":"4","last_reported":1742303972,"current_range_meters":14400,"station_id":"cpo36qri1sfpv3e86is0","pricing_plan_id":"cebpf4jnsgd1na2vs0mg"},{"bike_id":"bcb116a9-ff03-4c31-a03d-8966b4135109","system_id":"levelo_inurba_marseille","lat":43.28695,"lon":5.39984,"is_reserved":false,"is_disabled":false,"rental_uris":{"android":"levelo://app?vid=bcb116a9-ff03-4c31-a03d-8966b4135109","ios":"levelo://app?vid=bcb116a9-ff03-4c31-a03d-8966b4135109"},"vehicle_type_id":"4","last_reported":1742303972,"current_range_meters":14400,"station_id":"ce4bho92rcd13ifvqh3g","pricing_plan_id":"cebpf4jnsgd1na2vs0mg"},{"bike_id":"dad080ad-6a46-4386-a71d-75e0f096fd50","system_id":"levelo_inurba_marseille","lat":43.32548,"lon":5.41429,"is_reserved":false,"is_disabled":false,"rental_uris":{"android":"levelo://app?vid=dad080ad-6a46-4386-a71d-75e0f096fd50","ios":"levelo://app?vid=dad080ad-6a46-4386-a71d-75e0f096fd50"},"vehicle_type_id":"4","last_reported":1742303972,"current_range_meters":14400,"station_id":"ce4bhq12rcd13ifvqhhg","pricing_plan_id":"cebpf4jnsgd1na2vs0mg"},{"bike_id":"ff037ac5-a7ea-45e6-93cf-7d394f2f7759","system_id":"levelo_inurba_marseille","lat":43.30534,"lon":5.36546,"is_reserved":false,"is_disabled":false,"rental_uris":{"android":"levelo://app?vid=ff037ac5-a7ea-45e6-93cf-7d394f2f7759","ios":"levelo://app?vid=ff037ac5-a7ea-45e6-93cf-7d394f2f7759"},"vehicle_type_id":"4","last_reported":1742303972,"current_range_meters":14400,"station_id":"ce4bgs12rcd13ifvqcag","pricing_plan_id":"cebpf4jnsgd1na2vs0mg"},{"bike_id":"ffdbda03-4f1a-4ad6-837b-a3ffc425b433","system_id":"levelo_inurba_marseille","lat":43.28277,"lon":5.35053,"is_reserved":false,"is_disabled":false,"rental_uris":{"android":"levelo://app?vid=ffdbda03-4f1a-4ad6-837b-a3ffc425b433","ios":"levelo://app?vid=ffdbda03-4f1a-4ad6-837b-a3ffc425b433"},"vehicle_type_id":"4","last_reported":1742303972,"current_range_meters":14400,"station_id":"ce4bhbp2rcd13ifvqerg","pricing_plan_id":"cebpf4jnsgd1na2vs0mg"},{"bike_id":"cf6265a1-47c3-4f28-82bd-a18b06e57bd4","system_id":"levelo_inurba_marseille","lat":43.23159,"lon":5.43722,"is_reserved":false,"is_disabled":false,"rental_uris":{"android":"levelo://app?vid=cf6265a1-47c3-4f28-82bd-a18b06e57bd4","ios":"levelo://app?vid=cf6265a1-47c3-4f28-82bd-a18b06e57bd4"},"vehicle_type_id":"4","last_reported":1742303972,"current_range_meters":14400,"station_id":"ce4bhmp2rcd13ifvqgog","pricing_plan_id":"cebpf4jnsgd1na2vs0mg"},{"bike_id":"793207a5-e84b-4d37-940e-398c0738fef9","system_id":"levelo_inurba_marseille","lat":43.28155,"lon":5.42645,"is_reserved":false,"is_disabled":false,"rental_uris":{"android":"levelo://app?vid=793207a5-e84b-4d37-940e-398c0738fef9","ios":"levelo://app?vid=793207a5-e84b-4d37-940e-398c0738fef9"},"vehicle_type_id":"4","last_reported":1742303972,"current_range_meters":14000,"station_id":"ce4bhnh2rcd13ifvqgug","pricing_plan_id":"cebpf4jnsgd1na2vs0mg"},{"bike_id":"8092051d-cbb4-4b59-ae42-7f78da860a83","system_id":"levelo_inurba_marseille","lat":43.2894,"lon":5.36632,"is_reserved":false,"is_disabled":false,"rental_uris":{"android":"levelo://app?vid=8092051d-cbb4-4b59-ae42-7f78da860a83","ios":"levelo://app?vid=8092051d-cbb4-4b59-ae42-7f78da860a83"},"vehicle_type_id":"4","last_reported":1742303972,"current_range_meters":14400,"station_id":"ce4bhap2rcd13ifvqek0","pricing_plan_id":"cebpf4jnsgd1na2vs0mg"},{"bike_id":"a9e37662-e2a0-4e06-a7a5-09d3f55e57ea","system_id":"levelo_inurba_marseille","lat":43.26224,"lon":5.40449,"is_reserved":false,"is_disabled":false,"rental_uris":{"android":"levelo://app?vid=a9e37662-e2a0-4e06-a7a5-09d3f55e57ea","ios":"levelo://app?vid=a9e37662-e2a0-4e06-a7a5-09d3f55e57ea"},"vehicle_type_id":"4","last_reported":1742303972,"current_range_meters":14400,"station_id":"ce4bhmh2rcd13ifvqgmg","pricing_plan_id":"cebpf4jnsgd1na2vs0mg"},{"bike_id":"ffb2514d-a5cd-4494-aa06-cf7a2de37415","system_id":"levelo_inurba_marseille","lat":43.30903,"lon":5.37208,"is_reserved":false,"is_disabled":false,"rental_uris":{"android":"levelo://app?vid=ffb2514d-a5cd-4494-aa06-cf7a2de37415","ios":"levelo://app?vid=ffb2514d-a5cd-4494-aa06-cf7a2de37415"},"vehicle_type_id":"4","last_reported":1742303972,"current_range_meters":14400,"station_id":"ce4bguh2rcd13ifvqckg","pricing_plan_id":"cebpf4jnsgd1na2vs0mg"},{"bike_id":"7341297d-d43a-4895-907f-c3efe66c169b","system_id":"levelo_inurba_marseille","lat":43.30291,"lon":5.37686,"is_reserved":false,"is_disabled":false,"rental_uris":{"android":"levelo://app?vid=7341297d-d43a-4895-907f-c3efe66c169b","ios":"levelo://app?vid=7341297d-d43a-4895-907f-c3efe66c169b"},"vehicle_type_id":"4","last_reported":1742303972,"current_range_meters":14400,"station_id":"ce4bguh2rcd13ifvqcj0","pricing_plan_id":"cebpf4jnsgd1na2vs0mg"},{"bike_id":"e60c1153-ceb4-4f72-92cd-2dc1051b5e4c","system_id":"levelo_inurba_marseille","lat":43.26066,"lon":5.39392,"is_reserved":false,"is_disabled":true,"rental_uris":{"android":"levelo://app?vid=e60c1153-ceb4-4f72-92cd-2dc1051b5e4c","ios":"levelo://app?vid=e60c1153-ceb4-4f72-92cd-2dc1051b5e4c"},"vehicle_type_id":"4","last_reported":1742303972,"current_range_meters":14800,"station_id":"ce4bhh92rcd13ifvqfj0","pricing_plan_id":"cebpf4jnsgd1na2vs0mg"},{"bike_id":"4c1caace-6b40-4538-ad1e-7c3f33fccbc3","system_id":"levelo_inurba_marseille","lat":43.29807,"lon":5.38111,"is_reserved":false,"is_disabled":false,"rental_uris":{"android":"levelo://app?vid=4c1caace-6b40-4538-ad1e-7c3f33fccbc3","ios":"levelo://app?vid=4c1caace-6b40-4538-ad1e-7c3f33fccbc3"},"vehicle_type_id":"4","last_reported":1742303972,"current_range_meters":14800,"station_id":"ce4bgip2rcd13ifvqbb0","pricing_plan_id":"cebpf4jnsgd1na2vs0mg"},{"bike_id":"0cfe4940-1cd0-45a3-9100-77af29174910","system_id":"levelo_inurba_marseille","lat":43.24666,"lon":5.38188,"is_reserved":false,"is_disabled":false,"rental_uris":{"android":"levelo://app?vid=0cfe4940-1cd0-45a3-9100-77af29174910","ios":"levelo://app?vid=0cfe4940-1cd0-45a3-9100-77af29174910"},"vehicle_type_id":"4","last_reported":1742303972,"current_range_meters":14800,"station_id":"ce4bhih2rcd13ifvqfr0","pricing_plan_id":"cebpf4jnsgd1na2vs0mg"},{"bike_id":"5f33256f-5318-415c-a68c-2cd8c46bc613","system_id":"levelo_inurba_marseille","lat":43.2904,"lon":5.39976,"is_reserved":false,"is_disabled":false,"rental_uris":{"android":"levelo://app?vid=5f33256f-5318-415c-a68c-2cd8c46bc613","ios":"levelo://app?vid=5f33256f-5318-415c-a68c-2cd8c46bc613"},"vehicle_type_id":"4","last_reported":1742303972,"current_range_meters":14800,"station_id":"ce4bh392rcd13ifvqdm0","pricing_plan_id":"cebpf4jnsgd1na2vs0mg"},{"bike_id":"43370f50-31e1-441c-a25f-74e13a64b653","system_id":"levelo_inurba_marseille","lat":43.29857,"lon":5.36317,"is_reserved":false,"is_disabled":true,"rental_uris":{"android":"levelo://app?vid=43370f50-31e1-441c-a25f-74e13a64b653","ios":"levelo://app?vid=43370f50-31e1-441c-a25f-74e13a64b653"},"vehicle_type_id":"4","last_reported":1742303972,"current_range_meters":14800,"station_id":"ce4bgpp2rcd13ifvqc3g","pricing_plan_id":"cebpf4jnsgd1na2vs0mg"},{"bike_id":"91117f0f-7fd7-4f36-b81f-51fb9818feb5","system_id":"levelo_inurba_marseille","lat":43.28477,"lon":5.3842,"is_reserved":false,"is_disabled":false,"rental_uris":{"android":"levelo://app?vid=91117f0f-7fd7-4f36-b81f-51fb9818feb5","ios":"levelo://app?vid=91117f0f-7fd7-4f36-b81f-51fb9818feb5"},"vehicle_type_id":"4","last_reported":1742303972,"current_range_meters":14800,"station_id":"ce4bh512rcd13ifvqe3g","pricing_plan_id":"cebpf4jnsgd1na2vs0mg"},{"bike_id":"c84a07e9-35aa-4b2a-8a16-7b18204f6a1f","system_id":"levelo_inurba_marseille","lat":43.29085,"lon":5.37166,"is_reserved":false,"is_disabled":false,"rental_uris":{"android":"levelo://app?vid=c84a07e9-35aa-4b2a-8a16-7b18204f6a1f","ios":"levelo://app?vid=c84a07e9-35aa-4b2a-8a16-7b18204f6a1f"},"vehicle_type_id":"4","last_reported":1742303972,"current_range_meters":14400,"station_id":"ce4bh5p2rcd13ifvqe4g","pricing_plan_id":"cebpf4jnsgd1na2vs0mg"},{"bike_id":"f5b5b897-b776-4f00-9f85-b4d42ed7205c","system_id":"levelo_inurba_marseille","lat":43.25913,"lon":5.40915,"is_reserved":false,"is_disabled":false,"rental_uris":{"android":"levelo://app?vid=f5b5b897-b776-4f00-9f85-b4d42ed7205c","ios":"levelo://app?vid=f5b5b897-b776-4f00-9f85-b4d42ed7205c"},"vehicle_type_id":"4","last_reported":1742303972,"current_range_meters":14800,"station_id":"ce4bhm92rcd13ifvqglg","pricing_plan_id":"cebpf4jnsgd1na2vs0mg"},{"bike_id":"41667f10-521f-41ba-ba06-2069e773293a","system_id":"levelo_inurba_marseille","lat":43.28006,"lon":5.40012,"is_reserved":false,"is_disabled":false,"rental_uris":{"android":"levelo://app?vid=41667f10-521f-41ba-ba06-2069e773293a","ios":"levelo://app?vid=41667f10-521f-41ba-ba06-2069e773293a"},"vehicle_type_id":"4","last_reported":1742303972,"current_range_meters":14800,"station_id":"ce4bho92rcd13ifvqh4g","pricing_plan_id":"cebpf4jnsgd1na2vs0mg"},{"bike_id":"0cbc5ed3-e95e-4a26-ae23-cedcb5425df6","system_id":"levelo_inurba_marseille","lat":43.2695,"lon":5.38646,"is_reserved":false,"is_disabled":false,"rental_uris":{"android":"levelo://app?vid=0cbc5ed3-e95e-4a26-ae23-cedcb5425df6","ios":"levelo://app?vid=0cbc5ed3-e95e-4a26-ae23-cedcb5425df6"},"vehicle_type_id":"4","last_reported":1742303972,"current_range_meters":15200,"station_id":"ce4bhh92rcd13ifvqfh0","pricing_plan_id":"cebpf4jnsgd1na2vs0mg"},{"bike_id":"3455258b-4135-46b9-9a26-10bf95160e40","system_id":"levelo_inurba_marseille","lat":43.23189,"lon":5.35573,"is_reserved":false,"is_disabled":false,"rental_uris":{"android":"levelo://app?vid=3455258b-4135-46b9-9a26-10bf95160e40","ios":"levelo://app?vid=3455258b-4135-46b9-9a26-10bf95160e40"},"vehicle_type_id":"4","last_reported":1742303972,"current_range_meters":15200,"station_id":"ce4bhu92rcd13ifvqi70","pricing_plan_id":"cebpf4jnsgd1na2vs0mg"},{"bike_id":"50c6ddc1-53aa-40ee-a1fa-baffe659ff89","system_id":"levelo_inurba_marseille","lat":43.29024,"lon":5.38635,"is_reserved":false,"is_disabled":false,"rental_uris":{"android":"levelo://app?vid=50c6ddc1-53aa-40ee-a1fa-baffe659ff89","ios":"levelo://app?vid=50c6ddc1-53aa-40ee-a1fa-baffe659ff89"},"vehicle_type_id":"4","last_reported":1742303972,"current_range_meters":15200,"station_id":"ce4bh4p2rcd13ifvqe0g","pricing_plan_id":"cebpf4jnsgd1na2vs0mg"},{"bike_id":"b73b3612-f28f-42f9-8f28-9568bcd3623a","system_id":"levelo_inurba_marseille","lat":43.30143,"lon":5.37401,"is_reserved":false,"is_disabled":false,"rental_uris":{"android":"levelo://app?vid=b73b3612-f28f-42f9-8f28-9568bcd3623a","ios":"levelo://app?vid=b73b3612-f28f-42f9-8f28-9568bcd3623a"},"vehicle_type_id":"4","last_reported":1742303972,"current_range_meters":15200,"station_id":"ce4bgs92rcd13ifvqcc0","pricing_plan_id":"cebpf4jnsgd1na2vs0mg"},{"bike_id":"2ebdd665-45bc-41e4-ba36-29ebf27d9e85","system_id":"levelo_inurba_marseille","lat":43.25918,"lon":5.40892,"is_reserved":false,"is_disabled":false,"rental_uris":{"android":"levelo://app?vid=2ebdd665-45bc-41e4-ba36-29ebf27d9e85","ios":"levelo://app?vid=2ebdd665-45bc-41e4-ba36-29ebf27d9e85"},"vehicle_type_id":"4","last_reported":1742303972,"current_range_meters":15200,"station_id":"ce4bhm92rcd13ifvqglg","pricing_plan_id":"cebpf4jnsgd1na2vs0mg"},{"bike_id":"dd4787ac-b247-4204-b3f3-a3164a30a846","system_id":"levelo_inurba_marseille","lat":43.30556,"lon":5.36547,"is_reserved":false,"is_disabled":false,"rental_uris":{"android":"levelo://app?vid=dd4787ac-b247-4204-b3f3-a3164a30a846","ios":"levelo://app?vid=dd4787ac-b247-4204-b3f3-a3164a30a846"},"vehicle_type_id":"4","last_reported":1742303972,"current_range_meters":15200,"station_id":"ce4bgs12rcd13ifvqcag","pricing_plan_id":"cebpf4jnsgd1na2vs0mg"},{"bike_id":"6193b074-5ac2-48ec-901d-c6a58dee7e36","system_id":"levelo_inurba_marseille","lat":43.3015,"lon":5.37393,"is_reserved":false,"is_disabled":false,"rental_uris":{"android":"levelo://app?vid=6193b074-5ac2-48ec-901d-c6a58dee7e36","ios":"levelo://app?vid=6193b074-5ac2-48ec-901d-c6a58dee7e36"},"vehicle_type_id":"4","last_reported":1742303972,"current_range_meters":16000,"station_id":"ce4bgs92rcd13ifvqcc0","pricing_plan_id":"cebpf4jnsgd1na2vs0mg"},