{"last_updated":1727420941,"ttl":60,"version":"2.2","data":{"bikes":[{"bike_id":"64ca71dd-5904-415d-92d5-f660e650c5a5","system_id":"levelo_inurba_marseille","lat":43.31337,"lon":5.36719,"is_reserved":false,"is_disabled":false,"rental_uris":{"android":"levelo://app?vid=64ca71dd-5904-415d-92d5-f660e650c5a5","ios":"levelo://app?vid=64ca71dd-5904-415d-92d5-f660e650c5a5"},"vehicle_type_id":"4","last_reported":1727420941,"current_range_meters":32000,"station_id":"ce4bgr92rcd13ifvqc6g","pricing_plan_id":"cebpf4jnsgd1na2vs0mg"},{"bike_id":"2a3a0ba4-6ef7-4f68-b60f-d24144a7f92a","system_id":"levelo_inurba_marseille","lat":43.2937,"lon":5.37846,"is_reserved":false,"is_disabled":false,"rental_uris":{"android":"levelo://app?vid=2a3a0ba4-6ef7-4f68-b60f-d24144a7f92a","ios":"levelo://app?vid=2a3a0ba4-6ef7-4f68-b60f-d24144a7f92a"},"vehicle_type_id":"4","last_reported":1727420941,"current_range_meters":2800,"station_id":"ce4bgjh2rcd13ifvqbf0","pricing_plan_id":"cebpf4jnsgd1na2vs0mg"},{"bike_id":"211f5ab7-43e6-4c63-98db-170f7b913bc3","system_id":"levelo_inurba_marseille","lat":43.30475,"lon":5.37918,"is_reserved":false,"is_disabled":false,"rental_uris":{"android":"levelo://app?vid=211f5ab7-43e6-4c63-98db-170f7b913bc3","ios":"levelo://app?vid=211f5ab7-43e6-4c63-98db-170f7b913bc3"},"vehicle_type_id":"4","last_reported":1727420941,"current_range_meters":19200,"station_id":"ce4bgup2rcd13ifvqcn0","pricing_plan_id":"cebpf4jnsgd1na2vs0mg"},{"bike_id":"9cc3f55e-f15a-4c6e-9aad-7382ccb1af3f","system_id":"levelo_inurba_marseille","lat":43.30151,"lon":5.3808,"is_reserved":false,"is_disabled":false,"rental_uris":{"android":"levelo://app?vid=9cc3f55e-f15a-4c6e-9aad-7382ccb1af3f","ios":"levelo://app?vid=9cc3f55e-f15a-4c6e-9aad-7382ccb1af3f"},"vehicle_type_id":"4","last_reported":1727420941,"current_range_meters":8800,"station_id":"ce4bgjp2rcd13ifvqbh0","pricing_plan_id":"cebpf4jnsgd1na2vs0mg"},{"bike_id":"80a2ea79-d147-4a5b-9067-688cf10a1e59","system_id":"levelo_inurba_marseille","lat":43.30457,"lon":5.37919,"is_reserved":false,"is_disabled":false,"rental_uris":{"android":"levelo://app?vid=80a2ea79-d147-4a5b-9067-688cf10a1e59","ios":"levelo://app?vid=80a2ea79-d147-4a5b-9067-688cf10a1e59"},"vehicle_type_id":"4","last_reported":1727420941,"current_range_meters":27200,"station_id":"ce4bgup2rcd13ifvqcn0","pricing_plan_id":"cebpf4jnsgd1na2vs0mg"},{"bike_id":"b7d4c31a-d244-4726-a6c8-7797d4822f89","system_id":"levelo_inurba_marseille","lat":43.25941,"lon":5.40901,"is_reserved":false,"is_disabled":false,"rental_uris":{"android":"levelo://app?vid=b7d4c31a-d244-4726-a6c8-7797d4822f89","ios":"levelo://app?vid=b7d4c31a-d244-4726-a6c8-7797d4822f89"},"vehicle_type_id":"4","last_reported":1727420941,"current_range_meters":34800,"station_id":"ce4bhm92rcd13ifvqglg","pricing_plan_id":"cebpf4jnsgd1na2vs0mg"},{"bike_id":"2fb200d7-7ff2-47e1-ab61-4c1a5539af3e","system_id":"levelo_inurba_marseille","lat":43.33604,"lon":5.41034,"is_reserved":false,"is_disabled":false,"rental_uris":{"android":"levelo://app?vid=2fb200d7-7ff2-47e1-ab61-4c1a5539af3e","ios":"levelo://app?vid=2fb200d7-7ff2-47e1-ab61-4c1a5539af3e"},"vehicle_type_id":"4","last_reported":1727420941,"current_range_meters":38000,"station_id":"ce4bhqh2rcd13ifvqhmg","pricing_plan_id":"cebpf4jnsgd1na2vs0mg"},{"bike_id":"319a95fd-4cb6-4140-b1df-59a1aab23798","system_id":"levelo_inurba_marseille","lat":43.23157,"lon":5.43716,"is_reserved":false,"is_disabled":false,"rental_uris":{"android":"levelo://app?vid=319a95fd-4cb6-4140-b1df-59a1aab23798","ios":"levelo://app?vid=319a95fd-4cb6-4140-b1df-59a1aab23798"},"vehicle_type_id":"4","last_reported":1727420941,"current_range_meters":14800,"station_id":"ce4bhmp2rcd13ifvqgog","pricing_plan_id":"cebpf4jnsgd1na2vs0mg"},{"bike_id":"5f5467ca-0486-444e-85fa-d152fd5f6569","system_id":"levelo_inurba_marseille","lat":43.3013,"lon":5.37423,"is_reserved":false,"is_disabled":false,"rental_uris":{"android":"levelo://app?vid=5f5467ca-0486-444e-85fa-d152fd5f6569","ios":"levelo://app?vid=5f5467ca-0486-444e-85fa-d152fd5f6569"},"vehicle_type_id":"4","last_reported":1727420941,"current_range_meters":6400,"station_id":"ce4bgs92rcd13ifvqcc0","pricing_plan_id":"cebpf4jnsgd1na2vs0mg"},{"bike_id":"9498b4e3-b6e6-4adc-8cd9-8261832b8ae6","system_id":"levelo_inurba_marseille","lat":43.274373,"lon":5.394323,"is_reserved":false,"is_disabled":false,"rental_uris":{"android":"levelo://app?vid=9498b4e3-b6e6-4adc-8cd9-8261832b8ae6","ios":"levelo://app?vid=9498b4e3-b6e6-4adc-8cd9-8261832b8ae6"},"vehicle_type_id":"4","last_reported":1727420941,"current_range_meters":39200,"station_id":"ce4bhdp2rcd13ifvqf20","pricing_plan_id":"cebpf4jnsgd1na2vs0mg"},{"bike_id":"00482625-2a1f-4d9c-b0de-68a86c151684","system_id":"levelo_inurba_marseille","lat":43.2594,"lon":5.40903,"is_reserved":false,"is_disabled":false,"rental_uris":{"android":"levelo://app?vid=00482625-2a1f-4d9c-b0de-68a86c151684","ios":"levelo://app?vid=00482625-2a1f-4d9c-b0de-68a86c151684"},"vehicle_type_id":"4","last_reported":1727420941,"current_range_meters":27600,"station_id":"ce4bhm92rcd13ifvqglg","pricing_plan_id":"cebpf4jnsgd1na2vs0mg"},{"bike_id":"8daaecce-2082-44ae-b194-7364922ab9b3","system_id":"levelo_inurba_marseille","lat":43.30417,"lon":5.38877,"is_reserved":false,"is_disabled":false,"rental_uris":{"android":"levelo://app?vid=8daaecce-2082-44ae-b194-7364922ab9b3","ios":"levelo://app?vid=8daaecce-2082-44ae-b194-7364922ab9b3"},"vehicle_type_id":"4","last_reported":1727420941,"current_range_meters":16000,"station_id":"ce4bgk12rcd13ifvqbi0","pricing_plan_id":"cebpf4jnsgd1na2vs0mg"},{"bike_id":"bb8211e6-c6e0-41ff-8327-d38f15faa4ac","system_id":"levelo_inurba_marseille","lat":43.2872,"lon":5.37948,"is_reserved":false,"is_disabled":false,"rental_uris":{"android":"levelo://app?vid=bb8211e6-c6e0-41ff-8327-d38f15faa4ac","ios":"levelo://app?vid=bb8211e6-c6e0-41ff-8327-d38f15faa4ac"},"vehicle_type_id":"4","last_reported":1727420941,"current_range_meters":34800,"station_id":"ce4bh9p2rcd13ifvqec0","pricing_plan_id":"cebpf4jnsgd1na2vs0mg"},{"bike_id":"a9669d3a-c989-4bbf-988b-b787f6909497","system_id":"levelo_inurba_marseille","lat":43.32661,"lon":5.40982,"is_reserved":false,"is_disabled":false,"rental_uris":{"android":"levelo://app?vid=a9669d3a-c989-4bbf-988b-b787f6909497","ios":"levelo://app?vid=a9669d3a-c989-4bbf-988b-b787f6909497"},"vehicle_type_id":"4","last_reported":1727420941,"current_range_meters":36400,"station_id":"ce4bhpp2rcd13ifvqhgg","pricing_plan_id":"cebpf4jnsgd1na2vs0mg"},{"bike_id":"5934b7ec-6fce-4b40-aeb2-d3d0e41e7a53","system_id":"levelo_inurba_marseille","lat":43.281525,"lon":5.426461,"is_reserved":false,"is_disabled":false,"rental_uris":{"android":"levelo://app?vid=5934b7ec-6fce-4b40-aeb2-d3d0e41e7a53","ios":"levelo://app?vid=5934b7ec-6fce-4b40-aeb2-d3d0e41e7a53"},"vehicle_type_id":"4","last_reported":1727420941,"current_range_meters":9200,"station_id":"ce4bhnh2rcd13ifvqgug","pricing_plan_id":"cebpf4jnsgd1na2vs0mg"},{"bike_id":"cfd0ab09-2b61-4ab1-a393-7cbc4edba67b","system_id":"levelo_inurba_marseille","lat":43.30952,"lon":5.39033,"is_reserved":false,"is_disabled":false,"rental_uris":{"android":"levelo://app?vid=cfd0ab09-2b61-4ab1-a393-7cbc4edba67b","ios":"levelo://app?vid=cfd0ab09-2b61-4ab1-a393-7cbc4edba67b"},"vehicle_type_id":"4","last_reported":1727420941,"current_range_meters":34800,"station_id":"ce4bgup2rcd13ifvqco0","pricing_plan_id":"cebpf4jnsgd1na2vs0mg"},{"bike_id":"d55ddc6e-7ce4-4105-bf97-9cc73c905be9","system_id":"levelo_inurba_marseille","lat":43.28359,"lon":5.38106,"is_reserved":false,"is_disabled":false,"rental_uris":{"android":"levelo://app?vid=d55ddc6e-7ce4-4105-bf97-9cc73c905be9","ios":"levelo://app?vid=d55ddc6e-7ce4-4105-bf97-9cc73c905be9"},"vehicle_type_id":"4","last_reported":1727420941,"current_range_meters":20400,"station_id":"ce4bh412rcd13ifvqdr0","pricing_plan_id":"cebpf4jnsgd1na2vs0mg"},{"bike_id":"037f446e-ac7a-49e2-bdab-84aaf6e5a6aa","system_id":"levelo_inurba_marseille","lat":43.29026,"lon":5.39981,"is_reserved":false,"is_disabled":false,"rental_uris":{"android":"levelo://app?vid=037f446e-ac7a-49e2-bdab-84aaf6e5a6aa","ios":"levelo://app?vid=037f446e-ac7a-49e2-bdab-84aaf6e5a6aa"},"vehicle_type_id":"4","last_reported":1727420941,"current_range_meters":21600,"station_id":"ce4bh392rcd13ifvqdm0","pricing_plan_id":"cebpf4jnsgd1na2vs0mg"},{"bike_id":"3649534e-7943-42a2-8af4-dd3a5f609817","system_id":"levelo_inurba_marseille","lat":43.30142,"lon":5.38071,"is_reserved":false,"is_disabled":false,"rental_uris":{"android":"levelo://app?vid=3649534e-7943-42a2-8af4-dd3a5f609817","ios":"levelo://app?vid=3649534e-7943-42a2-8af4-dd3a5f609817"},"vehicle_type_id":"4","last_reported":1727420941,"current_range_meters":36400,"station_id":"ce4bgjp2rcd13ifvqbh0","pricing_plan_id":"cebpf4jnsgd1na2vs0mg"},{"bike_id":"55f4f50b-d6dd-4e12-86b3-1486da4af7d9","system_id":"levelo_inurba_marseille","lat":43.22929,"lon":5.35377,"is_reserved":false,"is_disabled":false,"rental_uris":{"android":"levelo://app?vid=55f4f50b-d6dd-4e12-86b3-1486da4af7d9","ios":"levelo://app?vid=55f4f50b-d6dd-4e12-86b3-1486da4af7d9"},"vehicle_type_id":"4","last_reported":1727420941,"current_range_meters":36800,"station_id":"cpo3532slgdg3j2ikp40","pricing_plan_id":"cebpf4jnsgd1na2vs0mg"},{"bike_id":"79a7307b-4085-4acc-920d-cda7c99ec126","system_id":"levelo_inurba_marseille","lat":43.292786,"lon":5.401538,"is_reserved":false,"is_disabled":false,"rental_uris":{"android":"levelo://app?vid=79a7307b-4085-4acc-920d-cda7c99ec126","ios":"levelo://app?vid=79a7307b-4085-4acc-920d-cda7c99ec126"},"vehicle_type_id":"4","last_reported":1727420941,"current_range_meters":38800,"station_id":"ce4bh312rcd13ifvqdk0","pricing_plan_id":"cebpf4jnsgd1na2vs0mg"},{"bike_id":"05d742b4-d6be-44a9-beca-ea36008943f7","system_id":"levelo_inurba_marseille","lat":43.24667,"lon":5.38158,"is_reserved":false,"is_disabled":false,"rental_uris":{"android":"levelo://app?vid=05d742b4-d6be-44a9-beca-ea36008943f7","ios":"levelo://app?vid=05d742b4-d6be-44a9-beca-ea36008943f7"},"vehicle_type_id":"4","last_reported":1727420941,"current_range_meters":36400,"station_id":"ce4bhih2rcd13ifvqfr0","pricing_plan_id":"cebpf4jnsgd1na2vs0mg"},{"bike_id":"739c5bf2-a173-457b-bd21-af6a52410969","system_id":"levelo_inurba_marseille","lat":43.30927,"lon":5.40147,"is_reserved":false,"is_disabled":false,"rental_uris":{"android":"levelo://app?vid=739c5bf2-a173-457b-bd21-af6a52410969","ios":"levelo://app?vid=739c5bf2-a173-457b-bd21-af6a52410969"},"vehicle_type_id":"4","last_reported":1727420941,"current_range_meters":20800,"station_id":"ce4bgvp2rcd13ifvqct0","pricing_plan_id":"cebpf4jnsgd1na2vs0mg"},{"bike_id":"7fd1ae23-0a1e-4323-b2cd-ab0e13b66ab0","system_id":"levelo_inurba_marseille","lat":43.29773,"lon":5.37099,"is_reserved":false,"is_disabled":false,"rental_uris":{"android":"levelo://app?vid=7fd1ae23-0a1e-4323-b2cd-ab0e13b66ab0","ios":"levelo://app?vid=7fd1ae23-0a1e-4323-b2cd-ab0e13b66ab0"},"vehicle_type_id":"4","last_reported":1727420941,"current_range_meters":22000,"station_id":"ce4bgop2rcd13ifvqc1g","pricing_plan_id":"cebpf4jnsgd1na2vs0mg"},{"bike_id":"b88f5ac0-5411-4259-b644-b3d191982e18","system_id":"levelo_inurba_marseille","lat":43.23181,"lon":5.39988,"is_reserved":false,"is_disabled":false,"rental_uris":{"android":"levelo://app?vid=b88f5ac0-5411-4259-b644-b3d191982e18","ios":"levelo://app?vid=b88f5ac0-5411-4259-b644-b3d191982e18"},"vehicle_type_id":"4","last_reported":1727420941,"current_range_meters":35200,"station_id":"ce4bhn12rcd13ifvqgqg","pricing_plan_id":"cebpf4jnsgd1na2vs0mg"},{"bike_id":"0010e4eb-602a-4393-ac49-c9050dfd987d","system_id":"levelo_inurba_marseille","lat":43.30602,"lon":5.3934,"is_reserved":false,"is_disabled":false,"rental_uris":{"android":"levelo://app?vid=0010e4eb-602a-4393-ac49-c9050dfd987d","ios":"levelo://app?vid=0010e4eb-602a-4393-ac49-c9050dfd987d"},"vehicle_type_id":"4","last_reported":1727420941,"current_range_meters":25600,"station_id":"ce4bgn92rcd13ifvqbvg","pricing_plan_id":"cebpf4jnsgd1na2vs0mg"},{"bike_id":"1cd054ce-a4b1-44d8-afb0-3c23668c603a","system_id":"levelo_inurba_marseille","lat":43.30147,"lon":5.38093,"is_reserved":false,"is_disabled":false,"rental_uris":{"android":"levelo://app?vid=1cd054ce-a4b1-44d8-afb0-3c23668c603a","ios":"levelo://app?vid=1cd054ce-a4b1-44d8-afb0-3c23668c603a"},"vehicle_type_id":"4","last_reported":1727420941,"current_range_meters":20000,"station_id":"ce4bgjp2rcd13ifvqbh0","pricing_plan_id":"cebpf4jnsgd1na2vs0mg"},{"bike_id":"cd4c3ea5-3df9-4ccb-a55d-0c3b17cecce3","system_id":"levelo_inurba_marseille","lat":43.2574,"lon":5.39137,"is_reserved":false,"is_disabled":false,"rental_uris":{"android":"levelo://app?vid=cd4c3ea5-3df9-4ccb-a55d-0c3b17cecce3","ios":"levelo://app?vid=cd4c3ea5-3df9-4ccb-a55d-0c3b17cecce3"},"vehicle_type_id":"4","last_reported":1727420941,"current_range_meters":32400,"station_id":"","pricing_plan_id":"cebpf4jnsgd1na2vs0mg"},{"bike_id":"18551754-cfb7-4efa-9487-a4a9d01af5a7","system_id":"levelo_inurba_marseille","lat":43.26032,"lon":5.37544,"is_reserved":false,"is_disabled":false,"rental_uris":{"android":"levelo://app?vid=18551754-cfb7-4efa-9487-a4a9d01af5a7","ios":"levelo://app?vid=18551754-cfb7-4efa-9487-a4a9d01af5a7"},"vehicle_type_id":"4","last_reported":1727420941,"current_range_meters":37600,"station_id":"ce4bhgh2rcd13ifvqfa0","pricing_plan_id":"cebpf4jnsgd1na2vs0mg"},{"bike_id":"97a119a1-3338-4df7-8b8c-6726d849545c","system_id":"levelo_inurba_marseille","lat":43.33606,"lon":5.4103,"is_reserved":false,"is_disabled":false,"rental_uris":{"android":"levelo://app?vid=97a119a1-3338-4df7-8b8c-6726d849545c","ios":"levelo://app?vid=97a119a1-3338-4df7-8b8c-6726d849545c"},"vehicle_type_id":"4","last_reported":1727420941,"current_range_meters":12800,"station_id":"ce4bhqh2rcd13ifvqhmg","pricing_plan_id":"cebpf4jnsgd1na2vs0mg"},{"bike_id":"f96b077b-f12c-4154-8fe2-f67791b0c973","system_id":"levelo_inurba_marseille","lat":43.29772,"lon":5.37089,"is_reserved":false,"is_disabled":false,"rental_uris":{"android":"levelo://app?vid=f96b077b-f12c-4154-8fe2-f67791b0c973","ios":"levelo://app?vid=f96b077b-f12c-4154-8fe2-f67791b0c973"},"vehicle_type_id":"4","last_reported":1727420941,"current_range_meters":8400,"station_id":"ce4bgop2rcd13ifvqc1g","pricing_plan_id":"cebpf4jnsgd1na2vs0mg"},{"bike_id":"e71b2228-487e-43d3-aaad-9eadfa97ebeb","system_id":"levelo_inurba_marseille","lat":43.30154,"lon":5.38081,"is_reserved":false,"is_disabled":false,"rental_uris":{"android":"levelo://app?vid=e71b2228-487e-43d3-aaad-9eadfa97ebeb","ios":"levelo://app?vid=e71b2228-487e-43d3-aaad-9eadfa97ebeb"},"vehicle_type_id":"4","last_reported":1727420941,"current_range_meters":3200,"station_id":"ce4bgjp2rcd13ifvqbh0","pricing_plan_id":"cebpf4jnsgd1na2vs0mg"},{"bike_id":"eac94fcf-7009-4925-86ac-1508f5bed8e7","system_id":"levelo_inurba_marseille","lat":43.26197,"lon":5.37925,"is_reserved":false,"is_disabled":false,"rental_uris":{"android":"levelo://app?vid=eac94fcf-7009-4925-86ac-1508f5bed8e7","ios":"levelo://app?vid=eac94fcf-7009-4925-86ac-1508f5bed8e7"},"vehicle_type_id":"4","last_reported":1727420941,"current_range_meters":32000,"station_id":"ce4bhjp2rcd13ifvqg90","pricing_plan_id":"cebpf4jnsgd1na2vs0mg"},{"bike_id":"c3d6b5b8-f8fe-43d7-918a-2b3abbd580c8","system_id":"levelo_inurba_marseille","lat":43.30469,"lon":5.37913,"is_reserved":false,"is_disabled":false,"rental_uris":{"android":"levelo://app?vid=c3d6b5b8-f8fe-43d7-918a-2b3abbd580c8","ios":"levelo://app?vid=c3d6b5b8-f8fe-43d7-918a-2b3abbd580c8"},"vehicle_type_id":"4","last_reported":1727420941,"current_range_meters":6800,"station_id":"ce4bgup2rcd13ifvqcn0","pricing_plan_id":"cebpf4jnsgd1na2vs0mg"},{"bike_id":"6393bbb4-aef5-4c70-9f04-509010897e52","system_id":"levelo_inurba_marseille","lat":43.31485,"lon":5.37299,"is_reserved":false,"is_disabled":false,"rental_uris":{"android":"levelo://app?vid=6393bbb4-aef5-4c70-9f04-509010897e52","ios":"levelo://app?vid=6393bbb4-aef5-4c70-9f04-509010897e52"},"vehicle_type_id":"4","last_reported":1727420941,"current_range_meters":39200,"station_id":"ce4bgt12rcd13ifvqcd0","pricing_plan_id":"cebpf4jnsgd1na2vs0mg"},{"bike_id":"7c86993b-611b-4fca-a3eb-d554f19d3105","system_id":"levelo_inurba_marseille","lat":43.24546,"lon":5.39519,"is_reserved":false,"is_disabled":false,"rental_uris":{"android":"levelo://app?vid=7c86993b-611b-4fca-a3eb-d554f19d3105","ios":"levelo://app?vid=7c86993b-611b-4fca-a3eb-d554f19d3105"},"vehicle_type_id":"4","last_reported":1727420941,"current_range_meters":3200,"station_id":"ce4bhlp2rcd13ifvqgjg","pricing_plan_id":"cebpf4jnsgd1na2vs0mg"},{"bike_id":"4a4903c7-ffbe-40b4-8008-c3ffec982396","system_id":"levelo_inurba_marseille","lat":43.315247,"lon":5.380407,"is_reserved":false,"is_disabled":false,"rental_uris":{"android":"levelo://app?vid=4a4903c7-ffbe-40b4-8008-c3ffec982396","ios":"levelo://app?vid=4a4903c7-ffbe-40b4-8008-c3ffec982396"},"vehicle_type_id":"4","last_reported":1727420941,"current_range_meters":18800,"station_id":"ce4bhsp2rcd13ifvqi50","pricing_plan_id":"cebpf4jnsgd1na2vs0mg"},{"bike_id":"13d1fa7f-3172-46d6-b8a5-774106f12ce3","system_id":"levelo_inurba_marseille","lat":43.27493,"lon":5.4245,"is_reserved":false,"is_disabled":false,"rental_uris":{"android":"levelo://app?vid=13d1fa7f-3172-46d6-b8a5-774106f12ce3","ios":"levelo://app?vid=13d1fa7f-3172-46d6-b8a5-774106f12ce3"},"vehicle_type_id":"4","last_reported":1727420941,"current_range_meters":30000,"station_id":"ce4bhn92rcd13ifvqgrg","pricing_plan_id":"cebpf4jnsgd1na2vs0mg"},{"bike_id":"9145a769-947f-4ef7-b971-08c191f83f09","system_id":"levelo_inurba_marseille","lat":43.32536,"lon":5.41443,"is_reserved":false,"is_disabled":false,"rental_uris":{"android":"levelo://app?vid=9145a769-947f-4ef7-b971-08c191f83f09","ios":"levelo://app?vid=9145a769-947f-4ef7-b971-08c191f83f09"},"vehicle_type_id":"4","last_reported":1727420941,"current_range_meters":38400,"station_id":"ce4bhq12rcd13ifvqhhg","pricing_plan_id":"cebpf4jnsgd1na2vs0mg"},{"bike_id":"b6daf4df-7c90-4c5e-b397-06a87d15013f","system_id":"levelo_inurba_marseille","lat":43.33752,"lon":5.37361,"is_reserved":false,"is_disabled":false,"rental_uris":{"android":"levelo://app?vid=b6daf4df-7c90-4c5e-b397-06a87d15013f","ios":"levelo://app?vid=b6daf4df-7c90-4c5e-b397-06a87d15013f"},"vehicle_type_id":"4","last_reported":1727420941,"current_range_meters":28000,"station_id":"","pricing_plan_id":"cebpf4jnsgd1na2vs0mg"},{"bike_id":"c7907116-f085-4574-b89a-1d87589b1c6f","system_id":"levelo_inurba_marseille","lat":43.26955,"lon":5.38633,"is_reserved":false,"is_disabled":false,"rental_uris":{"android":"levelo://app?vid=c7907116-f085-4574-b89a-1d87589b1c6f","ios":"levelo://app?vid=c7907116-f085-4574-b89a-1d87589b1c6f"},"vehicle_type_id":"4","last_reported":1727420941,"current_range_meters":38800,"station_id":"ce4bhh92rcd13ifvqfh0","pricing_plan_id":"cebpf4jnsgd1na2vs0mg"},{"bike_id":"c6a8f01e-009f-4613-948c-2dd4d8bd2d71","system_id":"levelo_inurba_marseille","lat":43.30142,"lon":5.38086,"is_reserved":false,"is_disabled":false,"rental_uris":{"android":"levelo://app?vid=c6a8f01e-009f-4613-948c-2dd4d8bd2d71","ios":"levelo://app?vid=c6a8f01e-009f-4613-948c-2dd4d8bd2d71"},"vehicle_type_id":"4","last_reported":1727420941,"current_range_meters":37600,"station_id":"ce4bgjp2rcd13ifvqbh0","pricing_plan_id":"cebpf4jnsgd1na2vs0mg"},{"bike_id":"01958bcc-1114-44e7-a1de-ed0825d11990","system_id":"levelo_inurba_marseille","lat":43.33601,"lon":5.41025,"is_reserved":false,"is_disabled":false,"rental_uris":{"android":"levelo://app?vid=01958bcc-1114-44e7-a1de-ed0825d11990","ios":"levelo://app?vid=01958bcc-1114-44e7-a1de-ed0825d11990"},"vehicle_type_id":"4","last_reported":1727420941,"current_range_meters":39200,"station_id":"ce4bhqh2rcd13ifvqhmg","pricing_plan_id":"cebpf4jnsgd1na2vs0mg"},{"bike_id":"9f25d9d7-84b3-465e-a9bc-0ca14c1b9917","system_id":"levelo_inurba_marseille","lat":43.26047,"lon":5.38711,"is_reserved":false,"is_disabled":false,"rental_uris":{"android":"levelo://app?vid=9f25d9d7-84b3-465e-a9bc-0ca14c1b9917","ios":"levelo://app?vid=9f25d9d7-84b3-465e-a9bc-0ca14c1b9917"},"vehicle_type_id":"4","last_reported":1727420941,"current_range_meters":23200,"station_id":"","pricing_plan_id":"cebpf4jnsgd1na2vs0mg"},{"bike_id":"5f6b143b-648b-4da2-ba26-a03ddafe1f72","system_id":"levelo_inurba_marseille","lat":43.31342,"lon":5.36713,"is_reserved":false,"is_disabled":false,"rental_uris":{"android":"levelo://app?vid=5f6b143b-648b-4da2-ba26-a03ddafe1f72","ios":"levelo://app?vid=5f6b143b-648b-4da2-ba26-a03ddafe1f72"},"vehicle_type_id":"4","last_reported":1727420941,"current_range_meters":28000,"station_id":"ce4bgr92rcd13ifvqc6g","pricing_plan_id":"cebpf4jnsgd1na2vs0mg"},{"bike_id":"57bc1e84-e83e-4198-85b5-3e7f9c3f0b0b","system_id":"levelo_inurba_marseille","lat":43.24166,"lon":5.36394,"is_reserved":false,"is_disabled":false,"rental_uris":{"android":"levelo://app?vid=57bc1e84-e83e-4198-85b5-3e7f9c3f0b0b","ios":"levelo://app?vid=57bc1e84-e83e-4198-85b5-3e7f9c3f0b0b"},"vehicle_type_id":"4","last_reported":1727420941,"current_range_meters":24400,"station_id":"cpo36qri1sfpv3e86is0","pricing_plan_id":"cebpf4jnsgd1na2vs0mg"},{"bike_id":"7a8458d5-44ac-4f2e-abef-3f01eb31f7ca","system_id":"levelo_inurba_marseille","lat":43.337444,"lon":5.374475,"is_reserved":false,"is_disabled":false,"rental_uris":{"android":"levelo://app?vid=7a8458d5-44ac-4f2e-abef-3f01eb31f7ca","ios":"levelo://app?vid=7a8458d5-44ac-4f2e-abef-3f01eb31f7ca"},"vehicle_type_id":"4","last_reported":1727420941,"current_range_meters":17600,"station_id":"","pricing_plan_id":"cebpf4jnsgd1na2vs0mg"},{"bike_id":"245322ad-98ce-4a03-920e-f8861ea4255a","system_id":"levelo_inurba_marseille","lat":43.23061,"lon":5.35495,"is_reserved":false,"is_disabled":false,"rental_uris":{"android":"levelo://app?vid=245322ad-98ce-4a03-920e-f8861ea4255a","ios":"levelo://app?vid=245322ad-98ce-4a03-920e-f8861ea4255a"},"vehicle_type_id":"4","last_reported":1727420941,"current_range_meters":37600,"station_id":"cpo3342slgdg3j2ifvpg","pricing_plan_id":"cebpf4jnsgd1na2vs0mg"},{"bike_id":"0340f9a8-f480-45bb-9012-97361746a5b3","system_id":"levelo_inurba_marseille","lat":43.313739,"lon":5.384953,"is_reserved":false,"is_disabled":false,"rental_uris":{"android":"levelo://app?vid=0340f9a8-f480-45bb-9012-97361746a5b3","ios":"levelo://app?vid=0340f9a8-f480-45bb-9012-97361746a5b3"},"vehicle_type_id":"4","last_reported":1727420941,"current_range_meters":34000,"station_id":"ce4bgt92rcd13ifvqcf0","pricing_plan_id":"cebpf4jnsgd1na2vs0mg"},{"bike_id":"59bb7336-e84a-4f03-8b91-d9ff683dde39","system_id":"levelo_inurba_marseille","lat":43.3015,"lon":5.38075,"is_reserved":false,"is_disabled":false,"rental_uris":{"android":"levelo://app?vid=59bb7336-e84a-4f03-8b91-d9ff683dde39","ios":"levelo://app?vid=59bb7336-e84a-4f03-8b91-d9ff683dde39"},"vehicle_type_id":"4","last_reported":1727420941,"current_range_meters":30800,"station_id":"ce4bgjp2rcd13ifvqbh0","pricing_plan_id":"cebpf4jnsgd1na2vs0mg"},{"bike_id":"c8538eb6-2902-42ff-904b-ec3bc339e508","system_id":"levelo_inurba_marseille","lat":43.30952,"lon":5.39031,"is_reserved":false,"is_disabled":false,"rental_uris":{"android":"levelo://app?vid=c8538eb6-2902-42ff-904b-ec3bc339e508","ios":"levelo://app?vid=c8538eb6-2902-42ff-904b-ec3bc339e508"},"vehicle_type_id":"4","last_reported":1727420941,"current_range_meters":37600,"station_id":"ce4bgup2rcd13ifvqco0","pricing_plan_id":"cebpf4jnsgd1na2vs0mg"},{"bike_id":"b7b92fbd-cffd-4a1f-9948-3e7f9639c013","system_id":"levelo_inurba_marseille","lat":43.30301,"lon":5.36901,"is_reserved":false,"is_disabled":false,"rental_uris":{"android":"levelo://app?vid=b7b92fbd-cffd-4a1f-9948-3e7f9639c013","ios":"levelo://app?vid=b7b92fbd-cffd-4a1f-9948-3e7f9639c013"},"vehicle_type_id":"4","last_reported":1727420941,"current_range_meters":28800,"station_id":"ce4bgqh2rcd13ifvqc5g","pricing_plan_id":"cebpf4jnsgd1na2vs0mg"},{"bike_id":"43175ead-4f3f-4104-a00f-638632173910","system_id":"levelo_inurba_marseille","lat":43.31491,"lon":5.3731,"is_reserved":false,"is_disabled":false,"rental_uris":{"android":"levelo://app?vid=43175ead-4f3f-4104-a00f-638632173910","ios":"levelo://app?vid=43175ead-4f3f-4104-a00f-638632173910"},"vehicle_type_id":"4","last_reported":1727420941,"current_range_meters":28000,"station_id":"ce4bgt12rcd13ifvqcd0","pricing_plan_id":"cebpf4jnsgd1na2vs0mg"},{"bike_id":"0a4f9adf-3015-4d90-98fb-6812acaa9106","system_id":"levelo_inurba_marseille","lat":43.24073,"lon":5.37765,"is_reserved":false,"is_disabled":false,"rental_uris":{"android":"levelo://app?vid=0a4f9adf-3015-4d90-98fb-6812acaa9106","ios":"levelo://app?vid=0a4f9adf-3015-4d90-98fb-6812acaa9106"},"vehicle_type_id":"4","last_reported":1727420941,"current_range_meters":23200,"station_id":"ce4bhnp2rcd13ifvqgvg","pricing_plan_id":"cebpf4jnsgd1na2vs0mg"},{"bike_id":"c1352122-1815-4887-a727-30dc7964e958","system_id":"levelo_inurba_marseille","lat":43.26684,"lon":5.3827,"is_reserved":false,"is_disabled":false,"rental_uris":{"android":"levelo://app?vid=c1352122-1815-4887-a727-30dc7964e958","ios":"levelo://app?vid=c1352122-1815-4887-a727-30dc7964e958"},"vehicle_type_id":"4","last_reported":1727420941,"current_range_meters":28000,"station_id":"ce4bhg92rcd13ifvqf90","pricing_plan_id":"cebpf4jnsgd1na2vs0mg"},{"bike_id":"f2bc0ed8-26c3-478a-b8ec-55292632b42b","system_id":"levelo_inurba_marseille","lat":43.33774,"lon":5.37424,"is_reserved":false,"is_disabled":false,"rental_uris":{"android":"levelo://app?vid=f2bc0ed8-26c3-478a-b8ec-55292632b42b","ios":"levelo://app?vid=f2bc0ed8-26c3-478a-b8ec-55292632b42b"},"vehicle_type_id":"4","last_reported":1727420941,"current_range_meters":34000,"station_id":"","pricing_plan_id":"cebpf4jnsgd1na2vs0mg"},{"bike_id":"09a2f264-31ac-4fcc-a70d-94073a1fa563","system_id":"levelo_inurba_marseille","lat":43.3027,"lon":5.37695,"is_reserved":false,"is_disabled":false,"rental_uris":{"android":"levelo://app?vid=09a2f264-31ac-4fcc-a70d-94073a1fa563","ios":"levelo://app?vid=09a2f264-31ac-4fcc-a70d-94073a1fa563"},"vehicle_type_id":"4","last_reported":1727420941,"current_range_meters":33200,"station_id":"ce4bguh2rcd13ifvqcj0","pricing_plan_id":"cebpf4jnsgd1na2vs0mg"},{"bike_id":"82b21071-e460-4d63-ba05-208aa886756d","system_id":"levelo_inurba_marseille","lat":43.30544,"lon":5.36555,"is_reserved":false,"is_disabled":false,"rental_uris":{"android":"levelo://app?vid=82b21071-e460-4d63-ba05-208aa886756d","ios":"levelo://app?vid=82b21071-e460-4d63-ba05-208aa886756d"},"vehicle_type_id":"4","last_reported":1727420941,"current_range_meters":28400,"station_id":"ce4bgs12rcd13ifvqcag","pricing_plan_id":"cebpf4jnsgd1na2vs0mg"},{"bike_id":"1a4cedbe-7250-4281-b554-36d31b68031a","system_id":"levelo_inurba_marseille","lat":43.31328,"lon":5.36706,"is_reserved":false,"is_disabled":false,"rental_uris":{"android":"levelo://app?vid=1a4cedbe-7250-4281-b554-36d31b68031a","ios":"levelo://app?vid=1a4cedbe-7250-4281-b554-36d31b68031a"},"vehicle_type_id":"4","last_reported":1727420941,"current_range_meters":20400,"station_id":"ce4bgr92rcd13ifvqc6g","pricing_plan_id":"cebpf4jnsgd1na2vs0mg"},{"bike_id":"d69c4e96-06b8-47c0-b384-736b98acbf55","system_id":"levelo_inurba_marseille","lat":43.262,"lon":5.37926,"is_reserved":false,"is_disabled":false,"rental_uris":{"android":"levelo://app?vid=d69c4e96-06b8-47c0-b384-736b98acbf55","ios":"levelo://app?vid=d69c4e96-06b8-47c0-b384-736b98acbf55"},"vehicle_type_id":"4","last_reported":1727420941,"current_range_meters":16400,"station_id":"ce4bhjp2rcd13ifvqg90","pricing_plan_id":"cebpf4jnsgd1na2vs0mg"},{"bike_id":"7d022498-65f9-4fd1-90ba-7b83d725622d","system_id":"levelo_inurba_marseille","lat":43.27491,"lon":5.42452,"is_reserved":false,"is_disabled":false,"rental_uris":{"android":"levelo://app?vid=7d022498-65f9-4fd1-90ba-7b83d725622d","ios":"levelo://app?vid=7d022498-65f9-4fd1-90ba-7b83d725622d"},"vehicle_type_id":"4","last_reported":1727420941,"current_range_meters":34000,"station_id":"ce4bhn92rcd13ifvqgrg","pricing_plan_id":"cebpf4jnsgd1na2vs0mg"},{"bike_id":"55c46dca-e7be-41e8-a69d-9f094ff0f9f1","system_id":"levelo_inurba_marseille","lat":43.26689,"lon":5.38272,"is_reserved":false,"is_disabled":false,"rental_uris":{"android":"levelo://app?vid=55c46dca-e7be-41e8-a69d-9f094ff0f9f1","ios":"levelo://app?vid=55c46dca-e7be-41e8-a69d-9f094ff0f9f1"},"vehicle_type_id":"4","last_reported":1727420941,"current_range_meters":35200,"station_id":"ce4bhg92rcd13ifvqf90","pricing_plan_id":"cebpf4jnsgd1na2vs0mg"},{"bike_id":"ef333548-5b42-4805-a9c0-dab49a7bfdc3","system_id":"levelo_inurba_marseille","lat":43.32471,"lon":5.36551,"is_reserved":false,"is_disabled":false,"rental_uris":{"android":"levelo://app?vid=ef333548-5b42-4805-a9c0-dab49a7bfdc3","ios":"levelo://app?vid=ef333548-5b42-4805-a9c0-dab49a7bfdc3"},"vehicle_type_id":"4","last_reported":1727420941,"current_range_meters":39200,"station_id":"ce4bhs12rcd13ifvqhvg","pricing_plan_id":"cebpf4jnsgd1na2vs0mg"},{"bike_id":"f0105a4a-4e5b-4f6f-a0a5-01e0d2554e22","system_id":"levelo_inurba_marseille","lat":43.30132,"lon":5.37399,"is_reserved":false,"is_disabled":false,"rental_uris":{"android":"levelo://app?vid=f0105a4a-4e5b-4f6f-a0a5-01e0d2554e22","ios":"levelo://app?vid=f0105a4a-4e5b-4f6f-a0a5-01e0d2554e22"},"vehicle_type_id":"4","last_reported":1727420941,"current_range_meters":15200,"station_id":"ce4bgs92rcd13ifvqcc0","pricing_plan_id":"cebpf4jnsgd1na2vs0mg"},{"bike_id":"0968ebbe-bb82-4446-8d24-0ab8271c7a4b","system_id":"levelo_inurba_marseille","lat":43.23148,"lon":5.43711,"is_reserved":false,"is_disabled":false,"rental_uris":{"android":"levelo://app?vid=0968ebbe-bb82-4446-8d24-0ab8271c7a4b","ios":"levelo://app?vid=0968ebbe-bb82-4446-8d24-0ab8271c7a4b"},"vehicle_type_id":"4","last_reported":1727420941,"current_range_meters":24400,"station_id":"ce4bhmp2rcd13ifvqgog","pricing_plan_id":"cebpf4jnsgd1na2vs0mg"},{"bike_id":"6b86847a-bfcc-4fb0-9923-ac3d4cf27f9f","system_id":"levelo_inurba_marseille","lat":43.28105,"lon":5.37834,"is_reserved":false,"is_disabled":false,"rental_uris":{"android":"levelo://app?vid=6b86847a-bfcc-4fb0-9923-ac3d4cf27f9f","ios":"levelo://app?vid=6b86847a-bfcc-4fb0-9923-ac3d4cf27f9f"},"vehicle_type_id":"4","last_reported":1727420941,"current_range_meters":32000,"station_id":"ce4bha12rcd13ifvqee0","pricing_plan_id":"cebpf4jnsgd1na2vs0mg"},{"bike_id":"701ef5b0-588a-437b-99c6-a00baddfc677","system_id":"levelo_inurba_marseille","lat":43.32539,"lon":5.41443,"is_reserved":false,"is_disabled":false,"rental_uris":{"android":"levelo://app?vid=701ef5b0-588a-437b-99c6-a00baddfc677","ios":"levelo://app?vid=701ef5b0-588a-437b-99c6-a00baddfc677"},"vehicle_type_id":"4","last_reported":1727420941,"current_range_meters":38800,"station_id":"ce4bhq12rcd13ifvqhhg","pricing_plan_id":"cebpf4jnsgd1na2vs0mg"},{"bike_id":"d5bbef54-0e76-4d64-bc8a-a1819238d1a7","system_id":"levelo_inurba_marseille","lat":43.23953,"lon":5.36637,"is_reserved":false,"is_disabled":false,"rental_uris":{"android":"levelo://app?vid=d5bbef54-0e76-4d64-bc8a-a1819238d1a7","ios":"levelo://app?vid=d5bbef54-0e76-4d64-bc8a-a1819238d1a7"},"vehicle_type_id":"4","last_reported":1727420941,"current_range_meters":37600,"station_id":"ce4bhi12rcd13ifvqfp0","pricing_plan_id":"cebpf4jnsgd1na2vs0mg"},{"bike_id":"aadb9b46-4125-42b2-8420-e8327b4def86","system_id":"levelo_inurba_marseille","lat":43.27484,"lon":5.42453,"is_reserved":false,"is_disabled":false,"rental_uris":{"android":"levelo://app?vid=aadb9b46-4125-42b2-8420-e8327b4def86","ios":"levelo://app?vid=aadb9b46-4125-42b2-8420-e8327b4def86"},"vehicle_type_id":"4","last_reported":1727420941,"current_range_meters":13600,"station_id":"ce4bhn92rcd13ifvqgrg","pricing_plan_id":"cebpf4jnsgd1na2vs0mg"},{"bike_id":"a713fe86-464d-418e-80a3-dc4c31660520","system_id":"levelo_inurba_marseille","lat":43.30151,"lon":5.38077,"is_reserved":false,"is_disabled":false,"rental_uris":{"android":"levelo://app?vid=a713fe86-464d-418e-80a3-dc4c31660520","ios":"levelo://app?vid=a713fe86-464d-418e-80a3-dc4c31660520"},"vehicle_type_id":"4","last_reported":1727420941,"current_range_meters":32400,"station_id":"ce4bgjp2rcd13ifvqbh0","pricing_plan_id":"cebpf4jnsgd1na2vs0mg"},{"bike_id":"591039d5-67c5-43df-ae6f-f1c141c3a597","system_id":"levelo_inurba_marseille","lat":43.25938,"lon":5.40898,"is_reserved":false,"is_disabled":false,"rental_uris":{"android":"levelo://app?vid=591039d5-67c5-43df-ae6f-f1c141c3a597","ios":"levelo://app?vid=591039d5-67c5-43df-ae6f-f1c141c3a597"},"vehicle_type_id":"4","last_reported":1727420941,"current_range_meters":23200,"station_id":"ce4bhm92rcd13ifvqglg","pricing_plan_id":"cebpf4jnsgd1na2vs0mg"},{"bike_id":"46c7f826-6870-4085-9903-dd105da81d2b","system_id":"levelo_inurba_marseille","lat":43.24541,"lon":5.39518,"is_reserved":false,"is_disabled":false,"rental_uris":{"android":"levelo://app?vid=46c7f826-6870-4085-9903-dd105da81d2b","ios":"levelo://app?vid=46c7f826-6870-4085-9903-dd105da81d2b"},"vehicle_type_id":"4","last_reported":1727420941,"current_range_meters":7200,"station_id":"ce4bhlp2rcd13ifvqgjg","pricing_plan_id":"cebpf4jnsgd1na2vs0mg"},{"bike_id":"badb8437-34fb-4a4d-a38b-2221b3be1768","system_id":"levelo_inurba_marseille","lat":43.31325,"lon":5.39714,"is_reserved":false,"is_disabled":false,"rental_uris":{"android":"levelo://app?vid=badb8437-34fb-4a4d-a38b-2221b3be1768","ios":"levelo://app?vid=badb8437-34fb-4a4d-a38b-2221b3be1768"},"vehicle_type_id":"4","last_reported":1727420941,"current_range_meters":19200,"station_id":"ce4bgvp2rcd13ifvqcu0","pricing_plan_id":"cebpf4jnsgd1na2vs0mg"},{"bike_id":"bba7de10-169e-4f05-8c77-3ae54a142318","system_id":"levelo_inurba_marseille","lat":43.30145,"lon":5.38097,"is_reserved":false,"is_disabled":false,"rental_uris":{"android":"levelo://app?vid=bba7de10-169e-4f05-8c77-3ae54a142318","ios":"levelo://app?vid=bba7de10-169e-4f05-8c77-3ae54a142318"},"vehicle_type_id":"4","last_reported":1727420941,"current_range_meters":30400,"station_id":"ce4bgjp2rcd13ifvqbh0","pricing_plan_id":"cebpf4jnsgd1na2vs0mg"},{"bike_id":"fcae820f-ad7b-46d5-8a08-fc4e44c653aa","system_id":"levelo_inurba_marseille","lat":43.30458,"lon":5.37906,"is_reserved":false,"is_disabled":false,"rental_uris":{"android":"levelo://app?vid=fcae820f-ad7b-46d5-8a08-fc4e44c653aa","ios":"levelo://app?vid=fcae820f-ad7b-46d5-8a08-fc4e44c653aa"},"vehicle_type_id":"4","last_reported":1727420941,"current_range_meters":34000,"station_id":"ce4bgup2rcd13ifvqcn0","pricing_plan_id":"cebpf4jnsgd1na2vs0mg"},{"bike_id":"887a89df-ad82-4e63-836b-438539d6155f","system_id":"levelo_inurba_marseille","lat":43.30142,"lon":5.37423,"is_reserved":false,"is_disabled":false,"rental_uris":{"android":"levelo://app?vid=887a89df-ad82-4e63-836b-438539d6155f","ios":"levelo://app?vid=887a89df-ad82-4e63-836b-438539d6155f"},"vehicle_type_id":"4","last_reported":1727420941,"current_range_meters":30400,"station_id":"ce4bgs92rcd13ifvqcc0","pricing_plan_id":"cebpf4jnsgd1na2vs0mg"},{"bike_id":"61176cf3-9a8f-4cd2-9048-ae1d9683f6f8","system_id":"levelo_inurba_marseille","lat":43.2407,"lon":5.37754,"is_reserved":false,"is_disabled":false,"rental_uris":{"android":"levelo://app?vid=61176cf3-9a8f-4cd2-9048-ae1d9683f6f8","ios":"levelo://app?vid=61176cf3-9a8f-4cd2-9048-ae1d9683f6f8"},"vehicle_type_id":"4","last_reported":1727420941,"current_range_meters":34800,"station_id":"ce4bhnp2rcd13ifvqgvg","pricing_plan_id":"cebpf4jnsgd1na2vs0mg"},{"bike_id":"467cead5-f316-42e3-a8c1-400a19d7507e","system_id":"levelo_inurba_marseille","lat":43.32539,"lon":5.41436,"is_reserved":false,"is_disabled":false,"rental_uris":{"android":"levelo://app?vid=467cead5-f316-42e3-a8c1-400a19d7507e","ios":"levelo://app?vid=467cead5-f316-42e3-a8c1-400a19d7507e"},"vehicle_type_id":"4","last_reported":1727420941,"current_range_meters":22800,"station_id":"ce4bhq12rcd13ifvqhhg","pricing_plan_id":"cebpf4jnsgd1na2vs0mg"},{"bike_id":"58472985-4328-471c-8704-ba0dc84c92ca","system_id":"levelo_inurba_marseille","lat":43.29058,"lon":5.37582,"is_reserved":false,"is_disabled":false,"rental_uris":{"android":"levelo://app?vid=58472985-4328-471c-8704-ba0dc84c92ca","ios":"levelo://app?vid=58472985-4328-471c-8704-ba0dc84c92ca"},"vehicle_type_id":"4","last_reported":1727420941,"current_range_meters":20400,"station_id":"ce4bh692rcd13ifvqe90","pricing_plan_id":"cebpf4jnsgd1na2vs0mg"},{"bike_id":"102483dd-b4e9-43b9-85c9-f8208b777957","system_id":"levelo_inurba_marseille","lat":43.32474,"lon":5.36565,"is_reserved":false,"is_disabled":false,"rental_uris":{"android":"levelo://app?vid=102483dd-b4e9-43b9-85c9-f8208b777957","ios":"levelo://app?vid=102483dd-b4e9-43b9-85c9-f8208b777957"},"vehicle_type_id":"4","last_reported":1727420941,"current_range_meters":27200,"station_id":"ce4bhs12rcd13ifvqhvg","pricing_plan_id":"cebpf4jnsgd1na2vs0mg"},{"bike_id":"0b83833d-442a-4b0b-a9ea-e4a4476e019c","system_id":"levelo_inurba_marseille","lat":43.23187,"lon":5.43721,"is_reserved":false,"is_disabled":false,"rental_uris":{"android":"levelo://app?vid=0b83833d-442a-4b0b-a9ea-e4a4476e019c","ios":"levelo://app?vid=0b83833d-442a-4b0b-a9ea-e4a4476e019c"},"vehicle_type_id":"4","last_reported":1727420941,"current_range_meters":36000,"station_id":"ce4bhmp2rcd13ifvqgog","pricing_plan_id":"cebpf4jnsgd1na2vs0mg"},{"bike_id":"57915f32-d649-40b7-b4d1-2dbe157d9f0c","system_id":"levelo_inurba_marseille","lat":43.30528,"lon":5.36542,"is_reserved":false,"is_disabled":false,"rental_uris":{"android":"levelo://app?vid=57915f32-d649-40b7-b4d1-2dbe157d9f0c","ios":"levelo://app?vid=57915f32-d649-40b7-b4d1-2dbe157d9f0c"},"vehicle_type_id":"4","last_reported":1727420941,"current_range_meters":39200,"station_id":"ce4bgs12rcd13ifvqcag","pricing_plan_id":"cebpf4jnsgd1na2vs0mg"},{"bike_id":"d5e906e1-2c02-4cbd-813f-e28a93f83005","system_id":"levelo_inurba_marseille","lat":43.3254,"lon":5.41433,"is_reserved":false,"is_disabled":false,"rental_uris":{"android":"levelo://app?vid=d5e906e1-2c02-4cbd-813f-e28a93f83005","ios":"levelo://app?vid=d5e906e1-2c02-4cbd-813f-e28a93f83005"},"vehicle_type_id":"4","last_reported":1727420941,"current_range_meters":38800,"station_id":"ce4bhq12rcd13ifvqhhg","pricing_plan_id":"cebpf4jnsgd1na2vs0mg"},{"bike_id":"9a28858b-7a06-4410-bf21-847d87f705d9","system_id":"levelo_inurba_marseille","lat":43.24084,"lon":5.37746,"is_reserved":false,"is_disabled":false,"rental_uris":{"android":"levelo://app?vid=9a28858b-7a06-4410-bf21-847d87f705d9","ios":"levelo://app?vid=9a28858b-7a06-4410-bf21-847d87f705d9"},"vehicle_type_id":"4","last_reported":1727420941,"current_range_meters":28800,"station_id":"ce4bhnp2rcd13ifvqgvg","pricing_plan_id":"cebpf4jnsgd1na2vs0mg"},{"bike_id":"db925dc4-c970-4c1d-9ddf-87c17bd52d69","system_id":"levelo_inurba_marseille","lat":43.27485,"lon":5.42459,"is_reserved":false,"is_disabled":false,"rental_uris":{"android":"levelo://app?vid=db925dc4-c970-4c1d-9ddf-87c17bd52d69","ios":"levelo://app?vid=db925dc4-c970-4c1d-9ddf-87c17bd52d69"},"vehicle_type_id":"4","last_reported":1727420941,"current_range_meters":27200,"station_id":"ce4bhn92rcd13ifvqgrg","pricing_plan_id":"cebpf4jnsgd1na2vs0mg"},{"bike_id":"1b204e8a-2941-408c-961d-b5a0056592dc","system_id":"levelo_inurba_marseille","lat":43.23958,"lon":5.36635,"is_reserved":false,"is_disabled":false,"rental_uris":{"android":"levelo://app?vid=1b204e8a-2941-408c-961d-b5a0056592dc","ios":"levelo://app?vid=1b204e8a-2941-408c-961d-b5a0056592dc"},"vehicle_type_id":"4","last_reported":1727420941,"current_range_meters":38800,"station_id":"ce4bhi12rcd13ifvqfp0","pricing_plan_id":"cebpf4jnsgd1na2vs0mg"},{"bike_id":"5c39281c-d4de-4fe9-ac13-de702a1fded1","system_id":"levelo_inurba_marseille","lat":43.27485,"lon":5.42456,"is_reserved":false,"is_disabled":false,"rental_uris":{"android":"levelo://app?vid=5c39281c-d4de-4fe9-ac13-de702a1fded1","ios":"levelo://app?vid=5c39281c-d4de-4fe9-ac13-de702a1fded1"},"vehicle_type_id":"4","last_reported":1727420941,"current_range_meters":22800,"station_id":"ce4bhn92rcd13ifvqgrg","pricing_plan_id":"cebpf4jnsgd1na2vs0mg"},{"bike_id":"a6cbb9ab-09cc-4a47-b45d-7c998d78f96c","system_id":"levelo_inurba_marseille","lat":43.29835,"lon":5.36258,"is_reserved":false,"is_disabled":false,"rental_uris":{"android":"levelo://app?vid=a6cbb9ab-09cc-4a47-b45d-7c998d78f96c","ios":"levelo://app?vid=a6cbb9ab-09cc-4a47-b45d-7c998d78f96c"},"vehicle_type_id":"4","last_reported":1727420941,"current_range_meters":30000,"station_id":"ce4bgpp2rcd13ifvqc3g","pricing_plan_id":"cebpf4jnsgd1na2vs0mg"},{"bike_id":"e73a62a8-59ec-44d2-b495-4cef2ef6ee67","system_id":"levelo_inurba_marseille","lat":43.2962,"lon":5.37721,"is_reserved":false,"is_disabled":false,"rental_uris":{"android":"levelo://app?vid=e73a62a8-59ec-44d2-b495-4cef2ef6ee67","ios":"levelo://app?vid=e73a62a8-59ec-44d2-b495-4cef2ef6ee67"},"vehicle_type_id":"4","last_reported":1727420941,"current_range_meters":33200,"station_id":"ce4bgi92rcd13ifvqb90","pricing_plan_id":"cebpf4jnsgd1na2vs0mg"},{"bike_id":"0fdc703b-5e20-44de-ab4a-bce495ffa4f0","system_id":"levelo_inurba_marseille","lat":43.30946,"lon":5.39024,"is_reserved":false,"is_disabled":false,"rental_uris":{"android":"levelo://app?vid=0fdc703b-5e20-44de-ab4a-bce495ffa4f0","ios":"levelo://app?vid=0fdc703b-5e20-44de-ab4a-bce495ffa4f0"},"vehicle_type_id":"4","last_reported":1727420941,"current_range_meters":28400,"station_id":"ce4bgup2rcd13ifvqco0","pricing_plan_id":"cebpf4jnsgd1na2vs0mg"},{"bike_id":"eea3b883-e4af-43bf-8844-36ad80eac014","system_id":"levelo_inurba_marseille","lat":43.258545,"lon":5.39901,"is_reserved":false,"is_disabled":false,"rental_uris":{"android":"levelo://app?vid=eea3b883-e4af-43bf-8844-36ad80eac014","ios":"levelo://app?vid=eea3b883-e4af-43bf-8844-36ad80eac014"},"vehicle_type_id":"4","last_reported":1727420941,"current_range_meters":36400,"station_id":"ce4bhl92rcd13ifvqghg","pricing_plan_id":"cebpf4jnsgd1na2vs0mg"},{"bike_id":"932c7b30-012b-4098-90b0-32794be8681f","system_id":"levelo_inurba_marseille","lat":43.33605,"lon":5.41021,"is_reserved":false,"is_disabled":false,"rental_uris":{"android":"levelo://app?vid=932c7b30-012b-4098-90b0-32794be8681f","ios":"levelo://app?vid=932c7b30-012b-4098-90b0-32794be8681f"},"vehicle_type_id":"4","last_reported":1727420941,"current_range_meters":28000,"station_id":"ce4bhqh2rcd13ifvqhmg","pricing_plan_id":"cebpf4jnsgd1na2vs0mg"},{"bike_id":"d774862f-9cd6-4fef-b0ee-e4a6babe24b6","system_id":"levelo_inurba_marseille","lat":43.31889,"lon":5.40742,"is_reserved":false,"is_disabled":false,"rental_uris":{"android":"levelo://app?vid=d774862f-9cd6-4fef-b0ee-e4a6babe24b6","ios":"levelo://app?vid=d774862f-9cd6-4fef-b0ee-e4a6babe24b6"},"vehicle_type_id":"4","last_reported":1727420941,"current_range_meters":35200,"station_id":"ce4bhq12rcd13ifvqhig","pricing_plan_id":"cebpf4jnsgd1na2vs0mg"},{"bike_id":"687324a5-4fd0-4c56-8ca5-96cd2ff3a48b","system_id":"levelo_inurba_marseille","lat":43.30902,"lon":5.36843,"is_reserved":false,"is_disabled":false,"rental_uris":{"android":"levelo://app?vid=687324a5-4fd0-4c56-8ca5-96cd2ff3a48b","ios":"levelo://app?vid=687324a5-4fd0-4c56-8ca5-96cd2ff3a48b"},"vehicle_type_id":"4","last_reported":1727420941,"current_range_meters":38800,"station_id":"ce4bgn92rcd13ifvqbvg","pricing_plan_id":"cebpf4jnsgd1na2vs0mg"},{"bike_id":"d8c48252-4588-4704-86ec-4f5a0439137e","system_id":"levelo_inurba_marseille","lat":43.2955,"lon":5.42276,"is_reserved":false,"is_disabled":false,"rental_uris":{"android":"levelo://app?vid=d8c48252-4588-4704-86ec-4f5a0439137e","ios":"levelo://app?vid=d8c48252-4588-4704-86ec-4f5a0439137e"},"vehicle_type_id":"4","last_reported":1727420941,"current_range_meters":38800,"station_id":"ce4bhph2rcd13ifvqhdg","pricing_plan_id":"cebpf4jnsgd1na2vs0mg"},{"bike_id":"ed90fbe9-0cb0-42c7-9c7c-e245392fbac9","system_id":"levelo_inurba_marseille","lat":43.29037,"lon":5.39981,"is_reserved":false,"is_disabled":false,"rental_uris":{"android":"levelo://app?vid=ed90fbe9-0cb0-42c7-9c7c-e245392fbac9","ios":"levelo://app?vid=ed90fbe9-0cb0-42c7-9c7c-e245392fbac9"},"vehicle_type_id":"4","last_reported":1727420941,"current_range_meters":28400,"station_id":"ce4bh392rcd13ifvqdm0","pricing_plan_id":"cebpf4jnsgd1na2vs0mg"},{"bike_id":"9c402582-b3f4-4b90-916b-1414fc80fadd","system_id":"levelo_inurba_marseille","lat":43.23178,"lon":5.39993,"is_reserved":false,"is_disabled":false,"rental_uris":{"android":"levelo://app?vid=9c402582-b3f4-4b90-916b-1414fc80fadd","ios":"levelo://app?vid=9c402582-b3f4-4b90-916b-1414fc80fadd"},"vehicle_type_id":"4","last_reported":1727420941,"current_range_meters":34000,"station_id":"ce4bhn12rcd13ifvqgqg","pricing_plan_id":"cebpf4jnsgd1na2vs0mg"},{"bike_id":"720aa0e6-1e56-4dba-825d-68ab81240074","system_id":"levelo_inurba_marseille","lat":43.33608,"lon":5.4103,"is_reserved":false,"is_disabled":false,"rental_uris":{"android":"levelo://app?vid=720aa0e6-1e56-4dba-825d-68ab81240074","ios":"levelo://app?vid=720aa0e6-1e56-4dba-825d-68ab81240074"},"vehicle_type_id":"4","last_reported":1727420941,"current_range_meters":14800,"station_id":"ce4bhqh2rcd13ifvqhmg","pricing_plan_id":"cebpf4jnsgd1na2vs0mg"},{"bike_id":"98b5eb15-c07e-424e-9e47-b9763061a944","system_id":"levelo_inurba_marseille","lat":43.265514,"lon":5.390001,"is_reserved":false,"is_disabled":false,"rental_uris":{"android":"levelo://app?vid=98b5eb15-c07e-424e-9e47-b9763061a944","ios":"levelo://app?vid=98b5eb15-c07e-424e-9e47-b9763061a944"},"vehicle_type_id":"4","last_reported":1727420941,"current_range_meters":38800,"station_id":"ce4bhg12rcd13ifvqf60","pricing_plan_id":"cebpf4jnsgd1na2vs0mg"},{"bike_id":"4c3961a4-8a54-4949-9475-600d26661596","system_id":"levelo_inurba_marseille","lat":43.259288,"lon":5.409361,"is_reserved":false,"is_disabled":false,"rental_uris":{"android":"levelo://app?vid=4c3961a4-8a54-4949-9475-600d26661596","ios":"levelo://app?vid=4c3961a4-8a54-4949-9475-600d26661596"},"vehicle_type_id":"4","last_reported":1727420941,"current_range_meters":24800,"station_id":"ce4bhm92rcd13ifvqglg","pricing_plan_id":"cebpf4jnsgd1na2vs0mg"},{"bike_id":"96970a85-05be-4b71-a602-2eb6b8e92abb","system_id":"levelo_inurba_marseille","lat":43.28559,"lon":5.39516,"is_reserved":false,"is_disabled":false,"rental_uris":{"android":"levelo://app?vid=96970a85-05be-4b71-a602-2eb6b8e92abb","ios":"levelo://app?vid=96970a85-05be-4b71-a602-2eb6b8e92abb"},"vehicle_type_id":"4","last_reported":1727420941,"current_range_meters":38000,"station_id":"ce4bh292rcd13ifvqdg0","pricing_plan_id":"cebpf4jnsgd1na2vs0mg"},{"bike_id":"17f08afc-009a-4a6e-a3d7-2b9f68f4e878","system_id":"levelo_inurba_marseille","lat":43.23153,"lon":5.43708,"is_reserved":false,"is_disabled":false,"rental_uris":{"android":"levelo://app?vid=17f08afc-009a-4a6e-a3d7-2b9f68f4e878","ios":"levelo://app?vid=17f08afc-009a-4a6e-a3d7-2b9f68f4e878"},"vehicle_type_id":"4","last_reported":1727420941,"current_range_meters":36400,"station_id":"ce4bhmp2rcd13ifvqgog","pricing_plan_id":"cebpf4jnsgd1na2vs0mg"},{"bike_id":"65008af4-1387-461c-82c6-af80c4c34de9","system_id":"levelo_inurba_marseille","lat":43.2879,"lon":5.40001,"is_reserved":false,"is_disabled":false,"rental_uris":{"android":"levelo://app?vid=65008af4-1387-461c-82c6-af80c4c34de9","ios":"levelo://app?vid=65008af4-1387-461c-82c6-af80c4c34de9"},"vehicle_type_id":"4","last_reported":1727420941,"current_range_meters":37600,"station_id":"ce4bho92rcd13ifvqh3g","pricing_plan_id":"cebpf4jnsgd1na2vs0mg"},{"bike_id":"c47b4954-918a-49fc-a6c5-70915d3d5324","system_id":"levelo_inurba_marseille","lat":43.24539,"lon":5.39514,"is_reserved":false,"is_disabled":false,"rental_uris":{"android":"levelo://app?vid=c47b4954-918a-49fc-a6c5-70915d3d5324","ios":"levelo://app?vid=c47b4954-918a-49fc-a6c5-70915d3d5324"},"vehicle_type_id":"4","last_reported":1727420941,"current_range_meters":27600,"station_id":"ce4bhlp2rcd13ifvqgjg","pricing_plan_id":"cebpf4jnsgd1na2vs0mg"},{"bike_id":"ff9b44a3-7ee0-4554-b188-512e5978b648","system_id":"levelo_inurba_marseille","lat":43.2418,"lon":5.39722,"is_reserved":false,"is_disabled":false,"rental_uris":{"android":"levelo://app?vid=ff9b44a3-7ee0-4554-b188-512e5978b648","ios":"levelo://app?vid=ff9b44a3-7ee0-4554-b188-512e5978b648"},"vehicle_type_id":"4","last_reported":1727420941,"current_range_meters":19200,"station_id":"ce4bhn12rcd13ifvqgpg","pricing_plan_id":"cebpf4jnsgd1na2vs0mg"},{"bike_id":"49ae1e59-08b3-4859-a392-0191fe810cd9","system_id":"levelo_inurba_marseille","lat":43.25938,"lon":5.40904,"is_reserved":false,"is_disabled":false,"rental_uris":{"android":"levelo://app?vid=49ae1e59-08b3-4859-a392-0191fe810cd9","ios":"levelo://app?vid=49ae1e59-08b3-4859-a392-0191fe810cd9"},"vehicle_type_id":"4","last_reported":1727420941,"current_range_meters":7200,"station_id":"ce4bhm92rcd13ifvqglg","pricing_plan_id":"cebpf4jnsgd1na2vs0mg"},{"bike_id":"3dabe597-7bed-42ce-b402-93f36374a299","system_id":"levelo_inurba_marseille","lat":43.336,"lon":5.41019,"is_reserved":false,"is_disabled":false,"rental_uris":{"android":"levelo://app?vid=3dabe597-7bed-42ce-b402-93f36374a299","ios":"levelo://app?vid=3dabe597-7bed-42ce-b402-93f36374a299"},"vehicle_type_id":"4","last_reported":1727420941,"current_range_meters":26000,"station_id":"ce4bhqh2rcd13ifvqhmg","pricing_plan_id":"cebpf4jnsgd1na2vs0mg"},{"bike_id":"b4ae0804-26b1-4a71-8845-4e49df2cd494","system_id":"levelo_inurba_marseille","lat":43.30907,"lon":5.36849,"is_reserved":false,"is_disabled":false,"rental_uris":{"android":"levelo://app?vid=b4ae0804-26b1-4a71-8845-4e49df2cd494","ios":"levelo://app?vid=b4ae0804-26b1-4a71-8845-4e49df2cd494"},"vehicle_type_id":"4","last_reported":1727420941,"current_range_meters":38800,"station_id":"ce4bgn92rcd13ifvqbvg","pricing_plan_id":"cebpf4jnsgd1na2vs0mg"},{"bike_id":"d4c76aee-094b-4e67-93eb-876e3e7161ba","system_id":"levelo_inurba_marseille","lat":43.22931,"lon":5.35375,"is_reserved":false,"is_disabled":false,"rental_uris":{"android":"levelo://app?vid=d4c76aee-094b-4e67-93eb-876e3e7161ba","ios":"levelo://app?vid=d4c76aee-094b-4e67-93eb-876e3e7161ba"},"vehicle_type_id":"4","last_reported":1727420941,"current_range_meters":12400,"station_id":"cpo3532slgdg3j2ikp40","pricing_plan_id":"cebpf4jnsgd1na2vs0mg"},{"bike_id":"6869e77e-866f-4e20-b0e6-a71a08008f6c","system_id":"levelo_inurba_marseille","lat":43.32535,"lon":5.41441,"is_reserved":false,"is_disabled":false,"rental_uris":{"android":"levelo://app?vid=6869e77e-866f-4e20-b0e6-a71a08008f6c","ios":"levelo://app?vid=6869e77e-866f-4e20-b0e6-a71a08008f6c"},"vehicle_type_id":"4","last_reported":1727420941,"current_range_meters":30400,"station_id":"ce4bhq12rcd13ifvqhhg","pricing_plan_id":"cebpf4jnsgd1na2vs0mg"},{"bike_id":"9e0ffb77-ed8d-4e82-82d6-952e9f80a544","system_id":"levelo_inurba_marseille","lat":43.305365,"lon":5.366996,"is_reserved":false,"is_disabled":false,"rental_uris":{"android":"levelo://app?vid=9e0ffb77-ed8d-4e82-82d6-952e9f80a544","ios":"levelo://app?vid=9e0ffb77-ed8d-4e82-82d6-952e9f80a544"},"vehicle_type_id":"4","last_reported":1727420941,"current_range_meters":17200,"station_id":"ce4bgl92rcd13ifvqbq0","pricing_plan_id":"cebpf4jnsgd1na2vs0mg"},{"bike_id":"696f1608-d7a4-4963-87bc-8a2c80538e00","system_id":"levelo_inurba_marseille","lat":43.2982,"lon":5.37692,"is_reserved":false,"is_disabled":false,"rental_uris":{"android":"levelo://app?vid=696f1608-d7a4-4963-87bc-8a2c80538e00","ios":"levelo://app?vid=696f1608-d7a4-4963-87bc-8a2c80538e00"},"vehicle_type_id":"4","last_reported":1727420941,"current_range_meters":37600,"station_id":"ce4bgjh2rcd13ifvqbg0","pricing_plan_id":"cebpf4jnsgd1na2vs0mg"},{"bike_id":"bc9873de-6a8d-467b-b427-ddae496ac02d","system_id":"levelo_inurba_marseille","lat":43.34135,"lon":5.40908,"is_reserved":false,"is_disabled":false,"rental_uris":{"android":"levelo://app?vid=bc9873de-6a8d-467b-b427-ddae496ac02d","ios":"levelo://app?vid=bc9873de-6a8d-467b-b427-ddae496ac02d"},"vehicle_type_id":"4","last_reported":1727420941,"current_range_meters":5600,"station_id":"ce4bhqh2rcd13ifvqhlg","pricing_plan_id":"cebpf4jnsgd1na2vs0mg"},{"bike_id":"8c8816db-27d9-4d49-b9bf-515cf4a62f34","system_id":"levelo_inurba_marseille","lat":43.26947,"lon":5.38635,"is_reserved":false,"is_disabled":false,"rental_uris":{"android":"levelo://app?vid=8c8816db-27d9-4d49-b9bf-515cf4a62f34","ios":"levelo://app?vid=8c8816db-27d9-4d49-b9bf-515cf4a62f34"},"vehicle_type_id":"4","last_reported":1727420941,"current_range_meters":38000,"station_id":"ce4bhh92rcd13ifvqfh0","pricing_plan_id":"cebpf4jnsgd1na2vs0mg"},{"bike_id":"a4fa5c55-37de-4c61-bf1b-a1f770b6199f","system_id":"levelo_inurba_marseille","lat":43.30454,"lon":5.37907,"is_reserved":false,"is_disabled":false,"rental_uris":{"android":"levelo://app?vid=a4fa5c55-37de-4c61-bf1b-a1f770b6199f","ios":"levelo://app?vid=a4fa5c55-37de-4c61-bf1b-a1f770b6199f"},"vehicle_type_id":"4","last_reported":1727420941,"current_range_meters":10800,"station_id":"ce4bgup2rcd13ifvqcn0","pricing_plan_id":"cebpf4jnsgd1na2vs0mg"},{"bike_id":"ecd9cf24-b03b-4254-8ec2-71c43d2d78b1","system_id":"levelo_inurba_marseille","lat":43.30902,"lon":5.36846,"is_reserved":false,"is_disabled":false,"rental_uris":{"android":"levelo://app?vid=ecd9cf24-b03b-4254-8ec2-71c43d2d78b1","ios":"levelo://app?vid=ecd9cf24-b03b-4254-8ec2-71c43d2d78b1"},"vehicle_type_id":"4","last_reported":1727420941,"current_range_meters":29600,"station_id":"ce4bgn92rcd13ifvqbvg","pricing_plan_id":"cebpf4jnsgd1na2vs0mg"},{"bike_id":"8e9f47a1-58f0-4428-a129-ec0fa6e99e1a","system_id":"levelo_inurba_marseille","lat":43.29037,"lon":5.39964,"is_reserved":false,"is_disabled":false,"rental_uris":{"android":"levelo://app?vid=8e9f47a1-58f0-4428-a129-ec0fa6e99e1a","ios":"levelo://app?vid=8e9f47a1-58f0-4428-a129-ec0fa6e99e1a"},"vehicle_type_id":"4","last_reported":1727420941,"current_range_meters":9600,"station_id":"ce4bh392rcd13ifvqdm0","pricing_plan_id":"cebpf4jnsgd1na2vs0mg"},{"bike_id":"7f7b017c-5cb5-45c9-8bd6-2d63323ace3e","system_id":"levelo_inurba_marseille","lat":43.3266,"lon":5.40988,"is_reserved":false,"is_disabled":false,"rental_uris":{"android":"levelo://app?vid=7f7b017c-5cb5-45c9-8bd6-2d63323ace3e","ios":"levelo://app?vid=7f7b017c-5cb5-45c9-8bd6-2d63323ace3e"},"vehicle_type_id":"4","last_reported":1727420941,"current_range_meters":38800,"station_id":"ce4bhpp2rcd13ifvqhgg","pricing_plan_id":"cebpf4jnsgd1na2vs0mg"},{"bike_id":"e1cb9a1a-ab33-4f29-961f-b5a943ec5b92","system_id":"levelo_inurba_marseille","lat":43.29907,"lon":5.38157,"is_reserved":false,"is_disabled":false,"rental_uris":{"android":"levelo://app?vid=e1cb9a1a-ab33-4f29-961f-b5a943ec5b92","ios":"levelo://app?vid=e1cb9a1a-ab33-4f29-961f-b5a943ec5b92"},"vehicle_type_id":"4","last_reported":1727420941,"current_range_meters":38800,"station_id":"ce4bgj12rcd13ifvqbc0","pricing_plan_id":"cebpf4jnsgd1na2vs0mg"},{"bike_id":"053ac41c-1dcc-45bc-b7b7-0be0efe444e4","system_id":"levelo_inurba_marseille","lat":43.30203,"lon":5.39457,"is_reserved":false,"is_disabled":false,"rental_uris":{"android":"levelo://app?vid=053ac41c-1dcc-45bc-b7b7-0be0efe444e4","ios":"levelo://app?vid=053ac41c-1dcc-45bc-b7b7-0be0efe444e4"},"vehicle_type_id":"4","last_reported":1727420941,"current_range_meters":24400,"station_id":"ce4bh0p2rcd13ifvqd70","pricing_plan_id":"cebpf4jnsgd1na2vs0mg"},{"bike_id":"7dcc681e-687a-4c9a-9ee2-bdf8919d45e7","system_id":"levelo_inurba_marseille","lat":43.3015,"lon":5.38078,"is_reserved":false,"is_disabled":false,"rental_uris":{"android":"levelo://app?vid=7dcc681e-687a-4c9a-9ee2-bdf8919d45e7","ios":"levelo://app?vid=7dcc681e-687a-4c9a-9ee2-bdf8919d45e7"},"vehicle_type_id":"4","last_reported":1727420941,"current_range_meters":37600,"station_id":"ce4bgjp2rcd13ifvqbh0","pricing_plan_id":"cebpf4jnsgd1na2vs0mg"},{"bike_id":"12bb2fa0-def4-44f9-9009-061dd94ed221","system_id":"levelo_inurba_marseille","lat":43.24165,"lon":5.36391,"is_reserved":false,"is_disabled":false,"rental_uris":{"android":"levelo://app?vid=12bb2fa0-def4-44f9-9009-061dd94ed221","ios":"levelo://app?vid=12bb2fa0-def4-44f9-9009-061dd94ed221"},"vehicle_type_id":"4","last_reported":1727420941,"current_range_meters":3600,"station_id":"cpo36qri1sfpv3e86is0","pricing_plan_id":"cebpf4jnsgd1na2vs0mg"},{"bike_id":"e14da4c1-3adc-464f-bd15-d8d1794c30c0","system_id":"levelo_inurba_marseille","lat":43.30945,"lon":5.39037,"is_reserved":false,"is_disabled":false,"rental_uris":{"android":"levelo://app?vid=e14da4c1-3adc-464f-bd15-d8d1794c30c0","ios":"levelo://app?vid=e14da4c1-3adc-464f-bd15-d8d1794c30c0"},"vehicle_type_id":"4","last_reported":1727420941,"current_range_meters":15200,"station_id":"ce4bgup2rcd13ifvqco0","pricing_plan_id":"cebpf4jnsgd1na2vs0mg"},{"bike_id":"caac2220-f204-42a6-8944-b690878e20a4","system_id":"levelo_inurba_marseille","lat":43.26194,"lon":5.37922,"is_reserved":false,"is_disabled":false,"rental_uris":{"android":"levelo://app?vid=caac2220-f204-42a6-8944-b690878e20a4","ios":"levelo://app?vid=caac2220-f204-42a6-8944-b690878e20a4"},"vehicle_type_id":"4","last_reported":1727420941,"current_range_meters":28000,"station_id":"ce4bhjp2rcd13ifvqg90","pricing_plan_id":"cebpf4jnsgd1na2vs0mg"},{"bike_id":"f916f4ea-109f-491c-b317-68616a4e1aaf","system_id":"levelo_inurba_marseille","lat":43.30449,"lon":5.37903,"is_reserved":false,"is_disabled":false,"rental_uris":{"android":"levelo://app?vid=f916f4ea-109f-491c-b317-68616a4e1aaf","ios":"levelo://app?vid=f916f4ea-109f-491c-b317-68616a4e1aaf"},"vehicle_type_id":"4","last_reported":1727420941,"current_range_meters":18000,"station_id":"ce4bgup2rcd13ifvqcn0","pricing_plan_id":"cebpf4jnsgd1na2vs0mg"},{"bike_id":"53980368-1b32-4d53-9876-3ecade63c469","system_id":"levelo_inurba_marseille","lat":43.299765,"lon":5.371742,"is_reserved":false,"is_disabled":false,"rental_uris":{"android":"levelo://app?vid=53980368-1b32-4d53-9876-3ecade63c469","ios":"levelo://app?vid=53980368-1b32-4d53-9876-3ecade63c469"},"vehicle_type_id":"4","last_reported":1727420941,"current_range_meters":17200,"station_id":"ce4bgr92rcd13ifvqc7g","pricing_plan_id":"cebpf4jnsgd1na2vs0mg"},{"bike_id":"cb9d02ba-e4d2-47c7-affc-7fbd969e4c69","system_id":"levelo_inurba_marseille","lat":43.28701,"lon":5.37378,"is_reserved":false,"is_disabled":false,"rental_uris":{"android":"levelo://app?vid=cb9d02ba-e4d2-47c7-affc-7fbd969e4c69","ios":"levelo://app?vid=cb9d02ba-e4d2-47c7-affc-7fbd969e4c69"},"vehicle_type_id":"4","last_reported":1727420941,"current_range_meters":28000,"station_id":"ce4bh3p2rcd13ifvqdq0","pricing_plan_id":"cebpf4jnsgd1na2vs0mg"},{"bike_id":"e5092f53-69db-4841-b3fd-6e5ec40e5450","system_id":"levelo_inurba_marseille","lat":43.26204,"lon":5.3793,"is_reserved":false,"is_disabled":false,"rental_uris":{"android":"levelo://app?vid=e5092f53-69db-4841-b3fd-6e5ec40e5450","ios":"levelo://app?vid=e5092f53-69db-4841-b3fd-6e5ec40e5450"},"vehicle_type_id":"4","last_reported":1727420941,"current_range_meters":28000,"station_id":"ce4bhjp2rcd13ifvqg90","pricing_plan_id":"cebpf4jnsgd1na2vs0mg"},{"bike_id":"6638bfbc-e341-409c-94ed-cb6318eaee99","system_id":"levelo_inurba_marseille","lat":43.27189,"lon":5.40992,"is_reserved":false,"is_disabled":false,"rental_uris":{"android":"levelo://app?vid=6638bfbc-e341-409c-94ed-cb6318eaee99","ios":"levelo://app?vid=6638bfbc-e341-409c-94ed-cb6318eaee99"},"vehicle_type_id":"4","last_reported":1727420941,"current_range_meters":6800,"station_id":"ce4bhl12rcd13ifvqgf0","pricing_plan_id":"cebpf4jnsgd1na2vs0mg"},{"bike_id":"2d21a934-5452-4cd4-9fa3-fb6b2a437943","system_id":"levelo_inurba_marseille","lat":43.23192,"lon":5.35553,"is_reserved":false,"is_disabled":false,"rental_uris":{"android":"levelo://app?vid=2d21a934-5452-4cd4-9fa3-fb6b2a437943","ios":"levelo://app?vid=2d21a934-5452-4cd4-9fa3-fb6b2a437943"},"vehicle_type_id":"4","last_reported":1727420941,"current_range_meters":29600,"station_id":"ce4bhu92rcd13ifvqi70","pricing_plan_id":"cebpf4jnsgd1na2vs0mg"},{"bike_id":"61b20505-63d8-4758-ba70-6800df283b2a","system_id":"levelo_inurba_marseille","lat":43.29527,"lon":5.38541,"is_reserved":false,"is_disabled":false,"rental_uris":{"android":"levelo://app?vid=61b20505-63d8-4758-ba70-6800df283b2a","ios":"levelo://app?vid=61b20505-63d8-4758-ba70-6800df283b2a"},"vehicle_type_id":"4","last_reported":1727420941,"current_range_meters":9600,"station_id":"ce4bgih2rcd13ifvqba0","pricing_plan_id":"cebpf4jnsgd1na2vs0mg"},{"bike_id":"4a3758dc-a974-45bb-ac85-5b5c37a83071","system_id":"levelo_inurba_marseille","lat":43.29038,"lon":5.39975,"is_reserved":false,"is_disabled":false,"rental_uris":{"android":"levelo://app?vid=4a3758dc-a974-45bb-ac85-5b5c37a83071","ios":"levelo://app?vid=4a3758dc-a974-45bb-ac85-5b5c37a83071"},"vehicle_type_id":"4","last_reported":1727420941,"current_range_meters":2800,"station_id":"ce4bh392rcd13ifvqdm0","pricing_plan_id":"cebpf4jnsgd1na2vs0mg"},{"bike_id":"d961c983-af25-4137-beb0-8f8d41394de3","system_id":"levelo_inurba_marseille","lat":43.2315,"lon":5.43714,"is_reserved":false,"is_disabled":false,"rental_uris":{"android":"levelo://app?vid=d961c983-af25-4137-beb0-8f8d41394de3","ios":"levelo://app?vid=d961c983-af25-4137-beb0-8f8d41394de3"},"vehicle_type_id":"4","last_reported":1727420941,"current_range_meters":25600,"station_id":"ce4bhmp2rcd13ifvqgog","pricing_plan_id":"cebpf4jnsgd1na2vs0mg"},{"bike_id":"3c7e82d8-4d42-433e-a3f7-3ff1c6b92600","system_id":"levelo_inurba_marseille","lat":43.29229,"lon":5.36076,"is_reserved":false,"is_disabled":false,"rental_uris":{"android":"levelo://app?vid=3c7e82d8-4d42-433e-a3f7-3ff1c6b92600","ios":"levelo://app?vid=3c7e82d8-4d42-433e-a3f7-3ff1c6b92600"},"vehicle_type_id":"4","last_reported":1727420941,"current_range_meters":34800,"station_id":"ce4bhbh2rcd13ifvqeqg","pricing_plan_id":"cebpf4jnsgd1na2vs0mg"},{"bike_id":"2033226c-ad5e-4558-a007-08be72b3c458","system_id":"levelo_inurba_marseille","lat":43.31997,"lon":5.38149,"is_reserved":false,"is_disabled":false,"rental_uris":{"android":"levelo://app?vid=2033226c-ad5e-4558-a007-08be72b3c458","ios":"levelo://app?vid=2033226c-ad5e-4558-a007-08be72b3c458"},"vehicle_type_id":"4","last_reported":1727420941,"current_range_meters":22400,"station_id":"ce4bhr12rcd13ifvqhpg","pricing_plan_id":"cebpf4jnsgd1na2vs0mg"},{"bike_id":"53d6e06f-e76e-4a45-9d89-86bbf7739dee","system_id":"levelo_inurba_marseille","lat":43.3046,"lon":5.37908,"is_reserved":false,"is_disabled":false,"rental_uris":{"android":"levelo://app?vid=53d6e06f-e76e-4a45-9d89-86bbf7739dee","ios":"levelo://app?vid=53d6e06f-e76e-4a45-9d89-86bbf7739dee"},"vehicle_type_id":"4","last_reported":1727420941,"current_range_meters":28800,"station_id":"ce4bgup2rcd13ifvqcn0","pricing_plan_id":"cebpf4jnsgd1na2vs0mg"},{"bike_id":"cdafbc27-eccb-4455-a42b-b4a1f4483fbd","system_id":"levelo_inurba_marseille","lat":43.27992,"lon":5.41661,"is_reserved":false,"is_disabled":false,"rental_uris":{"android":"levelo://app?vid=cdafbc27-eccb-4455-a42b-b4a1f4483fbd","ios":"levelo://app?vid=cdafbc27-eccb-4455-a42b-b4a1f4483fbd"},"vehicle_type_id":"4","last_reported":1727420941,"current_range_meters":37600,"station_id":"ce4bho12rcd13ifvqh1g","pricing_plan_id":"cebpf4jnsgd1na2vs0mg"},{"bike_id":"bda7835b-dc95-450d-87bb-33c282d293ba","system_id":"levelo_inurba_marseille","lat":43.32474,"lon":5.36561,"is_reserved":false,"is_disabled":false,"rental_uris":{"android":"levelo://app?vid=bda7835b-dc95-450d-87bb-33c282d293ba","ios":"levelo://app?vid=bda7835b-dc95-450d-87bb-33c282d293ba"},"vehicle_type_id":"4","last_reported":1727420941,"current_range_meters":11200,"station_id":"ce4bhs12rcd13ifvqhvg","pricing_plan_id":"cebpf4jnsgd1na2vs0mg"},{"bike_id":"2d7a9fb7-df81-4f65-9229-4f5ebff4a082","system_id":"levelo_inurba_marseille","lat":43.29551,"lon":5.42272,"is_reserved":false,"is_disabled":false,"rental_uris":{"android":"levelo://app?vid=2d7a9fb7-df81-4f65-9229-4f5ebff4a082","ios":"levelo://app?vid=2d7a9fb7-df81-4f65-9229-4f5ebff4a082"},"vehicle_type_id":"4","last_reported":1727420941,"current_range_meters":32800,"station_id":"ce4bhph2rcd13ifvqhdg","pricing_plan_id":"cebpf4jnsgd1na2vs0mg"},{"bike_id":"1a40a0dd-7e5d-4eee-b946-4d3154a96682","system_id":"levelo_inurba_marseille","lat":43.30278,"lon":5.37711,"is_reserved":false,"is_disabled":false,"rental_uris":{"android":"levelo://app?vid=1a40a0dd-7e5d-4eee-b946-4d3154a96682","ios":"levelo://app?vid=1a40a0dd-7e5d-4eee-b946-4d3154a96682"},"vehicle_type_id":"4","last_reported":1727420941,"current_range_meters":19200,"station_id":"ce4bguh2rcd13ifvqcj0","pricing_plan_id":"cebpf4jnsgd1na2vs0mg"},{"bike_id":"51cd0e26-68b5-4158-9a80-d3445331b8f5","system_id":"levelo_inurba_marseille","lat":43.23155,"lon":5.43704,"is_reserved":false,"is_disabled":false,"rental_uris":{"android":"levelo://app?vid=51cd0e26-68b5-4158-9a80-d3445331b8f5","ios":"levelo://app?vid=51cd0e26-68b5-4158-9a80-d3445331b8f5"},"vehicle_type_id":"4","last_reported":1727420941,"current_range_meters":12000,"station_id":"ce4bhmp2rcd13ifvqgog","pricing_plan_id":"cebpf4jnsgd1na2vs0mg"},{"bike_id":"9e97b53c-0188-475d-a7b1-d5ba8dae6275","system_id":"levelo_inurba_marseille","lat":43.29031,"lon":5.39957,"is_reserved":false,"is_disabled":false,"rental_uris":{"android":"levelo://app?vid=9e97b53c-0188-475d-a7b1-d5ba8dae6275","ios":"levelo://app?vid=9e97b53c-0188-475d-a7b1-d5ba8dae6275"},"vehicle_type_id":"4","last_reported":1727420941,"current_range_meters":28000,"station_id":"ce4bh392rcd13ifvqdm0","pricing_plan_id":"cebpf4jnsgd1na2vs0mg"},{"bike_id":"1b4b0178-3a24-4b33-98ef-05aef8dad5fc","system_id":"levelo_inurba_marseille","lat":43.26197,"lon":5.37924,"is_reserved":false,"is_disabled":false,"rental_uris":{"android":"levelo://app?vid=1b4b0178-3a24-4b33-98ef-05aef8dad5fc","ios":"levelo://app?vid=1b4b0178-3a24-4b33-98ef-05aef8dad5fc"},"vehicle_type_id":"4","last_reported":1727420941,"current_range_meters":40000,"station_id":"ce4bhjp2rcd13ifvqg90","pricing_plan_id":"cebpf4jnsgd1na2vs0mg"},{"bike_id":"840816d8-06e8-4fbc-9617-5f6d82065a83","system_id":"levelo_inurba_marseille","lat":43.27486,"lon":5.42449,"is_reserved":false,"is_disabled":false,"rental_uris":{"android":"levelo://app?vid=840816d8-06e8-4fbc-9617-5f6d82065a83","ios":"levelo://app?vid=840816d8-06e8-4fbc-9617-5f6d82065a83"},"vehicle_type_id":"4","last_reported":1727420941,"current_range_meters":36800,"station_id":"ce4bhn92rcd13ifvqgrg","pricing_plan_id":"cebpf4jnsgd1na2vs0mg"},{"bike_id":"fd862933-d712-4813-8866-a7ed5682df20","system_id":"levelo_inurba_marseille","lat":43.2315,"lon":5.43701,"is_reserved":false,"is_disabled":false,"rental_uris":{"android":"levelo://app?vid=fd862933-d712-4813-8866-a7ed5682df20","ios":"levelo://app?vid=fd862933-d712-4813-8866-a7ed5682df20"},"vehicle_type_id":"4","last_reported":1727420941,"current_range_meters":8000,"station_id":"ce4bhmp2rcd13ifvqgog","pricing_plan_id":"cebpf4jnsgd1na2vs0mg"},{"bike_id":"fdeab252-3058-4111-add0-775c267b7e58","system_id":"levelo_inurba_marseille","lat":43.33606,"lon":5.41034,"is_reserved":false,"is_disabled":false,"rental_uris":{"android":"levelo://app?vid=fdeab252-3058-4111-add0-775c267b7e58","ios":"levelo://app?vid=fdeab252-3058-4111-add0-775c267b7e58"},"vehicle_type_id":"4","last_reported":1727420941,"current_range_meters":19600,"station_id":"ce4bhqh2rcd13ifvqhmg","pricing_plan_id":"cebpf4jnsgd1na2vs0mg"},{"bike_id":"7fc101c0-c92d-43c7-9ba4-5ce1acc06235","system_id":"levelo_inurba_marseille","lat":43.31505,"lon":5.37311,"is_reserved":false,"is_disabled":false,"rental_uris":{"android":"levelo://app?vid=7fc101c0-c92d-43c7-9ba4-5ce1acc06235","ios":"levelo://app?vid=7fc101c0-c92d-43c7-9ba4-5ce1acc06235"},"vehicle_type_id":"4","last_reported":1727420941,"current_range_meters":38400,"station_id":"ce4bgt12rcd13ifvqcd0","pricing_plan_id":"cebpf4jnsgd1na2vs0mg"},{"bike_id":"571115be-4f92-4f3c-be12-44639ba9602a","system_id":"levelo_inurba_marseille","lat":43.32536,"lon":5.41447,"is_reserved":false,"is_disabled":false,"rental_uris":{"android":"levelo://app?vid=571115be-4f92-4f3c-be12-44639ba9602a","ios":"levelo://app?vid=571115be-4f92-4f3c-be12-44639ba9602a"},"vehicle_type_id":"4","last_reported":1727420941,"current_range_meters":26800,"station_id":"ce4bhq12rcd13ifvqhhg","pricing_plan_id":"cebpf4jnsgd1na2vs0mg"},{"bike_id":"e7a340e5-9566-47cb-8d22-ce80ecf21c73","system_id":"levelo_inurba_marseille","lat":43.26951,"lon":5.38641,"is_reserved":false,"is_disabled":false,"rental_uris":{"android":"levelo://app?vid=e7a340e5-9566-47cb-8d22-ce80ecf21c73","ios":"levelo://app?vid=e7a340e5-9566-47cb-8d22-ce80ecf21c73"},"vehicle_type_id":"4","last_reported":1727420941,"current_range_meters":4000,"station_id":"ce4bhh92rcd13ifvqfh0","pricing_plan_id":"cebpf4jnsgd1na2vs0mg"},{"bike_id":"23436dae-b3bf-4339-b7bb-645a0d1e950e","system_id":"levelo_inurba_marseille","lat":43.29901,"lon":5.37474,"is_reserved":false,"is_disabled":false,"rental_uris":{"android":"levelo://app?vid=23436dae-b3bf-4339-b7bb-645a0d1e950e","ios":"levelo://app?vid=23436dae-b3bf-4339-b7bb-645a0d1e950e"},"vehicle_type_id":"4","last_reported":1727420941,"current_range_meters":37600,"station_id":"ce4bgjh2rcd13ifvqbg0","pricing_plan_id":"cebpf4jnsgd1na2vs0mg"},{"bike_id":"f8a51df7-7b0a-481c-a54c-725f4d5661e3","system_id":"levelo_inurba_marseille","lat":43.34142,"lon":5.40898,"is_reserved":false,"is_disabled":false,"rental_uris":{"android":"levelo://app?vid=f8a51df7-7b0a-481c-a54c-725f4d5661e3","ios":"levelo://app?vid=f8a51df7-7b0a-481c-a54c-725f4d5661e3"},"vehicle_type_id":"4","last_reported":1727420941,"current_range_meters":35600,"station_id":"ce4bhqh2rcd13ifvqhlg","pricing_plan_id":"cebpf4jnsgd1na2vs0mg"},{"bike_id":"4174e0c9-ea8a-45cf-832b-944eca7da095","system_id":"levelo_inurba_marseille","lat":43.2655,"lon":5.39019,"is_reserved":false,"is_disabled":false,"rental_uris":{"android":"levelo://app?vid=4174e0c9-ea8a-45cf-832b-944eca7da095","ios":"levelo://app?vid=4174e0c9-ea8a-45cf-832b-944eca7da095"},"vehicle_type_id":"4","last_reported":1727420941,"current_range_meters":19600,"station_id":"ce4bhe12rcd13ifvqf30","pricing_plan_id":"cebpf4jnsgd1na2vs0mg"},{"bike_id":"ef3b1768-3128-4f90-82ef-cc8335211ff1","system_id":"levelo_inurba_marseille","lat":43.29553,"lon":5.42275,"is_reserved":false,"is_disabled":false,"rental_uris":{"android":"levelo://app?vid=ef3b1768-3128-4f90-82ef-cc8335211ff1","ios":"levelo://app?vid=ef3b1768-3128-4f90-82ef-cc8335211ff1"},"vehicle_type_id":"4","last_reported":1727420941,"current_range_meters":38800,"station_id":"ce4bhph2rcd13ifvqhdg","pricing_plan_id":"cebpf4jnsgd1na2vs0mg"},{"bike_id":"cb6497aa-90dd-4f9e-b87e-9babb0a79a00","system_id":"levelo_inurba_marseille","lat":43.29895,"lon":5.38135,"is_reserved":false,"is_disabled":false,"rental_uris":{"android":"levelo://app?vid=cb6497aa-90dd-4f9e-b87e-9babb0a79a00","ios":"levelo://app?vid=cb6497aa-90dd-4f9e-b87e-9babb0a79a00"},"vehicle_type_id":"4","last_reported":1727420941,"current_range_meters":13600,"station_id":"ce4bgj12rcd13ifvqbc0","pricing_plan_id":"cebpf4jnsgd1na2vs0mg"},{"bike_id":"d03856c3-8a24-43aa-a48a-8787bc340424","system_id":"levelo_inurba_marseille","lat":43.30907,"lon":5.36851,"is_reserved":false,"is_disabled":false,"rental_uris":{"android":"levelo://app?vid=d03856c3-8a24-43aa-a48a-8787bc340424","ios":"levelo://app?vid=d03856c3-8a24-43aa-a48a-8787bc340424"},"vehicle_type_id":"4","last_reported":1727420941,"current_range_meters":31200,"station_id":"ce4bgn92rcd13ifvqbvg","pricing_plan_id":"cebpf4jnsgd1na2vs0mg"},{"bike_id":"9c802d72-a3ef-463a-ad77-5644542a6e53","system_id":"levelo_inurba_marseille","lat":43.30462,"lon":5.37898,"is_reserved":false,"is_disabled":false,"rental_uris":{"android":"levelo://app?vid=9c802d72-a3ef-463a-ad77-5644542a6e53","ios":"levelo://app?vid=9c802d72-a3ef-463a-ad77-5644542a6e53"},"vehicle_type_id":"4","last_reported":1727420941,"current_range_meters":24000,"station_id":"ce4bgup2rcd13ifvqcn0","pricing_plan_id":"cebpf4jnsgd1na2vs0mg"},{"bike_id":"fd512eb4-5978-476b-856d-3199680a82b6","system_id":"levelo_inurba_marseille","lat":43.23153,"lon":5.43702,"is_reserved":false,"is_disabled":false,"rental_uris":{"android":"levelo://app?vid=fd512eb4-5978-476b-856d-3199680a82b6","ios":"levelo://app?vid=fd512eb4-5978-476b-856d-3199680a82b6"},"vehicle_type_id":"4","last_reported":1727420941,"current_range_meters":17600,"station_id":"ce4bhmp2rcd13ifvqgog","pricing_plan_id":"cebpf4jnsgd1na2vs0mg"},{"bike_id":"cff557bc-e136-4fde-af6c-83c740466e77","system_id":"levelo_inurba_marseille","lat":43.2695,"lon":5.3864,"is_reserved":false,"is_disabled":false,"rental_uris":{"android":"levelo://app?vid=cff557bc-e136-4fde-af6c-83c740466e77","ios":"levelo://app?vid=cff557bc-e136-4fde-af6c-83c740466e77"},"vehicle_type_id":"4","last_reported":1727420941,"current_range_meters":38800,"station_id":"ce4bhh92rcd13ifvqfh0","pricing_plan_id":"cebpf4jnsgd1na2vs0mg"},{"bike_id":"21f4556e-14f8-4816-8bb2-303815a7881f","system_id":"levelo_inurba_marseille","lat":43.30145,"lon":5.38081,"is_reserved":false,"is_disabled":false,"rental_uris":{"android":"levelo://app?vid=21f4556e-14f8-4816-8bb2-303815a7881f","ios":"levelo://app?vid=21f4556e-14f8-4816-8bb2-303815a7881f"},"vehicle_type_id":"4","last_reported":1727420941,"current_range_meters":27200,"station_id":"ce4bgjp2rcd13ifvqbh0","pricing_plan_id":"cebpf4jnsgd1na2vs0mg"},{"bike_id":"cd252f14-c2fd-48f2-af0c-9b368efbfdd0","system_id":"levelo_inurba_marseille","lat":43.31335,"lon":5.366972,"is_reserved":false,"is_disabled":false,"rental_uris":{"android":"levelo://app?vid=cd252f14-c2fd-48f2-af0c-9b368efbfdd0","ios":"levelo://app?vid=cd252f14-c2fd-48f2-af0c-9b368efbfdd0"},"vehicle_type_id":"4","last_reported":1727420941,"current_range_meters":35600,"station_id":"ce4bgr92rcd13ifvqc6g","pricing_plan_id":"cebpf4jnsgd1na2vs0mg"},{"bike_id":"54349784-eb4a-488f-a187-17d76f2f8837","system_id":"levelo_inurba_marseille","lat":43.34145,"lon":5.40901,"is_reserved":false,"is_disabled":false,"rental_uris":{"android":"levelo://app?vid=54349784-eb4a-488f-a187-17d76f2f8837","ios":"levelo://app?vid=54349784-eb4a-488f-a187-17d76f2f8837"},"vehicle_type_id":"4","last_reported":1727420941,"current_range_meters":17200,"station_id":"ce4bhqh2rcd13ifvqhlg","pricing_plan_id":"cebpf4jnsgd1na2vs0mg"},{"bike_id":"318ada60-6b0f-4053-b456-ccef7363e669","system_id":"levelo_inurba_marseille","lat":43.311249,"lon":5.384133,"is_reserved":false,"is_disabled":false,"rental_uris":{"android":"levelo://app?vid=318ada60-6b0f-4053-b456-ccef7363e669","ios":"levelo://app?vid=318ada60-6b0f-4053-b456-ccef7363e669"},"vehicle_type_id":"4","last_reported":1727420941,"current_range_meters":18800,"station_id":"ce4bgv92rcd13ifvqcr0","pricing_plan_id":"cebpf4jnsgd1na2vs0mg"},{"bike_id":"729b6156-9f96-445c-9f77-4d22291267cc","system_id":"levelo_inurba_marseille","lat":43.26952,"lon":5.38633,"is_reserved":false,"is_disabled":false,"rental_uris":{"android":"levelo://app?vid=729b6156-9f96-445c-9f77-4d22291267cc","ios":"levelo://app?vid=729b6156-9f96-445c-9f77-4d22291267cc"},"vehicle_type_id":"4","last_reported":1727420941,"current_range_meters":21600,"station_id":"ce4bhh92rcd13ifvqfh0","pricing_plan_id":"cebpf4jnsgd1na2vs0mg"},{"bike_id":"12829535-76c0-47ae-b127-397b0ae7ad80","system_id":"levelo_inurba_marseille","lat":43.2407,"lon":5.37762,"is_reserved":false,"is_disabled":false,"rental_uris":{"android":"levelo://app?vid=12829535-76c0-47ae-b127-397b0ae7ad80","ios":"levelo://app?vid=12829535-76c0-47ae-b127-397b0ae7ad80"},"vehicle_type_id":"4","last_reported":1727420941,"current_range_meters":17200,"station_id":"ce4bhnp2rcd13ifvqgvg","pricing_plan_id":"cebpf4jnsgd1na2vs0mg"},{"bike_id":"d2fe4d4b-fb6f-40aa-9ec9-0afca7d9d195","system_id":"levelo_inurba_marseille","lat":43.29565,"lon":5.37509,"is_reserved":false,"is_disabled":false,"rental_uris":{"android":"levelo://app?vid=d2fe4d4b-fb6f-40aa-9ec9-0afca7d9d195","ios":"levelo://app?vid=d2fe4d4b-fb6f-40aa-9ec9-0afca7d9d195"},"vehicle_type_id":"4","last_reported":1727420941,"current_range_meters":10000,"station_id":"ce4bgh92rcd13ifvqb50","pricing_plan_id":"cebpf4jnsgd1na2vs0mg"},{"bike_id":"c3f7ee9d-d0ef-4c74-ac97-2c51ada1a67e","system_id":"levelo_inurba_marseille","lat":43.315481,"lon":5.380871,"is_reserved":false,"is_disabled":false,"rental_uris":{"android":"levelo://app?vid=c3f7ee9d-d0ef-4c74-ac97-2c51ada1a67e","ios":"levelo://app?vid=c3f7ee9d-d0ef-4c74-ac97-2c51ada1a67e"},"vehicle_type_id":"4","last_reported":1727420941,"current_range_meters":24800,"station_id":"ce4bhsp2rcd13ifvqi50","pricing_plan_id":"cebpf4jnsgd1na2vs0mg"},{"bike_id":"c6371b8b-5ad1-494b-8a26-7f8e38197a50","system_id":"levelo_inurba_marseille","lat":43.26061,"lon":5.39396,"is_reserved":false,"is_disabled":false,"rental_uris":{"android":"levelo://app?vid=c6371b8b-5ad1-494b-8a26-7f8e38197a50","ios":"levelo://app?vid=c6371b8b-5ad1-494b-8a26-7f8e38197a50"},"vehicle_type_id":"4","last_reported":1727420941,"current_range_meters":20000,"station_id":"ce4bhh92rcd13ifvqfj0","pricing_plan_id":"cebpf4jnsgd1na2vs0mg"},{"bike_id":"3b996386-af24-442d-b5d1-9b0df8dac085","system_id":"levelo_inurba_marseille","lat":43.30524,"lon":5.36711,"is_reserved":false,"is_disabled":false,"rental_uris":{"android":"levelo://app?vid=3b996386-af24-442d-b5d1-9b0df8dac085","ios":"levelo://app?vid=3b996386-af24-442d-b5d1-9b0df8dac085"},"vehicle_type_id":"4","last_reported":1727420941,"current_range_meters":37600,"station_id":"ce4bgrp2rcd13ifvqc9g","pricing_plan_id":"cebpf4jnsgd1na2vs0mg"},{"bike_id":"f8b75c26-0803-4f45-8b95-4c3c120fdd03","system_id":"levelo_inurba_marseille","lat":43.30023,"lon":5.40036,"is_reserved":false,"is_disabled":false,"rental_uris":{"android":"levelo://app?vid=f8b75c26-0803-4f45-8b95-4c3c120fdd03","ios":"levelo://app?vid=f8b75c26-0803-4f45-8b95-4c3c120fdd03"},"vehicle_type_id":"4","last_reported":1727420941,"current_range_meters":25200,"station_id":"ce4bgkh2rcd13ifvqbk0","pricing_plan_id":"cebpf4jnsgd1na2vs0mg"},{"bike_id":"4a1178d3-6aac-4e05-8f69-b87b227ebcde","system_id":"levelo_inurba_marseille","lat":43.30796,"lon":5.38136,"is_reserved":false,"is_disabled":false,"rental_uris":{"android":"levelo://app?vid=4a1178d3-6aac-4e05-8f69-b87b227ebcde","ios":"levelo://app?vid=4a1178d3-6aac-4e05-8f69-b87b227ebcde"},"vehicle_type_id":"4","last_reported":1727420941,"current_range_meters":26800,"station_id":"ce4bgt12rcd13ifvqce0","pricing_plan_id":"cebpf4jnsgd1na2vs0mg"},{"bike_id":"ad6cc440-4e38-4d52-bb12-7fdbe9f21cfa","system_id":"levelo_inurba_marseille","lat":43.28348,"lon":5.38104,"is_reserved":false,"is_disabled":false,"rental_uris":{"android":"levelo://app?vid=ad6cc440-4e38-4d52-bb12-7fdbe9f21cfa","ios":"levelo://app?vid=ad6cc440-4e38-4d52-bb12-7fdbe9f21cfa"},"vehicle_type_id":"4","last_reported":1727420941,"current_range_meters":28800,"station_id":"ce4bh412rcd13ifvqdr0","pricing_plan_id":"cebpf4jnsgd1na2vs0mg"},{"bike_id":"c68029b3-8e8e-442c-a338-c793845391a8","system_id":"levelo_inurba_marseille","lat":43.26029,"lon":5.37551,"is_reserved":false,"is_disabled":false,"rental_uris":{"android":"levelo://app?vid=c68029b3-8e8e-442c-a338-c793845391a8","ios":"levelo://app?vid=c68029b3-8e8e-442c-a338-c793845391a8"},"vehicle_type_id":"4","last_reported":1727420941,"current_range_meters":38800,"station_id":"ce4bhgh2rcd13ifvqfa0","pricing_plan_id":"cebpf4jnsgd1na2vs0mg"},{"bike_id":"9b2d5773-f24d-4318-9e8b-780dd6137f58","system_id":"levelo_inurba_marseille","lat":43.31491,"lon":5.37307,"is_reserved":false,"is_disabled":false,"rental_uris":{"android":"levelo://app?vid=9b2d5773-f24d-4318-9e8b-780dd6137f58","ios":"levelo://app?vid=9b2d5773-f24d-4318-9e8b-780dd6137f58"},"vehicle_type_id":"4","last_reported":1727420941,"current_range_meters":5600,"station_id":"ce4bgt12rcd13ifvqcd0","pricing_plan_id":"cebpf4jnsgd1na2vs0mg"},{"bike_id":"d73b00c8-5ecc-4e8a-86a0-5697daddd4cd","system_id":"levelo_inurba_marseille","lat":43.28939,"lon":5.36639,"is_reserved":false,"is_disabled":false,"rental_uris":{"android":"levelo://app?vid=d73b00c8-5ecc-4e8a-86a0-5697daddd4cd","ios":"levelo://app?vid=d73b00c8-5ecc-4e8a-86a0-5697daddd4cd"},"vehicle_type_id":"4","last_reported":1727420941,"current_range_meters":24400,"station_id":"ce4bhap2rcd13ifvqek0","pricing_plan_id":"cebpf4jnsgd1na2vs0mg"},{"bike_id":"5e348244-43b9-4459-a1d4-b6bf9309ac6b","system_id":"levelo_inurba_marseille","lat":43.24082,"lon":5.3775,"is_reserved":false,"is_disabled":false,"rental_uris":{"android":"levelo://app?vid=5e348244-43b9-4459-a1d4-b6bf9309ac6b","ios":"levelo://app?vid=5e348244-43b9-4459-a1d4-b6bf9309ac6b"},"vehicle_type_id":"4","last_reported":1727420941,"current_range_meters":30000,"station_id":"ce4bhnp2rcd13ifvqgvg","pricing_plan_id":"cebpf4jnsgd1na2vs0mg"},{"bike_id":"380629cf-c9a7-40ac-a210-4ba5fc8ced3b","system_id":"levelo_inurba_marseille","lat":43.28152,"lon":5.4264,"is_reserved":false,"is_disabled":false,"rental_uris":{"android":"levelo://app?vid=380629cf-c9a7-40ac-a210-4ba5fc8ced3b","ios":"levelo://app?vid=380629cf-c9a7-40ac-a210-4ba5fc8ced3b"},"vehicle_type_id":"4","last_reported":1727420941,"current_range_meters":33200,"station_id":"ce4bhnh2rcd13ifvqgug","pricing_plan_id":"cebpf4jnsgd1na2vs0mg"},{"bike_id":"b7ae5eed-8594-44cc-a597-36d96f60e81d","system_id":"levelo_inurba_marseille","lat":43.26566,"lon":5.39034,"is_reserved":false,"is_disabled":false,"rental_uris":{"android":"levelo://app?vid=b7ae5eed-8594-44cc-a597-36d96f60e81d","ios":"levelo://app?vid=b7ae5eed-8594-44cc-a597-36d96f60e81d"},"vehicle_type_id":"4","last_reported":1727420941,"current_range_meters":38800,"station_id":"ce4bhe12rcd13ifvqf30","pricing_plan_id":"cebpf4jnsgd1na2vs0mg"},{"bike_id":"f4261619-f054-436d-84de-9759d6a8d43b","system_id":"levelo_inurba_marseille","lat":43.30465,"lon":5.37896,"is_reserved":false,"is_disabled":false,"rental_uris":{"android":"levelo://app?vid=f4261619-f054-436d-84de-9759d6a8d43b","ios":"levelo://app?vid=f4261619-f054-436d-84de-9759d6a8d43b"},"vehicle_type_id":"4","last_reported":1727420941,"current_range_meters":39200,"station_id":"ce4bgup2rcd13ifvqcn0","pricing_plan_id":"cebpf4jnsgd1na2vs0mg"},{"bike_id":"0cbbdaca-f064-4563-afaf-af2b915d9adb","system_id":"levelo_inurba_marseille","lat":43.28929,"lon":5.36383,"is_reserved":false,"is_disabled":false,"rental_uris":{"android":"levelo://app?vid=0cbbdaca-f064-4563-afaf-af2b915d9adb","ios":"levelo://app?vid=0cbbdaca-f064-4563-afaf-af2b915d9adb"},"vehicle_type_id":"4","last_reported":1727420941,"current_range_meters":28000,"station_id":"ce4bhc92rcd13ifvqetg","pricing_plan_id":"cebpf4jnsgd1na2vs0mg"},{"bike_id":"7b33f41d-0200-4116-a58f-1c3c2b5721c2","system_id":"levelo_inurba_marseille","lat":43.28468,"lon":5.38406,"is_reserved":false,"is_disabled":false,"rental_uris":{"android":"levelo://app?vid=7b33f41d-0200-4116-a58f-1c3c2b5721c2","ios":"levelo://app?vid=7b33f41d-0200-4116-a58f-1c3c2b5721c2"},"vehicle_type_id":"4","last_reported":1727420941,"current_range_meters":38800,"station_id":"ce4bh512rcd13ifvqe3g","pricing_plan_id":"cebpf4jnsgd1na2vs0mg"},{"bike_id":"1004d0e9-4e1e-47aa-ab6f-558848e82eb7","system_id":"levelo_inurba_marseille","lat":43.26946,"lon":5.38631,"is_reserved":false,"is_disabled":false,"rental_uris":{"android":"levelo://app?vid=1004d0e9-4e1e-47aa-ab6f-558848e82eb7","ios":"levelo://app?vid=1004d0e9-4e1e-47aa-ab6f-558848e82eb7"},"vehicle_type_id":"4","last_reported":1727420941,"current_range_meters":38800,"station_id":"ce4bhh92rcd13ifvqfh0","pricing_plan_id":"cebpf4jnsgd1na2vs0mg"},{"bike_id":"7a221aff-a308-4e51-bd6c-3606a6928c42","system_id":"levelo_inurba_marseille","lat":43.28482,"lon":5.3897,"is_reserved":false,"is_disabled":false,"rental_uris":{"android":"levelo://app?vid=7a221aff-a308-4e51-bd6c-3606a6928c42","ios":"levelo://app?vid=7a221aff-a308-4e51-bd6c-3606a6928c42"},"vehicle_type_id":"4","last_reported":1727420941,"current_range_meters":37600,"station_id":"","pricing_plan_id":"cebpf4jnsgd1na2vs0mg"},{"bike_id":"999ca916-32e1-4e3d-aa5e-4b3870970076","system_id":"levelo_inurba_marseille","lat":43.31482,"lon":5.37305,"is_reserved":false,"is_disabled":false,"rental_uris":{"android":"levelo://app?vid=999ca916-32e1-4e3d-aa5e-4b3870970076","ios":"levelo://app?vid=999ca916-32e1-4e3d-aa5e-4b3870970076"},"vehicle_type_id":"4","last_reported":1727420941,"current_range_meters":4800,"station_id":"ce4bgt12rcd13ifvqcd0","pricing_plan_id":"cebpf4jnsgd1na2vs0mg"},{"bike_id":"e17e3ba9-1bd3-4f83-adbc-5dc83a153375","system_id":"levelo_inurba_marseille","lat":43.32001,"lon":5.38144,"is_reserved":false,"is_disabled":false,"rental_uris":{"android":"levelo://app?vid=e17e3ba9-1bd3-4f83-adbc-5dc83a153375","ios":"levelo://app?vid=e17e3ba9-1bd3-4f83-adbc-5dc83a153375"},"vehicle_type_id":"4","last_reported":1727420941,"current_range_meters":6400,"station_id":"ce4bhr12rcd13ifvqhpg","pricing_plan_id":"cebpf4jnsgd1na2vs0mg"},{"bike_id":"a302099f-556c-4a93-86fe-8282e5b59737","system_id":"levelo_inurba_marseille","lat":43.289154,"lon":5.396234,"is_reserved":false,"is_disabled":false,"rental_uris":{"android":"levelo://app?vid=a302099f-556c-4a93-86fe-8282e5b59737","ios":"levelo://app?vid=a302099f-556c-4a93-86fe-8282e5b59737"},"vehicle_type_id":"4","last_reported":1727420941,"current_range_meters":2800,"station_id":"ce4bhmp2rcd13ifvqgog","pricing_plan_id":"cebpf4jnsgd1na2vs0mg"},{"bike_id":"07e39731-448f-40d5-9d06-91facf9fcb8e","system_id":"levelo_inurba_marseille","lat":43.32,"lon":5.38156,"is_reserved":false,"is_disabled":false,"rental_uris":{"android":"levelo://app?vid=07e39731-448f-40d5-9d06-91facf9fcb8e","ios":"levelo://app?vid=07e39731-448f-40d5-9d06-91facf9fcb8e"},"vehicle_type_id":"4","last_reported":1727420941,"current_range_meters":28400,"station_id":"ce4bhr12rcd13ifvqhpg","pricing_plan_id":"cebpf4jnsgd1na2vs0mg"},{"bike_id":"8a5475e3-6fbf-4e9b-b650-accf3a939b49","system_id":"levelo_inurba_marseille","lat":43.32482,"lon":5.36569,"is_reserved":false,"is_disabled":false,"rental_uris":{"android":"levelo://app?vid=8a5475e3-6fbf-4e9b-b650-accf3a939b49","ios":"levelo://app?vid=8a5475e3-6fbf-4e9b-b650-accf3a939b49"},"vehicle_type_id":"4","last_reported":1727420941,"current_range_meters":38800,"station_id":"ce4bhs12rcd13ifvqhvg","pricing_plan_id":"cebpf4jnsgd1na2vs0mg"},{"bike_id":"027699da-6e1a-43b1-ae68-183b1e03550f","system_id":"levelo_inurba_marseille","lat":43.28989,"lon":5.37578,"is_reserved":false,"is_disabled":false,"rental_uris":{"android":"levelo://app?vid=027699da-6e1a-43b1-ae68-183b1e03550f","ios":"levelo://app?vid=027699da-6e1a-43b1-ae68-183b1e03550f"},"vehicle_type_id":"4","last_reported":1727420941,"current_range_meters":34800,"station_id":"ce4bh692rcd13ifvqe90","pricing_plan_id":"cebpf4jnsgd1na2vs0mg"},{"bike_id":"cf517e91-9fba-4889-840d-85b4c7dbf3fd","system_id":"levelo_inurba_marseille","lat":43.240725,"lon":5.377572,"is_reserved":false,"is_disabled":false,"rental_uris":{"android":"levelo://app?vid=cf517e91-9fba-4889-840d-85b4c7dbf3fd","ios":"levelo://app?vid=cf517e91-9fba-4889-840d-85b4c7dbf3fd"},"vehicle_type_id":"4","last_reported":1727420941,"current_range_meters":8400,"station_id":"ce4bhnp2rcd13ifvqgvg","pricing_plan_id":"cebpf4jnsgd1na2vs0mg"},{"bike_id":"9b7f8241-2de5-4ff2-b79a-e6d6397561d3","system_id":"levelo_inurba_marseille","lat":43.29185,"lon":5.3931,"is_reserved":false,"is_disabled":false,"rental_uris":{"android":"levelo://app?vid=9b7f8241-2de5-4ff2-b79a-e6d6397561d3","ios":"levelo://app?vid=9b7f8241-2de5-4ff2-b79a-e6d6397561d3"},"vehicle_type_id":"4","last_reported":1727420941,"current_range_meters":24800,"station_id":"ce4bh192rcd13ifvqdd0","pricing_plan_id":"cebpf4jnsgd1na2vs0mg"},{"bike_id":"7cc0438d-889c-458a-86fc-daa6eb95b88a","system_id":"levelo_inurba_marseille","lat":43.32481,"lon":5.36559,"is_reserved":false,"is_disabled":false,"rental_uris":{"android":"levelo://app?vid=7cc0438d-889c-458a-86fc-daa6eb95b88a","ios":"levelo://app?vid=7cc0438d-889c-458a-86fc-daa6eb95b88a"},"vehicle_type_id":"4","last_reported":1727420941,"current_range_meters":34000,"station_id":"ce4bhs12rcd13ifvqhvg","pricing_plan_id":"cebpf4jnsgd1na2vs0mg"},{"bike_id":"c1ec21c7-2165-4e89-8e4a-1434d40ccc11","system_id":"levelo_inurba_marseille","lat":43.2695,"lon":5.38637,"is_reserved":false,"is_disabled":false,"rental_uris":{"android":"levelo://app?vid=c1ec21c7-2165-4e89-8e4a-1434d40ccc11","ios":"levelo://app?vid=c1ec21c7-2165-4e89-8e4a-1434d40ccc11"},"vehicle_type_id":"4","last_reported":1727420941,"current_range_meters":9600,"station_id":"ce4bhh92rcd13ifvqfh0","pricing_plan_id":"cebpf4jnsgd1na2vs0mg"},{"bike_id":"c08accee-e5d3-4920-975b-63f69f519c63","system_id":"levelo_inurba_marseille","lat":43.2586,"lon":5.39901,"is_reserved":false,"is_disabled":false,"rental_uris":{"android":"levelo://app?vid=c08accee-e5d3-4920-975b-63f69f519c63","ios":"levelo://app?vid=c08accee-e5d3-4920-975b-63f69f519c63"},"vehicle_type_id":"4","last_reported":1727420941,"current_range_meters":10800,"station_id":"ce4bhl92rcd13ifvqghg","pricing_plan_id":"cebpf4jnsgd1na2vs0mg"},{"bike_id":"b721e921-074f-403a-bad1-46bc383cd1ce","system_id":"levelo_inurba_marseille","lat":43.30462,"lon":5.37901,"is_reserved":false,"is_disabled":false,"rental_uris":{"android":"levelo://app?vid=b721e921-074f-403a-bad1-46bc383cd1ce","ios":"levelo://app?vid=b721e921-074f-403a-bad1-46bc383cd1ce"},"vehicle_type_id":"4","last_reported":1727420941,"current_range_meters":27600,"station_id":"ce4bgup2rcd13ifvqcn0","pricing_plan_id":"cebpf4jnsgd1na2vs0mg"},{"bike_id":"057127d7-4f70-4a63-bb08-dac72ac1d77e","system_id":"levelo_inurba_marseille","lat":43.26683,"lon":5.38264,"is_reserved":false,"is_disabled":false,"rental_uris":{"android":"levelo://app?vid=057127d7-4f70-4a63-bb08-dac72ac1d77e","ios":"levelo://app?vid=057127d7-4f70-4a63-bb08-dac72ac1d77e"},"vehicle_type_id":"4","last_reported":1727420941,"current_range_meters":28400,"station_id":"ce4bhg92rcd13ifvqf90","pricing_plan_id":"cebpf4jnsgd1na2vs0mg"},{"bike_id":"19d95d56-80d5-4269-9a88-39fdaf7c673c","system_id":"levelo_inurba_marseille","lat":43.24082,"lon":5.37748,"is_reserved":false,"is_disabled":false,"rental_uris":{"android":"levelo://app?vid=19d95d56-80d5-4269-9a88-39fdaf7c673c","ios":"levelo://app?vid=19d95d56-80d5-4269-9a88-39fdaf7c673c"},"vehicle_type_id":"4","last_reported":1727420941,"current_range_meters":28400,"station_id":"ce4bhnp2rcd13ifvqgvg","pricing_plan_id":"cebpf4jnsgd1na2vs0mg"},{"bike_id":"a4000d82-298e-4056-a214-48ed4f832ead","system_id":"levelo_inurba_marseille","lat":43.29212,"lon":5.3609,"is_reserved":false,"is_disabled":false,"rental_uris":{"android":"levelo://app?vid=a4000d82-298e-4056-a214-48ed4f832ead","ios":"levelo://app?vid=a4000d82-298e-4056-a214-48ed4f832ead"},"vehicle_type_id":"4","last_reported":1727420941,"current_range_meters":28800,"station_id":"ce4bhbh2rcd13ifvqeqg","pricing_plan_id":"cebpf4jnsgd1na2vs0mg"},{"bike_id":"37a3adab-d5a4-40be-963c-64b75fb764aa","system_id":"levelo_inurba_marseille","lat":43.30149,"lon":5.38087,"is_reserved":false,"is_disabled":false,"rental_uris":{"android":"levelo://app?vid=37a3adab-d5a4-40be-963c-64b75fb764aa","ios":"levelo://app?vid=37a3adab-d5a4-40be-963c-64b75fb764aa"},"vehicle_type_id":"4","last_reported":1727420941,"current_range_meters":28000,"station_id":"ce4bgjp2rcd13ifvqbh0","pricing_plan_id":"cebpf4jnsgd1na2vs0mg"},{"bike_id":"27051d41-3f9c-43f6-8ef3-239e6e843eb3","system_id":"levelo_inurba_marseille","lat":43.32533,"lon":5.41439,"is_reserved":false,"is_disabled":false,"rental_uris":{"android":"levelo://app?vid=27051d41-3f9c-43f6-8ef3-239e6e843eb3","ios":"levelo://app?vid=27051d41-3f9c-43f6-8ef3-239e6e843eb3"},"vehicle_type_id":"4","last_reported":1727420941,"current_range_meters":29600,"station_id":"ce4bhq12rcd13ifvqhhg","pricing_plan_id":"cebpf4jnsgd1na2vs0mg"},{"bike_id":"b8142d3f-f75b-447a-9d50-583179b0ec51","system_id":"levelo_inurba_marseille","lat":43.3045,"lon":5.37903,"is_reserved":false,"is_disabled":false,"rental_uris":{"android":"levelo://app?vid=b8142d3f-f75b-447a-9d50-583179b0ec51","ios":"levelo://app?vid=b8142d3f-f75b-447a-9d50-583179b0ec51"},"vehicle_type_id":"4","last_reported":1727420941,"current_range_meters":32400,"station_id":"ce4bgup2rcd13ifvqcn0","pricing_plan_id":"cebpf4jnsgd1na2vs0mg"},{"bike_id":"bead9699-b907-4a2a-a272-f6fce676dd6a","system_id":"levelo_inurba_marseille","lat":43.24661,"lon":5.38162,"is_reserved":false,"is_disabled":false,"rental_uris":{"android":"levelo://app?vid=bead9699-b907-4a2a-a272-f6fce676dd6a","ios":"levelo://app?vid=bead9699-b907-4a2a-a272-f6fce676dd6a"},"vehicle_type_id":"4","last_reported":1727420941,"current_range_meters":38400,"station_id":"ce4bhih2rcd13ifvqfr0","pricing_plan_id":"cebpf4jnsgd1na2vs0mg"},{"bike_id":"a7bca3df-0344-4204-86d7-b742d4769839","system_id":"levelo_inurba_marseille","lat":43.30863,"lon":5.3685,"is_reserved":false,"is_disabled":false,"rental_uris":{"android":"levelo://app?vid=a7bca3df-0344-4204-86d7-b742d4769839","ios":"levelo://app?vid=a7bca3df-0344-4204-86d7-b742d4769839"},"vehicle_type_id":"4","last_reported":1727420941,"current_range_meters":17600,"station_id":"ce4bgn92rcd13ifvqbvg","pricing_plan_id":"cebpf4jnsgd1na2vs0mg"},{"bike_id":"59562d14-07be-4307-84a6-cd5c5d2a9187","system_id":"levelo_inurba_marseille","lat":43.32534,"lon":5.41446,"is_reserved":false,"is_disabled":false,"rental_uris":{"android":"levelo://app?vid=59562d14-07be-4307-84a6-cd5c5d2a9187","ios":"levelo://app?vid=59562d14-07be-4307-84a6-cd5c5d2a9187"},"vehicle_type_id":"4","last_reported":1727420941,"current_range_meters":36400,"station_id":"ce4bhq12rcd13ifvqhhg","pricing_plan_id":"cebpf4jnsgd1na2vs0mg"},{"bike_id":"42d35722-775d-4264-a8f1-49b6e9f3e555","system_id":"levelo_inurba_marseille","lat":43.25937,"lon":5.40905,"is_reserved":false,"is_disabled":false,"rental_uris":{"android":"levelo://app?vid=42d35722-775d-4264-a8f1-49b6e9f3e555","ios":"levelo://app?vid=42d35722-775d-4264-a8f1-49b6e9f3e555"},"vehicle_type_id":"4","last_reported":1727420941,"current_range_meters":2000,"station_id":"ce4bhm92rcd13ifvqglg","pricing_plan_id":"cebpf4jnsgd1na2vs0mg"},{"bike_id":"546a1bb6-ec80-485c-8b1e-bb866a56741e","system_id":"levelo_inurba_marseille","lat":43.33605,"lon":5.41031,"is_reserved":false,"is_disabled":false,"rental_uris":{"android":"levelo://app?vid=546a1bb6-ec80-485c-8b1e-bb866a56741e","ios":"levelo://app?vid=546a1bb6-ec80-485c-8b1e-bb866a56741e"},"vehicle_type_id":"4","last_reported":1727420941,"current_range_meters":22000,"station_id":"ce4bhqh2rcd13ifvqhmg","pricing_plan_id":"cebpf4jnsgd1na2vs0mg"},{"bike_id":"27ea19f8-1a94-42e0-9759-65df1700c50d","system_id":"levelo_inurba_marseille","lat":43.2835,"lon":5.38101,"is_reserved":false,"is_disabled":false,"rental_uris":{"android":"levelo://app?vid=27ea19f8-1a94-42e0-9759-65df1700c50d","ios":"levelo://app?vid=27ea19f8-1a94-42e0-9759-65df1700c50d"},"vehicle_type_id":"4","last_reported":1727420941,"current_range_meters":19600,"station_id":"ce4bh412rcd13ifvqdr0","pricing_plan_id":"cebpf4jnsgd1na2vs0mg"},{"bike_id":"cd993e98-ab1d-49b3-a81f-d12b73e5d532","system_id":"levelo_inurba_marseille","lat":43.26199,"lon":5.37928,"is_reserved":false,"is_disabled":false,"rental_uris":{"android":"levelo://app?vid=cd993e98-ab1d-49b3-a81f-d12b73e5d532","ios":"levelo://app?vid=cd993e98-ab1d-49b3-a81f-d12b73e5d532"},"vehicle_type_id":"4","last_reported":1727420941,"current_range_meters":37600,"station_id":"ce4bhjp2rcd13ifvqg90","pricing_plan_id":"cebpf4jnsgd1na2vs0mg"},{"bike_id":"a6addce0-6b53-4ddf-bf9c-d50a96dd9e51","system_id":"levelo_inurba_marseille","lat":43.22934,"lon":5.35378,"is_reserved":false,"is_disabled":false,"rental_uris":{"android":"levelo://app?vid=a6addce0-6b53-4ddf-bf9c-d50a96dd9e51","ios":"levelo://app?vid=a6addce0-6b53-4ddf-bf9c-d50a96dd9e51"},"vehicle_type_id":"4","last_reported":1727420941,"current_range_meters":3200,"station_id":"cpo3532slgdg3j2ikp40","pricing_plan_id":"cebpf4jnsgd1na2vs0mg"},{"bike_id":"f86e58ca-2eab-4c36-9203-cab642a140fc","system_id":"levelo_inurba_marseille","lat":43.30468,"lon":5.37911,"is_reserved":false,"is_disabled":false,"rental_uris":{"android":"levelo://app?vid=f86e58ca-2eab-4c36-9203-cab642a140fc","ios":"levelo://app?vid=f86e58ca-2eab-4c36-9203-cab642a140fc"},"vehicle_type_id":"4","last_reported":1727420941,"current_range_meters":39200,"station_id":"ce4bgup2rcd13ifvqcn0","pricing_plan_id":"cebpf4jnsgd1na2vs0mg"},{"bike_id":"c33c0e72-207a-4feb-bf77-0019b71c56cf","system_id":"levelo_inurba_marseille","lat":43.30541,"lon":5.36544,"is_reserved":false,"is_disabled":false,"rental_uris":{"android":"levelo://app?vid=c33c0e72-207a-4feb-bf77-0019b71c56cf","ios":"levelo://app?vid=c33c0e72-207a-4feb-bf77-0019b71c56cf"},"vehicle_type_id":"4","last_reported":1727420941,"current_range_meters":30800,"station_id":"ce4bgs12rcd13ifvqcag","pricing_plan_id":"cebpf4jnsgd1na2vs0mg"},{"bike_id":"4fd96898-ef23-447d-a7ef-0d905f81d47b","system_id":"levelo_inurba_marseille","lat":43.292291,"lon":5.360865,"is_reserved":false,"is_disabled":false,"rental_uris":{"android":"levelo://app?vid=4fd96898-ef23-447d-a7ef-0d905f81d47b","ios":"levelo://app?vid=4fd96898-ef23-447d-a7ef-0d905f81d47b"},"vehicle_type_id":"4","last_reported":1727420941,"current_range_meters":11600,"station_id":"ce4bhbh2rcd13ifvqeqg","pricing_plan_id":"cebpf4jnsgd1na2vs0mg"},{"bike_id":"8a1dc851-694a-4948-80ea-f3eba7201f07","system_id":"levelo_inurba_marseille","lat":43.31299,"lon":5.3675,"is_reserved":false,"is_disabled":false,"rental_uris":{"android":"levelo://app?vid=8a1dc851-694a-4948-80ea-f3eba7201f07","ios":"levelo://app?vid=8a1dc851-694a-4948-80ea-f3eba7201f07"},"vehicle_type_id":"4","last_reported":1727420941,"current_range_meters":17600,"station_id":"","pricing_plan_id":"cebpf4jnsgd1na2vs0mg"},{"bike_id":"d6a23f40-2c57-4bfb-9e40-f3ae43b5dd87","system_id":"levelo_inurba_marseille","lat":43.29066,"lon":5.37175,"is_reserved":false,"is_disabled":false,"rental_uris":{"android":"levelo://app?vid=d6a23f40-2c57-4bfb-9e40-f3ae43b5dd87","ios":"levelo://app?vid=d6a23f40-2c57-4bfb-9e40-f3ae43b5dd87"},"vehicle_type_id":"4","last_reported":1727420941,"current_range_meters":39200,"station_id":"ce4bh5p2rcd13ifvqe4g","pricing_plan_id":"cebpf4jnsgd1na2vs0mg"},{"bike_id":"441a5c82-08e2-4c4d-9276-90a53141032e","system_id":"levelo_inurba_marseille","lat":43.27376,"lon":5.36255,"is_reserved":false,"is_disabled":false,"rental_uris":{"android":"levelo://app?vid=441a5c82-08e2-4c4d-9276-90a53141032e","ios":"levelo://app?vid=441a5c82-08e2-4c4d-9276-90a53141032e"},"vehicle_type_id":"4","last_reported":1727420941,"current_range_meters":38800,"station_id":"ce4bhbh2rcd13ifvqeo0","pricing_plan_id":"cebpf4jnsgd1na2vs0mg"},{"bike_id":"6aaa10ea-bb47-4276-a1b9-16b785a9c9f0","system_id":"levelo_inurba_marseille","lat":43.29516,"lon":5.37499,"is_reserved":false,"is_disabled":false,"rental_uris":{"android":"levelo://app?vid=6aaa10ea-bb47-4276-a1b9-16b785a9c9f0","ios":"levelo://app?vid=6aaa10ea-bb47-4276-a1b9-16b785a9c9f0"},"vehicle_type_id":"4","last_reported":1727420941,"current_range_meters":29600,"station_id":"ce4bgkp2rcd13ifvqbmg","pricing_plan_id":"cebpf4jnsgd1na2vs0mg"},{"bike_id":"4a4bfd88-bdfc-4802-b3a8-e798e4274727","system_id":"levelo_inurba_marseille","lat":43.32284,"lon":5.38247,"is_reserved":false,"is_disabled":false,"rental_uris":{"android":"levelo://app?vid=4a4bfd88-bdfc-4802-b3a8-e798e4274727","ios":"levelo://app?vid=4a4bfd88-bdfc-4802-b3a8-e798e4274727"},"vehicle_type_id":"4","last_reported":1727420941,"current_range_meters":19200,"station_id":"ce4bhr12rcd13ifvqhqg","pricing_plan_id":"cebpf4jnsgd1na2vs0mg"},{"bike_id":"50c1345c-e0ca-47d3-93ad-30c0de55ed2b","system_id":"levelo_inurba_marseille","lat":43.3414,"lon":5.40906,"is_reserved":false,"is_disabled":false,"rental_uris":{"android":"levelo://app?vid=50c1345c-e0ca-47d3-93ad-30c0de55ed2b","ios":"levelo://app?vid=50c1345c-e0ca-47d3-93ad-30c0de55ed2b"},"vehicle_type_id":"4","last_reported":1727420941,"current_range_meters":10800,"station_id":"ce4bhqh2rcd13ifvqhlg","pricing_plan_id":"cebpf4jnsgd1na2vs0mg"},{"bike_id":"3efef019-cfce-47f6-8743-95ec063d3569","system_id":"levelo_inurba_marseille","lat":43.25825,"lon":5.39425,"is_reserved":false,"is_disabled":false,"rental_uris":{"android":"levelo://app?vid=3efef019-cfce-47f6-8743-95ec063d3569","ios":"levelo://app?vid=3efef019-cfce-47f6-8743-95ec063d3569"},"vehicle_type_id":"4","last_reported":1727420941,"current_range_meters":38400,"station_id":"ce4bhip2rcd13ifvqft0","pricing_plan_id":"cebpf4jnsgd1na2vs0mg"},{"bike_id":"2ba09575-244f-487f-8743-7cdef664b4d1","system_id":"levelo_inurba_marseille","lat":43.29895,"lon":5.43674,"is_reserved":false,"is_disabled":false,"rental_uris":{"android":"levelo://app?vid=2ba09575-244f-487f-8743-7cdef664b4d1","ios":"levelo://app?vid=2ba09575-244f-487f-8743-7cdef664b4d1"},"vehicle_type_id":"4","last_reported":1727420941,"current_range_meters":13600,"station_id":"ce4bhpp2rcd13ifvqhfg","pricing_plan_id":"cebpf4jnsgd1na2vs0mg"},