{"last_updated":1730380671,"ttl":60,"version":"2.2","data":{"bikes":[{"bike_id":"d9d70331-c3c5-4ee1-a309-c2182f140a98","system_id":"levelo_inurba_marseille","lat":43.30781,"lon":5.37641,"is_reserved":false,"is_disabled":false,"rental_uris":{"android":"levelo://app?vid=d9d70331-c3c5-4ee1-a309-c2182f140a98","ios":"levelo://app?vid=d9d70331-c3c5-4ee1-a309-c2182f140a98"},"vehicle_type_id":"4","last_reported":1730380671,"current_range_meters":35200,"station_id":"ce4bgv92rcd13ifvqcq0","pricing_plan_id":"cebpf4jnsgd1na2vs0mg"},{"bike_id":"e4bbc832-436f-482e-8a94-66135373f59d","system_id":"levelo_inurba_marseille","lat":43.31349,"lon":5.36717,"is_reserved":false,"is_disabled":false,"rental_uris":{"android":"levelo://app?vid=e4bbc832-436f-482e-8a94-66135373f59d","ios":"levelo://app?vid=e4bbc832-436f-482e-8a94-66135373f59d"},"vehicle_type_id":"4","last_reported":1730380671,"current_range_meters":38400,"station_id":"ce4bgr92rcd13ifvqc6g","pricing_plan_id":"cebpf4jnsgd1na2vs0mg"},{"bike_id":"e36513f8-eb97-4b97-ab7b-45b82b211f60","system_id":"levelo_inurba_marseille","lat":43.25581,"lon":5.38233,"is_reserved":false,"is_disabled":false,"rental_uris":{"android":"levelo://app?vid=e36513f8-eb97-4b97-ab7b-45b82b211f60","ios":"levelo://app?vid=e36513f8-eb97-4b97-ab7b-45b82b211f60"},"vehicle_type_id":"4","last_reported":1730380671,"current_range_meters":39200,"station_id":"ce4bhih2rcd13ifvqfs0","pricing_plan_id":"cebpf4jnsgd1na2vs0mg"},{"bike_id":"874b1dbe-9552-496d-9bc1-26d2fcb8136c","system_id":"levelo_inurba_marseille","lat":43.30914,"lon":5.36853,"is_reserved":false,"is_disabled":false,"rental_uris":{"android":"levelo://app?vid=874b1dbe-9552-496d-9bc1-26d2fcb8136c","ios":"levelo://app?vid=874b1dbe-9552-496d-9bc1-26d2fcb8136c"},"vehicle_type_id":"4","last_reported":1730380671,"current_range_meters":24800,"station_id":"ce4bgn92rcd13ifvqbvg","pricing_plan_id":"cebpf4jnsgd1na2vs0mg"},{"bike_id":"313a1616-f9f2-4d16-a928-eb2c875662ce","system_id":"levelo_inurba_marseille","lat":43.30139,"lon":5.3743,"is_reserved":false,"is_disabled":false,"rental_uris":{"android":"levelo://app?vid=313a1616-f9f2-4d16-a928-eb2c875662ce","ios":"levelo://app?vid=313a1616-f9f2-4d16-a928-eb2c875662ce"},"vehicle_type_id":"4","last_reported":1730380671,"current_range_meters":38000,"station_id":"ce4bgs92rcd13ifvqcc0","pricing_plan_id":"cebpf4jnsgd1na2vs0mg"},{"bike_id":"f64c1e7d-3ae9-4dfc-8ec2-0a90d036364f","system_id":"levelo_inurba_marseille","lat":43.32113,"lon":5.36771,"is_reserved":false,"is_disabled":false,"rental_uris":{"android":"levelo://app?vid=f64c1e7d-3ae9-4dfc-8ec2-0a90d036364f","ios":"levelo://app?vid=f64c1e7d-3ae9-4dfc-8ec2-0a90d036364f"},"vehicle_type_id":"4","last_reported":1730380671,"current_range_meters":21600,"station_id":"ce4bhrh2rcd13ifvqhug","pricing_plan_id":"cebpf4jnsgd1na2vs0mg"},{"bike_id":"8041ef37-2710-463f-98ad-6b8bd39bb73a","system_id":"levelo_inurba_marseille","lat":43.29302,"lon":5.37463,"is_reserved":false,"is_disabled":false,"rental_uris":{"android":"levelo://app?vid=8041ef37-2710-463f-98ad-6b8bd39bb73a","ios":"levelo://app?vid=8041ef37-2710-463f-98ad-6b8bd39bb73a"},"vehicle_type_id":"4","last_reported":1730380671,"current_range_meters":28400,"station_id":"ce4bgi12rcd13ifvqb70","pricing_plan_id":"cebpf4jnsgd1na2vs0mg"},{"bike_id":"c4a0aaf2-51c9-448f-8198-3d8a3d1d5dae","system_id":"levelo_inurba_marseille","lat":43.30915,"lon":5.36849,"is_reserved":false,"is_disabled":false,"rental_uris":{"android":"levelo://app?vid=c4a0aaf2-51c9-448f-8198-3d8a3d1d5dae","ios":"levelo://app?vid=c4a0aaf2-51c9-448f-8198-3d8a3d1d5dae"},"vehicle_type_id":"4","last_reported":1730380671,"current_range_meters":28000,"station_id":"ce4bgn92rcd13ifvqbvg","pricing_plan_id":"cebpf4jnsgd1na2vs0mg"},{"bike_id":"28899d92-81e2-40ce-9f5a-75afab0713ad","system_id":"levelo_inurba_marseille","lat":43.295242,"lon":5.37507,"is_reserved":false,"is_disabled":false,"rental_uris":{"android":"levelo://app?vid=28899d92-81e2-40ce-9f5a-75afab0713ad","ios":"levelo://app?vid=28899d92-81e2-40ce-9f5a-75afab0713ad"},"vehicle_type_id":"4","last_reported":1730380671,"current_range_meters":38800,"station_id":"ce4bgkp2rcd13ifvqbmg","pricing_plan_id":"cebpf4jnsgd1na2vs0mg"},{"bike_id":"8ed3bf52-a167-4a02-ab69-e6e16965e9fa","system_id":"levelo_inurba_marseille","lat":43.29024,"lon":5.3814,"is_reserved":false,"is_disabled":false,"rental_uris":{"android":"levelo://app?vid=8ed3bf52-a167-4a02-ab69-e6e16965e9fa","ios":"levelo://app?vid=8ed3bf52-a167-4a02-ab69-e6e16965e9fa"},"vehicle_type_id":"4","last_reported":1730380671,"current_range_meters":38800,"station_id":"ce4bh4p2rcd13ifvqe1g","pricing_plan_id":"cebpf4jnsgd1na2vs0mg"},{"bike_id":"bceb470c-5961-46ca-8bf8-39aceec2ee89","system_id":"levelo_inurba_marseille","lat":43.30544,"lon":5.36529,"is_reserved":false,"is_disabled":false,"rental_uris":{"android":"levelo://app?vid=bceb470c-5961-46ca-8bf8-39aceec2ee89","ios":"levelo://app?vid=bceb470c-5961-46ca-8bf8-39aceec2ee89"},"vehicle_type_id":"4","last_reported":1730380671,"current_range_meters":32400,"station_id":"ce4bgs12rcd13ifvqcag","pricing_plan_id":"cebpf4jnsgd1na2vs0mg"},{"bike_id":"658d6f9a-b18e-49b0-a425-568f639a6f4d","system_id":"levelo_inurba_marseille","lat":43.29039,"lon":5.37555,"is_reserved":false,"is_disabled":false,"rental_uris":{"android":"levelo://app?vid=658d6f9a-b18e-49b0-a425-568f639a6f4d","ios":"levelo://app?vid=658d6f9a-b18e-49b0-a425-568f639a6f4d"},"vehicle_type_id":"4","last_reported":1730380671,"current_range_meters":28000,"station_id":"ce4bh692rcd13ifvqe90","pricing_plan_id":"cebpf4jnsgd1na2vs0mg"},{"bike_id":"b0b75e9d-1c91-419f-9bb8-9b2ff2a8551b","system_id":"levelo_inurba_marseille","lat":43.27058,"lon":5.40256,"is_reserved":false,"is_disabled":false,"rental_uris":{"android":"levelo://app?vid=b0b75e9d-1c91-419f-9bb8-9b2ff2a8551b","ios":"levelo://app?vid=b0b75e9d-1c91-419f-9bb8-9b2ff2a8551b"},"vehicle_type_id":"4","last_reported":1730380671,"current_range_meters":19200,"station_id":"ce4bhk92rcd13ifvqgc0","pricing_plan_id":"cebpf4jnsgd1na2vs0mg"},{"bike_id":"a4627486-a087-47d1-bdea-e9476cd49986","system_id":"levelo_inurba_marseille","lat":43.23184,"lon":5.35547,"is_reserved":false,"is_disabled":false,"rental_uris":{"android":"levelo://app?vid=a4627486-a087-47d1-bdea-e9476cd49986","ios":"levelo://app?vid=a4627486-a087-47d1-bdea-e9476cd49986"},"vehicle_type_id":"4","last_reported":1730380671,"current_range_meters":4400,"station_id":"ce4bhu92rcd13ifvqi70","pricing_plan_id":"cebpf4jnsgd1na2vs0mg"},{"bike_id":"a4913636-2ab4-4f65-b3b2-827376776b2c","system_id":"levelo_inurba_marseille","lat":43.22931,"lon":5.35372,"is_reserved":false,"is_disabled":false,"rental_uris":{"android":"levelo://app?vid=a4913636-2ab4-4f65-b3b2-827376776b2c","ios":"levelo://app?vid=a4913636-2ab4-4f65-b3b2-827376776b2c"},"vehicle_type_id":"4","last_reported":1730380671,"current_range_meters":14400,"station_id":"cpo3532slgdg3j2ikp40","pricing_plan_id":"cebpf4jnsgd1na2vs0mg"},{"bike_id":"fc2b9f85-5896-4429-8819-fd3ef1645333","system_id":"levelo_inurba_marseille","lat":43.291473,"lon":5.368535,"is_reserved":false,"is_disabled":false,"rental_uris":{"android":"levelo://app?vid=fc2b9f85-5896-4429-8819-fd3ef1645333","ios":"levelo://app?vid=fc2b9f85-5896-4429-8819-fd3ef1645333"},"vehicle_type_id":"4","last_reported":1730380671,"current_range_meters":26800,"station_id":"ce4bgh92rcd13ifvqb50","pricing_plan_id":"cebpf4jnsgd1na2vs0mg"},{"bike_id":"e35a8ca0-a448-45a9-9f0c-b3ec619fcd4b","system_id":"levelo_inurba_marseille","lat":43.30532,"lon":5.36543,"is_reserved":false,"is_disabled":false,"rental_uris":{"android":"levelo://app?vid=e35a8ca0-a448-45a9-9f0c-b3ec619fcd4b","ios":"levelo://app?vid=e35a8ca0-a448-45a9-9f0c-b3ec619fcd4b"},"vehicle_type_id":"4","last_reported":1730380671,"current_range_meters":38800,"station_id":"ce4bgs12rcd13ifvqcag","pricing_plan_id":"cebpf4jnsgd1na2vs0mg"},{"bike_id":"bbb8dceb-4049-4ab2-902e-e4ef47abeb26","system_id":"levelo_inurba_marseille","lat":43.30432,"lon":5.3678,"is_reserved":false,"is_disabled":false,"rental_uris":{"android":"levelo://app?vid=bbb8dceb-4049-4ab2-902e-e4ef47abeb26","ios":"levelo://app?vid=bbb8dceb-4049-4ab2-902e-e4ef47abeb26"},"vehicle_type_id":"4","last_reported":1730380671,"current_range_meters":26800,"station_id":"ce4bgv92rcd13ifvqcq0","pricing_plan_id":"cebpf4jnsgd1na2vs0mg"},{"bike_id":"4075e605-7e2d-4335-883e-4292dc011012","system_id":"levelo_inurba_marseille","lat":43.23962,"lon":5.36629,"is_reserved":false,"is_disabled":false,"rental_uris":{"android":"levelo://app?vid=4075e605-7e2d-4335-883e-4292dc011012","ios":"levelo://app?vid=4075e605-7e2d-4335-883e-4292dc011012"},"vehicle_type_id":"4","last_reported":1730380671,"current_range_meters":6000,"station_id":"ce4bhi12rcd13ifvqfp0","pricing_plan_id":"cebpf4jnsgd1na2vs0mg"},{"bike_id":"604871c7-01b3-4e91-ad66-3472f5cb2bd9","system_id":"levelo_inurba_marseille","lat":43.24166,"lon":5.36395,"is_reserved":false,"is_disabled":false,"rental_uris":{"android":"levelo://app?vid=604871c7-01b3-4e91-ad66-3472f5cb2bd9","ios":"levelo://app?vid=604871c7-01b3-4e91-ad66-3472f5cb2bd9"},"vehicle_type_id":"4","last_reported":1730380671,"current_range_meters":32400,"station_id":"cpo36qri1sfpv3e86is0","pricing_plan_id":"cebpf4jnsgd1na2vs0mg"},{"bike_id":"66f87c05-90dc-43a7-acd2-2870fbee0cc8","system_id":"levelo_inurba_marseille","lat":43.23151,"lon":5.43715,"is_reserved":false,"is_disabled":false,"rental_uris":{"android":"levelo://app?vid=66f87c05-90dc-43a7-acd2-2870fbee0cc8","ios":"levelo://app?vid=66f87c05-90dc-43a7-acd2-2870fbee0cc8"},"vehicle_type_id":"4","last_reported":1730380671,"current_range_meters":37600,"station_id":"ce4bhmp2rcd13ifvqgog","pricing_plan_id":"cebpf4jnsgd1na2vs0mg"},{"bike_id":"9bc67595-6fe8-4e90-8255-08f5025ab439","system_id":"levelo_inurba_marseille","lat":43.29924,"lon":5.37469,"is_reserved":false,"is_disabled":false,"rental_uris":{"android":"levelo://app?vid=9bc67595-6fe8-4e90-8255-08f5025ab439","ios":"levelo://app?vid=9bc67595-6fe8-4e90-8255-08f5025ab439"},"vehicle_type_id":"4","last_reported":1730380671,"current_range_meters":26000,"station_id":"ce4bgjh2rcd13ifvqbg0","pricing_plan_id":"cebpf4jnsgd1na2vs0mg"},{"bike_id":"587272ea-bc76-443c-98ad-a3eba9488ef8","system_id":"levelo_inurba_marseille","lat":43.30141,"lon":5.39869,"is_reserved":false,"is_disabled":false,"rental_uris":{"android":"levelo://app?vid=587272ea-bc76-443c-98ad-a3eba9488ef8","ios":"levelo://app?vid=587272ea-bc76-443c-98ad-a3eba9488ef8"},"vehicle_type_id":"4","last_reported":1730380671,"current_range_meters":7200,"station_id":"ce4bh0h2rcd13ifvqd40","pricing_plan_id":"cebpf4jnsgd1na2vs0mg"},{"bike_id":"4105ae77-5bc3-44c9-8c75-6670ffdb847d","system_id":"levelo_inurba_marseille","lat":43.3078,"lon":5.37648,"is_reserved":false,"is_disabled":false,"rental_uris":{"android":"levelo://app?vid=4105ae77-5bc3-44c9-8c75-6670ffdb847d","ios":"levelo://app?vid=4105ae77-5bc3-44c9-8c75-6670ffdb847d"},"vehicle_type_id":"4","last_reported":1730380671,"current_range_meters":37600,"station_id":"ce4bgv92rcd13ifvqcq0","pricing_plan_id":"cebpf4jnsgd1na2vs0mg"},{"bike_id":"3c6bb99b-abaf-4d28-b749-2f47c3260693","system_id":"levelo_inurba_marseille","lat":43.33758,"lon":5.37469,"is_reserved":false,"is_disabled":false,"rental_uris":{"android":"levelo://app?vid=3c6bb99b-abaf-4d28-b749-2f47c3260693","ios":"levelo://app?vid=3c6bb99b-abaf-4d28-b749-2f47c3260693"},"vehicle_type_id":"4","last_reported":1730380671,"current_range_meters":37600,"station_id":"","pricing_plan_id":"cebpf4jnsgd1na2vs0mg"},{"bike_id":"a3f96a9a-9d15-4a14-8312-cd4203db9dfa","system_id":"levelo_inurba_marseille","lat":43.28847,"lon":5.39304,"is_reserved":false,"is_disabled":false,"rental_uris":{"android":"levelo://app?vid=a3f96a9a-9d15-4a14-8312-cd4203db9dfa","ios":"levelo://app?vid=a3f96a9a-9d15-4a14-8312-cd4203db9dfa"},"vehicle_type_id":"4","last_reported":1730380671,"current_range_meters":38800,"station_id":"ce4bh2p2rcd13ifvqdi0","pricing_plan_id":"cebpf4jnsgd1na2vs0mg"},{"bike_id":"6e68dc19-dedc-495b-9422-66bbfa8cbb0a","system_id":"levelo_inurba_marseille","lat":43.24384,"lon":5.37051,"is_reserved":false,"is_disabled":false,"rental_uris":{"android":"levelo://app?vid=6e68dc19-dedc-495b-9422-66bbfa8cbb0a","ios":"levelo://app?vid=6e68dc19-dedc-495b-9422-66bbfa8cbb0a"},"vehicle_type_id":"4","last_reported":1730380671,"current_range_meters":35600,"station_id":"ce4bhhh2rcd13ifvqfk0","pricing_plan_id":"cebpf4jnsgd1na2vs0mg"},{"bike_id":"26526880-9924-44a8-9c9b-748580ceb7eb","system_id":"levelo_inurba_marseille","lat":43.29035,"lon":5.39957,"is_reserved":false,"is_disabled":false,"rental_uris":{"android":"levelo://app?vid=26526880-9924-44a8-9c9b-748580ceb7eb","ios":"levelo://app?vid=26526880-9924-44a8-9c9b-748580ceb7eb"},"vehicle_type_id":"4","last_reported":1730380671,"current_range_meters":16400,"station_id":"ce4bh392rcd13ifvqdm0","pricing_plan_id":"cebpf4jnsgd1na2vs0mg"},{"bike_id":"f407d840-667e-416f-a14e-cf1a3922b533","system_id":"levelo_inurba_marseille","lat":43.29919,"lon":5.37457,"is_reserved":false,"is_disabled":false,"rental_uris":{"android":"levelo://app?vid=f407d840-667e-416f-a14e-cf1a3922b533","ios":"levelo://app?vid=f407d840-667e-416f-a14e-cf1a3922b533"},"vehicle_type_id":"4","last_reported":1730380671,"current_range_meters":39200,"station_id":"ce4bgjh2rcd13ifvqbg0","pricing_plan_id":"cebpf4jnsgd1na2vs0mg"},{"bike_id":"a0fb4926-1135-47fb-84d2-20212e66df5a","system_id":"levelo_inurba_marseille","lat":43.29526,"lon":5.39403,"is_reserved":false,"is_disabled":false,"rental_uris":{"android":"levelo://app?vid=a0fb4926-1135-47fb-84d2-20212e66df5a","ios":"levelo://app?vid=a0fb4926-1135-47fb-84d2-20212e66df5a"},"vehicle_type_id":"4","last_reported":1730380671,"current_range_meters":16000,"station_id":"ce4bh292rcd13ifvqdf0","pricing_plan_id":"cebpf4jnsgd1na2vs0mg"},{"bike_id":"8b049b91-cb4b-4f38-bffb-00ce29c795e2","system_id":"levelo_inurba_marseille","lat":43.27947,"lon":5.41041,"is_reserved":false,"is_disabled":false,"rental_uris":{"android":"levelo://app?vid=8b049b91-cb4b-4f38-bffb-00ce29c795e2","ios":"levelo://app?vid=8b049b91-cb4b-4f38-bffb-00ce29c795e2"},"vehicle_type_id":"4","last_reported":1730380671,"current_range_meters":35600,"station_id":"ce4bhnp2rcd13ifvqh0g","pricing_plan_id":"cebpf4jnsgd1na2vs0mg"},{"bike_id":"327a54a1-6731-42d1-84d8-1ec906b0ebe8","system_id":"levelo_inurba_marseille","lat":43.25936,"lon":5.40907,"is_reserved":false,"is_disabled":false,"rental_uris":{"android":"levelo://app?vid=327a54a1-6731-42d1-84d8-1ec906b0ebe8","ios":"levelo://app?vid=327a54a1-6731-42d1-84d8-1ec906b0ebe8"},"vehicle_type_id":"4","last_reported":1730380671,"current_range_meters":26000,"station_id":"ce4bhm92rcd13ifvqglg","pricing_plan_id":"cebpf4jnsgd1na2vs0mg"},{"bike_id":"60dbf5d2-7e98-4960-aab5-8fb8cb71004d","system_id":"levelo_inurba_marseille","lat":43.29567,"lon":5.39968,"is_reserved":false,"is_disabled":false,"rental_uris":{"android":"levelo://app?vid=60dbf5d2-7e98-4960-aab5-8fb8cb71004d","ios":"levelo://app?vid=60dbf5d2-7e98-4960-aab5-8fb8cb71004d"},"vehicle_type_id":"4","last_reported":1730380671,"current_range_meters":36400,"station_id":"ce4bh312rcd13ifvqdj0","pricing_plan_id":"cebpf4jnsgd1na2vs0mg"},{"bike_id":"516078c7-5dda-49bb-babc-50d50be44140","system_id":"levelo_inurba_marseille","lat":43.27612,"lon":5.36111,"is_reserved":false,"is_disabled":false,"rental_uris":{"android":"levelo://app?vid=516078c7-5dda-49bb-babc-50d50be44140","ios":"levelo://app?vid=516078c7-5dda-49bb-babc-50d50be44140"},"vehicle_type_id":"4","last_reported":1730380671,"current_range_meters":38800,"station_id":"ce4bgj92rcd13ifvqbe0","pricing_plan_id":"cebpf4jnsgd1na2vs0mg"},{"bike_id":"02bc29e1-9976-44ef-bcb8-2f90d43f13d4","system_id":"levelo_inurba_marseille","lat":43.28996,"lon":5.35604,"is_reserved":false,"is_disabled":false,"rental_uris":{"android":"levelo://app?vid=02bc29e1-9976-44ef-bcb8-2f90d43f13d4","ios":"levelo://app?vid=02bc29e1-9976-44ef-bcb8-2f90d43f13d4"},"vehicle_type_id":"4","last_reported":1730380671,"current_range_meters":32400,"station_id":"ce4bhb92rcd13ifvqen0","pricing_plan_id":"cebpf4jnsgd1na2vs0mg"},{"bike_id":"01418213-fca2-4679-bafb-d4ac6664e789","system_id":"levelo_inurba_marseille","lat":43.29753,"lon":5.39903,"is_reserved":false,"is_disabled":false,"rental_uris":{"android":"levelo://app?vid=01418213-fca2-4679-bafb-d4ac6664e789","ios":"levelo://app?vid=01418213-fca2-4679-bafb-d4ac6664e789"},"vehicle_type_id":"4","last_reported":1730380671,"current_range_meters":36400,"station_id":"","pricing_plan_id":"cebpf4jnsgd1na2vs0mg"},{"bike_id":"6a843341-6254-43a7-a7e3-53d208a383c6","system_id":"levelo_inurba_marseille","lat":43.28854,"lon":5.39314,"is_reserved":false,"is_disabled":false,"rental_uris":{"android":"levelo://app?vid=6a843341-6254-43a7-a7e3-53d208a383c6","ios":"levelo://app?vid=6a843341-6254-43a7-a7e3-53d208a383c6"},"vehicle_type_id":"4","last_reported":1730380671,"current_range_meters":15200,"station_id":"ce4bh2p2rcd13ifvqdi0","pricing_plan_id":"cebpf4jnsgd1na2vs0mg"},{"bike_id":"7ab2f1bd-7151-4559-9622-b212f0480b3f","system_id":"levelo_inurba_marseille","lat":43.25726,"lon":5.41105,"is_reserved":false,"is_disabled":false,"rental_uris":{"android":"levelo://app?vid=7ab2f1bd-7151-4559-9622-b212f0480b3f","ios":"levelo://app?vid=7ab2f1bd-7151-4559-9622-b212f0480b3f"},"vehicle_type_id":"4","last_reported":1730380671,"current_range_meters":28800,"station_id":"ce4bhkp2rcd13ifvqgd0","pricing_plan_id":"cebpf4jnsgd1na2vs0mg"},{"bike_id":"ac2eccd0-69ff-4ddb-ac24-7558056fa7be","system_id":"levelo_inurba_marseille","lat":43.24166,"lon":5.36397,"is_reserved":false,"is_disabled":false,"rental_uris":{"android":"levelo://app?vid=ac2eccd0-69ff-4ddb-ac24-7558056fa7be","ios":"levelo://app?vid=ac2eccd0-69ff-4ddb-ac24-7558056fa7be"},"vehicle_type_id":"4","last_reported":1730380671,"current_range_meters":22800,"station_id":"cpo36qri1sfpv3e86is0","pricing_plan_id":"cebpf4jnsgd1na2vs0mg"},{"bike_id":"039237a1-62b7-49b0-b923-049575bce6ab","system_id":"levelo_inurba_marseille","lat":43.29199,"lon":5.35798,"is_reserved":false,"is_disabled":false,"rental_uris":{"android":"levelo://app?vid=039237a1-62b7-49b0-b923-049575bce6ab","ios":"levelo://app?vid=039237a1-62b7-49b0-b923-049575bce6ab"},"vehicle_type_id":"4","last_reported":1730380671,"current_range_meters":38400,"station_id":"ce4bhb12rcd13ifvqel0","pricing_plan_id":"cebpf4jnsgd1na2vs0mg"},{"bike_id":"42e61598-64ce-4f84-97eb-90c09ebd9abe","system_id":"levelo_inurba_marseille","lat":43.23183,"lon":5.39984,"is_reserved":false,"is_disabled":false,"rental_uris":{"android":"levelo://app?vid=42e61598-64ce-4f84-97eb-90c09ebd9abe","ios":"levelo://app?vid=42e61598-64ce-4f84-97eb-90c09ebd9abe"},"vehicle_type_id":"4","last_reported":1730380671,"current_range_meters":9600,"station_id":"ce4bhn12rcd13ifvqgqg","pricing_plan_id":"cebpf4jnsgd1na2vs0mg"},{"bike_id":"3b66f217-2aba-4fc1-8dcb-0a9f05051932","system_id":"levelo_inurba_marseille","lat":43.29974,"lon":5.38491,"is_reserved":false,"is_disabled":false,"rental_uris":{"android":"levelo://app?vid=3b66f217-2aba-4fc1-8dcb-0a9f05051932","ios":"levelo://app?vid=3b66f217-2aba-4fc1-8dcb-0a9f05051932"},"vehicle_type_id":"4","last_reported":1730380671,"current_range_meters":23200,"station_id":"ce4bgj92rcd13ifvqbd0","pricing_plan_id":"cebpf4jnsgd1na2vs0mg"},{"bike_id":"750f63de-4a1f-4a52-aacb-cf0c010fdd50","system_id":"levelo_inurba_marseille","lat":43.29269,"lon":5.36841,"is_reserved":false,"is_disabled":false,"rental_uris":{"android":"levelo://app?vid=750f63de-4a1f-4a52-aacb-cf0c010fdd50","ios":"levelo://app?vid=750f63de-4a1f-4a52-aacb-cf0c010fdd50"},"vehicle_type_id":"4","last_reported":1730380671,"current_range_meters":20800,"station_id":"ce4bhbp2rcd13ifvqesg","pricing_plan_id":"cebpf4jnsgd1na2vs0mg"},{"bike_id":"ebfe7f24-065e-4c84-a8d4-741e1138b83a","system_id":"levelo_inurba_marseille","lat":43.31272,"lon":5.40174,"is_reserved":false,"is_disabled":false,"rental_uris":{"android":"levelo://app?vid=ebfe7f24-065e-4c84-a8d4-741e1138b83a","ios":"levelo://app?vid=ebfe7f24-065e-4c84-a8d4-741e1138b83a"},"vehicle_type_id":"4","last_reported":1730380671,"current_range_meters":9200,"station_id":"ce4bh092rcd13ifvqd30","pricing_plan_id":"cebpf4jnsgd1na2vs0mg"},{"bike_id":"1cba36be-d9df-4737-9943-7f896850e896","system_id":"levelo_inurba_marseille","lat":43.30311,"lon":5.36887,"is_reserved":false,"is_disabled":false,"rental_uris":{"android":"levelo://app?vid=1cba36be-d9df-4737-9943-7f896850e896","ios":"levelo://app?vid=1cba36be-d9df-4737-9943-7f896850e896"},"vehicle_type_id":"4","last_reported":1730380671,"current_range_meters":30000,"station_id":"ce4bgqh2rcd13ifvqc5g","pricing_plan_id":"cebpf4jnsgd1na2vs0mg"},{"bike_id":"c573c73f-75e4-475a-bcd6-666ce297695e","system_id":"levelo_inurba_marseille","lat":43.23181,"lon":5.39984,"is_reserved":false,"is_disabled":false,"rental_uris":{"android":"levelo://app?vid=c573c73f-75e4-475a-bcd6-666ce297695e","ios":"levelo://app?vid=c573c73f-75e4-475a-bcd6-666ce297695e"},"vehicle_type_id":"4","last_reported":1730380671,"current_range_meters":26000,"station_id":"ce4bhn12rcd13ifvqgqg","pricing_plan_id":"cebpf4jnsgd1na2vs0mg"},{"bike_id":"ae821726-a095-4718-a299-3975ab0a7cd4","system_id":"levelo_inurba_marseille","lat":43.28611,"lon":5.35104,"is_reserved":false,"is_disabled":false,"rental_uris":{"android":"levelo://app?vid=ae821726-a095-4718-a299-3975ab0a7cd4","ios":"levelo://app?vid=ae821726-a095-4718-a299-3975ab0a7cd4"},"vehicle_type_id":"4","last_reported":1730380671,"current_range_meters":28800,"station_id":"ce4bhch2rcd13ifvqeug","pricing_plan_id":"cebpf4jnsgd1na2vs0mg"},{"bike_id":"a65b7600-bc14-4cb1-bd98-91e0257743b9","system_id":"levelo_inurba_marseille","lat":43.24071,"lon":5.37753,"is_reserved":false,"is_disabled":false,"rental_uris":{"android":"levelo://app?vid=a65b7600-bc14-4cb1-bd98-91e0257743b9","ios":"levelo://app?vid=a65b7600-bc14-4cb1-bd98-91e0257743b9"},"vehicle_type_id":"4","last_reported":1730380671,"current_range_meters":6000,"station_id":"ce4bhnp2rcd13ifvqgvg","pricing_plan_id":"cebpf4jnsgd1na2vs0mg"},{"bike_id":"b03dfabb-7f3f-4176-96ea-4ddf0a08b1e0","system_id":"levelo_inurba_marseille","lat":43.28421,"lon":5.3499,"is_reserved":false,"is_disabled":false,"rental_uris":{"android":"levelo://app?vid=b03dfabb-7f3f-4176-96ea-4ddf0a08b1e0","ios":"levelo://app?vid=b03dfabb-7f3f-4176-96ea-4ddf0a08b1e0"},"vehicle_type_id":"4","last_reported":1730380671,"current_range_meters":38800,"station_id":"ce4bhbh2rcd13ifvqepg","pricing_plan_id":"cebpf4jnsgd1na2vs0mg"},{"bike_id":"1549777b-33eb-4a32-9567-d6c31d0710f5","system_id":"levelo_inurba_marseille","lat":43.324784,"lon":5.36565,"is_reserved":false,"is_disabled":false,"rental_uris":{"android":"levelo://app?vid=1549777b-33eb-4a32-9567-d6c31d0710f5","ios":"levelo://app?vid=1549777b-33eb-4a32-9567-d6c31d0710f5"},"vehicle_type_id":"4","last_reported":1730380671,"current_range_meters":36000,"station_id":"ce4bhs12rcd13ifvqhvg","pricing_plan_id":"cebpf4jnsgd1na2vs0mg"},{"bike_id":"60b71c7c-4918-47ba-8287-329d23746782","system_id":"levelo_inurba_marseille","lat":43.29897,"lon":5.43665,"is_reserved":false,"is_disabled":false,"rental_uris":{"android":"levelo://app?vid=60b71c7c-4918-47ba-8287-329d23746782","ios":"levelo://app?vid=60b71c7c-4918-47ba-8287-329d23746782"},"vehicle_type_id":"4","last_reported":1730380671,"current_range_meters":38000,"station_id":"ce4bhpp2rcd13ifvqhfg","pricing_plan_id":"cebpf4jnsgd1na2vs0mg"},{"bike_id":"ba76ec2a-1392-4a03-9d97-caf931a24170","system_id":"levelo_inurba_marseille","lat":43.29004,"lon":5.35616,"is_reserved":false,"is_disabled":false,"rental_uris":{"android":"levelo://app?vid=ba76ec2a-1392-4a03-9d97-caf931a24170","ios":"levelo://app?vid=ba76ec2a-1392-4a03-9d97-caf931a24170"},"vehicle_type_id":"4","last_reported":1730380671,"current_range_meters":38000,"station_id":"ce4bhb92rcd13ifvqen0","pricing_plan_id":"cebpf4jnsgd1na2vs0mg"},{"bike_id":"7402b7e8-b1f4-4735-bca8-18b131717534","system_id":"levelo_inurba_marseille","lat":43.24388,"lon":5.3705,"is_reserved":false,"is_disabled":false,"rental_uris":{"android":"levelo://app?vid=7402b7e8-b1f4-4735-bca8-18b131717534","ios":"levelo://app?vid=7402b7e8-b1f4-4735-bca8-18b131717534"},"vehicle_type_id":"4","last_reported":1730380671,"current_range_meters":38800,"station_id":"ce4bhhh2rcd13ifvqfk0","pricing_plan_id":"cebpf4jnsgd1na2vs0mg"},{"bike_id":"40d57ad7-dd9b-4a0c-82bb-71b50e358eb9","system_id":"levelo_inurba_marseille","lat":43.31192,"lon":5.40127,"is_reserved":false,"is_disabled":false,"rental_uris":{"android":"levelo://app?vid=40d57ad7-dd9b-4a0c-82bb-71b50e358eb9","ios":"levelo://app?vid=40d57ad7-dd9b-4a0c-82bb-71b50e358eb9"},"vehicle_type_id":"4","last_reported":1730380671,"current_range_meters":19600,"station_id":"ce4bhqh2rcd13ifvqhmg","pricing_plan_id":"cebpf4jnsgd1na2vs0mg"},{"bike_id":"41ebecec-7470-45fa-898e-61422779e758","system_id":"levelo_inurba_marseille","lat":43.29712,"lon":5.37698,"is_reserved":false,"is_disabled":false,"rental_uris":{"android":"levelo://app?vid=41ebecec-7470-45fa-898e-61422779e758","ios":"levelo://app?vid=41ebecec-7470-45fa-898e-61422779e758"},"vehicle_type_id":"4","last_reported":1730380671,"current_range_meters":37600,"station_id":"ce4bgkh2rcd13ifvqbl0","pricing_plan_id":"cebpf4jnsgd1na2vs0mg"},{"bike_id":"3430c1f1-a017-4b91-90e6-e45884dd980f","system_id":"levelo_inurba_marseille","lat":43.28821,"lon":5.35843,"is_reserved":false,"is_disabled":false,"rental_uris":{"android":"levelo://app?vid=3430c1f1-a017-4b91-90e6-e45884dd980f","ios":"levelo://app?vid=3430c1f1-a017-4b91-90e6-e45884dd980f"},"vehicle_type_id":"4","last_reported":1730380671,"current_range_meters":38400,"station_id":"ce4bhb12rcd13ifvqem0","pricing_plan_id":"cebpf4jnsgd1na2vs0mg"},{"bike_id":"1268b8d3-7bd9-4134-9b44-b814b5d7b100","system_id":"levelo_inurba_marseille","lat":43.29202,"lon":5.35809,"is_reserved":false,"is_disabled":false,"rental_uris":{"android":"levelo://app?vid=1268b8d3-7bd9-4134-9b44-b814b5d7b100","ios":"levelo://app?vid=1268b8d3-7bd9-4134-9b44-b814b5d7b100"},"vehicle_type_id":"4","last_reported":1730380671,"current_range_meters":28800,"station_id":"ce4bhb12rcd13ifvqel0","pricing_plan_id":"cebpf4jnsgd1na2vs0mg"},{"bike_id":"e097a33c-2c22-46ab-8ca7-78ef23f95842","system_id":"levelo_inurba_marseille","lat":43.31346,"lon":5.3672,"is_reserved":false,"is_disabled":false,"rental_uris":{"android":"levelo://app?vid=e097a33c-2c22-46ab-8ca7-78ef23f95842","ios":"levelo://app?vid=e097a33c-2c22-46ab-8ca7-78ef23f95842"},"vehicle_type_id":"4","last_reported":1730380671,"current_range_meters":34000,"station_id":"ce4bgr92rcd13ifvqc6g","pricing_plan_id":"cebpf4jnsgd1na2vs0mg"},{"bike_id":"9f36ef3f-6327-4b28-bf6c-cb2ec8576edc","system_id":"levelo_inurba_marseille","lat":43.29199,"lon":5.35789,"is_reserved":false,"is_disabled":false,"rental_uris":{"android":"levelo://app?vid=9f36ef3f-6327-4b28-bf6c-cb2ec8576edc","ios":"levelo://app?vid=9f36ef3f-6327-4b28-bf6c-cb2ec8576edc"},"vehicle_type_id":"4","last_reported":1730380671,"current_range_meters":17600,"station_id":"ce4bhb12rcd13ifvqel0","pricing_plan_id":"cebpf4jnsgd1na2vs0mg"},{"bike_id":"12c64678-8495-4dbe-ab6e-e874b5de5878","system_id":"levelo_inurba_marseille","lat":43.25871,"lon":5.39896,"is_reserved":false,"is_disabled":false,"rental_uris":{"android":"levelo://app?vid=12c64678-8495-4dbe-ab6e-e874b5de5878","ios":"levelo://app?vid=12c64678-8495-4dbe-ab6e-e874b5de5878"},"vehicle_type_id":"4","last_reported":1730380671,"current_range_meters":20000,"station_id":"ce4bhl92rcd13ifvqghg","pricing_plan_id":"cebpf4jnsgd1na2vs0mg"},{"bike_id":"9a6941e3-b3cf-4ef6-ab58-e6312e664fdf","system_id":"levelo_inurba_marseille","lat":43.28485,"lon":5.38578,"is_reserved":false,"is_disabled":false,"rental_uris":{"android":"levelo://app?vid=9a6941e3-b3cf-4ef6-ab58-e6312e664fdf","ios":"levelo://app?vid=9a6941e3-b3cf-4ef6-ab58-e6312e664fdf"},"vehicle_type_id":"4","last_reported":1730380671,"current_range_meters":20000,"station_id":"ce4bh8p2rcd13ifvqeb0","pricing_plan_id":"cebpf4jnsgd1na2vs0mg"},{"bike_id":"37b1f80b-6686-4319-b0d6-9c0246071651","system_id":"levelo_inurba_marseille","lat":43.27573,"lon":5.38416,"is_reserved":false,"is_disabled":false,"rental_uris":{"android":"levelo://app?vid=37b1f80b-6686-4319-b0d6-9c0246071651","ios":"levelo://app?vid=37b1f80b-6686-4319-b0d6-9c0246071651"},"vehicle_type_id":"4","last_reported":1730380671,"current_range_meters":34800,"station_id":"ce4bhh92rcd13ifvqfi0","pricing_plan_id":"cebpf4jnsgd1na2vs0mg"},{"bike_id":"13875060-5c7c-4e79-9e0e-566dca10da0f","system_id":"levelo_inurba_marseille","lat":43.29571,"lon":5.39972,"is_reserved":false,"is_disabled":false,"rental_uris":{"android":"levelo://app?vid=13875060-5c7c-4e79-9e0e-566dca10da0f","ios":"levelo://app?vid=13875060-5c7c-4e79-9e0e-566dca10da0f"},"vehicle_type_id":"4","last_reported":1730380671,"current_range_meters":38800,"station_id":"ce4bh312rcd13ifvqdj0","pricing_plan_id":"cebpf4jnsgd1na2vs0mg"},{"bike_id":"f8ce6fef-4c7a-4df0-a357-9bf1554f09aa","system_id":"levelo_inurba_marseille","lat":43.26199,"lon":5.37449,"is_reserved":false,"is_disabled":false,"rental_uris":{"android":"levelo://app?vid=f8ce6fef-4c7a-4df0-a357-9bf1554f09aa","ios":"levelo://app?vid=f8ce6fef-4c7a-4df0-a357-9bf1554f09aa"},"vehicle_type_id":"4","last_reported":1730380671,"current_range_meters":38800,"station_id":"ce4bhgp2rcd13ifvqfc0","pricing_plan_id":"cebpf4jnsgd1na2vs0mg"},{"bike_id":"92adf987-4779-4b78-ad9c-8e29ab9175f3","system_id":"levelo_inurba_marseille","lat":43.23191,"lon":5.35551,"is_reserved":false,"is_disabled":false,"rental_uris":{"android":"levelo://app?vid=92adf987-4779-4b78-ad9c-8e29ab9175f3","ios":"levelo://app?vid=92adf987-4779-4b78-ad9c-8e29ab9175f3"},"vehicle_type_id":"4","last_reported":1730380671,"current_range_meters":7200,"station_id":"ce4bhu92rcd13ifvqi70","pricing_plan_id":"cebpf4jnsgd1na2vs0mg"},{"bike_id":"e042e623-a800-4329-b242-4998ec178318","system_id":"levelo_inurba_marseille","lat":43.31489,"lon":5.37309,"is_reserved":false,"is_disabled":false,"rental_uris":{"android":"levelo://app?vid=e042e623-a800-4329-b242-4998ec178318","ios":"levelo://app?vid=e042e623-a800-4329-b242-4998ec178318"},"vehicle_type_id":"4","last_reported":1730380671,"current_range_meters":37600,"station_id":"ce4bgt12rcd13ifvqcd0","pricing_plan_id":"cebpf4jnsgd1na2vs0mg"},{"bike_id":"5b31eb61-3ff9-41a4-8bab-289545e59deb","system_id":"levelo_inurba_marseille","lat":43.24178,"lon":5.39722,"is_reserved":false,"is_disabled":false,"rental_uris":{"android":"levelo://app?vid=5b31eb61-3ff9-41a4-8bab-289545e59deb","ios":"levelo://app?vid=5b31eb61-3ff9-41a4-8bab-289545e59deb"},"vehicle_type_id":"4","last_reported":1730380671,"current_range_meters":38800,"station_id":"ce4bhn12rcd13ifvqgpg","pricing_plan_id":"cebpf4jnsgd1na2vs0mg"},{"bike_id":"35fd6368-8d63-497d-8a6e-4a321956ebd8","system_id":"levelo_inurba_marseille","lat":43.26488,"lon":5.3955,"is_reserved":false,"is_disabled":false,"rental_uris":{"android":"levelo://app?vid=35fd6368-8d63-497d-8a6e-4a321956ebd8","ios":"levelo://app?vid=35fd6368-8d63-497d-8a6e-4a321956ebd8"},"vehicle_type_id":"4","last_reported":1730380671,"current_range_meters":30400,"station_id":"ce4bhi12rcd13ifvqfq0","pricing_plan_id":"cebpf4jnsgd1na2vs0mg"},{"bike_id":"18cdbe93-ecec-42a6-8e5d-4b6222ba2d2e","system_id":"levelo_inurba_marseille","lat":43.29851,"lon":5.36283,"is_reserved":false,"is_disabled":false,"rental_uris":{"android":"levelo://app?vid=18cdbe93-ecec-42a6-8e5d-4b6222ba2d2e","ios":"levelo://app?vid=18cdbe93-ecec-42a6-8e5d-4b6222ba2d2e"},"vehicle_type_id":"4","last_reported":1730380671,"current_range_meters":38800,"station_id":"ce4bgpp2rcd13ifvqc3g","pricing_plan_id":"cebpf4jnsgd1na2vs0mg"},{"bike_id":"e8e4c1bc-b320-4a14-825a-03b6471d62bf","system_id":"levelo_inurba_marseille","lat":43.29611,"lon":5.37732,"is_reserved":false,"is_disabled":false,"rental_uris":{"android":"levelo://app?vid=e8e4c1bc-b320-4a14-825a-03b6471d62bf","ios":"levelo://app?vid=e8e4c1bc-b320-4a14-825a-03b6471d62bf"},"vehicle_type_id":"4","last_reported":1730380671,"current_range_meters":29600,"station_id":"ce4bgi92rcd13ifvqb90","pricing_plan_id":"cebpf4jnsgd1na2vs0mg"},{"bike_id":"fd4e5976-b5d9-4e54-a4c0-c6069047c9df","system_id":"levelo_inurba_marseille","lat":43.27433,"lon":5.3943,"is_reserved":false,"is_disabled":false,"rental_uris":{"android":"levelo://app?vid=fd4e5976-b5d9-4e54-a4c0-c6069047c9df","ios":"levelo://app?vid=fd4e5976-b5d9-4e54-a4c0-c6069047c9df"},"vehicle_type_id":"4","last_reported":1730380671,"current_range_meters":17200,"station_id":"ce4bhdp2rcd13ifvqf20","pricing_plan_id":"cebpf4jnsgd1na2vs0mg"},{"bike_id":"7dfaf496-2e50-463a-a103-b8570a0c6a9a","system_id":"levelo_inurba_marseille","lat":43.24389,"lon":5.37053,"is_reserved":false,"is_disabled":false,"rental_uris":{"android":"levelo://app?vid=7dfaf496-2e50-463a-a103-b8570a0c6a9a","ios":"levelo://app?vid=7dfaf496-2e50-463a-a103-b8570a0c6a9a"},"vehicle_type_id":"4","last_reported":1730380671,"current_range_meters":38800,"station_id":"ce4bhhh2rcd13ifvqfk0","pricing_plan_id":"cebpf4jnsgd1na2vs0mg"},{"bike_id":"9ef76483-9606-429b-a12f-0f637db791aa","system_id":"levelo_inurba_marseille","lat":43.29528,"lon":5.39041,"is_reserved":false,"is_disabled":false,"rental_uris":{"android":"levelo://app?vid=9ef76483-9606-429b-a12f-0f637db791aa","ios":"levelo://app?vid=9ef76483-9606-429b-a12f-0f637db791aa"},"vehicle_type_id":"4","last_reported":1730380671,"current_range_meters":23200,"station_id":"ce4bh3p2rcd13ifvqdp0","pricing_plan_id":"cebpf4jnsgd1na2vs0mg"},{"bike_id":"d0bb4caf-b61e-4bce-a9a8-d93b9e0b26ff","system_id":"levelo_inurba_marseille","lat":43.29738,"lon":5.37693,"is_reserved":false,"is_disabled":false,"rental_uris":{"android":"levelo://app?vid=d0bb4caf-b61e-4bce-a9a8-d93b9e0b26ff","ios":"levelo://app?vid=d0bb4caf-b61e-4bce-a9a8-d93b9e0b26ff"},"vehicle_type_id":"4","last_reported":1730380671,"current_range_meters":38800,"station_id":"ce4bgkh2rcd13ifvqbl0","pricing_plan_id":"cebpf4jnsgd1na2vs0mg"},{"bike_id":"b89e7cec-f8f8-4195-ae18-f93caa4ca6ae","system_id":"levelo_inurba_marseille","lat":43.29044,"lon":5.39978,"is_reserved":false,"is_disabled":false,"rental_uris":{"android":"levelo://app?vid=b89e7cec-f8f8-4195-ae18-f93caa4ca6ae","ios":"levelo://app?vid=b89e7cec-f8f8-4195-ae18-f93caa4ca6ae"},"vehicle_type_id":"4","last_reported":1730380671,"current_range_meters":26800,"station_id":"ce4bh392rcd13ifvqdm0","pricing_plan_id":"cebpf4jnsgd1na2vs0mg"},{"bike_id":"24a3fc8d-a701-41e4-a6f9-e05ffa473525","system_id":"levelo_inurba_marseille","lat":43.30424,"lon":5.39753,"is_reserved":false,"is_disabled":false,"rental_uris":{"android":"levelo://app?vid=24a3fc8d-a701-41e4-a6f9-e05ffa473525","ios":"levelo://app?vid=24a3fc8d-a701-41e4-a6f9-e05ffa473525"},"vehicle_type_id":"4","last_reported":1730380671,"current_range_meters":3600,"station_id":"ce4bh092rcd13ifvqd20","pricing_plan_id":"cebpf4jnsgd1na2vs0mg"},{"bike_id":"d67c2a8c-5175-4ec6-a54b-8e643d3e99bf","system_id":"levelo_inurba_marseille","lat":43.27496,"lon":5.42449,"is_reserved":false,"is_disabled":false,"rental_uris":{"android":"levelo://app?vid=d67c2a8c-5175-4ec6-a54b-8e643d3e99bf","ios":"levelo://app?vid=d67c2a8c-5175-4ec6-a54b-8e643d3e99bf"},"vehicle_type_id":"4","last_reported":1730380671,"current_range_meters":38000,"station_id":"ce4bhn92rcd13ifvqgrg","pricing_plan_id":"cebpf4jnsgd1na2vs0mg"},{"bike_id":"903305da-0676-4faf-9430-6904c985fcb9","system_id":"levelo_inurba_marseille","lat":43.24164,"lon":5.36397,"is_reserved":false,"is_disabled":false,"rental_uris":{"android":"levelo://app?vid=903305da-0676-4faf-9430-6904c985fcb9","ios":"levelo://app?vid=903305da-0676-4faf-9430-6904c985fcb9"},"vehicle_type_id":"4","last_reported":1730380671,"current_range_meters":3600,"station_id":"cpo36qri1sfpv3e86is0","pricing_plan_id":"cebpf4jnsgd1na2vs0mg"},{"bike_id":"39e11cc6-f378-4d7f-b57e-a020cc93671b","system_id":"levelo_inurba_marseille","lat":43.2705,"lon":5.40256,"is_reserved":false,"is_disabled":false,"rental_uris":{"android":"levelo://app?vid=39e11cc6-f378-4d7f-b57e-a020cc93671b","ios":"levelo://app?vid=39e11cc6-f378-4d7f-b57e-a020cc93671b"},"vehicle_type_id":"4","last_reported":1730380671,"current_range_meters":6000,"station_id":"ce4bhk92rcd13ifvqgc0","pricing_plan_id":"cebpf4jnsgd1na2vs0mg"},{"bike_id":"bf3cab71-a247-4761-9879-3000c5d7cf7a","system_id":"levelo_inurba_marseille","lat":43.322776,"lon":5.383004,"is_reserved":false,"is_disabled":false,"rental_uris":{"android":"levelo://app?vid=bf3cab71-a247-4761-9879-3000c5d7cf7a","ios":"levelo://app?vid=bf3cab71-a247-4761-9879-3000c5d7cf7a"},"vehicle_type_id":"4","last_reported":1730380671,"current_range_meters":25200,"station_id":"ce4bhr12rcd13ifvqhqg","pricing_plan_id":"cebpf4jnsgd1na2vs0mg"},{"bike_id":"4e1856cc-2887-465e-abd5-df099e1e1bd2","system_id":"levelo_inurba_marseille","lat":43.29003,"lon":5.35609,"is_reserved":false,"is_disabled":false,"rental_uris":{"android":"levelo://app?vid=4e1856cc-2887-465e-abd5-df099e1e1bd2","ios":"levelo://app?vid=4e1856cc-2887-465e-abd5-df099e1e1bd2"},"vehicle_type_id":"4","last_reported":1730380671,"current_range_meters":9200,"station_id":"ce4bhb92rcd13ifvqen0","pricing_plan_id":"cebpf4jnsgd1na2vs0mg"},{"bike_id":"b91f736f-7a17-4acb-a69b-61d1c7f60780","system_id":"levelo_inurba_marseille","lat":43.30537,"lon":5.36536,"is_reserved":false,"is_disabled":false,"rental_uris":{"android":"levelo://app?vid=b91f736f-7a17-4acb-a69b-61d1c7f60780","ios":"levelo://app?vid=b91f736f-7a17-4acb-a69b-61d1c7f60780"},"vehicle_type_id":"4","last_reported":1730380671,"current_range_meters":12400,"station_id":"ce4bgs12rcd13ifvqcag","pricing_plan_id":"cebpf4jnsgd1na2vs0mg"},{"bike_id":"c9a49a0a-1d50-453b-833d-4f68ee000596","system_id":"levelo_inurba_marseille","lat":43.26951,"lon":5.38639,"is_reserved":false,"is_disabled":false,"rental_uris":{"android":"levelo://app?vid=c9a49a0a-1d50-453b-833d-4f68ee000596","ios":"levelo://app?vid=c9a49a0a-1d50-453b-833d-4f68ee000596"},"vehicle_type_id":"4","last_reported":1730380671,"current_range_meters":26800,"station_id":"ce4bhh92rcd13ifvqfh0","pricing_plan_id":"cebpf4jnsgd1na2vs0mg"},{"bike_id":"34fc0a34-1013-4b4c-82d8-3fae046fa458","system_id":"levelo_inurba_marseille","lat":43.30136,"lon":5.38775,"is_reserved":false,"is_disabled":false,"rental_uris":{"android":"levelo://app?vid=34fc0a34-1013-4b4c-82d8-3fae046fa458","ios":"levelo://app?vid=34fc0a34-1013-4b4c-82d8-3fae046fa458"},"vehicle_type_id":"4","last_reported":1730380671,"current_range_meters":37600,"station_id":"ce4bghh2rcd13ifvqb60","pricing_plan_id":"cebpf4jnsgd1na2vs0mg"},{"bike_id":"e15a5fec-49c6-44b7-a18b-61375c0b6760","system_id":"levelo_inurba_marseille","lat":43.28349,"lon":5.38114,"is_reserved":false,"is_disabled":false,"rental_uris":{"android":"levelo://app?vid=e15a5fec-49c6-44b7-a18b-61375c0b6760","ios":"levelo://app?vid=e15a5fec-49c6-44b7-a18b-61375c0b6760"},"vehicle_type_id":"4","last_reported":1730380671,"current_range_meters":36800,"station_id":"ce4bh412rcd13ifvqdr0","pricing_plan_id":"cebpf4jnsgd1na2vs0mg"},{"bike_id":"4f808683-e5f7-490f-b911-7d1edf2a1bbb","system_id":"levelo_inurba_marseille","lat":43.28845,"lon":5.39316,"is_reserved":false,"is_disabled":false,"rental_uris":{"android":"levelo://app?vid=4f808683-e5f7-490f-b911-7d1edf2a1bbb","ios":"levelo://app?vid=4f808683-e5f7-490f-b911-7d1edf2a1bbb"},"vehicle_type_id":"4","last_reported":1730380671,"current_range_meters":10000,"station_id":"ce4bh2p2rcd13ifvqdi0","pricing_plan_id":"cebpf4jnsgd1na2vs0mg"},{"bike_id":"2370a04e-d358-4a29-b67a-890bf50b34fd","system_id":"levelo_inurba_marseille","lat":43.24168,"lon":5.364,"is_reserved":false,"is_disabled":false,"rental_uris":{"android":"levelo://app?vid=2370a04e-d358-4a29-b67a-890bf50b34fd","ios":"levelo://app?vid=2370a04e-d358-4a29-b67a-890bf50b34fd"},"vehicle_type_id":"4","last_reported":1730380671,"current_range_meters":37600,"station_id":"cpo36qri1sfpv3e86is0","pricing_plan_id":"cebpf4jnsgd1na2vs0mg"},{"bike_id":"57778835-dd4b-41e7-a809-7ce3f66d0e6c","system_id":"levelo_inurba_marseille","lat":43.312,"lon":5.36773,"is_reserved":false,"is_disabled":false,"rental_uris":{"android":"levelo://app?vid=57778835-dd4b-41e7-a809-7ce3f66d0e6c","ios":"levelo://app?vid=57778835-dd4b-41e7-a809-7ce3f66d0e6c"},"vehicle_type_id":"4","last_reported":1730380671,"current_range_meters":37600,"station_id":"ce4bgrp2rcd13ifvqc9g","pricing_plan_id":"cebpf4jnsgd1na2vs0mg"},{"bike_id":"870323a0-4358-4158-9ab6-04058acad512","system_id":"levelo_inurba_marseille","lat":43.30551,"lon":5.36554,"is_reserved":false,"is_disabled":false,"rental_uris":{"android":"levelo://app?vid=870323a0-4358-4158-9ab6-04058acad512","ios":"levelo://app?vid=870323a0-4358-4158-9ab6-04058acad512"},"vehicle_type_id":"4","last_reported":1730380671,"current_range_meters":32800,"station_id":"ce4bgs12rcd13ifvqcag","pricing_plan_id":"cebpf4jnsgd1na2vs0mg"},{"bike_id":"92ba3382-76c6-4e24-801f-c8dbf2820c93","system_id":"levelo_inurba_marseille","lat":43.26197,"lon":5.40441,"is_reserved":false,"is_disabled":false,"rental_uris":{"android":"levelo://app?vid=92ba3382-76c6-4e24-801f-c8dbf2820c93","ios":"levelo://app?vid=92ba3382-76c6-4e24-801f-c8dbf2820c93"},"vehicle_type_id":"4","last_reported":1730380671,"current_range_meters":35600,"station_id":"","pricing_plan_id":"cebpf4jnsgd1na2vs0mg"},{"bike_id":"6cfc4f8d-c411-4439-b454-6734fe7d88c3","system_id":"levelo_inurba_marseille","lat":43.33022,"lon":5.39041,"is_reserved":false,"is_disabled":false,"rental_uris":{"android":"levelo://app?vid=6cfc4f8d-c411-4439-b454-6734fe7d88c3","ios":"levelo://app?vid=6cfc4f8d-c411-4439-b454-6734fe7d88c3"},"vehicle_type_id":"4","last_reported":1730380671,"current_range_meters":29600,"station_id":"ce4bhr92rcd13ifvqhrg","pricing_plan_id":"cebpf4jnsgd1na2vs0mg"},{"bike_id":"bf1d78bf-3b6b-44a1-91f0-2ad18b398e7b","system_id":"levelo_inurba_marseille","lat":43.33022,"lon":5.39041,"is_reserved":false,"is_disabled":false,"rental_uris":{"android":"levelo://app?vid=bf1d78bf-3b6b-44a1-91f0-2ad18b398e7b","ios":"levelo://app?vid=bf1d78bf-3b6b-44a1-91f0-2ad18b398e7b"},"vehicle_type_id":"4","last_reported":1730380671,"current_range_meters":19600,"station_id":"ce4bhr92rcd13ifvqhrg","pricing_plan_id":"cebpf4jnsgd1na2vs0mg"},{"bike_id":"428675c5-62bc-486f-bd65-2f9ac70da0b4","system_id":"levelo_inurba_marseille","lat":43.29636,"lon":5.40611,"is_reserved":false,"is_disabled":false,"rental_uris":{"android":"levelo://app?vid=428675c5-62bc-486f-bd65-2f9ac70da0b4","ios":"levelo://app?vid=428675c5-62bc-486f-bd65-2f9ac70da0b4"},"vehicle_type_id":"4","last_reported":1730380671,"current_range_meters":38400,"station_id":"ce4bh0h2rcd13ifvqd60","pricing_plan_id":"cebpf4jnsgd1na2vs0mg"},{"bike_id":"9523fac6-8682-4efb-98d2-562240b36d56","system_id":"levelo_inurba_marseille","lat":43.26491,"lon":5.39546,"is_reserved":false,"is_disabled":false,"rental_uris":{"android":"levelo://app?vid=9523fac6-8682-4efb-98d2-562240b36d56","ios":"levelo://app?vid=9523fac6-8682-4efb-98d2-562240b36d56"},"vehicle_type_id":"4","last_reported":1730380671,"current_range_meters":36800,"station_id":"ce4bhi12rcd13ifvqfq0","pricing_plan_id":"cebpf4jnsgd1na2vs0mg"},{"bike_id":"68d70b7d-ad7d-4f85-bf3d-e60a9bdb5234","system_id":"levelo_inurba_marseille","lat":43.23154,"lon":5.43707,"is_reserved":false,"is_disabled":false,"rental_uris":{"android":"levelo://app?vid=68d70b7d-ad7d-4f85-bf3d-e60a9bdb5234","ios":"levelo://app?vid=68d70b7d-ad7d-4f85-bf3d-e60a9bdb5234"},"vehicle_type_id":"4","last_reported":1730380671,"current_range_meters":16400,"station_id":"ce4bhmp2rcd13ifvqgog","pricing_plan_id":"cebpf4jnsgd1na2vs0mg"},{"bike_id":"2074bf2c-abe6-416b-8ac6-0453ab94f8bf","system_id":"levelo_inurba_marseille","lat":43.31359,"lon":5.36718,"is_reserved":false,"is_disabled":false,"rental_uris":{"android":"levelo://app?vid=2074bf2c-abe6-416b-8ac6-0453ab94f8bf","ios":"levelo://app?vid=2074bf2c-abe6-416b-8ac6-0453ab94f8bf"},"vehicle_type_id":"4","last_reported":1730380671,"current_range_meters":33200,"station_id":"ce4bgr92rcd13ifvqc6g","pricing_plan_id":"cebpf4jnsgd1na2vs0mg"},{"bike_id":"37069e8b-4451-4121-b3bf-4614fb7136a7","system_id":"levelo_inurba_marseille","lat":43.32291,"lon":5.38263,"is_reserved":false,"is_disabled":false,"rental_uris":{"android":"levelo://app?vid=37069e8b-4451-4121-b3bf-4614fb7136a7","ios":"levelo://app?vid=37069e8b-4451-4121-b3bf-4614fb7136a7"},"vehicle_type_id":"4","last_reported":1730380671,"current_range_meters":24800,"station_id":"ce4bhr12rcd13ifvqhqg","pricing_plan_id":"cebpf4jnsgd1na2vs0mg"},{"bike_id":"a95e3fbf-a11a-4fa6-9299-708581be32e6","system_id":"levelo_inurba_marseille","lat":43.30911,"lon":5.36843,"is_reserved":false,"is_disabled":false,"rental_uris":{"android":"levelo://app?vid=a95e3fbf-a11a-4fa6-9299-708581be32e6","ios":"levelo://app?vid=a95e3fbf-a11a-4fa6-9299-708581be32e6"},"vehicle_type_id":"4","last_reported":1730380671,"current_range_meters":22800,"station_id":"ce4bgn92rcd13ifvqbvg","pricing_plan_id":"cebpf4jnsgd1na2vs0mg"},{"bike_id":"8f187250-044c-4a41-90ea-c9ecea0b6581","system_id":"levelo_inurba_marseille","lat":43.26942,"lon":5.40247,"is_reserved":false,"is_disabled":false,"rental_uris":{"android":"levelo://app?vid=8f187250-044c-4a41-90ea-c9ecea0b6581","ios":"levelo://app?vid=8f187250-044c-4a41-90ea-c9ecea0b6581"},"vehicle_type_id":"4","last_reported":1730380671,"current_range_meters":9600,"station_id":"cjm6bp8fraef2m0cb0m0","pricing_plan_id":"cebpf4jnsgd1na2vs0mg"},{"bike_id":"122231cb-4422-4960-b5b8-3c4780eb61fd","system_id":"levelo_inurba_marseille","lat":43.27371,"lon":5.36262,"is_reserved":false,"is_disabled":false,"rental_uris":{"android":"levelo://app?vid=122231cb-4422-4960-b5b8-3c4780eb61fd","ios":"levelo://app?vid=122231cb-4422-4960-b5b8-3c4780eb61fd"},"vehicle_type_id":"4","last_reported":1730380671,"current_range_meters":16800,"station_id":"ce4bhbh2rcd13ifvqeo0","pricing_plan_id":"cebpf4jnsgd1na2vs0mg"},{"bike_id":"5266335c-fb51-4166-a0ab-8099a4c09e4b","system_id":"levelo_inurba_marseille","lat":43.32283,"lon":5.38291,"is_reserved":false,"is_disabled":false,"rental_uris":{"android":"levelo://app?vid=5266335c-fb51-4166-a0ab-8099a4c09e4b","ios":"levelo://app?vid=5266335c-fb51-4166-a0ab-8099a4c09e4b"},"vehicle_type_id":"4","last_reported":1730380671,"current_range_meters":37600,"station_id":"ce4bhr12rcd13ifvqhqg","pricing_plan_id":"cebpf4jnsgd1na2vs0mg"},{"bike_id":"49a0a8c5-4554-4f26-9587-3ab79114bad5","system_id":"levelo_inurba_marseille","lat":43.29375,"lon":5.3785,"is_reserved":false,"is_disabled":false,"rental_uris":{"android":"levelo://app?vid=49a0a8c5-4554-4f26-9587-3ab79114bad5","ios":"levelo://app?vid=49a0a8c5-4554-4f26-9587-3ab79114bad5"},"vehicle_type_id":"4","last_reported":1730380671,"current_range_meters":17600,"station_id":"ce4bgjh2rcd13ifvqbf0","pricing_plan_id":"cebpf4jnsgd1na2vs0mg"},{"bike_id":"1d049270-233c-4960-ba93-d152bc4bf621","system_id":"levelo_inurba_marseille","lat":43.28433,"lon":5.35001,"is_reserved":false,"is_disabled":false,"rental_uris":{"android":"levelo://app?vid=1d049270-233c-4960-ba93-d152bc4bf621","ios":"levelo://app?vid=1d049270-233c-4960-ba93-d152bc4bf621"},"vehicle_type_id":"4","last_reported":1730380671,"current_range_meters":11600,"station_id":"ce4bhbh2rcd13ifvqepg","pricing_plan_id":"cebpf4jnsgd1na2vs0mg"},{"bike_id":"a0a5299b-33e0-43a9-ba95-113a594509a5","system_id":"levelo_inurba_marseille","lat":43.25495,"lon":5.37648,"is_reserved":false,"is_disabled":false,"rental_uris":{"android":"levelo://app?vid=a0a5299b-33e0-43a9-ba95-113a594509a5","ios":"levelo://app?vid=a0a5299b-33e0-43a9-ba95-113a594509a5"},"vehicle_type_id":"4","last_reported":1730380671,"current_range_meters":32000,"station_id":"ce4bhh12rcd13ifvqff0","pricing_plan_id":"cebpf4jnsgd1na2vs0mg"},{"bike_id":"5c92b6a0-53de-45c4-bb76-7fc3215c4626","system_id":"levelo_inurba_marseille","lat":43.28679,"lon":5.38665,"is_reserved":false,"is_disabled":false,"rental_uris":{"android":"levelo://app?vid=5c92b6a0-53de-45c4-bb76-7fc3215c4626","ios":"levelo://app?vid=5c92b6a0-53de-45c4-bb76-7fc3215c4626"},"vehicle_type_id":"4","last_reported":1730380671,"current_range_meters":36400,"station_id":"ce4bh492rcd13ifvqdug","pricing_plan_id":"cebpf4jnsgd1na2vs0mg"},{"bike_id":"ee81b182-11e0-424c-9b45-12bf643c4d60","system_id":"levelo_inurba_marseille","lat":43.28696,"lon":5.39994,"is_reserved":false,"is_disabled":false,"rental_uris":{"android":"levelo://app?vid=ee81b182-11e0-424c-9b45-12bf643c4d60","ios":"levelo://app?vid=ee81b182-11e0-424c-9b45-12bf643c4d60"},"vehicle_type_id":"4","last_reported":1730380671,"current_range_meters":1200,"station_id":"ce4bho92rcd13ifvqh3g","pricing_plan_id":"cebpf4jnsgd1na2vs0mg"},{"bike_id":"2ad35a31-f060-4a80-99e5-30315aba0c80","system_id":"levelo_inurba_marseille","lat":43.29032,"lon":5.39974,"is_reserved":false,"is_disabled":false,"rental_uris":{"android":"levelo://app?vid=2ad35a31-f060-4a80-99e5-30315aba0c80","ios":"levelo://app?vid=2ad35a31-f060-4a80-99e5-30315aba0c80"},"vehicle_type_id":"4","last_reported":1730380671,"current_range_meters":23200,"station_id":"ce4bh392rcd13ifvqdm0","pricing_plan_id":"cebpf4jnsgd1na2vs0mg"},{"bike_id":"f2a1088c-8b12-4c5b-8c82-201515163d2e","system_id":"levelo_inurba_marseille","lat":43.31354,"lon":5.36718,"is_reserved":false,"is_disabled":false,"rental_uris":{"android":"levelo://app?vid=f2a1088c-8b12-4c5b-8c82-201515163d2e","ios":"levelo://app?vid=f2a1088c-8b12-4c5b-8c82-201515163d2e"},"vehicle_type_id":"4","last_reported":1730380671,"current_range_meters":27200,"station_id":"ce4bgr92rcd13ifvqc6g","pricing_plan_id":"cebpf4jnsgd1na2vs0mg"},{"bike_id":"3e692e43-3af1-42b8-8b96-6599a0d2e03e","system_id":"levelo_inurba_marseille","lat":43.29551,"lon":5.42301,"is_reserved":false,"is_disabled":false,"rental_uris":{"android":"levelo://app?vid=3e692e43-3af1-42b8-8b96-6599a0d2e03e","ios":"levelo://app?vid=3e692e43-3af1-42b8-8b96-6599a0d2e03e"},"vehicle_type_id":"4","last_reported":1730380671,"current_range_meters":16400,"station_id":"ce4bhph2rcd13ifvqhdg","pricing_plan_id":"cebpf4jnsgd1na2vs0mg"},{"bike_id":"53facf4a-a53f-4009-81d5-6390ac637137","system_id":"levelo_inurba_marseille","lat":43.3248,"lon":5.36552,"is_reserved":false,"is_disabled":false,"rental_uris":{"android":"levelo://app?vid=53facf4a-a53f-4009-81d5-6390ac637137","ios":"levelo://app?vid=53facf4a-a53f-4009-81d5-6390ac637137"},"vehicle_type_id":"4","last_reported":1730380671,"current_range_meters":38000,"station_id":"ce4bhs12rcd13ifvqhvg","pricing_plan_id":"cebpf4jnsgd1na2vs0mg"},{"bike_id":"6befc4bf-a30e-4f12-b448-09b588578734","system_id":"levelo_inurba_marseille","lat":43.27378,"lon":5.36259,"is_reserved":false,"is_disabled":false,"rental_uris":{"android":"levelo://app?vid=6befc4bf-a30e-4f12-b448-09b588578734","ios":"levelo://app?vid=6befc4bf-a30e-4f12-b448-09b588578734"},"vehicle_type_id":"4","last_reported":1730380671,"current_range_meters":29600,"station_id":"ce4bhbh2rcd13ifvqeo0","pricing_plan_id":"cebpf4jnsgd1na2vs0mg"},{"bike_id":"67b75dc5-76e9-47e8-9f50-b697c520c036","system_id":"levelo_inurba_marseille","lat":43.24667,"lon":5.38155,"is_reserved":false,"is_disabled":false,"rental_uris":{"android":"levelo://app?vid=67b75dc5-76e9-47e8-9f50-b697c520c036","ios":"levelo://app?vid=67b75dc5-76e9-47e8-9f50-b697c520c036"},"vehicle_type_id":"4","last_reported":1730380671,"current_range_meters":34000,"station_id":"ce4bhih2rcd13ifvqfr0","pricing_plan_id":"cebpf4jnsgd1na2vs0mg"},{"bike_id":"4a82329a-8105-4e04-b60b-e1128c4b5f85","system_id":"levelo_inurba_marseille","lat":43.28418,"lon":5.34979,"is_reserved":false,"is_disabled":false,"rental_uris":{"android":"levelo://app?vid=4a82329a-8105-4e04-b60b-e1128c4b5f85","ios":"levelo://app?vid=4a82329a-8105-4e04-b60b-e1128c4b5f85"},"vehicle_type_id":"4","last_reported":1730380671,"current_range_meters":27600,"station_id":"ce4bhbh2rcd13ifvqepg","pricing_plan_id":"cebpf4jnsgd1na2vs0mg"},{"bike_id":"15219ef7-7b02-4e83-b641-42bb8e183cd3","system_id":"levelo_inurba_marseille","lat":43.28425,"lon":5.34987,"is_reserved":false,"is_disabled":false,"rental_uris":{"android":"levelo://app?vid=15219ef7-7b02-4e83-b641-42bb8e183cd3","ios":"levelo://app?vid=15219ef7-7b02-4e83-b641-42bb8e183cd3"},"vehicle_type_id":"4","last_reported":1730380671,"current_range_meters":10000,"station_id":"ce4bhbh2rcd13ifvqepg","pricing_plan_id":"cebpf4jnsgd1na2vs0mg"},{"bike_id":"efd4681d-af13-4d5d-b626-46877e5cba4f","system_id":"levelo_inurba_marseille","lat":43.27615,"lon":5.36114,"is_reserved":false,"is_disabled":false,"rental_uris":{"android":"levelo://app?vid=efd4681d-af13-4d5d-b626-46877e5cba4f","ios":"levelo://app?vid=efd4681d-af13-4d5d-b626-46877e5cba4f"},"vehicle_type_id":"4","last_reported":1730380671,"current_range_meters":39200,"station_id":"ce4bgj92rcd13ifvqbe0","pricing_plan_id":"cebpf4jnsgd1na2vs0mg"},{"bike_id":"4e6c31da-8511-48a7-b2ab-9f8b4f93652b","system_id":"levelo_inurba_marseille","lat":43.28605,"lon":5.35104,"is_reserved":false,"is_disabled":false,"rental_uris":{"android":"levelo://app?vid=4e6c31da-8511-48a7-b2ab-9f8b4f93652b","ios":"levelo://app?vid=4e6c31da-8511-48a7-b2ab-9f8b4f93652b"},"vehicle_type_id":"4","last_reported":1730380671,"current_range_meters":24800,"station_id":"ce4bhch2rcd13ifvqeug","pricing_plan_id":"cebpf4jnsgd1na2vs0mg"},{"bike_id":"b0fd49c3-1c87-4152-b015-da264950a268","system_id":"levelo_inurba_marseille","lat":43.29877,"lon":5.39731,"is_reserved":false,"is_disabled":false,"rental_uris":{"android":"levelo://app?vid=b0fd49c3-1c87-4152-b015-da264950a268","ios":"levelo://app?vid=b0fd49c3-1c87-4152-b015-da264950a268"},"vehicle_type_id":"4","last_reported":1730380671,"current_range_meters":31200,"station_id":"ce4bh0h2rcd13ifvqd50","pricing_plan_id":"cebpf4jnsgd1na2vs0mg"},{"bike_id":"0f70722e-32c7-45a1-a17f-9ae32a157a8f","system_id":"levelo_inurba_marseille","lat":43.2782,"lon":5.40721,"is_reserved":false,"is_disabled":false,"rental_uris":{"android":"levelo://app?vid=0f70722e-32c7-45a1-a17f-9ae32a157a8f","ios":"levelo://app?vid=0f70722e-32c7-45a1-a17f-9ae32a157a8f"},"vehicle_type_id":"4","last_reported":1730380671,"current_range_meters":36000,"station_id":"ce4bhnh2rcd13ifvqgtg","pricing_plan_id":"cebpf4jnsgd1na2vs0mg"},{"bike_id":"f5a7d3b5-e1d0-44cc-a83f-30084a31b1de","system_id":"levelo_inurba_marseille","lat":43.29109,"lon":5.38148,"is_reserved":false,"is_disabled":false,"rental_uris":{"android":"levelo://app?vid=f5a7d3b5-e1d0-44cc-a83f-30084a31b1de","ios":"levelo://app?vid=f5a7d3b5-e1d0-44cc-a83f-30084a31b1de"},"vehicle_type_id":"4","last_reported":1730380671,"current_range_meters":27600,"station_id":"ce4bh512rcd13ifvqe2g","pricing_plan_id":"cebpf4jnsgd1na2vs0mg"},{"bike_id":"7fb1bb2a-210f-4f25-8d10-3f688823235a","system_id":"levelo_inurba_marseille","lat":43.27624,"lon":5.36104,"is_reserved":false,"is_disabled":false,"rental_uris":{"android":"levelo://app?vid=7fb1bb2a-210f-4f25-8d10-3f688823235a","ios":"levelo://app?vid=7fb1bb2a-210f-4f25-8d10-3f688823235a"},"vehicle_type_id":"4","last_reported":1730380671,"current_range_meters":24800,"station_id":"ce4bgj92rcd13ifvqbe0","pricing_plan_id":"cebpf4jnsgd1na2vs0mg"},{"bike_id":"5a991495-bfc0-4411-a2d7-97dec39ff12f","system_id":"levelo_inurba_marseille","lat":43.29803,"lon":5.40406,"is_reserved":false,"is_disabled":false,"rental_uris":{"android":"levelo://app?vid=5a991495-bfc0-4411-a2d7-97dec39ff12f","ios":"levelo://app?vid=5a991495-bfc0-4411-a2d7-97dec39ff12f"},"vehicle_type_id":"4","last_reported":1730380671,"current_range_meters":38800,"station_id":"ce4bh112rcd13ifvqd90","pricing_plan_id":"cebpf4jnsgd1na2vs0mg"},{"bike_id":"58588f98-d979-4a89-a14d-d0d4a329cc8e","system_id":"levelo_inurba_marseille","lat":43.26808,"lon":5.40263,"is_reserved":false,"is_disabled":false,"rental_uris":{"android":"levelo://app?vid=58588f98-d979-4a89-a14d-d0d4a329cc8e","ios":"levelo://app?vid=58588f98-d979-4a89-a14d-d0d4a329cc8e"},"vehicle_type_id":"4","last_reported":1730380671,"current_range_meters":39200,"station_id":"ce501612rcd8frsf0b60","pricing_plan_id":"cebpf4jnsgd1na2vs0mg"},{"bike_id":"5ff74640-5d39-40f8-808a-e5695df59fd4","system_id":"levelo_inurba_marseille","lat":43.27202,"lon":5.41013,"is_reserved":false,"is_disabled":false,"rental_uris":{"android":"levelo://app?vid=5ff74640-5d39-40f8-808a-e5695df59fd4","ios":"levelo://app?vid=5ff74640-5d39-40f8-808a-e5695df59fd4"},"vehicle_type_id":"4","last_reported":1730380671,"current_range_meters":8000,"station_id":"ce4bhl12rcd13ifvqgf0","pricing_plan_id":"cebpf4jnsgd1na2vs0mg"},{"bike_id":"84e2b042-2c79-4878-a2d2-5d6cd154cfca","system_id":"levelo_inurba_marseille","lat":43.28434,"lon":5.34999,"is_reserved":false,"is_disabled":false,"rental_uris":{"android":"levelo://app?vid=84e2b042-2c79-4878-a2d2-5d6cd154cfca","ios":"levelo://app?vid=84e2b042-2c79-4878-a2d2-5d6cd154cfca"},"vehicle_type_id":"4","last_reported":1730380671,"current_range_meters":38400,"station_id":"ce4bhbh2rcd13ifvqepg","pricing_plan_id":"cebpf4jnsgd1na2vs0mg"},{"bike_id":"d4829a7e-16fe-4e76-9a47-d409e1283694","system_id":"levelo_inurba_marseille","lat":43.25719,"lon":5.4111,"is_reserved":false,"is_disabled":false,"rental_uris":{"android":"levelo://app?vid=d4829a7e-16fe-4e76-9a47-d409e1283694","ios":"levelo://app?vid=d4829a7e-16fe-4e76-9a47-d409e1283694"},"vehicle_type_id":"4","last_reported":1730380671,"current_range_meters":19600,"station_id":"ce4bhkp2rcd13ifvqgd0","pricing_plan_id":"cebpf4jnsgd1na2vs0mg"},{"bike_id":"38e45b10-b07b-495c-a028-28fb68d2d661","system_id":"levelo_inurba_marseille","lat":43.30806,"lon":5.43527,"is_reserved":false,"is_disabled":false,"rental_uris":{"android":"levelo://app?vid=38e45b10-b07b-495c-a028-28fb68d2d661","ios":"levelo://app?vid=38e45b10-b07b-495c-a028-28fb68d2d661"},"vehicle_type_id":"4","last_reported":1730380671,"current_range_meters":20000,"station_id":"ce4bhph2rcd13ifvqheg","pricing_plan_id":"cebpf4jnsgd1na2vs0mg"},{"bike_id":"bcd5c583-e505-48d5-ab0f-966fb2aac6e0","system_id":"levelo_inurba_marseille","lat":43.28669,"lon":5.3867,"is_reserved":false,"is_disabled":false,"rental_uris":{"android":"levelo://app?vid=bcd5c583-e505-48d5-ab0f-966fb2aac6e0","ios":"levelo://app?vid=bcd5c583-e505-48d5-ab0f-966fb2aac6e0"},"vehicle_type_id":"4","last_reported":1730380671,"current_range_meters":4400,"station_id":"ce4bh492rcd13ifvqdug","pricing_plan_id":"cebpf4jnsgd1na2vs0mg"},{"bike_id":"cb1ba04b-a077-4c2e-8a61-5fb1647d61a6","system_id":"levelo_inurba_marseille","lat":43.28459,"lon":5.35877,"is_reserved":false,"is_disabled":false,"rental_uris":{"android":"levelo://app?vid=cb1ba04b-a077-4c2e-8a61-5fb1647d61a6","ios":"levelo://app?vid=cb1ba04b-a077-4c2e-8a61-5fb1647d61a6"},"vehicle_type_id":"4","last_reported":1730380671,"current_range_meters":14000,"station_id":"ce4bhah2rcd13ifvqei0","pricing_plan_id":"cebpf4jnsgd1na2vs0mg"},{"bike_id":"a9805b12-7a6b-4f1d-98f9-22fdabac4130","system_id":"levelo_inurba_marseille","lat":43.28278,"lon":5.35081,"is_reserved":false,"is_disabled":false,"rental_uris":{"android":"levelo://app?vid=a9805b12-7a6b-4f1d-98f9-22fdabac4130","ios":"levelo://app?vid=a9805b12-7a6b-4f1d-98f9-22fdabac4130"},"vehicle_type_id":"4","last_reported":1730380671,"current_range_meters":16000,"station_id":"ce4bhbp2rcd13ifvqerg","pricing_plan_id":"cebpf4jnsgd1na2vs0mg"},{"bike_id":"c54109fe-bd39-4579-ba36-b49d42aeba13","system_id":"levelo_inurba_marseille","lat":43.25867,"lon":5.39896,"is_reserved":false,"is_disabled":false,"rental_uris":{"android":"levelo://app?vid=c54109fe-bd39-4579-ba36-b49d42aeba13","ios":"levelo://app?vid=c54109fe-bd39-4579-ba36-b49d42aeba13"},"vehicle_type_id":"4","last_reported":1730380671,"current_range_meters":24000,"station_id":"ce4bhl92rcd13ifvqghg","pricing_plan_id":"cebpf4jnsgd1na2vs0mg"},{"bike_id":"ab498042-4f5d-42b2-b128-984a9a9883e7","system_id":"levelo_inurba_marseille","lat":43.31734,"lon":5.41672,"is_reserved":false,"is_disabled":false,"rental_uris":{"android":"levelo://app?vid=ab498042-4f5d-42b2-b128-984a9a9883e7","ios":"levelo://app?vid=ab498042-4f5d-42b2-b128-984a9a9883e7"},"vehicle_type_id":"4","last_reported":1730380671,"current_range_meters":24000,"station_id":"ce4bhp92rcd13ifvqhcg","pricing_plan_id":"cebpf4jnsgd1na2vs0mg"},{"bike_id":"654e6c85-c7a0-4fba-b228-17b6bfa33ba6","system_id":"levelo_inurba_marseille","lat":43.24177,"lon":5.39728,"is_reserved":false,"is_disabled":false,"rental_uris":{"android":"levelo://app?vid=654e6c85-c7a0-4fba-b228-17b6bfa33ba6","ios":"levelo://app?vid=654e6c85-c7a0-4fba-b228-17b6bfa33ba6"},"vehicle_type_id":"4","last_reported":1730380671,"current_range_meters":36800,"station_id":"ce4bhn12rcd13ifvqgpg","pricing_plan_id":"cebpf4jnsgd1na2vs0mg"},{"bike_id":"3998c2d7-91a5-4d44-9a9a-9052ff445560","system_id":"levelo_inurba_marseille","lat":43.30549,"lon":5.36523,"is_reserved":false,"is_disabled":false,"rental_uris":{"android":"levelo://app?vid=3998c2d7-91a5-4d44-9a9a-9052ff445560","ios":"levelo://app?vid=3998c2d7-91a5-4d44-9a9a-9052ff445560"},"vehicle_type_id":"4","last_reported":1730380671,"current_range_meters":17200,"station_id":"ce4bgs12rcd13ifvqcag","pricing_plan_id":"cebpf4jnsgd1na2vs0mg"},{"bike_id":"cc43bf4d-496d-47ec-aa99-164bc1536ac8","system_id":"levelo_inurba_marseille","lat":43.24998,"lon":5.38932,"is_reserved":false,"is_disabled":false,"rental_uris":{"android":"levelo://app?vid=cc43bf4d-496d-47ec-aa99-164bc1536ac8","ios":"levelo://app?vid=cc43bf4d-496d-47ec-aa99-164bc1536ac8"},"vehicle_type_id":"4","last_reported":1730380671,"current_range_meters":32800,"station_id":"ce4bhgp2rcd13ifvqfd0","pricing_plan_id":"cebpf4jnsgd1na2vs0mg"},{"bike_id":"34af1e9b-a27b-4b2c-b4c8-b72a27fd0792","system_id":"levelo_inurba_marseille","lat":43.2955,"lon":5.42289,"is_reserved":false,"is_disabled":false,"rental_uris":{"android":"levelo://app?vid=34af1e9b-a27b-4b2c-b4c8-b72a27fd0792","ios":"levelo://app?vid=34af1e9b-a27b-4b2c-b4c8-b72a27fd0792"},"vehicle_type_id":"4","last_reported":1730380671,"current_range_meters":28800,"station_id":"ce4bhph2rcd13ifvqhdg","pricing_plan_id":"cebpf4jnsgd1na2vs0mg"},{"bike_id":"36856790-de9c-4c45-b618-c1abf664d260","system_id":"levelo_inurba_marseille","lat":43.27573,"lon":5.38421,"is_reserved":false,"is_disabled":false,"rental_uris":{"android":"levelo://app?vid=36856790-de9c-4c45-b618-c1abf664d260","ios":"levelo://app?vid=36856790-de9c-4c45-b618-c1abf664d260"},"vehicle_type_id":"4","last_reported":1730380671,"current_range_meters":33200,"station_id":"ce4bhh92rcd13ifvqfi0","pricing_plan_id":"cebpf4jnsgd1na2vs0mg"},{"bike_id":"3271d7f6-0f65-475f-8b65-c5efde785335","system_id":"levelo_inurba_marseille","lat":43.2319,"lon":5.35553,"is_reserved":false,"is_disabled":false,"rental_uris":{"android":"levelo://app?vid=3271d7f6-0f65-475f-8b65-c5efde785335","ios":"levelo://app?vid=3271d7f6-0f65-475f-8b65-c5efde785335"},"vehicle_type_id":"4","last_reported":1730380671,"current_range_meters":35600,"station_id":"ce4bhu92rcd13ifvqi70","pricing_plan_id":"cebpf4jnsgd1na2vs0mg"},{"bike_id":"a9cd5cb3-1908-4011-8b9f-946eb0d1d7ee","system_id":"levelo_inurba_marseille","lat":43.28613,"lon":5.35111,"is_reserved":false,"is_disabled":false,"rental_uris":{"android":"levelo://app?vid=a9cd5cb3-1908-4011-8b9f-946eb0d1d7ee","ios":"levelo://app?vid=a9cd5cb3-1908-4011-8b9f-946eb0d1d7ee"},"vehicle_type_id":"4","last_reported":1730380671,"current_range_meters":3600,"station_id":"ce4bhch2rcd13ifvqeug","pricing_plan_id":"cebpf4jnsgd1na2vs0mg"},{"bike_id":"9d4a9c2f-1465-4e65-a770-9f3018d14a2d","system_id":"levelo_inurba_marseille","lat":43.28615,"lon":5.35108,"is_reserved":false,"is_disabled":false,"rental_uris":{"android":"levelo://app?vid=9d4a9c2f-1465-4e65-a770-9f3018d14a2d","ios":"levelo://app?vid=9d4a9c2f-1465-4e65-a770-9f3018d14a2d"},"vehicle_type_id":"4","last_reported":1730380671,"current_range_meters":35600,"station_id":"ce4bhch2rcd13ifvqeug","pricing_plan_id":"cebpf4jnsgd1na2vs0mg"},{"bike_id":"f82d6e99-2d3a-47e6-a97a-feadb35dd14a","system_id":"levelo_inurba_marseille","lat":43.29584,"lon":5.37518,"is_reserved":false,"is_disabled":false,"rental_uris":{"android":"levelo://app?vid=f82d6e99-2d3a-47e6-a97a-feadb35dd14a","ios":"levelo://app?vid=f82d6e99-2d3a-47e6-a97a-feadb35dd14a"},"vehicle_type_id":"4","last_reported":1730380671,"current_range_meters":36400,"station_id":"ce4bgh92rcd13ifvqb50","pricing_plan_id":"cebpf4jnsgd1na2vs0mg"},{"bike_id":"955d71ec-3346-4f99-b1c9-b93efca53e2c","system_id":"levelo_inurba_marseille","lat":43.27623,"lon":5.36111,"is_reserved":false,"is_disabled":false,"rental_uris":{"android":"levelo://app?vid=955d71ec-3346-4f99-b1c9-b93efca53e2c","ios":"levelo://app?vid=955d71ec-3346-4f99-b1c9-b93efca53e2c"},"vehicle_type_id":"4","last_reported":1730380671,"current_range_meters":27200,"station_id":"ce4bgj92rcd13ifvqbe0","pricing_plan_id":"cebpf4jnsgd1na2vs0mg"},{"bike_id":"f99547b6-e0b7-4a86-b4bb-f600f8ca5cb2","system_id":"levelo_inurba_marseille","lat":43.24168,"lon":5.36401,"is_reserved":false,"is_disabled":false,"rental_uris":{"android":"levelo://app?vid=f99547b6-e0b7-4a86-b4bb-f600f8ca5cb2","ios":"levelo://app?vid=f99547b6-e0b7-4a86-b4bb-f600f8ca5cb2"},"vehicle_type_id":"4","last_reported":1730380671,"current_range_meters":10800,"station_id":"cpo36qri1sfpv3e86is0","pricing_plan_id":"cebpf4jnsgd1na2vs0mg"},{"bike_id":"e102b7c5-a4ed-4645-b11f-4d05e39a0ce4","system_id":"levelo_inurba_marseille","lat":43.32367,"lon":5.38889,"is_reserved":false,"is_disabled":false,"rental_uris":{"android":"levelo://app?vid=e102b7c5-a4ed-4645-b11f-4d05e39a0ce4","ios":"levelo://app?vid=e102b7c5-a4ed-4645-b11f-4d05e39a0ce4"},"vehicle_type_id":"4","last_reported":1730380671,"current_range_meters":19600,"station_id":"ce4bhqp2rcd13ifvqhog","pricing_plan_id":"cebpf4jnsgd1na2vs0mg"},{"bike_id":"80092705-4989-4e56-ac2b-d582d70f3c41","system_id":"levelo_inurba_marseille","lat":43.3078,"lon":5.37652,"is_reserved":false,"is_disabled":false,"rental_uris":{"android":"levelo://app?vid=80092705-4989-4e56-ac2b-d582d70f3c41","ios":"levelo://app?vid=80092705-4989-4e56-ac2b-d582d70f3c41"},"vehicle_type_id":"4","last_reported":1730380671,"current_range_meters":38800,"station_id":"ce4bgv92rcd13ifvqcq0","pricing_plan_id":"cebpf4jnsgd1na2vs0mg"},{"bike_id":"85d388a2-a216-480e-943a-658b15ae23c1","system_id":"levelo_inurba_marseille","lat":43.29581,"lon":5.39972,"is_reserved":false,"is_disabled":false,"rental_uris":{"android":"levelo://app?vid=85d388a2-a216-480e-943a-658b15ae23c1","ios":"levelo://app?vid=85d388a2-a216-480e-943a-658b15ae23c1"},"vehicle_type_id":"4","last_reported":1730380671,"current_range_meters":28400,"station_id":"ce4bh312rcd13ifvqdj0","pricing_plan_id":"cebpf4jnsgd1na2vs0mg"},{"bike_id":"1d4a509c-fcf8-48f3-9240-ea1f79b55127","system_id":"levelo_inurba_marseille","lat":43.26498,"lon":5.39543,"is_reserved":false,"is_disabled":false,"rental_uris":{"android":"levelo://app?vid=1d4a509c-fcf8-48f3-9240-ea1f79b55127","ios":"levelo://app?vid=1d4a509c-fcf8-48f3-9240-ea1f79b55127"},"vehicle_type_id":"4","last_reported":1730380671,"current_range_meters":24800,"station_id":"ce4bhi12rcd13ifvqfq0","pricing_plan_id":"cebpf4jnsgd1na2vs0mg"},{"bike_id":"de22428a-afcb-46fc-a216-c2ec348a02df","system_id":"levelo_inurba_marseille","lat":43.296,"lon":5.38112,"is_reserved":false,"is_disabled":false,"rental_uris":{"android":"levelo://app?vid=de22428a-afcb-46fc-a216-c2ec348a02df","ios":"levelo://app?vid=de22428a-afcb-46fc-a216-c2ec348a02df"},"vehicle_type_id":"4","last_reported":1730380671,"current_range_meters":37600,"station_id":"ce4bgl12rcd13ifvqbo0","pricing_plan_id":"cebpf4jnsgd1na2vs0mg"},{"bike_id":"72e37474-1bc8-4568-aec8-ce5464e6b828","system_id":"levelo_inurba_marseille","lat":43.2319,"lon":5.355499,"is_reserved":false,"is_disabled":false,"rental_uris":{"android":"levelo://app?vid=72e37474-1bc8-4568-aec8-ce5464e6b828","ios":"levelo://app?vid=72e37474-1bc8-4568-aec8-ce5464e6b828"},"vehicle_type_id":"4","last_reported":1730380671,"current_range_meters":24800,"station_id":"ce4bhu92rcd13ifvqi70","pricing_plan_id":"cebpf4jnsgd1na2vs0mg"},{"bike_id":"1205d633-4986-4c67-9432-2d423a89c40d","system_id":"levelo_inurba_marseille","lat":43.27172,"lon":5.4099,"is_reserved":false,"is_disabled":false,"rental_uris":{"android":"levelo://app?vid=1205d633-4986-4c67-9432-2d423a89c40d","ios":"levelo://app?vid=1205d633-4986-4c67-9432-2d423a89c40d"},"vehicle_type_id":"4","last_reported":1730380671,"current_range_meters":34000,"station_id":"ce4bhl12rcd13ifvqgf0","pricing_plan_id":"cebpf4jnsgd1na2vs0mg"},{"bike_id":"ff0b9635-80db-4ddf-8cbd-0aed72fe4647","system_id":"levelo_inurba_marseille","lat":43.29004,"lon":5.35615,"is_reserved":false,"is_disabled":false,"rental_uris":{"android":"levelo://app?vid=ff0b9635-80db-4ddf-8cbd-0aed72fe4647","ios":"levelo://app?vid=ff0b9635-80db-4ddf-8cbd-0aed72fe4647"},"vehicle_type_id":"4","last_reported":1730380671,"current_range_meters":16400,"station_id":"ce4bhb92rcd13ifvqen0","pricing_plan_id":"cebpf4jnsgd1na2vs0mg"},{"bike_id":"3c07b76a-6f9b-42d9-b43a-98d28ab9aacb","system_id":"levelo_inurba_marseille","lat":43.28421,"lon":5.34988,"is_reserved":false,"is_disabled":false,"rental_uris":{"android":"levelo://app?vid=3c07b76a-6f9b-42d9-b43a-98d28ab9aacb","ios":"levelo://app?vid=3c07b76a-6f9b-42d9-b43a-98d28ab9aacb"},"vehicle_type_id":"4","last_reported":1730380671,"current_range_meters":27600,"station_id":"ce4bhbh2rcd13ifvqepg","pricing_plan_id":"cebpf4jnsgd1na2vs0mg"},{"bike_id":"88dc58c8-a632-450d-98e1-c0f672ee9cc5","system_id":"levelo_inurba_marseille","lat":43.24386,"lon":5.37048,"is_reserved":false,"is_disabled":false,"rental_uris":{"android":"levelo://app?vid=88dc58c8-a632-450d-98e1-c0f672ee9cc5","ios":"levelo://app?vid=88dc58c8-a632-450d-98e1-c0f672ee9cc5"},"vehicle_type_id":"4","last_reported":1730380671,"current_range_meters":36400,"station_id":"ce4bhhh2rcd13ifvqfk0","pricing_plan_id":"cebpf4jnsgd1na2vs0mg"},{"bike_id":"54d2e7c1-0997-4e85-b497-01eca9eb4f00","system_id":"levelo_inurba_marseille","lat":43.2319,"lon":5.3555,"is_reserved":false,"is_disabled":false,"rental_uris":{"android":"levelo://app?vid=54d2e7c1-0997-4e85-b497-01eca9eb4f00","ios":"levelo://app?vid=54d2e7c1-0997-4e85-b497-01eca9eb4f00"},"vehicle_type_id":"4","last_reported":1730380671,"current_range_meters":9600,"station_id":"ce4bhu92rcd13ifvqi70","pricing_plan_id":"cebpf4jnsgd1na2vs0mg"},{"bike_id":"4f53fa84-6536-434a-ab09-0eb885d2d0d1","system_id":"levelo_inurba_marseille","lat":43.26684,"lon":5.38277,"is_reserved":false,"is_disabled":false,"rental_uris":{"android":"levelo://app?vid=4f53fa84-6536-434a-ab09-0eb885d2d0d1","ios":"levelo://app?vid=4f53fa84-6536-434a-ab09-0eb885d2d0d1"},"vehicle_type_id":"4","last_reported":1730380671,"current_range_meters":34800,"station_id":"ce4bhg92rcd13ifvqf90","pricing_plan_id":"cebpf4jnsgd1na2vs0mg"},{"bike_id":"aac4c3cf-b8ec-4996-b2ee-ae97f67f8b8b","system_id":"levelo_inurba_marseille","lat":43.265,"lon":5.39572,"is_reserved":false,"is_disabled":false,"rental_uris":{"android":"levelo://app?vid=aac4c3cf-b8ec-4996-b2ee-ae97f67f8b8b","ios":"levelo://app?vid=aac4c3cf-b8ec-4996-b2ee-ae97f67f8b8b"},"vehicle_type_id":"4","last_reported":1730380671,"current_range_meters":35600,"station_id":"ce4bhi12rcd13ifvqfq0","pricing_plan_id":"cebpf4jnsgd1na2vs0mg"},{"bike_id":"ef5c5713-2ed5-40ed-80ce-3e51e9b36a3d","system_id":"levelo_inurba_marseille","lat":43.29871,"lon":5.3973,"is_reserved":false,"is_disabled":false,"rental_uris":{"android":"levelo://app?vid=ef5c5713-2ed5-40ed-80ce-3e51e9b36a3d","ios":"levelo://app?vid=ef5c5713-2ed5-40ed-80ce-3e51e9b36a3d"},"vehicle_type_id":"4","last_reported":1730380671,"current_range_meters":34800,"station_id":"ce4bh0h2rcd13ifvqd50","pricing_plan_id":"cebpf4jnsgd1na2vs0mg"},{"bike_id":"4d255840-7c8d-4bce-bc80-1811fe20b3b2","system_id":"levelo_inurba_marseille","lat":43.26495,"lon":5.39543,"is_reserved":false,"is_disabled":false,"rental_uris":{"android":"levelo://app?vid=4d255840-7c8d-4bce-bc80-1811fe20b3b2","ios":"levelo://app?vid=4d255840-7c8d-4bce-bc80-1811fe20b3b2"},"vehicle_type_id":"4","last_reported":1730380671,"current_range_meters":38000,"station_id":"ce4bhi12rcd13ifvqfq0","pricing_plan_id":"cebpf4jnsgd1na2vs0mg"},{"bike_id":"2659f0d8-ec82-4e55-af4b-4454040c8263","system_id":"levelo_inurba_marseille","lat":43.27998,"lon":5.41659,"is_reserved":false,"is_disabled":false,"rental_uris":{"android":"levelo://app?vid=2659f0d8-ec82-4e55-af4b-4454040c8263","ios":"levelo://app?vid=2659f0d8-ec82-4e55-af4b-4454040c8263"},"vehicle_type_id":"4","last_reported":1730380671,"current_range_meters":2000,"station_id":"ce4bho12rcd13ifvqh1g","pricing_plan_id":"cebpf4jnsgd1na2vs0mg"},{"bike_id":"bda2c83a-08fb-4cdd-b4d9-b56aab03654c","system_id":"levelo_inurba_marseille","lat":43.2847,"lon":5.38416,"is_reserved":false,"is_disabled":false,"rental_uris":{"android":"levelo://app?vid=bda2c83a-08fb-4cdd-b4d9-b56aab03654c","ios":"levelo://app?vid=bda2c83a-08fb-4cdd-b4d9-b56aab03654c"},"vehicle_type_id":"4","last_reported":1730380671,"current_range_meters":16400,"station_id":"ce4bh512rcd13ifvqe3g","pricing_plan_id":"cebpf4jnsgd1na2vs0mg"},{"bike_id":"0015e615-0717-4073-82f0-60f1716f8614","system_id":"levelo_inurba_marseille","lat":43.30143,"lon":5.38078,"is_reserved":false,"is_disabled":false,"rental_uris":{"android":"levelo://app?vid=0015e615-0717-4073-82f0-60f1716f8614","ios":"levelo://app?vid=0015e615-0717-4073-82f0-60f1716f8614"},"vehicle_type_id":"4","last_reported":1730380671,"current_range_meters":12000,"station_id":"ce4bgjp2rcd13ifvqbh0","pricing_plan_id":"cebpf4jnsgd1na2vs0mg"},{"bike_id":"d94c5a94-39b4-4f2f-8fa0-07ce468e6043","system_id":"levelo_inurba_marseille","lat":43.30095,"lon":5.39079,"is_reserved":false,"is_disabled":false,"rental_uris":{"android":"levelo://app?vid=d94c5a94-39b4-4f2f-8fa0-07ce468e6043","ios":"levelo://app?vid=d94c5a94-39b4-4f2f-8fa0-07ce468e6043"},"vehicle_type_id":"4","last_reported":1730380671,"current_range_meters":37600,"station_id":"ce4bh192rcd13ifvqdb0","pricing_plan_id":"cebpf4jnsgd1na2vs0mg"},{"bike_id":"afbdb5bf-0e3e-49a1-9426-d223ea6f373a","system_id":"levelo_inurba_marseille","lat":43.31497,"lon":5.37307,"is_reserved":false,"is_disabled":false,"rental_uris":{"android":"levelo://app?vid=afbdb5bf-0e3e-49a1-9426-d223ea6f373a","ios":"levelo://app?vid=afbdb5bf-0e3e-49a1-9426-d223ea6f373a"},"vehicle_type_id":"4","last_reported":1730380671,"current_range_meters":7200,"station_id":"ce4bgt12rcd13ifvqcd0","pricing_plan_id":"cebpf4jnsgd1na2vs0mg"},{"bike_id":"aa9d88a0-daf2-4d34-8ddb-f0c8bb7d59e8","system_id":"levelo_inurba_marseille","lat":43.28276,"lon":5.35068,"is_reserved":false,"is_disabled":false,"rental_uris":{"android":"levelo://app?vid=aa9d88a0-daf2-4d34-8ddb-f0c8bb7d59e8","ios":"levelo://app?vid=aa9d88a0-daf2-4d34-8ddb-f0c8bb7d59e8"},"vehicle_type_id":"4","last_reported":1730380671,"current_range_meters":30800,"station_id":"ce4bhbp2rcd13ifvqerg","pricing_plan_id":"cebpf4jnsgd1na2vs0mg"},{"bike_id":"77109f5f-47ee-4c29-b48f-5b6b5c2a01ab","system_id":"levelo_inurba_marseille","lat":43.2988,"lon":5.3973,"is_reserved":false,"is_disabled":false,"rental_uris":{"android":"levelo://app?vid=77109f5f-47ee-4c29-b48f-5b6b5c2a01ab","ios":"levelo://app?vid=77109f5f-47ee-4c29-b48f-5b6b5c2a01ab"},"vehicle_type_id":"4","last_reported":1730380671,"current_range_meters":35200,"station_id":"ce4bh0h2rcd13ifvqd50","pricing_plan_id":"cebpf4jnsgd1na2vs0mg"},{"bike_id":"d6419497-db25-46dc-9b09-80b762d6c261","system_id":"levelo_inurba_marseille","lat":43.29983,"lon":5.38484,"is_reserved":false,"is_disabled":false,"rental_uris":{"android":"levelo://app?vid=d6419497-db25-46dc-9b09-80b762d6c261","ios":"levelo://app?vid=d6419497-db25-46dc-9b09-80b762d6c261"},"vehicle_type_id":"4","last_reported":1730380671,"current_range_meters":36000,"station_id":"ce4bgj92rcd13ifvqbd0","pricing_plan_id":"cebpf4jnsgd1na2vs0mg"},{"bike_id":"6f935311-d4dd-423d-866f-b1d52c3e1fdf","system_id":"levelo_inurba_marseille","lat":43.301479,"lon":5.380752,"is_reserved":false,"is_disabled":false,"rental_uris":{"android":"levelo://app?vid=6f935311-d4dd-423d-866f-b1d52c3e1fdf","ios":"levelo://app?vid=6f935311-d4dd-423d-866f-b1d52c3e1fdf"},"vehicle_type_id":"4","last_reported":1730380671,"current_range_meters":17600,"station_id":"ce4bgjp2rcd13ifvqbh0","pricing_plan_id":"cebpf4jnsgd1na2vs0mg"},{"bike_id":"63b03bec-4d7a-47db-9296-710c2b74b8cb","system_id":"levelo_inurba_marseille","lat":43.26057,"lon":5.39398,"is_reserved":false,"is_disabled":false,"rental_uris":{"android":"levelo://app?vid=63b03bec-4d7a-47db-9296-710c2b74b8cb","ios":"levelo://app?vid=63b03bec-4d7a-47db-9296-710c2b74b8cb"},"vehicle_type_id":"4","last_reported":1730380671,"current_range_meters":38800,"station_id":"ce4bhh92rcd13ifvqfj0","pricing_plan_id":"cebpf4jnsgd1na2vs0mg"},{"bike_id":"99a27b9d-7adf-42f9-9096-645b28dfbe7b","system_id":"levelo_inurba_marseille","lat":43.337444,"lon":5.374475,"is_reserved":false,"is_disabled":false,"rental_uris":{"android":"levelo://app?vid=99a27b9d-7adf-42f9-9096-645b28dfbe7b","ios":"levelo://app?vid=99a27b9d-7adf-42f9-9096-645b28dfbe7b"},"vehicle_type_id":"4","last_reported":1730380671,"current_range_meters":28000,"station_id":"ce4bh0h2rcd13ifvqd50","pricing_plan_id":"cebpf4jnsgd1na2vs0mg"},{"bike_id":"ac2bb9db-3934-4540-9307-2fe9eb833ccb","system_id":"levelo_inurba_marseille","lat":43.303011,"lon":5.39218,"is_reserved":false,"is_disabled":false,"rental_uris":{"android":"levelo://app?vid=ac2bb9db-3934-4540-9307-2fe9eb833ccb","ios":"levelo://app?vid=ac2bb9db-3934-4540-9307-2fe9eb833ccb"},"vehicle_type_id":"4","last_reported":1730380671,"current_range_meters":24400,"station_id":"ce4bgkh2rcd13ifvqbk0","pricing_plan_id":"cebpf4jnsgd1na2vs0mg"},{"bike_id":"cbd6e71b-da90-49a9-852e-9e6ceb2a79ce","system_id":"levelo_inurba_marseille","lat":43.23181,"lon":5.39982,"is_reserved":false,"is_disabled":false,"rental_uris":{"android":"levelo://app?vid=cbd6e71b-da90-49a9-852e-9e6ceb2a79ce","ios":"levelo://app?vid=cbd6e71b-da90-49a9-852e-9e6ceb2a79ce"},"vehicle_type_id":"4","last_reported":1730380671,"current_range_meters":38800,"station_id":"ce4bhn12rcd13ifvqgqg","pricing_plan_id":"cebpf4jnsgd1na2vs0mg"},{"bike_id":"b0ecf78b-d6d1-4621-98b9-7fe86c3b4939","system_id":"levelo_inurba_marseille","lat":43.31756,"lon":5.39017,"is_reserved":false,"is_disabled":false,"rental_uris":{"android":"levelo://app?vid=b0ecf78b-d6d1-4621-98b9-7fe86c3b4939","ios":"levelo://app?vid=b0ecf78b-d6d1-4621-98b9-7fe86c3b4939"},"vehicle_type_id":"4","last_reported":1730380671,"current_range_meters":20800,"station_id":"ce4bhqp2rcd13ifvqhng","pricing_plan_id":"cebpf4jnsgd1na2vs0mg"},{"bike_id":"1cba9dd1-e9db-4665-8a3a-a295ee18f30c","system_id":"levelo_inurba_marseille","lat":43.25824,"lon":5.3943,"is_reserved":false,"is_disabled":false,"rental_uris":{"android":"levelo://app?vid=1cba9dd1-e9db-4665-8a3a-a295ee18f30c","ios":"levelo://app?vid=1cba9dd1-e9db-4665-8a3a-a295ee18f30c"},"vehicle_type_id":"4","last_reported":1730380671,"current_range_meters":16800,"station_id":"ce4bhip2rcd13ifvqft0","pricing_plan_id":"cebpf4jnsgd1na2vs0mg"},{"bike_id":"07fdb256-9223-4a93-b11a-97c6d4aec79b","system_id":"levelo_inurba_marseille","lat":43.23194,"lon":5.35548,"is_reserved":false,"is_disabled":false,"rental_uris":{"android":"levelo://app?vid=07fdb256-9223-4a93-b11a-97c6d4aec79b","ios":"levelo://app?vid=07fdb256-9223-4a93-b11a-97c6d4aec79b"},"vehicle_type_id":"4","last_reported":1730380671,"current_range_meters":17600,"station_id":"ce4bhu92rcd13ifvqi70","pricing_plan_id":"cebpf4jnsgd1na2vs0mg"},{"bike_id":"b503c5a4-0789-4753-98eb-4d5bd5fe28a7","system_id":"levelo_inurba_marseille","lat":43.30547,"lon":5.36703,"is_reserved":false,"is_disabled":false,"rental_uris":{"android":"levelo://app?vid=b503c5a4-0789-4753-98eb-4d5bd5fe28a7","ios":"levelo://app?vid=b503c5a4-0789-4753-98eb-4d5bd5fe28a7"},"vehicle_type_id":"4","last_reported":1730380671,"current_range_meters":38800,"station_id":"ce4bgrp2rcd13ifvqc9g","pricing_plan_id":"cebpf4jnsgd1na2vs0mg"},{"bike_id":"115c2c03-b2c5-4071-a92a-0a2c122a5063","system_id":"levelo_inurba_marseille","lat":43.2901,"lon":5.35623,"is_reserved":false,"is_disabled":false,"rental_uris":{"android":"levelo://app?vid=115c2c03-b2c5-4071-a92a-0a2c122a5063","ios":"levelo://app?vid=115c2c03-b2c5-4071-a92a-0a2c122a5063"},"vehicle_type_id":"4","last_reported":1730380671,"current_range_meters":33200,"station_id":"ce4bhb92rcd13ifvqen0","pricing_plan_id":"cebpf4jnsgd1na2vs0mg"},{"bike_id":"ec887f96-3e7c-4cc5-bffc-e14c99385849","system_id":"levelo_inurba_marseille","lat":43.32103,"lon":5.36779,"is_reserved":false,"is_disabled":false,"rental_uris":{"android":"levelo://app?vid=ec887f96-3e7c-4cc5-bffc-e14c99385849","ios":"levelo://app?vid=ec887f96-3e7c-4cc5-bffc-e14c99385849"},"vehicle_type_id":"4","last_reported":1730380671,"current_range_meters":8800,"station_id":"ce4bhrh2rcd13ifvqhug","pricing_plan_id":"cebpf4jnsgd1na2vs0mg"},{"bike_id":"3d47724b-d743-47eb-a53e-33a559a28cc6","system_id":"levelo_inurba_marseille","lat":43.30922,"lon":5.36853,"is_reserved":false,"is_disabled":false,"rental_uris":{"android":"levelo://app?vid=3d47724b-d743-47eb-a53e-33a559a28cc6","ios":"levelo://app?vid=3d47724b-d743-47eb-a53e-33a559a28cc6"},"vehicle_type_id":"4","last_reported":1730380671,"current_range_meters":35200,"station_id":"ce4bgn92rcd13ifvqbvg","pricing_plan_id":"cebpf4jnsgd1na2vs0mg"},{"bike_id":"1995d42f-9bb2-423e-a419-1706f5fab24e","system_id":"levelo_inurba_marseille","lat":43.2707,"lon":5.42279,"is_reserved":false,"is_disabled":false,"rental_uris":{"android":"levelo://app?vid=1995d42f-9bb2-423e-a419-1706f5fab24e","ios":"levelo://app?vid=1995d42f-9bb2-423e-a419-1706f5fab24e"},"vehicle_type_id":"4","last_reported":1730380671,"current_range_meters":28800,"station_id":"ce4bhk92rcd13ifvqgb0","pricing_plan_id":"cebpf4jnsgd1na2vs0mg"},{"bike_id":"d75a5f39-6d7e-41fe-bdc2-13c4c09528e6","system_id":"levelo_inurba_marseille","lat":43.23185,"lon":5.39986,"is_reserved":false,"is_disabled":false,"rental_uris":{"android":"levelo://app?vid=d75a5f39-6d7e-41fe-bdc2-13c4c09528e6","ios":"levelo://app?vid=d75a5f39-6d7e-41fe-bdc2-13c4c09528e6"},"vehicle_type_id":"4","last_reported":1730380671,"current_range_meters":39200,"station_id":"ce4bhn12rcd13ifvqgqg","pricing_plan_id":"cebpf4jnsgd1na2vs0mg"},{"bike_id":"be4cec61-2fbe-4c41-bc8f-6cef6f495468","system_id":"levelo_inurba_marseille","lat":43.31332,"lon":5.39697,"is_reserved":false,"is_disabled":false,"rental_uris":{"android":"levelo://app?vid=be4cec61-2fbe-4c41-bc8f-6cef6f495468","ios":"levelo://app?vid=be4cec61-2fbe-4c41-bc8f-6cef6f495468"},"vehicle_type_id":"4","last_reported":1730380671,"current_range_meters":36800,"station_id":"ce4bgvp2rcd13ifvqcu0","pricing_plan_id":"cebpf4jnsgd1na2vs0mg"},{"bike_id":"545aca46-6c74-4b79-97a6-908574003b9f","system_id":"levelo_inurba_marseille","lat":43.31075,"lon":5.38355,"is_reserved":false,"is_disabled":false,"rental_uris":{"android":"levelo://app?vid=545aca46-6c74-4b79-97a6-908574003b9f","ios":"levelo://app?vid=545aca46-6c74-4b79-97a6-908574003b9f"},"vehicle_type_id":"4","last_reported":1730380671,"current_range_meters":29600,"station_id":"ce4bgv92rcd13ifvqcr0","pricing_plan_id":"cebpf4jnsgd1na2vs0mg"},{"bike_id":"617ede28-606c-49a1-91d5-52be2d53a19b","system_id":"levelo_inurba_marseille","lat":43.29095,"lon":5.38153,"is_reserved":false,"is_disabled":false,"rental_uris":{"android":"levelo://app?vid=617ede28-606c-49a1-91d5-52be2d53a19b","ios":"levelo://app?vid=617ede28-606c-49a1-91d5-52be2d53a19b"},"vehicle_type_id":"4","last_reported":1730380671,"current_range_meters":6400,"station_id":"ce4bh512rcd13ifvqe2g","pricing_plan_id":"cebpf4jnsgd1na2vs0mg"},{"bike_id":"39ed807e-b8c2-43a4-aa5b-6cac37ca2061","system_id":"levelo_inurba_marseille","lat":43.26199,"lon":5.37451,"is_reserved":false,"is_disabled":false,"rental_uris":{"android":"levelo://app?vid=39ed807e-b8c2-43a4-aa5b-6cac37ca2061","ios":"levelo://app?vid=39ed807e-b8c2-43a4-aa5b-6cac37ca2061"},"vehicle_type_id":"4","last_reported":1730380671,"current_range_meters":25600,"station_id":"ce4bhgp2rcd13ifvqfc0","pricing_plan_id":"cebpf4jnsgd1na2vs0mg"},{"bike_id":"257ae5f3-c207-46eb-a81f-4da2c80f5e52","system_id":"levelo_inurba_marseille","lat":43.30145,"lon":5.3742,"is_reserved":false,"is_disabled":false,"rental_uris":{"android":"levelo://app?vid=257ae5f3-c207-46eb-a81f-4da2c80f5e52","ios":"levelo://app?vid=257ae5f3-c207-46eb-a81f-4da2c80f5e52"},"vehicle_type_id":"4","last_reported":1730380671,"current_range_meters":28000,"station_id":"ce4bgs92rcd13ifvqcc0","pricing_plan_id":"cebpf4jnsgd1na2vs0mg"},{"bike_id":"192760e8-cf69-4140-951e-2eb47291bee9","system_id":"levelo_inurba_marseille","lat":43.25862,"lon":5.399,"is_reserved":false,"is_disabled":false,"rental_uris":{"android":"levelo://app?vid=192760e8-cf69-4140-951e-2eb47291bee9","ios":"levelo://app?vid=192760e8-cf69-4140-951e-2eb47291bee9"},"vehicle_type_id":"4","last_reported":1730380671,"current_range_meters":32800,"station_id":"ce4bhl92rcd13ifvqghg","pricing_plan_id":"cebpf4jnsgd1na2vs0mg"},{"bike_id":"ae9b7c64-4f3b-4e81-8349-8dae256e21f1","system_id":"levelo_inurba_marseille","lat":43.30147,"lon":5.3742,"is_reserved":false,"is_disabled":false,"rental_uris":{"android":"levelo://app?vid=ae9b7c64-4f3b-4e81-8349-8dae256e21f1","ios":"levelo://app?vid=ae9b7c64-4f3b-4e81-8349-8dae256e21f1"},"vehicle_type_id":"4","last_reported":1730380671,"current_range_meters":37600,"station_id":"ce4bgs92rcd13ifvqcc0","pricing_plan_id":"cebpf4jnsgd1na2vs0mg"},{"bike_id":"943f2cb7-cf89-48de-9984-d84cecfe8fec","system_id":"levelo_inurba_marseille","lat":43.25865,"lon":5.39901,"is_reserved":false,"is_disabled":false,"rental_uris":{"android":"levelo://app?vid=943f2cb7-cf89-48de-9984-d84cecfe8fec","ios":"levelo://app?vid=943f2cb7-cf89-48de-9984-d84cecfe8fec"},"vehicle_type_id":"4","last_reported":1730380671,"current_range_meters":36000,"station_id":"ce4bhl92rcd13ifvqghg","pricing_plan_id":"cebpf4jnsgd1na2vs0mg"},{"bike_id":"94279a57-03c0-47b7-abe3-7226e86fd3b0","system_id":"levelo_inurba_marseille","lat":43.2761,"lon":5.36103,"is_reserved":false,"is_disabled":false,"rental_uris":{"android":"levelo://app?vid=94279a57-03c0-47b7-abe3-7226e86fd3b0","ios":"levelo://app?vid=94279a57-03c0-47b7-abe3-7226e86fd3b0"},"vehicle_type_id":"4","last_reported":1730380671,"current_range_meters":30000,"station_id":"ce4bgj92rcd13ifvqbe0","pricing_plan_id":"cebpf4jnsgd1na2vs0mg"},{"bike_id":"1ace14c5-1992-46b1-87cf-4a1d3c62f592","system_id":"levelo_inurba_marseille","lat":43.28154,"lon":5.42643,"is_reserved":false,"is_disabled":false,"rental_uris":{"android":"levelo://app?vid=1ace14c5-1992-46b1-87cf-4a1d3c62f592","ios":"levelo://app?vid=1ace14c5-1992-46b1-87cf-4a1d3c62f592"},"vehicle_type_id":"4","last_reported":1730380671,"current_range_meters":16400,"station_id":"ce4bhnh2rcd13ifvqgug","pricing_plan_id":"cebpf4jnsgd1na2vs0mg"},{"bike_id":"8f564303-b2db-4676-9612-44d2d550b600","system_id":"levelo_inurba_marseille","lat":43.29919,"lon":5.37474,"is_reserved":false,"is_disabled":false,"rental_uris":{"android":"levelo://app?vid=8f564303-b2db-4676-9612-44d2d550b600","ios":"levelo://app?vid=8f564303-b2db-4676-9612-44d2d550b600"},"vehicle_type_id":"4","last_reported":1730380671,"current_range_meters":8000,"station_id":"ce4bgjh2rcd13ifvqbg0","pricing_plan_id":"cebpf4jnsgd1na2vs0mg"},{"bike_id":"2b7ad954-2153-42d9-a62a-cf7d63fc6b0e","system_id":"levelo_inurba_marseille","lat":43.28416,"lon":5.35005,"is_reserved":false,"is_disabled":false,"rental_uris":{"android":"levelo://app?vid=2b7ad954-2153-42d9-a62a-cf7d63fc6b0e","ios":"levelo://app?vid=2b7ad954-2153-42d9-a62a-cf7d63fc6b0e"},"vehicle_type_id":"4","last_reported":1730380671,"current_range_meters":38800,"station_id":"ce4bhbh2rcd13ifvqepg","pricing_plan_id":"cebpf4jnsgd1na2vs0mg"},{"bike_id":"9e9467dc-08bd-4540-a622-7c942da68b8d","system_id":"levelo_inurba_marseille","lat":43.25576,"lon":5.38234,"is_reserved":false,"is_disabled":false,"rental_uris":{"android":"levelo://app?vid=9e9467dc-08bd-4540-a622-7c942da68b8d","ios":"levelo://app?vid=9e9467dc-08bd-4540-a622-7c942da68b8d"},"vehicle_type_id":"4","last_reported":1730380671,"current_range_meters":4000,"station_id":"ce4bhih2rcd13ifvqfs0","pricing_plan_id":"cebpf4jnsgd1na2vs0mg"},{"bike_id":"91ab86ec-081e-420a-bc11-75e3d405a074","system_id":"levelo_inurba_marseille","lat":43.29609,"lon":5.37713,"is_reserved":false,"is_disabled":false,"rental_uris":{"android":"levelo://app?vid=91ab86ec-081e-420a-bc11-75e3d405a074","ios":"levelo://app?vid=91ab86ec-081e-420a-bc11-75e3d405a074"},"vehicle_type_id":"4","last_reported":1730380671,"current_range_meters":30000,"station_id":"ce4bgi92rcd13ifvqb90","pricing_plan_id":"cebpf4jnsgd1na2vs0mg"},{"bike_id":"365a4305-5de4-47e5-9e89-03813707d1d2","system_id":"levelo_inurba_marseille","lat":43.30529,"lon":5.36537,"is_reserved":false,"is_disabled":false,"rental_uris":{"android":"levelo://app?vid=365a4305-5de4-47e5-9e89-03813707d1d2","ios":"levelo://app?vid=365a4305-5de4-47e5-9e89-03813707d1d2"},"vehicle_type_id":"4","last_reported":1730380671,"current_range_meters":29600,"station_id":"ce4bgs12rcd13ifvqcag","pricing_plan_id":"cebpf4jnsgd1na2vs0mg"},{"bike_id":"3a336fc9-38de-4c24-ac51-2d1349fb6063","system_id":"levelo_inurba_marseille","lat":43.291022,"lon":5.381393,"is_reserved":false,"is_disabled":false,"rental_uris":{"android":"levelo://app?vid=3a336fc9-38de-4c24-ac51-2d1349fb6063","ios":"levelo://app?vid=3a336fc9-38de-4c24-ac51-2d1349fb6063"},"vehicle_type_id":"4","last_reported":1730380671,"current_range_meters":38000,"station_id":"ce4bh512rcd13ifvqe2g","pricing_plan_id":"cebpf4jnsgd1na2vs0mg"},{"bike_id":"2a6ad096-7062-46e4-bc12-9a878be714fc","system_id":"levelo_inurba_marseille","lat":43.2926,"lon":5.3845,"is_reserved":false,"is_disabled":false,"rental_uris":{"android":"levelo://app?vid=2a6ad096-7062-46e4-bc12-9a878be714fc","ios":"levelo://app?vid=2a6ad096-7062-46e4-bc12-9a878be714fc"},"vehicle_type_id":"4","last_reported":1730380671,"current_range_meters":2800,"station_id":"ce4bh692rcd13ifvqea0","pricing_plan_id":"cebpf4jnsgd1na2vs0mg"},{"bike_id":"cfb603b4-16f7-4b71-b431-edb1115e6fb0","system_id":"levelo_inurba_marseille","lat":43.28852,"lon":5.39319,"is_reserved":false,"is_disabled":false,"rental_uris":{"android":"levelo://app?vid=cfb603b4-16f7-4b71-b431-edb1115e6fb0","ios":"levelo://app?vid=cfb603b4-16f7-4b71-b431-edb1115e6fb0"},"vehicle_type_id":"4","last_reported":1730380671,"current_range_meters":11200,"station_id":"ce4bh2p2rcd13ifvqdi0","pricing_plan_id":"cebpf4jnsgd1na2vs0mg"},{"bike_id":"0e6dd02c-46ea-478c-9dc6-e1b5bd3823e1","system_id":"levelo_inurba_marseille","lat":43.30137,"lon":5.37429,"is_reserved":false,"is_disabled":false,"rental_uris":{"android":"levelo://app?vid=0e6dd02c-46ea-478c-9dc6-e1b5bd3823e1","ios":"levelo://app?vid=0e6dd02c-46ea-478c-9dc6-e1b5bd3823e1"},"vehicle_type_id":"4","last_reported":1730380671,"current_range_meters":39200,"station_id":"ce4bgs92rcd13ifvqcc0","pricing_plan_id":"cebpf4jnsgd1na2vs0mg"},{"bike_id":"3b67ccff-25a4-496e-9570-3bc2589f4298","system_id":"levelo_inurba_marseille","lat":43.29872,"lon":5.39727,"is_reserved":false,"is_disabled":false,"rental_uris":{"android":"levelo://app?vid=3b67ccff-25a4-496e-9570-3bc2589f4298","ios":"levelo://app?vid=3b67ccff-25a4-496e-9570-3bc2589f4298"},"vehicle_type_id":"4","last_reported":1730380671,"current_range_meters":38800,"station_id":"ce4bh0h2rcd13ifvqd50","pricing_plan_id":"cebpf4jnsgd1na2vs0mg"},{"bike_id":"8d55059d-4a15-4b09-a116-4cf3861a0950","system_id":"levelo_inurba_marseille","lat":43.2928,"lon":5.36846,"is_reserved":false,"is_disabled":false,"rental_uris":{"android":"levelo://app?vid=8d55059d-4a15-4b09-a116-4cf3861a0950","ios":"levelo://app?vid=8d55059d-4a15-4b09-a116-4cf3861a0950"},"vehicle_type_id":"4","last_reported":1730380671,"current_range_meters":28000,"station_id":"ce4bhbp2rcd13ifvqesg","pricing_plan_id":"cebpf4jnsgd1na2vs0mg"},{"bike_id":"33d7239f-73a3-4ee6-886d-d4f39be7304a","system_id":"levelo_inurba_marseille","lat":43.31829,"lon":5.374,"is_reserved":false,"is_disabled":false,"rental_uris":{"android":"levelo://app?vid=33d7239f-73a3-4ee6-886d-d4f39be7304a","ios":"levelo://app?vid=33d7239f-73a3-4ee6-886d-d4f39be7304a"},"vehicle_type_id":"4","last_reported":1730380671,"current_range_meters":14800,"station_id":"","pricing_plan_id":"cebpf4jnsgd1na2vs0mg"},{"bike_id":"42ffdd3f-03b1-4afd-ac35-5390334ba104","system_id":"levelo_inurba_marseille","lat":43.28618,"lon":5.35105,"is_reserved":false,"is_disabled":false,"rental_uris":{"android":"levelo://app?vid=42ffdd3f-03b1-4afd-ac35-5390334ba104","ios":"levelo://app?vid=42ffdd3f-03b1-4afd-ac35-5390334ba104"},"vehicle_type_id":"4","last_reported":1730380671,"current_range_meters":4400,"station_id":"ce4bhch2rcd13ifvqeug","pricing_plan_id":"cebpf4jnsgd1na2vs0mg"},{"bike_id":"3e68ff33-06ed-4f58-92d6-c7e8e60269c9","system_id":"levelo_inurba_marseille","lat":43.32478,"lon":5.36549,"is_reserved":false,"is_disabled":false,"rental_uris":{"android":"levelo://app?vid=3e68ff33-06ed-4f58-92d6-c7e8e60269c9","ios":"levelo://app?vid=3e68ff33-06ed-4f58-92d6-c7e8e60269c9"},"vehicle_type_id":"4","last_reported":1730380671,"current_range_meters":36400,"station_id":"ce4bhs12rcd13ifvqhvg","pricing_plan_id":"cebpf4jnsgd1na2vs0mg"},{"bike_id":"0b8ed408-0c1d-4ce3-af8c-05c9a872ed51","system_id":"levelo_inurba_marseille","lat":43.24387,"lon":5.37061,"is_reserved":false,"is_disabled":false,"rental_uris":{"android":"levelo://app?vid=0b8ed408-0c1d-4ce3-af8c-05c9a872ed51","ios":"levelo://app?vid=0b8ed408-0c1d-4ce3-af8c-05c9a872ed51"},"vehicle_type_id":"4","last_reported":1730380671,"current_range_meters":31200,"station_id":"ce4bhhh2rcd13ifvqfk0","pricing_plan_id":"cebpf4jnsgd1na2vs0mg"},{"bike_id":"8fbee397-c726-4d42-ae6d-7e6a955a3eb5","system_id":"levelo_inurba_marseille","lat":43.23062,"lon":5.35491,"is_reserved":false,"is_disabled":false,"rental_uris":{"android":"levelo://app?vid=8fbee397-c726-4d42-ae6d-7e6a955a3eb5","ios":"levelo://app?vid=8fbee397-c726-4d42-ae6d-7e6a955a3eb5"},"vehicle_type_id":"4","last_reported":1730380671,"current_range_meters":36800,"station_id":"cpo3342slgdg3j2ifvpg","pricing_plan_id":"cebpf4jnsgd1na2vs0mg"},{"bike_id":"fea23d88-9bbb-4ffa-af08-7b03ca37348f","system_id":"levelo_inurba_marseille","lat":43.23185,"lon":5.39994,"is_reserved":false,"is_disabled":false,"rental_uris":{"android":"levelo://app?vid=fea23d88-9bbb-4ffa-af08-7b03ca37348f","ios":"levelo://app?vid=fea23d88-9bbb-4ffa-af08-7b03ca37348f"},"vehicle_type_id":"4","last_reported":1730380671,"current_range_meters":26000,"station_id":"ce4bhn12rcd13ifvqgqg","pricing_plan_id":"cebpf4jnsgd1na2vs0mg"},{"bike_id":"712ae6c9-1f24-45dd-8088-e6ab0052c834","system_id":"levelo_inurba_marseille","lat":43.29366,"lon":5.37846,"is_reserved":false,"is_disabled":false,"rental_uris":{"android":"levelo://app?vid=712ae6c9-1f24-45dd-8088-e6ab0052c834","ios":"levelo://app?vid=712ae6c9-1f24-45dd-8088-e6ab0052c834"},"vehicle_type_id":"4","last_reported":1730380671,"current_range_meters":30400,"station_id":"ce4bgjh2rcd13ifvqbf0","pricing_plan_id":"cebpf4jnsgd1na2vs0mg"},{"bike_id":"02e39b18-963f-467b-8c5c-cef232d22c0c","system_id":"levelo_inurba_marseille","lat":43.30179,"lon":5.36605,"is_reserved":false,"is_disabled":false,"rental_uris":{"android":"levelo://app?vid=02e39b18-963f-467b-8c5c-cef232d22c0c","ios":"levelo://app?vid=02e39b18-963f-467b-8c5c-cef232d22c0c"},"vehicle_type_id":"4","last_reported":1730380671,"current_range_meters":30000,"station_id":"ce4bgrh2rcd13ifvqc8g","pricing_plan_id":"cebpf4jnsgd1na2vs0mg"},{"bike_id":"160c3125-d109-49e3-a687-ede78b99dea2","system_id":"levelo_inurba_marseille","lat":43.23185,"lon":5.35543,"is_reserved":false,"is_disabled":false,"rental_uris":{"android":"levelo://app?vid=160c3125-d109-49e3-a687-ede78b99dea2","ios":"levelo://app?vid=160c3125-d109-49e3-a687-ede78b99dea2"},"vehicle_type_id":"4","last_reported":1730380671,"current_range_meters":35600,"station_id":"ce4bhu92rcd13ifvqi70","pricing_plan_id":"cebpf4jnsgd1na2vs0mg"},{"bike_id":"71245586-9147-494e-b2b5-009cf0b127fb","system_id":"levelo_inurba_marseille","lat":43.23188,"lon":5.39989,"is_reserved":false,"is_disabled":false,"rental_uris":{"android":"levelo://app?vid=71245586-9147-494e-b2b5-009cf0b127fb","ios":"levelo://app?vid=71245586-9147-494e-b2b5-009cf0b127fb"},"vehicle_type_id":"4","last_reported":1730380671,"current_range_meters":9200,"station_id":"ce4bhn12rcd13ifvqgqg","pricing_plan_id":"cebpf4jnsgd1na2vs0mg"},{"bike_id":"163a5966-538a-4b74-a3d9-4c9eddf25067","system_id":"levelo_inurba_marseille","lat":43.27374,"lon":5.36247,"is_reserved":false,"is_disabled":false,"rental_uris":{"android":"levelo://app?vid=163a5966-538a-4b74-a3d9-4c9eddf25067","ios":"levelo://app?vid=163a5966-538a-4b74-a3d9-4c9eddf25067"},"vehicle_type_id":"4","last_reported":1730380671,"current_range_meters":24400,"station_id":"ce4bhbh2rcd13ifvqeo0","pricing_plan_id":"cebpf4jnsgd1na2vs0mg"},{"bike_id":"71d10f41-2ffe-4394-bc10-bfa4bb58be1e","system_id":"levelo_inurba_marseille","lat":43.32341,"lon":5.40625,"is_reserved":false,"is_disabled":false,"rental_uris":{"android":"levelo://app?vid=71d10f41-2ffe-4394-bc10-bfa4bb58be1e","ios":"levelo://app?vid=71d10f41-2ffe-4394-bc10-bfa4bb58be1e"},"vehicle_type_id":"4","last_reported":1730380671,"current_range_meters":28400,"station_id":"ce4bhq92rcd13ifvqhjg","pricing_plan_id":"cebpf4jnsgd1na2vs0mg"},{"bike_id":"4fa8b85a-775a-4451-b242-ad0dd1de7ba0","system_id":"levelo_inurba_marseille","lat":43.2815,"lon":5.42639,"is_reserved":false,"is_disabled":false,"rental_uris":{"android":"levelo://app?vid=4fa8b85a-775a-4451-b242-ad0dd1de7ba0","ios":"levelo://app?vid=4fa8b85a-775a-4451-b242-ad0dd1de7ba0"},"vehicle_type_id":"4","last_reported":1730380671,"current_range_meters":27200,"station_id":"ce4bhnh2rcd13ifvqgug","pricing_plan_id":"cebpf4jnsgd1na2vs0mg"},{"bike_id":"3dd8cf99-aebc-4be1-b0dc-8f1455c54275","system_id":"levelo_inurba_marseille","lat":43.30539,"lon":5.36543,"is_reserved":false,"is_disabled":false,"rental_uris":{"android":"levelo://app?vid=3dd8cf99-aebc-4be1-b0dc-8f1455c54275","ios":"levelo://app?vid=3dd8cf99-aebc-4be1-b0dc-8f1455c54275"},"vehicle_type_id":"4","last_reported":1730380671,"current_range_meters":38800,"station_id":"ce4bgs12rcd13ifvqcag","pricing_plan_id":"cebpf4jnsgd1na2vs0mg"},{"bike_id":"271b2fb8-e155-4e83-9382-80713bf86b5a","system_id":"levelo_inurba_marseille","lat":43.28839,"lon":5.39325,"is_reserved":false,"is_disabled":false,"rental_uris":{"android":"levelo://app?vid=271b2fb8-e155-4e83-9382-80713bf86b5a","ios":"levelo://app?vid=271b2fb8-e155-4e83-9382-80713bf86b5a"},"vehicle_type_id":"4","last_reported":1730380671,"current_range_meters":28400,"station_id":"ce4bh2p2rcd13ifvqdi0","pricing_plan_id":"cebpf4jnsgd1na2vs0mg"},{"bike_id":"ecc03056-e0f1-43a6-bffa-0b96062beec5","system_id":"levelo_inurba_marseille","lat":43.26787,"lon":5.39413,"is_reserved":false,"is_disabled":false,"rental_uris":{"android":"levelo://app?vid=ecc03056-e0f1-43a6-bffa-0b96062beec5","ios":"levelo://app?vid=ecc03056-e0f1-43a6-bffa-0b96062beec5"},"vehicle_type_id":"4","last_reported":1730380671,"current_range_meters":20000,"station_id":"ce4bhh12rcd13ifvqfg0","pricing_plan_id":"cebpf4jnsgd1na2vs0mg"},{"bike_id":"d2acf10f-57be-4af1-957f-bd2433e2a4c5","system_id":"levelo_inurba_marseille","lat":43.27569,"lon":5.38422,"is_reserved":false,"is_disabled":false,"rental_uris":{"android":"levelo://app?vid=d2acf10f-57be-4af1-957f-bd2433e2a4c5","ios":"levelo://app?vid=d2acf10f-57be-4af1-957f-bd2433e2a4c5"},"vehicle_type_id":"4","last_reported":1730380671,"current_range_meters":25600,"station_id":"ce4bhh92rcd13ifvqfi0","pricing_plan_id":"cebpf4jnsgd1na2vs0mg"},{"bike_id":"2fe69a16-3a6c-4a24-84a8-7e2572345171","system_id":"levelo_inurba_marseille","lat":43.28616,"lon":5.35106,"is_reserved":false,"is_disabled":false,"rental_uris":{"android":"levelo://app?vid=2fe69a16-3a6c-4a24-84a8-7e2572345171","ios":"levelo://app?vid=2fe69a16-3a6c-4a24-84a8-7e2572345171"},"vehicle_type_id":"4","last_reported":1730380671,"current_range_meters":3200,"station_id":"ce4bhch2rcd13ifvqeug","pricing_plan_id":"cebpf4jnsgd1na2vs0mg"},{"bike_id":"7c763de4-e7ce-4040-b15f-5fc817fb3972","system_id":"levelo_inurba_marseille","lat":43.26798,"lon":5.40261,"is_reserved":false,"is_disabled":false,"rental_uris":{"android":"levelo://app?vid=7c763de4-e7ce-4040-b15f-5fc817fb3972","ios":"levelo://app?vid=7c763de4-e7ce-4040-b15f-5fc817fb3972"},