{"last_updated":1744830451,"ttl":60,"version":"2.2","data":{"bikes":[{"bike_id":"4e106aae-338c-4255-a57f-d42660f42d16","system_id":"levelo_inurba_marseille","lat":43.31281,"lon":5.384946,"is_reserved":false,"is_disabled":false,"rental_uris":{"android":"levelo://app?vid=4e106aae-338c-4255-a57f-d42660f42d16","ios":"levelo://app?vid=4e106aae-338c-4255-a57f-d42660f42d16"},"vehicle_type_id":"4","last_reported":1744830451,"current_range_meters":2000,"station_id":"ce4bgt92rcd13ifvqcf0","pricing_plan_id":"cebpf4jnsgd1na2vs0mg"},{"bike_id":"ea2b72b1-fb3d-493d-ab95-1557396ac249","system_id":"levelo_inurba_marseille","lat":43.28402,"lon":5.3752,"is_reserved":false,"is_disabled":true,"rental_uris":{"android":"levelo://app?vid=ea2b72b1-fb3d-493d-ab95-1557396ac249","ios":"levelo://app?vid=ea2b72b1-fb3d-493d-ab95-1557396ac249"},"vehicle_type_id":"4","last_reported":1744830451,"current_range_meters":2800,"station_id":"ce4bh412rcd13ifvqds0","pricing_plan_id":"cebpf4jnsgd1na2vs0mg"},{"bike_id":"6ec887fa-da6a-45cd-be99-3e70de4ae87c","system_id":"levelo_inurba_marseille","lat":43.29195,"lon":5.39323,"is_reserved":false,"is_disabled":false,"rental_uris":{"android":"levelo://app?vid=6ec887fa-da6a-45cd-be99-3e70de4ae87c","ios":"levelo://app?vid=6ec887fa-da6a-45cd-be99-3e70de4ae87c"},"vehicle_type_id":"4","last_reported":1744830451,"current_range_meters":3600,"station_id":"ce4bh192rcd13ifvqdd0","pricing_plan_id":"cebpf4jnsgd1na2vs0mg"},{"bike_id":"c273cedc-5337-4dec-91b4-1636fd7d09ad","system_id":"levelo_inurba_marseille","lat":43.3143,"lon":5.37572,"is_reserved":false,"is_disabled":false,"rental_uris":{"android":"levelo://app?vid=c273cedc-5337-4dec-91b4-1636fd7d09ad","ios":"levelo://app?vid=c273cedc-5337-4dec-91b4-1636fd7d09ad"},"vehicle_type_id":"4","last_reported":1744830451,"current_range_meters":4400,"station_id":"","pricing_plan_id":"cebpf4jnsgd1na2vs0mg"},{"bike_id":"36c16cdb-b6f9-40a7-a917-fedaef1da7f0","system_id":"levelo_inurba_marseille","lat":43.29254,"lon":5.38438,"is_reserved":false,"is_disabled":false,"rental_uris":{"android":"levelo://app?vid=36c16cdb-b6f9-40a7-a917-fedaef1da7f0","ios":"levelo://app?vid=36c16cdb-b6f9-40a7-a917-fedaef1da7f0"},"vehicle_type_id":"4","last_reported":1744830451,"current_range_meters":4400,"station_id":"ce4bh692rcd13ifvqea0","pricing_plan_id":"cebpf4jnsgd1na2vs0mg"},{"bike_id":"41b7baf7-6cf7-4d8a-8571-4da8f5fde735","system_id":"levelo_inurba_marseille","lat":43.272064,"lon":5.391818,"is_reserved":false,"is_disabled":false,"rental_uris":{"android":"levelo://app?vid=41b7baf7-6cf7-4d8a-8571-4da8f5fde735","ios":"levelo://app?vid=41b7baf7-6cf7-4d8a-8571-4da8f5fde735"},"vehicle_type_id":"4","last_reported":1744830451,"current_range_meters":4400,"station_id":"ce4bhhp2rcd13ifvqfm0","pricing_plan_id":"cebpf4jnsgd1na2vs0mg"},{"bike_id":"27a55245-8dd2-4f1a-af63-95a9d7b71690","system_id":"levelo_inurba_marseille","lat":43.31065,"lon":5.37851,"is_reserved":false,"is_disabled":false,"rental_uris":{"android":"levelo://app?vid=27a55245-8dd2-4f1a-af63-95a9d7b71690","ios":"levelo://app?vid=27a55245-8dd2-4f1a-af63-95a9d7b71690"},"vehicle_type_id":"4","last_reported":1744830451,"current_range_meters":4800,"station_id":"","pricing_plan_id":"cebpf4jnsgd1na2vs0mg"},{"bike_id":"2d9b72bb-af7d-431d-9cde-4a3fe902ebe7","system_id":"levelo_inurba_marseille","lat":43.30134,"lon":5.38783,"is_reserved":false,"is_disabled":false,"rental_uris":{"android":"levelo://app?vid=2d9b72bb-af7d-431d-9cde-4a3fe902ebe7","ios":"levelo://app?vid=2d9b72bb-af7d-431d-9cde-4a3fe902ebe7"},"vehicle_type_id":"4","last_reported":1744830451,"current_range_meters":5600,"station_id":"ce4bgv12rcd13ifvqcp0","pricing_plan_id":"cebpf4jnsgd1na2vs0mg"},{"bike_id":"7da39aba-455e-4163-9c62-41262016c1a1","system_id":"levelo_inurba_marseille","lat":43.28345,"lon":5.38116,"is_reserved":false,"is_disabled":false,"rental_uris":{"android":"levelo://app?vid=7da39aba-455e-4163-9c62-41262016c1a1","ios":"levelo://app?vid=7da39aba-455e-4163-9c62-41262016c1a1"},"vehicle_type_id":"4","last_reported":1744830451,"current_range_meters":6000,"station_id":"ce4bh412rcd13ifvqdr0","pricing_plan_id":"cebpf4jnsgd1na2vs0mg"},{"bike_id":"29d892ff-396f-4d0b-a265-444cbe69d0d6","system_id":"levelo_inurba_marseille","lat":43.29885,"lon":5.38901,"is_reserved":false,"is_disabled":false,"rental_uris":{"android":"levelo://app?vid=29d892ff-396f-4d0b-a265-444cbe69d0d6","ios":"levelo://app?vid=29d892ff-396f-4d0b-a265-444cbe69d0d6"},"vehicle_type_id":"4","last_reported":1744830451,"current_range_meters":6400,"station_id":"ce4bh392rcd13ifvqdl0","pricing_plan_id":"cebpf4jnsgd1na2vs0mg"},{"bike_id":"e359e3ac-2d7d-42ba-83f5-07d851bb172f","system_id":"levelo_inurba_marseille","lat":43.29768,"lon":5.37101,"is_reserved":false,"is_disabled":false,"rental_uris":{"android":"levelo://app?vid=e359e3ac-2d7d-42ba-83f5-07d851bb172f","ios":"levelo://app?vid=e359e3ac-2d7d-42ba-83f5-07d851bb172f"},"vehicle_type_id":"4","last_reported":1744830451,"current_range_meters":6400,"station_id":"ce4bgop2rcd13ifvqc1g","pricing_plan_id":"cebpf4jnsgd1na2vs0mg"},{"bike_id":"a0636e31-c89e-4ae1-aea4-880988d0da0e","system_id":"levelo_inurba_marseille","lat":43.295586,"lon":5.42282,"is_reserved":false,"is_disabled":false,"rental_uris":{"android":"levelo://app?vid=a0636e31-c89e-4ae1-aea4-880988d0da0e","ios":"levelo://app?vid=a0636e31-c89e-4ae1-aea4-880988d0da0e"},"vehicle_type_id":"4","last_reported":1744830451,"current_range_meters":6400,"station_id":"ce4bhph2rcd13ifvqhdg","pricing_plan_id":"cebpf4jnsgd1na2vs0mg"},{"bike_id":"8517273e-f615-4b4c-b253-a44a182c8cd0","system_id":"levelo_inurba_marseille","lat":43.2893,"lon":5.38385,"is_reserved":false,"is_disabled":false,"rental_uris":{"android":"levelo://app?vid=8517273e-f615-4b4c-b253-a44a182c8cd0","ios":"levelo://app?vid=8517273e-f615-4b4c-b253-a44a182c8cd0"},"vehicle_type_id":"4","last_reported":1744830451,"current_range_meters":6800,"station_id":"ce4bh612rcd13ifvqe6g","pricing_plan_id":"cebpf4jnsgd1na2vs0mg"},{"bike_id":"376f754b-7bba-4962-babe-b49b1468281c","system_id":"levelo_inurba_marseille","lat":43.30931,"lon":5.40141,"is_reserved":false,"is_disabled":true,"rental_uris":{"android":"levelo://app?vid=376f754b-7bba-4962-babe-b49b1468281c","ios":"levelo://app?vid=376f754b-7bba-4962-babe-b49b1468281c"},"vehicle_type_id":"4","last_reported":1744830451,"current_range_meters":7200,"station_id":"ce4bgvp2rcd13ifvqct0","pricing_plan_id":"cebpf4jnsgd1na2vs0mg"},{"bike_id":"27d65429-e235-4ad4-8e99-624219bf772a","system_id":"levelo_inurba_marseille","lat":43.30752,"lon":5.42417,"is_reserved":false,"is_disabled":false,"rental_uris":{"android":"levelo://app?vid=27d65429-e235-4ad4-8e99-624219bf772a","ios":"levelo://app?vid=27d65429-e235-4ad4-8e99-624219bf772a"},"vehicle_type_id":"4","last_reported":1744830451,"current_range_meters":8000,"station_id":"st_cvj6ca6bvosntc0bfgr0","pricing_plan_id":"cebpf4jnsgd1na2vs0mg"},{"bike_id":"2797dcdb-c4e1-48b2-82d6-5677d371fa39","system_id":"levelo_inurba_marseille","lat":43.24163,"lon":5.36402,"is_reserved":false,"is_disabled":false,"rental_uris":{"android":"levelo://app?vid=2797dcdb-c4e1-48b2-82d6-5677d371fa39","ios":"levelo://app?vid=2797dcdb-c4e1-48b2-82d6-5677d371fa39"},"vehicle_type_id":"4","last_reported":1744830451,"current_range_meters":8400,"station_id":"cpo36qri1sfpv3e86is0","pricing_plan_id":"cebpf4jnsgd1na2vs0mg"},{"bike_id":"f252bbdb-3858-4fcf-8c94-3b7ae28e33d9","system_id":"levelo_inurba_marseille","lat":43.30943,"lon":5.39041,"is_reserved":false,"is_disabled":false,"rental_uris":{"android":"levelo://app?vid=f252bbdb-3858-4fcf-8c94-3b7ae28e33d9","ios":"levelo://app?vid=f252bbdb-3858-4fcf-8c94-3b7ae28e33d9"},"vehicle_type_id":"4","last_reported":1744830451,"current_range_meters":8800,"station_id":"ce4bgup2rcd13ifvqco0","pricing_plan_id":"cebpf4jnsgd1na2vs0mg"},{"bike_id":"1021195a-1d57-49a5-a021-5d5c77bd4874","system_id":"levelo_inurba_marseille","lat":43.29027,"lon":5.38639,"is_reserved":false,"is_disabled":false,"rental_uris":{"android":"levelo://app?vid=1021195a-1d57-49a5-a021-5d5c77bd4874","ios":"levelo://app?vid=1021195a-1d57-49a5-a021-5d5c77bd4874"},"vehicle_type_id":"4","last_reported":1744830451,"current_range_meters":8800,"station_id":"ce4bh4p2rcd13ifvqe0g","pricing_plan_id":"cebpf4jnsgd1na2vs0mg"},{"bike_id":"dcdb828e-d7a2-4da1-8c17-ffc6718c49bd","system_id":"levelo_inurba_marseille","lat":43.30475,"lon":5.37881,"is_reserved":false,"is_disabled":false,"rental_uris":{"android":"levelo://app?vid=dcdb828e-d7a2-4da1-8c17-ffc6718c49bd","ios":"levelo://app?vid=dcdb828e-d7a2-4da1-8c17-ffc6718c49bd"},"vehicle_type_id":"4","last_reported":1744830451,"current_range_meters":9200,"station_id":"ce4bgup2rcd13ifvqcn0","pricing_plan_id":"cebpf4jnsgd1na2vs0mg"},{"bike_id":"7711200e-2ab1-499f-8fba-f4355a8e44e7","system_id":"levelo_inurba_marseille","lat":43.29197,"lon":5.3933,"is_reserved":false,"is_disabled":false,"rental_uris":{"android":"levelo://app?vid=7711200e-2ab1-499f-8fba-f4355a8e44e7","ios":"levelo://app?vid=7711200e-2ab1-499f-8fba-f4355a8e44e7"},"vehicle_type_id":"4","last_reported":1744830451,"current_range_meters":9200,"station_id":"ce4bh192rcd13ifvqdd0","pricing_plan_id":"cebpf4jnsgd1na2vs0mg"},{"bike_id":"9c67d397-dccc-47d1-bef1-e8723651105b","system_id":"levelo_inurba_marseille","lat":43.29798,"lon":5.404,"is_reserved":false,"is_disabled":false,"rental_uris":{"android":"levelo://app?vid=9c67d397-dccc-47d1-bef1-e8723651105b","ios":"levelo://app?vid=9c67d397-dccc-47d1-bef1-e8723651105b"},"vehicle_type_id":"4","last_reported":1744830451,"current_range_meters":9200,"station_id":"ce4bh112rcd13ifvqd90","pricing_plan_id":"cebpf4jnsgd1na2vs0mg"},{"bike_id":"45c6b552-68fd-454d-84d3-cf79221aaee4","system_id":"levelo_inurba_marseille","lat":43.29853,"lon":5.40877,"is_reserved":false,"is_disabled":false,"rental_uris":{"android":"levelo://app?vid=45c6b552-68fd-454d-84d3-cf79221aaee4","ios":"levelo://app?vid=45c6b552-68fd-454d-84d3-cf79221aaee4"},"vehicle_type_id":"4","last_reported":1744830451,"current_range_meters":9200,"station_id":"","pricing_plan_id":"cebpf4jnsgd1na2vs0mg"},{"bike_id":"0a28e206-b3dd-43f2-8495-1759cdcbbe79","system_id":"levelo_inurba_marseille","lat":43.29886,"lon":5.38903,"is_reserved":false,"is_disabled":false,"rental_uris":{"android":"levelo://app?vid=0a28e206-b3dd-43f2-8495-1759cdcbbe79","ios":"levelo://app?vid=0a28e206-b3dd-43f2-8495-1759cdcbbe79"},"vehicle_type_id":"4","last_reported":1744830451,"current_range_meters":9600,"station_id":"ce4bh392rcd13ifvqdl0","pricing_plan_id":"cebpf4jnsgd1na2vs0mg"},{"bike_id":"ae669bac-ccfa-4f88-b834-b0199f708b96","system_id":"levelo_inurba_marseille","lat":43.28866,"lon":5.35827,"is_reserved":false,"is_disabled":false,"rental_uris":{"android":"levelo://app?vid=ae669bac-ccfa-4f88-b834-b0199f708b96","ios":"levelo://app?vid=ae669bac-ccfa-4f88-b834-b0199f708b96"},"vehicle_type_id":"4","last_reported":1744830451,"current_range_meters":9600,"station_id":"ce4bhb12rcd13ifvqem0","pricing_plan_id":"cebpf4jnsgd1na2vs0mg"},{"bike_id":"499d2a88-c4c3-43b8-9727-7d3799d61c75","system_id":"levelo_inurba_marseille","lat":43.30218,"lon":5.39481,"is_reserved":false,"is_disabled":false,"rental_uris":{"android":"levelo://app?vid=499d2a88-c4c3-43b8-9727-7d3799d61c75","ios":"levelo://app?vid=499d2a88-c4c3-43b8-9727-7d3799d61c75"},"vehicle_type_id":"4","last_reported":1744830451,"current_range_meters":9600,"station_id":"ce4bh0p2rcd13ifvqd70","pricing_plan_id":"cebpf4jnsgd1na2vs0mg"},{"bike_id":"7bce6f7e-4539-4907-8db8-77a02bc8b3b3","system_id":"levelo_inurba_marseille","lat":43.2953,"lon":5.37507,"is_reserved":false,"is_disabled":false,"rental_uris":{"android":"levelo://app?vid=7bce6f7e-4539-4907-8db8-77a02bc8b3b3","ios":"levelo://app?vid=7bce6f7e-4539-4907-8db8-77a02bc8b3b3"},"vehicle_type_id":"4","last_reported":1744830451,"current_range_meters":9600,"station_id":"ce4bgkp2rcd13ifvqbmg","pricing_plan_id":"cebpf4jnsgd1na2vs0mg"},{"bike_id":"13212ea6-c79f-428f-bf88-2ce269adcaff","system_id":"levelo_inurba_marseille","lat":43.24807,"lon":5.37461,"is_reserved":false,"is_disabled":false,"rental_uris":{"android":"levelo://app?vid=13212ea6-c79f-428f-bf88-2ce269adcaff","ios":"levelo://app?vid=13212ea6-c79f-428f-bf88-2ce269adcaff"},"vehicle_type_id":"4","last_reported":1744830451,"current_range_meters":9600,"station_id":"ce4bhgh2rcd13ifvqfb0","pricing_plan_id":"cebpf4jnsgd1na2vs0mg"},{"bike_id":"44ef8f33-3120-4a1c-b65a-9e57be85b643","system_id":"levelo_inurba_marseille","lat":43.29304,"lon":5.37177,"is_reserved":false,"is_disabled":false,"rental_uris":{"android":"levelo://app?vid=44ef8f33-3120-4a1c-b65a-9e57be85b643","ios":"levelo://app?vid=44ef8f33-3120-4a1c-b65a-9e57be85b643"},"vehicle_type_id":"4","last_reported":1744830451,"current_range_meters":9600,"station_id":"ce4bgh92rcd13ifvqb40","pricing_plan_id":"cebpf4jnsgd1na2vs0mg"},{"bike_id":"14541b4c-c4ff-4f48-b140-23313b771198","system_id":"levelo_inurba_marseille","lat":43.27833,"lon":5.39208,"is_reserved":false,"is_disabled":false,"rental_uris":{"android":"levelo://app?vid=14541b4c-c4ff-4f48-b140-23313b771198","ios":"levelo://app?vid=14541b4c-c4ff-4f48-b140-23313b771198"},"vehicle_type_id":"4","last_reported":1744830451,"current_range_meters":9600,"station_id":"ce4bhjp2rcd13ifvqga0","pricing_plan_id":"cebpf4jnsgd1na2vs0mg"},{"bike_id":"1fd6634c-dfcd-4ee0-acd5-d4193c877452","system_id":"levelo_inurba_marseille","lat":43.28459,"lon":5.35882,"is_reserved":false,"is_disabled":false,"rental_uris":{"android":"levelo://app?vid=1fd6634c-dfcd-4ee0-acd5-d4193c877452","ios":"levelo://app?vid=1fd6634c-dfcd-4ee0-acd5-d4193c877452"},"vehicle_type_id":"4","last_reported":1744830451,"current_range_meters":9600,"station_id":"ce4bhah2rcd13ifvqei0","pricing_plan_id":"cebpf4jnsgd1na2vs0mg"},{"bike_id":"955630e4-cd55-4f76-964a-d57f0eb9b5eb","system_id":"levelo_inurba_marseille","lat":43.26563,"lon":5.39014,"is_reserved":false,"is_disabled":false,"rental_uris":{"android":"levelo://app?vid=955630e4-cd55-4f76-964a-d57f0eb9b5eb","ios":"levelo://app?vid=955630e4-cd55-4f76-964a-d57f0eb9b5eb"},"vehicle_type_id":"4","last_reported":1744830451,"current_range_meters":9600,"station_id":"ce4bhe12rcd13ifvqf30","pricing_plan_id":"cebpf4jnsgd1na2vs0mg"},{"bike_id":"a4d58087-4656-4dc7-a3e0-91aa43cb3a24","system_id":"levelo_inurba_marseille","lat":43.26678,"lon":5.38267,"is_reserved":false,"is_disabled":false,"rental_uris":{"android":"levelo://app?vid=a4d58087-4656-4dc7-a3e0-91aa43cb3a24","ios":"levelo://app?vid=a4d58087-4656-4dc7-a3e0-91aa43cb3a24"},"vehicle_type_id":"4","last_reported":1744830451,"current_range_meters":9600,"station_id":"ce4bhg92rcd13ifvqf90","pricing_plan_id":"cebpf4jnsgd1na2vs0mg"},{"bike_id":"eeec4aa3-87e9-4496-be2e-938ceb91cf85","system_id":"levelo_inurba_marseille","lat":43.29296,"lon":5.37221,"is_reserved":false,"is_disabled":true,"rental_uris":{"android":"levelo://app?vid=eeec4aa3-87e9-4496-be2e-938ceb91cf85","ios":"levelo://app?vid=eeec4aa3-87e9-4496-be2e-938ceb91cf85"},"vehicle_type_id":"4","last_reported":1744830451,"current_range_meters":10000,"station_id":"ce4bgh92rcd13ifvqb40","pricing_plan_id":"cebpf4jnsgd1na2vs0mg"},{"bike_id":"95e246a6-6e57-4e31-8dc0-35c1e595d820","system_id":"levelo_inurba_marseille","lat":43.2926,"lon":5.38435,"is_reserved":false,"is_disabled":false,"rental_uris":{"android":"levelo://app?vid=95e246a6-6e57-4e31-8dc0-35c1e595d820","ios":"levelo://app?vid=95e246a6-6e57-4e31-8dc0-35c1e595d820"},"vehicle_type_id":"4","last_reported":1744830451,"current_range_meters":10000,"station_id":"ce4bh692rcd13ifvqea0","pricing_plan_id":"cebpf4jnsgd1na2vs0mg"},{"bike_id":"561936ef-54e4-4d15-b2a7-dfd018b9e12e","system_id":"levelo_inurba_marseille","lat":43.29816,"lon":5.40204,"is_reserved":false,"is_disabled":false,"rental_uris":{"android":"levelo://app?vid=561936ef-54e4-4d15-b2a7-dfd018b9e12e","ios":"levelo://app?vid=561936ef-54e4-4d15-b2a7-dfd018b9e12e"},"vehicle_type_id":"4","last_reported":1744830451,"current_range_meters":10000,"station_id":"","pricing_plan_id":"cebpf4jnsgd1na2vs0mg"},{"bike_id":"325ea596-c8f5-416a-973e-14196dc3b94a","system_id":"levelo_inurba_marseille","lat":43.27946,"lon":5.41045,"is_reserved":false,"is_disabled":false,"rental_uris":{"android":"levelo://app?vid=325ea596-c8f5-416a-973e-14196dc3b94a","ios":"levelo://app?vid=325ea596-c8f5-416a-973e-14196dc3b94a"},"vehicle_type_id":"4","last_reported":1744830451,"current_range_meters":10000,"station_id":"ce4bhnp2rcd13ifvqh0g","pricing_plan_id":"cebpf4jnsgd1na2vs0mg"},{"bike_id":"0efdf32a-082f-4d19-a626-09293797e1da","system_id":"levelo_inurba_marseille","lat":43.29902,"lon":5.38136,"is_reserved":false,"is_disabled":false,"rental_uris":{"android":"levelo://app?vid=0efdf32a-082f-4d19-a626-09293797e1da","ios":"levelo://app?vid=0efdf32a-082f-4d19-a626-09293797e1da"},"vehicle_type_id":"4","last_reported":1744830451,"current_range_meters":10000,"station_id":"ce4bgj12rcd13ifvqbc0","pricing_plan_id":"cebpf4jnsgd1na2vs0mg"},{"bike_id":"38d1f286-a63b-4680-8447-c8af51db7b2b","system_id":"levelo_inurba_marseille","lat":43.298996,"lon":5.381697,"is_reserved":false,"is_disabled":false,"rental_uris":{"android":"levelo://app?vid=38d1f286-a63b-4680-8447-c8af51db7b2b","ios":"levelo://app?vid=38d1f286-a63b-4680-8447-c8af51db7b2b"},"vehicle_type_id":"4","last_reported":1744830451,"current_range_meters":10000,"station_id":"","pricing_plan_id":"cebpf4jnsgd1na2vs0mg"},{"bike_id":"e8412f40-a8dc-44ee-bbc2-e01b1cf2ab9a","system_id":"levelo_inurba_marseille","lat":43.27829,"lon":5.39198,"is_reserved":false,"is_disabled":false,"rental_uris":{"android":"levelo://app?vid=e8412f40-a8dc-44ee-bbc2-e01b1cf2ab9a","ios":"levelo://app?vid=e8412f40-a8dc-44ee-bbc2-e01b1cf2ab9a"},"vehicle_type_id":"4","last_reported":1744830451,"current_range_meters":10800,"station_id":"ce4bhjp2rcd13ifvqga0","pricing_plan_id":"cebpf4jnsgd1na2vs0mg"},{"bike_id":"799b9ee3-7f96-41b4-bcbf-54e89f90f18b","system_id":"levelo_inurba_marseille","lat":43.29976,"lon":5.38491,"is_reserved":false,"is_disabled":false,"rental_uris":{"android":"levelo://app?vid=799b9ee3-7f96-41b4-bcbf-54e89f90f18b","ios":"levelo://app?vid=799b9ee3-7f96-41b4-bcbf-54e89f90f18b"},"vehicle_type_id":"4","last_reported":1744830451,"current_range_meters":10800,"station_id":"ce4bgj92rcd13ifvqbd0","pricing_plan_id":"cebpf4jnsgd1na2vs0mg"},{"bike_id":"4edf85fe-1778-498d-8b3a-bac18bb104ac","system_id":"levelo_inurba_marseille","lat":43.3092,"lon":5.40142,"is_reserved":false,"is_disabled":false,"rental_uris":{"android":"levelo://app?vid=4edf85fe-1778-498d-8b3a-bac18bb104ac","ios":"levelo://app?vid=4edf85fe-1778-498d-8b3a-bac18bb104ac"},"vehicle_type_id":"4","last_reported":1744830451,"current_range_meters":10800,"station_id":"ce4bgvp2rcd13ifvqct0","pricing_plan_id":"cebpf4jnsgd1na2vs0mg"},{"bike_id":"7b38cb55-9c5f-4bca-a540-bfab855e7385","system_id":"levelo_inurba_marseille","lat":43.2396,"lon":5.36634,"is_reserved":false,"is_disabled":false,"rental_uris":{"android":"levelo://app?vid=7b38cb55-9c5f-4bca-a540-bfab855e7385","ios":"levelo://app?vid=7b38cb55-9c5f-4bca-a540-bfab855e7385"},"vehicle_type_id":"4","last_reported":1744830451,"current_range_meters":10800,"station_id":"ce4bhi12rcd13ifvqfp0","pricing_plan_id":"cebpf4jnsgd1na2vs0mg"},{"bike_id":"b4743457-352f-4b49-b8a2-28abf453cd65","system_id":"levelo_inurba_marseille","lat":43.29417,"lon":5.38638,"is_reserved":false,"is_disabled":false,"rental_uris":{"android":"levelo://app?vid=b4743457-352f-4b49-b8a2-28abf453cd65","ios":"levelo://app?vid=b4743457-352f-4b49-b8a2-28abf453cd65"},"vehicle_type_id":"4","last_reported":1744830451,"current_range_meters":11200,"station_id":"ce4bh2h2rcd13ifvqdh0","pricing_plan_id":"cebpf4jnsgd1na2vs0mg"},{"bike_id":"b3748114-d18e-46f9-b7cf-d3fd0dbfaef9","system_id":"levelo_inurba_marseille","lat":43.29562,"lon":5.37528,"is_reserved":false,"is_disabled":false,"rental_uris":{"android":"levelo://app?vid=b3748114-d18e-46f9-b7cf-d3fd0dbfaef9","ios":"levelo://app?vid=b3748114-d18e-46f9-b7cf-d3fd0dbfaef9"},"vehicle_type_id":"4","last_reported":1744830451,"current_range_meters":11200,"station_id":"ce4bgh92rcd13ifvqb50","pricing_plan_id":"cebpf4jnsgd1na2vs0mg"},{"bike_id":"15cf5add-87c2-4a1c-8e3b-3d98d5a33cc7","system_id":"levelo_inurba_marseille","lat":43.30533,"lon":5.36715,"is_reserved":false,"is_disabled":false,"rental_uris":{"android":"levelo://app?vid=15cf5add-87c2-4a1c-8e3b-3d98d5a33cc7","ios":"levelo://app?vid=15cf5add-87c2-4a1c-8e3b-3d98d5a33cc7"},"vehicle_type_id":"4","last_reported":1744830451,"current_range_meters":11200,"station_id":"ce4bgrp2rcd13ifvqc9g","pricing_plan_id":"cebpf4jnsgd1na2vs0mg"},{"bike_id":"2c032a6e-a514-4c75-ac58-67d0e95dcf42","system_id":"levelo_inurba_marseille","lat":43.28612,"lon":5.35117,"is_reserved":false,"is_disabled":false,"rental_uris":{"android":"levelo://app?vid=2c032a6e-a514-4c75-ac58-67d0e95dcf42","ios":"levelo://app?vid=2c032a6e-a514-4c75-ac58-67d0e95dcf42"},"vehicle_type_id":"4","last_reported":1744830451,"current_range_meters":11200,"station_id":"ce4bhch2rcd13ifvqeug","pricing_plan_id":"cebpf4jnsgd1na2vs0mg"},{"bike_id":"dfc90e23-a51a-46c2-9aff-a5e54b4a553f","system_id":"levelo_inurba_marseille","lat":43.26203,"lon":5.40473,"is_reserved":false,"is_disabled":false,"rental_uris":{"android":"levelo://app?vid=dfc90e23-a51a-46c2-9aff-a5e54b4a553f","ios":"levelo://app?vid=dfc90e23-a51a-46c2-9aff-a5e54b4a553f"},"vehicle_type_id":"4","last_reported":1744830451,"current_range_meters":11200,"station_id":"ce4bhmh2rcd13ifvqgmg","pricing_plan_id":"cebpf4jnsgd1na2vs0mg"},{"bike_id":"39307d8e-a90a-4b04-9efe-8145b432410b","system_id":"levelo_inurba_marseille","lat":43.29532,"lon":5.39396,"is_reserved":false,"is_disabled":false,"rental_uris":{"android":"levelo://app?vid=39307d8e-a90a-4b04-9efe-8145b432410b","ios":"levelo://app?vid=39307d8e-a90a-4b04-9efe-8145b432410b"},"vehicle_type_id":"4","last_reported":1744830451,"current_range_meters":11200,"station_id":"ce4bh292rcd13ifvqdf0","pricing_plan_id":"cebpf4jnsgd1na2vs0mg"},{"bike_id":"325648d6-26aa-4b53-8462-def71a09965c","system_id":"levelo_inurba_marseille","lat":43.28728,"lon":5.36079,"is_reserved":false,"is_disabled":false,"rental_uris":{"android":"levelo://app?vid=325648d6-26aa-4b53-8462-def71a09965c","ios":"levelo://app?vid=325648d6-26aa-4b53-8462-def71a09965c"},"vehicle_type_id":"4","last_reported":1744830451,"current_range_meters":11600,"station_id":"cki0cbj6b192h4jlfktg","pricing_plan_id":"cebpf4jnsgd1na2vs0mg"},{"bike_id":"ece05b56-f580-4287-8e06-336b48deab00","system_id":"levelo_inurba_marseille","lat":43.28435,"lon":5.39194,"is_reserved":false,"is_disabled":false,"rental_uris":{"android":"levelo://app?vid=ece05b56-f580-4287-8e06-336b48deab00","ios":"levelo://app?vid=ece05b56-f580-4287-8e06-336b48deab00"},"vehicle_type_id":"4","last_reported":1744830451,"current_range_meters":11600,"station_id":"ce4bhoh2rcd13ifvqh5g","pricing_plan_id":"cebpf4jnsgd1na2vs0mg"},{"bike_id":"d8429927-bb0c-45e5-9987-a64f6d65ebc6","system_id":"levelo_inurba_marseille","lat":43.29418,"lon":5.38619,"is_reserved":false,"is_disabled":false,"rental_uris":{"android":"levelo://app?vid=d8429927-bb0c-45e5-9987-a64f6d65ebc6","ios":"levelo://app?vid=d8429927-bb0c-45e5-9987-a64f6d65ebc6"},"vehicle_type_id":"4","last_reported":1744830451,"current_range_meters":11600,"station_id":"ce4bh2h2rcd13ifvqdh0","pricing_plan_id":"cebpf4jnsgd1na2vs0mg"},{"bike_id":"69ef637e-55b2-48ad-84e0-d3e326d5ce8a","system_id":"levelo_inurba_marseille","lat":43.28721,"lon":5.37934,"is_reserved":false,"is_disabled":false,"rental_uris":{"android":"levelo://app?vid=69ef637e-55b2-48ad-84e0-d3e326d5ce8a","ios":"levelo://app?vid=69ef637e-55b2-48ad-84e0-d3e326d5ce8a"},"vehicle_type_id":"4","last_reported":1744830451,"current_range_meters":11600,"station_id":"ce4bh9p2rcd13ifvqec0","pricing_plan_id":"cebpf4jnsgd1na2vs0mg"},{"bike_id":"6cf03e53-20a8-4f81-bab1-47b311b14206","system_id":"levelo_inurba_marseille","lat":43.29412,"lon":5.38596,"is_reserved":false,"is_disabled":false,"rental_uris":{"android":"levelo://app?vid=6cf03e53-20a8-4f81-bab1-47b311b14206","ios":"levelo://app?vid=6cf03e53-20a8-4f81-bab1-47b311b14206"},"vehicle_type_id":"4","last_reported":1744830451,"current_range_meters":11600,"station_id":"ce4bh2h2rcd13ifvqdh0","pricing_plan_id":"cebpf4jnsgd1na2vs0mg"},{"bike_id":"51a64e16-0b88-479c-8f70-cafff67635bb","system_id":"levelo_inurba_marseille","lat":43.28402,"lon":5.37522,"is_reserved":false,"is_disabled":false,"rental_uris":{"android":"levelo://app?vid=51a64e16-0b88-479c-8f70-cafff67635bb","ios":"levelo://app?vid=51a64e16-0b88-479c-8f70-cafff67635bb"},"vehicle_type_id":"4","last_reported":1744830451,"current_range_meters":11600,"station_id":"ce4bh412rcd13ifvqds0","pricing_plan_id":"cebpf4jnsgd1na2vs0mg"},{"bike_id":"f9aa6cf5-2bdc-493c-83a0-584411623363","system_id":"levelo_inurba_marseille","lat":43.24541,"lon":5.39531,"is_reserved":false,"is_disabled":false,"rental_uris":{"android":"levelo://app?vid=f9aa6cf5-2bdc-493c-83a0-584411623363","ios":"levelo://app?vid=f9aa6cf5-2bdc-493c-83a0-584411623363"},"vehicle_type_id":"4","last_reported":1744830451,"current_range_meters":11200,"station_id":"ce4bhlp2rcd13ifvqgjg","pricing_plan_id":"cebpf4jnsgd1na2vs0mg"},{"bike_id":"be8b93e2-a7fd-4037-9ac7-acb169aa4dbc","system_id":"levelo_inurba_marseille","lat":43.291979,"lon":5.358046,"is_reserved":false,"is_disabled":false,"rental_uris":{"android":"levelo://app?vid=be8b93e2-a7fd-4037-9ac7-acb169aa4dbc","ios":"levelo://app?vid=be8b93e2-a7fd-4037-9ac7-acb169aa4dbc"},"vehicle_type_id":"4","last_reported":1744830451,"current_range_meters":11600,"station_id":"ce4bhb12rcd13ifvqel0","pricing_plan_id":"cebpf4jnsgd1na2vs0mg"},{"bike_id":"afdfd011-7b68-49a0-b279-a7429e0167e3","system_id":"levelo_inurba_marseille","lat":43.29565,"lon":5.37511,"is_reserved":false,"is_disabled":false,"rental_uris":{"android":"levelo://app?vid=afdfd011-7b68-49a0-b279-a7429e0167e3","ios":"levelo://app?vid=afdfd011-7b68-49a0-b279-a7429e0167e3"},"vehicle_type_id":"4","last_reported":1744830451,"current_range_meters":12000,"station_id":"ce4bgh92rcd13ifvqb50","pricing_plan_id":"cebpf4jnsgd1na2vs0mg"},{"bike_id":"cc374c7e-da05-41e1-bbb0-047392321ec5","system_id":"levelo_inurba_marseille","lat":43.294135,"lon":5.386255,"is_reserved":false,"is_disabled":false,"rental_uris":{"android":"levelo://app?vid=cc374c7e-da05-41e1-bbb0-047392321ec5","ios":"levelo://app?vid=cc374c7e-da05-41e1-bbb0-047392321ec5"},"vehicle_type_id":"4","last_reported":1744830451,"current_range_meters":12000,"station_id":"ce4bhb12rcd13ifvqem0","pricing_plan_id":"cebpf4jnsgd1na2vs0mg"},{"bike_id":"834ec9e1-9d50-4bee-85ae-d1db335c55e5","system_id":"levelo_inurba_marseille","lat":43.31793,"lon":5.36841,"is_reserved":false,"is_disabled":false,"rental_uris":{"android":"levelo://app?vid=834ec9e1-9d50-4bee-85ae-d1db335c55e5","ios":"levelo://app?vid=834ec9e1-9d50-4bee-85ae-d1db335c55e5"},"vehicle_type_id":"4","last_reported":1744830451,"current_range_meters":12000,"station_id":"","pricing_plan_id":"cebpf4jnsgd1na2vs0mg"},{"bike_id":"aafece41-771c-4727-9330-23c42c863e6d","system_id":"levelo_inurba_marseille","lat":43.28614,"lon":5.35102,"is_reserved":false,"is_disabled":false,"rental_uris":{"android":"levelo://app?vid=aafece41-771c-4727-9330-23c42c863e6d","ios":"levelo://app?vid=aafece41-771c-4727-9330-23c42c863e6d"},"vehicle_type_id":"4","last_reported":1744830451,"current_range_meters":12400,"station_id":"ce4bhch2rcd13ifvqeug","pricing_plan_id":"cebpf4jnsgd1na2vs0mg"},{"bike_id":"80d9af29-ff98-4569-a09d-d4a9a14d9a42","system_id":"levelo_inurba_marseille","lat":43.30593,"lon":5.39346,"is_reserved":false,"is_disabled":false,"rental_uris":{"android":"levelo://app?vid=80d9af29-ff98-4569-a09d-d4a9a14d9a42","ios":"levelo://app?vid=80d9af29-ff98-4569-a09d-d4a9a14d9a42"},"vehicle_type_id":"4","last_reported":1744830451,"current_range_meters":12400,"station_id":"ce4bh0p2rcd13ifvqd80","pricing_plan_id":"cebpf4jnsgd1na2vs0mg"},{"bike_id":"7c354822-eba1-4485-9f4f-d88b8cfd735a","system_id":"levelo_inurba_marseille","lat":43.29566,"lon":5.3751,"is_reserved":false,"is_disabled":false,"rental_uris":{"android":"levelo://app?vid=7c354822-eba1-4485-9f4f-d88b8cfd735a","ios":"levelo://app?vid=7c354822-eba1-4485-9f4f-d88b8cfd735a"},"vehicle_type_id":"4","last_reported":1744830451,"current_range_meters":12800,"station_id":"ce4bgh92rcd13ifvqb50","pricing_plan_id":"cebpf4jnsgd1na2vs0mg"},{"bike_id":"93be371e-f079-4065-9c94-f1bd2172cfd1","system_id":"levelo_inurba_marseille","lat":43.28603,"lon":5.37054,"is_reserved":false,"is_disabled":false,"rental_uris":{"android":"levelo://app?vid=93be371e-f079-4065-9c94-f1bd2172cfd1","ios":"levelo://app?vid=93be371e-f079-4065-9c94-f1bd2172cfd1"},"vehicle_type_id":"4","last_reported":1744830451,"current_range_meters":13600,"station_id":"ce4bht12rcd13ifvqi60","pricing_plan_id":"cebpf4jnsgd1na2vs0mg"},{"bike_id":"5ee9cb5d-fa74-40d5-8a83-21e8433df95b","system_id":"levelo_inurba_marseille","lat":43.30139,"lon":5.38774,"is_reserved":false,"is_disabled":false,"rental_uris":{"android":"levelo://app?vid=5ee9cb5d-fa74-40d5-8a83-21e8433df95b","ios":"levelo://app?vid=5ee9cb5d-fa74-40d5-8a83-21e8433df95b"},"vehicle_type_id":"4","last_reported":1744830451,"current_range_meters":13600,"station_id":"ce4bghh2rcd13ifvqb60","pricing_plan_id":"cebpf4jnsgd1na2vs0mg"},{"bike_id":"68ec9c60-1203-4695-94aa-40d8361b0d46","system_id":"levelo_inurba_marseille","lat":43.308623,"lon":5.396343,"is_reserved":false,"is_disabled":false,"rental_uris":{"android":"levelo://app?vid=68ec9c60-1203-4695-94aa-40d8361b0d46","ios":"levelo://app?vid=68ec9c60-1203-4695-94aa-40d8361b0d46"},"vehicle_type_id":"4","last_reported":1744830451,"current_range_meters":13600,"station_id":"","pricing_plan_id":"cebpf4jnsgd1na2vs0mg"},{"bike_id":"3be560fa-7157-42f3-b73d-5dbf161b7d69","system_id":"levelo_inurba_marseille","lat":43.29194,"lon":5.39316,"is_reserved":false,"is_disabled":false,"rental_uris":{"android":"levelo://app?vid=3be560fa-7157-42f3-b73d-5dbf161b7d69","ios":"levelo://app?vid=3be560fa-7157-42f3-b73d-5dbf161b7d69"},"vehicle_type_id":"4","last_reported":1744830451,"current_range_meters":13600,"station_id":"ce4bh192rcd13ifvqdd0","pricing_plan_id":"cebpf4jnsgd1na2vs0mg"},{"bike_id":"799e43ed-2775-4475-af47-06e0bcef1911","system_id":"levelo_inurba_marseille","lat":43.31073,"lon":5.3836,"is_reserved":false,"is_disabled":false,"rental_uris":{"android":"levelo://app?vid=799e43ed-2775-4475-af47-06e0bcef1911","ios":"levelo://app?vid=799e43ed-2775-4475-af47-06e0bcef1911"},"vehicle_type_id":"4","last_reported":1744830451,"current_range_meters":13600,"station_id":"ce4bgv92rcd13ifvqcr0","pricing_plan_id":"cebpf4jnsgd1na2vs0mg"},{"bike_id":"4aa56563-21db-471a-a412-b90fc67bef09","system_id":"levelo_inurba_marseille","lat":43.28695,"lon":5.37393,"is_reserved":false,"is_disabled":false,"rental_uris":{"android":"levelo://app?vid=4aa56563-21db-471a-a412-b90fc67bef09","ios":"levelo://app?vid=4aa56563-21db-471a-a412-b90fc67bef09"},"vehicle_type_id":"4","last_reported":1744830451,"current_range_meters":13600,"station_id":"ce4bh3p2rcd13ifvqdq0","pricing_plan_id":"cebpf4jnsgd1na2vs0mg"},{"bike_id":"1bdba7a7-a82e-4252-906c-80db6beb180e","system_id":"levelo_inurba_marseille","lat":43.24894,"lon":5.39391,"is_reserved":false,"is_disabled":false,"rental_uris":{"android":"levelo://app?vid=1bdba7a7-a82e-4252-906c-80db6beb180e","ios":"levelo://app?vid=1bdba7a7-a82e-4252-906c-80db6beb180e"},"vehicle_type_id":"4","last_reported":1744830451,"current_range_meters":14000,"station_id":"","pricing_plan_id":"cebpf4jnsgd1na2vs0mg"},{"bike_id":"2be2e8c5-ff49-4a5a-963a-4bbeabb11512","system_id":"levelo_inurba_marseille","lat":43.30733,"lon":5.42444,"is_reserved":false,"is_disabled":false,"rental_uris":{"android":"levelo://app?vid=2be2e8c5-ff49-4a5a-963a-4bbeabb11512","ios":"levelo://app?vid=2be2e8c5-ff49-4a5a-963a-4bbeabb11512"},"vehicle_type_id":"4","last_reported":1744830451,"current_range_meters":14000,"station_id":"st_cvj6ca6bvosntc0bfgr0","pricing_plan_id":"cebpf4jnsgd1na2vs0mg"},{"bike_id":"eef0f7e9-3fd3-478d-8d05-1e689878276c","system_id":"levelo_inurba_marseille","lat":43.27995,"lon":5.40032,"is_reserved":false,"is_disabled":false,"rental_uris":{"android":"levelo://app?vid=eef0f7e9-3fd3-478d-8d05-1e689878276c","ios":"levelo://app?vid=eef0f7e9-3fd3-478d-8d05-1e689878276c"},"vehicle_type_id":"4","last_reported":1744830451,"current_range_meters":14000,"station_id":"ce4bho92rcd13ifvqh4g","pricing_plan_id":"cebpf4jnsgd1na2vs0mg"},{"bike_id":"4be423fc-b49d-4203-8abc-985b45dfd65e","system_id":"levelo_inurba_marseille","lat":43.330263,"lon":5.38992,"is_reserved":false,"is_disabled":false,"rental_uris":{"android":"levelo://app?vid=4be423fc-b49d-4203-8abc-985b45dfd65e","ios":"levelo://app?vid=4be423fc-b49d-4203-8abc-985b45dfd65e"},"vehicle_type_id":"4","last_reported":1744830451,"current_range_meters":14000,"station_id":"ce4bhr92rcd13ifvqhrg","pricing_plan_id":"cebpf4jnsgd1na2vs0mg"},{"bike_id":"0aa059cc-6052-44a8-b729-425bf4d5acd6","system_id":"levelo_inurba_marseille","lat":43.29,"lon":5.35612,"is_reserved":false,"is_disabled":false,"rental_uris":{"android":"levelo://app?vid=0aa059cc-6052-44a8-b729-425bf4d5acd6","ios":"levelo://app?vid=0aa059cc-6052-44a8-b729-425bf4d5acd6"},"vehicle_type_id":"4","last_reported":1744830451,"current_range_meters":14000,"station_id":"ce4bhb92rcd13ifvqen0","pricing_plan_id":"cebpf4jnsgd1na2vs0mg"},{"bike_id":"4b9b1e69-af86-4122-8d46-0d52505b1cab","system_id":"levelo_inurba_marseille","lat":43.27493,"lon":5.4245,"is_reserved":false,"is_disabled":false,"rental_uris":{"android":"levelo://app?vid=4b9b1e69-af86-4122-8d46-0d52505b1cab","ios":"levelo://app?vid=4b9b1e69-af86-4122-8d46-0d52505b1cab"},"vehicle_type_id":"4","last_reported":1744830451,"current_range_meters":14000,"station_id":"ce4bhn92rcd13ifvqgrg","pricing_plan_id":"cebpf4jnsgd1na2vs0mg"},{"bike_id":"6bf5a380-400e-4cd6-bc1e-356afac9ee45","system_id":"levelo_inurba_marseille","lat":43.241682,"lon":5.364048,"is_reserved":false,"is_disabled":false,"rental_uris":{"android":"levelo://app?vid=6bf5a380-400e-4cd6-bc1e-356afac9ee45","ios":"levelo://app?vid=6bf5a380-400e-4cd6-bc1e-356afac9ee45"},"vehicle_type_id":"4","last_reported":1744830451,"current_range_meters":14400,"station_id":"cpo36qri1sfpv3e86is0","pricing_plan_id":"cebpf4jnsgd1na2vs0mg"},{"bike_id":"8e9c6b5f-83f2-4698-b6a2-81edfed14d32","system_id":"levelo_inurba_marseille","lat":43.306702,"lon":5.394858,"is_reserved":false,"is_disabled":false,"rental_uris":{"android":"levelo://app?vid=8e9c6b5f-83f2-4698-b6a2-81edfed14d32","ios":"levelo://app?vid=8e9c6b5f-83f2-4698-b6a2-81edfed14d32"},"vehicle_type_id":"4","last_reported":1744830451,"current_range_meters":14400,"station_id":"ce4bh012rcd13ifvqcv0","pricing_plan_id":"cebpf4jnsgd1na2vs0mg"},{"bike_id":"88a0cb80-a51d-46bc-8228-c9a9fb028348","system_id":"levelo_inurba_marseille","lat":43.2562,"lon":5.42014,"is_reserved":false,"is_disabled":false,"rental_uris":{"android":"levelo://app?vid=88a0cb80-a51d-46bc-8228-c9a9fb028348","ios":"levelo://app?vid=88a0cb80-a51d-46bc-8228-c9a9fb028348"},"vehicle_type_id":"4","last_reported":1744830451,"current_range_meters":14400,"station_id":"","pricing_plan_id":"cebpf4jnsgd1na2vs0mg"},{"bike_id":"f32038ce-e0b7-448b-92f3-05f23d2d264a","system_id":"levelo_inurba_marseille","lat":43.29787,"lon":5.38109,"is_reserved":false,"is_disabled":false,"rental_uris":{"android":"levelo://app?vid=f32038ce-e0b7-448b-92f3-05f23d2d264a","ios":"levelo://app?vid=f32038ce-e0b7-448b-92f3-05f23d2d264a"},"vehicle_type_id":"4","last_reported":1744830451,"current_range_meters":14400,"station_id":"ce4bgip2rcd13ifvqbb0","pricing_plan_id":"cebpf4jnsgd1na2vs0mg"},{"bike_id":"5b3a5f43-7196-4593-8f66-969dfc9aad14","system_id":"levelo_inurba_marseille","lat":43.30352,"lon":5.41874,"is_reserved":false,"is_disabled":false,"rental_uris":{"android":"levelo://app?vid=5b3a5f43-7196-4593-8f66-969dfc9aad14","ios":"levelo://app?vid=5b3a5f43-7196-4593-8f66-969dfc9aad14"},"vehicle_type_id":"4","last_reported":1744830451,"current_range_meters":14400,"station_id":"ce4bhop2rcd13ifvqh7g","pricing_plan_id":"cebpf4jnsgd1na2vs0mg"},{"bike_id":"95113b19-6b74-4042-9486-56dedc9c1301","system_id":"levelo_inurba_marseille","lat":43.29844,"lon":5.36276,"is_reserved":false,"is_disabled":false,"rental_uris":{"android":"levelo://app?vid=95113b19-6b74-4042-9486-56dedc9c1301","ios":"levelo://app?vid=95113b19-6b74-4042-9486-56dedc9c1301"},"vehicle_type_id":"4","last_reported":1744830451,"current_range_meters":14400,"station_id":"ce4bgpp2rcd13ifvqc3g","pricing_plan_id":"cebpf4jnsgd1na2vs0mg"},{"bike_id":"f0225059-73c2-4052-90f7-bfacbf2597d5","system_id":"levelo_inurba_marseille","lat":43.30129,"lon":5.38779,"is_reserved":false,"is_disabled":false,"rental_uris":{"android":"levelo://app?vid=f0225059-73c2-4052-90f7-bfacbf2597d5","ios":"levelo://app?vid=f0225059-73c2-4052-90f7-bfacbf2597d5"},"vehicle_type_id":"4","last_reported":1744830451,"current_range_meters":14800,"station_id":"ce4bghh2rcd13ifvqb60","pricing_plan_id":"cebpf4jnsgd1na2vs0mg"},{"bike_id":"b37478c9-c9d1-4921-942f-50c7a856681e","system_id":"levelo_inurba_marseille","lat":43.27037,"lon":5.40293,"is_reserved":false,"is_disabled":true,"rental_uris":{"android":"levelo://app?vid=b37478c9-c9d1-4921-942f-50c7a856681e","ios":"levelo://app?vid=b37478c9-c9d1-4921-942f-50c7a856681e"},"vehicle_type_id":"4","last_reported":1744830451,"current_range_meters":14800,"station_id":"ce4bhk92rcd13ifvqgc0","pricing_plan_id":"cebpf4jnsgd1na2vs0mg"},{"bike_id":"55d42ba3-f833-4ccc-9026-2b02f8194d62","system_id":"levelo_inurba_marseille","lat":43.29415,"lon":5.38633,"is_reserved":false,"is_disabled":false,"rental_uris":{"android":"levelo://app?vid=55d42ba3-f833-4ccc-9026-2b02f8194d62","ios":"levelo://app?vid=55d42ba3-f833-4ccc-9026-2b02f8194d62"},"vehicle_type_id":"4","last_reported":1744830451,"current_range_meters":14800,"station_id":"ce4bh2h2rcd13ifvqdh0","pricing_plan_id":"cebpf4jnsgd1na2vs0mg"},{"bike_id":"a4ce6869-0d11-4200-a959-6b2e5a7c96e1","system_id":"levelo_inurba_marseille","lat":43.29302,"lon":5.37465,"is_reserved":false,"is_disabled":false,"rental_uris":{"android":"levelo://app?vid=a4ce6869-0d11-4200-a959-6b2e5a7c96e1","ios":"levelo://app?vid=a4ce6869-0d11-4200-a959-6b2e5a7c96e1"},"vehicle_type_id":"4","last_reported":1744830451,"current_range_meters":15200,"station_id":"ce4bgi12rcd13ifvqb70","pricing_plan_id":"cebpf4jnsgd1na2vs0mg"},{"bike_id":"e429eba0-6da3-4779-9439-9f5ad9bc0510","system_id":"levelo_inurba_marseille","lat":43.25497,"lon":5.37649,"is_reserved":false,"is_disabled":false,"rental_uris":{"android":"levelo://app?vid=e429eba0-6da3-4779-9439-9f5ad9bc0510","ios":"levelo://app?vid=e429eba0-6da3-4779-9439-9f5ad9bc0510"},"vehicle_type_id":"4","last_reported":1744830451,"current_range_meters":15200,"station_id":"ce4bhh12rcd13ifvqff0","pricing_plan_id":"cebpf4jnsgd1na2vs0mg"},{"bike_id":"4f3dfbf4-d1ae-44db-8110-b28c7d24107a","system_id":"levelo_inurba_marseille","lat":43.27052,"lon":5.40269,"is_reserved":false,"is_disabled":false,"rental_uris":{"android":"levelo://app?vid=4f3dfbf4-d1ae-44db-8110-b28c7d24107a","ios":"levelo://app?vid=4f3dfbf4-d1ae-44db-8110-b28c7d24107a"},"vehicle_type_id":"4","last_reported":1744830451,"current_range_meters":15200,"station_id":"ce4bhk92rcd13ifvqgc0","pricing_plan_id":"cebpf4jnsgd1na2vs0mg"},{"bike_id":"5c2862f3-ea72-4593-9c74-9fcb61032079","system_id":"levelo_inurba_marseille","lat":43.29051,"lon":5.35908,"is_reserved":false,"is_disabled":false,"rental_uris":{"android":"levelo://app?vid=5c2862f3-ea72-4593-9c74-9fcb61032079","ios":"levelo://app?vid=5c2862f3-ea72-4593-9c74-9fcb61032079"},"vehicle_type_id":"4","last_reported":1744830451,"current_range_meters":15200,"station_id":"ce4bha92rcd13ifvqeg0","pricing_plan_id":"cebpf4jnsgd1na2vs0mg"},{"bike_id":"68bb67ee-7968-4e24-9c7d-d1c7514f2e79","system_id":"levelo_inurba_marseille","lat":43.32288,"lon":5.38284,"is_reserved":false,"is_disabled":false,"rental_uris":{"android":"levelo://app?vid=68bb67ee-7968-4e24-9c7d-d1c7514f2e79","ios":"levelo://app?vid=68bb67ee-7968-4e24-9c7d-d1c7514f2e79"},"vehicle_type_id":"4","last_reported":1744830451,"current_range_meters":15200,"station_id":"ce4bhr12rcd13ifvqhqg","pricing_plan_id":"cebpf4jnsgd1na2vs0mg"},{"bike_id":"78639c4a-dfa5-4f82-b777-6fd3b58b5770","system_id":"levelo_inurba_marseille","lat":43.281,"lon":5.37845,"is_reserved":false,"is_disabled":false,"rental_uris":{"android":"levelo://app?vid=78639c4a-dfa5-4f82-b777-6fd3b58b5770","ios":"levelo://app?vid=78639c4a-dfa5-4f82-b777-6fd3b58b5770"},"vehicle_type_id":"4","last_reported":1744830451,"current_range_meters":15200,"station_id":"ce4bha12rcd13ifvqee0","pricing_plan_id":"cebpf4jnsgd1na2vs0mg"},{"bike_id":"53b26416-ffe9-49c3-929b-5afeefd29a7b","system_id":"levelo_inurba_marseille","lat":43.2944,"lon":5.3855,"is_reserved":false,"is_disabled":false,"rental_uris":{"android":"levelo://app?vid=53b26416-ffe9-49c3-929b-5afeefd29a7b","ios":"levelo://app?vid=53b26416-ffe9-49c3-929b-5afeefd29a7b"},"vehicle_type_id":"4","last_reported":1744830451,"current_range_meters":15200,"station_id":"","pricing_plan_id":"cebpf4jnsgd1na2vs0mg"},{"bike_id":"2997dde1-8afb-4f34-ae08-82dbe9f74c48","system_id":"levelo_inurba_marseille","lat":43.29415,"lon":5.38635,"is_reserved":false,"is_disabled":false,"rental_uris":{"android":"levelo://app?vid=2997dde1-8afb-4f34-ae08-82dbe9f74c48","ios":"levelo://app?vid=2997dde1-8afb-4f34-ae08-82dbe9f74c48"},"vehicle_type_id":"4","last_reported":1744830451,"current_range_meters":15200,"station_id":"ce4bh2h2rcd13ifvqdh0","pricing_plan_id":"cebpf4jnsgd1na2vs0mg"},{"bike_id":"35100e48-d85e-4592-93bf-b13bb8464f4f","system_id":"levelo_inurba_marseille","lat":43.279823,"lon":5.416463,"is_reserved":false,"is_disabled":false,"rental_uris":{"android":"levelo://app?vid=35100e48-d85e-4592-93bf-b13bb8464f4f","ios":"levelo://app?vid=35100e48-d85e-4592-93bf-b13bb8464f4f"},"vehicle_type_id":"4","last_reported":1744830451,"current_range_meters":16000,"station_id":"ce4bho12rcd13ifvqh1g","pricing_plan_id":"cebpf4jnsgd1na2vs0mg"},{"bike_id":"da2251a7-2b2b-4dd1-8be8-8f047831f0e4","system_id":"levelo_inurba_marseille","lat":43.30299,"lon":5.39208,"is_reserved":false,"is_disabled":true,"rental_uris":{"android":"levelo://app?vid=da2251a7-2b2b-4dd1-8be8-8f047831f0e4","ios":"levelo://app?vid=da2251a7-2b2b-4dd1-8be8-8f047831f0e4"},"vehicle_type_id":"4","last_reported":1744830451,"current_range_meters":16000,"station_id":"ce4bgkh2rcd13ifvqbk0","pricing_plan_id":"cebpf4jnsgd1na2vs0mg"},{"bike_id":"51e9c13f-a9ea-48f5-8e72-31b5e25a5437","system_id":"levelo_inurba_marseille","lat":43.2928,"lon":5.40117,"is_reserved":false,"is_disabled":false,"rental_uris":{"android":"levelo://app?vid=51e9c13f-a9ea-48f5-8e72-31b5e25a5437","ios":"levelo://app?vid=51e9c13f-a9ea-48f5-8e72-31b5e25a5437"},"vehicle_type_id":"4","last_reported":1744830451,"current_range_meters":15200,"station_id":"ce4bh312rcd13ifvqdk0","pricing_plan_id":"cebpf4jnsgd1na2vs0mg"},{"bike_id":"57406be6-c0b4-4691-8abf-3f6842e4ec81","system_id":"levelo_inurba_marseille","lat":43.28468,"lon":5.39191,"is_reserved":false,"is_disabled":true,"rental_uris":{"android":"levelo://app?vid=57406be6-c0b4-4691-8abf-3f6842e4ec81","ios":"levelo://app?vid=57406be6-c0b4-4691-8abf-3f6842e4ec81"},"vehicle_type_id":"4","last_reported":1744830451,"current_range_meters":16000,"station_id":"ce4bhoh2rcd13ifvqh5g","pricing_plan_id":"cebpf4jnsgd1na2vs0mg"},{"bike_id":"b1f42236-afb1-4d50-8c55-a5bd3257f481","system_id":"levelo_inurba_marseille","lat":43.2943,"lon":5.38621,"is_reserved":false,"is_disabled":false,"rental_uris":{"android":"levelo://app?vid=b1f42236-afb1-4d50-8c55-a5bd3257f481","ios":"levelo://app?vid=b1f42236-afb1-4d50-8c55-a5bd3257f481"},"vehicle_type_id":"4","last_reported":1744830451,"current_range_meters":16000,"station_id":"ce4bh2h2rcd13ifvqdh0","pricing_plan_id":"cebpf4jnsgd1na2vs0mg"},{"bike_id":"830bf846-e307-43c6-ad8a-de3dc41759b4","system_id":"levelo_inurba_marseille","lat":43.29028,"lon":5.38656,"is_reserved":false,"is_disabled":false,"rental_uris":{"android":"levelo://app?vid=830bf846-e307-43c6-ad8a-de3dc41759b4","ios":"levelo://app?vid=830bf846-e307-43c6-ad8a-de3dc41759b4"},"vehicle_type_id":"4","last_reported":1744830451,"current_range_meters":16000,"station_id":"ce4bh4p2rcd13ifvqe0g","pricing_plan_id":"cebpf4jnsgd1na2vs0mg"},{"bike_id":"93ccd809-f584-4739-8f4e-c335c63d94b9","system_id":"levelo_inurba_marseille","lat":43.32113,"lon":5.36784,"is_reserved":false,"is_disabled":false,"rental_uris":{"android":"levelo://app?vid=93ccd809-f584-4739-8f4e-c335c63d94b9","ios":"levelo://app?vid=93ccd809-f584-4739-8f4e-c335c63d94b9"},"vehicle_type_id":"4","last_reported":1744830451,"current_range_meters":16000,"station_id":"ce4bhrh2rcd13ifvqhug","pricing_plan_id":"cebpf4jnsgd1na2vs0mg"},{"bike_id":"37b9742a-2ff9-4673-abbf-8a932d12ced7","system_id":"levelo_inurba_marseille","lat":43.24173,"lon":5.39724,"is_reserved":false,"is_disabled":false,"rental_uris":{"android":"levelo://app?vid=37b9742a-2ff9-4673-abbf-8a932d12ced7","ios":"levelo://app?vid=37b9742a-2ff9-4673-abbf-8a932d12ced7"},"vehicle_type_id":"4","last_reported":1744830451,"current_range_meters":16400,"station_id":"ce4bhn12rcd13ifvqgpg","pricing_plan_id":"cebpf4jnsgd1na2vs0mg"},{"bike_id":"f8cde99e-9428-40dc-8da7-7800055ccec7","system_id":"levelo_inurba_marseille","lat":43.27832,"lon":5.39206,"is_reserved":false,"is_disabled":false,"rental_uris":{"android":"levelo://app?vid=f8cde99e-9428-40dc-8da7-7800055ccec7","ios":"levelo://app?vid=f8cde99e-9428-40dc-8da7-7800055ccec7"},"vehicle_type_id":"4","last_reported":1744830451,"current_range_meters":16000,"station_id":"ce4bhjp2rcd13ifvqga0","pricing_plan_id":"cebpf4jnsgd1na2vs0mg"},{"bike_id":"c5c76ae8-2915-4bf5-a264-5e3406fc9f78","system_id":"levelo_inurba_marseille","lat":43.29031,"lon":5.38633,"is_reserved":false,"is_disabled":false,"rental_uris":{"android":"levelo://app?vid=c5c76ae8-2915-4bf5-a264-5e3406fc9f78","ios":"levelo://app?vid=c5c76ae8-2915-4bf5-a264-5e3406fc9f78"},"vehicle_type_id":"4","last_reported":1744830451,"current_range_meters":16400,"station_id":"ce4bh4p2rcd13ifvqe0g","pricing_plan_id":"cebpf4jnsgd1na2vs0mg"},{"bike_id":"8be75756-a53c-4ba1-b857-7453ea94c63f","system_id":"levelo_inurba_marseille","lat":43.29419,"lon":5.38629,"is_reserved":false,"is_disabled":false,"rental_uris":{"android":"levelo://app?vid=8be75756-a53c-4ba1-b857-7453ea94c63f","ios":"levelo://app?vid=8be75756-a53c-4ba1-b857-7453ea94c63f"},"vehicle_type_id":"4","last_reported":1744830451,"current_range_meters":16400,"station_id":"ce4bh2h2rcd13ifvqdh0","pricing_plan_id":"cebpf4jnsgd1na2vs0mg"},{"bike_id":"2909136c-832d-48b6-ae24-8dbd950af2de","system_id":"levelo_inurba_marseille","lat":43.28408,"lon":5.37521,"is_reserved":false,"is_disabled":false,"rental_uris":{"android":"levelo://app?vid=2909136c-832d-48b6-ae24-8dbd950af2de","ios":"levelo://app?vid=2909136c-832d-48b6-ae24-8dbd950af2de"},"vehicle_type_id":"4","last_reported":1744830451,"current_range_meters":16400,"station_id":"ce4bh412rcd13ifvqds0","pricing_plan_id":"cebpf4jnsgd1na2vs0mg"},{"bike_id":"b453c917-0db1-40bd-ad8a-e14424b609f7","system_id":"levelo_inurba_marseille","lat":43.27087,"lon":5.40246,"is_reserved":false,"is_disabled":false,"rental_uris":{"android":"levelo://app?vid=b453c917-0db1-40bd-ad8a-e14424b609f7","ios":"levelo://app?vid=b453c917-0db1-40bd-ad8a-e14424b609f7"},"vehicle_type_id":"4","last_reported":1744830451,"current_range_meters":16800,"station_id":"ce4bhk92rcd13ifvqgc0","pricing_plan_id":"cebpf4jnsgd1na2vs0mg"},{"bike_id":"7d4a7fce-596b-40a1-bf8e-35f954a39aba","system_id":"levelo_inurba_marseille","lat":43.24795,"lon":5.37433,"is_reserved":false,"is_disabled":false,"rental_uris":{"android":"levelo://app?vid=7d4a7fce-596b-40a1-bf8e-35f954a39aba","ios":"levelo://app?vid=7d4a7fce-596b-40a1-bf8e-35f954a39aba"},"vehicle_type_id":"4","last_reported":1744830451,"current_range_meters":16800,"station_id":"ce4bhgh2rcd13ifvqfb0","pricing_plan_id":"cebpf4jnsgd1na2vs0mg"},{"bike_id":"a959870e-1b1c-4252-a15f-f91a60806b33","system_id":"levelo_inurba_marseille","lat":43.303289,"lon":5.40431,"is_reserved":false,"is_disabled":false,"rental_uris":{"android":"levelo://app?vid=a959870e-1b1c-4252-a15f-f91a60806b33","ios":"levelo://app?vid=a959870e-1b1c-4252-a15f-f91a60806b33"},"vehicle_type_id":"4","last_reported":1744830451,"current_range_meters":16400,"station_id":"ce4bh012rcd13ifvqd10","pricing_plan_id":"cebpf4jnsgd1na2vs0mg"},{"bike_id":"78d52b24-1f11-4214-b6f2-46fcf1d60bc7","system_id":"levelo_inurba_marseille","lat":43.27567,"lon":5.38416,"is_reserved":false,"is_disabled":false,"rental_uris":{"android":"levelo://app?vid=78d52b24-1f11-4214-b6f2-46fcf1d60bc7","ios":"levelo://app?vid=78d52b24-1f11-4214-b6f2-46fcf1d60bc7"},"vehicle_type_id":"4","last_reported":1744830451,"current_range_meters":16800,"station_id":"ce4bhh92rcd13ifvqfi0","pricing_plan_id":"cebpf4jnsgd1na2vs0mg"},{"bike_id":"7ea9c303-56a5-434b-a2ab-d61928b59fe1","system_id":"levelo_inurba_marseille","lat":43.29415,"lon":5.38627,"is_reserved":false,"is_disabled":false,"rental_uris":{"android":"levelo://app?vid=7ea9c303-56a5-434b-a2ab-d61928b59fe1","ios":"levelo://app?vid=7ea9c303-56a5-434b-a2ab-d61928b59fe1"},"vehicle_type_id":"4","last_reported":1744830451,"current_range_meters":17200,"station_id":"ce4bh2h2rcd13ifvqdh0","pricing_plan_id":"cebpf4jnsgd1na2vs0mg"},{"bike_id":"d06f26cb-1451-47b1-b9b5-e7a4048b30ef","system_id":"levelo_inurba_marseille","lat":43.30782,"lon":5.38168,"is_reserved":false,"is_disabled":false,"rental_uris":{"android":"levelo://app?vid=d06f26cb-1451-47b1-b9b5-e7a4048b30ef","ios":"levelo://app?vid=d06f26cb-1451-47b1-b9b5-e7a4048b30ef"},"vehicle_type_id":"4","last_reported":1744830451,"current_range_meters":17200,"station_id":"ce4bgt12rcd13ifvqce0","pricing_plan_id":"cebpf4jnsgd1na2vs0mg"},{"bike_id":"e099c654-d084-4382-865d-7f6786cd76e7","system_id":"levelo_inurba_marseille","lat":43.29569,"lon":5.39988,"is_reserved":false,"is_disabled":false,"rental_uris":{"android":"levelo://app?vid=e099c654-d084-4382-865d-7f6786cd76e7","ios":"levelo://app?vid=e099c654-d084-4382-865d-7f6786cd76e7"},"vehicle_type_id":"4","last_reported":1744830451,"current_range_meters":17200,"station_id":"ce4bh312rcd13ifvqdj0","pricing_plan_id":"cebpf4jnsgd1na2vs0mg"},{"bike_id":"0e7f3c1c-5749-4ea0-8c4b-38be5bb50b3a","system_id":"levelo_inurba_marseille","lat":43.306825,"lon":5.400759,"is_reserved":false,"is_disabled":false,"rental_uris":{"android":"levelo://app?vid=0e7f3c1c-5749-4ea0-8c4b-38be5bb50b3a","ios":"levelo://app?vid=0e7f3c1c-5749-4ea0-8c4b-38be5bb50b3a"},"vehicle_type_id":"4","last_reported":1744830451,"current_range_meters":17600,"station_id":"ce4bh112rcd13ifvqda0","pricing_plan_id":"cebpf4jnsgd1na2vs0mg"},{"bike_id":"da0699e6-fffb-42fd-bda2-fa249cfedfd8","system_id":"levelo_inurba_marseille","lat":43.314856,"lon":5.373049,"is_reserved":false,"is_disabled":false,"rental_uris":{"android":"levelo://app?vid=da0699e6-fffb-42fd-bda2-fa249cfedfd8","ios":"levelo://app?vid=da0699e6-fffb-42fd-bda2-fa249cfedfd8"},"vehicle_type_id":"4","last_reported":1744830451,"current_range_meters":17600,"station_id":"ce4bgt12rcd13ifvqcd0","pricing_plan_id":"cebpf4jnsgd1na2vs0mg"},{"bike_id":"222ef5cd-304a-42b3-bdd6-02772bc6f126","system_id":"levelo_inurba_marseille","lat":43.31114,"lon":5.37758,"is_reserved":false,"is_disabled":false,"rental_uris":{"android":"levelo://app?vid=222ef5cd-304a-42b3-bdd6-02772bc6f126","ios":"levelo://app?vid=222ef5cd-304a-42b3-bdd6-02772bc6f126"},"vehicle_type_id":"4","last_reported":1744830451,"current_range_meters":17600,"station_id":"ce4bgt92rcd13ifvqcg0","pricing_plan_id":"cebpf4jnsgd1na2vs0mg"},{"bike_id":"8bc01458-e04d-4e1e-9f4f-473a9ad28594","system_id":"levelo_inurba_marseille","lat":43.2794,"lon":5.39605,"is_reserved":false,"is_disabled":false,"rental_uris":{"android":"levelo://app?vid=8bc01458-e04d-4e1e-9f4f-473a9ad28594","ios":"levelo://app?vid=8bc01458-e04d-4e1e-9f4f-473a9ad28594"},"vehicle_type_id":"4","last_reported":1744830451,"current_range_meters":18000,"station_id":"ce4bhf92rcd13ifvqf40","pricing_plan_id":"cebpf4jnsgd1na2vs0mg"},{"bike_id":"660631fc-51be-4aa7-bb7f-ab6c028609a6","system_id":"levelo_inurba_marseille","lat":43.28156,"lon":5.4264,"is_reserved":false,"is_disabled":false,"rental_uris":{"android":"levelo://app?vid=660631fc-51be-4aa7-bb7f-ab6c028609a6","ios":"levelo://app?vid=660631fc-51be-4aa7-bb7f-ab6c028609a6"},"vehicle_type_id":"4","last_reported":1744830451,"current_range_meters":18000,"station_id":"ce4bhnh2rcd13ifvqgug","pricing_plan_id":"cebpf4jnsgd1na2vs0mg"},{"bike_id":"a4257cef-078d-487c-abe1-5f0c739eb627","system_id":"levelo_inurba_marseille","lat":43.30785,"lon":5.38163,"is_reserved":false,"is_disabled":false,"rental_uris":{"android":"levelo://app?vid=a4257cef-078d-487c-abe1-5f0c739eb627","ios":"levelo://app?vid=a4257cef-078d-487c-abe1-5f0c739eb627"},"vehicle_type_id":"4","last_reported":1744830451,"current_range_meters":18000,"station_id":"ce4bgt12rcd13ifvqce0","pricing_plan_id":"cebpf4jnsgd1na2vs0mg"},{"bike_id":"534cf37c-9e9d-430e-b0dd-9cc492167037","system_id":"levelo_inurba_marseille","lat":43.29599,"lon":5.38076,"is_reserved":false,"is_disabled":false,"rental_uris":{"android":"levelo://app?vid=534cf37c-9e9d-430e-b0dd-9cc492167037","ios":"levelo://app?vid=534cf37c-9e9d-430e-b0dd-9cc492167037"},"vehicle_type_id":"4","last_reported":1744830451,"current_range_meters":18000,"station_id":"ce4bgl12rcd13ifvqbo0","pricing_plan_id":"cebpf4jnsgd1na2vs0mg"},{"bike_id":"47abf2e7-5fd7-4b70-a3bf-07e3aefe97a2","system_id":"levelo_inurba_marseille","lat":43.29259,"lon":5.38429,"is_reserved":false,"is_disabled":false,"rental_uris":{"android":"levelo://app?vid=47abf2e7-5fd7-4b70-a3bf-07e3aefe97a2","ios":"levelo://app?vid=47abf2e7-5fd7-4b70-a3bf-07e3aefe97a2"},"vehicle_type_id":"4","last_reported":1744830451,"current_range_meters":18000,"station_id":"ce4bh692rcd13ifvqea0","pricing_plan_id":"cebpf4jnsgd1na2vs0mg"},{"bike_id":"e2edca5c-c428-4d21-b480-54a6a84cbe74","system_id":"levelo_inurba_marseille","lat":43.31753,"lon":5.39016,"is_reserved":false,"is_disabled":false,"rental_uris":{"android":"levelo://app?vid=e2edca5c-c428-4d21-b480-54a6a84cbe74","ios":"levelo://app?vid=e2edca5c-c428-4d21-b480-54a6a84cbe74"},"vehicle_type_id":"4","last_reported":1744830451,"current_range_meters":18000,"station_id":"ce4bhqp2rcd13ifvqhng","pricing_plan_id":"cebpf4jnsgd1na2vs0mg"},{"bike_id":"0417b5a2-8289-4cef-a32e-98006aad3959","system_id":"levelo_inurba_marseille","lat":43.29837,"lon":5.362789,"is_reserved":false,"is_disabled":false,"rental_uris":{"android":"levelo://app?vid=0417b5a2-8289-4cef-a32e-98006aad3959","ios":"levelo://app?vid=0417b5a2-8289-4cef-a32e-98006aad3959"},"vehicle_type_id":"4","last_reported":1744830451,"current_range_meters":18000,"station_id":"ce4bh4p2rcd13ifvqe1g","pricing_plan_id":"cebpf4jnsgd1na2vs0mg"},{"bike_id":"f9294aff-5b6f-4d62-9db7-b7bdca4ffaf5","system_id":"levelo_inurba_marseille","lat":43.32533,"lon":5.41464,"is_reserved":false,"is_disabled":false,"rental_uris":{"android":"levelo://app?vid=f9294aff-5b6f-4d62-9db7-b7bdca4ffaf5","ios":"levelo://app?vid=f9294aff-5b6f-4d62-9db7-b7bdca4ffaf5"},"vehicle_type_id":"4","last_reported":1744830451,"current_range_meters":18000,"station_id":"ce4bhq12rcd13ifvqhhg","pricing_plan_id":"cebpf4jnsgd1na2vs0mg"},{"bike_id":"636671d9-0916-4e0f-b7c6-9f741a2cfa8b","system_id":"levelo_inurba_marseille","lat":43.25819,"lon":5.39436,"is_reserved":false,"is_disabled":false,"rental_uris":{"android":"levelo://app?vid=636671d9-0916-4e0f-b7c6-9f741a2cfa8b","ios":"levelo://app?vid=636671d9-0916-4e0f-b7c6-9f741a2cfa8b"},"vehicle_type_id":"4","last_reported":1744830451,"current_range_meters":18000,"station_id":"ce4bhip2rcd13ifvqft0","pricing_plan_id":"cebpf4jnsgd1na2vs0mg"},{"bike_id":"f8ca688b-8d89-46b7-9110-baed5a9ba379","system_id":"levelo_inurba_marseille","lat":43.31137,"lon":5.37019,"is_reserved":false,"is_disabled":false,"rental_uris":{"android":"levelo://app?vid=f8ca688b-8d89-46b7-9110-baed5a9ba379","ios":"levelo://app?vid=f8ca688b-8d89-46b7-9110-baed5a9ba379"},"vehicle_type_id":"4","last_reported":1744830451,"current_range_meters":18800,"station_id":"","pricing_plan_id":"cebpf4jnsgd1na2vs0mg"},{"bike_id":"3dd433d0-b8f6-4419-b88c-2b9ec6df07ee","system_id":"levelo_inurba_marseille","lat":43.29565,"lon":5.39978,"is_reserved":false,"is_disabled":false,"rental_uris":{"android":"levelo://app?vid=3dd433d0-b8f6-4419-b88c-2b9ec6df07ee","ios":"levelo://app?vid=3dd433d0-b8f6-4419-b88c-2b9ec6df07ee"},"vehicle_type_id":"4","last_reported":1744830451,"current_range_meters":18800,"station_id":"ce4bh312rcd13ifvqdj0","pricing_plan_id":"cebpf4jnsgd1na2vs0mg"},{"bike_id":"5b4e8388-ccca-46df-b25f-f7efe73dd6d2","system_id":"levelo_inurba_marseille","lat":43.2927,"lon":5.38429,"is_reserved":false,"is_disabled":false,"rental_uris":{"android":"levelo://app?vid=5b4e8388-ccca-46df-b25f-f7efe73dd6d2","ios":"levelo://app?vid=5b4e8388-ccca-46df-b25f-f7efe73dd6d2"},"vehicle_type_id":"4","last_reported":1744830451,"current_range_meters":18800,"station_id":"ce4bh692rcd13ifvqea0","pricing_plan_id":"cebpf4jnsgd1na2vs0mg"},{"bike_id":"e99525f5-cbc2-4ae9-8119-ca8722827511","system_id":"levelo_inurba_marseille","lat":43.29289,"lon":5.38452,"is_reserved":false,"is_disabled":false,"rental_uris":{"android":"levelo://app?vid=e99525f5-cbc2-4ae9-8119-ca8722827511","ios":"levelo://app?vid=e99525f5-cbc2-4ae9-8119-ca8722827511"},"vehicle_type_id":"4","last_reported":1744830451,"current_range_meters":18800,"station_id":"ce4bh692rcd13ifvqea0","pricing_plan_id":"cebpf4jnsgd1na2vs0mg"},{"bike_id":"173d39b4-7a97-4693-9385-db8bda0fe199","system_id":"levelo_inurba_marseille","lat":43.21754,"lon":5.3459,"is_reserved":false,"is_disabled":false,"rental_uris":{"android":"levelo://app?vid=173d39b4-7a97-4693-9385-db8bda0fe199","ios":"levelo://app?vid=173d39b4-7a97-4693-9385-db8bda0fe199"},"vehicle_type_id":"4","last_reported":1744830451,"current_range_meters":18800,"station_id":"st_cvj6r9ubvosntc0bgbag","pricing_plan_id":"cebpf4jnsgd1na2vs0mg"},{"bike_id":"22a8a00a-8832-4c9e-8aef-7a97e1f5c371","system_id":"levelo_inurba_marseille","lat":43.290275,"lon":5.386466,"is_reserved":false,"is_disabled":false,"rental_uris":{"android":"levelo://app?vid=22a8a00a-8832-4c9e-8aef-7a97e1f5c371","ios":"levelo://app?vid=22a8a00a-8832-4c9e-8aef-7a97e1f5c371"},"vehicle_type_id":"4","last_reported":1744830451,"current_range_meters":18800,"station_id":"ce4bh9p2rcd13ifvqec0","pricing_plan_id":"cebpf4jnsgd1na2vs0mg"},{"bike_id":"a9a13b2f-e2de-4f40-968c-4382de62974d","system_id":"levelo_inurba_marseille","lat":43.27925,"lon":5.41056,"is_reserved":false,"is_disabled":false,"rental_uris":{"android":"levelo://app?vid=a9a13b2f-e2de-4f40-968c-4382de62974d","ios":"levelo://app?vid=a9a13b2f-e2de-4f40-968c-4382de62974d"},"vehicle_type_id":"4","last_reported":1744830451,"current_range_meters":18800,"station_id":"ce4bhnp2rcd13ifvqh0g","pricing_plan_id":"cebpf4jnsgd1na2vs0mg"},{"bike_id":"aaea47a8-fa40-4e3c-b13f-05c50373342f","system_id":"levelo_inurba_marseille","lat":43.30217,"lon":5.39469,"is_reserved":false,"is_disabled":false,"rental_uris":{"android":"levelo://app?vid=aaea47a8-fa40-4e3c-b13f-05c50373342f","ios":"levelo://app?vid=aaea47a8-fa40-4e3c-b13f-05c50373342f"},"vehicle_type_id":"4","last_reported":1744830451,"current_range_meters":18800,"station_id":"ce4bh0p2rcd13ifvqd70","pricing_plan_id":"cebpf4jnsgd1na2vs0mg"},{"bike_id":"17c9dc6c-271d-433f-9b4c-f545e7e15d51","system_id":"levelo_inurba_marseille","lat":43.28101,"lon":5.39654,"is_reserved":false,"is_disabled":false,"rental_uris":{"android":"levelo://app?vid=17c9dc6c-271d-433f-9b4c-f545e7e15d51","ios":"levelo://app?vid=17c9dc6c-271d-433f-9b4c-f545e7e15d51"},"vehicle_type_id":"4","last_reported":1744830451,"current_range_meters":18800,"station_id":"ce4bho12rcd13ifvqh2g","pricing_plan_id":"cebpf4jnsgd1na2vs0mg"},{"bike_id":"a0ddb0a5-f7f0-4281-aa27-9e82747cc573","system_id":"levelo_inurba_marseille","lat":43.337619,"lon":5.374828,"is_reserved":false,"is_disabled":false,"rental_uris":{"android":"levelo://app?vid=a0ddb0a5-f7f0-4281-aa27-9e82747cc573","ios":"levelo://app?vid=a0ddb0a5-f7f0-4281-aa27-9e82747cc573"},"vehicle_type_id":"4","last_reported":1744830451,"current_range_meters":18800,"station_id":"","pricing_plan_id":"cebpf4jnsgd1na2vs0mg"},{"bike_id":"752e8716-c761-4db8-baf0-a1d8e33d46f2","system_id":"levelo_inurba_marseille","lat":43.28252,"lon":5.35093,"is_reserved":false,"is_disabled":false,"rental_uris":{"android":"levelo://app?vid=752e8716-c761-4db8-baf0-a1d8e33d46f2","ios":"levelo://app?vid=752e8716-c761-4db8-baf0-a1d8e33d46f2"},"vehicle_type_id":"4","last_reported":1744830451,"current_range_meters":18800,"station_id":"ce4bhbp2rcd13ifvqerg","pricing_plan_id":"cebpf4jnsgd1na2vs0mg"},{"bike_id":"d750596a-6ac6-4755-84cc-45acd4464f3d","system_id":"levelo_inurba_marseille","lat":43.24411,"lon":5.37043,"is_reserved":false,"is_disabled":false,"rental_uris":{"android":"levelo://app?vid=d750596a-6ac6-4755-84cc-45acd4464f3d","ios":"levelo://app?vid=d750596a-6ac6-4755-84cc-45acd4464f3d"},"vehicle_type_id":"4","last_reported":1744830451,"current_range_meters":19200,"station_id":"ce4bhhh2rcd13ifvqfk0","pricing_plan_id":"cebpf4jnsgd1na2vs0mg"},{"bike_id":"96aff948-3ab2-4a4e-979d-feac8fe85b1e","system_id":"levelo_inurba_marseille","lat":43.3021,"lon":5.3947,"is_reserved":false,"is_disabled":false,"rental_uris":{"android":"levelo://app?vid=96aff948-3ab2-4a4e-979d-feac8fe85b1e","ios":"levelo://app?vid=96aff948-3ab2-4a4e-979d-feac8fe85b1e"},"vehicle_type_id":"4","last_reported":1744830451,"current_range_meters":19200,"station_id":"","pricing_plan_id":"cebpf4jnsgd1na2vs0mg"},{"bike_id":"116f4404-8a06-4191-a52b-63148c33046d","system_id":"levelo_inurba_marseille","lat":43.28907,"lon":5.38382,"is_reserved":false,"is_disabled":false,"rental_uris":{"android":"levelo://app?vid=116f4404-8a06-4191-a52b-63148c33046d","ios":"levelo://app?vid=116f4404-8a06-4191-a52b-63148c33046d"},"vehicle_type_id":"4","last_reported":1744830451,"current_range_meters":19200,"station_id":"ce4bh612rcd13ifvqe6g","pricing_plan_id":"cebpf4jnsgd1na2vs0mg"},{"bike_id":"bbb1c662-cc65-4c72-8489-de78d2f0f12f","system_id":"levelo_inurba_marseille","lat":43.230639,"lon":5.355029,"is_reserved":false,"is_disabled":false,"rental_uris":{"android":"levelo://app?vid=bbb1c662-cc65-4c72-8489-de78d2f0f12f","ios":"levelo://app?vid=bbb1c662-cc65-4c72-8489-de78d2f0f12f"},"vehicle_type_id":"4","last_reported":1744830451,"current_range_meters":19200,"station_id":"cpo3342slgdg3j2ifvpg","pricing_plan_id":"cebpf4jnsgd1na2vs0mg"},{"bike_id":"8a7aedd5-7665-4ab4-8bb1-0a54b5f8e959","system_id":"levelo_inurba_marseille","lat":43.28852,"lon":5.39313,"is_reserved":false,"is_disabled":false,"rental_uris":{"android":"levelo://app?vid=8a7aedd5-7665-4ab4-8bb1-0a54b5f8e959","ios":"levelo://app?vid=8a7aedd5-7665-4ab4-8bb1-0a54b5f8e959"},"vehicle_type_id":"4","last_reported":1744830451,"current_range_meters":19200,"station_id":"ce4bh2p2rcd13ifvqdi0","pricing_plan_id":"cebpf4jnsgd1na2vs0mg"},{"bike_id":"a2d8734d-c4ca-4bde-b33a-f5b6036b1d4a","system_id":"levelo_inurba_marseille","lat":43.28843,"lon":5.39301,"is_reserved":false,"is_disabled":false,"rental_uris":{"android":"levelo://app?vid=a2d8734d-c4ca-4bde-b33a-f5b6036b1d4a","ios":"levelo://app?vid=a2d8734d-c4ca-4bde-b33a-f5b6036b1d4a"},"vehicle_type_id":"4","last_reported":1744830451,"current_range_meters":19200,"station_id":"ce4bh2p2rcd13ifvqdi0","pricing_plan_id":"cebpf4jnsgd1na2vs0mg"},{"bike_id":"fd004068-7161-4dbb-a955-dc3b29ce8ef2","system_id":"levelo_inurba_marseille","lat":43.29599,"lon":5.39074,"is_reserved":false,"is_disabled":false,"rental_uris":{"android":"levelo://app?vid=fd004068-7161-4dbb-a955-dc3b29ce8ef2","ios":"levelo://app?vid=fd004068-7161-4dbb-a955-dc3b29ce8ef2"},"vehicle_type_id":"4","last_reported":1744830451,"current_range_meters":19200,"station_id":"ce4bh392rcd13ifvqdl0","pricing_plan_id":"cebpf4jnsgd1na2vs0mg"},{"bike_id":"d486101b-072f-470b-a885-f5f95c61cd86","system_id":"levelo_inurba_marseille","lat":43.31482,"lon":5.37306,"is_reserved":false,"is_disabled":false,"rental_uris":{"android":"levelo://app?vid=d486101b-072f-470b-a885-f5f95c61cd86","ios":"levelo://app?vid=d486101b-072f-470b-a885-f5f95c61cd86"},"vehicle_type_id":"4","last_reported":1744830451,"current_range_meters":19200,"station_id":"ce4bgt12rcd13ifvqcd0","pricing_plan_id":"cebpf4jnsgd1na2vs0mg"},{"bike_id":"b652bdb7-a4d5-4927-bd0c-73ce3a2e3721","system_id":"levelo_inurba_marseille","lat":43.26803,"lon":5.40257,"is_reserved":false,"is_disabled":false,"rental_uris":{"android":"levelo://app?vid=b652bdb7-a4d5-4927-bd0c-73ce3a2e3721","ios":"levelo://app?vid=b652bdb7-a4d5-4927-bd0c-73ce3a2e3721"},"vehicle_type_id":"4","last_reported":1744830451,"current_range_meters":19200,"station_id":"ce501612rcd8frsf0b60","pricing_plan_id":"cebpf4jnsgd1na2vs0mg"},{"bike_id":"d4a81af1-8a84-4539-aa58-616bfb5c9f39","system_id":"levelo_inurba_marseille","lat":43.24802,"lon":5.37452,"is_reserved":false,"is_disabled":false,"rental_uris":{"android":"levelo://app?vid=d4a81af1-8a84-4539-aa58-616bfb5c9f39","ios":"levelo://app?vid=d4a81af1-8a84-4539-aa58-616bfb5c9f39"},"vehicle_type_id":"4","last_reported":1744830451,"current_range_meters":19600,"station_id":"ce4bhgh2rcd13ifvqfb0","pricing_plan_id":"cebpf4jnsgd1na2vs0mg"},{"bike_id":"7e503a1b-3682-4e82-a0d8-f00043fe70df","system_id":"levelo_inurba_marseille","lat":43.29247,"lon":5.3845,"is_reserved":false,"is_disabled":false,"rental_uris":{"android":"levelo://app?vid=7e503a1b-3682-4e82-a0d8-f00043fe70df","ios":"levelo://app?vid=7e503a1b-3682-4e82-a0d8-f00043fe70df"},"vehicle_type_id":"4","last_reported":1744830451,"current_range_meters":19600,"station_id":"ce4bh692rcd13ifvqea0","pricing_plan_id":"cebpf4jnsgd1na2vs0mg"},{"bike_id":"e21a9a78-bab5-42d3-8931-bbbb872f0a3e","system_id":"levelo_inurba_marseille","lat":43.27914,"lon":5.3958,"is_reserved":false,"is_disabled":false,"rental_uris":{"android":"levelo://app?vid=e21a9a78-bab5-42d3-8931-bbbb872f0a3e","ios":"levelo://app?vid=e21a9a78-bab5-42d3-8931-bbbb872f0a3e"},"vehicle_type_id":"4","last_reported":1744830451,"current_range_meters":19600,"station_id":"ce4bhf92rcd13ifvqf40","pricing_plan_id":"cebpf4jnsgd1na2vs0mg"},{"bike_id":"08f4dcee-7656-4957-9022-f13783bb2667","system_id":"levelo_inurba_marseille","lat":43.2969,"lon":5.3723,"is_reserved":false,"is_disabled":false,"rental_uris":{"android":"levelo://app?vid=08f4dcee-7656-4957-9022-f13783bb2667","ios":"levelo://app?vid=08f4dcee-7656-4957-9022-f13783bb2667"},"vehicle_type_id":"4","last_reported":1744830451,"current_range_meters":19600,"station_id":"","pricing_plan_id":"cebpf4jnsgd1na2vs0mg"},{"bike_id":"579017e7-8ac9-4e7f-9699-b4fc2682a973","system_id":"levelo_inurba_marseille","lat":43.28715,"lon":5.37948,"is_reserved":false,"is_disabled":false,"rental_uris":{"android":"levelo://app?vid=579017e7-8ac9-4e7f-9699-b4fc2682a973","ios":"levelo://app?vid=579017e7-8ac9-4e7f-9699-b4fc2682a973"},"vehicle_type_id":"4","last_reported":1744830451,"current_range_meters":19600,"station_id":"ce4bh9p2rcd13ifvqec0","pricing_plan_id":"cebpf4jnsgd1na2vs0mg"},{"bike_id":"0620d2fb-fed7-4ee2-913e-6d03123ff78c","system_id":"levelo_inurba_marseille","lat":43.22933,"lon":5.353775,"is_reserved":false,"is_disabled":false,"rental_uris":{"android":"levelo://app?vid=0620d2fb-fed7-4ee2-913e-6d03123ff78c","ios":"levelo://app?vid=0620d2fb-fed7-4ee2-913e-6d03123ff78c"},"vehicle_type_id":"4","last_reported":1744830451,"current_range_meters":19600,"station_id":"cpo3532slgdg3j2ikp40","pricing_plan_id":"cebpf4jnsgd1na2vs0mg"},{"bike_id":"cff4bab6-13b8-42eb-b837-a0da1278a6c2","system_id":"levelo_inurba_marseille","lat":43.30722,"lon":5.395485,"is_reserved":false,"is_disabled":false,"rental_uris":{"android":"levelo://app?vid=cff4bab6-13b8-42eb-b837-a0da1278a6c2","ios":"levelo://app?vid=cff4bab6-13b8-42eb-b837-a0da1278a6c2"},"vehicle_type_id":"4","last_reported":1744830451,"current_range_meters":19600,"station_id":"ce4bh012rcd13ifvqcv0","pricing_plan_id":"cebpf4jnsgd1na2vs0mg"},{"bike_id":"5d4e7134-52b8-4886-97de-73f85f54c25a","system_id":"levelo_inurba_marseille","lat":43.28932,"lon":5.36637,"is_reserved":false,"is_disabled":false,"rental_uris":{"android":"levelo://app?vid=5d4e7134-52b8-4886-97de-73f85f54c25a","ios":"levelo://app?vid=5d4e7134-52b8-4886-97de-73f85f54c25a"},"vehicle_type_id":"4","last_reported":1744830451,"current_range_meters":19600,"station_id":"ce4bhap2rcd13ifvqek0","pricing_plan_id":"cebpf4jnsgd1na2vs0mg"},{"bike_id":"6f2360da-5688-4f6a-8ebd-9e32ee7c678f","system_id":"levelo_inurba_marseille","lat":43.31749,"lon":5.40432,"is_reserved":false,"is_disabled":false,"rental_uris":{"android":"levelo://app?vid=6f2360da-5688-4f6a-8ebd-9e32ee7c678f","ios":"levelo://app?vid=6f2360da-5688-4f6a-8ebd-9e32ee7c678f"},"vehicle_type_id":"4","last_reported":1744830451,"current_range_meters":19600,"station_id":"ce4bh012rcd13ifvqd00","pricing_plan_id":"cebpf4jnsgd1na2vs0mg"},{"bike_id":"955d86de-64d2-4315-b1fb-bd1c528b00f5","system_id":"levelo_inurba_marseille","lat":43.3016,"lon":5.38773,"is_reserved":false,"is_disabled":false,"rental_uris":{"android":"levelo://app?vid=955d86de-64d2-4315-b1fb-bd1c528b00f5","ios":"levelo://app?vid=955d86de-64d2-4315-b1fb-bd1c528b00f5"},"vehicle_type_id":"4","last_reported":1744830451,"current_range_meters":20000,"station_id":"ce4bghh2rcd13ifvqb60","pricing_plan_id":"cebpf4jnsgd1na2vs0mg"},{"bike_id":"d39e5537-c00a-4bf8-9f22-53966b448679","system_id":"levelo_inurba_marseille","lat":43.29553,"lon":5.42266,"is_reserved":false,"is_disabled":false,"rental_uris":{"android":"levelo://app?vid=d39e5537-c00a-4bf8-9f22-53966b448679","ios":"levelo://app?vid=d39e5537-c00a-4bf8-9f22-53966b448679"},"vehicle_type_id":"4","last_reported":1744830451,"current_range_meters":20000,"station_id":"ce4bhph2rcd13ifvqhdg","pricing_plan_id":"cebpf4jnsgd1na2vs0mg"},{"bike_id":"2984cec8-23de-4a73-97a3-c0829eb8b5c7","system_id":"levelo_inurba_marseille","lat":43.27939,"lon":5.39596,"is_reserved":false,"is_disabled":false,"rental_uris":{"android":"levelo://app?vid=2984cec8-23de-4a73-97a3-c0829eb8b5c7","ios":"levelo://app?vid=2984cec8-23de-4a73-97a3-c0829eb8b5c7"},"vehicle_type_id":"4","last_reported":1744830451,"current_range_meters":20000,"station_id":"ce4bhf92rcd13ifvqf40","pricing_plan_id":"cebpf4jnsgd1na2vs0mg"},{"bike_id":"db37a3f6-f3b6-47da-8e67-36ecc280bc85","system_id":"levelo_inurba_marseille","lat":43.29625,"lon":5.40607,"is_reserved":false,"is_disabled":false,"rental_uris":{"android":"levelo://app?vid=db37a3f6-f3b6-47da-8e67-36ecc280bc85","ios":"levelo://app?vid=db37a3f6-f3b6-47da-8e67-36ecc280bc85"},"vehicle_type_id":"4","last_reported":1744830451,"current_range_meters":20000,"station_id":"ce4bh0h2rcd13ifvqd60","pricing_plan_id":"cebpf4jnsgd1na2vs0mg"},{"bike_id":"ccb7a8e4-757c-4e6f-90e3-f97fac7da5b7","system_id":"levelo_inurba_marseille","lat":43.29271,"lon":5.38457,"is_reserved":false,"is_disabled":false,"rental_uris":{"android":"levelo://app?vid=ccb7a8e4-757c-4e6f-90e3-f97fac7da5b7","ios":"levelo://app?vid=ccb7a8e4-757c-4e6f-90e3-f97fac7da5b7"},"vehicle_type_id":"4","last_reported":1744830451,"current_range_meters":20000,"station_id":"ce4bh692rcd13ifvqea0","pricing_plan_id":"cebpf4jnsgd1na2vs0mg"},{"bike_id":"43bf9250-5f81-403b-b2f2-341a8561032d","system_id":"levelo_inurba_marseille","lat":43.31705,"lon":5.40459,"is_reserved":false,"is_disabled":false,"rental_uris":{"android":"levelo://app?vid=43bf9250-5f81-403b-b2f2-341a8561032d","ios":"levelo://app?vid=43bf9250-5f81-403b-b2f2-341a8561032d"},"vehicle_type_id":"4","last_reported":1744830451,"current_range_meters":20000,"station_id":"ce4bh012rcd13ifvqd00","pricing_plan_id":"cebpf4jnsgd1na2vs0mg"},{"bike_id":"b557e27d-0f32-4a0a-b488-e6933e60a2bf","system_id":"levelo_inurba_marseille","lat":43.29782,"lon":5.39336,"is_reserved":false,"is_disabled":false,"rental_uris":{"android":"levelo://app?vid=b557e27d-0f32-4a0a-b488-e6933e60a2bf","ios":"levelo://app?vid=b557e27d-0f32-4a0a-b488-e6933e60a2bf"},"vehicle_type_id":"4","last_reported":1744830451,"current_range_meters":20000,"station_id":"chh1huq6cuj3fo74tm60","pricing_plan_id":"cebpf4jnsgd1na2vs0mg"},{"bike_id":"05f570b2-afc9-4c77-992a-b9725eb72121","system_id":"levelo_inurba_marseille","lat":43.25857,"lon":5.39973,"is_reserved":false,"is_disabled":false,"rental_uris":{"android":"levelo://app?vid=05f570b2-afc9-4c77-992a-b9725eb72121","ios":"levelo://app?vid=05f570b2-afc9-4c77-992a-b9725eb72121"},"vehicle_type_id":"4","last_reported":1744830451,"current_range_meters":20000,"station_id":"ce4bhl92rcd13ifvqghg","pricing_plan_id":"cebpf4jnsgd1na2vs0mg"},{"bike_id":"463a0a63-6347-4fd0-a49b-40b5ae6adb5d","system_id":"levelo_inurba_marseille","lat":43.303034,"lon":5.39217,"is_reserved":false,"is_disabled":false,"rental_uris":{"android":"levelo://app?vid=463a0a63-6347-4fd0-a49b-40b5ae6adb5d","ios":"levelo://app?vid=463a0a63-6347-4fd0-a49b-40b5ae6adb5d"},"vehicle_type_id":"4","last_reported":1744830451,"current_range_meters":20400,"station_id":"ce4bh3p2rcd13ifvqdp0","pricing_plan_id":"cebpf4jnsgd1na2vs0mg"},{"bike_id":"708a2c46-009d-44c0-8363-20ad3b399370","system_id":"levelo_inurba_marseille","lat":43.29429,"lon":5.38623,"is_reserved":false,"is_disabled":false,"rental_uris":{"android":"levelo://app?vid=708a2c46-009d-44c0-8363-20ad3b399370","ios":"levelo://app?vid=708a2c46-009d-44c0-8363-20ad3b399370"},"vehicle_type_id":"4","last_reported":1744830451,"current_range_meters":20400,"station_id":"ce4bh2h2rcd13ifvqdh0","pricing_plan_id":"cebpf4jnsgd1na2vs0mg"},{"bike_id":"718af28b-fb4c-4158-bc14-191e28a4f2ef","system_id":"levelo_inurba_marseille","lat":43.291748,"lon":5.371533,"is_reserved":false,"is_disabled":false,"rental_uris":{"android":"levelo://app?vid=718af28b-fb4c-4158-bc14-191e28a4f2ef","ios":"levelo://app?vid=718af28b-fb4c-4158-bc14-191e28a4f2ef"},"vehicle_type_id":"4","last_reported":1744830451,"current_range_meters":20400,"station_id":"ce4bgs12rcd13ifvqcag","pricing_plan_id":"cebpf4jnsgd1na2vs0mg"},{"bike_id":"2a336efc-cf01-40ce-8ff2-d6079903f56e","system_id":"levelo_inurba_marseille","lat":43.30296,"lon":5.39219,"is_reserved":false,"is_disabled":false,"rental_uris":{"android":"levelo://app?vid=2a336efc-cf01-40ce-8ff2-d6079903f56e","ios":"levelo://app?vid=2a336efc-cf01-40ce-8ff2-d6079903f56e"},"vehicle_type_id":"4","last_reported":1744830451,"current_range_meters":20400,"station_id":"ce4bgkh2rcd13ifvqbk0","pricing_plan_id":"cebpf4jnsgd1na2vs0mg"},{"bike_id":"a239ad9d-7550-4ec4-a160-d99ce000dcd9","system_id":"levelo_inurba_marseille","lat":43.28364,"lon":5.38632,"is_reserved":false,"is_disabled":false,"rental_uris":{"android":"levelo://app?vid=a239ad9d-7550-4ec4-a160-d99ce000dcd9","ios":"levelo://app?vid=a239ad9d-7550-4ec4-a160-d99ce000dcd9"},"vehicle_type_id":"4","last_reported":1744830451,"current_range_meters":20400,"station_id":"ce4bh492rcd13ifvqdvg","pricing_plan_id":"cebpf4jnsgd1na2vs0mg"},{"bike_id":"c785a930-e2fc-4a2c-95ab-2c04b1df45b5","system_id":"levelo_inurba_marseille","lat":43.29264,"lon":5.37617,"is_reserved":false,"is_disabled":false,"rental_uris":{"android":"levelo://app?vid=c785a930-e2fc-4a2c-95ab-2c04b1df45b5","ios":"levelo://app?vid=c785a930-e2fc-4a2c-95ab-2c04b1df45b5"},"vehicle_type_id":"4","last_reported":1744830451,"current_range_meters":20400,"station_id":"ce4bgi12rcd13ifvqb80","pricing_plan_id":"cebpf4jnsgd1na2vs0mg"},{"bike_id":"6c9ecf3e-3823-4098-a4e0-7670e0f66240","system_id":"levelo_inurba_marseille","lat":43.29571,"lon":5.37557,"is_reserved":false,"is_disabled":false,"rental_uris":{"android":"levelo://app?vid=6c9ecf3e-3823-4098-a4e0-7670e0f66240","ios":"levelo://app?vid=6c9ecf3e-3823-4098-a4e0-7670e0f66240"},"vehicle_type_id":"4","last_reported":1744830451,"current_range_meters":20400,"station_id":"ce4bgh92rcd13ifvqb50","pricing_plan_id":"cebpf4jnsgd1na2vs0mg"},{"bike_id":"74cd5c3b-0b5d-48b5-925e-68fc3dc7983a","system_id":"levelo_inurba_marseille","lat":43.29266,"lon":5.38437,"is_reserved":false,"is_disabled":false,"rental_uris":{"android":"levelo://app?vid=74cd5c3b-0b5d-48b5-925e-68fc3dc7983a","ios":"levelo://app?vid=74cd5c3b-0b5d-48b5-925e-68fc3dc7983a"},"vehicle_type_id":"4","last_reported":1744830451,"current_range_meters":20400,"station_id":"ce4bh692rcd13ifvqea0","pricing_plan_id":"cebpf4jnsgd1na2vs0mg"},{"bike_id":"421b8527-ab9a-4d48-8e78-647564edc005","system_id":"levelo_inurba_marseille","lat":43.28347,"lon":5.38107,"is_reserved":false,"is_disabled":false,"rental_uris":{"android":"levelo://app?vid=421b8527-ab9a-4d48-8e78-647564edc005","ios":"levelo://app?vid=421b8527-ab9a-4d48-8e78-647564edc005"},"vehicle_type_id":"4","last_reported":1744830451,"current_range_meters":20400,"station_id":"ce4bh412rcd13ifvqdr0","pricing_plan_id":"cebpf4jnsgd1na2vs0mg"},{"bike_id":"61055992-8aae-4056-95ce-be123c383ecd","system_id":"levelo_inurba_marseille","lat":43.26561,"lon":5.39019,"is_reserved":false,"is_disabled":false,"rental_uris":{"android":"levelo://app?vid=61055992-8aae-4056-95ce-be123c383ecd","ios":"levelo://app?vid=61055992-8aae-4056-95ce-be123c383ecd"},"vehicle_type_id":"4","last_reported":1744830451,"current_range_meters":20800,"station_id":"ce4bhe12rcd13ifvqf30","pricing_plan_id":"cebpf4jnsgd1na2vs0mg"},{"bike_id":"529b17a4-17ae-4940-9fc0-e0cd974da406","system_id":"levelo_inurba_marseille","lat":43.2621,"lon":5.3743,"is_reserved":false,"is_disabled":false,"rental_uris":{"android":"levelo://app?vid=529b17a4-17ae-4940-9fc0-e0cd974da406","ios":"levelo://app?vid=529b17a4-17ae-4940-9fc0-e0cd974da406"},"vehicle_type_id":"4","last_reported":1744830451,"current_range_meters":20800,"station_id":"ce4bhgp2rcd13ifvqfc0","pricing_plan_id":"cebpf4jnsgd1na2vs0mg"},{"bike_id":"cacad557-44dd-45fd-bf40-ccf696351134","system_id":"levelo_inurba_marseille","lat":43.29293,"lon":5.38427,"is_reserved":false,"is_disabled":false,"rental_uris":{"android":"levelo://app?vid=cacad557-44dd-45fd-bf40-ccf696351134","ios":"levelo://app?vid=cacad557-44dd-45fd-bf40-ccf696351134"},"vehicle_type_id":"4","last_reported":1744830451,"current_range_meters":20800,"station_id":"ce4bh692rcd13ifvqea0","pricing_plan_id":"cebpf4jnsgd1na2vs0mg"},{"bike_id":"41fb0398-f2fe-4abb-ae37-a38f47615ea9","system_id":"levelo_inurba_marseille","lat":43.323516,"lon":5.367591,"is_reserved":false,"is_disabled":false,"rental_uris":{"android":"levelo://app?vid=41fb0398-f2fe-4abb-ae37-a38f47615ea9","ios":"levelo://app?vid=41fb0398-f2fe-4abb-ae37-a38f47615ea9"},"vehicle_type_id":"4","last_reported":1744830451,"current_range_meters":20800,"station_id":"ce4bhsh2rcd13ifvqi2g","pricing_plan_id":"cebpf4jnsgd1na2vs0mg"},{"bike_id":"04fb422e-0aec-4205-8e11-f392462c55c3","system_id":"levelo_inurba_marseille","lat":43.26804,"lon":5.40275,"is_reserved":false,"is_disabled":false,"rental_uris":{"android":"levelo://app?vid=04fb422e-0aec-4205-8e11-f392462c55c3","ios":"levelo://app?vid=04fb422e-0aec-4205-8e11-f392462c55c3"},"vehicle_type_id":"4","last_reported":1744830451,"current_range_meters":20800,"station_id":"ce501612rcd8frsf0b60","pricing_plan_id":"cebpf4jnsgd1na2vs0mg"},{"bike_id":"8fd2cdd0-07d7-4c01-add2-10309aca4136","system_id":"levelo_inurba_marseille","lat":43.267169,"lon":5.394645,"is_reserved":false,"is_disabled":true,"rental_uris":{"android":"levelo://app?vid=8fd2cdd0-07d7-4c01-add2-10309aca4136","ios":"levelo://app?vid=8fd2cdd0-07d7-4c01-add2-10309aca4136"},"vehicle_type_id":"4","last_reported":1744830451,"current_range_meters":20800,"station_id":"","pricing_plan_id":"cebpf4jnsgd1na2vs0mg"},{"bike_id":"4fde3710-8a47-481a-b7b8-b011705668f2","system_id":"levelo_inurba_marseille","lat":43.28672,"lon":5.37938,"is_reserved":false,"is_disabled":false,"rental_uris":{"android":"levelo://app?vid=4fde3710-8a47-481a-b7b8-b011705668f2","ios":"levelo://app?vid=4fde3710-8a47-481a-b7b8-b011705668f2"},"vehicle_type_id":"4","last_reported":1744830451,"current_range_meters":20800,"station_id":"","pricing_plan_id":"cebpf4jnsgd1na2vs0mg"},{"bike_id":"b50740c2-b098-4c59-95ad-4a56d81f2380","system_id":"levelo_inurba_marseille","lat":43.29801,"lon":5.38101,"is_reserved":false,"is_disabled":false,"rental_uris":{"android":"levelo://app?vid=b50740c2-b098-4c59-95ad-4a56d81f2380","ios":"levelo://app?vid=b50740c2-b098-4c59-95ad-4a56d81f2380"},"vehicle_type_id":"4","last_reported":1744830451,"current_range_meters":21600,"station_id":"ce4bgip2rcd13ifvqbb0","pricing_plan_id":"cebpf4jnsgd1na2vs0mg"},{"bike_id":"46f8084c-0310-4ee6-962b-e29fd7f802e8","system_id":"levelo_inurba_marseille","lat":43.287201,"lon":5.379374,"is_reserved":false,"is_disabled":false,"rental_uris":{"android":"levelo://app?vid=46f8084c-0310-4ee6-962b-e29fd7f802e8","ios":"levelo://app?vid=46f8084c-0310-4ee6-962b-e29fd7f802e8"},"vehicle_type_id":"4","last_reported":1744830451,"current_range_meters":21600,"station_id":"ce4bh9p2rcd13ifvqec0","pricing_plan_id":"cebpf4jnsgd1na2vs0mg"},{"bike_id":"8934c9ff-b955-4903-b5d2-c595dc711b7c","system_id":"levelo_inurba_marseille","lat":43.29569,"lon":5.39979,"is_reserved":false,"is_disabled":true,"rental_uris":{"android":"levelo://app?vid=8934c9ff-b955-4903-b5d2-c595dc711b7c","ios":"levelo://app?vid=8934c9ff-b955-4903-b5d2-c595dc711b7c"},"vehicle_type_id":"4","last_reported":1744830451,"current_range_meters":21600,"station_id":"ce4bh312rcd13ifvqdj0","pricing_plan_id":"cebpf4jnsgd1na2vs0mg"},{"bike_id":"935d17b3-9c9b-444a-9545-20f784e1180f","system_id":"levelo_inurba_marseille","lat":43.29954,"lon":5.38459,"is_reserved":false,"is_disabled":false,"rental_uris":{"android":"levelo://app?vid=935d17b3-9c9b-444a-9545-20f784e1180f","ios":"levelo://app?vid=935d17b3-9c9b-444a-9545-20f784e1180f"},"vehicle_type_id":"4","last_reported":1744830451,"current_range_meters":21600,"station_id":"ce4bgj92rcd13ifvqbd0","pricing_plan_id":"cebpf4jnsgd1na2vs0mg"},{"bike_id":"1c0c17d4-38c5-4a1c-8a19-a752fa5d90ed","system_id":"levelo_inurba_marseille","lat":43.2319,"lon":5.40007,"is_reserved":false,"is_disabled":false,"rental_uris":{"android":"levelo://app?vid=1c0c17d4-38c5-4a1c-8a19-a752fa5d90ed","ios":"levelo://app?vid=1c0c17d4-38c5-4a1c-8a19-a752fa5d90ed"},"vehicle_type_id":"4","last_reported":1744830451,"current_range_meters":21600,"station_id":"ce4bhn12rcd13ifvqgqg","pricing_plan_id":"cebpf4jnsgd1na2vs0mg"},{"bike_id":"658db99b-6812-40dc-8f61-f636428cb26e","system_id":"levelo_inurba_marseille","lat":43.29418,"lon":5.38629,"is_reserved":false,"is_disabled":false,"rental_uris":{"android":"levelo://app?vid=658db99b-6812-40dc-8f61-f636428cb26e","ios":"levelo://app?vid=658db99b-6812-40dc-8f61-f636428cb26e"},"vehicle_type_id":"4","last_reported":1744830451,"current_range_meters":21600,"station_id":"ce4bh2h2rcd13ifvqdh0","pricing_plan_id":"cebpf4jnsgd1na2vs0mg"},{"bike_id":"2e47be96-a7b1-4cf4-923a-c7711800fdaa","system_id":"levelo_inurba_marseille","lat":43.29284,"lon":5.36832,"is_reserved":false,"is_disabled":false,"rental_uris":{"android":"levelo://app?vid=2e47be96-a7b1-4cf4-923a-c7711800fdaa","ios":"levelo://app?vid=2e47be96-a7b1-4cf4-923a-c7711800fdaa"},"vehicle_type_id":"4","last_reported":1744830451,"current_range_meters":22000,"station_id":"ce4bhbp2rcd13ifvqesg","pricing_plan_id":"cebpf4jnsgd1na2vs0mg"},{"bike_id":"6f01ff41-1979-4c6f-976e-5a3c781e2235","system_id":"levelo_inurba_marseille","lat":43.29597,"lon":5.38095,"is_reserved":false,"is_disabled":false,"rental_uris":{"android":"levelo://app?vid=6f01ff41-1979-4c6f-976e-5a3c781e2235","ios":"levelo://app?vid=6f01ff41-1979-4c6f-976e-5a3c781e2235"},"vehicle_type_id":"4","last_reported":1744830451,"current_range_meters":22000,"station_id":"ce4bgl12rcd13ifvqbo0","pricing_plan_id":"cebpf4jnsgd1na2vs0mg"},{"bike_id":"42961967-5f19-4fba-ac37-f1afdc71df4d","system_id":"levelo_inurba_marseille","lat":43.29308,"lon":5.37179,"is_reserved":false,"is_disabled":false,"rental_uris":{"android":"levelo://app?vid=42961967-5f19-4fba-ac37-f1afdc71df4d","ios":"levelo://app?vid=42961967-5f19-4fba-ac37-f1afdc71df4d"},"vehicle_type_id":"4","last_reported":1744830451,"current_range_meters":22000,"station_id":"ce4bgh92rcd13ifvqb40","pricing_plan_id":"cebpf4jnsgd1na2vs0mg"},{"bike_id":"1e2d0a65-78d5-4d68-ad9b-7be472c54628","system_id":"levelo_inurba_marseille","lat":43.281245,"lon":5.378226,"is_reserved":false,"is_disabled":false,"rental_uris":{"android":"levelo://app?vid=1e2d0a65-78d5-4d68-ad9b-7be472c54628","ios":"levelo://app?vid=1e2d0a65-78d5-4d68-ad9b-7be472c54628"},"vehicle_type_id":"4","last_reported":1744830451,"current_range_meters":22000,"station_id":"ce4bha12rcd13ifvqee0","pricing_plan_id":"cebpf4jnsgd1na2vs0mg"},{"bike_id":"6f17e936-7257-40e5-9096-1f1f192ee3d9","system_id":"levelo_inurba_marseille","lat":43.28576,"lon":5.39498,"is_reserved":false,"is_disabled":false,"rental_uris":{"android":"levelo://app?vid=6f17e936-7257-40e5-9096-1f1f192ee3d9","ios":"levelo://app?vid=6f17e936-7257-40e5-9096-1f1f192ee3d9"},"vehicle_type_id":"4","last_reported":1744830451,"current_range_meters":22000,"station_id":"ce4bh292rcd13ifvqdg0","pricing_plan_id":"cebpf4jnsgd1na2vs0mg"},{"bike_id":"2d15f1d0-4139-467f-bc26-81b3b2164204","system_id":"levelo_inurba_marseille","lat":43.29919,"lon":5.37474,"is_reserved":false,"is_disabled":false,"rental_uris":{"android":"levelo://app?vid=2d15f1d0-4139-467f-bc26-81b3b2164204","ios":"levelo://app?vid=2d15f1d0-4139-467f-bc26-81b3b2164204"},"vehicle_type_id":"4","last_reported":1744830451,"current_range_meters":22800,"station_id":"ce4bgjh2rcd13ifvqbg0","pricing_plan_id":"cebpf4jnsgd1na2vs0mg"},{"bike_id":"9b32d9b0-b425-4d34-812f-0c610ee31565","system_id":"levelo_inurba_marseille","lat":43.30205,"lon":5.39465,"is_reserved":false,"is_disabled":true,"rental_uris":{"android":"levelo://app?vid=9b32d9b0-b425-4d34-812f-0c610ee31565","ios":"levelo://app?vid=9b32d9b0-b425-4d34-812f-0c610ee31565"},"vehicle_type_id":"4","last_reported":1744830451,"current_range_meters":22400,"station_id":"ce4bh0p2rcd13ifvqd70","pricing_plan_id":"cebpf4jnsgd1na2vs0mg"},{"bike_id":"4a5a54e6-a114-4dd0-a638-4c5add72693b","system_id":"levelo_inurba_marseille","lat":43.26196,"lon":5.37934,"is_reserved":false,"is_disabled":false,"rental_uris":{"android":"levelo://app?vid=4a5a54e6-a114-4dd0-a638-4c5add72693b","ios":"levelo://app?vid=4a5a54e6-a114-4dd0-a638-4c5add72693b"},"vehicle_type_id":"4","last_reported":1744830451,"current_range_meters":22400,"station_id":"ce4bhjp2rcd13ifvqg90","pricing_plan_id":"cebpf4jnsgd1na2vs0mg"},{"bike_id":"8a7fa300-7e53-465e-bfb1-ca0489984acb","system_id":"levelo_inurba_marseille","lat":43.26691,"lon":5.38242,"is_reserved":false,"is_disabled":false,"rental_uris":{"android":"levelo://app?vid=8a7fa300-7e53-465e-bfb1-ca0489984acb","ios":"levelo://app?vid=8a7fa300-7e53-465e-bfb1-ca0489984acb"},"vehicle_type_id":"4","last_reported":1744830451,"current_range_meters":22400,"station_id":"ce4bhg92rcd13ifvqf90","pricing_plan_id":"cebpf4jnsgd1na2vs0mg"},{"bike_id":"17db26ae-9076-4f2f-be62-f90e30e76700","system_id":"levelo_inurba_marseille","lat":43.296328,"lon":5.377116,"is_reserved":false,"is_disabled":false,"rental_uris":{"android":"levelo://app?vid=17db26ae-9076-4f2f-be62-f90e30e76700","ios":"levelo://app?vid=17db26ae-9076-4f2f-be62-f90e30e76700"},"vehicle_type_id":"4","last_reported":1744830451,"current_range_meters":22000,"station_id":"ce4bgi92rcd13ifvqb90","pricing_plan_id":"cebpf4jnsgd1na2vs0mg"},{"bike_id":"e25d54ea-54a3-4a0b-80c6-c419f32ceb04","system_id":"levelo_inurba_marseille","lat":43.30792,"lon":5.38161,"is_reserved":false,"is_disabled":false,"rental_uris":{"android":"levelo://app?vid=e25d54ea-54a3-4a0b-80c6-c419f32ceb04","ios":"levelo://app?vid=e25d54ea-54a3-4a0b-80c6-c419f32ceb04"},"vehicle_type_id":"4","last_reported":1744830451,"current_range_meters":22400,"station_id":"ce4bgt12rcd13ifvqce0","pricing_plan_id":"cebpf4jnsgd1na2vs0mg"},{"bike_id":"b0b21eda-28c9-44b9-9cd1-635197a25de4","system_id":"levelo_inurba_marseille","lat":43.28854,"lon":5.358495,"is_reserved":false,"is_disabled":false,"rental_uris":{"android":"levelo://app?vid=b0b21eda-28c9-44b9-9cd1-635197a25de4","ios":"levelo://app?vid=b0b21eda-28c9-44b9-9cd1-635197a25de4"},"vehicle_type_id":"4","last_reported":1744830451,"current_range_meters":22400,"station_id":"ce4bhb12rcd13ifvqem0","pricing_plan_id":"cebpf4jnsgd1na2vs0mg"},{"bike_id":"7eb8853e-3665-40f5-8308-1299f0674652","system_id":"levelo_inurba_marseille","lat":43.30377,"lon":5.42482,"is_reserved":false,"is_disabled":false,"rental_uris":{"android":"levelo://app?vid=7eb8853e-3665-40f5-8308-1299f0674652","ios":"levelo://app?vid=7eb8853e-3665-40f5-8308-1299f0674652"},"vehicle_type_id":"4","last_reported":1744830451,"current_range_meters":22400,"station_id":"ce4bhoh2rcd13ifvqh6g","pricing_plan_id":"cebpf4jnsgd1na2vs0mg"},{"bike_id":"f666d0ab-23d1-4a22-8af2-3e01078165a1","system_id":"levelo_inurba_marseille","lat":43.2927,"lon":5.38421,"is_reserved":false,"is_disabled":false,"rental_uris":{"android":"levelo://app?vid=f666d0ab-23d1-4a22-8af2-3e01078165a1","ios":"levelo://app?vid=f666d0ab-23d1-4a22-8af2-3e01078165a1"},"vehicle_type_id":"4","last_reported":1744830451,"current_range_meters":22400,"station_id":"ce4bh692rcd13ifvqea0","pricing_plan_id":"cebpf4jnsgd1na2vs0mg"},{"bike_id":"a3ac412f-4770-49a4-9aee-c810c02826e3","system_id":"levelo_inurba_marseille","lat":43.31273,"lon":5.40164,"is_reserved":false,"is_disabled":false,"rental_uris":{"android":"levelo://app?vid=a3ac412f-4770-49a4-9aee-c810c02826e3","ios":"levelo://app?vid=a3ac412f-4770-49a4-9aee-c810c02826e3"},"vehicle_type_id":"4","last_reported":1744830451,"current_range_meters":22400,"station_id":"ce4bh092rcd13ifvqd30","pricing_plan_id":"cebpf4jnsgd1na2vs0mg"},{"bike_id":"97f586be-7a14-43f2-bf27-6ad9555f765e","system_id":"levelo_inurba_marseille","lat":43.29047,"lon":5.35916,"is_reserved":false,"is_disabled":false,"rental_uris":{"android":"levelo://app?vid=97f586be-7a14-43f2-bf27-6ad9555f765e","ios":"levelo://app?vid=97f586be-7a14-43f2-bf27-6ad9555f765e"},"vehicle_type_id":"4","last_reported":1744830451,"current_range_meters":22800,"station_id":"ce4bha92rcd13ifvqeg0","pricing_plan_id":"cebpf4jnsgd1na2vs0mg"},{"bike_id":"dc496884-fdf8-4e26-bc98-b1e6a1a77e33","system_id":"levelo_inurba_marseille","lat":43.29541,"lon":5.375,"is_reserved":false,"is_disabled":false,"rental_uris":{"android":"levelo://app?vid=dc496884-fdf8-4e26-bc98-b1e6a1a77e33","ios":"levelo://app?vid=dc496884-fdf8-4e26-bc98-b1e6a1a77e33"},"vehicle_type_id":"4","last_reported":1744830451,"current_range_meters":22800,"station_id":"ce4bgkp2rcd13ifvqbmg","pricing_plan_id":"cebpf4jnsgd1na2vs0mg"},{"bike_id":"c37f1da3-f9ff-46fb-9a7b-93f212ae07de","system_id":"levelo_inurba_marseille","lat":43.3266,"lon":5.40991,"is_reserved":false,"is_disabled":false,"rental_uris":{"android":"levelo://app?vid=c37f1da3-f9ff-46fb-9a7b-93f212ae07de","ios":"levelo://app?vid=c37f1da3-f9ff-46fb-9a7b-93f212ae07de"},"vehicle_type_id":"4","last_reported":1744830451,"current_range_meters":22800,"station_id":"ce4bhpp2rcd13ifvqhgg","pricing_plan_id":"cebpf4jnsgd1na2vs0mg"},{"bike_id":"cc3f3f66-6b8d-4f9f-a735-bb0a53b5a2f5","system_id":"levelo_inurba_marseille","lat":43.29806,"lon":5.39355,"is_reserved":false,"is_disabled":false,"rental_uris":{"android":"levelo://app?vid=cc3f3f66-6b8d-4f9f-a735-bb0a53b5a2f5","ios":"levelo://app?vid=cc3f3f66-6b8d-4f9f-a735-bb0a53b5a2f5"},"vehicle_type_id":"4","last_reported":1744830451,"current_range_meters":22800,"station_id":"chh1huq6cuj3fo74tm60","pricing_plan_id":"cebpf4jnsgd1na2vs0mg"},{"bike_id":"345f3b88-e34e-4d48-9f0c-6592661ae354","system_id":"levelo_inurba_marseille","lat":43.27953,"lon":5.41037,"is_reserved":false,"is_disabled":false,"rental_uris":{"android":"levelo://app?vid=345f3b88-e34e-4d48-9f0c-6592661ae354","ios":"levelo://app?vid=345f3b88-e34e-4d48-9f0c-6592661ae354"},"vehicle_type_id":"4","last_reported":1744830451,"current_range_meters":22800,"station_id":"ce4bhnp2rcd13ifvqh0g","pricing_plan_id":"cebpf4jnsgd1na2vs0mg"},{"bike_id":"789c3822-56ca-4769-bcd4-8845bdea2fda","system_id":"levelo_inurba_marseille","lat":43.24159,"lon":5.36396,"is_reserved":false,"is_disabled":false,"rental_uris":{"android":"levelo://app?vid=789c3822-56ca-4769-bcd4-8845bdea2fda","ios":"levelo://app?vid=789c3822-56ca-4769-bcd4-8845bdea2fda"},"vehicle_type_id":"4","last_reported":1744830451,"current_range_meters":22800,"station_id":"cpo36qri1sfpv3e86is0","pricing_plan_id":"cebpf4jnsgd1na2vs0mg"},{"bike_id":"7ed91d22-3d5b-4254-83bf-64eb2a7d5481","system_id":"levelo_inurba_marseille","lat":43.22501,"lon":5.34777,"is_reserved":false,"is_disabled":false,"rental_uris":{"android":"levelo://app?vid=7ed91d22-3d5b-4254-83bf-64eb2a7d5481","ios":"levelo://app?vid=7ed91d22-3d5b-4254-83bf-64eb2a7d5481"},"vehicle_type_id":"4","last_reported":1744830451,"current_range_meters":22800,"station_id":"","pricing_plan_id":"cebpf4jnsgd1na2vs0mg"},{"bike_id":"ad15f00b-a807-4908-ac98-bb90e71268db","system_id":"levelo_inurba_marseille","lat":43.292615,"lon":5.384475,"is_reserved":false,"is_disabled":false,"rental_uris":{"android":"levelo://app?vid=ad15f00b-a807-4908-ac98-bb90e71268db","ios":"levelo://app?vid=ad15f00b-a807-4908-ac98-bb90e71268db"},"vehicle_type_id":"4","last_reported":1744830451,"current_range_meters":22800,"station_id":"ce4bh692rcd13ifvqea0","pricing_plan_id":"cebpf4jnsgd1na2vs0mg"},{"bike_id":"37b2e193-bf08-4185-8ef5-83f38c17c0aa","system_id":"levelo_inurba_marseille","lat":43.30133,"lon":5.38786,"is_reserved":false,"is_disabled":false,"rental_uris":{"android":"levelo://app?vid=37b2e193-bf08-4185-8ef5-83f38c17c0aa","ios":"levelo://app?vid=37b2e193-bf08-4185-8ef5-83f38c17c0aa"},"vehicle_type_id":"4","last_reported":1744830451,"current_range_meters":22800,"station_id":"ce4bghh2rcd13ifvqb60","pricing_plan_id":"cebpf4jnsgd1na2vs0mg"},{"bike_id":"bf719354-3a0f-4a08-a3dc-ea01891f96a8","system_id":"levelo_inurba_marseille","lat":43.29263,"lon":5.38421,"is_reserved":false,"is_disabled":true,"rental_uris":{"android":"levelo://app?vid=bf719354-3a0f-4a08-a3dc-ea01891f96a8","ios":"levelo://app?vid=bf719354-3a0f-4a08-a3dc-ea01891f96a8"},"vehicle_type_id":"4","last_reported":1744830451,"current_range_meters":22800,"station_id":"ce4bh692rcd13ifvqea0","pricing_plan_id":"cebpf4jnsgd1na2vs0mg"},{"bike_id":"5e6be620-a3d0-49c3-9ff0-b85332cde817","system_id":"levelo_inurba_marseille","lat":43.23195,"lon":5.35561,"is_reserved":false,"is_disabled":false,"rental_uris":{"android":"levelo://app?vid=5e6be620-a3d0-49c3-9ff0-b85332cde817","ios":"levelo://app?vid=5e6be620-a3d0-49c3-9ff0-b85332cde817"},"vehicle_type_id":"4","last_reported":1744830451,"current_range_meters":22800,"station_id":"ce4bhu92rcd13ifvqi70","pricing_plan_id":"cebpf4jnsgd1na2vs0mg"},{"bike_id":"fd6bc4e8-b29f-42f3-91cd-67a1d91128b7","system_id":"levelo_inurba_marseille","lat":43.29315,"lon":5.38459,"is_reserved":false,"is_disabled":false,"rental_uris":{"android":"levelo://app?vid=fd6bc4e8-b29f-42f3-91cd-67a1d91128b7","ios":"levelo://app?vid=fd6bc4e8-b29f-42f3-91cd-67a1d91128b7"},"vehicle_type_id":"4","last_reported":1744830451,"current_range_meters":22800,"station_id":"","pricing_plan_id":"cebpf4jnsgd1na2vs0mg"},{"bike_id":"21f826db-5070-49f5-892f-84f485b6e13f","system_id":"levelo_inurba_marseille","lat":43.30599,"lon":5.39367,"is_reserved":false,"is_disabled":false,"rental_uris":{"android":"levelo://app?vid=21f826db-5070-49f5-892f-84f485b6e13f","ios":"levelo://app?vid=21f826db-5070-49f5-892f-84f485b6e13f"},"vehicle_type_id":"4","last_reported":1744830451,"current_range_meters":22800,"station_id":"ce4bh0p2rcd13ifvqd80","pricing_plan_id":"cebpf4jnsgd1na2vs0mg"},{"bike_id":"cc250298-de78-48ca-910c-a354646c94bb","system_id":"levelo_inurba_marseille","lat":43.31989,"lon":5.3816,"is_reserved":false,"is_disabled":false,"rental_uris":{"android":"levelo://app?vid=cc250298-de78-48ca-910c-a354646c94bb","ios":"levelo://app?vid=cc250298-de78-48ca-910c-a354646c94bb"},"vehicle_type_id":"4","last_reported":1744830451,"current_range_meters":22800,"station_id":"ce4bhr12rcd13ifvqhpg","pricing_plan_id":"cebpf4jnsgd1na2vs0mg"},{"bike_id":"2a3df68e-728a-4b9c-bbc2-4259a4448e26","system_id":"levelo_inurba_marseille","lat":43.27988,"lon":5.40011,"is_reserved":false,"is_disabled":false,"rental_uris":{"android":"levelo://app?vid=2a3df68e-728a-4b9c-bbc2-4259a4448e26","ios":"levelo://app?vid=2a3df68e-728a-4b9c-bbc2-4259a4448e26"},"vehicle_type_id":"4","last_reported":1744830451,"current_range_meters":23200,"station_id":"ce4bho92rcd13ifvqh4g","pricing_plan_id":"cebpf4jnsgd1na2vs0mg"},{"bike_id":"5c50ae30-5f77-4243-86fb-00e2d7606f9b","system_id":"levelo_inurba_marseille","lat":43.29779,"lon":5.38113,"is_reserved":false,"is_disabled":false,"rental_uris":{"android":"levelo://app?vid=5c50ae30-5f77-4243-86fb-00e2d7606f9b","ios":"levelo://app?vid=5c50ae30-5f77-4243-86fb-00e2d7606f9b"},"vehicle_type_id":"4","last_reported":1744830451,"current_range_meters":23200,"station_id":"ce4bgip2rcd13ifvqbb0","pricing_plan_id":"cebpf4jnsgd1na2vs0mg"},{"bike_id":"e87bddf1-d196-4a84-89fa-da3897b97027","system_id":"levelo_inurba_marseille","lat":43.29274,"lon":5.38435,"is_reserved":false,"is_disabled":false,"rental_uris":{"android":"levelo://app?vid=e87bddf1-d196-4a84-89fa-da3897b97027","ios":"levelo://app?vid=e87bddf1-d196-4a84-89fa-da3897b97027"},"vehicle_type_id":"4","last_reported":1744830451,"current_range_meters":23200,"station_id":"ce4bh692rcd13ifvqea0","pricing_plan_id":"cebpf4jnsgd1na2vs0mg"},{"bike_id":"c9288a2f-8f21-4bc2-a4ca-a43481e439bc","system_id":"levelo_inurba_marseille","lat":43.286242,"lon":5.351024,"is_reserved":false,"is_disabled":false,"rental_uris":{"android":"levelo://app?vid=c9288a2f-8f21-4bc2-a4ca-a43481e439bc","ios":"levelo://app?vid=c9288a2f-8f21-4bc2-a4ca-a43481e439bc"},"vehicle_type_id":"4","last_reported":1744830451,"current_range_meters":23200,"station_id":"ce4bhch2rcd13ifvqeug","pricing_plan_id":"cebpf4jnsgd1na2vs0mg"},{"bike_id":"7bce0807-93f9-4e13-8b17-c78186d378c3","system_id":"levelo_inurba_marseille","lat":43.26228,"lon":5.40449,"is_reserved":false,"is_disabled":false,"rental_uris":{"android":"levelo://app?vid=7bce0807-93f9-4e13-8b17-c78186d378c3","ios":"levelo://app?vid=7bce0807-93f9-4e13-8b17-c78186d378c3"},"vehicle_type_id":"4","last_reported":1744830451,"current_range_meters":23200,"station_id":"ce4bhmh2rcd13ifvqgmg","pricing_plan_id":"cebpf4jnsgd1na2vs0mg"},{"bike_id":"33efbe4e-e642-4271-be29-4926b421ca5b","system_id":"levelo_inurba_marseille","lat":43.24171,"lon":5.36399,"is_reserved":false,"is_disabled":false,"rental_uris":{"android":"levelo://app?vid=33efbe4e-e642-4271-be29-4926b421ca5b","ios":"levelo://app?vid=33efbe4e-e642-4271-be29-4926b421ca5b"},"vehicle_type_id":"4","last_reported":1744830451,"current_range_meters":23200,"station_id":"cpo36qri1sfpv3e86is0","pricing_plan_id":"cebpf4jnsgd1na2vs0mg"},{"bike_id":"fcfd2dd5-2dfa-4678-ad0b-8dc6307601c9","system_id":"levelo_inurba_marseille","lat":43.2937,"lon":5.37849,"is_reserved":false,"is_disabled":true,"rental_uris":{"android":"levelo://app?vid=fcfd2dd5-2dfa-4678-ad0b-8dc6307601c9","ios":"levelo://app?vid=fcfd2dd5-2dfa-4678-ad0b-8dc6307601c9"},"vehicle_type_id":"4","last_reported":1744830451,"current_range_meters":23200,"station_id":"ce4bgjh2rcd13ifvqbf0","pricing_plan_id":"cebpf4jnsgd1na2vs0mg"},{"bike_id":"68342d9f-f0b6-47e7-b690-b27078e67a77","system_id":"levelo_inurba_marseille","lat":43.24164,"lon":5.36415,"is_reserved":false,"is_disabled":false,"rental_uris":{"android":"levelo://app?vid=68342d9f-f0b6-47e7-b690-b27078e67a77","ios":"levelo://app?vid=68342d9f-f0b6-47e7-b690-b27078e67a77"},"vehicle_type_id":"4","last_reported":1744830451,"current_range_meters":24000,"station_id":"cpo36qri1sfpv3e86is0","pricing_plan_id":"cebpf4jnsgd1na2vs0mg"},{"bike_id":"ec5c28e1-de55-4508-b9d5-2107688d9327","system_id":"levelo_inurba_marseille","lat":43.306,"lon":5.39343,"is_reserved":false,"is_disabled":false,"rental_uris":{"android":"levelo://app?vid=ec5c28e1-de55-4508-b9d5-2107688d9327","ios":"levelo://app?vid=ec5c28e1-de55-4508-b9d5-2107688d9327"},"vehicle_type_id":"4","last_reported":1744830451,"current_range_meters":24000,"station_id":"ce4bh0p2rcd13ifvqd80","pricing_plan_id":"cebpf4jnsgd1na2vs0mg"},