{"last_updated":1701360582,"ttl":30,"version":"2.2","data":{"bikes":[{"bike_id":"7c052d57-e5ae-4cd3-a31f-2f400eadca73","system_id":"levelo_inurba_marseille","lat":43.313391,"lon":5.36706,"is_reserved":false,"is_disabled":false,"rental_uris":{"android":"levelo://app?vid=7c052d57-e5ae-4cd3-a31f-2f400eadca73","ios":"levelo://app?vid=7c052d57-e5ae-4cd3-a31f-2f400eadca73"},"vehicle_type_id":"4","last_reported":1701360582,"current_range_meters":17600,"station_id":"ce4bgr92rcd13ifvqc6g","pricing_plan_id":"free"},{"bike_id":"0055f381-ded2-41e9-ac82-3ec7e7fbc60c","system_id":"levelo_inurba_marseille","lat":43.30906,"lon":5.36859,"is_reserved":false,"is_disabled":false,"rental_uris":{"android":"levelo://app?vid=0055f381-ded2-41e9-ac82-3ec7e7fbc60c","ios":"levelo://app?vid=0055f381-ded2-41e9-ac82-3ec7e7fbc60c"},"vehicle_type_id":"4","last_reported":1701360582,"current_range_meters":0,"station_id":"ce4bgn92rcd13ifvqbvg","pricing_plan_id":"free"},{"bike_id":"85ebfaaa-3017-45f3-906e-a6c2319c069c","system_id":"levelo_inurba_marseille","lat":43.30845,"lon":5.36884,"is_reserved":false,"is_disabled":false,"rental_uris":{"android":"levelo://app?vid=85ebfaaa-3017-45f3-906e-a6c2319c069c","ios":"levelo://app?vid=85ebfaaa-3017-45f3-906e-a6c2319c069c"},"vehicle_type_id":"4","last_reported":1701360582,"current_range_meters":14400,"station_id":"","pricing_plan_id":"free"},{"bike_id":"25d968be-fa15-431c-ab29-f0d46ec331fb","system_id":"levelo_inurba_marseille","lat":43.309039,"lon":5.371797,"is_reserved":false,"is_disabled":false,"rental_uris":{"android":"levelo://app?vid=25d968be-fa15-431c-ab29-f0d46ec331fb","ios":"levelo://app?vid=25d968be-fa15-431c-ab29-f0d46ec331fb"},"vehicle_type_id":"4","last_reported":1701360582,"current_range_meters":19200,"station_id":"ce4bguh2rcd13ifvqckg","pricing_plan_id":"free"},{"bike_id":"727d231a-d425-4d8f-ad3f-99b5a47572e8","system_id":"levelo_inurba_marseille","lat":43.30439,"lon":5.36753,"is_reserved":false,"is_disabled":false,"rental_uris":{"android":"levelo://app?vid=727d231a-d425-4d8f-ad3f-99b5a47572e8","ios":"levelo://app?vid=727d231a-d425-4d8f-ad3f-99b5a47572e8"},"vehicle_type_id":"4","last_reported":1701360582,"current_range_meters":30400,"station_id":"","pricing_plan_id":"free"},{"bike_id":"f427a2c3-6e4a-446b-ae2f-9be8aa7f4122","system_id":"levelo_inurba_marseille","lat":43.31719,"lon":5.376813,"is_reserved":false,"is_disabled":false,"rental_uris":{"android":"levelo://app?vid=f427a2c3-6e4a-446b-ae2f-9be8aa7f4122","ios":"levelo://app?vid=f427a2c3-6e4a-446b-ae2f-9be8aa7f4122"},"vehicle_type_id":"4","last_reported":1701360582,"current_range_meters":5200,"station_id":"ce4bgth2rcd13ifvqch0","pricing_plan_id":"free"},{"bike_id":"e913f328-1e31-4c22-bd87-f809ea246de4","system_id":"levelo_inurba_marseille","lat":43.317168,"lon":5.376883,"is_reserved":false,"is_disabled":false,"rental_uris":{"android":"levelo://app?vid=e913f328-1e31-4c22-bd87-f809ea246de4","ios":"levelo://app?vid=e913f328-1e31-4c22-bd87-f809ea246de4"},"vehicle_type_id":"4","last_reported":1701360582,"current_range_meters":7600,"station_id":"ce4bgth2rcd13ifvqch0","pricing_plan_id":"free"},{"bike_id":"7b15a4d5-d634-43c2-ae1e-13e41fbc272b","system_id":"levelo_inurba_marseille","lat":43.317075,"lon":5.377367,"is_reserved":false,"is_disabled":false,"rental_uris":{"android":"levelo://app?vid=7b15a4d5-d634-43c2-ae1e-13e41fbc272b","ios":"levelo://app?vid=7b15a4d5-d634-43c2-ae1e-13e41fbc272b"},"vehicle_type_id":"4","last_reported":1701360582,"current_range_meters":15200,"station_id":"ce4bgth2rcd13ifvqch0","pricing_plan_id":"free"},{"bike_id":"93bd3404-f6c2-4355-a154-f7b6ed3729bc","system_id":"levelo_inurba_marseille","lat":43.30848,"lon":5.377547,"is_reserved":false,"is_disabled":false,"rental_uris":{"android":"levelo://app?vid=93bd3404-f6c2-4355-a154-f7b6ed3729bc","ios":"levelo://app?vid=93bd3404-f6c2-4355-a154-f7b6ed3729bc"},"vehicle_type_id":"4","last_reported":1701360582,"current_range_meters":26000,"station_id":"","pricing_plan_id":"free"},{"bike_id":"bef3c888-e26e-4daf-a279-528d05d9f20b","system_id":"levelo_inurba_marseille","lat":43.30143,"lon":5.37413,"is_reserved":false,"is_disabled":false,"rental_uris":{"android":"levelo://app?vid=bef3c888-e26e-4daf-a279-528d05d9f20b","ios":"levelo://app?vid=bef3c888-e26e-4daf-a279-528d05d9f20b"},"vehicle_type_id":"4","last_reported":1701360582,"current_range_meters":21600,"station_id":"ce4bgs92rcd13ifvqcc0","pricing_plan_id":"free"},{"bike_id":"6bdfae70-acb0-4040-a39c-79441c8699d7","system_id":"levelo_inurba_marseille","lat":43.301939,"lon":5.366286,"is_reserved":false,"is_disabled":false,"rental_uris":{"android":"levelo://app?vid=6bdfae70-acb0-4040-a39c-79441c8699d7","ios":"levelo://app?vid=6bdfae70-acb0-4040-a39c-79441c8699d7"},"vehicle_type_id":"4","last_reported":1701360582,"current_range_meters":2400,"station_id":"ce4bgrh2rcd13ifvqc8g","pricing_plan_id":"free"},{"bike_id":"f46bd4b0-5558-4180-bceb-72fc2d2a1a94","system_id":"levelo_inurba_marseille","lat":43.3046,"lon":5.37907,"is_reserved":false,"is_disabled":false,"rental_uris":{"android":"levelo://app?vid=f46bd4b0-5558-4180-bceb-72fc2d2a1a94","ios":"levelo://app?vid=f46bd4b0-5558-4180-bceb-72fc2d2a1a94"},"vehicle_type_id":"4","last_reported":1701360582,"current_range_meters":0,"station_id":"ce4bgup2rcd13ifvqcn0","pricing_plan_id":"free"},{"bike_id":"7337ff9e-2e2f-4ef8-a985-8767d7daa112","system_id":"levelo_inurba_marseille","lat":43.324775,"lon":5.36566,"is_reserved":false,"is_disabled":false,"rental_uris":{"android":"levelo://app?vid=7337ff9e-2e2f-4ef8-a985-8767d7daa112","ios":"levelo://app?vid=7337ff9e-2e2f-4ef8-a985-8767d7daa112"},"vehicle_type_id":"4","last_reported":1701360582,"current_range_meters":13600,"station_id":"ce4bhs12rcd13ifvqhvg","pricing_plan_id":"free"},{"bike_id":"6104e35a-8f8e-4236-b5bf-c165d44f9cf9","system_id":"levelo_inurba_marseille","lat":43.324771,"lon":5.36557,"is_reserved":false,"is_disabled":false,"rental_uris":{"android":"levelo://app?vid=6104e35a-8f8e-4236-b5bf-c165d44f9cf9","ios":"levelo://app?vid=6104e35a-8f8e-4236-b5bf-c165d44f9cf9"},"vehicle_type_id":"4","last_reported":1701360582,"current_range_meters":12800,"station_id":"ce4bhs12rcd13ifvqhvg","pricing_plan_id":"free"},{"bike_id":"5ad8ed99-df90-4117-9294-4d3cf2f65837","system_id":"levelo_inurba_marseille","lat":43.301429,"lon":5.37413,"is_reserved":false,"is_disabled":false,"rental_uris":{"android":"levelo://app?vid=5ad8ed99-df90-4117-9294-4d3cf2f65837","ios":"levelo://app?vid=5ad8ed99-df90-4117-9294-4d3cf2f65837"},"vehicle_type_id":"4","last_reported":1701360582,"current_range_meters":21600,"station_id":"ce4bgs92rcd13ifvqcc0","pricing_plan_id":"free"},{"bike_id":"e9980625-d869-44a3-ab8f-10ac9241d786","system_id":"levelo_inurba_marseille","lat":43.30187,"lon":5.37604,"is_reserved":false,"is_disabled":false,"rental_uris":{"android":"levelo://app?vid=e9980625-d869-44a3-ab8f-10ac9241d786","ios":"levelo://app?vid=e9980625-d869-44a3-ab8f-10ac9241d786"},"vehicle_type_id":"4","last_reported":1701360582,"current_range_meters":11200,"station_id":"","pricing_plan_id":"free"},{"bike_id":"2275aca5-3158-4c2c-8022-ca5d2714bc86","system_id":"levelo_inurba_marseille","lat":43.319997,"lon":5.381594,"is_reserved":false,"is_disabled":false,"rental_uris":{"android":"levelo://app?vid=2275aca5-3158-4c2c-8022-ca5d2714bc86","ios":"levelo://app?vid=2275aca5-3158-4c2c-8022-ca5d2714bc86"},"vehicle_type_id":"4","last_reported":1701360582,"current_range_meters":22400,"station_id":"ce4bhr12rcd13ifvqhpg","pricing_plan_id":"free"},{"bike_id":"9a8c326a-2956-42d0-9bce-9c1da7b272ea","system_id":"levelo_inurba_marseille","lat":43.31993,"lon":5.38173,"is_reserved":false,"is_disabled":false,"rental_uris":{"android":"levelo://app?vid=9a8c326a-2956-42d0-9bce-9c1da7b272ea","ios":"levelo://app?vid=9a8c326a-2956-42d0-9bce-9c1da7b272ea"},"vehicle_type_id":"4","last_reported":1701360582,"current_range_meters":22800,"station_id":"ce4bhr12rcd13ifvqhpg","pricing_plan_id":"free"},{"bike_id":"77add247-2c44-4dfa-b2be-1701bbb332c5","system_id":"levelo_inurba_marseille","lat":43.313571,"lon":5.384829,"is_reserved":false,"is_disabled":false,"rental_uris":{"android":"levelo://app?vid=77add247-2c44-4dfa-b2be-1701bbb332c5","ios":"levelo://app?vid=77add247-2c44-4dfa-b2be-1701bbb332c5"},"vehicle_type_id":"4","last_reported":1701360582,"current_range_meters":28400,"station_id":"ce4bgt92rcd13ifvqcf0","pricing_plan_id":"free"},{"bike_id":"08c81319-a58d-4690-be8d-97151d3a81b9","system_id":"levelo_inurba_marseille","lat":43.311722,"lon":5.387247,"is_reserved":false,"is_disabled":false,"rental_uris":{"android":"levelo://app?vid=08c81319-a58d-4690-be8d-97151d3a81b9","ios":"levelo://app?vid=08c81319-a58d-4690-be8d-97151d3a81b9"},"vehicle_type_id":"4","last_reported":1701360582,"current_range_meters":11200,"station_id":"ce4bgv12rcd13ifvqcp0","pricing_plan_id":"free"},{"bike_id":"da2569bf-71fe-4080-a8dc-0934cf334ad7","system_id":"levelo_inurba_marseille","lat":43.311722,"lon":5.387247,"is_reserved":false,"is_disabled":false,"rental_uris":{"android":"levelo://app?vid=da2569bf-71fe-4080-a8dc-0934cf334ad7","ios":"levelo://app?vid=da2569bf-71fe-4080-a8dc-0934cf334ad7"},"vehicle_type_id":"4","last_reported":1701360582,"current_range_meters":8800,"station_id":"ce4bgv12rcd13ifvqcp0","pricing_plan_id":"free"},{"bike_id":"aebb5f1f-3a1e-4323-a4f0-ae83e0b78d14","system_id":"levelo_inurba_marseille","lat":43.327603,"lon":5.36705,"is_reserved":false,"is_disabled":false,"rental_uris":{"android":"levelo://app?vid=aebb5f1f-3a1e-4323-a4f0-ae83e0b78d14","ios":"levelo://app?vid=aebb5f1f-3a1e-4323-a4f0-ae83e0b78d14"},"vehicle_type_id":"4","last_reported":1701360582,"current_range_meters":24000,"station_id":"","pricing_plan_id":"free"},{"bike_id":"11fbc002-5b4d-4629-a038-bbbaf88697c2","system_id":"levelo_inurba_marseille","lat":43.322872,"lon":5.382756,"is_reserved":false,"is_disabled":false,"rental_uris":{"android":"levelo://app?vid=11fbc002-5b4d-4629-a038-bbbaf88697c2","ios":"levelo://app?vid=11fbc002-5b4d-4629-a038-bbbaf88697c2"},"vehicle_type_id":"4","last_reported":1701360582,"current_range_meters":26400,"station_id":"ce4bhr12rcd13ifvqhqg","pricing_plan_id":"free"},{"bike_id":"4777f194-e76c-40b1-9590-8fe09d43cf9d","system_id":"levelo_inurba_marseille","lat":43.297163,"lon":5.365866,"is_reserved":false,"is_disabled":false,"rental_uris":{"android":"levelo://app?vid=4777f194-e76c-40b1-9590-8fe09d43cf9d","ios":"levelo://app?vid=4777f194-e76c-40b1-9590-8fe09d43cf9d"},"vehicle_type_id":"4","last_reported":1701360582,"current_range_meters":8400,"station_id":"ce4bgn12rcd13ifvqbt0","pricing_plan_id":"free"},{"bike_id":"c15447b7-498e-4a13-be75-a5a407135a10","system_id":"levelo_inurba_marseille","lat":43.2968,"lon":5.37291,"is_reserved":false,"is_disabled":false,"rental_uris":{"android":"levelo://app?vid=c15447b7-498e-4a13-be75-a5a407135a10","ios":"levelo://app?vid=c15447b7-498e-4a13-be75-a5a407135a10"},"vehicle_type_id":"4","last_reported":1701360582,"current_range_meters":31200,"station_id":"ce4bgk12rcd13ifvqbj0","pricing_plan_id":"free"},{"bike_id":"d068864e-3768-4cb7-8f2c-e01febcf4d60","system_id":"levelo_inurba_marseille","lat":43.2962,"lon":5.36518,"is_reserved":false,"is_disabled":false,"rental_uris":{"android":"levelo://app?vid=d068864e-3768-4cb7-8f2c-e01febcf4d60","ios":"levelo://app?vid=d068864e-3768-4cb7-8f2c-e01febcf4d60"},"vehicle_type_id":"4","last_reported":1701360582,"current_range_meters":12400,"station_id":"","pricing_plan_id":"free"},{"bike_id":"2b24c94c-382b-4740-b254-81573f20bbed","system_id":"levelo_inurba_marseille","lat":43.296003,"lon":5.367923,"is_reserved":false,"is_disabled":false,"rental_uris":{"android":"levelo://app?vid=2b24c94c-382b-4740-b254-81573f20bbed","ios":"levelo://app?vid=2b24c94c-382b-4740-b254-81573f20bbed"},"vehicle_type_id":"4","last_reported":1701360582,"current_range_meters":8400,"station_id":"","pricing_plan_id":"free"},{"bike_id":"2bc198d3-d117-4429-a3ca-5e604e20d337","system_id":"levelo_inurba_marseille","lat":43.296921,"lon":5.376579,"is_reserved":false,"is_disabled":false,"rental_uris":{"android":"levelo://app?vid=2bc198d3-d117-4429-a3ca-5e604e20d337","ios":"levelo://app?vid=2bc198d3-d117-4429-a3ca-5e604e20d337"},"vehicle_type_id":"4","last_reported":1701360582,"current_range_meters":16400,"station_id":"ce4bgkh2rcd13ifvqbl0","pricing_plan_id":"free"},{"bike_id":"6c146903-2824-4ebd-b641-ccfabffc5246","system_id":"levelo_inurba_marseille","lat":43.304278,"lon":5.388868,"is_reserved":false,"is_disabled":false,"rental_uris":{"android":"levelo://app?vid=6c146903-2824-4ebd-b641-ccfabffc5246","ios":"levelo://app?vid=6c146903-2824-4ebd-b641-ccfabffc5246"},"vehicle_type_id":"4","last_reported":1701360582,"current_range_meters":25600,"station_id":"ce4bgk12rcd13ifvqbi0","pricing_plan_id":"free"},{"bike_id":"2cc903a2-1d51-4547-a2d2-07dd7e959aef","system_id":"levelo_inurba_marseille","lat":43.297914,"lon":5.381269,"is_reserved":false,"is_disabled":false,"rental_uris":{"android":"levelo://app?vid=2cc903a2-1d51-4547-a2d2-07dd7e959aef","ios":"levelo://app?vid=2cc903a2-1d51-4547-a2d2-07dd7e959aef"},"vehicle_type_id":"4","last_reported":1701360582,"current_range_meters":0,"station_id":"ce4bgip2rcd13ifvqbb0","pricing_plan_id":"free"},{"bike_id":"916e08ea-3c98-463c-a55a-192c72df075a","system_id":"levelo_inurba_marseille","lat":43.295983,"lon":5.377358,"is_reserved":false,"is_disabled":false,"rental_uris":{"android":"levelo://app?vid=916e08ea-3c98-463c-a55a-192c72df075a","ios":"levelo://app?vid=916e08ea-3c98-463c-a55a-192c72df075a"},"vehicle_type_id":"4","last_reported":1701360582,"current_range_meters":18800,"station_id":"","pricing_plan_id":"free"},{"bike_id":"a242ab55-e76e-4811-a0e4-bb302305d94c","system_id":"levelo_inurba_marseille","lat":43.299717,"lon":5.384845,"is_reserved":false,"is_disabled":false,"rental_uris":{"android":"levelo://app?vid=a242ab55-e76e-4811-a0e4-bb302305d94c","ios":"levelo://app?vid=a242ab55-e76e-4811-a0e4-bb302305d94c"},"vehicle_type_id":"4","last_reported":1701360582,"current_range_meters":22400,"station_id":"ce4bgj92rcd13ifvqbd0","pricing_plan_id":"free"},{"bike_id":"126939d2-e090-47ec-84bf-7368a019d8e7","system_id":"levelo_inurba_marseille","lat":43.32367,"lon":5.388836,"is_reserved":false,"is_disabled":false,"rental_uris":{"android":"levelo://app?vid=126939d2-e090-47ec-84bf-7368a019d8e7","ios":"levelo://app?vid=126939d2-e090-47ec-84bf-7368a019d8e7"},"vehicle_type_id":"4","last_reported":1701360582,"current_range_meters":16000,"station_id":"ce4bhqp2rcd13ifvqhog","pricing_plan_id":"free"},{"bike_id":"a2f12fcc-77db-4a5e-9d0a-3e37ef1844fc","system_id":"levelo_inurba_marseille","lat":43.323651,"lon":5.388861,"is_reserved":false,"is_disabled":false,"rental_uris":{"android":"levelo://app?vid=a2f12fcc-77db-4a5e-9d0a-3e37ef1844fc","ios":"levelo://app?vid=a2f12fcc-77db-4a5e-9d0a-3e37ef1844fc"},"vehicle_type_id":"4","last_reported":1701360582,"current_range_meters":24400,"station_id":"ce4bhqp2rcd13ifvqhog","pricing_plan_id":"free"},{"bike_id":"d04f8fc3-df7e-4d3d-a28f-7a2942156d0e","system_id":"levelo_inurba_marseille","lat":43.3237,"lon":5.38888,"is_reserved":false,"is_disabled":false,"rental_uris":{"android":"levelo://app?vid=d04f8fc3-df7e-4d3d-a28f-7a2942156d0e","ios":"levelo://app?vid=d04f8fc3-df7e-4d3d-a28f-7a2942156d0e"},"vehicle_type_id":"4","last_reported":1701360582,"current_range_meters":14800,"station_id":"ce4bhqp2rcd13ifvqhog","pricing_plan_id":"free"},{"bike_id":"eaa0e7e7-2390-47fa-909b-7b240952cbef","system_id":"levelo_inurba_marseille","lat":43.31938,"lon":5.39229,"is_reserved":false,"is_disabled":false,"rental_uris":{"android":"levelo://app?vid=eaa0e7e7-2390-47fa-909b-7b240952cbef","ios":"levelo://app?vid=eaa0e7e7-2390-47fa-909b-7b240952cbef"},"vehicle_type_id":"4","last_reported":1701360582,"current_range_meters":22000,"station_id":"","pricing_plan_id":"free"},{"bike_id":"4fbae33b-f942-406e-a459-f8cc92357537","system_id":"levelo_inurba_marseille","lat":43.293048,"lon":5.374572,"is_reserved":false,"is_disabled":false,"rental_uris":{"android":"levelo://app?vid=4fbae33b-f942-406e-a459-f8cc92357537","ios":"levelo://app?vid=4fbae33b-f942-406e-a459-f8cc92357537"},"vehicle_type_id":"4","last_reported":1701360582,"current_range_meters":1200,"station_id":"ce4bgi12rcd13ifvqb70","pricing_plan_id":"free"},{"bike_id":"6855d039-0bdf-460b-ad39-2dc404650bff","system_id":"levelo_inurba_marseille","lat":43.2936,"lon":5.37835,"is_reserved":false,"is_disabled":false,"rental_uris":{"android":"levelo://app?vid=6855d039-0bdf-460b-ad39-2dc404650bff","ios":"levelo://app?vid=6855d039-0bdf-460b-ad39-2dc404650bff"},"vehicle_type_id":"4","last_reported":1701360582,"current_range_meters":24000,"station_id":"ce4bgjh2rcd13ifvqbf0","pricing_plan_id":"free"},{"bike_id":"f5bc2b46-47c6-4104-a9c6-e91cb620c71a","system_id":"levelo_inurba_marseille","lat":43.298764,"lon":5.388973,"is_reserved":false,"is_disabled":false,"rental_uris":{"android":"levelo://app?vid=f5bc2b46-47c6-4104-a9c6-e91cb620c71a","ios":"levelo://app?vid=f5bc2b46-47c6-4104-a9c6-e91cb620c71a"},"vehicle_type_id":"4","last_reported":1701360582,"current_range_meters":15200,"station_id":"ce4bh392rcd13ifvqdl0","pricing_plan_id":"free"},{"bike_id":"ee9aa49e-1b8d-4af4-b91e-9ff602d63ccd","system_id":"levelo_inurba_marseille","lat":43.29877,"lon":5.38912,"is_reserved":false,"is_disabled":false,"rental_uris":{"android":"levelo://app?vid=ee9aa49e-1b8d-4af4-b91e-9ff602d63ccd","ios":"levelo://app?vid=ee9aa49e-1b8d-4af4-b91e-9ff602d63ccd"},"vehicle_type_id":"4","last_reported":1701360582,"current_range_meters":19600,"station_id":"ce4bh392rcd13ifvqdl0","pricing_plan_id":"free"},{"bike_id":"003e3848-9a2d-4a03-b685-53c7efbce624","system_id":"levelo_inurba_marseille","lat":43.31093,"lon":5.39639,"is_reserved":false,"is_disabled":false,"rental_uris":{"android":"levelo://app?vid=003e3848-9a2d-4a03-b685-53c7efbce624","ios":"levelo://app?vid=003e3848-9a2d-4a03-b685-53c7efbce624"},"vehicle_type_id":"4","last_reported":1701360582,"current_range_meters":12800,"station_id":"","pricing_plan_id":"free"},{"bike_id":"a82bc127-1ba5-4ef4-bc43-a9420f355f8b","system_id":"levelo_inurba_marseille","lat":43.313291,"lon":5.396838,"is_reserved":false,"is_disabled":false,"rental_uris":{"android":"levelo://app?vid=a82bc127-1ba5-4ef4-bc43-a9420f355f8b","ios":"levelo://app?vid=a82bc127-1ba5-4ef4-bc43-a9420f355f8b"},"vehicle_type_id":"4","last_reported":1701360582,"current_range_meters":8000,"station_id":"ce4bgvp2rcd13ifvqcu0","pricing_plan_id":"free"},{"bike_id":"b6ae276c-ce02-45c3-a687-cfce88f13290","system_id":"levelo_inurba_marseille","lat":43.309038,"lon":5.396546,"is_reserved":false,"is_disabled":false,"rental_uris":{"android":"levelo://app?vid=b6ae276c-ce02-45c3-a687-cfce88f13290","ios":"levelo://app?vid=b6ae276c-ce02-45c3-a687-cfce88f13290"},"vehicle_type_id":"4","last_reported":1701360582,"current_range_meters":24000,"station_id":"ce4bh012rcd13ifvqcv0","pricing_plan_id":"free"},{"bike_id":"6f9ffd53-b9cb-4d99-8c97-7f423645a21a","system_id":"levelo_inurba_marseille","lat":43.31335,"lon":5.39698,"is_reserved":false,"is_disabled":false,"rental_uris":{"android":"levelo://app?vid=6f9ffd53-b9cb-4d99-8c97-7f423645a21a","ios":"levelo://app?vid=6f9ffd53-b9cb-4d99-8c97-7f423645a21a"},"vehicle_type_id":"4","last_reported":1701360582,"current_range_meters":9200,"station_id":"ce4bgvp2rcd13ifvqcu0","pricing_plan_id":"free"},{"bike_id":"80b10ba0-9a38-4004-887a-79c91af7ea85","system_id":"levelo_inurba_marseille","lat":43.282754,"lon":5.350519,"is_reserved":false,"is_disabled":false,"rental_uris":{"android":"levelo://app?vid=80b10ba0-9a38-4004-887a-79c91af7ea85","ios":"levelo://app?vid=80b10ba0-9a38-4004-887a-79c91af7ea85"},"vehicle_type_id":"4","last_reported":1701360582,"current_range_meters":17600,"station_id":"ce4bhbp2rcd13ifvqerg","pricing_plan_id":"free"},{"bike_id":"ea2ebee4-f4a3-4235-9159-5d27c3217254","system_id":"levelo_inurba_marseille","lat":43.302008,"lon":5.394694,"is_reserved":false,"is_disabled":false,"rental_uris":{"android":"levelo://app?vid=ea2ebee4-f4a3-4235-9159-5d27c3217254","ios":"levelo://app?vid=ea2ebee4-f4a3-4235-9159-5d27c3217254"},"vehicle_type_id":"4","last_reported":1701360582,"current_range_meters":10400,"station_id":"ce4bh0p2rcd13ifvqd70","pricing_plan_id":"free"},{"bike_id":"dbbaa095-8290-4547-a7e4-3fd7e92415f6","system_id":"levelo_inurba_marseille","lat":43.294153,"lon":5.386305,"is_reserved":false,"is_disabled":false,"rental_uris":{"android":"levelo://app?vid=dbbaa095-8290-4547-a7e4-3fd7e92415f6","ios":"levelo://app?vid=dbbaa095-8290-4547-a7e4-3fd7e92415f6"},"vehicle_type_id":"4","last_reported":1701360582,"current_range_meters":15200,"station_id":"ce4bh2h2rcd13ifvqdh0","pricing_plan_id":"free"},{"bike_id":"f23a44d9-b8ec-4b51-9814-8b81368f4123","system_id":"levelo_inurba_marseille","lat":43.28942,"lon":5.36639,"is_reserved":false,"is_disabled":false,"rental_uris":{"android":"levelo://app?vid=f23a44d9-b8ec-4b51-9814-8b81368f4123","ios":"levelo://app?vid=f23a44d9-b8ec-4b51-9814-8b81368f4123"},"vehicle_type_id":"4","last_reported":1701360582,"current_range_meters":3600,"station_id":"ce4bhap2rcd13ifvqek0","pricing_plan_id":"free"},{"bike_id":"073597cd-a173-4e0c-b4b4-ec6056c675b4","system_id":"levelo_inurba_marseille","lat":43.292644,"lon":5.384257,"is_reserved":false,"is_disabled":false,"rental_uris":{"android":"levelo://app?vid=073597cd-a173-4e0c-b4b4-ec6056c675b4","ios":"levelo://app?vid=073597cd-a173-4e0c-b4b4-ec6056c675b4"},"vehicle_type_id":"4","last_reported":1701360582,"current_range_meters":10000,"station_id":"ce4bh692rcd13ifvqea0","pricing_plan_id":"free"},{"bike_id":"e927fbb1-f1c4-4398-9f25-8d59e5bc44fd","system_id":"levelo_inurba_marseille","lat":43.330442,"lon":5.389148,"is_reserved":false,"is_disabled":false,"rental_uris":{"android":"levelo://app?vid=e927fbb1-f1c4-4398-9f25-8d59e5bc44fd","ios":"levelo://app?vid=e927fbb1-f1c4-4398-9f25-8d59e5bc44fd"},"vehicle_type_id":"4","last_reported":1701360582,"current_range_meters":5200,"station_id":"ce4bhr92rcd13ifvqhrg","pricing_plan_id":"free"},{"bike_id":"433c11ae-8306-4bbf-850d-086e9b9b8b2e","system_id":"levelo_inurba_marseille","lat":43.2909,"lon":5.381212,"is_reserved":false,"is_disabled":false,"rental_uris":{"android":"levelo://app?vid=433c11ae-8306-4bbf-850d-086e9b9b8b2e","ios":"levelo://app?vid=433c11ae-8306-4bbf-850d-086e9b9b8b2e"},"vehicle_type_id":"4","last_reported":1701360582,"current_range_meters":18400,"station_id":"ce4bh512rcd13ifvqe2g","pricing_plan_id":"free"},{"bike_id":"aed0b254-f2a6-4d98-883d-0915ae454752","system_id":"levelo_inurba_marseille","lat":43.297854,"lon":5.393248,"is_reserved":false,"is_disabled":false,"rental_uris":{"android":"levelo://app?vid=aed0b254-f2a6-4d98-883d-0915ae454752","ios":"levelo://app?vid=aed0b254-f2a6-4d98-883d-0915ae454752"},"vehicle_type_id":"4","last_reported":1701360582,"current_range_meters":15200,"station_id":"chh1huq6cuj3fo74tm60","pricing_plan_id":"free"},{"bike_id":"61a960a2-f1a5-4371-a6d5-f5d48fa0c470","system_id":"levelo_inurba_marseille","lat":43.29795,"lon":5.39346,"is_reserved":false,"is_disabled":false,"rental_uris":{"android":"levelo://app?vid=61a960a2-f1a5-4371-a6d5-f5d48fa0c470","ios":"levelo://app?vid=61a960a2-f1a5-4371-a6d5-f5d48fa0c470"},"vehicle_type_id":"4","last_reported":1701360582,"current_range_meters":6800,"station_id":"chh1huq6cuj3fo74tm60","pricing_plan_id":"free"},{"bike_id":"c71a5954-df76-4d68-bffe-7306181c42b8","system_id":"levelo_inurba_marseille","lat":43.29775,"lon":5.3934,"is_reserved":false,"is_disabled":false,"rental_uris":{"android":"levelo://app?vid=c71a5954-df76-4d68-bffe-7306181c42b8","ios":"levelo://app?vid=c71a5954-df76-4d68-bffe-7306181c42b8"},"vehicle_type_id":"4","last_reported":1701360582,"current_range_meters":10000,"station_id":"chh1huq6cuj3fo74tm60","pricing_plan_id":"free"},{"bike_id":"890d125e-102e-4b3b-8ffb-d8149351e9f2","system_id":"levelo_inurba_marseille","lat":43.31269,"lon":5.40179,"is_reserved":false,"is_disabled":false,"rental_uris":{"android":"levelo://app?vid=890d125e-102e-4b3b-8ffb-d8149351e9f2","ios":"levelo://app?vid=890d125e-102e-4b3b-8ffb-d8149351e9f2"},"vehicle_type_id":"4","last_reported":1701360582,"current_range_meters":23600,"station_id":"ce4bh092rcd13ifvqd30","pricing_plan_id":"free"},{"bike_id":"0469b2e4-98f8-49e6-93cc-13cec41284ce","system_id":"levelo_inurba_marseille","lat":43.30928,"lon":5.40151,"is_reserved":false,"is_disabled":false,"rental_uris":{"android":"levelo://app?vid=0469b2e4-98f8-49e6-93cc-13cec41284ce","ios":"levelo://app?vid=0469b2e4-98f8-49e6-93cc-13cec41284ce"},"vehicle_type_id":"4","last_reported":1701360582,"current_range_meters":27200,"station_id":"ce4bgvp2rcd13ifvqct0","pricing_plan_id":"free"},{"bike_id":"2ae93018-1f66-4407-8727-ce3bd016a9f6","system_id":"levelo_inurba_marseille","lat":43.33757,"lon":5.3746,"is_reserved":false,"is_disabled":false,"rental_uris":{"android":"levelo://app?vid=2ae93018-1f66-4407-8727-ce3bd016a9f6","ios":"levelo://app?vid=2ae93018-1f66-4407-8727-ce3bd016a9f6"},"vehicle_type_id":"4","last_reported":1701360582,"current_range_meters":18400,"station_id":"","pricing_plan_id":"free"},{"bike_id":"1b9ac009-cff0-486d-a1ea-a93c08923e80","system_id":"levelo_inurba_marseille","lat":43.33761,"lon":5.37458,"is_reserved":false,"is_disabled":false,"rental_uris":{"android":"levelo://app?vid=1b9ac009-cff0-486d-a1ea-a93c08923e80","ios":"levelo://app?vid=1b9ac009-cff0-486d-a1ea-a93c08923e80"},"vehicle_type_id":"4","last_reported":1701360582,"current_range_meters":30400,"station_id":"","pricing_plan_id":"free"},{"bike_id":"c5267758-f47e-4d46-866c-293f25855541","system_id":"levelo_inurba_marseille","lat":43.286591,"lon":5.363346,"is_reserved":false,"is_disabled":false,"rental_uris":{"android":"levelo://app?vid=c5267758-f47e-4d46-866c-293f25855541","ios":"levelo://app?vid=c5267758-f47e-4d46-866c-293f25855541"},"vehicle_type_id":"4","last_reported":1701360582,"current_range_meters":12400,"station_id":"ce4bhah2rcd13ifvqej0","pricing_plan_id":"free"},{"bike_id":"fb5abbec-3fb3-43f9-8ee3-9a40dad19d58","system_id":"levelo_inurba_marseille","lat":43.30642,"lon":5.401031,"is_reserved":false,"is_disabled":false,"rental_uris":{"android":"levelo://app?vid=fb5abbec-3fb3-43f9-8ee3-9a40dad19d58","ios":"levelo://app?vid=fb5abbec-3fb3-43f9-8ee3-9a40dad19d58"},"vehicle_type_id":"4","last_reported":1701360582,"current_range_meters":24800,"station_id":"ce4bh112rcd13ifvqda0","pricing_plan_id":"free"},{"bike_id":"5caaa2a4-2863-44f7-ad58-f3c24398eb71","system_id":"levelo_inurba_marseille","lat":43.306412,"lon":5.401035,"is_reserved":false,"is_disabled":false,"rental_uris":{"android":"levelo://app?vid=5caaa2a4-2863-44f7-ad58-f3c24398eb71","ios":"levelo://app?vid=5caaa2a4-2863-44f7-ad58-f3c24398eb71"},"vehicle_type_id":"4","last_reported":1701360582,"current_range_meters":13200,"station_id":"ce4bh112rcd13ifvqda0","pricing_plan_id":"free"},{"bike_id":"da759c1e-fc19-42ec-9e73-190600291d7d","system_id":"levelo_inurba_marseille","lat":43.30642,"lon":5.401031,"is_reserved":false,"is_disabled":false,"rental_uris":{"android":"levelo://app?vid=da759c1e-fc19-42ec-9e73-190600291d7d","ios":"levelo://app?vid=da759c1e-fc19-42ec-9e73-190600291d7d"},"vehicle_type_id":"4","last_reported":1701360582,"current_range_meters":19200,"station_id":"ce4bh112rcd13ifvqda0","pricing_plan_id":"free"},{"bike_id":"b930dc4e-3488-4b4b-b52b-1874865c3274","system_id":"levelo_inurba_marseille","lat":43.30523,"lon":5.40089,"is_reserved":false,"is_disabled":false,"rental_uris":{"android":"levelo://app?vid=b930dc4e-3488-4b4b-b52b-1874865c3274","ios":"levelo://app?vid=b930dc4e-3488-4b4b-b52b-1874865c3274"},"vehicle_type_id":"4","last_reported":1701360582,"current_range_meters":27200,"station_id":"","pricing_plan_id":"free"},{"bike_id":"dfe33949-9201-45a0-908c-6ade5e9363fa","system_id":"levelo_inurba_marseille","lat":43.286591,"lon":5.363346,"is_reserved":false,"is_disabled":false,"rental_uris":{"android":"levelo://app?vid=dfe33949-9201-45a0-908c-6ade5e9363fa","ios":"levelo://app?vid=dfe33949-9201-45a0-908c-6ade5e9363fa"},"vehicle_type_id":"4","last_reported":1701360582,"current_range_meters":27600,"station_id":"ce4bhah2rcd13ifvqej0","pricing_plan_id":"free"},{"bike_id":"d6f719e8-038b-4b2e-89f0-47ed338bbd8c","system_id":"levelo_inurba_marseille","lat":43.290345,"lon":5.38646,"is_reserved":false,"is_disabled":false,"rental_uris":{"android":"levelo://app?vid=d6f719e8-038b-4b2e-89f0-47ed338bbd8c","ios":"levelo://app?vid=d6f719e8-038b-4b2e-89f0-47ed338bbd8c"},"vehicle_type_id":"4","last_reported":1701360582,"current_range_meters":0,"station_id":"ce4bh4p2rcd13ifvqe0g","pricing_plan_id":"free"},{"bike_id":"55fb18d1-3a66-44a9-a318-d960e4cd31be","system_id":"levelo_inurba_marseille","lat":43.286832,"lon":5.379466,"is_reserved":false,"is_disabled":false,"rental_uris":{"android":"levelo://app?vid=55fb18d1-3a66-44a9-a318-d960e4cd31be","ios":"levelo://app?vid=55fb18d1-3a66-44a9-a318-d960e4cd31be"},"vehicle_type_id":"4","last_reported":1701360582,"current_range_meters":28800,"station_id":"","pricing_plan_id":"free"},{"bike_id":"c366c444-ac11-4120-ab2c-611bd191110c","system_id":"levelo_inurba_marseille","lat":43.3165,"lon":5.40435,"is_reserved":false,"is_disabled":false,"rental_uris":{"android":"levelo://app?vid=c366c444-ac11-4120-ab2c-611bd191110c","ios":"levelo://app?vid=c366c444-ac11-4120-ab2c-611bd191110c"},"vehicle_type_id":"4","last_reported":1701360582,"current_range_meters":24000,"station_id":"ce4bh012rcd13ifvqd00","pricing_plan_id":"free"},{"bike_id":"bba241e8-b890-44b8-b161-cf56f491368d","system_id":"levelo_inurba_marseille","lat":43.28466,"lon":5.35892,"is_reserved":false,"is_disabled":false,"rental_uris":{"android":"levelo://app?vid=bba241e8-b890-44b8-b161-cf56f491368d","ios":"levelo://app?vid=bba241e8-b890-44b8-b161-cf56f491368d"},"vehicle_type_id":"4","last_reported":1701360582,"current_range_meters":18400,"station_id":"ce4bhah2rcd13ifvqei0","pricing_plan_id":"free"},{"bike_id":"13cfd34d-f195-4bc8-9509-be724d3e0d31","system_id":"levelo_inurba_marseille","lat":43.28465,"lon":5.35894,"is_reserved":false,"is_disabled":false,"rental_uris":{"android":"levelo://app?vid=13cfd34d-f195-4bc8-9509-be724d3e0d31","ios":"levelo://app?vid=13cfd34d-f195-4bc8-9509-be724d3e0d31"},"vehicle_type_id":"4","last_reported":1701360582,"current_range_meters":16400,"station_id":"ce4bhah2rcd13ifvqei0","pricing_plan_id":"free"},{"bike_id":"ff261902-c589-4f64-ba75-c3f9715dcb0c","system_id":"levelo_inurba_marseille","lat":43.28461,"lon":5.35891,"is_reserved":false,"is_disabled":false,"rental_uris":{"android":"levelo://app?vid=ff261902-c589-4f64-ba75-c3f9715dcb0c","ios":"levelo://app?vid=ff261902-c589-4f64-ba75-c3f9715dcb0c"},"vehicle_type_id":"4","last_reported":1701360582,"current_range_meters":14800,"station_id":"ce4bhah2rcd13ifvqei0","pricing_plan_id":"free"},{"bike_id":"bad707f4-d0aa-4c2a-872d-ebe9f790b5cf","system_id":"levelo_inurba_marseille","lat":43.284534,"lon":5.358662,"is_reserved":false,"is_disabled":false,"rental_uris":{"android":"levelo://app?vid=bad707f4-d0aa-4c2a-872d-ebe9f790b5cf","ios":"levelo://app?vid=bad707f4-d0aa-4c2a-872d-ebe9f790b5cf"},"vehicle_type_id":"4","last_reported":1701360582,"current_range_meters":28800,"station_id":"ce4bhah2rcd13ifvqei0","pricing_plan_id":"free"},{"bike_id":"1169e711-9784-47a7-9fd9-3ba03d650b62","system_id":"levelo_inurba_marseille","lat":43.284577,"lon":5.358956,"is_reserved":false,"is_disabled":false,"rental_uris":{"android":"levelo://app?vid=1169e711-9784-47a7-9fd9-3ba03d650b62","ios":"levelo://app?vid=1169e711-9784-47a7-9fd9-3ba03d650b62"},"vehicle_type_id":"4","last_reported":1701360582,"current_range_meters":31200,"station_id":"ce4bhah2rcd13ifvqei0","pricing_plan_id":"free"},{"bike_id":"4900d143-ac0b-4f76-bb39-90aa14401aa6","system_id":"levelo_inurba_marseille","lat":43.284534,"lon":5.358662,"is_reserved":false,"is_disabled":false,"rental_uris":{"android":"levelo://app?vid=4900d143-ac0b-4f76-bb39-90aa14401aa6","ios":"levelo://app?vid=4900d143-ac0b-4f76-bb39-90aa14401aa6"},"vehicle_type_id":"4","last_reported":1701360582,"current_range_meters":12800,"station_id":"ce4bhah2rcd13ifvqei0","pricing_plan_id":"free"},{"bike_id":"6750ee84-a8ab-40f7-9b45-c704383bad4e","system_id":"levelo_inurba_marseille","lat":43.284534,"lon":5.358662,"is_reserved":false,"is_disabled":false,"rental_uris":{"android":"levelo://app?vid=6750ee84-a8ab-40f7-9b45-c704383bad4e","ios":"levelo://app?vid=6750ee84-a8ab-40f7-9b45-c704383bad4e"},"vehicle_type_id":"4","last_reported":1701360582,"current_range_meters":31600,"station_id":"ce4bhah2rcd13ifvqei0","pricing_plan_id":"free"},{"bike_id":"2834bf3c-2363-4a77-a110-13aba2eba515","system_id":"levelo_inurba_marseille","lat":43.284195,"lon":5.375088,"is_reserved":false,"is_disabled":false,"rental_uris":{"android":"levelo://app?vid=2834bf3c-2363-4a77-a110-13aba2eba515","ios":"levelo://app?vid=2834bf3c-2363-4a77-a110-13aba2eba515"},"vehicle_type_id":"4","last_reported":1701360582,"current_range_meters":14400,"station_id":"","pricing_plan_id":"free"},{"bike_id":"d51dd020-3b19-47d4-ac8c-33dd6d69506c","system_id":"levelo_inurba_marseille","lat":43.295713,"lon":5.399639,"is_reserved":false,"is_disabled":false,"rental_uris":{"android":"levelo://app?vid=d51dd020-3b19-47d4-ac8c-33dd6d69506c","ios":"levelo://app?vid=d51dd020-3b19-47d4-ac8c-33dd6d69506c"},"vehicle_type_id":"4","last_reported":1701360582,"current_range_meters":4400,"station_id":"ce4bh312rcd13ifvqdj0","pricing_plan_id":"free"},{"bike_id":"5970b04a-853b-465f-93d8-8a846f35d86e","system_id":"levelo_inurba_marseille","lat":43.319179,"lon":5.407725,"is_reserved":false,"is_disabled":false,"rental_uris":{"android":"levelo://app?vid=5970b04a-853b-465f-93d8-8a846f35d86e","ios":"levelo://app?vid=5970b04a-853b-465f-93d8-8a846f35d86e"},"vehicle_type_id":"4","last_reported":1701360582,"current_range_meters":27600,"station_id":"ce4bhq12rcd13ifvqhig","pricing_plan_id":"free"},{"bike_id":"67ae0e32-7756-4d9e-9be4-489fb727ffb2","system_id":"levelo_inurba_marseille","lat":43.319179,"lon":5.407725,"is_reserved":false,"is_disabled":false,"rental_uris":{"android":"levelo://app?vid=67ae0e32-7756-4d9e-9be4-489fb727ffb2","ios":"levelo://app?vid=67ae0e32-7756-4d9e-9be4-489fb727ffb2"},"vehicle_type_id":"4","last_reported":1701360582,"current_range_meters":23200,"station_id":"ce4bhq12rcd13ifvqhig","pricing_plan_id":"free"},{"bike_id":"28470c57-f96e-429a-8714-345b802614cd","system_id":"levelo_inurba_marseille","lat":43.323464,"lon":5.406297,"is_reserved":false,"is_disabled":false,"rental_uris":{"android":"levelo://app?vid=28470c57-f96e-429a-8714-345b802614cd","ios":"levelo://app?vid=28470c57-f96e-429a-8714-345b802614cd"},"vehicle_type_id":"4","last_reported":1701360582,"current_range_meters":22000,"station_id":"ce4bhq92rcd13ifvqhjg","pricing_plan_id":"free"},{"bike_id":"84132732-d5c2-4549-b3ed-7c713f6d4431","system_id":"levelo_inurba_marseille","lat":43.323464,"lon":5.406297,"is_reserved":false,"is_disabled":false,"rental_uris":{"android":"levelo://app?vid=84132732-d5c2-4549-b3ed-7c713f6d4431","ios":"levelo://app?vid=84132732-d5c2-4549-b3ed-7c713f6d4431"},"vehicle_type_id":"4","last_reported":1701360582,"current_range_meters":26800,"station_id":"ce4bhq92rcd13ifvqhjg","pricing_plan_id":"free"},{"bike_id":"662fa6f8-2032-43e0-bf37-8abb696cda1d","system_id":"levelo_inurba_marseille","lat":43.33717,"lon":5.391857,"is_reserved":false,"is_disabled":false,"rental_uris":{"android":"levelo://app?vid=662fa6f8-2032-43e0-bf37-8abb696cda1d","ios":"levelo://app?vid=662fa6f8-2032-43e0-bf37-8abb696cda1d"},"vehicle_type_id":"4","last_reported":1701360582,"current_range_meters":27200,"station_id":"ce4bhr92rcd13ifvqhsg","pricing_plan_id":"free"},{"bike_id":"70cf1564-5300-4e2f-a480-7565c2d7bfa4","system_id":"levelo_inurba_marseille","lat":43.283494,"lon":5.380945,"is_reserved":false,"is_disabled":false,"rental_uris":{"android":"levelo://app?vid=70cf1564-5300-4e2f-a480-7565c2d7bfa4","ios":"levelo://app?vid=70cf1564-5300-4e2f-a480-7565c2d7bfa4"},"vehicle_type_id":"4","last_reported":1701360582,"current_range_meters":27600,"station_id":"ce4bh412rcd13ifvqdr0","pricing_plan_id":"free"},{"bike_id":"b8c08d0d-ed1b-4264-ba58-98f77911124b","system_id":"levelo_inurba_marseille","lat":43.284219,"lon":5.3497,"is_reserved":false,"is_disabled":false,"rental_uris":{"android":"levelo://app?vid=b8c08d0d-ed1b-4264-ba58-98f77911124b","ios":"levelo://app?vid=b8c08d0d-ed1b-4264-ba58-98f77911124b"},"vehicle_type_id":"4","last_reported":1701360582,"current_range_meters":25600,"station_id":"ce4bhbh2rcd13ifvqepg","pricing_plan_id":"free"},{"bike_id":"e6045d19-51cb-4bd2-9a2b-b0f39e5434ea","system_id":"levelo_inurba_marseille","lat":43.282754,"lon":5.350519,"is_reserved":false,"is_disabled":false,"rental_uris":{"android":"levelo://app?vid=e6045d19-51cb-4bd2-9a2b-b0f39e5434ea","ios":"levelo://app?vid=e6045d19-51cb-4bd2-9a2b-b0f39e5434ea"},"vehicle_type_id":"4","last_reported":1701360582,"current_range_meters":15600,"station_id":"ce4bhbp2rcd13ifvqerg","pricing_plan_id":"free"},{"bike_id":"2a6bd0d6-2b8e-43bd-bd55-1b921f3f8931","system_id":"levelo_inurba_marseille","lat":43.282744,"lon":5.350533,"is_reserved":false,"is_disabled":false,"rental_uris":{"android":"levelo://app?vid=2a6bd0d6-2b8e-43bd-bd55-1b921f3f8931","ios":"levelo://app?vid=2a6bd0d6-2b8e-43bd-bd55-1b921f3f8931"},"vehicle_type_id":"4","last_reported":1701360582,"current_range_meters":4000,"station_id":"ce4bhbp2rcd13ifvqerg","pricing_plan_id":"free"},{"bike_id":"926bd2a5-4043-47fa-b789-9abe9815ebfd","system_id":"levelo_inurba_marseille","lat":43.28271,"lon":5.35075,"is_reserved":false,"is_disabled":false,"rental_uris":{"android":"levelo://app?vid=926bd2a5-4043-47fa-b789-9abe9815ebfd","ios":"levelo://app?vid=926bd2a5-4043-47fa-b789-9abe9815ebfd"},"vehicle_type_id":"4","last_reported":1701360582,"current_range_meters":23600,"station_id":"ce4bhbp2rcd13ifvqerg","pricing_plan_id":"free"},{"bike_id":"36af4a8a-183a-4f3a-935b-d86d4fff5344","system_id":"levelo_inurba_marseille","lat":43.2827,"lon":5.35077,"is_reserved":false,"is_disabled":false,"rental_uris":{"android":"levelo://app?vid=36af4a8a-183a-4f3a-935b-d86d4fff5344","ios":"levelo://app?vid=36af4a8a-183a-4f3a-935b-d86d4fff5344"},"vehicle_type_id":"4","last_reported":1701360582,"current_range_meters":28800,"station_id":"ce4bhbp2rcd13ifvqerg","pricing_plan_id":"free"},{"bike_id":"cdd76296-f50d-4641-8689-638fcc93c27b","system_id":"levelo_inurba_marseille","lat":43.282754,"lon":5.350519,"is_reserved":false,"is_disabled":false,"rental_uris":{"android":"levelo://app?vid=cdd76296-f50d-4641-8689-638fcc93c27b","ios":"levelo://app?vid=cdd76296-f50d-4641-8689-638fcc93c27b"},"vehicle_type_id":"4","last_reported":1701360582,"current_range_meters":24800,"station_id":"ce4bhbp2rcd13ifvqerg","pricing_plan_id":"free"},{"bike_id":"601651f1-60a4-4b6e-afe6-f929056e5f20","system_id":"levelo_inurba_marseille","lat":43.282754,"lon":5.350519,"is_reserved":false,"is_disabled":false,"rental_uris":{"android":"levelo://app?vid=601651f1-60a4-4b6e-afe6-f929056e5f20","ios":"levelo://app?vid=601651f1-60a4-4b6e-afe6-f929056e5f20"},"vehicle_type_id":"4","last_reported":1701360582,"current_range_meters":31200,"station_id":"ce4bhbp2rcd13ifvqerg","pricing_plan_id":"free"},{"bike_id":"914eac0d-fdae-457f-99d9-69dd1ce89fb2","system_id":"levelo_inurba_marseille","lat":43.280382,"lon":5.369291,"is_reserved":false,"is_disabled":false,"rental_uris":{"android":"levelo://app?vid=914eac0d-fdae-457f-99d9-69dd1ce89fb2","ios":"levelo://app?vid=914eac0d-fdae-457f-99d9-69dd1ce89fb2"},"vehicle_type_id":"4","last_reported":1701360582,"current_range_meters":26400,"station_id":"ce4bha12rcd13ifvqef0","pricing_plan_id":"free"},{"bike_id":"8700974b-89cc-458e-8612-05b23ca756d2","system_id":"levelo_inurba_marseille","lat":43.280382,"lon":5.369291,"is_reserved":false,"is_disabled":false,"rental_uris":{"android":"levelo://app?vid=8700974b-89cc-458e-8612-05b23ca756d2","ios":"levelo://app?vid=8700974b-89cc-458e-8612-05b23ca756d2"},"vehicle_type_id":"4","last_reported":1701360582,"current_range_meters":15200,"station_id":"ce4bha12rcd13ifvqef0","pricing_plan_id":"free"},{"bike_id":"8f430f86-9cc4-4b29-a6ac-42d0008508c1","system_id":"levelo_inurba_marseille","lat":43.296263,"lon":5.40601,"is_reserved":false,"is_disabled":false,"rental_uris":{"android":"levelo://app?vid=8f430f86-9cc4-4b29-a6ac-42d0008508c1","ios":"levelo://app?vid=8f430f86-9cc4-4b29-a6ac-42d0008508c1"},"vehicle_type_id":"4","last_reported":1701360582,"current_range_meters":11200,"station_id":"ce4bh0h2rcd13ifvqd60","pricing_plan_id":"free"},{"bike_id":"7e1f95d6-398a-4ce3-9170-8919a3688c7e","system_id":"levelo_inurba_marseille","lat":43.284317,"lon":5.391844,"is_reserved":false,"is_disabled":false,"rental_uris":{"android":"levelo://app?vid=7e1f95d6-398a-4ce3-9170-8919a3688c7e","ios":"levelo://app?vid=7e1f95d6-398a-4ce3-9170-8919a3688c7e"},"vehicle_type_id":"4","last_reported":1701360582,"current_range_meters":2800,"station_id":"ce4bhoh2rcd13ifvqh5g","pricing_plan_id":"free"},{"bike_id":"a3961103-de5b-4b6a-9de3-877d3b2792f0","system_id":"levelo_inurba_marseille","lat":43.28573,"lon":5.394992,"is_reserved":false,"is_disabled":false,"rental_uris":{"android":"levelo://app?vid=a3961103-de5b-4b6a-9de3-877d3b2792f0","ios":"levelo://app?vid=a3961103-de5b-4b6a-9de3-877d3b2792f0"},"vehicle_type_id":"4","last_reported":1701360582,"current_range_meters":17600,"station_id":"ce4bh292rcd13ifvqdg0","pricing_plan_id":"free"},{"bike_id":"f66a1a71-dcaf-4bc3-af9e-d378d34f9f66","system_id":"levelo_inurba_marseille","lat":43.304188,"lon":5.412904,"is_reserved":false,"is_disabled":false,"rental_uris":{"android":"levelo://app?vid=f66a1a71-dcaf-4bc3-af9e-d378d34f9f66","ios":"levelo://app?vid=f66a1a71-dcaf-4bc3-af9e-d378d34f9f66"},"vehicle_type_id":"4","last_reported":1701360582,"current_range_meters":30800,"station_id":"ce4bhop2rcd13ifvqh8g","pricing_plan_id":"free"},{"bike_id":"916b8309-4b9b-4c99-8938-9ea8ec937f62","system_id":"levelo_inurba_marseille","lat":43.304188,"lon":5.412904,"is_reserved":false,"is_disabled":false,"rental_uris":{"android":"levelo://app?vid=916b8309-4b9b-4c99-8938-9ea8ec937f62","ios":"levelo://app?vid=916b8309-4b9b-4c99-8938-9ea8ec937f62"},"vehicle_type_id":"4","last_reported":1701360582,"current_range_meters":30000,"station_id":"ce4bhop2rcd13ifvqh8g","pricing_plan_id":"free"},{"bike_id":"ac2d2114-446a-46ee-8362-b83b7ae912ae","system_id":"levelo_inurba_marseille","lat":43.258658,"lon":5.398935,"is_reserved":false,"is_disabled":false,"rental_uris":{"android":"levelo://app?vid=ac2d2114-446a-46ee-8362-b83b7ae912ae","ios":"levelo://app?vid=ac2d2114-446a-46ee-8362-b83b7ae912ae"},"vehicle_type_id":"4","last_reported":1701360582,"current_range_meters":10800,"station_id":"ce4bhl92rcd13ifvqghg","pricing_plan_id":"free"},{"bike_id":"9c943a55-6508-4cfb-854a-3ed8eaa88167","system_id":"levelo_inurba_marseille","lat":43.29962,"lon":5.41321,"is_reserved":false,"is_disabled":false,"rental_uris":{"android":"levelo://app?vid=9c943a55-6508-4cfb-854a-3ed8eaa88167","ios":"levelo://app?vid=9c943a55-6508-4cfb-854a-3ed8eaa88167"},"vehicle_type_id":"4","last_reported":1701360582,"current_range_meters":30400,"station_id":"ce4bhp12rcd13ifvqh9g","pricing_plan_id":"free"},{"bike_id":"b2696898-7106-42ef-b752-b8c3e3f9aae3","system_id":"levelo_inurba_marseille","lat":43.320045,"lon":5.415046,"is_reserved":false,"is_disabled":false,"rental_uris":{"android":"levelo://app?vid=b2696898-7106-42ef-b752-b8c3e3f9aae3","ios":"levelo://app?vid=b2696898-7106-42ef-b752-b8c3e3f9aae3"},"vehicle_type_id":"4","last_reported":1701360582,"current_range_meters":17200,"station_id":"ce4bhq92rcd13ifvqhkg","pricing_plan_id":"free"},{"bike_id":"090478f9-c763-407f-bcae-33007ff245cf","system_id":"levelo_inurba_marseille","lat":43.29959,"lon":5.41328,"is_reserved":false,"is_disabled":false,"rental_uris":{"android":"levelo://app?vid=090478f9-c763-407f-bcae-33007ff245cf","ios":"levelo://app?vid=090478f9-c763-407f-bcae-33007ff245cf"},"vehicle_type_id":"4","last_reported":1701360582,"current_range_meters":24400,"station_id":"ce4bhp12rcd13ifvqh9g","pricing_plan_id":"free"},{"bike_id":"a8cd9b48-43b6-410b-8152-ee7e45e311e4","system_id":"levelo_inurba_marseille","lat":43.320045,"lon":5.415046,"is_reserved":false,"is_disabled":false,"rental_uris":{"android":"levelo://app?vid=a8cd9b48-43b6-410b-8152-ee7e45e311e4","ios":"levelo://app?vid=a8cd9b48-43b6-410b-8152-ee7e45e311e4"},"vehicle_type_id":"4","last_reported":1701360582,"current_range_meters":26800,"station_id":"ce4bhq92rcd13ifvqhkg","pricing_plan_id":"free"},{"bike_id":"b9bd549a-fab0-4f7b-bec4-679d24fcb11c","system_id":"levelo_inurba_marseille","lat":43.29266,"lon":5.40915,"is_reserved":false,"is_disabled":false,"rental_uris":{"android":"levelo://app?vid=b9bd549a-fab0-4f7b-bec4-679d24fcb11c","ios":"levelo://app?vid=b9bd549a-fab0-4f7b-bec4-679d24fcb11c"},"vehicle_type_id":"4","last_reported":1701360582,"current_range_meters":16000,"station_id":"ce4bh192rcd13ifvqdc0","pricing_plan_id":"free"},{"bike_id":"dd8c960d-ad58-4a55-aade-1864d11d3930","system_id":"levelo_inurba_marseille","lat":43.292571,"lon":5.409107,"is_reserved":false,"is_disabled":false,"rental_uris":{"android":"levelo://app?vid=dd8c960d-ad58-4a55-aade-1864d11d3930","ios":"levelo://app?vid=dd8c960d-ad58-4a55-aade-1864d11d3930"},"vehicle_type_id":"4","last_reported":1701360582,"current_range_meters":20000,"station_id":"ce4bh192rcd13ifvqdc0","pricing_plan_id":"free"},{"bike_id":"5150e48f-e194-49eb-9ea9-eae1ac61cefc","system_id":"levelo_inurba_marseille","lat":43.27625,"lon":5.36109,"is_reserved":false,"is_disabled":false,"rental_uris":{"android":"levelo://app?vid=5150e48f-e194-49eb-9ea9-eae1ac61cefc","ios":"levelo://app?vid=5150e48f-e194-49eb-9ea9-eae1ac61cefc"},"vehicle_type_id":"4","last_reported":1701360582,"current_range_meters":22000,"station_id":"ce4bgj92rcd13ifvqbe0","pricing_plan_id":"free"},{"bike_id":"07408a6a-ddec-49dc-a412-ceac5696859f","system_id":"levelo_inurba_marseille","lat":43.29264,"lon":5.40918,"is_reserved":false,"is_disabled":false,"rental_uris":{"android":"levelo://app?vid=07408a6a-ddec-49dc-a412-ceac5696859f","ios":"levelo://app?vid=07408a6a-ddec-49dc-a412-ceac5696859f"},"vehicle_type_id":"4","last_reported":1701360582,"current_range_meters":10400,"station_id":"ce4bh192rcd13ifvqdc0","pricing_plan_id":"free"},{"bike_id":"7f5458af-dc32-412e-bcf0-e10cfa891ccb","system_id":"levelo_inurba_marseille","lat":43.292608,"lon":5.409163,"is_reserved":false,"is_disabled":false,"rental_uris":{"android":"levelo://app?vid=7f5458af-dc32-412e-bcf0-e10cfa891ccb","ios":"levelo://app?vid=7f5458af-dc32-412e-bcf0-e10cfa891ccb"},"vehicle_type_id":"4","last_reported":1701360582,"current_range_meters":24000,"station_id":"ce4bh192rcd13ifvqdc0","pricing_plan_id":"free"},{"bike_id":"c147f00f-cc50-4327-9033-e511c6e15511","system_id":"levelo_inurba_marseille","lat":43.292591,"lon":5.409159,"is_reserved":false,"is_disabled":false,"rental_uris":{"android":"levelo://app?vid=c147f00f-cc50-4327-9033-e511c6e15511","ios":"levelo://app?vid=c147f00f-cc50-4327-9033-e511c6e15511"},"vehicle_type_id":"4","last_reported":1701360582,"current_range_meters":16000,"station_id":"ce4bh192rcd13ifvqdc0","pricing_plan_id":"free"},{"bike_id":"58b9a5da-59f3-4e4f-b0ec-63b6e4a46f4a","system_id":"levelo_inurba_marseille","lat":43.276179,"lon":5.361009,"is_reserved":false,"is_disabled":false,"rental_uris":{"android":"levelo://app?vid=58b9a5da-59f3-4e4f-b0ec-63b6e4a46f4a","ios":"levelo://app?vid=58b9a5da-59f3-4e4f-b0ec-63b6e4a46f4a"},"vehicle_type_id":"4","last_reported":1701360582,"current_range_meters":29200,"station_id":"ce4bgj92rcd13ifvqbe0","pricing_plan_id":"free"},{"bike_id":"6f0a5cfc-c1d3-43ab-833a-cbe3b95e59c9","system_id":"levelo_inurba_marseille","lat":43.28093,"lon":5.39689,"is_reserved":false,"is_disabled":false,"rental_uris":{"android":"levelo://app?vid=6f0a5cfc-c1d3-43ab-833a-cbe3b95e59c9","ios":"levelo://app?vid=6f0a5cfc-c1d3-43ab-833a-cbe3b95e59c9"},"vehicle_type_id":"4","last_reported":1701360582,"current_range_meters":23600,"station_id":"ce4bho12rcd13ifvqh2g","pricing_plan_id":"free"},{"bike_id":"db9d28e1-5935-49f8-a64c-b191b4cd19c2","system_id":"levelo_inurba_marseille","lat":43.280784,"lon":5.396622,"is_reserved":false,"is_disabled":false,"rental_uris":{"android":"levelo://app?vid=db9d28e1-5935-49f8-a64c-b191b4cd19c2","ios":"levelo://app?vid=db9d28e1-5935-49f8-a64c-b191b4cd19c2"},"vehicle_type_id":"4","last_reported":1701360582,"current_range_meters":800,"station_id":"ce4bho12rcd13ifvqh2g","pricing_plan_id":"free"},{"bike_id":"cc28fb87-ce22-4602-a963-8b5e43d8b022","system_id":"levelo_inurba_marseille","lat":43.280784,"lon":5.396622,"is_reserved":false,"is_disabled":false,"rental_uris":{"android":"levelo://app?vid=cc28fb87-ce22-4602-a963-8b5e43d8b022","ios":"levelo://app?vid=cc28fb87-ce22-4602-a963-8b5e43d8b022"},"vehicle_type_id":"4","last_reported":1701360582,"current_range_meters":28400,"station_id":"ce4bho12rcd13ifvqh2g","pricing_plan_id":"free"},{"bike_id":"8cf9ce6f-3074-4bdc-8ce3-b9507f602d59","system_id":"levelo_inurba_marseille","lat":43.2784,"lon":5.39205,"is_reserved":false,"is_disabled":false,"rental_uris":{"android":"levelo://app?vid=8cf9ce6f-3074-4bdc-8ce3-b9507f602d59","ios":"levelo://app?vid=8cf9ce6f-3074-4bdc-8ce3-b9507f602d59"},"vehicle_type_id":"4","last_reported":1701360582,"current_range_meters":20400,"station_id":"ce4bhjp2rcd13ifvqga0","pricing_plan_id":"free"},{"bike_id":"dca4749f-edd1-432e-8e13-dc4b41127511","system_id":"levelo_inurba_marseille","lat":43.279975,"lon":5.40009,"is_reserved":false,"is_disabled":false,"rental_uris":{"android":"levelo://app?vid=dca4749f-edd1-432e-8e13-dc4b41127511","ios":"levelo://app?vid=dca4749f-edd1-432e-8e13-dc4b41127511"},"vehicle_type_id":"4","last_reported":1701360582,"current_range_meters":19600,"station_id":"ce4bho92rcd13ifvqh4g","pricing_plan_id":"free"},{"bike_id":"68234c93-50fa-4eb6-ab5d-05c54968fb5c","system_id":"levelo_inurba_marseille","lat":43.279952,"lon":5.400085,"is_reserved":false,"is_disabled":false,"rental_uris":{"android":"levelo://app?vid=68234c93-50fa-4eb6-ab5d-05c54968fb5c","ios":"levelo://app?vid=68234c93-50fa-4eb6-ab5d-05c54968fb5c"},"vehicle_type_id":"4","last_reported":1701360582,"current_range_meters":31200,"station_id":"ce4bho92rcd13ifvqh4g","pricing_plan_id":"free"},{"bike_id":"2c597c03-cb53-4197-a9e0-ac2aa9e249f1","system_id":"levelo_inurba_marseille","lat":43.317121,"lon":5.423936,"is_reserved":false,"is_disabled":false,"rental_uris":{"android":"levelo://app?vid=2c597c03-cb53-4197-a9e0-ac2aa9e249f1","ios":"levelo://app?vid=2c597c03-cb53-4197-a9e0-ac2aa9e249f1"},"vehicle_type_id":"4","last_reported":1701360582,"current_range_meters":27600,"station_id":"ce4bhp92rcd13ifvqhbg","pricing_plan_id":"free"},{"bike_id":"10d8c945-4c67-47d0-b030-7532e740b09c","system_id":"levelo_inurba_marseille","lat":43.340804,"lon":5.410219,"is_reserved":false,"is_disabled":false,"rental_uris":{"android":"levelo://app?vid=10d8c945-4c67-47d0-b030-7532e740b09c","ios":"levelo://app?vid=10d8c945-4c67-47d0-b030-7532e740b09c"},"vehicle_type_id":"4","last_reported":1701360582,"current_range_meters":11600,"station_id":"ce4bhqh2rcd13ifvqhlg","pricing_plan_id":"free"},{"bike_id":"af47e378-290a-423a-9d72-05feb9e424a6","system_id":"levelo_inurba_marseille","lat":43.2607,"lon":5.393983,"is_reserved":false,"is_disabled":false,"rental_uris":{"android":"levelo://app?vid=af47e378-290a-423a-9d72-05feb9e424a6","ios":"levelo://app?vid=af47e378-290a-423a-9d72-05feb9e424a6"},"vehicle_type_id":"4","last_reported":1701360582,"current_range_meters":6800,"station_id":"ce4bhh92rcd13ifvqfj0","pricing_plan_id":"free"},{"bike_id":"7335a393-cc37-4e1d-b729-82d3cd0e69fb","system_id":"levelo_inurba_marseille","lat":43.29517,"lon":5.42262,"is_reserved":false,"is_disabled":false,"rental_uris":{"android":"levelo://app?vid=7335a393-cc37-4e1d-b729-82d3cd0e69fb","ios":"levelo://app?vid=7335a393-cc37-4e1d-b729-82d3cd0e69fb"},"vehicle_type_id":"4","last_reported":1701360582,"current_range_meters":20000,"station_id":"ce4bhph2rcd13ifvqhdg","pricing_plan_id":"free"},{"bike_id":"f771916b-92bb-4c07-ba9f-3c8e86ae8f0f","system_id":"levelo_inurba_marseille","lat":43.278128,"lon":5.407195,"is_reserved":false,"is_disabled":false,"rental_uris":{"android":"levelo://app?vid=f771916b-92bb-4c07-ba9f-3c8e86ae8f0f","ios":"levelo://app?vid=f771916b-92bb-4c07-ba9f-3c8e86ae8f0f"},"vehicle_type_id":"4","last_reported":1701360582,"current_range_meters":20000,"station_id":"ce4bhnh2rcd13ifvqgtg","pricing_plan_id":"free"},{"bike_id":"97bdd910-2bfd-4537-a998-42eaa61dcc31","system_id":"levelo_inurba_marseille","lat":43.279465,"lon":5.410561,"is_reserved":false,"is_disabled":false,"rental_uris":{"android":"levelo://app?vid=97bdd910-2bfd-4537-a998-42eaa61dcc31","ios":"levelo://app?vid=97bdd910-2bfd-4537-a998-42eaa61dcc31"},"vehicle_type_id":"4","last_reported":1701360582,"current_range_meters":19200,"station_id":"ce4bhnp2rcd13ifvqh0g","pricing_plan_id":"free"},{"bike_id":"dbb73186-d1c6-49d4-ab6d-38802d4878c8","system_id":"levelo_inurba_marseille","lat":43.27949,"lon":5.4105,"is_reserved":false,"is_disabled":false,"rental_uris":{"android":"levelo://app?vid=dbb73186-d1c6-49d4-ab6d-38802d4878c8","ios":"levelo://app?vid=dbb73186-d1c6-49d4-ab6d-38802d4878c8"},"vehicle_type_id":"4","last_reported":1701360582,"current_range_meters":20400,"station_id":"ce4bhnp2rcd13ifvqh0g","pricing_plan_id":"free"},{"bike_id":"3c0d803b-60fd-412c-8583-f7b46e1e4fb4","system_id":"levelo_inurba_marseille","lat":43.27947,"lon":5.41049,"is_reserved":false,"is_disabled":false,"rental_uris":{"android":"levelo://app?vid=3c0d803b-60fd-412c-8583-f7b46e1e4fb4","ios":"levelo://app?vid=3c0d803b-60fd-412c-8583-f7b46e1e4fb4"},"vehicle_type_id":"4","last_reported":1701360582,"current_range_meters":12800,"station_id":"ce4bhnp2rcd13ifvqh0g","pricing_plan_id":"free"},{"bike_id":"213e83a7-63c2-4057-bf0e-a766f08f5ab9","system_id":"levelo_inurba_marseille","lat":43.279033,"lon":5.41225,"is_reserved":false,"is_disabled":false,"rental_uris":{"android":"levelo://app?vid=213e83a7-63c2-4057-bf0e-a766f08f5ab9","ios":"levelo://app?vid=213e83a7-63c2-4057-bf0e-a766f08f5ab9"},"vehicle_type_id":"4","last_reported":1701360582,"current_range_meters":24800,"station_id":"","pricing_plan_id":"free"},{"bike_id":"8e8d349d-09ef-483a-8322-0fd5fbd7b38e","system_id":"levelo_inurba_marseille","lat":43.308051,"lon":5.43527,"is_reserved":false,"is_disabled":false,"rental_uris":{"android":"levelo://app?vid=8e8d349d-09ef-483a-8322-0fd5fbd7b38e","ios":"levelo://app?vid=8e8d349d-09ef-483a-8322-0fd5fbd7b38e"},"vehicle_type_id":"4","last_reported":1701360582,"current_range_meters":27600,"station_id":"ce4bhph2rcd13ifvqheg","pricing_plan_id":"free"},{"bike_id":"e24e6a91-9c5a-4e59-8da0-a4779f4c721c","system_id":"levelo_inurba_marseille","lat":43.308051,"lon":5.43527,"is_reserved":false,"is_disabled":false,"rental_uris":{"android":"levelo://app?vid=e24e6a91-9c5a-4e59-8da0-a4779f4c721c","ios":"levelo://app?vid=e24e6a91-9c5a-4e59-8da0-a4779f4c721c"},"vehicle_type_id":"4","last_reported":1701360582,"current_range_meters":22400,"station_id":"ce4bhph2rcd13ifvqheg","pricing_plan_id":"free"},{"bike_id":"7ab63241-0bea-4919-80fc-6d8eef69395f","system_id":"levelo_inurba_marseille","lat":43.308051,"lon":5.43527,"is_reserved":false,"is_disabled":false,"rental_uris":{"android":"levelo://app?vid=7ab63241-0bea-4919-80fc-6d8eef69395f","ios":"levelo://app?vid=7ab63241-0bea-4919-80fc-6d8eef69395f"},"vehicle_type_id":"4","last_reported":1701360582,"current_range_meters":26400,"station_id":"ce4bhph2rcd13ifvqheg","pricing_plan_id":"free"},{"bike_id":"0fab92d7-00b1-4780-8513-fe77a8df7472","system_id":"levelo_inurba_marseille","lat":43.265569,"lon":5.390047,"is_reserved":false,"is_disabled":false,"rental_uris":{"android":"levelo://app?vid=0fab92d7-00b1-4780-8513-fe77a8df7472","ios":"levelo://app?vid=0fab92d7-00b1-4780-8513-fe77a8df7472"},"vehicle_type_id":"4","last_reported":1701360582,"current_range_meters":19600,"station_id":"ce4bhe12rcd13ifvqf30","pricing_plan_id":"free"},{"bike_id":"6d50931a-5553-495d-be31-bbcf7bdad9de","system_id":"levelo_inurba_marseille","lat":43.31711,"lon":5.43707,"is_reserved":false,"is_disabled":false,"rental_uris":{"android":"levelo://app?vid=6d50931a-5553-495d-be31-bbcf7bdad9de","ios":"levelo://app?vid=6d50931a-5553-495d-be31-bbcf7bdad9de"},"vehicle_type_id":"4","last_reported":1701360582,"current_range_meters":24800,"station_id":"ce4bhp92rcd13ifvqhcg","pricing_plan_id":"free"},{"bike_id":"5b5a837d-69fb-41ae-9d40-70c417f4b01f","system_id":"levelo_inurba_marseille","lat":43.262012,"lon":5.379307,"is_reserved":false,"is_disabled":false,"rental_uris":{"android":"levelo://app?vid=5b5a837d-69fb-41ae-9d40-70c417f4b01f","ios":"levelo://app?vid=5b5a837d-69fb-41ae-9d40-70c417f4b01f"},"vehicle_type_id":"4","last_reported":1701360582,"current_range_meters":1600,"station_id":"ce4bhjp2rcd13ifvqg90","pricing_plan_id":"free"},{"bike_id":"88110bcc-534f-457c-9f85-738566924d64","system_id":"levelo_inurba_marseille","lat":43.271388,"lon":5.409269,"is_reserved":false,"is_disabled":false,"rental_uris":{"android":"levelo://app?vid=88110bcc-534f-457c-9f85-738566924d64","ios":"levelo://app?vid=88110bcc-534f-457c-9f85-738566924d64"},"vehicle_type_id":"4","last_reported":1701360582,"current_range_meters":12000,"station_id":"ce4bhl12rcd13ifvqgf0","pricing_plan_id":"free"},{"bike_id":"884c3bf1-8e53-44f1-9b05-e88ffb23a748","system_id":"levelo_inurba_marseille","lat":43.271388,"lon":5.409269,"is_reserved":false,"is_disabled":false,"rental_uris":{"android":"levelo://app?vid=884c3bf1-8e53-44f1-9b05-e88ffb23a748","ios":"levelo://app?vid=884c3bf1-8e53-44f1-9b05-e88ffb23a748"},"vehicle_type_id":"4","last_reported":1701360582,"current_range_meters":26400,"station_id":"ce4bhl12rcd13ifvqgf0","pricing_plan_id":"free"},{"bike_id":"fbbe584b-5ddf-4533-9b92-0cea8f4ab8a1","system_id":"levelo_inurba_marseille","lat":43.271388,"lon":5.409269,"is_reserved":false,"is_disabled":false,"rental_uris":{"android":"levelo://app?vid=fbbe584b-5ddf-4533-9b92-0cea8f4ab8a1","ios":"levelo://app?vid=fbbe584b-5ddf-4533-9b92-0cea8f4ab8a1"},"vehicle_type_id":"4","last_reported":1701360582,"current_range_meters":0,"station_id":"ce4bhl12rcd13ifvqgf0","pricing_plan_id":"free"},{"bike_id":"a6c8b4fc-d6fe-43ff-94a0-42118537aed5","system_id":"levelo_inurba_marseille","lat":43.271388,"lon":5.409269,"is_reserved":false,"is_disabled":false,"rental_uris":{"android":"levelo://app?vid=a6c8b4fc-d6fe-43ff-94a0-42118537aed5","ios":"levelo://app?vid=a6c8b4fc-d6fe-43ff-94a0-42118537aed5"},"vehicle_type_id":"4","last_reported":1701360582,"current_range_meters":28800,"station_id":"ce4bhl12rcd13ifvqgf0","pricing_plan_id":"free"},{"bike_id":"c89bfee0-bb21-4c59-be43-52231889c4ef","system_id":"levelo_inurba_marseille","lat":43.271368,"lon":5.40928,"is_reserved":false,"is_disabled":false,"rental_uris":{"android":"levelo://app?vid=c89bfee0-bb21-4c59-be43-52231889c4ef","ios":"levelo://app?vid=c89bfee0-bb21-4c59-be43-52231889c4ef"},"vehicle_type_id":"4","last_reported":1701360582,"current_range_meters":20800,"station_id":"ce4bhl12rcd13ifvqgf0","pricing_plan_id":"free"},{"bike_id":"8d61e7c4-9aa1-4ec3-bd4b-5a98d729f9a7","system_id":"levelo_inurba_marseille","lat":43.267959,"lon":5.402685,"is_reserved":false,"is_disabled":false,"rental_uris":{"android":"levelo://app?vid=8d61e7c4-9aa1-4ec3-bd4b-5a98d729f9a7","ios":"levelo://app?vid=8d61e7c4-9aa1-4ec3-bd4b-5a98d729f9a7"},"vehicle_type_id":"4","last_reported":1701360582,"current_range_meters":26800,"station_id":"ce501612rcd8frsf0b60","pricing_plan_id":"free"},{"bike_id":"f0199d75-7a24-466a-b503-ff522a4cd9c6","system_id":"levelo_inurba_marseille","lat":43.29904,"lon":5.43667,"is_reserved":false,"is_disabled":false,"rental_uris":{"android":"levelo://app?vid=f0199d75-7a24-466a-b503-ff522a4cd9c6","ios":"levelo://app?vid=f0199d75-7a24-466a-b503-ff522a4cd9c6"},"vehicle_type_id":"4","last_reported":1701360582,"current_range_meters":24800,"station_id":"ce4bhpp2rcd13ifvqhfg","pricing_plan_id":"free"},{"bike_id":"756979a2-fd14-4620-872a-282b35f74d42","system_id":"levelo_inurba_marseille","lat":43.298768,"lon":5.43643,"is_reserved":false,"is_disabled":false,"rental_uris":{"android":"levelo://app?vid=756979a2-fd14-4620-872a-282b35f74d42","ios":"levelo://app?vid=756979a2-fd14-4620-872a-282b35f74d42"},"vehicle_type_id":"4","last_reported":1701360582,"current_range_meters":26800,"station_id":"ce4bhpp2rcd13ifvqhfg","pricing_plan_id":"free"},{"bike_id":"176acd6c-0265-4056-9701-73c8911ec9a1","system_id":"levelo_inurba_marseille","lat":43.298768,"lon":5.43643,"is_reserved":false,"is_disabled":false,"rental_uris":{"android":"levelo://app?vid=176acd6c-0265-4056-9701-73c8911ec9a1","ios":"levelo://app?vid=176acd6c-0265-4056-9701-73c8911ec9a1"},"vehicle_type_id":"4","last_reported":1701360582,"current_range_meters":27600,"station_id":"ce4bhpp2rcd13ifvqhfg","pricing_plan_id":"free"},{"bike_id":"67e7076d-5178-4f09-8506-c9e55af936ba","system_id":"levelo_inurba_marseille","lat":43.2603,"lon":5.37549,"is_reserved":false,"is_disabled":false,"rental_uris":{"android":"levelo://app?vid=67e7076d-5178-4f09-8506-c9e55af936ba","ios":"levelo://app?vid=67e7076d-5178-4f09-8506-c9e55af936ba"},"vehicle_type_id":"4","last_reported":1701360582,"current_range_meters":13200,"station_id":"ce4bhgh2rcd13ifvqfa0","pricing_plan_id":"free"},{"bike_id":"9cfa8408-ce7d-4d59-827a-0c06ecc94ce4","system_id":"levelo_inurba_marseille","lat":43.26027,"lon":5.37557,"is_reserved":false,"is_disabled":false,"rental_uris":{"android":"levelo://app?vid=9cfa8408-ce7d-4d59-827a-0c06ecc94ce4","ios":"levelo://app?vid=9cfa8408-ce7d-4d59-827a-0c06ecc94ce4"},"vehicle_type_id":"4","last_reported":1701360582,"current_range_meters":21600,"station_id":"ce4bhgh2rcd13ifvqfa0","pricing_plan_id":"free"},{"bike_id":"a5b8874c-e197-4fe6-afeb-9d0d4eb92a57","system_id":"levelo_inurba_marseille","lat":43.281548,"lon":5.42643,"is_reserved":false,"is_disabled":false,"rental_uris":{"android":"levelo://app?vid=a5b8874c-e197-4fe6-afeb-9d0d4eb92a57","ios":"levelo://app?vid=a5b8874c-e197-4fe6-afeb-9d0d4eb92a57"},"vehicle_type_id":"4","last_reported":1701360582,"current_range_meters":18800,"station_id":"ce4bhnh2rcd13ifvqgug","pricing_plan_id":"free"},{"bike_id":"9254a24c-00b1-47de-847a-473f36049b96","system_id":"levelo_inurba_marseille","lat":43.281548,"lon":5.42643,"is_reserved":false,"is_disabled":false,"rental_uris":{"android":"levelo://app?vid=9254a24c-00b1-47de-847a-473f36049b96","ios":"levelo://app?vid=9254a24c-00b1-47de-847a-473f36049b96"},"vehicle_type_id":"4","last_reported":1701360582,"current_range_meters":9200,"station_id":"ce4bhnh2rcd13ifvqgug","pricing_plan_id":"free"},{"bike_id":"817fb685-dc1f-4889-953a-8cbae4cf077e","system_id":"levelo_inurba_marseille","lat":43.281548,"lon":5.42643,"is_reserved":false,"is_disabled":false,"rental_uris":{"android":"levelo://app?vid=817fb685-dc1f-4889-953a-8cbae4cf077e","ios":"levelo://app?vid=817fb685-dc1f-4889-953a-8cbae4cf077e"},"vehicle_type_id":"4","last_reported":1701360582,"current_range_meters":20400,"station_id":"ce4bhnh2rcd13ifvqgug","pricing_plan_id":"free"},{"bike_id":"bed25fa4-bb71-4841-86c8-9533507c6bf0","system_id":"levelo_inurba_marseille","lat":43.281548,"lon":5.42643,"is_reserved":false,"is_disabled":false,"rental_uris":{"android":"levelo://app?vid=bed25fa4-bb71-4841-86c8-9533507c6bf0","ios":"levelo://app?vid=bed25fa4-bb71-4841-86c8-9533507c6bf0"},"vehicle_type_id":"4","last_reported":1701360582,"current_range_meters":23600,"station_id":"ce4bhnh2rcd13ifvqgug","pricing_plan_id":"free"},{"bike_id":"5ad1a66a-6d02-443c-935a-baa6e1b7c5ec","system_id":"levelo_inurba_marseille","lat":43.281548,"lon":5.42643,"is_reserved":false,"is_disabled":false,"rental_uris":{"android":"levelo://app?vid=5ad1a66a-6d02-443c-935a-baa6e1b7c5ec","ios":"levelo://app?vid=5ad1a66a-6d02-443c-935a-baa6e1b7c5ec"},"vehicle_type_id":"4","last_reported":1701360582,"current_range_meters":20000,"station_id":"ce4bhnh2rcd13ifvqgug","pricing_plan_id":"free"},{"bike_id":"c32ee0c6-4335-4bf1-ac94-ae3e4bbdb7a4","system_id":"levelo_inurba_marseille","lat":43.281548,"lon":5.42643,"is_reserved":false,"is_disabled":false,"rental_uris":{"android":"levelo://app?vid=c32ee0c6-4335-4bf1-ac94-ae3e4bbdb7a4","ios":"levelo://app?vid=c32ee0c6-4335-4bf1-ac94-ae3e4bbdb7a4"},"vehicle_type_id":"4","last_reported":1701360582,"current_range_meters":1600,"station_id":"ce4bhnh2rcd13ifvqgug","pricing_plan_id":"free"},{"bike_id":"e3727add-319f-452b-babe-78c9922536d6","system_id":"levelo_inurba_marseille","lat":43.275028,"lon":5.424534,"is_reserved":false,"is_disabled":false,"rental_uris":{"android":"levelo://app?vid=e3727add-319f-452b-babe-78c9922536d6","ios":"levelo://app?vid=e3727add-319f-452b-babe-78c9922536d6"},"vehicle_type_id":"4","last_reported":1701360582,"current_range_meters":25600,"station_id":"ce4bhn92rcd13ifvqgrg","pricing_plan_id":"free"},{"bike_id":"2fff2afc-7dd1-4f8e-adbc-4dc65b7a610f","system_id":"levelo_inurba_marseille","lat":43.25584,"lon":5.38232,"is_reserved":false,"is_disabled":false,"rental_uris":{"android":"levelo://app?vid=2fff2afc-7dd1-4f8e-adbc-4dc65b7a610f","ios":"levelo://app?vid=2fff2afc-7dd1-4f8e-adbc-4dc65b7a610f"},"vehicle_type_id":"4","last_reported":1701360582,"current_range_meters":5200,"station_id":"ce4bhih2rcd13ifvqfs0","pricing_plan_id":"free"},{"bike_id":"85ce7f09-a854-4d4b-b597-b7c1060a8557","system_id":"levelo_inurba_marseille","lat":43.25578,"lon":5.38233,"is_reserved":false,"is_disabled":false,"rental_uris":{"android":"levelo://app?vid=85ce7f09-a854-4d4b-b597-b7c1060a8557","ios":"levelo://app?vid=85ce7f09-a854-4d4b-b597-b7c1060a8557"},"vehicle_type_id":"4","last_reported":1701360582,"current_range_meters":15200,"station_id":"ce4bhih2rcd13ifvqfs0","pricing_plan_id":"free"},{"bike_id":"f04f5712-f6e7-4380-bad6-7bded40a73dc","system_id":"levelo_inurba_marseille","lat":43.25576,"lon":5.38233,"is_reserved":false,"is_disabled":false,"rental_uris":{"android":"levelo://app?vid=f04f5712-f6e7-4380-bad6-7bded40a73dc","ios":"levelo://app?vid=f04f5712-f6e7-4380-bad6-7bded40a73dc"},"vehicle_type_id":"4","last_reported":1701360582,"current_range_meters":17200,"station_id":"ce4bhih2rcd13ifvqfs0","pricing_plan_id":"free"},{"bike_id":"ae6a23ea-ee31-45f5-b93a-58394a56c974","system_id":"levelo_inurba_marseille","lat":43.25575,"lon":5.38234,"is_reserved":false,"is_disabled":false,"rental_uris":{"android":"levelo://app?vid=ae6a23ea-ee31-45f5-b93a-58394a56c974","ios":"levelo://app?vid=ae6a23ea-ee31-45f5-b93a-58394a56c974"},"vehicle_type_id":"4","last_reported":1701360582,"current_range_meters":30000,"station_id":"ce4bhih2rcd13ifvqfs0","pricing_plan_id":"free"},{"bike_id":"d682030e-9a76-40ba-84f3-45788c0d5078","system_id":"levelo_inurba_marseille","lat":43.259013,"lon":5.409301,"is_reserved":false,"is_disabled":false,"rental_uris":{"android":"levelo://app?vid=d682030e-9a76-40ba-84f3-45788c0d5078","ios":"levelo://app?vid=d682030e-9a76-40ba-84f3-45788c0d5078"},"vehicle_type_id":"4","last_reported":1701360582,"current_range_meters":30400,"station_id":"ce4bhm92rcd13ifvqglg","pricing_plan_id":"free"},{"bike_id":"655d507c-99b5-4dee-80a2-eec4a84bf182","system_id":"levelo_inurba_marseille","lat":43.250966,"lon":5.395186,"is_reserved":false,"is_disabled":false,"rental_uris":{"android":"levelo://app?vid=655d507c-99b5-4dee-80a2-eec4a84bf182","ios":"levelo://app?vid=655d507c-99b5-4dee-80a2-eec4a84bf182"},"vehicle_type_id":"4","last_reported":1701360582,"current_range_meters":31200,"station_id":"ce4bhm12rcd13ifvqgkg","pricing_plan_id":"free"},{"bike_id":"cc2f639f-df9b-4e7f-b2df-823bd9a73329","system_id":"levelo_inurba_marseille","lat":43.239588,"lon":5.366238,"is_reserved":false,"is_disabled":false,"rental_uris":{"android":"levelo://app?vid=cc2f639f-df9b-4e7f-b2df-823bd9a73329","ios":"levelo://app?vid=cc2f639f-df9b-4e7f-b2df-823bd9a73329"},"vehicle_type_id":"4","last_reported":1701360582,"current_range_meters":21200,"station_id":"ce4bhi12rcd13ifvqfp0","pricing_plan_id":"free"},{"bike_id":"0031a828-92e9-41d2-942c-8297926aedfc","system_id":"levelo_inurba_marseille","lat":43.257079,"lon":5.411051,"is_reserved":false,"is_disabled":false,"rental_uris":{"android":"levelo://app?vid=0031a828-92e9-41d2-942c-8297926aedfc","ios":"levelo://app?vid=0031a828-92e9-41d2-942c-8297926aedfc"},"vehicle_type_id":"4","last_reported":1701360582,"current_range_meters":31200,"station_id":"ce4bhkp2rcd13ifvqgd0","pricing_plan_id":"free"},{"bike_id":"67e4ea81-e2e3-4466-bb23-1783f0b4c1ac","system_id":"levelo_inurba_marseille","lat":43.257079,"lon":5.411051,"is_reserved":false,"is_disabled":false,"rental_uris":{"android":"levelo://app?vid=67e4ea81-e2e3-4466-bb23-1783f0b4c1ac","ios":"levelo://app?vid=67e4ea81-e2e3-4466-bb23-1783f0b4c1ac"},"vehicle_type_id":"4","last_reported":1701360582,"current_range_meters":800,"station_id":"ce4bhkp2rcd13ifvqgd0","pricing_plan_id":"free"},{"bike_id":"43960d10-74a6-4fc1-a3b6-0252bf79c21d","system_id":"levelo_inurba_marseille","lat":43.2479,"lon":5.374457,"is_reserved":false,"is_disabled":false,"rental_uris":{"android":"levelo://app?vid=43960d10-74a6-4fc1-a3b6-0252bf79c21d","ios":"levelo://app?vid=43960d10-74a6-4fc1-a3b6-0252bf79c21d"},"vehicle_type_id":"4","last_reported":1701360582,"current_range_meters":28400,"station_id":"ce4bhgh2rcd13ifvqfb0","pricing_plan_id":"free"},{"bike_id":"713fb98f-9070-4b07-9618-5c77b7f4cc9f","system_id":"levelo_inurba_marseille","lat":43.250966,"lon":5.395186,"is_reserved":false,"is_disabled":false,"rental_uris":{"android":"levelo://app?vid=713fb98f-9070-4b07-9618-5c77b7f4cc9f","ios":"levelo://app?vid=713fb98f-9070-4b07-9618-5c77b7f4cc9f"},"vehicle_type_id":"4","last_reported":1701360582,"current_range_meters":30800,"station_id":"ce4bhm12rcd13ifvqgkg","pricing_plan_id":"free"},{"bike_id":"9edd13fa-c2c1-4e56-bb59-e4a247ddb6b7","system_id":"levelo_inurba_marseille","lat":43.25102,"lon":5.403214,"is_reserved":false,"is_disabled":false,"rental_uris":{"android":"levelo://app?vid=9edd13fa-c2c1-4e56-bb59-e4a247ddb6b7","ios":"levelo://app?vid=9edd13fa-c2c1-4e56-bb59-e4a247ddb6b7"},"vehicle_type_id":"4","last_reported":1701360582,"current_range_meters":4000,"station_id":"ce4bhlh2rcd13ifvqgig","pricing_plan_id":"free"},{"bike_id":"9d9c6015-cb1a-4d03-a381-d0a9a988c201","system_id":"levelo_inurba_marseille","lat":43.25102,"lon":5.403214,"is_reserved":false,"is_disabled":false,"rental_uris":{"android":"levelo://app?vid=9d9c6015-cb1a-4d03-a381-d0a9a988c201","ios":"levelo://app?vid=9d9c6015-cb1a-4d03-a381-d0a9a988c201"},"vehicle_type_id":"4","last_reported":1701360582,"current_range_meters":24800,"station_id":"ce4bhlh2rcd13ifvqgig","pricing_plan_id":"free"},{"bike_id":"dbde6ce7-94c4-4bd0-ac7a-18fa14a33f4f","system_id":"levelo_inurba_marseille","lat":43.25102,"lon":5.403214,"is_reserved":false,"is_disabled":false,"rental_uris":{"android":"levelo://app?vid=dbde6ce7-94c4-4bd0-ac7a-18fa14a33f4f","ios":"levelo://app?vid=dbde6ce7-94c4-4bd0-ac7a-18fa14a33f4f"},"vehicle_type_id":"4","last_reported":1701360582,"current_range_meters":22400,"station_id":"ce4bhlh2rcd13ifvqgig","pricing_plan_id":"free"},{"bike_id":"46274338-7531-44ee-8066-1fb7da05be34","system_id":"levelo_inurba_marseille","lat":43.243883,"lon":5.370578,"is_reserved":false,"is_disabled":false,"rental_uris":{"android":"levelo://app?vid=46274338-7531-44ee-8066-1fb7da05be34","ios":"levelo://app?vid=46274338-7531-44ee-8066-1fb7da05be34"},"vehicle_type_id":"4","last_reported":1701360582,"current_range_meters":30000,"station_id":"ce4bhnp2rcd13ifvqgvg","pricing_plan_id":"free"},{"bike_id":"8609ba6f-5dba-4e42-821c-263a41645ca4","system_id":"levelo_inurba_marseille","lat":43.243884,"lon":5.370737,"is_reserved":false,"is_disabled":false,"rental_uris":{"android":"levelo://app?vid=8609ba6f-5dba-4e42-821c-263a41645ca4","ios":"levelo://app?vid=8609ba6f-5dba-4e42-821c-263a41645ca4"},"vehicle_type_id":"4","last_reported":1701360582,"current_range_meters":31200,"station_id":"ce4bhhh2rcd13ifvqfk0","pricing_plan_id":"free"},{"bike_id":"2e159999-87b7-4bc7-a918-309c1622eb4c","system_id":"levelo_inurba_marseille","lat":43.243884,"lon":5.370737,"is_reserved":false,"is_disabled":false,"rental_uris":{"android":"levelo://app?vid=2e159999-87b7-4bc7-a918-309c1622eb4c","ios":"levelo://app?vid=2e159999-87b7-4bc7-a918-309c1622eb4c"},"vehicle_type_id":"4","last_reported":1701360582,"current_range_meters":31200,"station_id":"ce4bhhh2rcd13ifvqfk0","pricing_plan_id":"free"},{"bike_id":"31477cac-dad9-40da-a8f0-2b06ddb732dc","system_id":"levelo_inurba_marseille","lat":43.243884,"lon":5.370736,"is_reserved":false,"is_disabled":false,"rental_uris":{"android":"levelo://app?vid=31477cac-dad9-40da-a8f0-2b06ddb732dc","ios":"levelo://app?vid=31477cac-dad9-40da-a8f0-2b06ddb732dc"},"vehicle_type_id":"4","last_reported":1701360582,"current_range_meters":25200,"station_id":"ce4bhhh2rcd13ifvqfk0","pricing_plan_id":"free"},{"bike_id":"dcf0f744-3f5a-450e-95fd-defbd62b841f","system_id":"levelo_inurba_marseille","lat":43.231923,"lon":5.355545,"is_reserved":false,"is_disabled":false,"rental_uris":{"android":"levelo://app?vid=dcf0f744-3f5a-450e-95fd-defbd62b841f","ios":"levelo://app?vid=dcf0f744-3f5a-450e-95fd-defbd62b841f"},"vehicle_type_id":"4","last_reported":1701360582,"current_range_meters":19600,"station_id":"ce4bhu92rcd13ifvqi70","pricing_plan_id":"free"},{"bike_id":"91df8f9a-6a54-46ce-8562-7213a1a5286c","system_id":"levelo_inurba_marseille","lat":43.231919,"lon":5.355532,"is_reserved":false,"is_disabled":false,"rental_uris":{"android":"levelo://app?vid=91df8f9a-6a54-46ce-8562-7213a1a5286c","ios":"levelo://app?vid=91df8f9a-6a54-46ce-8562-7213a1a5286c"},"vehicle_type_id":"4","last_reported":1701360582,"current_range_meters":11600,"station_id":"ce4bhu92rcd13ifvqi70","pricing_plan_id":"free"},{"bike_id":"b37cf8bc-ef87-4960-b38c-3279b894369f","system_id":"levelo_inurba_marseille","lat":43.231923,"lon":5.355545,"is_reserved":false,"is_disabled":false,"rental_uris":{"android":"levelo://app?vid=b37cf8bc-ef87-4960-b38c-3279b894369f","ios":"levelo://app?vid=b37cf8bc-ef87-4960-b38c-3279b894369f"},"vehicle_type_id":"4","last_reported":1701360582,"current_range_meters":31200,"station_id":"ce4bhu92rcd13ifvqi70","pricing_plan_id":"free"},{"bike_id":"d1703505-b125-4a98-a807-11024241bc04","system_id":"levelo_inurba_marseille","lat":43.231923,"lon":5.355545,"is_reserved":false,"is_disabled":false,"rental_uris":{"android":"levelo://app?vid=d1703505-b125-4a98-a807-11024241bc04","ios":"levelo://app?vid=d1703505-b125-4a98-a807-11024241bc04"},"vehicle_type_id":"4","last_reported":1701360582,"current_range_meters":31200,"station_id":"ce4bhu92rcd13ifvqi70","pricing_plan_id":"free"},{"bike_id":"38ab8011-1857-4216-9ef9-24bcf39fa9d6","system_id":"levelo_inurba_marseille","lat":43.231793,"lon":5.400044,"is_reserved":false,"is_disabled":false,"rental_uris":{"android":"levelo://app?vid=38ab8011-1857-4216-9ef9-24bcf39fa9d6","ios":"levelo://app?vid=38ab8011-1857-4216-9ef9-24bcf39fa9d6"},"vehicle_type_id":"4","last_reported":1701360582,"current_range_meters":13600,"station_id":"ce4bhn12rcd13ifvqgqg","pricing_plan_id":"free"},{"bike_id":"8eb0ca37-48be-46c0-a9a9-f5b046dc44f1","system_id":"levelo_inurba_marseille","lat":43.231794,"lon":5.400052,"is_reserved":false,"is_disabled":false,"rental_uris":{"android":"levelo://app?vid=8eb0ca37-48be-46c0-a9a9-f5b046dc44f1","ios":"levelo://app?vid=8eb0ca37-48be-46c0-a9a9-f5b046dc44f1"},"vehicle_type_id":"4","last_reported":1701360582,"current_range_meters":7600,"station_id":"ce4bhn12rcd13ifvqgqg","pricing_plan_id":"free"},{"bike_id":"2ead27ca-9993-400f-be5d-aea199a1cd52","system_id":"levelo_inurba_marseille","lat":43.231794,"lon":5.400052,"is_reserved":false,"is_disabled":false,"rental_uris":{"android":"levelo://app?vid=2ead27ca-9993-400f-be5d-aea199a1cd52","ios":"levelo://app?vid=2ead27ca-9993-400f-be5d-aea199a1cd52"},"vehicle_type_id":"4","last_reported":1701360582,"current_range_meters":23600,"station_id":"ce4bhn12rcd13ifvqgqg","pricing_plan_id":"free"}]}}