{"last_updated":1707764795,"ttl":30,"version":"2.2","data":{"bikes":[{"bike_id":"7a6b3d05-2d06-48ab-a7e9-260ce9f8a583","system_id":"levelo_inurba_marseille","lat":43.312239,"lon":5.368562,"is_reserved":false,"is_disabled":false,"rental_uris":{"android":"levelo://app?vid=7a6b3d05-2d06-48ab-a7e9-260ce9f8a583","ios":"levelo://app?vid=7a6b3d05-2d06-48ab-a7e9-260ce9f8a583"},"vehicle_type_id":"4","last_reported":1707764795,"current_range_meters":16000,"station_id":"ce4bgl92rcd13ifvqbq0","pricing_plan_id":"free"},{"bike_id":"1ce6955c-f913-434e-98aa-b37a2ac719ee","system_id":"levelo_inurba_marseille","lat":43.312239,"lon":5.368562,"is_reserved":false,"is_disabled":false,"rental_uris":{"android":"levelo://app?vid=1ce6955c-f913-434e-98aa-b37a2ac719ee","ios":"levelo://app?vid=1ce6955c-f913-434e-98aa-b37a2ac719ee"},"vehicle_type_id":"4","last_reported":1707764795,"current_range_meters":9200,"station_id":"ce4bgl92rcd13ifvqbq0","pricing_plan_id":"free"},{"bike_id":"7e58920d-b7fb-4e31-b556-ccbedf9e4c24","system_id":"levelo_inurba_marseille","lat":43.309076,"lon":5.368465,"is_reserved":false,"is_disabled":false,"rental_uris":{"android":"levelo://app?vid=7e58920d-b7fb-4e31-b556-ccbedf9e4c24","ios":"levelo://app?vid=7e58920d-b7fb-4e31-b556-ccbedf9e4c24"},"vehicle_type_id":"4","last_reported":1707764795,"current_range_meters":14000,"station_id":"ce4bgn92rcd13ifvqbvg","pricing_plan_id":"free"},{"bike_id":"d1a30fac-ce7c-4373-8c3a-029059931649","system_id":"levelo_inurba_marseille","lat":43.314811,"lon":5.373103,"is_reserved":false,"is_disabled":false,"rental_uris":{"android":"levelo://app?vid=d1a30fac-ce7c-4373-8c3a-029059931649","ios":"levelo://app?vid=d1a30fac-ce7c-4373-8c3a-029059931649"},"vehicle_type_id":"4","last_reported":1707764795,"current_range_meters":3200,"station_id":"ce4bgt12rcd13ifvqcd0","pricing_plan_id":"free"},{"bike_id":"1f8f060c-b497-4313-a965-991bcbb4b5fc","system_id":"levelo_inurba_marseille","lat":43.30909,"lon":5.37177,"is_reserved":false,"is_disabled":false,"rental_uris":{"android":"levelo://app?vid=1f8f060c-b497-4313-a965-991bcbb4b5fc","ios":"levelo://app?vid=1f8f060c-b497-4313-a965-991bcbb4b5fc"},"vehicle_type_id":"4","last_reported":1707764795,"current_range_meters":21600,"station_id":"ce4bguh2rcd13ifvqckg","pricing_plan_id":"free"},{"bike_id":"2af92128-d71d-439c-a970-cf224e01e92e","system_id":"levelo_inurba_marseille","lat":43.309039,"lon":5.371797,"is_reserved":false,"is_disabled":false,"rental_uris":{"android":"levelo://app?vid=2af92128-d71d-439c-a970-cf224e01e92e","ios":"levelo://app?vid=2af92128-d71d-439c-a970-cf224e01e92e"},"vehicle_type_id":"4","last_reported":1707764795,"current_range_meters":3600,"station_id":"ce4bguh2rcd13ifvqckg","pricing_plan_id":"free"},{"bike_id":"9eb02513-166b-46d0-beeb-f43d66dce48b","system_id":"levelo_inurba_marseille","lat":43.305368,"lon":5.367343,"is_reserved":false,"is_disabled":false,"rental_uris":{"android":"levelo://app?vid=9eb02513-166b-46d0-beeb-f43d66dce48b","ios":"levelo://app?vid=9eb02513-166b-46d0-beeb-f43d66dce48b"},"vehicle_type_id":"4","last_reported":1707764795,"current_range_meters":0,"station_id":"ce4bgrp2rcd13ifvqc9g","pricing_plan_id":"free"},{"bike_id":"c3a5ef66-1e07-4656-8d31-e13222f4f090","system_id":"levelo_inurba_marseille","lat":43.305368,"lon":5.367343,"is_reserved":false,"is_disabled":false,"rental_uris":{"android":"levelo://app?vid=c3a5ef66-1e07-4656-8d31-e13222f4f090","ios":"levelo://app?vid=c3a5ef66-1e07-4656-8d31-e13222f4f090"},"vehicle_type_id":"4","last_reported":1707764795,"current_range_meters":0,"station_id":"ce4bgrp2rcd13ifvqc9g","pricing_plan_id":"free"},{"bike_id":"fe391ab5-b40a-4f93-a9d7-1d50ad56e9c8","system_id":"levelo_inurba_marseille","lat":43.305368,"lon":5.367343,"is_reserved":false,"is_disabled":false,"rental_uris":{"android":"levelo://app?vid=fe391ab5-b40a-4f93-a9d7-1d50ad56e9c8","ios":"levelo://app?vid=fe391ab5-b40a-4f93-a9d7-1d50ad56e9c8"},"vehicle_type_id":"4","last_reported":1707764795,"current_range_meters":15600,"station_id":"ce4bgrp2rcd13ifvqc9g","pricing_plan_id":"free"},{"bike_id":"f8108ae9-e51c-4944-93fd-7f26394119ca","system_id":"levelo_inurba_marseille","lat":43.287154,"lon":5.399979,"is_reserved":false,"is_disabled":false,"rental_uris":{"android":"levelo://app?vid=f8108ae9-e51c-4944-93fd-7f26394119ca","ios":"levelo://app?vid=f8108ae9-e51c-4944-93fd-7f26394119ca"},"vehicle_type_id":"4","last_reported":1707764795,"current_range_meters":4400,"station_id":"ce4bho92rcd13ifvqh3g","pricing_plan_id":"free"},{"bike_id":"74c8fcc4-3c8a-43d5-b2b2-6e9373a62083","system_id":"levelo_inurba_marseille","lat":43.305989,"lon":5.37225,"is_reserved":false,"is_disabled":false,"rental_uris":{"android":"levelo://app?vid=74c8fcc4-3c8a-43d5-b2b2-6e9373a62083","ios":"levelo://app?vid=74c8fcc4-3c8a-43d5-b2b2-6e9373a62083"},"vehicle_type_id":"4","last_reported":1707764795,"current_range_meters":10400,"station_id":"ce4bgqh2rcd13ifvqc4g","pricing_plan_id":"free"},{"bike_id":"72df752e-30de-4324-a45f-2d02b1c3d5c5","system_id":"levelo_inurba_marseille","lat":43.305989,"lon":5.37225,"is_reserved":false,"is_disabled":false,"rental_uris":{"android":"levelo://app?vid=72df752e-30de-4324-a45f-2d02b1c3d5c5","ios":"levelo://app?vid=72df752e-30de-4324-a45f-2d02b1c3d5c5"},"vehicle_type_id":"4","last_reported":1707764795,"current_range_meters":400,"station_id":"ce4bgqh2rcd13ifvqc4g","pricing_plan_id":"free"},{"bike_id":"b37daf7f-e9d8-490e-8afe-618ab0303036","system_id":"levelo_inurba_marseille","lat":43.305989,"lon":5.37225,"is_reserved":false,"is_disabled":false,"rental_uris":{"android":"levelo://app?vid=b37daf7f-e9d8-490e-8afe-618ab0303036","ios":"levelo://app?vid=b37daf7f-e9d8-490e-8afe-618ab0303036"},"vehicle_type_id":"4","last_reported":1707764795,"current_range_meters":26800,"station_id":"ce4bgqh2rcd13ifvqc4g","pricing_plan_id":"free"},{"bike_id":"04fc5646-a233-4c97-9e9d-000bf6e08b4b","system_id":"levelo_inurba_marseille","lat":43.31115,"lon":5.37764,"is_reserved":false,"is_disabled":false,"rental_uris":{"android":"levelo://app?vid=04fc5646-a233-4c97-9e9d-000bf6e08b4b","ios":"levelo://app?vid=04fc5646-a233-4c97-9e9d-000bf6e08b4b"},"vehicle_type_id":"4","last_reported":1707764795,"current_range_meters":2400,"station_id":"ce4bgt92rcd13ifvqcg0","pricing_plan_id":"free"},{"bike_id":"ae922ac6-7ea4-40e7-b7de-05671a6b6d7d","system_id":"levelo_inurba_marseille","lat":43.307945,"lon":5.376487,"is_reserved":false,"is_disabled":false,"rental_uris":{"android":"levelo://app?vid=ae922ac6-7ea4-40e7-b7de-05671a6b6d7d","ios":"levelo://app?vid=ae922ac6-7ea4-40e7-b7de-05671a6b6d7d"},"vehicle_type_id":"4","last_reported":1707764795,"current_range_meters":17200,"station_id":"ce4bgv92rcd13ifvqcq0","pricing_plan_id":"free"},{"bike_id":"b79e4acf-8c85-4282-b936-9f7ea069d502","system_id":"levelo_inurba_marseille","lat":43.30791,"lon":5.37653,"is_reserved":false,"is_disabled":false,"rental_uris":{"android":"levelo://app?vid=b79e4acf-8c85-4282-b936-9f7ea069d502","ios":"levelo://app?vid=b79e4acf-8c85-4282-b936-9f7ea069d502"},"vehicle_type_id":"4","last_reported":1707764795,"current_range_meters":0,"station_id":"ce4bgv92rcd13ifvqcq0","pricing_plan_id":"free"},{"bike_id":"ca2b98e2-5a19-4fa8-85ab-2a0ed7883eb8","system_id":"levelo_inurba_marseille","lat":43.317075,"lon":5.377367,"is_reserved":false,"is_disabled":false,"rental_uris":{"android":"levelo://app?vid=ca2b98e2-5a19-4fa8-85ab-2a0ed7883eb8","ios":"levelo://app?vid=ca2b98e2-5a19-4fa8-85ab-2a0ed7883eb8"},"vehicle_type_id":"4","last_reported":1707764795,"current_range_meters":2400,"station_id":"ce4bgth2rcd13ifvqch0","pricing_plan_id":"free"},{"bike_id":"9a525516-b250-4705-b9fd-52b1016ae2b8","system_id":"levelo_inurba_marseille","lat":43.317075,"lon":5.377367,"is_reserved":false,"is_disabled":false,"rental_uris":{"android":"levelo://app?vid=9a525516-b250-4705-b9fd-52b1016ae2b8","ios":"levelo://app?vid=9a525516-b250-4705-b9fd-52b1016ae2b8"},"vehicle_type_id":"4","last_reported":1707764795,"current_range_meters":7600,"station_id":"ce4bgth2rcd13ifvqch0","pricing_plan_id":"free"},{"bike_id":"1d35b594-82dc-4c63-8c2a-5a6f605778b7","system_id":"levelo_inurba_marseille","lat":43.317075,"lon":5.377367,"is_reserved":false,"is_disabled":false,"rental_uris":{"android":"levelo://app?vid=1d35b594-82dc-4c63-8c2a-5a6f605778b7","ios":"levelo://app?vid=1d35b594-82dc-4c63-8c2a-5a6f605778b7"},"vehicle_type_id":"4","last_reported":1707764795,"current_range_meters":25600,"station_id":"ce4bgth2rcd13ifvqch0","pricing_plan_id":"free"},{"bike_id":"3ef00240-31df-4be9-bfe9-27658bdcd6d5","system_id":"levelo_inurba_marseille","lat":43.317075,"lon":5.377367,"is_reserved":false,"is_disabled":false,"rental_uris":{"android":"levelo://app?vid=3ef00240-31df-4be9-bfe9-27658bdcd6d5","ios":"levelo://app?vid=3ef00240-31df-4be9-bfe9-27658bdcd6d5"},"vehicle_type_id":"4","last_reported":1707764795,"current_range_meters":18800,"station_id":"ce4bgth2rcd13ifvqch0","pricing_plan_id":"free"},{"bike_id":"6c7eb289-c43e-402b-a39b-aeff7faf73e6","system_id":"levelo_inurba_marseille","lat":43.321766,"lon":5.368584,"is_reserved":false,"is_disabled":false,"rental_uris":{"android":"levelo://app?vid=6c7eb289-c43e-402b-a39b-aeff7faf73e6","ios":"levelo://app?vid=6c7eb289-c43e-402b-a39b-aeff7faf73e6"},"vehicle_type_id":"4","last_reported":1707764795,"current_range_meters":1200,"station_id":"","pricing_plan_id":"free"},{"bike_id":"0521a418-837f-4447-ba81-1f8196478b4c","system_id":"levelo_inurba_marseille","lat":43.303046,"lon":5.368981,"is_reserved":false,"is_disabled":false,"rental_uris":{"android":"levelo://app?vid=0521a418-837f-4447-ba81-1f8196478b4c","ios":"levelo://app?vid=0521a418-837f-4447-ba81-1f8196478b4c"},"vehicle_type_id":"4","last_reported":1707764795,"current_range_meters":11600,"station_id":"ce4bgqh2rcd13ifvqc5g","pricing_plan_id":"free"},{"bike_id":"9d70865e-5b63-4555-b305-25f20871b6e1","system_id":"levelo_inurba_marseille","lat":43.30304,"lon":5.368987,"is_reserved":false,"is_disabled":false,"rental_uris":{"android":"levelo://app?vid=9d70865e-5b63-4555-b305-25f20871b6e1","ios":"levelo://app?vid=9d70865e-5b63-4555-b305-25f20871b6e1"},"vehicle_type_id":"4","last_reported":1707764795,"current_range_meters":800,"station_id":"ce4bgqh2rcd13ifvqc5g","pricing_plan_id":"free"},{"bike_id":"bb491b83-1680-403b-8fc3-f5c7bc2cff60","system_id":"levelo_inurba_marseille","lat":43.315293,"lon":5.380349,"is_reserved":false,"is_disabled":false,"rental_uris":{"android":"levelo://app?vid=bb491b83-1680-403b-8fc3-f5c7bc2cff60","ios":"levelo://app?vid=bb491b83-1680-403b-8fc3-f5c7bc2cff60"},"vehicle_type_id":"4","last_reported":1707764795,"current_range_meters":28400,"station_id":"ce4bhsp2rcd13ifvqi50","pricing_plan_id":"free"},{"bike_id":"54ed32f1-fb83-4b4b-984f-6e7263190313","system_id":"levelo_inurba_marseille","lat":43.315293,"lon":5.380349,"is_reserved":false,"is_disabled":false,"rental_uris":{"android":"levelo://app?vid=54ed32f1-fb83-4b4b-984f-6e7263190313","ios":"levelo://app?vid=54ed32f1-fb83-4b4b-984f-6e7263190313"},"vehicle_type_id":"4","last_reported":1707764795,"current_range_meters":27600,"station_id":"ce4bhsp2rcd13ifvqi50","pricing_plan_id":"free"},{"bike_id":"dca02982-a8ca-4f8f-99aa-c4c50c3dc6cf","system_id":"levelo_inurba_marseille","lat":43.32273,"lon":5.36961,"is_reserved":false,"is_disabled":false,"rental_uris":{"android":"levelo://app?vid=dca02982-a8ca-4f8f-99aa-c4c50c3dc6cf","ios":"levelo://app?vid=dca02982-a8ca-4f8f-99aa-c4c50c3dc6cf"},"vehicle_type_id":"4","last_reported":1707764795,"current_range_meters":14000,"station_id":"","pricing_plan_id":"free"},{"bike_id":"c03f6c55-0e40-47fd-bcc4-a7adbe06e265","system_id":"levelo_inurba_marseille","lat":43.301939,"lon":5.366286,"is_reserved":false,"is_disabled":false,"rental_uris":{"android":"levelo://app?vid=c03f6c55-0e40-47fd-bcc4-a7adbe06e265","ios":"levelo://app?vid=c03f6c55-0e40-47fd-bcc4-a7adbe06e265"},"vehicle_type_id":"4","last_reported":1707764795,"current_range_meters":15200,"station_id":"ce4bgrh2rcd13ifvqc8g","pricing_plan_id":"free"},{"bike_id":"e879d3a3-e564-4875-9de3-fd98166c4e91","system_id":"levelo_inurba_marseille","lat":43.301939,"lon":5.366286,"is_reserved":false,"is_disabled":false,"rental_uris":{"android":"levelo://app?vid=e879d3a3-e564-4875-9de3-fd98166c4e91","ios":"levelo://app?vid=e879d3a3-e564-4875-9de3-fd98166c4e91"},"vehicle_type_id":"4","last_reported":1707764795,"current_range_meters":9200,"station_id":"ce4bgrh2rcd13ifvqc8g","pricing_plan_id":"free"},{"bike_id":"57bc12b2-c694-4aec-a06e-08344f5bacfc","system_id":"levelo_inurba_marseille","lat":43.308012,"lon":5.381511,"is_reserved":false,"is_disabled":false,"rental_uris":{"android":"levelo://app?vid=57bc12b2-c694-4aec-a06e-08344f5bacfc","ios":"levelo://app?vid=57bc12b2-c694-4aec-a06e-08344f5bacfc"},"vehicle_type_id":"4","last_reported":1707764795,"current_range_meters":800,"station_id":"ce4bgt12rcd13ifvqce0","pricing_plan_id":"free"},{"bike_id":"8232abe1-c88e-46d3-8b36-c120206370a0","system_id":"levelo_inurba_marseille","lat":43.308012,"lon":5.381511,"is_reserved":false,"is_disabled":false,"rental_uris":{"android":"levelo://app?vid=8232abe1-c88e-46d3-8b36-c120206370a0","ios":"levelo://app?vid=8232abe1-c88e-46d3-8b36-c120206370a0"},"vehicle_type_id":"4","last_reported":1707764795,"current_range_meters":14800,"station_id":"ce4bgt12rcd13ifvqce0","pricing_plan_id":"free"},{"bike_id":"72abc5a5-d8e7-400c-9baa-46b30925b273","system_id":"levelo_inurba_marseille","lat":43.308012,"lon":5.381511,"is_reserved":false,"is_disabled":false,"rental_uris":{"android":"levelo://app?vid=72abc5a5-d8e7-400c-9baa-46b30925b273","ios":"levelo://app?vid=72abc5a5-d8e7-400c-9baa-46b30925b273"},"vehicle_type_id":"4","last_reported":1707764795,"current_range_meters":13200,"station_id":"ce4bgt12rcd13ifvqce0","pricing_plan_id":"free"},{"bike_id":"32724509-3d38-4ab7-9b26-a614a49b47d6","system_id":"levelo_inurba_marseille","lat":43.304606,"lon":5.379026,"is_reserved":false,"is_disabled":false,"rental_uris":{"android":"levelo://app?vid=32724509-3d38-4ab7-9b26-a614a49b47d6","ios":"levelo://app?vid=32724509-3d38-4ab7-9b26-a614a49b47d6"},"vehicle_type_id":"4","last_reported":1707764795,"current_range_meters":2400,"station_id":"ce4bgup2rcd13ifvqcn0","pricing_plan_id":"free"},{"bike_id":"cd19cbd2-fdc9-4ad6-b545-da608836247c","system_id":"levelo_inurba_marseille","lat":43.324771,"lon":5.36557,"is_reserved":false,"is_disabled":false,"rental_uris":{"android":"levelo://app?vid=cd19cbd2-fdc9-4ad6-b545-da608836247c","ios":"levelo://app?vid=cd19cbd2-fdc9-4ad6-b545-da608836247c"},"vehicle_type_id":"4","last_reported":1707764795,"current_range_meters":3200,"station_id":"ce4bhs12rcd13ifvqhvg","pricing_plan_id":"free"},{"bike_id":"a34a2f83-cbcd-4c60-acc0-2f59774cd82e","system_id":"levelo_inurba_marseille","lat":43.324771,"lon":5.36557,"is_reserved":false,"is_disabled":false,"rental_uris":{"android":"levelo://app?vid=a34a2f83-cbcd-4c60-acc0-2f59774cd82e","ios":"levelo://app?vid=a34a2f83-cbcd-4c60-acc0-2f59774cd82e"},"vehicle_type_id":"4","last_reported":1707764795,"current_range_meters":5200,"station_id":"ce4bhs12rcd13ifvqhvg","pricing_plan_id":"free"},{"bike_id":"029680d5-1165-402e-be72-7276948f0a74","system_id":"levelo_inurba_marseille","lat":43.310804,"lon":5.38359,"is_reserved":false,"is_disabled":false,"rental_uris":{"android":"levelo://app?vid=029680d5-1165-402e-be72-7276948f0a74","ios":"levelo://app?vid=029680d5-1165-402e-be72-7276948f0a74"},"vehicle_type_id":"4","last_reported":1707764795,"current_range_meters":6000,"station_id":"ce4bgv92rcd13ifvqcr0","pricing_plan_id":"free"},{"bike_id":"ae102b04-dfae-41a7-a671-5670341330eb","system_id":"levelo_inurba_marseille","lat":43.310804,"lon":5.38359,"is_reserved":false,"is_disabled":false,"rental_uris":{"android":"levelo://app?vid=ae102b04-dfae-41a7-a671-5670341330eb","ios":"levelo://app?vid=ae102b04-dfae-41a7-a671-5670341330eb"},"vehicle_type_id":"4","last_reported":1707764795,"current_range_meters":400,"station_id":"ce4bgv92rcd13ifvqcr0","pricing_plan_id":"free"},{"bike_id":"4346c20a-921c-4bfc-a7fe-078ace9784a9","system_id":"levelo_inurba_marseille","lat":43.310804,"lon":5.38359,"is_reserved":false,"is_disabled":false,"rental_uris":{"android":"levelo://app?vid=4346c20a-921c-4bfc-a7fe-078ace9784a9","ios":"levelo://app?vid=4346c20a-921c-4bfc-a7fe-078ace9784a9"},"vehicle_type_id":"4","last_reported":1707764795,"current_range_meters":5600,"station_id":"ce4bgv92rcd13ifvqcr0","pricing_plan_id":"free"},{"bike_id":"742623c4-35b0-4a54-bcfb-8b45d980d2ae","system_id":"levelo_inurba_marseille","lat":43.302784,"lon":5.377158,"is_reserved":false,"is_disabled":false,"rental_uris":{"android":"levelo://app?vid=742623c4-35b0-4a54-bcfb-8b45d980d2ae","ios":"levelo://app?vid=742623c4-35b0-4a54-bcfb-8b45d980d2ae"},"vehicle_type_id":"4","last_reported":1707764795,"current_range_meters":11200,"station_id":"ce4bguh2rcd13ifvqcj0","pricing_plan_id":"free"},{"bike_id":"257d4313-5d87-474d-abda-1d3213d874a7","system_id":"levelo_inurba_marseille","lat":43.30143,"lon":5.37413,"is_reserved":false,"is_disabled":false,"rental_uris":{"android":"levelo://app?vid=257d4313-5d87-474d-abda-1d3213d874a7","ios":"levelo://app?vid=257d4313-5d87-474d-abda-1d3213d874a7"},"vehicle_type_id":"4","last_reported":1707764795,"current_range_meters":7600,"station_id":"ce4bgs92rcd13ifvqcc0","pricing_plan_id":"free"},{"bike_id":"d5936a56-3f9e-4802-9d89-84da19e47e48","system_id":"levelo_inurba_marseille","lat":43.30143,"lon":5.37413,"is_reserved":false,"is_disabled":false,"rental_uris":{"android":"levelo://app?vid=d5936a56-3f9e-4802-9d89-84da19e47e48","ios":"levelo://app?vid=d5936a56-3f9e-4802-9d89-84da19e47e48"},"vehicle_type_id":"4","last_reported":1707764795,"current_range_meters":0,"station_id":"ce4bgs92rcd13ifvqcc0","pricing_plan_id":"free"},{"bike_id":"2c22e086-344d-466d-9a29-400a3159186e","system_id":"levelo_inurba_marseille","lat":43.31999,"lon":5.38153,"is_reserved":false,"is_disabled":false,"rental_uris":{"android":"levelo://app?vid=2c22e086-344d-466d-9a29-400a3159186e","ios":"levelo://app?vid=2c22e086-344d-466d-9a29-400a3159186e"},"vehicle_type_id":"4","last_reported":1707764795,"current_range_meters":12000,"station_id":"ce4bhr12rcd13ifvqhpg","pricing_plan_id":"free"},{"bike_id":"eef421ab-b8b4-44b0-8692-6f744b0dfa34","system_id":"levelo_inurba_marseille","lat":43.32,"lon":5.3816,"is_reserved":false,"is_disabled":false,"rental_uris":{"android":"levelo://app?vid=eef421ab-b8b4-44b0-8692-6f744b0dfa34","ios":"levelo://app?vid=eef421ab-b8b4-44b0-8692-6f744b0dfa34"},"vehicle_type_id":"4","last_reported":1707764795,"current_range_meters":17200,"station_id":"ce4bhr12rcd13ifvqhpg","pricing_plan_id":"free"},{"bike_id":"68ea133a-6c8c-4500-8dbf-a6144f869869","system_id":"levelo_inurba_marseille","lat":43.32,"lon":5.381668,"is_reserved":false,"is_disabled":false,"rental_uris":{"android":"levelo://app?vid=68ea133a-6c8c-4500-8dbf-a6144f869869","ios":"levelo://app?vid=68ea133a-6c8c-4500-8dbf-a6144f869869"},"vehicle_type_id":"4","last_reported":1707764795,"current_range_meters":0,"station_id":"ce4bhr12rcd13ifvqhpg","pricing_plan_id":"free"},{"bike_id":"ec59000e-1431-4b94-9efa-61772203a39e","system_id":"levelo_inurba_marseille","lat":43.31999,"lon":5.3817,"is_reserved":false,"is_disabled":false,"rental_uris":{"android":"levelo://app?vid=ec59000e-1431-4b94-9efa-61772203a39e","ios":"levelo://app?vid=ec59000e-1431-4b94-9efa-61772203a39e"},"vehicle_type_id":"4","last_reported":1707764795,"current_range_meters":1600,"station_id":"ce4bhr12rcd13ifvqhpg","pricing_plan_id":"free"},{"bike_id":"99f178d9-505d-4ed3-938a-17efd300cb81","system_id":"levelo_inurba_marseille","lat":43.313571,"lon":5.384829,"is_reserved":false,"is_disabled":false,"rental_uris":{"android":"levelo://app?vid=99f178d9-505d-4ed3-938a-17efd300cb81","ios":"levelo://app?vid=99f178d9-505d-4ed3-938a-17efd300cb81"},"vehicle_type_id":"4","last_reported":1707764795,"current_range_meters":7200,"station_id":"ce4bgt92rcd13ifvqcf0","pricing_plan_id":"free"},{"bike_id":"9392ded8-2c59-4515-9ebd-1d459524ab76","system_id":"levelo_inurba_marseille","lat":43.313571,"lon":5.384829,"is_reserved":false,"is_disabled":false,"rental_uris":{"android":"levelo://app?vid=9392ded8-2c59-4515-9ebd-1d459524ab76","ios":"levelo://app?vid=9392ded8-2c59-4515-9ebd-1d459524ab76"},"vehicle_type_id":"4","last_reported":1707764795,"current_range_meters":29200,"station_id":"ce4bgt92rcd13ifvqcf0","pricing_plan_id":"free"},{"bike_id":"58e0173c-afe8-4d90-9204-7b61ff44e08d","system_id":"levelo_inurba_marseille","lat":43.299724,"lon":5.371829,"is_reserved":false,"is_disabled":false,"rental_uris":{"android":"levelo://app?vid=58e0173c-afe8-4d90-9204-7b61ff44e08d","ios":"levelo://app?vid=58e0173c-afe8-4d90-9204-7b61ff44e08d"},"vehicle_type_id":"4","last_reported":1707764795,"current_range_meters":18000,"station_id":"ce4bgr92rcd13ifvqc7g","pricing_plan_id":"free"},{"bike_id":"1e15e70e-4188-473c-895a-ba5d46a256d9","system_id":"levelo_inurba_marseille","lat":43.2986,"lon":5.36282,"is_reserved":false,"is_disabled":false,"rental_uris":{"android":"levelo://app?vid=1e15e70e-4188-473c-895a-ba5d46a256d9","ios":"levelo://app?vid=1e15e70e-4188-473c-895a-ba5d46a256d9"},"vehicle_type_id":"4","last_reported":1707764795,"current_range_meters":13600,"station_id":"ce4bgpp2rcd13ifvqc3g","pricing_plan_id":"free"},{"bike_id":"1e65f469-019c-4714-a330-ed9f0d796f84","system_id":"levelo_inurba_marseille","lat":43.31155,"lon":5.38687,"is_reserved":false,"is_disabled":false,"rental_uris":{"android":"levelo://app?vid=1e65f469-019c-4714-a330-ed9f0d796f84","ios":"levelo://app?vid=1e65f469-019c-4714-a330-ed9f0d796f84"},"vehicle_type_id":"4","last_reported":1707764795,"current_range_meters":19200,"station_id":"ce4bgv12rcd13ifvqcp0","pricing_plan_id":"free"},{"bike_id":"057c834a-3b23-465d-81b8-226cb64e41b3","system_id":"levelo_inurba_marseille","lat":43.29847,"lon":5.36282,"is_reserved":false,"is_disabled":false,"rental_uris":{"android":"levelo://app?vid=057c834a-3b23-465d-81b8-226cb64e41b3","ios":"levelo://app?vid=057c834a-3b23-465d-81b8-226cb64e41b3"},"vehicle_type_id":"4","last_reported":1707764795,"current_range_meters":20000,"station_id":"ce4bgpp2rcd13ifvqc3g","pricing_plan_id":"free"},{"bike_id":"ddcab133-7be7-43ae-88b0-9f13a2545790","system_id":"levelo_inurba_marseille","lat":43.29846,"lon":5.36268,"is_reserved":false,"is_disabled":false,"rental_uris":{"android":"levelo://app?vid=ddcab133-7be7-43ae-88b0-9f13a2545790","ios":"levelo://app?vid=ddcab133-7be7-43ae-88b0-9f13a2545790"},"vehicle_type_id":"4","last_reported":1707764795,"current_range_meters":2800,"station_id":"ce4bgpp2rcd13ifvqc3g","pricing_plan_id":"free"},{"bike_id":"5913f2da-0ca3-42d7-b269-90ab64567ca1","system_id":"levelo_inurba_marseille","lat":43.29844,"lon":5.36276,"is_reserved":false,"is_disabled":false,"rental_uris":{"android":"levelo://app?vid=5913f2da-0ca3-42d7-b269-90ab64567ca1","ios":"levelo://app?vid=5913f2da-0ca3-42d7-b269-90ab64567ca1"},"vehicle_type_id":"4","last_reported":1707764795,"current_range_meters":7600,"station_id":"ce4bgpp2rcd13ifvqc3g","pricing_plan_id":"free"},{"bike_id":"7e56e9e4-7336-4103-8304-4b3610a29f19","system_id":"levelo_inurba_marseille","lat":43.29843,"lon":5.36278,"is_reserved":false,"is_disabled":false,"rental_uris":{"android":"levelo://app?vid=7e56e9e4-7336-4103-8304-4b3610a29f19","ios":"levelo://app?vid=7e56e9e4-7336-4103-8304-4b3610a29f19"},"vehicle_type_id":"4","last_reported":1707764795,"current_range_meters":14000,"station_id":"ce4bgpp2rcd13ifvqc3g","pricing_plan_id":"free"},{"bike_id":"df926621-1439-451b-9bc3-0b28d12d29e6","system_id":"levelo_inurba_marseille","lat":43.29842,"lon":5.36281,"is_reserved":false,"is_disabled":false,"rental_uris":{"android":"levelo://app?vid=df926621-1439-451b-9bc3-0b28d12d29e6","ios":"levelo://app?vid=df926621-1439-451b-9bc3-0b28d12d29e6"},"vehicle_type_id":"4","last_reported":1707764795,"current_range_meters":17600,"station_id":"ce4bgpp2rcd13ifvqc3g","pricing_plan_id":"free"},{"bike_id":"31f411cb-b013-41ee-aa3f-f5fbe312101e","system_id":"levelo_inurba_marseille","lat":43.29842,"lon":5.36279,"is_reserved":false,"is_disabled":false,"rental_uris":{"android":"levelo://app?vid=31f411cb-b013-41ee-aa3f-f5fbe312101e","ios":"levelo://app?vid=31f411cb-b013-41ee-aa3f-f5fbe312101e"},"vehicle_type_id":"4","last_reported":1707764795,"current_range_meters":6000,"station_id":"ce4bgpp2rcd13ifvqc3g","pricing_plan_id":"free"},{"bike_id":"ea5fb971-c97b-4a01-a3b5-274758b08e8c","system_id":"levelo_inurba_marseille","lat":43.29841,"lon":5.36271,"is_reserved":false,"is_disabled":false,"rental_uris":{"android":"levelo://app?vid=ea5fb971-c97b-4a01-a3b5-274758b08e8c","ios":"levelo://app?vid=ea5fb971-c97b-4a01-a3b5-274758b08e8c"},"vehicle_type_id":"4","last_reported":1707764795,"current_range_meters":17200,"station_id":"ce4bgpp2rcd13ifvqc3g","pricing_plan_id":"free"},{"bike_id":"08e204be-3f83-4527-824e-f22d5c1a5265","system_id":"levelo_inurba_marseille","lat":43.29841,"lon":5.36267,"is_reserved":false,"is_disabled":false,"rental_uris":{"android":"levelo://app?vid=08e204be-3f83-4527-824e-f22d5c1a5265","ios":"levelo://app?vid=08e204be-3f83-4527-824e-f22d5c1a5265"},"vehicle_type_id":"4","last_reported":1707764795,"current_range_meters":25600,"station_id":"ce4bgpp2rcd13ifvqc3g","pricing_plan_id":"free"},{"bike_id":"11a8382c-f5bc-46b9-83ca-f4572351bc1f","system_id":"levelo_inurba_marseille","lat":43.2984,"lon":5.36272,"is_reserved":false,"is_disabled":false,"rental_uris":{"android":"levelo://app?vid=11a8382c-f5bc-46b9-83ca-f4572351bc1f","ios":"levelo://app?vid=11a8382c-f5bc-46b9-83ca-f4572351bc1f"},"vehicle_type_id":"4","last_reported":1707764795,"current_range_meters":15200,"station_id":"ce4bgpp2rcd13ifvqc3g","pricing_plan_id":"free"},{"bike_id":"bdbe5120-644f-45de-80ed-36ed1f4c1194","system_id":"levelo_inurba_marseille","lat":43.29838,"lon":5.36272,"is_reserved":false,"is_disabled":false,"rental_uris":{"android":"levelo://app?vid=bdbe5120-644f-45de-80ed-36ed1f4c1194","ios":"levelo://app?vid=bdbe5120-644f-45de-80ed-36ed1f4c1194"},"vehicle_type_id":"4","last_reported":1707764795,"current_range_meters":14000,"station_id":"ce4bgpp2rcd13ifvqc3g","pricing_plan_id":"free"},{"bike_id":"b296dbe0-a8ce-4430-b128-464bfc32d8d0","system_id":"levelo_inurba_marseille","lat":43.298433,"lon":5.362774,"is_reserved":false,"is_disabled":false,"rental_uris":{"android":"levelo://app?vid=b296dbe0-a8ce-4430-b128-464bfc32d8d0","ios":"levelo://app?vid=b296dbe0-a8ce-4430-b128-464bfc32d8d0"},"vehicle_type_id":"4","last_reported":1707764795,"current_range_meters":22400,"station_id":"ce4bgpp2rcd13ifvqc3g","pricing_plan_id":"free"},{"bike_id":"b1f81452-75a7-4d41-a362-a8a7698168aa","system_id":"levelo_inurba_marseille","lat":43.29835,"lon":5.36274,"is_reserved":false,"is_disabled":false,"rental_uris":{"android":"levelo://app?vid=b1f81452-75a7-4d41-a362-a8a7698168aa","ios":"levelo://app?vid=b1f81452-75a7-4d41-a362-a8a7698168aa"},"vehicle_type_id":"4","last_reported":1707764795,"current_range_meters":20800,"station_id":"ce4bgpp2rcd13ifvqc3g","pricing_plan_id":"free"},{"bike_id":"056e0c97-3d73-4ac3-8c7d-adf14ab33ce8","system_id":"levelo_inurba_marseille","lat":43.299128,"lon":5.374718,"is_reserved":false,"is_disabled":false,"rental_uris":{"android":"levelo://app?vid=056e0c97-3d73-4ac3-8c7d-adf14ab33ce8","ios":"levelo://app?vid=056e0c97-3d73-4ac3-8c7d-adf14ab33ce8"},"vehicle_type_id":"4","last_reported":1707764795,"current_range_meters":0,"station_id":"ce4bgjh2rcd13ifvqbg0","pricing_plan_id":"free"},{"bike_id":"8f269083-bc96-4812-8634-8ef1bcc966b1","system_id":"levelo_inurba_marseille","lat":43.311722,"lon":5.387247,"is_reserved":false,"is_disabled":false,"rental_uris":{"android":"levelo://app?vid=8f269083-bc96-4812-8634-8ef1bcc966b1","ios":"levelo://app?vid=8f269083-bc96-4812-8634-8ef1bcc966b1"},"vehicle_type_id":"4","last_reported":1707764795,"current_range_meters":26000,"station_id":"ce4bgv12rcd13ifvqcp0","pricing_plan_id":"free"},{"bike_id":"58e8b243-155b-48d7-967f-0dee17133cb5","system_id":"levelo_inurba_marseille","lat":43.3118,"lon":5.38721,"is_reserved":false,"is_disabled":false,"rental_uris":{"android":"levelo://app?vid=58e8b243-155b-48d7-967f-0dee17133cb5","ios":"levelo://app?vid=58e8b243-155b-48d7-967f-0dee17133cb5"},"vehicle_type_id":"4","last_reported":1707764795,"current_range_meters":16400,"station_id":"ce4bgv12rcd13ifvqcp0","pricing_plan_id":"free"},{"bike_id":"e5750477-e3f2-40a2-b1f6-91d5216398f6","system_id":"levelo_inurba_marseille","lat":43.32289,"lon":5.38258,"is_reserved":false,"is_disabled":false,"rental_uris":{"android":"levelo://app?vid=e5750477-e3f2-40a2-b1f6-91d5216398f6","ios":"levelo://app?vid=e5750477-e3f2-40a2-b1f6-91d5216398f6"},"vehicle_type_id":"4","last_reported":1707764795,"current_range_meters":23600,"station_id":"ce4bhr12rcd13ifvqhqg","pricing_plan_id":"free"},{"bike_id":"527b6507-a86f-47b7-9c36-9aeccc7f6780","system_id":"levelo_inurba_marseille","lat":43.322881,"lon":5.382594,"is_reserved":false,"is_disabled":false,"rental_uris":{"android":"levelo://app?vid=527b6507-a86f-47b7-9c36-9aeccc7f6780","ios":"levelo://app?vid=527b6507-a86f-47b7-9c36-9aeccc7f6780"},"vehicle_type_id":"4","last_reported":1707764795,"current_range_meters":28000,"station_id":"ce4bhr12rcd13ifvqhqg","pricing_plan_id":"free"},{"bike_id":"d16915ab-365b-49c0-8e2e-1059f74f084d","system_id":"levelo_inurba_marseille","lat":43.32287,"lon":5.38265,"is_reserved":false,"is_disabled":false,"rental_uris":{"android":"levelo://app?vid=d16915ab-365b-49c0-8e2e-1059f74f084d","ios":"levelo://app?vid=d16915ab-365b-49c0-8e2e-1059f74f084d"},"vehicle_type_id":"4","last_reported":1707764795,"current_range_meters":22800,"station_id":"ce4bhr12rcd13ifvqhqg","pricing_plan_id":"free"},{"bike_id":"beb3e36f-3f99-4dfc-841c-74803ce2e6c8","system_id":"levelo_inurba_marseille","lat":43.32291,"lon":5.38264,"is_reserved":false,"is_disabled":false,"rental_uris":{"android":"levelo://app?vid=beb3e36f-3f99-4dfc-841c-74803ce2e6c8","ios":"levelo://app?vid=beb3e36f-3f99-4dfc-841c-74803ce2e6c8"},"vehicle_type_id":"4","last_reported":1707764795,"current_range_meters":0,"station_id":"ce4bhr12rcd13ifvqhqg","pricing_plan_id":"free"},{"bike_id":"33170a3c-d249-42cf-a23e-db8cbeecfd39","system_id":"levelo_inurba_marseille","lat":43.32289,"lon":5.38269,"is_reserved":false,"is_disabled":false,"rental_uris":{"android":"levelo://app?vid=33170a3c-d249-42cf-a23e-db8cbeecfd39","ios":"levelo://app?vid=33170a3c-d249-42cf-a23e-db8cbeecfd39"},"vehicle_type_id":"4","last_reported":1707764795,"current_range_meters":9600,"station_id":"ce4bhr12rcd13ifvqhqg","pricing_plan_id":"free"},{"bike_id":"7c59bca1-a347-4cb9-b145-64f6481277fc","system_id":"levelo_inurba_marseille","lat":43.322907,"lon":5.382685,"is_reserved":false,"is_disabled":false,"rental_uris":{"android":"levelo://app?vid=7c59bca1-a347-4cb9-b145-64f6481277fc","ios":"levelo://app?vid=7c59bca1-a347-4cb9-b145-64f6481277fc"},"vehicle_type_id":"4","last_reported":1707764795,"current_range_meters":30800,"station_id":"ce4bhr12rcd13ifvqhqg","pricing_plan_id":"free"},{"bike_id":"c3332315-777e-4af8-b68a-18a46d9c4f28","system_id":"levelo_inurba_marseille","lat":43.32292,"lon":5.382681,"is_reserved":false,"is_disabled":false,"rental_uris":{"android":"levelo://app?vid=c3332315-777e-4af8-b68a-18a46d9c4f28","ios":"levelo://app?vid=c3332315-777e-4af8-b68a-18a46d9c4f28"},"vehicle_type_id":"4","last_reported":1707764795,"current_range_meters":28000,"station_id":"ce4bhr12rcd13ifvqhqg","pricing_plan_id":"free"},{"bike_id":"2503d63f-9409-4626-bcfa-fa2e70777687","system_id":"levelo_inurba_marseille","lat":43.322872,"lon":5.382756,"is_reserved":false,"is_disabled":false,"rental_uris":{"android":"levelo://app?vid=2503d63f-9409-4626-bcfa-fa2e70777687","ios":"levelo://app?vid=2503d63f-9409-4626-bcfa-fa2e70777687"},"vehicle_type_id":"4","last_reported":1707764795,"current_range_meters":25600,"station_id":"ce4bhr12rcd13ifvqhqg","pricing_plan_id":"free"},{"bike_id":"3fcce42a-77d4-4362-92ea-1450208db2a3","system_id":"levelo_inurba_marseille","lat":43.297794,"lon":5.370888,"is_reserved":false,"is_disabled":false,"rental_uris":{"android":"levelo://app?vid=3fcce42a-77d4-4362-92ea-1450208db2a3","ios":"levelo://app?vid=3fcce42a-77d4-4362-92ea-1450208db2a3"},"vehicle_type_id":"4","last_reported":1707764795,"current_range_meters":20000,"station_id":"ce4bgop2rcd13ifvqc1g","pricing_plan_id":"free"},{"bike_id":"c780842c-e95f-47ff-a149-ed36c8a413db","system_id":"levelo_inurba_marseille","lat":43.32289,"lon":5.38286,"is_reserved":false,"is_disabled":false,"rental_uris":{"android":"levelo://app?vid=c780842c-e95f-47ff-a149-ed36c8a413db","ios":"levelo://app?vid=c780842c-e95f-47ff-a149-ed36c8a413db"},"vehicle_type_id":"4","last_reported":1707764795,"current_range_meters":30400,"station_id":"ce4bhr12rcd13ifvqhqg","pricing_plan_id":"free"},{"bike_id":"e7ff710a-7be5-4407-b50d-67ad04538e53","system_id":"levelo_inurba_marseille","lat":43.297774,"lon":5.370875,"is_reserved":false,"is_disabled":false,"rental_uris":{"android":"levelo://app?vid=e7ff710a-7be5-4407-b50d-67ad04538e53","ios":"levelo://app?vid=e7ff710a-7be5-4407-b50d-67ad04538e53"},"vehicle_type_id":"4","last_reported":1707764795,"current_range_meters":30800,"station_id":"ce4bgop2rcd13ifvqc1g","pricing_plan_id":"free"},{"bike_id":"a44933ef-03a0-4282-9ff6-bcc91878fda0","system_id":"levelo_inurba_marseille","lat":43.32823,"lon":5.366827,"is_reserved":false,"is_disabled":false,"rental_uris":{"android":"levelo://app?vid=a44933ef-03a0-4282-9ff6-bcc91878fda0","ios":"levelo://app?vid=a44933ef-03a0-4282-9ff6-bcc91878fda0"},"vehicle_type_id":"4","last_reported":1707764795,"current_range_meters":7200,"station_id":"ce4bhs92rcd13ifvqi0g","pricing_plan_id":"free"},{"bike_id":"03730dd5-0a88-4239-8528-528347df93a2","system_id":"levelo_inurba_marseille","lat":43.328371,"lon":5.366909,"is_reserved":false,"is_disabled":false,"rental_uris":{"android":"levelo://app?vid=03730dd5-0a88-4239-8528-528347df93a2","ios":"levelo://app?vid=03730dd5-0a88-4239-8528-528347df93a2"},"vehicle_type_id":"4","last_reported":1707764795,"current_range_meters":6400,"station_id":"ce4bhs92rcd13ifvqi0g","pricing_plan_id":"free"},{"bike_id":"a22b4351-89df-44ce-a9c5-b5aa3919be44","system_id":"levelo_inurba_marseille","lat":43.32826,"lon":5.36684,"is_reserved":false,"is_disabled":false,"rental_uris":{"android":"levelo://app?vid=a22b4351-89df-44ce-a9c5-b5aa3919be44","ios":"levelo://app?vid=a22b4351-89df-44ce-a9c5-b5aa3919be44"},"vehicle_type_id":"4","last_reported":1707764795,"current_range_meters":24000,"station_id":"ce4bhs92rcd13ifvqi0g","pricing_plan_id":"free"},{"bike_id":"99e6dca8-54df-4893-943b-1465094ebc9e","system_id":"levelo_inurba_marseille","lat":43.32826,"lon":5.36682,"is_reserved":false,"is_disabled":false,"rental_uris":{"android":"levelo://app?vid=99e6dca8-54df-4893-943b-1465094ebc9e","ios":"levelo://app?vid=99e6dca8-54df-4893-943b-1465094ebc9e"},"vehicle_type_id":"4","last_reported":1707764795,"current_range_meters":1600,"station_id":"ce4bhs92rcd13ifvqi0g","pricing_plan_id":"free"},{"bike_id":"de562f14-ffaa-41a8-9815-6c8ff06728a2","system_id":"levelo_inurba_marseille","lat":43.32826,"lon":5.36682,"is_reserved":false,"is_disabled":false,"rental_uris":{"android":"levelo://app?vid=de562f14-ffaa-41a8-9815-6c8ff06728a2","ios":"levelo://app?vid=de562f14-ffaa-41a8-9815-6c8ff06728a2"},"vehicle_type_id":"4","last_reported":1707764795,"current_range_meters":18000,"station_id":"ce4bhs92rcd13ifvqi0g","pricing_plan_id":"free"},{"bike_id":"d22a27f5-091b-42fa-941c-6e99819fca0e","system_id":"levelo_inurba_marseille","lat":43.32826,"lon":5.36667,"is_reserved":false,"is_disabled":false,"rental_uris":{"android":"levelo://app?vid=d22a27f5-091b-42fa-941c-6e99819fca0e","ios":"levelo://app?vid=d22a27f5-091b-42fa-941c-6e99819fca0e"},"vehicle_type_id":"4","last_reported":1707764795,"current_range_meters":17600,"station_id":"ce4bhs92rcd13ifvqi0g","pricing_plan_id":"free"},{"bike_id":"0cf06903-45ed-4c06-866c-98b66b380890","system_id":"levelo_inurba_marseille","lat":43.328269,"lon":5.366792,"is_reserved":false,"is_disabled":false,"rental_uris":{"android":"levelo://app?vid=0cf06903-45ed-4c06-866c-98b66b380890","ios":"levelo://app?vid=0cf06903-45ed-4c06-866c-98b66b380890"},"vehicle_type_id":"4","last_reported":1707764795,"current_range_meters":20800,"station_id":"ce4bhs92rcd13ifvqi0g","pricing_plan_id":"free"},{"bike_id":"d7fb2c06-e97d-437a-9eb9-d8da8314c700","system_id":"levelo_inurba_marseille","lat":43.32828,"lon":5.36678,"is_reserved":false,"is_disabled":false,"rental_uris":{"android":"levelo://app?vid=d7fb2c06-e97d-437a-9eb9-d8da8314c700","ios":"levelo://app?vid=d7fb2c06-e97d-437a-9eb9-d8da8314c700"},"vehicle_type_id":"4","last_reported":1707764795,"current_range_meters":2400,"station_id":"ce4bhs92rcd13ifvqi0g","pricing_plan_id":"free"},{"bike_id":"b17262ff-d7fc-4ef8-92b0-4128905d7cdd","system_id":"levelo_inurba_marseille","lat":43.328285,"lon":5.366901,"is_reserved":false,"is_disabled":false,"rental_uris":{"android":"levelo://app?vid=b17262ff-d7fc-4ef8-92b0-4128905d7cdd","ios":"levelo://app?vid=b17262ff-d7fc-4ef8-92b0-4128905d7cdd"},"vehicle_type_id":"4","last_reported":1707764795,"current_range_meters":25600,"station_id":"ce4bhs92rcd13ifvqi0g","pricing_plan_id":"free"},{"bike_id":"f9328847-93f3-477c-b3c4-058f938086b7","system_id":"levelo_inurba_marseille","lat":43.3283,"lon":5.36687,"is_reserved":false,"is_disabled":false,"rental_uris":{"android":"levelo://app?vid=f9328847-93f3-477c-b3c4-058f938086b7","ios":"levelo://app?vid=f9328847-93f3-477c-b3c4-058f938086b7"},"vehicle_type_id":"4","last_reported":1707764795,"current_range_meters":14800,"station_id":"ce4bhs92rcd13ifvqi0g","pricing_plan_id":"free"},{"bike_id":"9f2ae0bd-3169-4a49-a743-1f928b2ea94c","system_id":"levelo_inurba_marseille","lat":43.328371,"lon":5.366909,"is_reserved":false,"is_disabled":false,"rental_uris":{"android":"levelo://app?vid=9f2ae0bd-3169-4a49-a743-1f928b2ea94c","ios":"levelo://app?vid=9f2ae0bd-3169-4a49-a743-1f928b2ea94c"},"vehicle_type_id":"4","last_reported":1707764795,"current_range_meters":7600,"station_id":"ce4bhs92rcd13ifvqi0g","pricing_plan_id":"free"},{"bike_id":"9d4f4af9-654a-4fd3-bf5e-6e84dbb3dbae","system_id":"levelo_inurba_marseille","lat":43.32831,"lon":5.36686,"is_reserved":false,"is_disabled":false,"rental_uris":{"android":"levelo://app?vid=9d4f4af9-654a-4fd3-bf5e-6e84dbb3dbae","ios":"levelo://app?vid=9d4f4af9-654a-4fd3-bf5e-6e84dbb3dbae"},"vehicle_type_id":"4","last_reported":1707764795,"current_range_meters":9200,"station_id":"ce4bhs92rcd13ifvqi0g","pricing_plan_id":"free"},{"bike_id":"1f8bcc96-199c-401e-a00d-ac34b60c808b","system_id":"levelo_inurba_marseille","lat":43.328371,"lon":5.366912,"is_reserved":false,"is_disabled":false,"rental_uris":{"android":"levelo://app?vid=1f8bcc96-199c-401e-a00d-ac34b60c808b","ios":"levelo://app?vid=1f8bcc96-199c-401e-a00d-ac34b60c808b"},"vehicle_type_id":"4","last_reported":1707764795,"current_range_meters":4000,"station_id":"ce4bhs92rcd13ifvqi0g","pricing_plan_id":"free"},{"bike_id":"6999e336-b5dd-44ca-9b7f-232462b76e41","system_id":"levelo_inurba_marseille","lat":43.328371,"lon":5.366909,"is_reserved":false,"is_disabled":false,"rental_uris":{"android":"levelo://app?vid=6999e336-b5dd-44ca-9b7f-232462b76e41","ios":"levelo://app?vid=6999e336-b5dd-44ca-9b7f-232462b76e41"},"vehicle_type_id":"4","last_reported":1707764795,"current_range_meters":5600,"station_id":"ce4bhs92rcd13ifvqi0g","pricing_plan_id":"free"},{"bike_id":"6efdf75a-59db-4683-9096-a599d89573b4","system_id":"levelo_inurba_marseille","lat":43.328371,"lon":5.366912,"is_reserved":false,"is_disabled":false,"rental_uris":{"android":"levelo://app?vid=6efdf75a-59db-4683-9096-a599d89573b4","ios":"levelo://app?vid=6efdf75a-59db-4683-9096-a599d89573b4"},"vehicle_type_id":"4","last_reported":1707764795,"current_range_meters":24800,"station_id":"ce4bhs92rcd13ifvqi0g","pricing_plan_id":"free"},{"bike_id":"6a3c4286-d135-47b6-b7e6-099bebcaa564","system_id":"levelo_inurba_marseille","lat":43.328371,"lon":5.366912,"is_reserved":false,"is_disabled":false,"rental_uris":{"android":"levelo://app?vid=6a3c4286-d135-47b6-b7e6-099bebcaa564","ios":"levelo://app?vid=6a3c4286-d135-47b6-b7e6-099bebcaa564"},"vehicle_type_id":"4","last_reported":1707764795,"current_range_meters":29200,"station_id":"ce4bhs92rcd13ifvqi0g","pricing_plan_id":"free"},{"bike_id":"cc4e0fd6-d1d5-4220-802a-0600345a85b5","system_id":"levelo_inurba_marseille","lat":43.328371,"lon":5.366912,"is_reserved":false,"is_disabled":false,"rental_uris":{"android":"levelo://app?vid=cc4e0fd6-d1d5-4220-802a-0600345a85b5","ios":"levelo://app?vid=cc4e0fd6-d1d5-4220-802a-0600345a85b5"},"vehicle_type_id":"4","last_reported":1707764795,"current_range_meters":22400,"station_id":"ce4bhs92rcd13ifvqi0g","pricing_plan_id":"free"},{"bike_id":"0698732c-7b3f-4a8a-86e5-fd25f4d00607","system_id":"levelo_inurba_marseille","lat":43.2968,"lon":5.37291,"is_reserved":false,"is_disabled":false,"rental_uris":{"android":"levelo://app?vid=0698732c-7b3f-4a8a-86e5-fd25f4d00607","ios":"levelo://app?vid=0698732c-7b3f-4a8a-86e5-fd25f4d00607"},"vehicle_type_id":"4","last_reported":1707764795,"current_range_meters":8000,"station_id":"ce4bgk12rcd13ifvqbj0","pricing_plan_id":"free"},{"bike_id":"f8fa8711-cc24-4907-bcf4-a557ebd5470e","system_id":"levelo_inurba_marseille","lat":43.296131,"lon":5.370773,"is_reserved":false,"is_disabled":false,"rental_uris":{"android":"levelo://app?vid=f8fa8711-cc24-4907-bcf4-a557ebd5470e","ios":"levelo://app?vid=f8fa8711-cc24-4907-bcf4-a557ebd5470e"},"vehicle_type_id":"4","last_reported":1707764795,"current_range_meters":19600,"station_id":"ce4bgnh2rcd13ifvqc0g","pricing_plan_id":"free"},{"bike_id":"063bf703-cfed-4ebf-b871-935a10b7e149","system_id":"levelo_inurba_marseille","lat":43.298892,"lon":5.380067,"is_reserved":false,"is_disabled":false,"rental_uris":{"android":"levelo://app?vid=063bf703-cfed-4ebf-b871-935a10b7e149","ios":"levelo://app?vid=063bf703-cfed-4ebf-b871-935a10b7e149"},"vehicle_type_id":"4","last_reported":1707764795,"current_range_meters":8000,"station_id":"","pricing_plan_id":"free"},{"bike_id":"af1231cf-c963-4042-858d-c8d53ef6597e","system_id":"levelo_inurba_marseille","lat":43.296131,"lon":5.370773,"is_reserved":false,"is_disabled":false,"rental_uris":{"android":"levelo://app?vid=af1231cf-c963-4042-858d-c8d53ef6597e","ios":"levelo://app?vid=af1231cf-c963-4042-858d-c8d53ef6597e"},"vehicle_type_id":"4","last_reported":1707764795,"current_range_meters":16800,"station_id":"ce4bgnh2rcd13ifvqc0g","pricing_plan_id":"free"},{"bike_id":"ece7b733-0963-4dbd-9901-a05e92721a25","system_id":"levelo_inurba_marseille","lat":43.296131,"lon":5.370791,"is_reserved":false,"is_disabled":false,"rental_uris":{"android":"levelo://app?vid=ece7b733-0963-4dbd-9901-a05e92721a25","ios":"levelo://app?vid=ece7b733-0963-4dbd-9901-a05e92721a25"},"vehicle_type_id":"4","last_reported":1707764795,"current_range_meters":22400,"station_id":"ce4bgnh2rcd13ifvqc0g","pricing_plan_id":"free"},{"bike_id":"e84ff4d2-8c0e-476b-b55a-37d3bdd50b55","system_id":"levelo_inurba_marseille","lat":43.295592,"lon":5.36821,"is_reserved":false,"is_disabled":false,"rental_uris":{"android":"levelo://app?vid=e84ff4d2-8c0e-476b-b55a-37d3bdd50b55","ios":"levelo://app?vid=e84ff4d2-8c0e-476b-b55a-37d3bdd50b55"},"vehicle_type_id":"4","last_reported":1707764795,"current_range_meters":10000,"station_id":"ce4bgph2rcd13ifvqc2g","pricing_plan_id":"free"},{"bike_id":"fbddda0e-fc23-4439-88c9-2bc6ea2cf2a2","system_id":"levelo_inurba_marseille","lat":43.29913,"lon":5.38135,"is_reserved":false,"is_disabled":false,"rental_uris":{"android":"levelo://app?vid=fbddda0e-fc23-4439-88c9-2bc6ea2cf2a2","ios":"levelo://app?vid=fbddda0e-fc23-4439-88c9-2bc6ea2cf2a2"},"vehicle_type_id":"4","last_reported":1707764795,"current_range_meters":8000,"station_id":"ce4bgj12rcd13ifvqbc0","pricing_plan_id":"free"},{"bike_id":"0f38b8c2-c69b-45e6-bd8c-1e8ba04f391d","system_id":"levelo_inurba_marseille","lat":43.299028,"lon":5.381509,"is_reserved":false,"is_disabled":false,"rental_uris":{"android":"levelo://app?vid=0f38b8c2-c69b-45e6-bd8c-1e8ba04f391d","ios":"levelo://app?vid=0f38b8c2-c69b-45e6-bd8c-1e8ba04f391d"},"vehicle_type_id":"4","last_reported":1707764795,"current_range_meters":21600,"station_id":"ce4bgj12rcd13ifvqbc0","pricing_plan_id":"free"},{"bike_id":"09008396-4df0-421d-b3bd-c071bc61ca03","system_id":"levelo_inurba_marseille","lat":43.317588,"lon":5.390145,"is_reserved":false,"is_disabled":false,"rental_uris":{"android":"levelo://app?vid=09008396-4df0-421d-b3bd-c071bc61ca03","ios":"levelo://app?vid=09008396-4df0-421d-b3bd-c071bc61ca03"},"vehicle_type_id":"4","last_reported":1707764795,"current_range_meters":21200,"station_id":"ce4bhqp2rcd13ifvqhng","pricing_plan_id":"free"},{"bike_id":"e4fb8bdb-2f12-40c5-8bb7-c44304f6c093","system_id":"levelo_inurba_marseille","lat":43.31757,"lon":5.39017,"is_reserved":false,"is_disabled":false,"rental_uris":{"android":"levelo://app?vid=e4fb8bdb-2f12-40c5-8bb7-c44304f6c093","ios":"levelo://app?vid=e4fb8bdb-2f12-40c5-8bb7-c44304f6c093"},"vehicle_type_id":"4","last_reported":1707764795,"current_range_meters":22400,"station_id":"ce4bhqp2rcd13ifvqhng","pricing_plan_id":"free"},{"bike_id":"c64f5bfa-78fa-4ca6-972c-8b8de57dcc38","system_id":"levelo_inurba_marseille","lat":43.317557,"lon":5.390173,"is_reserved":false,"is_disabled":false,"rental_uris":{"android":"levelo://app?vid=c64f5bfa-78fa-4ca6-972c-8b8de57dcc38","ios":"levelo://app?vid=c64f5bfa-78fa-4ca6-972c-8b8de57dcc38"},"vehicle_type_id":"4","last_reported":1707764795,"current_range_meters":10000,"station_id":"ce4bhqp2rcd13ifvqhng","pricing_plan_id":"free"},{"bike_id":"f42d86a3-26a3-4740-a076-acda4a783789","system_id":"levelo_inurba_marseille","lat":43.317557,"lon":5.390173,"is_reserved":false,"is_disabled":false,"rental_uris":{"android":"levelo://app?vid=f42d86a3-26a3-4740-a076-acda4a783789","ios":"levelo://app?vid=f42d86a3-26a3-4740-a076-acda4a783789"},"vehicle_type_id":"4","last_reported":1707764795,"current_range_meters":22400,"station_id":"ce4bhqp2rcd13ifvqhng","pricing_plan_id":"free"},{"bike_id":"6117291f-19d4-409c-be16-ea2c0d5a38af","system_id":"levelo_inurba_marseille","lat":43.31757,"lon":5.390183,"is_reserved":false,"is_disabled":false,"rental_uris":{"android":"levelo://app?vid=6117291f-19d4-409c-be16-ea2c0d5a38af","ios":"levelo://app?vid=6117291f-19d4-409c-be16-ea2c0d5a38af"},"vehicle_type_id":"4","last_reported":1707764795,"current_range_meters":9200,"station_id":"ce4bhqp2rcd13ifvqhng","pricing_plan_id":"free"},{"bike_id":"6c13b8a6-6de2-4cb8-90a3-ca30e8c1dab5","system_id":"levelo_inurba_marseille","lat":43.31756,"lon":5.3902,"is_reserved":false,"is_disabled":false,"rental_uris":{"android":"levelo://app?vid=6c13b8a6-6de2-4cb8-90a3-ca30e8c1dab5","ios":"levelo://app?vid=6c13b8a6-6de2-4cb8-90a3-ca30e8c1dab5"},"vehicle_type_id":"4","last_reported":1707764795,"current_range_meters":16800,"station_id":"ce4bhqp2rcd13ifvqhng","pricing_plan_id":"free"},{"bike_id":"be9cf9ac-82a5-4313-9a19-c2aa38642a56","system_id":"levelo_inurba_marseille","lat":43.31749,"lon":5.39023,"is_reserved":false,"is_disabled":false,"rental_uris":{"android":"levelo://app?vid=be9cf9ac-82a5-4313-9a19-c2aa38642a56","ios":"levelo://app?vid=be9cf9ac-82a5-4313-9a19-c2aa38642a56"},"vehicle_type_id":"4","last_reported":1707764795,"current_range_meters":19200,"station_id":"ce4bhqp2rcd13ifvqhng","pricing_plan_id":"free"},{"bike_id":"d316055b-b4e1-4300-a152-12db6201596f","system_id":"levelo_inurba_marseille","lat":43.31758,"lon":5.3902,"is_reserved":false,"is_disabled":false,"rental_uris":{"android":"levelo://app?vid=d316055b-b4e1-4300-a152-12db6201596f","ios":"levelo://app?vid=d316055b-b4e1-4300-a152-12db6201596f"},"vehicle_type_id":"4","last_reported":1707764795,"current_range_meters":31200,"station_id":"ce4bhqp2rcd13ifvqhng","pricing_plan_id":"free"},{"bike_id":"7f7fc01e-1952-4bab-afa7-dcf3990c799a","system_id":"levelo_inurba_marseille","lat":43.317557,"lon":5.390173,"is_reserved":false,"is_disabled":false,"rental_uris":{"android":"levelo://app?vid=7f7fc01e-1952-4bab-afa7-dcf3990c799a","ios":"levelo://app?vid=7f7fc01e-1952-4bab-afa7-dcf3990c799a"},"vehicle_type_id":"4","last_reported":1707764795,"current_range_meters":31600,"station_id":"ce4bhqp2rcd13ifvqhng","pricing_plan_id":"free"},{"bike_id":"7fae9283-e290-4d5c-9e35-b82003e5131a","system_id":"levelo_inurba_marseille","lat":43.31753,"lon":5.39022,"is_reserved":false,"is_disabled":false,"rental_uris":{"android":"levelo://app?vid=7fae9283-e290-4d5c-9e35-b82003e5131a","ios":"levelo://app?vid=7fae9283-e290-4d5c-9e35-b82003e5131a"},"vehicle_type_id":"4","last_reported":1707764795,"current_range_meters":13600,"station_id":"ce4bhqp2rcd13ifvqhng","pricing_plan_id":"free"},{"bike_id":"6fea3049-e166-4c62-ae45-118f599bb1bd","system_id":"levelo_inurba_marseille","lat":43.317557,"lon":5.390173,"is_reserved":false,"is_disabled":false,"rental_uris":{"android":"levelo://app?vid=6fea3049-e166-4c62-ae45-118f599bb1bd","ios":"levelo://app?vid=6fea3049-e166-4c62-ae45-118f599bb1bd"},"vehicle_type_id":"4","last_reported":1707764795,"current_range_meters":30400,"station_id":"ce4bhqp2rcd13ifvqhng","pricing_plan_id":"free"},{"bike_id":"db336c6e-a9e4-4755-9985-80bc119245c3","system_id":"levelo_inurba_marseille","lat":43.317557,"lon":5.390173,"is_reserved":false,"is_disabled":false,"rental_uris":{"android":"levelo://app?vid=db336c6e-a9e4-4755-9985-80bc119245c3","ios":"levelo://app?vid=db336c6e-a9e4-4755-9985-80bc119245c3"},"vehicle_type_id":"4","last_reported":1707764795,"current_range_meters":31200,"station_id":"ce4bhqp2rcd13ifvqhng","pricing_plan_id":"free"},{"bike_id":"ff96a7d3-adf4-41f2-b7f4-c9989e2211ad","system_id":"levelo_inurba_marseille","lat":43.317557,"lon":5.390173,"is_reserved":false,"is_disabled":false,"rental_uris":{"android":"levelo://app?vid=ff96a7d3-adf4-41f2-b7f4-c9989e2211ad","ios":"levelo://app?vid=ff96a7d3-adf4-41f2-b7f4-c9989e2211ad"},"vehicle_type_id":"4","last_reported":1707764795,"current_range_meters":19600,"station_id":"ce4bhqp2rcd13ifvqhng","pricing_plan_id":"free"},{"bike_id":"f718d9c2-6fb8-4585-9684-c2b2826090ae","system_id":"levelo_inurba_marseille","lat":43.317574,"lon":5.390223,"is_reserved":false,"is_disabled":false,"rental_uris":{"android":"levelo://app?vid=f718d9c2-6fb8-4585-9684-c2b2826090ae","ios":"levelo://app?vid=f718d9c2-6fb8-4585-9684-c2b2826090ae"},"vehicle_type_id":"4","last_reported":1707764795,"current_range_meters":31200,"station_id":"ce4bhqp2rcd13ifvqhng","pricing_plan_id":"free"},{"bike_id":"c29f8f52-e332-436d-a51c-f1629c25b243","system_id":"levelo_inurba_marseille","lat":43.317557,"lon":5.390173,"is_reserved":false,"is_disabled":false,"rental_uris":{"android":"levelo://app?vid=c29f8f52-e332-436d-a51c-f1629c25b243","ios":"levelo://app?vid=c29f8f52-e332-436d-a51c-f1629c25b243"},"vehicle_type_id":"4","last_reported":1707764795,"current_range_meters":16800,"station_id":"ce4bhqp2rcd13ifvqhng","pricing_plan_id":"free"},{"bike_id":"780450c9-26bd-4238-b603-72a17ed15096","system_id":"levelo_inurba_marseille","lat":43.29792,"lon":5.38091,"is_reserved":false,"is_disabled":false,"rental_uris":{"android":"levelo://app?vid=780450c9-26bd-4238-b603-72a17ed15096","ios":"levelo://app?vid=780450c9-26bd-4238-b603-72a17ed15096"},"vehicle_type_id":"4","last_reported":1707764795,"current_range_meters":9600,"station_id":"ce4bgip2rcd13ifvqbb0","pricing_plan_id":"free"},{"bike_id":"c82d59aa-9891-4f53-9191-ce1a33fe3fa3","system_id":"levelo_inurba_marseille","lat":43.304278,"lon":5.388868,"is_reserved":false,"is_disabled":false,"rental_uris":{"android":"levelo://app?vid=c82d59aa-9891-4f53-9191-ce1a33fe3fa3","ios":"levelo://app?vid=c82d59aa-9891-4f53-9191-ce1a33fe3fa3"},"vehicle_type_id":"4","last_reported":1707764795,"current_range_meters":4400,"station_id":"ce4bgk12rcd13ifvqbi0","pricing_plan_id":"free"},{"bike_id":"92f5ea94-7a2b-4a81-ac9d-d864c4dc6243","system_id":"levelo_inurba_marseille","lat":43.298037,"lon":5.381066,"is_reserved":false,"is_disabled":false,"rental_uris":{"android":"levelo://app?vid=92f5ea94-7a2b-4a81-ac9d-d864c4dc6243","ios":"levelo://app?vid=92f5ea94-7a2b-4a81-ac9d-d864c4dc6243"},"vehicle_type_id":"4","last_reported":1707764795,"current_range_meters":8000,"station_id":"ce4bgip2rcd13ifvqbb0","pricing_plan_id":"free"},{"bike_id":"48274d91-4918-4b84-8310-6722a797aaa4","system_id":"levelo_inurba_marseille","lat":43.298037,"lon":5.381066,"is_reserved":false,"is_disabled":false,"rental_uris":{"android":"levelo://app?vid=48274d91-4918-4b84-8310-6722a797aaa4","ios":"levelo://app?vid=48274d91-4918-4b84-8310-6722a797aaa4"},"vehicle_type_id":"4","last_reported":1707764795,"current_range_meters":15600,"station_id":"ce4bgip2rcd13ifvqbb0","pricing_plan_id":"free"},{"bike_id":"8847a18f-06a3-4c1d-b266-4bd1d344d488","system_id":"levelo_inurba_marseille","lat":43.304274,"lon":5.388873,"is_reserved":false,"is_disabled":false,"rental_uris":{"android":"levelo://app?vid=8847a18f-06a3-4c1d-b266-4bd1d344d488","ios":"levelo://app?vid=8847a18f-06a3-4c1d-b266-4bd1d344d488"},"vehicle_type_id":"4","last_reported":1707764795,"current_range_meters":5200,"station_id":"ce4bgk12rcd13ifvqbi0","pricing_plan_id":"free"},{"bike_id":"0fec86d2-45f7-4a2d-9035-941c11852e3b","system_id":"levelo_inurba_marseille","lat":43.304278,"lon":5.388868,"is_reserved":false,"is_disabled":false,"rental_uris":{"android":"levelo://app?vid=0fec86d2-45f7-4a2d-9035-941c11852e3b","ios":"levelo://app?vid=0fec86d2-45f7-4a2d-9035-941c11852e3b"},"vehicle_type_id":"4","last_reported":1707764795,"current_range_meters":19600,"station_id":"ce4bgk12rcd13ifvqbi0","pricing_plan_id":"free"},{"bike_id":"4a93e636-15df-49cf-9530-4a60c978d2d7","system_id":"levelo_inurba_marseille","lat":43.304274,"lon":5.388873,"is_reserved":false,"is_disabled":false,"rental_uris":{"android":"levelo://app?vid=4a93e636-15df-49cf-9530-4a60c978d2d7","ios":"levelo://app?vid=4a93e636-15df-49cf-9530-4a60c978d2d7"},"vehicle_type_id":"4","last_reported":1707764795,"current_range_meters":14000,"station_id":"ce4bgk12rcd13ifvqbi0","pricing_plan_id":"free"},{"bike_id":"d74cd76e-b36b-4679-bb63-4931efac628d","system_id":"levelo_inurba_marseille","lat":43.304278,"lon":5.388868,"is_reserved":false,"is_disabled":false,"rental_uris":{"android":"levelo://app?vid=d74cd76e-b36b-4679-bb63-4931efac628d","ios":"levelo://app?vid=d74cd76e-b36b-4679-bb63-4931efac628d"},"vehicle_type_id":"4","last_reported":1707764795,"current_range_meters":17600,"station_id":"ce4bgk12rcd13ifvqbi0","pricing_plan_id":"free"},{"bike_id":"72f05d80-847c-473a-be3e-6dfe4384a5eb","system_id":"levelo_inurba_marseille","lat":43.298037,"lon":5.381066,"is_reserved":false,"is_disabled":false,"rental_uris":{"android":"levelo://app?vid=72f05d80-847c-473a-be3e-6dfe4384a5eb","ios":"levelo://app?vid=72f05d80-847c-473a-be3e-6dfe4384a5eb"},"vehicle_type_id":"4","last_reported":1707764795,"current_range_meters":10000,"station_id":"ce4bgip2rcd13ifvqbb0","pricing_plan_id":"free"},{"bike_id":"8c96428f-b5b7-4780-a213-d4f66bb7d8bc","system_id":"levelo_inurba_marseille","lat":43.299707,"lon":5.384859,"is_reserved":false,"is_disabled":false,"rental_uris":{"android":"levelo://app?vid=8c96428f-b5b7-4780-a213-d4f66bb7d8bc","ios":"levelo://app?vid=8c96428f-b5b7-4780-a213-d4f66bb7d8bc"},"vehicle_type_id":"4","last_reported":1707764795,"current_range_meters":5600,"station_id":"ce4bgj92rcd13ifvqbd0","pricing_plan_id":"free"},{"bike_id":"c463afb3-d64e-4833-bc9c-a4fc1a3c8da2","system_id":"levelo_inurba_marseille","lat":43.29529,"lon":5.385581,"is_reserved":false,"is_disabled":false,"rental_uris":{"android":"levelo://app?vid=c463afb3-d64e-4833-bc9c-a4fc1a3c8da2","ios":"levelo://app?vid=c463afb3-d64e-4833-bc9c-a4fc1a3c8da2"},"vehicle_type_id":"4","last_reported":1707764795,"current_range_meters":21600,"station_id":"ce4bgih2rcd13ifvqba0","pricing_plan_id":"free"},{"bike_id":"3765937f-6ba0-47fe-9fd8-84d5de1e9321","system_id":"levelo_inurba_marseille","lat":43.32368,"lon":5.38881,"is_reserved":false,"is_disabled":false,"rental_uris":{"android":"levelo://app?vid=3765937f-6ba0-47fe-9fd8-84d5de1e9321","ios":"levelo://app?vid=3765937f-6ba0-47fe-9fd8-84d5de1e9321"},"vehicle_type_id":"4","last_reported":1707764795,"current_range_meters":13200,"station_id":"ce4bhqp2rcd13ifvqhog","pricing_plan_id":"free"},{"bike_id":"4eaf5f86-657f-4344-bba5-1a9dbe22b6e7","system_id":"levelo_inurba_marseille","lat":43.32367,"lon":5.388836,"is_reserved":false,"is_disabled":false,"rental_uris":{"android":"levelo://app?vid=4eaf5f86-657f-4344-bba5-1a9dbe22b6e7","ios":"levelo://app?vid=4eaf5f86-657f-4344-bba5-1a9dbe22b6e7"},"vehicle_type_id":"4","last_reported":1707764795,"current_range_meters":17600,"station_id":"ce4bhqp2rcd13ifvqhog","pricing_plan_id":"free"},{"bike_id":"3a32260d-96a3-4b93-9fb4-5455d590c1b8","system_id":"levelo_inurba_marseille","lat":43.32367,"lon":5.388836,"is_reserved":false,"is_disabled":false,"rental_uris":{"android":"levelo://app?vid=3a32260d-96a3-4b93-9fb4-5455d590c1b8","ios":"levelo://app?vid=3a32260d-96a3-4b93-9fb4-5455d590c1b8"},"vehicle_type_id":"4","last_reported":1707764795,"current_range_meters":30400,"station_id":"ce4bhqp2rcd13ifvqhog","pricing_plan_id":"free"},{"bike_id":"9b8bb5b6-3f28-4b32-9142-5ce956f88af4","system_id":"levelo_inurba_marseille","lat":43.29601,"lon":5.381084,"is_reserved":false,"is_disabled":false,"rental_uris":{"android":"levelo://app?vid=9b8bb5b6-3f28-4b32-9142-5ce956f88af4","ios":"levelo://app?vid=9b8bb5b6-3f28-4b32-9142-5ce956f88af4"},"vehicle_type_id":"4","last_reported":1707764795,"current_range_meters":8400,"station_id":"ce4bgl12rcd13ifvqbo0","pricing_plan_id":"free"},{"bike_id":"4b8a076f-beec-47c7-918d-8c2cbc7619d1","system_id":"levelo_inurba_marseille","lat":43.292749,"lon":5.368402,"is_reserved":false,"is_disabled":false,"rental_uris":{"android":"levelo://app?vid=4b8a076f-beec-47c7-918d-8c2cbc7619d1","ios":"levelo://app?vid=4b8a076f-beec-47c7-918d-8c2cbc7619d1"},"vehicle_type_id":"4","last_reported":1707764795,"current_range_meters":0,"station_id":"ce4bhbp2rcd13ifvqesg","pricing_plan_id":"free"},{"bike_id":"4fd3de86-95da-4aab-94ea-313c08e72b0b","system_id":"levelo_inurba_marseille","lat":43.293009,"lon":5.374584,"is_reserved":false,"is_disabled":false,"rental_uris":{"android":"levelo://app?vid=4fd3de86-95da-4aab-94ea-313c08e72b0b","ios":"levelo://app?vid=4fd3de86-95da-4aab-94ea-313c08e72b0b"},"vehicle_type_id":"4","last_reported":1707764795,"current_range_meters":14800,"station_id":"ce4bgi12rcd13ifvqb70","pricing_plan_id":"free"},{"bike_id":"d0c3e21b-15fa-4c32-9e69-787d226005b5","system_id":"levelo_inurba_marseille","lat":43.305994,"lon":5.393687,"is_reserved":false,"is_disabled":false,"rental_uris":{"android":"levelo://app?vid=d0c3e21b-15fa-4c32-9e69-787d226005b5","ios":"levelo://app?vid=d0c3e21b-15fa-4c32-9e69-787d226005b5"},"vehicle_type_id":"4","last_reported":1707764795,"current_range_meters":4800,"station_id":"ce4bh0p2rcd13ifvqd80","pricing_plan_id":"free"},{"bike_id":"7199bc24-e9e3-41c9-aea9-d697a9bd6328","system_id":"levelo_inurba_marseille","lat":43.305994,"lon":5.393687,"is_reserved":false,"is_disabled":false,"rental_uris":{"android":"levelo://app?vid=7199bc24-e9e3-41c9-aea9-d697a9bd6328","ios":"levelo://app?vid=7199bc24-e9e3-41c9-aea9-d697a9bd6328"},"vehicle_type_id":"4","last_reported":1707764795,"current_range_meters":8000,"station_id":"ce4bh0p2rcd13ifvqd80","pricing_plan_id":"free"},{"bike_id":"81d102a0-fc2b-45a1-b20d-7729ff40d829","system_id":"levelo_inurba_marseille","lat":43.305994,"lon":5.393687,"is_reserved":false,"is_disabled":false,"rental_uris":{"android":"levelo://app?vid=81d102a0-fc2b-45a1-b20d-7729ff40d829","ios":"levelo://app?vid=81d102a0-fc2b-45a1-b20d-7729ff40d829"},"vehicle_type_id":"4","last_reported":1707764795,"current_range_meters":12400,"station_id":"ce4bh0p2rcd13ifvqd80","pricing_plan_id":"free"},{"bike_id":"452bd352-2cfe-4144-bd49-23b5e2c34880","system_id":"levelo_inurba_marseille","lat":43.302992,"lon":5.392136,"is_reserved":false,"is_disabled":false,"rental_uris":{"android":"levelo://app?vid=452bd352-2cfe-4144-bd49-23b5e2c34880","ios":"levelo://app?vid=452bd352-2cfe-4144-bd49-23b5e2c34880"},"vehicle_type_id":"4","last_reported":1707764795,"current_range_meters":17600,"station_id":"ce4bgkh2rcd13ifvqbk0","pricing_plan_id":"free"},{"bike_id":"b8a55830-63db-4114-abb1-023dcee94625","system_id":"levelo_inurba_marseille","lat":43.300852,"lon":5.390859,"is_reserved":false,"is_disabled":false,"rental_uris":{"android":"levelo://app?vid=b8a55830-63db-4114-abb1-023dcee94625","ios":"levelo://app?vid=b8a55830-63db-4114-abb1-023dcee94625"},"vehicle_type_id":"4","last_reported":1707764795,"current_range_meters":4000,"station_id":"ce4bh192rcd13ifvqdb0","pricing_plan_id":"free"},{"bike_id":"f76f465c-b6ea-46b4-b77d-a2bee9e82f18","system_id":"levelo_inurba_marseille","lat":43.292311,"lon":5.360731,"is_reserved":false,"is_disabled":false,"rental_uris":{"android":"levelo://app?vid=f76f465c-b6ea-46b4-b77d-a2bee9e82f18","ios":"levelo://app?vid=f76f465c-b6ea-46b4-b77d-a2bee9e82f18"},"vehicle_type_id":"4","last_reported":1707764795,"current_range_meters":14800,"station_id":"ce4bhbh2rcd13ifvqeqg","pricing_plan_id":"free"},{"bike_id":"4b52073d-4d54-4a61-ad1a-e1ee0718df04","system_id":"levelo_inurba_marseille","lat":43.30085,"lon":5.390856,"is_reserved":false,"is_disabled":false,"rental_uris":{"android":"levelo://app?vid=4b52073d-4d54-4a61-ad1a-e1ee0718df04","ios":"levelo://app?vid=4b52073d-4d54-4a61-ad1a-e1ee0718df04"},"vehicle_type_id":"4","last_reported":1707764795,"current_range_meters":2400,"station_id":"ce4bh192rcd13ifvqdb0","pricing_plan_id":"free"},{"bike_id":"31191924-1491-40cb-9e6f-7e5aaec70bed","system_id":"levelo_inurba_marseille","lat":43.30085,"lon":5.390856,"is_reserved":false,"is_disabled":false,"rental_uris":{"android":"levelo://app?vid=31191924-1491-40cb-9e6f-7e5aaec70bed","ios":"levelo://app?vid=31191924-1491-40cb-9e6f-7e5aaec70bed"},"vehicle_type_id":"4","last_reported":1707764795,"current_range_meters":28400,"station_id":"ce4bh192rcd13ifvqdb0","pricing_plan_id":"free"},{"bike_id":"2f06bb09-1bd3-4dec-bfd7-aa7b95ce3f29","system_id":"levelo_inurba_marseille","lat":43.298764,"lon":5.388973,"is_reserved":false,"is_disabled":false,"rental_uris":{"android":"levelo://app?vid=2f06bb09-1bd3-4dec-bfd7-aa7b95ce3f29","ios":"levelo://app?vid=2f06bb09-1bd3-4dec-bfd7-aa7b95ce3f29"},"vehicle_type_id":"4","last_reported":1707764795,"current_range_meters":3600,"station_id":"ce4bh392rcd13ifvqdl0","pricing_plan_id":"free"},{"bike_id":"4c5ae574-93c9-4213-8270-d10101c35a33","system_id":"levelo_inurba_marseille","lat":43.298764,"lon":5.388973,"is_reserved":false,"is_disabled":false,"rental_uris":{"android":"levelo://app?vid=4c5ae574-93c9-4213-8270-d10101c35a33","ios":"levelo://app?vid=4c5ae574-93c9-4213-8270-d10101c35a33"},"vehicle_type_id":"4","last_reported":1707764795,"current_range_meters":23600,"station_id":"ce4bh392rcd13ifvqdl0","pricing_plan_id":"free"},{"bike_id":"90628443-ef33-49db-9c3a-7a87bdd47d4a","system_id":"levelo_inurba_marseille","lat":43.29872,"lon":5.3891,"is_reserved":false,"is_disabled":false,"rental_uris":{"android":"levelo://app?vid=90628443-ef33-49db-9c3a-7a87bdd47d4a","ios":"levelo://app?vid=90628443-ef33-49db-9c3a-7a87bdd47d4a"},"vehicle_type_id":"4","last_reported":1707764795,"current_range_meters":1600,"station_id":"ce4bh392rcd13ifvqdl0","pricing_plan_id":"free"},{"bike_id":"6a51261c-748e-4dcd-b4c7-5087af5ea828","system_id":"levelo_inurba_marseille","lat":43.308802,"lon":5.396394,"is_reserved":false,"is_disabled":false,"rental_uris":{"android":"levelo://app?vid=6a51261c-748e-4dcd-b4c7-5087af5ea828","ios":"levelo://app?vid=6a51261c-748e-4dcd-b4c7-5087af5ea828"},"vehicle_type_id":"4","last_reported":1707764795,"current_range_meters":8000,"station_id":"ce4bh012rcd13ifvqcv0","pricing_plan_id":"free"},{"bike_id":"b6e55048-dcaf-40d5-ac55-7a92022ce817","system_id":"levelo_inurba_marseille","lat":43.313291,"lon":5.396838,"is_reserved":false,"is_disabled":false,"rental_uris":{"android":"levelo://app?vid=b6e55048-dcaf-40d5-ac55-7a92022ce817","ios":"levelo://app?vid=b6e55048-dcaf-40d5-ac55-7a92022ce817"},"vehicle_type_id":"4","last_reported":1707764795,"current_range_meters":0,"station_id":"ce4bgvp2rcd13ifvqcu0","pricing_plan_id":"free"},{"bike_id":"11405fad-6bba-4ee8-9906-edc950453430","system_id":"levelo_inurba_marseille","lat":43.291994,"lon":5.357886,"is_reserved":false,"is_disabled":false,"rental_uris":{"android":"levelo://app?vid=11405fad-6bba-4ee8-9906-edc950453430","ios":"levelo://app?vid=11405fad-6bba-4ee8-9906-edc950453430"},"vehicle_type_id":"4","last_reported":1707764795,"current_range_meters":31200,"station_id":"ce4bhb12rcd13ifvqel0","pricing_plan_id":"free"},{"bike_id":"6142f972-25ea-4b0f-b992-f3d648c3cf6d","system_id":"levelo_inurba_marseille","lat":43.30888,"lon":5.39646,"is_reserved":false,"is_disabled":false,"rental_uris":{"android":"levelo://app?vid=6142f972-25ea-4b0f-b992-f3d648c3cf6d","ios":"levelo://app?vid=6142f972-25ea-4b0f-b992-f3d648c3cf6d"},"vehicle_type_id":"4","last_reported":1707764795,"current_range_meters":10400,"station_id":"ce4bh012rcd13ifvqcv0","pricing_plan_id":"free"},{"bike_id":"ab1b2f57-71b7-4eca-b078-360976608ab0","system_id":"levelo_inurba_marseille","lat":43.313291,"lon":5.396838,"is_reserved":false,"is_disabled":false,"rental_uris":{"android":"levelo://app?vid=ab1b2f57-71b7-4eca-b078-360976608ab0","ios":"levelo://app?vid=ab1b2f57-71b7-4eca-b078-360976608ab0"},"vehicle_type_id":"4","last_reported":1707764795,"current_range_meters":23600,"station_id":"ce4bgvp2rcd13ifvqcu0","pricing_plan_id":"free"},{"bike_id":"3bbacd6b-accb-4927-98f2-c93f949ddc8c","system_id":"levelo_inurba_marseille","lat":43.309038,"lon":5.396546,"is_reserved":false,"is_disabled":false,"rental_uris":{"android":"levelo://app?vid=3bbacd6b-accb-4927-98f2-c93f949ddc8c","ios":"levelo://app?vid=3bbacd6b-accb-4927-98f2-c93f949ddc8c"},"vehicle_type_id":"4","last_reported":1707764795,"current_range_meters":5600,"station_id":"ce4bh012rcd13ifvqcv0","pricing_plan_id":"free"},{"bike_id":"6c96b1b3-2a30-45ff-a5ab-a0f1e90aa5bc","system_id":"levelo_inurba_marseille","lat":43.313291,"lon":5.396838,"is_reserved":false,"is_disabled":false,"rental_uris":{"android":"levelo://app?vid=6c96b1b3-2a30-45ff-a5ab-a0f1e90aa5bc","ios":"levelo://app?vid=6c96b1b3-2a30-45ff-a5ab-a0f1e90aa5bc"},"vehicle_type_id":"4","last_reported":1707764795,"current_range_meters":26800,"station_id":"ce4bgvp2rcd13ifvqcu0","pricing_plan_id":"free"},{"bike_id":"0b2a19dc-5309-46d2-ab49-2bebe156720e","system_id":"levelo_inurba_marseille","lat":43.313291,"lon":5.396838,"is_reserved":false,"is_disabled":false,"rental_uris":{"android":"levelo://app?vid=0b2a19dc-5309-46d2-ab49-2bebe156720e","ios":"levelo://app?vid=0b2a19dc-5309-46d2-ab49-2bebe156720e"},"vehicle_type_id":"4","last_reported":1707764795,"current_range_meters":25600,"station_id":"ce4bgvp2rcd13ifvqcu0","pricing_plan_id":"free"},{"bike_id":"28f3ef64-8902-48d5-9527-c694a3143716","system_id":"levelo_inurba_marseille","lat":43.29529,"lon":5.385581,"is_reserved":false,"is_disabled":false,"rental_uris":{"android":"levelo://app?vid=28f3ef64-8902-48d5-9527-c694a3143716","ios":"levelo://app?vid=28f3ef64-8902-48d5-9527-c694a3143716"},"vehicle_type_id":"4","last_reported":1707764795,"current_range_meters":18000,"station_id":"ce4bgih2rcd13ifvqba0","pricing_plan_id":"free"},{"bike_id":"385a7fb4-0f79-4252-956d-0660e2b186b1","system_id":"levelo_inurba_marseille","lat":43.29529,"lon":5.385581,"is_reserved":false,"is_disabled":false,"rental_uris":{"android":"levelo://app?vid=385a7fb4-0f79-4252-956d-0660e2b186b1","ios":"levelo://app?vid=385a7fb4-0f79-4252-956d-0660e2b186b1"},"vehicle_type_id":"4","last_reported":1707764795,"current_range_meters":5200,"station_id":"ce4bgih2rcd13ifvqba0","pricing_plan_id":"free"},{"bike_id":"fc5c4c61-7c7b-444c-ab41-c234f685a3e5","system_id":"levelo_inurba_marseille","lat":43.313291,"lon":5.396838,"is_reserved":false,"is_disabled":false,"rental_uris":{"android":"levelo://app?vid=fc5c4c61-7c7b-444c-ab41-c234f685a3e5","ios":"levelo://app?vid=fc5c4c61-7c7b-444c-ab41-c234f685a3e5"},"vehicle_type_id":"4","last_reported":1707764795,"current_range_meters":0,"station_id":"ce4bgvp2rcd13ifvqcu0","pricing_plan_id":"free"},{"bike_id":"7b301b67-c10f-4955-aab6-3395a7305468","system_id":"levelo_inurba_marseille","lat":43.29529,"lon":5.385581,"is_reserved":false,"is_disabled":false,"rental_uris":{"android":"levelo://app?vid=7b301b67-c10f-4955-aab6-3395a7305468","ios":"levelo://app?vid=7b301b67-c10f-4955-aab6-3395a7305468"},"vehicle_type_id":"4","last_reported":1707764795,"current_range_meters":5200,"station_id":"ce4bgih2rcd13ifvqba0","pricing_plan_id":"free"},{"bike_id":"1a152870-8492-4069-abae-cf0c27bc9557","system_id":"levelo_inurba_marseille","lat":43.29529,"lon":5.385581,"is_reserved":false,"is_disabled":false,"rental_uris":{"android":"levelo://app?vid=1a152870-8492-4069-abae-cf0c27bc9557","ios":"levelo://app?vid=1a152870-8492-4069-abae-cf0c27bc9557"},"vehicle_type_id":"4","last_reported":1707764795,"current_range_meters":7200,"station_id":"ce4bgih2rcd13ifvqba0","pricing_plan_id":"free"},{"bike_id":"61225d17-6027-4813-8779-dc28d17533ee","system_id":"levelo_inurba_marseille","lat":43.29529,"lon":5.385581,"is_reserved":false,"is_disabled":false,"rental_uris":{"android":"levelo://app?vid=61225d17-6027-4813-8779-dc28d17533ee","ios":"levelo://app?vid=61225d17-6027-4813-8779-dc28d17533ee"},"vehicle_type_id":"4","last_reported":1707764795,"current_range_meters":11200,"station_id":"ce4bgih2rcd13ifvqba0","pricing_plan_id":"free"},{"bike_id":"c3031dbb-85f4-438d-94a8-d9750b304f05","system_id":"levelo_inurba_marseille","lat":43.29529,"lon":5.385581,"is_reserved":false,"is_disabled":false,"rental_uris":{"android":"levelo://app?vid=c3031dbb-85f4-438d-94a8-d9750b304f05","ios":"levelo://app?vid=c3031dbb-85f4-438d-94a8-d9750b304f05"},"vehicle_type_id":"4","last_reported":1707764795,"current_range_meters":9600,"station_id":"ce4bgih2rcd13ifvqba0","pricing_plan_id":"free"},{"bike_id":"ceb9451e-2b2c-4497-a9f4-315aa2455dcd","system_id":"levelo_inurba_marseille","lat":43.29529,"lon":5.385581,"is_reserved":false,"is_disabled":false,"rental_uris":{"android":"levelo://app?vid=ceb9451e-2b2c-4497-a9f4-315aa2455dcd","ios":"levelo://app?vid=ceb9451e-2b2c-4497-a9f4-315aa2455dcd"},"vehicle_type_id":"4","last_reported":1707764795,"current_range_meters":15600,"station_id":"ce4bgih2rcd13ifvqba0","pricing_plan_id":"free"},{"bike_id":"ac0afb0e-8469-4924-8507-6a88babf959b","system_id":"levelo_inurba_marseille","lat":43.29529,"lon":5.385581,"is_reserved":false,"is_disabled":false,"rental_uris":{"android":"levelo://app?vid=ac0afb0e-8469-4924-8507-6a88babf959b","ios":"levelo://app?vid=ac0afb0e-8469-4924-8507-6a88babf959b"},"vehicle_type_id":"4","last_reported":1707764795,"current_range_meters":14000,"station_id":"ce4bgih2rcd13ifvqba0","pricing_plan_id":"free"},{"bike_id":"46b28c06-c48f-422d-ac0c-f0a898f140d4","system_id":"levelo_inurba_marseille","lat":43.293259,"lon":5.371586,"is_reserved":false,"is_disabled":false,"rental_uris":{"android":"levelo://app?vid=46b28c06-c48f-422d-ac0c-f0a898f140d4","ios":"levelo://app?vid=46b28c06-c48f-422d-ac0c-f0a898f140d4"},"vehicle_type_id":"4","last_reported":1707764795,"current_range_meters":30800,"station_id":"ce4bgh92rcd13ifvqb40","pricing_plan_id":"free"},{"bike_id":"88ed6a44-0e0a-4972-9930-085cea0979e1","system_id":"levelo_inurba_marseille","lat":43.29529,"lon":5.385581,"is_reserved":false,"is_disabled":false,"rental_uris":{"android":"levelo://app?vid=88ed6a44-0e0a-4972-9930-085cea0979e1","ios":"levelo://app?vid=88ed6a44-0e0a-4972-9930-085cea0979e1"},"vehicle_type_id":"4","last_reported":1707764795,"current_range_meters":10400,"station_id":"ce4bgih2rcd13ifvqba0","pricing_plan_id":"free"},{"bike_id":"24e461b7-3747-45a0-b2c2-d1440118fd7b","system_id":"levelo_inurba_marseille","lat":43.290779,"lon":5.371482,"is_reserved":false,"is_disabled":false,"rental_uris":{"android":"levelo://app?vid=24e461b7-3747-45a0-b2c2-d1440118fd7b","ios":"levelo://app?vid=24e461b7-3747-45a0-b2c2-d1440118fd7b"},"vehicle_type_id":"4","last_reported":1707764795,"current_range_meters":9600,"station_id":"ce4bh5p2rcd13ifvqe4g","pricing_plan_id":"free"},{"bike_id":"89bb6738-9e8c-473d-b11e-69f6a4a4da08","system_id":"levelo_inurba_marseille","lat":43.289184,"lon":5.366408,"is_reserved":false,"is_disabled":false,"rental_uris":{"android":"levelo://app?vid=89bb6738-9e8c-473d-b11e-69f6a4a4da08","ios":"levelo://app?vid=89bb6738-9e8c-473d-b11e-69f6a4a4da08"},"vehicle_type_id":"4","last_reported":1707764795,"current_range_meters":8000,"station_id":"ce4bhap2rcd13ifvqek0","pricing_plan_id":"free"},{"bike_id":"66987a52-4dc8-49de-aae0-4564067c4d06","system_id":"levelo_inurba_marseille","lat":43.302008,"lon":5.394694,"is_reserved":false,"is_disabled":false,"rental_uris":{"android":"levelo://app?vid=66987a52-4dc8-49de-aae0-4564067c4d06","ios":"levelo://app?vid=66987a52-4dc8-49de-aae0-4564067c4d06"},"vehicle_type_id":"4","last_reported":1707764795,"current_range_meters":1600,"station_id":"ce4bh0p2rcd13ifvqd70","pricing_plan_id":"free"},{"bike_id":"e55312b4-4b98-477b-91c6-18d249a2db68","system_id":"levelo_inurba_marseille","lat":43.302008,"lon":5.394694,"is_reserved":false,"is_disabled":false,"rental_uris":{"android":"levelo://app?vid=e55312b4-4b98-477b-91c6-18d249a2db68","ios":"levelo://app?vid=e55312b4-4b98-477b-91c6-18d249a2db68"},"vehicle_type_id":"4","last_reported":1707764795,"current_range_meters":18000,"station_id":"ce4bh0p2rcd13ifvqd70","pricing_plan_id":"free"},{"bike_id":"2298d897-b6e4-4893-92f4-df39740b3fff","system_id":"levelo_inurba_marseille","lat":43.302008,"lon":5.394694,"is_reserved":false,"is_disabled":false,"rental_uris":{"android":"levelo://app?vid=2298d897-b6e4-4893-92f4-df39740b3fff","ios":"levelo://app?vid=2298d897-b6e4-4893-92f4-df39740b3fff"},"vehicle_type_id":"4","last_reported":1707764795,"current_range_meters":15600,"station_id":"ce4bh0p2rcd13ifvqd70","pricing_plan_id":"free"},{"bike_id":"b1d5bdb1-4b70-470e-9a09-18a4b0156c5f","system_id":"levelo_inurba_marseille","lat":43.290624,"lon":5.359245,"is_reserved":false,"is_disabled":false,"rental_uris":{"android":"levelo://app?vid=b1d5bdb1-4b70-470e-9a09-18a4b0156c5f","ios":"levelo://app?vid=b1d5bdb1-4b70-470e-9a09-18a4b0156c5f"},"vehicle_type_id":"4","last_reported":1707764795,"current_range_meters":6800,"station_id":"ce4bha92rcd13ifvqeg0","pricing_plan_id":"free"},{"bike_id":"925fd002-5d15-4226-b409-dfa8103dd287","system_id":"levelo_inurba_marseille","lat":43.290779,"lon":5.371482,"is_reserved":false,"is_disabled":false,"rental_uris":{"android":"levelo://app?vid=925fd002-5d15-4226-b409-dfa8103dd287","ios":"levelo://app?vid=925fd002-5d15-4226-b409-dfa8103dd287"},"vehicle_type_id":"4","last_reported":1707764795,"current_range_meters":25200,"station_id":"ce4bh5p2rcd13ifvqe4g","pricing_plan_id":"free"},{"bike_id":"a603c5ca-e8a0-4288-b6db-0c4780a44ad5","system_id":"levelo_inurba_marseille","lat":43.290624,"lon":5.359245,"is_reserved":false,"is_disabled":false,"rental_uris":{"android":"levelo://app?vid=a603c5ca-e8a0-4288-b6db-0c4780a44ad5","ios":"levelo://app?vid=a603c5ca-e8a0-4288-b6db-0c4780a44ad5"},"vehicle_type_id":"4","last_reported":1707764795,"current_range_meters":24800,"station_id":"ce4bha92rcd13ifvqeg0","pricing_plan_id":"free"},{"bike_id":"69363c8f-802e-4acc-9096-444efa8f5b75","system_id":"levelo_inurba_marseille","lat":43.29044,"lon":5.35916,"is_reserved":false,"is_disabled":false,"rental_uris":{"android":"levelo://app?vid=69363c8f-802e-4acc-9096-444efa8f5b75","ios":"levelo://app?vid=69363c8f-802e-4acc-9096-444efa8f5b75"},"vehicle_type_id":"4","last_reported":1707764795,"current_range_meters":6800,"station_id":"ce4bha92rcd13ifvqeg0","pricing_plan_id":"free"},{"bike_id":"7bd24f1b-db95-4bb6-9ac3-3c73d6eb2fa8","system_id":"levelo_inurba_marseille","lat":43.290422,"lon":5.359238,"is_reserved":false,"is_disabled":false,"rental_uris":{"android":"levelo://app?vid=7bd24f1b-db95-4bb6-9ac3-3c73d6eb2fa8","ios":"levelo://app?vid=7bd24f1b-db95-4bb6-9ac3-3c73d6eb2fa8"},"vehicle_type_id":"4","last_reported":1707764795,"current_range_meters":17600,"station_id":"ce4bha92rcd13ifvqeg0","pricing_plan_id":"free"},{"bike_id":"353a1cc5-6b1e-4926-9070-6d0293c025e9","system_id":"levelo_inurba_marseille","lat":43.290624,"lon":5.359245,"is_reserved":false,"is_disabled":false,"rental_uris":{"android":"levelo://app?vid=353a1cc5-6b1e-4926-9070-6d0293c025e9","ios":"levelo://app?vid=353a1cc5-6b1e-4926-9070-6d0293c025e9"},"vehicle_type_id":"4","last_reported":1707764795,"current_range_meters":25600,"station_id":"ce4bha92rcd13ifvqeg0","pricing_plan_id":"free"},{"bike_id":"48e5bb05-9f41-451f-b7e4-fbc160869010","system_id":"levelo_inurba_marseille","lat":43.290631,"lon":5.359244,"is_reserved":false,"is_disabled":false,"rental_uris":{"android":"levelo://app?vid=48e5bb05-9f41-451f-b7e4-fbc160869010","ios":"levelo://app?vid=48e5bb05-9f41-451f-b7e4-fbc160869010"},"vehicle_type_id":"4","last_reported":1707764795,"current_range_meters":24800,"station_id":"ce4bha92rcd13ifvqeg0","pricing_plan_id":"free"},{"bike_id":"b5d7fd72-6714-4efc-a261-8ebaea6305ba","system_id":"levelo_inurba_marseille","lat":43.294153,"lon":5.386305,"is_reserved":false,"is_disabled":false,"rental_uris":{"android":"levelo://app?vid=b5d7fd72-6714-4efc-a261-8ebaea6305ba","ios":"levelo://app?vid=b5d7fd72-6714-4efc-a261-8ebaea6305ba"},"vehicle_type_id":"4","last_reported":1707764795,"current_range_meters":28800,"station_id":"ce4bh2h2rcd13ifvqdh0","pricing_plan_id":"free"},{"bike_id":"8887911f-d7e7-4499-9a6d-64746ec503b7","system_id":"levelo_inurba_marseille","lat":43.290327,"lon":5.375711,"is_reserved":false,"is_disabled":false,"rental_uris":{"android":"levelo://app?vid=8887911f-d7e7-4499-9a6d-64746ec503b7","ios":"levelo://app?vid=8887911f-d7e7-4499-9a6d-64746ec503b7"},"vehicle_type_id":"4","last_reported":1707764795,"current_range_meters":6000,"station_id":"ce4bh692rcd13ifvqe90","pricing_plan_id":"free"},{"bike_id":"bcd4bb67-ae20-4698-a4e2-5761de1c9755","system_id":"levelo_inurba_marseille","lat":43.294153,"lon":5.386305,"is_reserved":false,"is_disabled":false,"rental_uris":{"android":"levelo://app?vid=bcd4bb67-ae20-4698-a4e2-5761de1c9755","ios":"levelo://app?vid=bcd4bb67-ae20-4698-a4e2-5761de1c9755"},"vehicle_type_id":"4","last_reported":1707764795,"current_range_meters":800,"station_id":"ce4bh2h2rcd13ifvqdh0","pricing_plan_id":"free"},{"bike_id":"1585f5a4-f61e-4d6b-970f-ba8ae4ec4bee","system_id":"levelo_inurba_marseille","lat":43.29416,"lon":5.38621,"is_reserved":false,"is_disabled":false,"rental_uris":{"android":"levelo://app?vid=1585f5a4-f61e-4d6b-970f-ba8ae4ec4bee","ios":"levelo://app?vid=1585f5a4-f61e-4d6b-970f-ba8ae4ec4bee"},"vehicle_type_id":"4","last_reported":1707764795,"current_range_meters":0,"station_id":"ce4bh2h2rcd13ifvqdh0","pricing_plan_id":"free"},{"bike_id":"81caefe7-ab86-44b7-bf28-dcd8c832db24","system_id":"levelo_inurba_marseille","lat":43.294153,"lon":5.386305,"is_reserved":false,"is_disabled":false,"rental_uris":{"android":"levelo://app?vid=81caefe7-ab86-44b7-bf28-dcd8c832db24","ios":"levelo://app?vid=81caefe7-ab86-44b7-bf28-dcd8c832db24"},"vehicle_type_id":"4","last_reported":1707764795,"current_range_meters":26800,"station_id":"ce4bh2h2rcd13ifvqdh0","pricing_plan_id":"free"},{"bike_id":"8a358fbb-3744-4b18-bf0d-5a46b6102156","system_id":"levelo_inurba_marseille","lat":43.29419,"lon":5.38632,"is_reserved":false,"is_disabled":false,"rental_uris":{"android":"levelo://app?vid=8a358fbb-3744-4b18-bf0d-5a46b6102156","ios":"levelo://app?vid=8a358fbb-3744-4b18-bf0d-5a46b6102156"},"vehicle_type_id":"4","last_reported":1707764795,"current_range_meters":0,"station_id":"ce4bh2h2rcd13ifvqdh0","pricing_plan_id":"free"},{"bike_id":"5d1172a1-e966-40e3-b31c-f3ee4100e7bd","system_id":"levelo_inurba_marseille","lat":43.29416,"lon":5.38627,"is_reserved":false,"is_disabled":false,"rental_uris":{"android":"levelo://app?vid=5d1172a1-e966-40e3-b31c-f3ee4100e7bd","ios":"levelo://app?vid=5d1172a1-e966-40e3-b31c-f3ee4100e7bd"},"vehicle_type_id":"4","last_reported":1707764795,"current_range_meters":0,"station_id":"ce4bh2h2rcd13ifvqdh0","pricing_plan_id":"free"},{"bike_id":"35406035-fe98-455e-b7d6-e507dbe2c3d7","system_id":"levelo_inurba_marseille","lat":43.289184,"lon":5.366408,"is_reserved":false,"is_disabled":false,"rental_uris":{"android":"levelo://app?vid=35406035-fe98-455e-b7d6-e507dbe2c3d7","ios":"levelo://app?vid=35406035-fe98-455e-b7d6-e507dbe2c3d7"},"vehicle_type_id":"4","last_reported":1707764795,"current_range_meters":14800,"station_id":"ce4bhap2rcd13ifvqek0","pricing_plan_id":"free"},{"bike_id":"51355ab9-8d78-49f5-98de-be4432d05d54","system_id":"levelo_inurba_marseille","lat":43.289184,"lon":5.366408,"is_reserved":false,"is_disabled":false,"rental_uris":{"android":"levelo://app?vid=51355ab9-8d78-49f5-98de-be4432d05d54","ios":"levelo://app?vid=51355ab9-8d78-49f5-98de-be4432d05d54"},"vehicle_type_id":"4","last_reported":1707764795,"current_range_meters":6000,"station_id":"ce4bhap2rcd13ifvqek0","pricing_plan_id":"free"},{"bike_id":"fb15ef86-0bf2-4a54-9180-5ccb5a22e557","system_id":"levelo_inurba_marseille","lat":43.289184,"lon":5.366408,"is_reserved":false,"is_disabled":false,"rental_uris":{"android":"levelo://app?vid=fb15ef86-0bf2-4a54-9180-5ccb5a22e557","ios":"levelo://app?vid=fb15ef86-0bf2-4a54-9180-5ccb5a22e557"},"vehicle_type_id":"4","last_reported":1707764795,"current_range_meters":18400,"station_id":"ce4bhap2rcd13ifvqek0","pricing_plan_id":"free"},{"bike_id":"15450742-2b6f-4735-82ce-d3b3b720eb7c","system_id":"levelo_inurba_marseille","lat":43.289184,"lon":5.366408,"is_reserved":false,"is_disabled":false,"rental_uris":{"android":"levelo://app?vid=15450742-2b6f-4735-82ce-d3b3b720eb7c","ios":"levelo://app?vid=15450742-2b6f-4735-82ce-d3b3b720eb7c"},"vehicle_type_id":"4","last_reported":1707764795,"current_range_meters":2800,"station_id":"ce4bhap2rcd13ifvqek0","pricing_plan_id":"free"},{"bike_id":"3024b10a-5516-4905-9ffb-9153d442989d","system_id":"levelo_inurba_marseille","lat":43.289184,"lon":5.366408,"is_reserved":false,"is_disabled":false,"rental_uris":{"android":"levelo://app?vid=3024b10a-5516-4905-9ffb-9153d442989d","ios":"levelo://app?vid=3024b10a-5516-4905-9ffb-9153d442989d"},"vehicle_type_id":"4","last_reported":1707764795,"current_range_meters":15200,"station_id":"ce4bhap2rcd13ifvqek0","pricing_plan_id":"free"},{"bike_id":"f5b26537-d860-4ead-a539-8382701a8c38","system_id":"levelo_inurba_marseille","lat":43.289184,"lon":5.366408,"is_reserved":false,"is_disabled":false,"rental_uris":{"android":"levelo://app?vid=f5b26537-d860-4ead-a539-8382701a8c38","ios":"levelo://app?vid=f5b26537-d860-4ead-a539-8382701a8c38"},"vehicle_type_id":"4","last_reported":1707764795,"current_range_meters":14400,"station_id":"ce4bhap2rcd13ifvqek0","pricing_plan_id":"free"},{"bike_id":"29450a0e-4e8c-4ae8-93e8-0f29d5edcab6","system_id":"levelo_inurba_marseille","lat":43.289184,"lon":5.366408,"is_reserved":false,"is_disabled":false,"rental_uris":{"android":"levelo://app?vid=29450a0e-4e8c-4ae8-93e8-0f29d5edcab6","ios":"levelo://app?vid=29450a0e-4e8c-4ae8-93e8-0f29d5edcab6"},"vehicle_type_id":"4","last_reported":1707764795,"current_range_meters":24000,"station_id":"ce4bhap2rcd13ifvqek0","pricing_plan_id":"free"},{"bike_id":"7fa59985-a757-40e1-b6ff-a309cbb326f0","system_id":"levelo_inurba_marseille","lat":43.289184,"lon":5.366408,"is_reserved":false,"is_disabled":false,"rental_uris":{"android":"levelo://app?vid=7fa59985-a757-40e1-b6ff-a309cbb326f0","ios":"levelo://app?vid=7fa59985-a757-40e1-b6ff-a309cbb326f0"},"vehicle_type_id":"4","last_reported":1707764795,"current_range_meters":24000,"station_id":"ce4bhap2rcd13ifvqek0","pricing_plan_id":"free"},{"bike_id":"7d3a68d5-ed21-4163-8caa-72cb58ecae1d","system_id":"levelo_inurba_marseille","lat":43.294162,"lon":5.386292,"is_reserved":false,"is_disabled":false,"rental_uris":{"android":"levelo://app?vid=7d3a68d5-ed21-4163-8caa-72cb58ecae1d","ios":"levelo://app?vid=7d3a68d5-ed21-4163-8caa-72cb58ecae1d"},"vehicle_type_id":"4","last_reported":1707764795,"current_range_meters":21200,"station_id":"ce4bh2h2rcd13ifvqdh0","pricing_plan_id":"free"},{"bike_id":"5a4cef74-4a66-4530-9c94-93a6061f8ce1","system_id":"levelo_inurba_marseille","lat":43.28936,"lon":5.36638,"is_reserved":false,"is_disabled":false,"rental_uris":{"android":"levelo://app?vid=5a4cef74-4a66-4530-9c94-93a6061f8ce1","ios":"levelo://app?vid=5a4cef74-4a66-4530-9c94-93a6061f8ce1"},"vehicle_type_id":"4","last_reported":1707764795,"current_range_meters":16000,"station_id":"ce4bhap2rcd13ifvqek0","pricing_plan_id":"free"},{"bike_id":"29f8e4cb-24ce-4a5b-a6ca-9983793f9c8d","system_id":"levelo_inurba_marseille","lat":43.289468,"lon":5.363719,"is_reserved":false,"is_disabled":false,"rental_uris":{"android":"levelo://app?vid=29f8e4cb-24ce-4a5b-a6ca-9983793f9c8d","ios":"levelo://app?vid=29f8e4cb-24ce-4a5b-a6ca-9983793f9c8d"},"vehicle_type_id":"4","last_reported":1707764795,"current_range_meters":29200,"station_id":"ce4bhc92rcd13ifvqetg","pricing_plan_id":"free"},{"bike_id":"699bb16f-2a09-4b16-98e9-c6805bc719d5","system_id":"levelo_inurba_marseille","lat":43.289468,"lon":5.363719,"is_reserved":false,"is_disabled":false,"rental_uris":{"android":"levelo://app?vid=699bb16f-2a09-4b16-98e9-c6805bc719d5","ios":"levelo://app?vid=699bb16f-2a09-4b16-98e9-c6805bc719d5"},"vehicle_type_id":"4","last_reported":1707764795,"current_range_meters":23200,"station_id":"ce4bhc92rcd13ifvqetg","pricing_plan_id":"free"},{"bike_id":"938261e3-07d2-4863-ae5e-4b934f3208e9","system_id":"levelo_inurba_marseille","lat":43.28934,"lon":5.36649,"is_reserved":false,"is_disabled":false,"rental_uris":{"android":"levelo://app?vid=938261e3-07d2-4863-ae5e-4b934f3208e9","ios":"levelo://app?vid=938261e3-07d2-4863-ae5e-4b934f3208e9"},"vehicle_type_id":"4","last_reported":1707764795,"current_range_meters":8000,"station_id":"ce4bhap2rcd13ifvqek0","pricing_plan_id":"free"},{"bike_id":"d6817cab-ffc3-4741-819c-221b8bf35a31","system_id":"levelo_inurba_marseille","lat":43.289184,"lon":5.366408,"is_reserved":false,"is_disabled":false,"rental_uris":{"android":"levelo://app?vid=d6817cab-ffc3-4741-819c-221b8bf35a31","ios":"levelo://app?vid=d6817cab-ffc3-4741-819c-221b8bf35a31"},"vehicle_type_id":"4","last_reported":1707764795,"current_range_meters":31600,"station_id":"ce4bhap2rcd13ifvqek0","pricing_plan_id":"free"},{"bike_id":"bcb9ad1d-0dcc-45fe-85c5-e337290310f2","system_id":"levelo_inurba_marseille","lat":43.289184,"lon":5.366408,"is_reserved":false,"is_disabled":false,"rental_uris":{"android":"levelo://app?vid=bcb9ad1d-0dcc-45fe-85c5-e337290310f2","ios":"levelo://app?vid=bcb9ad1d-0dcc-45fe-85c5-e337290310f2"},"vehicle_type_id":"4","last_reported":1707764795,"current_range_meters":31600,"station_id":"ce4bhap2rcd13ifvqek0","pricing_plan_id":"free"},{"bike_id":"02a5acd7-5948-443d-8939-4531069fd7c9","system_id":"levelo_inurba_marseille","lat":43.289468,"lon":5.363719,"is_reserved":false,"is_disabled":false,"rental_uris":{"android":"levelo://app?vid=02a5acd7-5948-443d-8939-4531069fd7c9","ios":"levelo://app?vid=02a5acd7-5948-443d-8939-4531069fd7c9"},"vehicle_type_id":"4","last_reported":1707764795,"current_range_meters":29200,"station_id":"ce4bhc92rcd13ifvqetg","pricing_plan_id":"free"},{"bike_id":"d1049bdf-0ea5-41aa-9cc7-37bc0a6be411","system_id":"levelo_inurba_marseille","lat":43.289184,"lon":5.366408,"is_reserved":false,"is_disabled":false,"rental_uris":{"android":"levelo://app?vid=d1049bdf-0ea5-41aa-9cc7-37bc0a6be411","ios":"levelo://app?vid=d1049bdf-0ea5-41aa-9cc7-37bc0a6be411"},"vehicle_type_id":"4","last_reported":1707764795,"current_range_meters":12800,"station_id":"ce4bhap2rcd13ifvqek0","pricing_plan_id":"free"},{"bike_id":"0e01a4bb-d54e-4d83-bb79-83d22e679612","system_id":"levelo_inurba_marseille","lat":43.289184,"lon":5.366408,"is_reserved":false,"is_disabled":false,"rental_uris":{"android":"levelo://app?vid=0e01a4bb-d54e-4d83-bb79-83d22e679612","ios":"levelo://app?vid=0e01a4bb-d54e-4d83-bb79-83d22e679612"},"vehicle_type_id":"4","last_reported":1707764795,"current_range_meters":9200,"station_id":"ce4bhap2rcd13ifvqek0","pricing_plan_id":"free"},{"bike_id":"a84edf36-97f8-4239-bcaf-592dbe9a0898","system_id":"levelo_inurba_marseille","lat":43.295169,"lon":5.390426,"is_reserved":false,"is_disabled":false,"rental_uris":{"android":"levelo://app?vid=a84edf36-97f8-4239-bcaf-592dbe9a0898","ios":"levelo://app?vid=a84edf36-97f8-4239-bcaf-592dbe9a0898"},"vehicle_type_id":"4","last_reported":1707764795,"current_range_meters":0,"station_id":"ce4bh3p2rcd13ifvqdp0","pricing_plan_id":"free"},{"bike_id":"9271b4cb-6b05-4b59-990c-c0cf8f9a8641","system_id":"levelo_inurba_marseille","lat":43.304274,"lon":5.397513,"is_reserved":false,"is_disabled":false,"rental_uris":{"android":"levelo://app?vid=9271b4cb-6b05-4b59-990c-c0cf8f9a8641","ios":"levelo://app?vid=9271b4cb-6b05-4b59-990c-c0cf8f9a8641"},"vehicle_type_id":"4","last_reported":1707764795,"current_range_meters":8800,"station_id":"ce4bh092rcd13ifvqd20","pricing_plan_id":"free"},{"bike_id":"24486547-6d17-466a-a558-e75e2f854a25","system_id":"levelo_inurba_marseille","lat":43.292644,"lon":5.384257,"is_reserved":false,"is_disabled":false,"rental_uris":{"android":"levelo://app?vid=24486547-6d17-466a-a558-e75e2f854a25","ios":"levelo://app?vid=24486547-6d17-466a-a558-e75e2f854a25"},"vehicle_type_id":"4","last_reported":1707764795,"current_range_meters":16400,"station_id":"ce4bh692rcd13ifvqea0","pricing_plan_id":"free"},{"bike_id":"e4321d3c-360c-4860-85df-48a5d166c1be","system_id":"levelo_inurba_marseille","lat":43.304274,"lon":5.397513,"is_reserved":false,"is_disabled":false,"rental_uris":{"android":"levelo://app?vid=e4321d3c-360c-4860-85df-48a5d166c1be","ios":"levelo://app?vid=e4321d3c-360c-4860-85df-48a5d166c1be"},"vehicle_type_id":"4","last_reported":1707764795,"current_range_meters":24800,"station_id":"ce4bh092rcd13ifvqd20","pricing_plan_id":"free"},{"bike_id":"e4ccd828-c247-4310-8b19-2f665531130f","system_id":"levelo_inurba_marseille","lat":43.292642,"lon":5.384254,"is_reserved":false,"is_disabled":false,"rental_uris":{"android":"levelo://app?vid=e4ccd828-c247-4310-8b19-2f665531130f","ios":"levelo://app?vid=e4ccd828-c247-4310-8b19-2f665531130f"},"vehicle_type_id":"4","last_reported":1707764795,"current_range_meters":10800,"station_id":"ce4bh692rcd13ifvqea0","pricing_plan_id":"free"},{"bike_id":"06374d9c-b31a-45d0-a754-666a3bd6f197","system_id":"levelo_inurba_marseille","lat":43.292642,"lon":5.384254,"is_reserved":false,"is_disabled":false,"rental_uris":{"android":"levelo://app?vid=06374d9c-b31a-45d0-a754-666a3bd6f197","ios":"levelo://app?vid=06374d9c-b31a-45d0-a754-666a3bd6f197"},"vehicle_type_id":"4","last_reported":1707764795,"current_range_meters":20400,"station_id":"ce4bh692rcd13ifvqea0","pricing_plan_id":"free"},{"bike_id":"1bb1ad71-c8c4-4dbf-9fc5-6ce5d7339487","system_id":"levelo_inurba_marseille","lat":43.304274,"lon":5.397513,"is_reserved":false,"is_disabled":false,"rental_uris":{"android":"levelo://app?vid=1bb1ad71-c8c4-4dbf-9fc5-6ce5d7339487","ios":"levelo://app?vid=1bb1ad71-c8c4-4dbf-9fc5-6ce5d7339487"},"vehicle_type_id":"4","last_reported":1707764795,"current_range_meters":20400,"station_id":"ce4bh092rcd13ifvqd20","pricing_plan_id":"free"},{"bike_id":"68438b5c-1051-4991-a658-94f75b54f69d","system_id":"levelo_inurba_marseille","lat":43.304296,"lon":5.397513,"is_reserved":false,"is_disabled":false,"rental_uris":{"android":"levelo://app?vid=68438b5c-1051-4991-a658-94f75b54f69d","ios":"levelo://app?vid=68438b5c-1051-4991-a658-94f75b54f69d"},"vehicle_type_id":"4","last_reported":1707764795,"current_range_meters":4000,"station_id":"ce4bh092rcd13ifvqd20","pricing_plan_id":"free"},{"bike_id":"031709bf-03ea-4970-a4ff-125b72cc4eab","system_id":"levelo_inurba_marseille","lat":43.292642,"lon":5.384254,"is_reserved":false,"is_disabled":false,"rental_uris":{"android":"levelo://app?vid=031709bf-03ea-4970-a4ff-125b72cc4eab","ios":"levelo://app?vid=031709bf-03ea-4970-a4ff-125b72cc4eab"},"vehicle_type_id":"4","last_reported":1707764795,"current_range_meters":9200,"station_id":"ce4bh692rcd13ifvqea0","pricing_plan_id":"free"},{"bike_id":"121db312-d4e2-486a-9f06-f11e24d43d0f","system_id":"levelo_inurba_marseille","lat":43.292642,"lon":5.384254,"is_reserved":false,"is_disabled":false,"rental_uris":{"android":"levelo://app?vid=121db312-d4e2-486a-9f06-f11e24d43d0f","ios":"levelo://app?vid=121db312-d4e2-486a-9f06-f11e24d43d0f"},"vehicle_type_id":"4","last_reported":1707764795,"current_range_meters":1600,"station_id":"ce4bh692rcd13ifvqea0","pricing_plan_id":"free"},{"bike_id":"8a5daf49-f231-46a2-8c35-1d99096a3c72","system_id":"levelo_inurba_marseille","lat":43.290103,"lon":5.356114,"is_reserved":false,"is_disabled":false,"rental_uris":{"android":"levelo://app?vid=8a5daf49-f231-46a2-8c35-1d99096a3c72","ios":"levelo://app?vid=8a5daf49-f231-46a2-8c35-1d99096a3c72"},"vehicle_type_id":"4","last_reported":1707764795,"current_range_meters":12400,"station_id":"ce4bhb92rcd13ifvqen0","pricing_plan_id":"free"},{"bike_id":"3439cc38-084c-4bff-815b-377c5d4fdfe2","system_id":"levelo_inurba_marseille","lat":43.29007,"lon":5.35613,"is_reserved":false,"is_disabled":false,"rental_uris":{"android":"levelo://app?vid=3439cc38-084c-4bff-815b-377c5d4fdfe2","ios":"levelo://app?vid=3439cc38-084c-4bff-815b-377c5d4fdfe2"},"vehicle_type_id":"4","last_reported":1707764795,"current_range_meters":15200,"station_id":"ce4bhb92rcd13ifvqen0","pricing_plan_id":"free"},{"bike_id":"7e9ac007-98b8-428a-b2ae-87ebba756d57","system_id":"levelo_inurba_marseille","lat":43.290103,"lon":5.356114,"is_reserved":false,"is_disabled":false,"rental_uris":{"android":"levelo://app?vid=7e9ac007-98b8-428a-b2ae-87ebba756d57","ios":"levelo://app?vid=7e9ac007-98b8-428a-b2ae-87ebba756d57"},"vehicle_type_id":"4","last_reported":1707764795,"current_range_meters":20800,"station_id":"ce4bhb92rcd13ifvqen0","pricing_plan_id":"free"},{"bike_id":"e9884606-594a-4f0f-b922-812982ff6ea2","system_id":"levelo_inurba_marseille","lat":43.29004,"lon":5.35612,"is_reserved":false,"is_disabled":false,"rental_uris":{"android":"levelo://app?vid=e9884606-594a-4f0f-b922-812982ff6ea2","ios":"levelo://app?vid=e9884606-594a-4f0f-b922-812982ff6ea2"},"vehicle_type_id":"4","last_reported":1707764795,"current_range_meters":19200,"station_id":"ce4bhb92rcd13ifvqen0","pricing_plan_id":"free"},{"bike_id":"562b027d-ac07-4cd3-bda8-658dd76d04b1","system_id":"levelo_inurba_marseille","lat":43.290024,"lon":5.356136,"is_reserved":false,"is_disabled":false,"rental_uris":{"android":"levelo://app?vid=562b027d-ac07-4cd3-bda8-658dd76d04b1","ios":"levelo://app?vid=562b027d-ac07-4cd3-bda8-658dd76d04b1"},"vehicle_type_id":"4","last_reported":1707764795,"current_range_meters":25200,"station_id":"ce4bhb92rcd13ifvqen0","pricing_plan_id":"free"},{"bike_id":"3ea19759-a726-45bd-b1b8-e2737bc4cbae","system_id":"levelo_inurba_marseille","lat":43.29003,"lon":5.35608,"is_reserved":false,"is_disabled":false,"rental_uris":{"android":"levelo://app?vid=3ea19759-a726-45bd-b1b8-e2737bc4cbae","ios":"levelo://app?vid=3ea19759-a726-45bd-b1b8-e2737bc4cbae"},"vehicle_type_id":"4","last_reported":1707764795,"current_range_meters":6800,"station_id":"ce4bhb92rcd13ifvqen0","pricing_plan_id":"free"},{"bike_id":"50ada13c-b49e-4a7a-b058-c9290aff965d","system_id":"levelo_inurba_marseille","lat":43.290104,"lon":5.356111,"is_reserved":false,"is_disabled":false,"rental_uris":{"android":"levelo://app?vid=50ada13c-b49e-4a7a-b058-c9290aff965d","ios":"levelo://app?vid=50ada13c-b49e-4a7a-b058-c9290aff965d"},"vehicle_type_id":"4","last_reported":1707764795,"current_range_meters":22400,"station_id":"ce4bhb92rcd13ifvqen0","pricing_plan_id":"free"},{"bike_id":"d2d4de53-8cc9-41f6-9ae6-28c239d59eb4","system_id":"levelo_inurba_marseille","lat":43.290104,"lon":5.356111,"is_reserved":false,"is_disabled":false,"rental_uris":{"android":"levelo://app?vid=d2d4de53-8cc9-41f6-9ae6-28c239d59eb4","ios":"levelo://app?vid=d2d4de53-8cc9-41f6-9ae6-28c239d59eb4"},"vehicle_type_id":"4","last_reported":1707764795,"current_range_meters":27600,"station_id":"ce4bhb92rcd13ifvqen0","pricing_plan_id":"free"},{"bike_id":"ee6cd0a7-9d9b-4235-afb0-51a17dfea42f","system_id":"levelo_inurba_marseille","lat":43.289743,"lon":5.378304,"is_reserved":false,"is_disabled":false,"rental_uris":{"android":"levelo://app?vid=ee6cd0a7-9d9b-4235-afb0-51a17dfea42f","ios":"levelo://app?vid=ee6cd0a7-9d9b-4235-afb0-51a17dfea42f"},"vehicle_type_id":"4","last_reported":1707764795,"current_range_meters":25200,"station_id":"ce4bh9p2rcd13ifvqed0","pricing_plan_id":"free"},{"bike_id":"d207d1d9-e26e-430e-8278-f7f6fc1744d4","system_id":"levelo_inurba_marseille","lat":43.290103,"lon":5.356114,"is_reserved":false,"is_disabled":false,"rental_uris":{"android":"levelo://app?vid=d207d1d9-e26e-430e-8278-f7f6fc1744d4","ios":"levelo://app?vid=d207d1d9-e26e-430e-8278-f7f6fc1744d4"},"vehicle_type_id":"4","last_reported":1707764795,"current_range_meters":17200,"station_id":"ce4bhb92rcd13ifvqen0","pricing_plan_id":"free"},{"bike_id":"ba5b7041-5550-4f99-9fc1-0a9aff345997","system_id":"levelo_inurba_marseille","lat":43.290995,"lon":5.381361,"is_reserved":false,"is_disabled":false,"rental_uris":{"android":"levelo://app?vid=ba5b7041-5550-4f99-9fc1-0a9aff345997","ios":"levelo://app?vid=ba5b7041-5550-4f99-9fc1-0a9aff345997"},"vehicle_type_id":"4","last_reported":1707764795,"current_range_meters":26000,"station_id":"ce4bh512rcd13ifvqe2g","pricing_plan_id":"free"},{"bike_id":"4b487490-1648-4bb4-8755-c9d23c32e99e","system_id":"levelo_inurba_marseille","lat":43.290995,"lon":5.381361,"is_reserved":false,"is_disabled":false,"rental_uris":{"android":"levelo://app?vid=4b487490-1648-4bb4-8755-c9d23c32e99e","ios":"levelo://app?vid=4b487490-1648-4bb4-8755-c9d23c32e99e"},"vehicle_type_id":"4","last_reported":1707764795,"current_range_meters":19600,"station_id":"ce4bh512rcd13ifvqe2g","pricing_plan_id":"free"},{"bike_id":"bae50f70-1df2-421b-a550-fc4c983f91af","system_id":"levelo_inurba_marseille","lat":43.295169,"lon":5.390426,"is_reserved":false,"is_disabled":false,"rental_uris":{"android":"levelo://app?vid=bae50f70-1df2-421b-a550-fc4c983f91af","ios":"levelo://app?vid=bae50f70-1df2-421b-a550-fc4c983f91af"},"vehicle_type_id":"4","last_reported":1707764795,"current_range_meters":16000,"station_id":"ce4bh3p2rcd13ifvqdp0","pricing_plan_id":"free"},{"bike_id":"5b32f72e-ec56-46a8-96f5-c60f0d1eadcb","system_id":"levelo_inurba_marseille","lat":43.283502,"lon":5.386471,"is_reserved":false,"is_disabled":false,"rental_uris":{"android":"levelo://app?vid=5b32f72e-ec56-46a8-96f5-c60f0d1eadcb","ios":"levelo://app?vid=5b32f72e-ec56-46a8-96f5-c60f0d1eadcb"},"vehicle_type_id":"4","last_reported":1707764795,"current_range_meters":8000,"station_id":"ce4bh492rcd13ifvqdvg","pricing_plan_id":"free"},{"bike_id":"fa810a66-0cab-4025-8ba0-c4d4ff93f0ec","system_id":"levelo_inurba_marseille","lat":43.289741,"lon":5.378306,"is_reserved":false,"is_disabled":false,"rental_uris":{"android":"levelo://app?vid=fa810a66-0cab-4025-8ba0-c4d4ff93f0ec","ios":"levelo://app?vid=fa810a66-0cab-4025-8ba0-c4d4ff93f0ec"},"vehicle_type_id":"4","last_reported":1707764795,"current_range_meters":1200,"station_id":"ce4bh9p2rcd13ifvqed0","pricing_plan_id":"free"},{"bike_id":"ba7895df-fdf0-43d4-b40a-e7e64d29137d","system_id":"levelo_inurba_marseille","lat":43.33015,"lon":5.39042,"is_reserved":false,"is_disabled":false,"rental_uris":{"android":"levelo://app?vid=ba7895df-fdf0-43d4-b40a-e7e64d29137d","ios":"levelo://app?vid=ba7895df-fdf0-43d4-b40a-e7e64d29137d"},"vehicle_type_id":"4","last_reported":1707764795,"current_range_meters":19600,"station_id":"ce4bhr92rcd13ifvqhrg","pricing_plan_id":"free"},{"bike_id":"5808e810-d387-4fbf-9289-14ca727d9b15","system_id":"levelo_inurba_marseille","lat":43.33024,"lon":5.39032,"is_reserved":false,"is_disabled":false,"rental_uris":{"android":"levelo://app?vid=5808e810-d387-4fbf-9289-14ca727d9b15","ios":"levelo://app?vid=5808e810-d387-4fbf-9289-14ca727d9b15"},"vehicle_type_id":"4","last_reported":1707764795,"current_range_meters":5200,"station_id":"ce4bhr92rcd13ifvqhrg","pricing_plan_id":"free"},