{"last_updated":1734617337,"ttl":60,"version":"2.2","data":{"bikes":[{"bike_id":"37db10fd-f58e-4f18-a5b2-5769e0e8c712","system_id":"levelo_inurba_marseille","lat":43.27068,"lon":5.42277,"is_reserved":false,"is_disabled":false,"rental_uris":{"android":"levelo://app?vid=37db10fd-f58e-4f18-a5b2-5769e0e8c712","ios":"levelo://app?vid=37db10fd-f58e-4f18-a5b2-5769e0e8c712"},"vehicle_type_id":"4","last_reported":1734617337,"current_range_meters":24400,"station_id":"ce4bhk92rcd13ifvqgb0","pricing_plan_id":"cebpf4jnsgd1na2vs0mg"},{"bike_id":"74dc27b5-e2a4-4b1e-9dc3-5894ac4bda0a","system_id":"levelo_inurba_marseille","lat":43.29796,"lon":5.37281,"is_reserved":false,"is_disabled":true,"rental_uris":{"android":"levelo://app?vid=74dc27b5-e2a4-4b1e-9dc3-5894ac4bda0a","ios":"levelo://app?vid=74dc27b5-e2a4-4b1e-9dc3-5894ac4bda0a"},"vehicle_type_id":"4","last_reported":1734617337,"current_range_meters":1600,"station_id":"","pricing_plan_id":"cebpf4jnsgd1na2vs0mg"},{"bike_id":"3bd44a9a-c409-429d-afd7-270baff3c987","system_id":"levelo_inurba_marseille","lat":43.311703,"lon":5.387185,"is_reserved":false,"is_disabled":false,"rental_uris":{"android":"levelo://app?vid=3bd44a9a-c409-429d-afd7-270baff3c987","ios":"levelo://app?vid=3bd44a9a-c409-429d-afd7-270baff3c987"},"vehicle_type_id":"4","last_reported":1734617337,"current_range_meters":17200,"station_id":"ce4bgv12rcd13ifvqcp0","pricing_plan_id":"cebpf4jnsgd1na2vs0mg"},{"bike_id":"c2cac146-c39d-4ddd-827d-a9e0cc3046e9","system_id":"levelo_inurba_marseille","lat":43.2963,"lon":5.37731,"is_reserved":false,"is_disabled":false,"rental_uris":{"android":"levelo://app?vid=c2cac146-c39d-4ddd-827d-a9e0cc3046e9","ios":"levelo://app?vid=c2cac146-c39d-4ddd-827d-a9e0cc3046e9"},"vehicle_type_id":"4","last_reported":1734617337,"current_range_meters":15200,"station_id":"ce4bgi92rcd13ifvqb90","pricing_plan_id":"cebpf4jnsgd1na2vs0mg"},{"bike_id":"0416dd85-6b82-4181-8c04-ea55c6533084","system_id":"levelo_inurba_marseille","lat":43.27505,"lon":5.42455,"is_reserved":false,"is_disabled":false,"rental_uris":{"android":"levelo://app?vid=0416dd85-6b82-4181-8c04-ea55c6533084","ios":"levelo://app?vid=0416dd85-6b82-4181-8c04-ea55c6533084"},"vehicle_type_id":"4","last_reported":1734617337,"current_range_meters":24800,"station_id":"ce4bhn92rcd13ifvqgrg","pricing_plan_id":"cebpf4jnsgd1na2vs0mg"},{"bike_id":"3010e0e9-5900-4140-854a-85d6aa72dbd5","system_id":"levelo_inurba_marseille","lat":43.337444,"lon":5.374475,"is_reserved":false,"is_disabled":false,"rental_uris":{"android":"levelo://app?vid=3010e0e9-5900-4140-854a-85d6aa72dbd5","ios":"levelo://app?vid=3010e0e9-5900-4140-854a-85d6aa72dbd5"},"vehicle_type_id":"4","last_reported":1734617337,"current_range_meters":38800,"station_id":"","pricing_plan_id":"cebpf4jnsgd1na2vs0mg"},{"bike_id":"0b3c962c-40d1-4375-b60d-644d72aaacf1","system_id":"levelo_inurba_marseille","lat":43.28012,"lon":5.40403,"is_reserved":false,"is_disabled":true,"rental_uris":{"android":"levelo://app?vid=0b3c962c-40d1-4375-b60d-644d72aaacf1","ios":"levelo://app?vid=0b3c962c-40d1-4375-b60d-644d72aaacf1"},"vehicle_type_id":"4","last_reported":1734617337,"current_range_meters":0,"station_id":"","pricing_plan_id":"cebpf4jnsgd1na2vs0mg"},{"bike_id":"85330960-7bfa-43fc-86c3-25613559ba3b","system_id":"levelo_inurba_marseille","lat":43.33023,"lon":5.39038,"is_reserved":false,"is_disabled":false,"rental_uris":{"android":"levelo://app?vid=85330960-7bfa-43fc-86c3-25613559ba3b","ios":"levelo://app?vid=85330960-7bfa-43fc-86c3-25613559ba3b"},"vehicle_type_id":"4","last_reported":1734617337,"current_range_meters":24800,"station_id":"ce4bhr92rcd13ifvqhrg","pricing_plan_id":"cebpf4jnsgd1na2vs0mg"},{"bike_id":"7bbad6fe-fb12-4af7-b819-166d99e00066","system_id":"levelo_inurba_marseille","lat":43.27494,"lon":5.42448,"is_reserved":false,"is_disabled":false,"rental_uris":{"android":"levelo://app?vid=7bbad6fe-fb12-4af7-b819-166d99e00066","ios":"levelo://app?vid=7bbad6fe-fb12-4af7-b819-166d99e00066"},"vehicle_type_id":"4","last_reported":1734617337,"current_range_meters":33600,"station_id":"ce4bhn92rcd13ifvqgrg","pricing_plan_id":"cebpf4jnsgd1na2vs0mg"},{"bike_id":"19d60a5c-bc41-41e3-ab92-442bf2c302b1","system_id":"levelo_inurba_marseille","lat":43.23164,"lon":5.43708,"is_reserved":false,"is_disabled":false,"rental_uris":{"android":"levelo://app?vid=19d60a5c-bc41-41e3-ab92-442bf2c302b1","ios":"levelo://app?vid=19d60a5c-bc41-41e3-ab92-442bf2c302b1"},"vehicle_type_id":"4","last_reported":1734617337,"current_range_meters":38800,"station_id":"ce4bhmp2rcd13ifvqgog","pricing_plan_id":"cebpf4jnsgd1na2vs0mg"},{"bike_id":"cdfbb810-d223-40f7-99d6-192db8fd2ec8","system_id":"levelo_inurba_marseille","lat":43.29796,"lon":5.38102,"is_reserved":false,"is_disabled":false,"rental_uris":{"android":"levelo://app?vid=cdfbb810-d223-40f7-99d6-192db8fd2ec8","ios":"levelo://app?vid=cdfbb810-d223-40f7-99d6-192db8fd2ec8"},"vehicle_type_id":"4","last_reported":1734617337,"current_range_meters":38800,"station_id":"ce4bgip2rcd13ifvqbb0","pricing_plan_id":"cebpf4jnsgd1na2vs0mg"},{"bike_id":"53216bc0-db19-436b-803c-24b87a4c95f3","system_id":"levelo_inurba_marseille","lat":43.32466,"lon":5.36608,"is_reserved":false,"is_disabled":false,"rental_uris":{"android":"levelo://app?vid=53216bc0-db19-436b-803c-24b87a4c95f3","ios":"levelo://app?vid=53216bc0-db19-436b-803c-24b87a4c95f3"},"vehicle_type_id":"4","last_reported":1734617337,"current_range_meters":39200,"station_id":"ce4bhs12rcd13ifvqhvg","pricing_plan_id":"cebpf4jnsgd1na2vs0mg"},{"bike_id":"23ef9141-55cc-4cda-b9d1-c70ee4f9d9d1","system_id":"levelo_inurba_marseille","lat":43.24811,"lon":5.37461,"is_reserved":false,"is_disabled":true,"rental_uris":{"android":"levelo://app?vid=23ef9141-55cc-4cda-b9d1-c70ee4f9d9d1","ios":"levelo://app?vid=23ef9141-55cc-4cda-b9d1-c70ee4f9d9d1"},"vehicle_type_id":"4","last_reported":1734617337,"current_range_meters":0,"station_id":"ce4bhgh2rcd13ifvqfb0","pricing_plan_id":"cebpf4jnsgd1na2vs0mg"},{"bike_id":"989eec11-0bb5-4124-aeac-b600c2183b5e","system_id":"levelo_inurba_marseille","lat":43.26593,"lon":5.39026,"is_reserved":false,"is_disabled":false,"rental_uris":{"android":"levelo://app?vid=989eec11-0bb5-4124-aeac-b600c2183b5e","ios":"levelo://app?vid=989eec11-0bb5-4124-aeac-b600c2183b5e"},"vehicle_type_id":"4","last_reported":1734617337,"current_range_meters":6000,"station_id":"ce4bhe12rcd13ifvqf30","pricing_plan_id":"cebpf4jnsgd1na2vs0mg"},{"bike_id":"3417d897-84a9-44ba-81ef-40200cfed818","system_id":"levelo_inurba_marseille","lat":43.25723,"lon":5.41114,"is_reserved":false,"is_disabled":false,"rental_uris":{"android":"levelo://app?vid=3417d897-84a9-44ba-81ef-40200cfed818","ios":"levelo://app?vid=3417d897-84a9-44ba-81ef-40200cfed818"},"vehicle_type_id":"4","last_reported":1734617337,"current_range_meters":38800,"station_id":"ce4bhkp2rcd13ifvqgd0","pricing_plan_id":"cebpf4jnsgd1na2vs0mg"},{"bike_id":"b3a0a937-593c-426c-a8c8-0efad309623d","system_id":"levelo_inurba_marseille","lat":43.29239,"lon":5.400957,"is_reserved":false,"is_disabled":true,"rental_uris":{"android":"levelo://app?vid=b3a0a937-593c-426c-a8c8-0efad309623d","ios":"levelo://app?vid=b3a0a937-593c-426c-a8c8-0efad309623d"},"vehicle_type_id":"4","last_reported":1734617337,"current_range_meters":28400,"station_id":"ce4bh312rcd13ifvqdk0","pricing_plan_id":"cebpf4jnsgd1na2vs0mg"},{"bike_id":"53c5dd90-208e-4b14-9aec-3133385e99e3","system_id":"levelo_inurba_marseille","lat":43.29559,"lon":5.42282,"is_reserved":false,"is_disabled":false,"rental_uris":{"android":"levelo://app?vid=53c5dd90-208e-4b14-9aec-3133385e99e3","ios":"levelo://app?vid=53c5dd90-208e-4b14-9aec-3133385e99e3"},"vehicle_type_id":"4","last_reported":1734617337,"current_range_meters":8400,"station_id":"ce4bhph2rcd13ifvqhdg","pricing_plan_id":"cebpf4jnsgd1na2vs0mg"},{"bike_id":"b8ab8a40-a2b4-425d-a9ba-0fdbe3a77b74","system_id":"levelo_inurba_marseille","lat":43.31711,"lon":5.37742,"is_reserved":false,"is_disabled":false,"rental_uris":{"android":"levelo://app?vid=b8ab8a40-a2b4-425d-a9ba-0fdbe3a77b74","ios":"levelo://app?vid=b8ab8a40-a2b4-425d-a9ba-0fdbe3a77b74"},"vehicle_type_id":"4","last_reported":1734617337,"current_range_meters":32000,"station_id":"ce4bgth2rcd13ifvqch0","pricing_plan_id":"cebpf4jnsgd1na2vs0mg"},{"bike_id":"41d4d63c-1601-40b8-9c24-4e8eca1ea969","system_id":"levelo_inurba_marseille","lat":43.31725,"lon":5.37803,"is_reserved":false,"is_disabled":false,"rental_uris":{"android":"levelo://app?vid=41d4d63c-1601-40b8-9c24-4e8eca1ea969","ios":"levelo://app?vid=41d4d63c-1601-40b8-9c24-4e8eca1ea969"},"vehicle_type_id":"4","last_reported":1734617337,"current_range_meters":38800,"station_id":"","pricing_plan_id":"cebpf4jnsgd1na2vs0mg"},{"bike_id":"62cc5a16-2562-4639-85b3-96bc9a8ba745","system_id":"levelo_inurba_marseille","lat":43.29845,"lon":5.36274,"is_reserved":false,"is_disabled":false,"rental_uris":{"android":"levelo://app?vid=62cc5a16-2562-4639-85b3-96bc9a8ba745","ios":"levelo://app?vid=62cc5a16-2562-4639-85b3-96bc9a8ba745"},"vehicle_type_id":"4","last_reported":1734617337,"current_range_meters":10800,"station_id":"ce4bgpp2rcd13ifvqc3g","pricing_plan_id":"cebpf4jnsgd1na2vs0mg"},{"bike_id":"2f0d85a2-56b3-451a-9c7a-7917c578436e","system_id":"levelo_inurba_marseille","lat":43.29527,"lon":5.37502,"is_reserved":false,"is_disabled":false,"rental_uris":{"android":"levelo://app?vid=2f0d85a2-56b3-451a-9c7a-7917c578436e","ios":"levelo://app?vid=2f0d85a2-56b3-451a-9c7a-7917c578436e"},"vehicle_type_id":"4","last_reported":1734617337,"current_range_meters":35200,"station_id":"ce4bgkp2rcd13ifvqbmg","pricing_plan_id":"cebpf4jnsgd1na2vs0mg"},{"bike_id":"0c27b126-6cd5-4c40-b033-7d368936d16c","system_id":"levelo_inurba_marseille","lat":43.24079,"lon":5.37763,"is_reserved":false,"is_disabled":false,"rental_uris":{"android":"levelo://app?vid=0c27b126-6cd5-4c40-b033-7d368936d16c","ios":"levelo://app?vid=0c27b126-6cd5-4c40-b033-7d368936d16c"},"vehicle_type_id":"4","last_reported":1734617337,"current_range_meters":11600,"station_id":"ce4bhnp2rcd13ifvqgvg","pricing_plan_id":"cebpf4jnsgd1na2vs0mg"},{"bike_id":"68bc6016-d260-4114-b74a-ee9490ecf1f2","system_id":"levelo_inurba_marseille","lat":43.32657,"lon":5.40997,"is_reserved":false,"is_disabled":false,"rental_uris":{"android":"levelo://app?vid=68bc6016-d260-4114-b74a-ee9490ecf1f2","ios":"levelo://app?vid=68bc6016-d260-4114-b74a-ee9490ecf1f2"},"vehicle_type_id":"4","last_reported":1734617337,"current_range_meters":18000,"station_id":"ce4bhpp2rcd13ifvqhgg","pricing_plan_id":"cebpf4jnsgd1na2vs0mg"},{"bike_id":"d34bdf4f-71bc-4ae4-b273-f3852ddc692a","system_id":"levelo_inurba_marseille","lat":43.33756,"lon":5.37472,"is_reserved":false,"is_disabled":false,"rental_uris":{"android":"levelo://app?vid=d34bdf4f-71bc-4ae4-b273-f3852ddc692a","ios":"levelo://app?vid=d34bdf4f-71bc-4ae4-b273-f3852ddc692a"},"vehicle_type_id":"4","last_reported":1734617337,"current_range_meters":37600,"station_id":"","pricing_plan_id":"cebpf4jnsgd1na2vs0mg"},{"bike_id":"405998d9-a50d-47c5-87f5-ec91878b315b","system_id":"levelo_inurba_marseille","lat":43.25006,"lon":5.38911,"is_reserved":false,"is_disabled":false,"rental_uris":{"android":"levelo://app?vid=405998d9-a50d-47c5-87f5-ec91878b315b","ios":"levelo://app?vid=405998d9-a50d-47c5-87f5-ec91878b315b"},"vehicle_type_id":"4","last_reported":1734617337,"current_range_meters":16800,"station_id":"ce4bhgp2rcd13ifvqfd0","pricing_plan_id":"cebpf4jnsgd1na2vs0mg"},{"bike_id":"312f26c3-4c98-4bb4-bda7-ac70380bf225","system_id":"levelo_inurba_marseille","lat":43.29306,"lon":5.37174,"is_reserved":false,"is_disabled":false,"rental_uris":{"android":"levelo://app?vid=312f26c3-4c98-4bb4-bda7-ac70380bf225","ios":"levelo://app?vid=312f26c3-4c98-4bb4-bda7-ac70380bf225"},"vehicle_type_id":"4","last_reported":1734617337,"current_range_meters":38400,"station_id":"ce4bgh92rcd13ifvqb40","pricing_plan_id":"cebpf4jnsgd1na2vs0mg"},{"bike_id":"85f0faa7-a071-4822-aa17-eec7e9d960df","system_id":"levelo_inurba_marseille","lat":43.29285,"lon":5.37449,"is_reserved":false,"is_disabled":false,"rental_uris":{"android":"levelo://app?vid=85f0faa7-a071-4822-aa17-eec7e9d960df","ios":"levelo://app?vid=85f0faa7-a071-4822-aa17-eec7e9d960df"},"vehicle_type_id":"4","last_reported":1734617337,"current_range_meters":38800,"station_id":"ce4bgi12rcd13ifvqb70","pricing_plan_id":"cebpf4jnsgd1na2vs0mg"},{"bike_id":"f81c5ee8-ac89-4377-80a4-b08e012dcdf6","system_id":"levelo_inurba_marseille","lat":43.30936,"lon":5.37197,"is_reserved":false,"is_disabled":false,"rental_uris":{"android":"levelo://app?vid=f81c5ee8-ac89-4377-80a4-b08e012dcdf6","ios":"levelo://app?vid=f81c5ee8-ac89-4377-80a4-b08e012dcdf6"},"vehicle_type_id":"4","last_reported":1734617337,"current_range_meters":30000,"station_id":"ce4bguh2rcd13ifvqckg","pricing_plan_id":"cebpf4jnsgd1na2vs0mg"},{"bike_id":"bee6ad41-71c0-4070-bc7e-6d7a9dcb70ba","system_id":"levelo_inurba_marseille","lat":43.26549,"lon":5.37294,"is_reserved":false,"is_disabled":false,"rental_uris":{"android":"levelo://app?vid=bee6ad41-71c0-4070-bc7e-6d7a9dcb70ba","ios":"levelo://app?vid=bee6ad41-71c0-4070-bc7e-6d7a9dcb70ba"},"vehicle_type_id":"4","last_reported":1734617337,"current_range_meters":35200,"station_id":"ce4bhg12rcd13ifvqf70","pricing_plan_id":"cebpf4jnsgd1na2vs0mg"},{"bike_id":"6fee4b7e-fa4a-4fbc-b15c-212f0d7b11d5","system_id":"levelo_inurba_marseille","lat":43.31491,"lon":5.37311,"is_reserved":false,"is_disabled":false,"rental_uris":{"android":"levelo://app?vid=6fee4b7e-fa4a-4fbc-b15c-212f0d7b11d5","ios":"levelo://app?vid=6fee4b7e-fa4a-4fbc-b15c-212f0d7b11d5"},"vehicle_type_id":"4","last_reported":1734617337,"current_range_meters":16800,"station_id":"ce4bgt12rcd13ifvqcd0","pricing_plan_id":"cebpf4jnsgd1na2vs0mg"},{"bike_id":"b042baac-48e3-41d4-beca-2c2cc4a183f1","system_id":"levelo_inurba_marseille","lat":43.231974,"lon":5.355454,"is_reserved":false,"is_disabled":false,"rental_uris":{"android":"levelo://app?vid=b042baac-48e3-41d4-beca-2c2cc4a183f1","ios":"levelo://app?vid=b042baac-48e3-41d4-beca-2c2cc4a183f1"},"vehicle_type_id":"4","last_reported":1734617337,"current_range_meters":39200,"station_id":"ce4bhu92rcd13ifvqi70","pricing_plan_id":"cebpf4jnsgd1na2vs0mg"},{"bike_id":"22251476-f43a-475b-90de-c44ef2245604","system_id":"levelo_inurba_marseille","lat":43.28854,"lon":5.35867,"is_reserved":false,"is_disabled":false,"rental_uris":{"android":"levelo://app?vid=22251476-f43a-475b-90de-c44ef2245604","ios":"levelo://app?vid=22251476-f43a-475b-90de-c44ef2245604"},"vehicle_type_id":"4","last_reported":1734617337,"current_range_meters":34000,"station_id":"ce4bhb12rcd13ifvqem0","pricing_plan_id":"cebpf4jnsgd1na2vs0mg"},{"bike_id":"d8f5e76e-f9f7-4677-b4d2-89d449c9f02e","system_id":"levelo_inurba_marseille","lat":43.29904,"lon":5.43667,"is_reserved":false,"is_disabled":false,"rental_uris":{"android":"levelo://app?vid=d8f5e76e-f9f7-4677-b4d2-89d449c9f02e","ios":"levelo://app?vid=d8f5e76e-f9f7-4677-b4d2-89d449c9f02e"},"vehicle_type_id":"4","last_reported":1734617337,"current_range_meters":14000,"station_id":"ce4bhpp2rcd13ifvqhfg","pricing_plan_id":"cebpf4jnsgd1na2vs0mg"},{"bike_id":"ea1ee0a0-f240-4d25-84d9-e6fb6fc7a18c","system_id":"levelo_inurba_marseille","lat":43.3371,"lon":5.42074,"is_reserved":false,"is_disabled":true,"rental_uris":{"android":"levelo://app?vid=ea1ee0a0-f240-4d25-84d9-e6fb6fc7a18c","ios":"levelo://app?vid=ea1ee0a0-f240-4d25-84d9-e6fb6fc7a18c"},"vehicle_type_id":"4","last_reported":1734617337,"current_range_meters":0,"station_id":"","pricing_plan_id":"cebpf4jnsgd1na2vs0mg"},{"bike_id":"d12a911a-6539-4bf1-8790-26cf17b56281","system_id":"levelo_inurba_marseille","lat":43.287183,"lon":5.37931,"is_reserved":false,"is_disabled":false,"rental_uris":{"android":"levelo://app?vid=d12a911a-6539-4bf1-8790-26cf17b56281","ios":"levelo://app?vid=d12a911a-6539-4bf1-8790-26cf17b56281"},"vehicle_type_id":"4","last_reported":1734617337,"current_range_meters":39200,"station_id":"ce4bh9p2rcd13ifvqec0","pricing_plan_id":"cebpf4jnsgd1na2vs0mg"},{"bike_id":"66e5b43a-aa08-44cf-b517-42c562f4a6bd","system_id":"levelo_inurba_marseille","lat":43.30322,"lon":5.392,"is_reserved":false,"is_disabled":false,"rental_uris":{"android":"levelo://app?vid=66e5b43a-aa08-44cf-b517-42c562f4a6bd","ios":"levelo://app?vid=66e5b43a-aa08-44cf-b517-42c562f4a6bd"},"vehicle_type_id":"4","last_reported":1734617337,"current_range_meters":26800,"station_id":"ce4bgkh2rcd13ifvqbk0","pricing_plan_id":"cebpf4jnsgd1na2vs0mg"},{"bike_id":"33900208-cbcc-44c7-a93a-e8ccb167dd7c","system_id":"levelo_inurba_marseille","lat":43.25574,"lon":5.38223,"is_reserved":false,"is_disabled":true,"rental_uris":{"android":"levelo://app?vid=33900208-cbcc-44c7-a93a-e8ccb167dd7c","ios":"levelo://app?vid=33900208-cbcc-44c7-a93a-e8ccb167dd7c"},"vehicle_type_id":"4","last_reported":1734617337,"current_range_meters":0,"station_id":"ce4bhih2rcd13ifvqfs0","pricing_plan_id":"cebpf4jnsgd1na2vs0mg"},{"bike_id":"9ca2a470-0ea1-477d-859d-2c09c8e702b2","system_id":"levelo_inurba_marseille","lat":43.28036,"lon":5.3695,"is_reserved":false,"is_disabled":false,"rental_uris":{"android":"levelo://app?vid=9ca2a470-0ea1-477d-859d-2c09c8e702b2","ios":"levelo://app?vid=9ca2a470-0ea1-477d-859d-2c09c8e702b2"},"vehicle_type_id":"4","last_reported":1734617337,"current_range_meters":23200,"station_id":"ce4bha12rcd13ifvqef0","pricing_plan_id":"cebpf4jnsgd1na2vs0mg"},{"bike_id":"03791382-2e0c-4a2d-9359-fa11009586c7","system_id":"levelo_inurba_marseille","lat":43.30964,"lon":5.39072,"is_reserved":false,"is_disabled":false,"rental_uris":{"android":"levelo://app?vid=03791382-2e0c-4a2d-9359-fa11009586c7","ios":"levelo://app?vid=03791382-2e0c-4a2d-9359-fa11009586c7"},"vehicle_type_id":"4","last_reported":1734617337,"current_range_meters":25200,"station_id":"ce4bgup2rcd13ifvqco0","pricing_plan_id":"cebpf4jnsgd1na2vs0mg"},{"bike_id":"4457e0b1-9294-4511-b7fe-968149e9c5b7","system_id":"levelo_inurba_marseille","lat":43.27692,"lon":5.38862,"is_reserved":false,"is_disabled":false,"rental_uris":{"android":"levelo://app?vid=4457e0b1-9294-4511-b7fe-968149e9c5b7","ios":"levelo://app?vid=4457e0b1-9294-4511-b7fe-968149e9c5b7"},"vehicle_type_id":"4","last_reported":1734617337,"current_range_meters":10800,"station_id":"ce4bhi12rcd13ifvqfo0","pricing_plan_id":"cebpf4jnsgd1na2vs0mg"},{"bike_id":"77592e58-7330-482c-98aa-1362dec7556c","system_id":"levelo_inurba_marseille","lat":43.30527,"lon":5.36546,"is_reserved":false,"is_disabled":false,"rental_uris":{"android":"levelo://app?vid=77592e58-7330-482c-98aa-1362dec7556c","ios":"levelo://app?vid=77592e58-7330-482c-98aa-1362dec7556c"},"vehicle_type_id":"4","last_reported":1734617337,"current_range_meters":38800,"station_id":"ce4bgs12rcd13ifvqcag","pricing_plan_id":"cebpf4jnsgd1na2vs0mg"},{"bike_id":"849aec56-4e72-4826-908d-cc30c946a81a","system_id":"levelo_inurba_marseille","lat":43.3025,"lon":5.40084,"is_reserved":false,"is_disabled":false,"rental_uris":{"android":"levelo://app?vid=849aec56-4e72-4826-908d-cc30c946a81a","ios":"levelo://app?vid=849aec56-4e72-4826-908d-cc30c946a81a"},"vehicle_type_id":"4","last_reported":1734617337,"current_range_meters":26000,"station_id":"ce4bgvh2rcd13ifvqcs0","pricing_plan_id":"cebpf4jnsgd1na2vs0mg"},{"bike_id":"07e1f71a-5a08-43d3-a836-22fe63173d7d","system_id":"levelo_inurba_marseille","lat":43.31073,"lon":5.38359,"is_reserved":false,"is_disabled":false,"rental_uris":{"android":"levelo://app?vid=07e1f71a-5a08-43d3-a836-22fe63173d7d","ios":"levelo://app?vid=07e1f71a-5a08-43d3-a836-22fe63173d7d"},"vehicle_type_id":"4","last_reported":1734617337,"current_range_meters":2800,"station_id":"ce4bgv92rcd13ifvqcr0","pricing_plan_id":"cebpf4jnsgd1na2vs0mg"},{"bike_id":"cc232246-d625-436a-b92f-a067e5dd49c1","system_id":"levelo_inurba_marseille","lat":43.26686,"lon":5.3827,"is_reserved":false,"is_disabled":false,"rental_uris":{"android":"levelo://app?vid=cc232246-d625-436a-b92f-a067e5dd49c1","ios":"levelo://app?vid=cc232246-d625-436a-b92f-a067e5dd49c1"},"vehicle_type_id":"4","last_reported":1734617337,"current_range_meters":23200,"station_id":"ce4bhg92rcd13ifvqf90","pricing_plan_id":"cebpf4jnsgd1na2vs0mg"},{"bike_id":"b52a2496-5a99-49be-bb6f-a899022567b5","system_id":"levelo_inurba_marseille","lat":43.28727,"lon":5.37941,"is_reserved":false,"is_disabled":false,"rental_uris":{"android":"levelo://app?vid=b52a2496-5a99-49be-bb6f-a899022567b5","ios":"levelo://app?vid=b52a2496-5a99-49be-bb6f-a899022567b5"},"vehicle_type_id":"4","last_reported":1734617337,"current_range_meters":33600,"station_id":"ce4bh9p2rcd13ifvqec0","pricing_plan_id":"cebpf4jnsgd1na2vs0mg"},{"bike_id":"fafc36ef-f951-471c-8d0b-e88558f999ae","system_id":"levelo_inurba_marseille","lat":43.3058,"lon":5.39358,"is_reserved":false,"is_disabled":false,"rental_uris":{"android":"levelo://app?vid=fafc36ef-f951-471c-8d0b-e88558f999ae","ios":"levelo://app?vid=fafc36ef-f951-471c-8d0b-e88558f999ae"},"vehicle_type_id":"4","last_reported":1734617337,"current_range_meters":26800,"station_id":"ce4bh0p2rcd13ifvqd80","pricing_plan_id":"cebpf4jnsgd1na2vs0mg"},{"bike_id":"63cff5eb-1415-48a9-b127-707db35946f5","system_id":"levelo_inurba_marseille","lat":43.27837,"lon":5.39201,"is_reserved":false,"is_disabled":true,"rental_uris":{"android":"levelo://app?vid=63cff5eb-1415-48a9-b127-707db35946f5","ios":"levelo://app?vid=63cff5eb-1415-48a9-b127-707db35946f5"},"vehicle_type_id":"4","last_reported":1734617337,"current_range_meters":400,"station_id":"ce4bhjp2rcd13ifvqga0","pricing_plan_id":"cebpf4jnsgd1na2vs0mg"},{"bike_id":"1c04d383-9635-494b-9ea8-1a3828dd7522","system_id":"levelo_inurba_marseille","lat":43.30464,"lon":5.3791,"is_reserved":false,"is_disabled":false,"rental_uris":{"android":"levelo://app?vid=1c04d383-9635-494b-9ea8-1a3828dd7522","ios":"levelo://app?vid=1c04d383-9635-494b-9ea8-1a3828dd7522"},"vehicle_type_id":"4","last_reported":1734617337,"current_range_meters":24400,"station_id":"ce4bgup2rcd13ifvqcn0","pricing_plan_id":"cebpf4jnsgd1na2vs0mg"},{"bike_id":"06b03a71-2c60-49ac-ae36-76d0c0c37129","system_id":"levelo_inurba_marseille","lat":43.29908,"lon":5.37474,"is_reserved":false,"is_disabled":false,"rental_uris":{"android":"levelo://app?vid=06b03a71-2c60-49ac-ae36-76d0c0c37129","ios":"levelo://app?vid=06b03a71-2c60-49ac-ae36-76d0c0c37129"},"vehicle_type_id":"4","last_reported":1734617337,"current_range_meters":25600,"station_id":"ce4bgjh2rcd13ifvqbg0","pricing_plan_id":"cebpf4jnsgd1na2vs0mg"},{"bike_id":"c5d3dda4-9397-4823-9c8b-ea8eda2ab949","system_id":"levelo_inurba_marseille","lat":43.23968,"lon":5.36633,"is_reserved":false,"is_disabled":false,"rental_uris":{"android":"levelo://app?vid=c5d3dda4-9397-4823-9c8b-ea8eda2ab949","ios":"levelo://app?vid=c5d3dda4-9397-4823-9c8b-ea8eda2ab949"},"vehicle_type_id":"4","last_reported":1734617337,"current_range_meters":4400,"station_id":"ce4bhi12rcd13ifvqfp0","pricing_plan_id":"cebpf4jnsgd1na2vs0mg"},{"bike_id":"1a16d1cf-9175-4ce8-98f2-51960147a90b","system_id":"levelo_inurba_marseille","lat":43.29093,"lon":5.38126,"is_reserved":false,"is_disabled":false,"rental_uris":{"android":"levelo://app?vid=1a16d1cf-9175-4ce8-98f2-51960147a90b","ios":"levelo://app?vid=1a16d1cf-9175-4ce8-98f2-51960147a90b"},"vehicle_type_id":"4","last_reported":1734617337,"current_range_meters":21600,"station_id":"ce4bh512rcd13ifvqe2g","pricing_plan_id":"cebpf4jnsgd1na2vs0mg"},{"bike_id":"0d4cf357-cd32-43d3-8971-89a7a2f06824","system_id":"levelo_inurba_marseille","lat":43.25573,"lon":5.38239,"is_reserved":false,"is_disabled":false,"rental_uris":{"android":"levelo://app?vid=0d4cf357-cd32-43d3-8971-89a7a2f06824","ios":"levelo://app?vid=0d4cf357-cd32-43d3-8971-89a7a2f06824"},"vehicle_type_id":"4","last_reported":1734617337,"current_range_meters":37600,"station_id":"ce4bhih2rcd13ifvqfs0","pricing_plan_id":"cebpf4jnsgd1na2vs0mg"},{"bike_id":"b11dec3c-37ae-4e5f-a182-7db8571c22d2","system_id":"levelo_inurba_marseille","lat":43.29936,"lon":5.43647,"is_reserved":false,"is_disabled":false,"rental_uris":{"android":"levelo://app?vid=b11dec3c-37ae-4e5f-a182-7db8571c22d2","ios":"levelo://app?vid=b11dec3c-37ae-4e5f-a182-7db8571c22d2"},"vehicle_type_id":"4","last_reported":1734617337,"current_range_meters":36400,"station_id":"ce4bhpp2rcd13ifvqhfg","pricing_plan_id":"cebpf4jnsgd1na2vs0mg"},{"bike_id":"d4aa1161-b39f-4e04-9b26-9b7a54962176","system_id":"levelo_inurba_marseille","lat":43.27619,"lon":5.36115,"is_reserved":false,"is_disabled":true,"rental_uris":{"android":"levelo://app?vid=d4aa1161-b39f-4e04-9b26-9b7a54962176","ios":"levelo://app?vid=d4aa1161-b39f-4e04-9b26-9b7a54962176"},"vehicle_type_id":"4","last_reported":1734617337,"current_range_meters":0,"station_id":"ce4bgj92rcd13ifvqbe0","pricing_plan_id":"cebpf4jnsgd1na2vs0mg"},{"bike_id":"72492ff3-d3e5-4b81-822b-1d3357339451","system_id":"levelo_inurba_marseille","lat":43.29074,"lon":5.3991,"is_reserved":false,"is_disabled":true,"rental_uris":{"android":"levelo://app?vid=72492ff3-d3e5-4b81-822b-1d3357339451","ios":"levelo://app?vid=72492ff3-d3e5-4b81-822b-1d3357339451"},"vehicle_type_id":"4","last_reported":1734617337,"current_range_meters":36000,"station_id":"","pricing_plan_id":"cebpf4jnsgd1na2vs0mg"},{"bike_id":"c88ed8a1-c9ef-47b7-a222-f2860b9f30d3","system_id":"levelo_inurba_marseille","lat":43.29272,"lon":5.3685,"is_reserved":false,"is_disabled":false,"rental_uris":{"android":"levelo://app?vid=c88ed8a1-c9ef-47b7-a222-f2860b9f30d3","ios":"levelo://app?vid=c88ed8a1-c9ef-47b7-a222-f2860b9f30d3"},"vehicle_type_id":"4","last_reported":1734617337,"current_range_meters":37600,"station_id":"ce4bhbp2rcd13ifvqesg","pricing_plan_id":"cebpf4jnsgd1na2vs0mg"},{"bike_id":"79687aac-cb5f-4ae0-a99e-c60a9baa37ca","system_id":"levelo_inurba_marseille","lat":43.30956,"lon":5.39036,"is_reserved":false,"is_disabled":false,"rental_uris":{"android":"levelo://app?vid=79687aac-cb5f-4ae0-a99e-c60a9baa37ca","ios":"levelo://app?vid=79687aac-cb5f-4ae0-a99e-c60a9baa37ca"},"vehicle_type_id":"4","last_reported":1734617337,"current_range_meters":30000,"station_id":"ce4bgup2rcd13ifvqco0","pricing_plan_id":"cebpf4jnsgd1na2vs0mg"},{"bike_id":"b4cedc84-daaa-448a-be2e-49aa203818cf","system_id":"levelo_inurba_marseille","lat":43.29559,"lon":5.37499,"is_reserved":false,"is_disabled":false,"rental_uris":{"android":"levelo://app?vid=b4cedc84-daaa-448a-be2e-49aa203818cf","ios":"levelo://app?vid=b4cedc84-daaa-448a-be2e-49aa203818cf"},"vehicle_type_id":"4","last_reported":1734617337,"current_range_meters":4800,"station_id":"ce4bgkp2rcd13ifvqbmg","pricing_plan_id":"cebpf4jnsgd1na2vs0mg"},{"bike_id":"11279ee7-29a0-485d-88ca-34d560f11dda","system_id":"levelo_inurba_marseille","lat":43.28153,"lon":5.42655,"is_reserved":false,"is_disabled":false,"rental_uris":{"android":"levelo://app?vid=11279ee7-29a0-485d-88ca-34d560f11dda","ios":"levelo://app?vid=11279ee7-29a0-485d-88ca-34d560f11dda"},"vehicle_type_id":"4","last_reported":1734617337,"current_range_meters":8000,"station_id":"ce4bhnh2rcd13ifvqgug","pricing_plan_id":"cebpf4jnsgd1na2vs0mg"},{"bike_id":"8817d0d5-9eca-431a-a655-80bc815ceaa5","system_id":"levelo_inurba_marseille","lat":43.29582,"lon":5.37518,"is_reserved":false,"is_disabled":false,"rental_uris":{"android":"levelo://app?vid=8817d0d5-9eca-431a-a655-80bc815ceaa5","ios":"levelo://app?vid=8817d0d5-9eca-431a-a655-80bc815ceaa5"},"vehicle_type_id":"4","last_reported":1734617337,"current_range_meters":38800,"station_id":"ce4bgh92rcd13ifvqb50","pricing_plan_id":"cebpf4jnsgd1na2vs0mg"},{"bike_id":"92dbe881-4d12-4807-9474-87af83394dc5","system_id":"levelo_inurba_marseille","lat":43.313659,"lon":5.367099,"is_reserved":false,"is_disabled":false,"rental_uris":{"android":"levelo://app?vid=92dbe881-4d12-4807-9474-87af83394dc5","ios":"levelo://app?vid=92dbe881-4d12-4807-9474-87af83394dc5"},"vehicle_type_id":"4","last_reported":1734617337,"current_range_meters":34000,"station_id":"ce4bgr92rcd13ifvqc6g","pricing_plan_id":"cebpf4jnsgd1na2vs0mg"},{"bike_id":"78471806-92f3-4670-9c4a-cbf55d75e3f8","system_id":"levelo_inurba_marseille","lat":43.32449,"lon":5.36587,"is_reserved":false,"is_disabled":false,"rental_uris":{"android":"levelo://app?vid=78471806-92f3-4670-9c4a-cbf55d75e3f8","ios":"levelo://app?vid=78471806-92f3-4670-9c4a-cbf55d75e3f8"},"vehicle_type_id":"4","last_reported":1734617337,"current_range_meters":38800,"station_id":"ce4bhs12rcd13ifvqhvg","pricing_plan_id":"cebpf4jnsgd1na2vs0mg"},{"bike_id":"6092ae26-4186-4128-808c-991e4ad958ab","system_id":"levelo_inurba_marseille","lat":43.29539,"lon":5.38547,"is_reserved":false,"is_disabled":false,"rental_uris":{"android":"levelo://app?vid=6092ae26-4186-4128-808c-991e4ad958ab","ios":"levelo://app?vid=6092ae26-4186-4128-808c-991e4ad958ab"},"vehicle_type_id":"4","last_reported":1734617337,"current_range_meters":16800,"station_id":"ce4bgih2rcd13ifvqba0","pricing_plan_id":"cebpf4jnsgd1na2vs0mg"},{"bike_id":"2bbc7d10-3954-4134-8bbc-e39263d18ca1","system_id":"levelo_inurba_marseille","lat":43.27425,"lon":5.3942,"is_reserved":false,"is_disabled":false,"rental_uris":{"android":"levelo://app?vid=2bbc7d10-3954-4134-8bbc-e39263d18ca1","ios":"levelo://app?vid=2bbc7d10-3954-4134-8bbc-e39263d18ca1"},"vehicle_type_id":"4","last_reported":1734617337,"current_range_meters":20400,"station_id":"ce4bhdp2rcd13ifvqf20","pricing_plan_id":"cebpf4jnsgd1na2vs0mg"},{"bike_id":"370b1eb6-4f45-4760-84c5-106172693f5d","system_id":"levelo_inurba_marseille","lat":43.23962,"lon":5.3663,"is_reserved":false,"is_disabled":false,"rental_uris":{"android":"levelo://app?vid=370b1eb6-4f45-4760-84c5-106172693f5d","ios":"levelo://app?vid=370b1eb6-4f45-4760-84c5-106172693f5d"},"vehicle_type_id":"4","last_reported":1734617337,"current_range_meters":28000,"station_id":"ce4bhi12rcd13ifvqfp0","pricing_plan_id":"cebpf4jnsgd1na2vs0mg"},{"bike_id":"782bcbf2-b7de-4b04-bebc-aaa0329dd90c","system_id":"levelo_inurba_marseille","lat":43.23188,"lon":5.35559,"is_reserved":false,"is_disabled":false,"rental_uris":{"android":"levelo://app?vid=782bcbf2-b7de-4b04-bebc-aaa0329dd90c","ios":"levelo://app?vid=782bcbf2-b7de-4b04-bebc-aaa0329dd90c"},"vehicle_type_id":"4","last_reported":1734617337,"current_range_meters":38800,"station_id":"ce4bhu92rcd13ifvqi70","pricing_plan_id":"cebpf4jnsgd1na2vs0mg"},{"bike_id":"f5b051f4-e217-4e3b-843c-052a74518124","system_id":"levelo_inurba_marseille","lat":43.29912,"lon":5.3747,"is_reserved":false,"is_disabled":false,"rental_uris":{"android":"levelo://app?vid=f5b051f4-e217-4e3b-843c-052a74518124","ios":"levelo://app?vid=f5b051f4-e217-4e3b-843c-052a74518124"},"vehicle_type_id":"4","last_reported":1734617337,"current_range_meters":22800,"station_id":"ce4bgjh2rcd13ifvqbg0","pricing_plan_id":"cebpf4jnsgd1na2vs0mg"},{"bike_id":"2f54f37a-f215-49a7-b2c4-de22e4c382a2","system_id":"levelo_inurba_marseille","lat":43.30431,"lon":5.39752,"is_reserved":false,"is_disabled":false,"rental_uris":{"android":"levelo://app?vid=2f54f37a-f215-49a7-b2c4-de22e4c382a2","ios":"levelo://app?vid=2f54f37a-f215-49a7-b2c4-de22e4c382a2"},"vehicle_type_id":"4","last_reported":1734617337,"current_range_meters":38000,"station_id":"ce4bh092rcd13ifvqd20","pricing_plan_id":"cebpf4jnsgd1na2vs0mg"},{"bike_id":"eb52db37-cb00-44f8-a608-51ceb848015b","system_id":"levelo_inurba_marseille","lat":43.28859,"lon":5.35861,"is_reserved":false,"is_disabled":false,"rental_uris":{"android":"levelo://app?vid=eb52db37-cb00-44f8-a608-51ceb848015b","ios":"levelo://app?vid=eb52db37-cb00-44f8-a608-51ceb848015b"},"vehicle_type_id":"4","last_reported":1734617337,"current_range_meters":38400,"station_id":"ce4bhb12rcd13ifvqem0","pricing_plan_id":"cebpf4jnsgd1na2vs0mg"},{"bike_id":"96ff88dc-8cf7-4b0f-a345-fa00220da932","system_id":"levelo_inurba_marseille","lat":43.2742,"lon":5.42397,"is_reserved":false,"is_disabled":true,"rental_uris":{"android":"levelo://app?vid=96ff88dc-8cf7-4b0f-a345-fa00220da932","ios":"levelo://app?vid=96ff88dc-8cf7-4b0f-a345-fa00220da932"},"vehicle_type_id":"4","last_reported":1734617337,"current_range_meters":0,"station_id":"","pricing_plan_id":"cebpf4jnsgd1na2vs0mg"},{"bike_id":"d5c0e746-a9fa-4159-b28f-7d6a3cba6cea","system_id":"levelo_inurba_marseille","lat":43.24408,"lon":5.37094,"is_reserved":false,"is_disabled":false,"rental_uris":{"android":"levelo://app?vid=d5c0e746-a9fa-4159-b28f-7d6a3cba6cea","ios":"levelo://app?vid=d5c0e746-a9fa-4159-b28f-7d6a3cba6cea"},"vehicle_type_id":"4","last_reported":1734617337,"current_range_meters":14400,"station_id":"ce4bhhh2rcd13ifvqfk0","pricing_plan_id":"cebpf4jnsgd1na2vs0mg"},{"bike_id":"ae925a06-4711-47f5-9f81-00a52a5f2f26","system_id":"levelo_inurba_marseille","lat":43.28479,"lon":5.3842,"is_reserved":false,"is_disabled":false,"rental_uris":{"android":"levelo://app?vid=ae925a06-4711-47f5-9f81-00a52a5f2f26","ios":"levelo://app?vid=ae925a06-4711-47f5-9f81-00a52a5f2f26"},"vehicle_type_id":"4","last_reported":1734617337,"current_range_meters":39200,"station_id":"ce4bh512rcd13ifvqe3g","pricing_plan_id":"cebpf4jnsgd1na2vs0mg"},{"bike_id":"d3cbdaf1-13ec-4077-9ff5-7a5da76596c1","system_id":"levelo_inurba_marseille","lat":43.33772,"lon":5.3743,"is_reserved":false,"is_disabled":false,"rental_uris":{"android":"levelo://app?vid=d3cbdaf1-13ec-4077-9ff5-7a5da76596c1","ios":"levelo://app?vid=d3cbdaf1-13ec-4077-9ff5-7a5da76596c1"},"vehicle_type_id":"4","last_reported":1734617337,"current_range_meters":36000,"station_id":"","pricing_plan_id":"cebpf4jnsgd1na2vs0mg"},{"bike_id":"f6a0097d-208c-4ed5-9b7e-280c6a0f27f2","system_id":"levelo_inurba_marseille","lat":43.312773,"lon":5.401731,"is_reserved":false,"is_disabled":false,"rental_uris":{"android":"levelo://app?vid=f6a0097d-208c-4ed5-9b7e-280c6a0f27f2","ios":"levelo://app?vid=f6a0097d-208c-4ed5-9b7e-280c6a0f27f2"},"vehicle_type_id":"4","last_reported":1734617337,"current_range_meters":8400,"station_id":"ce4bh092rcd13ifvqd30","pricing_plan_id":"cebpf4jnsgd1na2vs0mg"},{"bike_id":"a2a605c8-f45e-4ab0-8cb5-731c77c85b78","system_id":"levelo_inurba_marseille","lat":43.27919,"lon":5.39585,"is_reserved":false,"is_disabled":false,"rental_uris":{"android":"levelo://app?vid=a2a605c8-f45e-4ab0-8cb5-731c77c85b78","ios":"levelo://app?vid=a2a605c8-f45e-4ab0-8cb5-731c77c85b78"},"vehicle_type_id":"4","last_reported":1734617337,"current_range_meters":24400,"station_id":"ce4bhf92rcd13ifvqf40","pricing_plan_id":"cebpf4jnsgd1na2vs0mg"},{"bike_id":"d5ceff82-00de-46ce-824a-7bfdd06806af","system_id":"levelo_inurba_marseille","lat":43.24654,"lon":5.38897,"is_reserved":false,"is_disabled":false,"rental_uris":{"android":"levelo://app?vid=d5ceff82-00de-46ce-824a-7bfdd06806af","ios":"levelo://app?vid=d5ceff82-00de-46ce-824a-7bfdd06806af"},"vehicle_type_id":"4","last_reported":1734617337,"current_range_meters":6800,"station_id":"ce4bhg12rcd13ifvqf60","pricing_plan_id":"cebpf4jnsgd1na2vs0mg"},{"bike_id":"65332c14-8f41-4f1a-b711-08ad210242f2","system_id":"levelo_inurba_marseille","lat":43.29602,"lon":5.38111,"is_reserved":false,"is_disabled":false,"rental_uris":{"android":"levelo://app?vid=65332c14-8f41-4f1a-b711-08ad210242f2","ios":"levelo://app?vid=65332c14-8f41-4f1a-b711-08ad210242f2"},"vehicle_type_id":"4","last_reported":1734617337,"current_range_meters":36000,"station_id":"ce4bgl12rcd13ifvqbo0","pricing_plan_id":"cebpf4jnsgd1na2vs0mg"},{"bike_id":"95c419fb-dadb-45ce-a48e-71e59ea53490","system_id":"levelo_inurba_marseille","lat":43.24186,"lon":5.39729,"is_reserved":false,"is_disabled":false,"rental_uris":{"android":"levelo://app?vid=95c419fb-dadb-45ce-a48e-71e59ea53490","ios":"levelo://app?vid=95c419fb-dadb-45ce-a48e-71e59ea53490"},"vehicle_type_id":"4","last_reported":1734617337,"current_range_meters":16400,"station_id":"ce4bhn12rcd13ifvqgpg","pricing_plan_id":"cebpf4jnsgd1na2vs0mg"},{"bike_id":"dabc11e5-2a8c-408a-bea8-b9245b335168","system_id":"levelo_inurba_marseille","lat":43.24074,"lon":5.37761,"is_reserved":false,"is_disabled":true,"rental_uris":{"android":"levelo://app?vid=dabc11e5-2a8c-408a-bea8-b9245b335168","ios":"levelo://app?vid=dabc11e5-2a8c-408a-bea8-b9245b335168"},"vehicle_type_id":"4","last_reported":1734617337,"current_range_meters":0,"station_id":"ce4bhnp2rcd13ifvqgvg","pricing_plan_id":"cebpf4jnsgd1na2vs0mg"},{"bike_id":"54192533-5d8e-4958-bceb-50e5da614992","system_id":"levelo_inurba_marseille","lat":43.33021,"lon":5.39039,"is_reserved":false,"is_disabled":false,"rental_uris":{"android":"levelo://app?vid=54192533-5d8e-4958-bceb-50e5da614992","ios":"levelo://app?vid=54192533-5d8e-4958-bceb-50e5da614992"},"vehicle_type_id":"4","last_reported":1734617337,"current_range_meters":38800,"station_id":"ce4bhr92rcd13ifvqhrg","pricing_plan_id":"cebpf4jnsgd1na2vs0mg"},{"bike_id":"d78296a5-6bcf-4ecc-8ac2-5f6971dd4196","system_id":"levelo_inurba_marseille","lat":43.29979,"lon":5.38492,"is_reserved":false,"is_disabled":false,"rental_uris":{"android":"levelo://app?vid=d78296a5-6bcf-4ecc-8ac2-5f6971dd4196","ios":"levelo://app?vid=d78296a5-6bcf-4ecc-8ac2-5f6971dd4196"},"vehicle_type_id":"4","last_reported":1734617337,"current_range_meters":31200,"station_id":"ce4bgj92rcd13ifvqbd0","pricing_plan_id":"cebpf4jnsgd1na2vs0mg"},{"bike_id":"44127e4e-8e84-4a38-89f7-8f4efb63f7a5","system_id":"levelo_inurba_marseille","lat":43.31198,"lon":5.36778,"is_reserved":false,"is_disabled":true,"rental_uris":{"android":"levelo://app?vid=44127e4e-8e84-4a38-89f7-8f4efb63f7a5","ios":"levelo://app?vid=44127e4e-8e84-4a38-89f7-8f4efb63f7a5"},"vehicle_type_id":"4","last_reported":1734617337,"current_range_meters":800,"station_id":"","pricing_plan_id":"cebpf4jnsgd1na2vs0mg"},{"bike_id":"115725e9-2396-4920-bdf7-28153c81bcaf","system_id":"levelo_inurba_marseille","lat":43.27496,"lon":5.42458,"is_reserved":false,"is_disabled":false,"rental_uris":{"android":"levelo://app?vid=115725e9-2396-4920-bdf7-28153c81bcaf","ios":"levelo://app?vid=115725e9-2396-4920-bdf7-28153c81bcaf"},"vehicle_type_id":"4","last_reported":1734617337,"current_range_meters":24400,"station_id":"ce4bhn92rcd13ifvqgrg","pricing_plan_id":"cebpf4jnsgd1na2vs0mg"},{"bike_id":"7479d725-59cb-48cf-a084-1b11e8db4e0c","system_id":"levelo_inurba_marseille","lat":43.2816,"lon":5.42669,"is_reserved":false,"is_disabled":false,"rental_uris":{"android":"levelo://app?vid=7479d725-59cb-48cf-a084-1b11e8db4e0c","ios":"levelo://app?vid=7479d725-59cb-48cf-a084-1b11e8db4e0c"},"vehicle_type_id":"4","last_reported":1734617337,"current_range_meters":37600,"station_id":"ce4bhnh2rcd13ifvqgug","pricing_plan_id":"cebpf4jnsgd1na2vs0mg"},{"bike_id":"6754465b-8ec1-4291-a363-dc0c75d1552e","system_id":"levelo_inurba_marseille","lat":43.24377,"lon":5.37098,"is_reserved":false,"is_disabled":false,"rental_uris":{"android":"levelo://app?vid=6754465b-8ec1-4291-a363-dc0c75d1552e","ios":"levelo://app?vid=6754465b-8ec1-4291-a363-dc0c75d1552e"},"vehicle_type_id":"4","last_reported":1734617337,"current_range_meters":35200,"station_id":"ce4bhhh2rcd13ifvqfk0","pricing_plan_id":"cebpf4jnsgd1na2vs0mg"},{"bike_id":"ec9ccacb-52f3-4e77-a8ae-bd921a28ef88","system_id":"levelo_inurba_marseille","lat":43.312337,"lon":5.368517,"is_reserved":false,"is_disabled":false,"rental_uris":{"android":"levelo://app?vid=ec9ccacb-52f3-4e77-a8ae-bd921a28ef88","ios":"levelo://app?vid=ec9ccacb-52f3-4e77-a8ae-bd921a28ef88"},"vehicle_type_id":"4","last_reported":1734617337,"current_range_meters":32400,"station_id":"ce4bgl92rcd13ifvqbq0","pricing_plan_id":"cebpf4jnsgd1na2vs0mg"},{"bike_id":"3bbf6069-0358-4123-ad8a-020b58717a79","system_id":"levelo_inurba_marseille","lat":43.29036,"lon":5.38642,"is_reserved":false,"is_disabled":false,"rental_uris":{"android":"levelo://app?vid=3bbf6069-0358-4123-ad8a-020b58717a79","ios":"levelo://app?vid=3bbf6069-0358-4123-ad8a-020b58717a79"},"vehicle_type_id":"4","last_reported":1734617337,"current_range_meters":24800,"station_id":"ce4bh4p2rcd13ifvqe0g","pricing_plan_id":"cebpf4jnsgd1na2vs0mg"},{"bike_id":"3cef7525-5a18-495f-b73e-edfaf8b741ea","system_id":"levelo_inurba_marseille","lat":43.30958,"lon":5.39055,"is_reserved":false,"is_disabled":false,"rental_uris":{"android":"levelo://app?vid=3cef7525-5a18-495f-b73e-edfaf8b741ea","ios":"levelo://app?vid=3cef7525-5a18-495f-b73e-edfaf8b741ea"},"vehicle_type_id":"4","last_reported":1734617337,"current_range_meters":38800,"station_id":"ce4bgup2rcd13ifvqco0","pricing_plan_id":"cebpf4jnsgd1na2vs0mg"},{"bike_id":"0040eeef-f4be-4b9b-81d7-e438fc5e57e9","system_id":"levelo_inurba_marseille","lat":43.29046,"lon":5.39962,"is_reserved":false,"is_disabled":true,"rental_uris":{"android":"levelo://app?vid=0040eeef-f4be-4b9b-81d7-e438fc5e57e9","ios":"levelo://app?vid=0040eeef-f4be-4b9b-81d7-e438fc5e57e9"},"vehicle_type_id":"4","last_reported":1734617337,"current_range_meters":0,"station_id":"ce4bh392rcd13ifvqdm0","pricing_plan_id":"cebpf4jnsgd1na2vs0mg"},{"bike_id":"ee39a4ff-b614-4dd2-956c-b384f0742800","system_id":"levelo_inurba_marseille","lat":43.3249,"lon":5.36583,"is_reserved":false,"is_disabled":false,"rental_uris":{"android":"levelo://app?vid=ee39a4ff-b614-4dd2-956c-b384f0742800","ios":"levelo://app?vid=ee39a4ff-b614-4dd2-956c-b384f0742800"},"vehicle_type_id":"4","last_reported":1734617337,"current_range_meters":38000,"station_id":"ce4bhs12rcd13ifvqhvg","pricing_plan_id":"cebpf4jnsgd1na2vs0mg"},{"bike_id":"dc467b3f-a89b-4e7e-8ef6-e864f473dc16","system_id":"levelo_inurba_marseille","lat":43.32339,"lon":5.40622,"is_reserved":false,"is_disabled":false,"rental_uris":{"android":"levelo://app?vid=dc467b3f-a89b-4e7e-8ef6-e864f473dc16","ios":"levelo://app?vid=dc467b3f-a89b-4e7e-8ef6-e864f473dc16"},"vehicle_type_id":"4","last_reported":1734617337,"current_range_meters":34000,"station_id":"ce4bhq92rcd13ifvqhjg","pricing_plan_id":"cebpf4jnsgd1na2vs0mg"},{"bike_id":"cd7b5a16-f32b-462e-bc1a-923b1c882c05","system_id":"levelo_inurba_marseille","lat":43.287214,"lon":5.379476,"is_reserved":false,"is_disabled":false,"rental_uris":{"android":"levelo://app?vid=cd7b5a16-f32b-462e-bc1a-923b1c882c05","ios":"levelo://app?vid=cd7b5a16-f32b-462e-bc1a-923b1c882c05"},"vehicle_type_id":"4","last_reported":1734617337,"current_range_meters":9200,"station_id":"ce4bh9p2rcd13ifvqec0","pricing_plan_id":"cebpf4jnsgd1na2vs0mg"},{"bike_id":"ebfaac6d-09cc-4a7d-86f1-a826a4bc243f","system_id":"levelo_inurba_marseille","lat":43.3042,"lon":5.39735,"is_reserved":false,"is_disabled":false,"rental_uris":{"android":"levelo://app?vid=ebfaac6d-09cc-4a7d-86f1-a826a4bc243f","ios":"levelo://app?vid=ebfaac6d-09cc-4a7d-86f1-a826a4bc243f"},"vehicle_type_id":"4","last_reported":1734617337,"current_range_meters":38800,"station_id":"ce4bh092rcd13ifvqd20","pricing_plan_id":"cebpf4jnsgd1na2vs0mg"},{"bike_id":"938d5fe3-3f35-4ab3-8397-038a59c83f66","system_id":"levelo_inurba_marseille","lat":43.3065,"lon":5.40106,"is_reserved":false,"is_disabled":false,"rental_uris":{"android":"levelo://app?vid=938d5fe3-3f35-4ab3-8397-038a59c83f66","ios":"levelo://app?vid=938d5fe3-3f35-4ab3-8397-038a59c83f66"},"vehicle_type_id":"4","last_reported":1734617337,"current_range_meters":4800,"station_id":"ce4bh112rcd13ifvqda0","pricing_plan_id":"cebpf4jnsgd1na2vs0mg"},{"bike_id":"b3bec2b2-1f55-4aa9-bf02-40acba001163","system_id":"levelo_inurba_marseille","lat":43.29847,"lon":5.36274,"is_reserved":false,"is_disabled":false,"rental_uris":{"android":"levelo://app?vid=b3bec2b2-1f55-4aa9-bf02-40acba001163","ios":"levelo://app?vid=b3bec2b2-1f55-4aa9-bf02-40acba001163"},"vehicle_type_id":"4","last_reported":1734617337,"current_range_meters":38800,"station_id":"ce4bgpp2rcd13ifvqc3g","pricing_plan_id":"cebpf4jnsgd1na2vs0mg"},{"bike_id":"e9606422-c23d-4f08-b73c-b815fa90e5f8","system_id":"levelo_inurba_marseille","lat":43.32484,"lon":5.36575,"is_reserved":false,"is_disabled":false,"rental_uris":{"android":"levelo://app?vid=e9606422-c23d-4f08-b73c-b815fa90e5f8","ios":"levelo://app?vid=e9606422-c23d-4f08-b73c-b815fa90e5f8"},"vehicle_type_id":"4","last_reported":1734617337,"current_range_meters":24400,"station_id":"ce4bhs12rcd13ifvqhvg","pricing_plan_id":"cebpf4jnsgd1na2vs0mg"},{"bike_id":"0855ccf4-c4bf-4e2d-91fe-d844493d18ce","system_id":"levelo_inurba_marseille","lat":43.28004,"lon":5.40017,"is_reserved":false,"is_disabled":false,"rental_uris":{"android":"levelo://app?vid=0855ccf4-c4bf-4e2d-91fe-d844493d18ce","ios":"levelo://app?vid=0855ccf4-c4bf-4e2d-91fe-d844493d18ce"},"vehicle_type_id":"4","last_reported":1734617337,"current_range_meters":38000,"station_id":"ce4bho92rcd13ifvqh4g","pricing_plan_id":"cebpf4jnsgd1na2vs0mg"},{"bike_id":"e0c2eddf-4ba9-4754-b0b5-efd80badee74","system_id":"levelo_inurba_marseille","lat":43.25861,"lon":5.3945,"is_reserved":false,"is_disabled":true,"rental_uris":{"android":"levelo://app?vid=e0c2eddf-4ba9-4754-b0b5-efd80badee74","ios":"levelo://app?vid=e0c2eddf-4ba9-4754-b0b5-efd80badee74"},"vehicle_type_id":"4","last_reported":1734617337,"current_range_meters":0,"station_id":"ce4bhip2rcd13ifvqft0","pricing_plan_id":"cebpf4jnsgd1na2vs0mg"},{"bike_id":"c8a9df44-c9a1-43c7-addd-475d94f4c5ab","system_id":"levelo_inurba_marseille","lat":43.27316,"lon":5.39077,"is_reserved":false,"is_disabled":true,"rental_uris":{"android":"levelo://app?vid=c8a9df44-c9a1-43c7-addd-475d94f4c5ab","ios":"levelo://app?vid=c8a9df44-c9a1-43c7-addd-475d94f4c5ab"},"vehicle_type_id":"4","last_reported":1734617337,"current_range_meters":0,"station_id":"ce4bhgp2rcd13ifvqfe0","pricing_plan_id":"cebpf4jnsgd1na2vs0mg"},{"bike_id":"c42346d2-8ead-422a-8711-e75dd0bf9da6","system_id":"levelo_inurba_marseille","lat":43.29909,"lon":5.38147,"is_reserved":false,"is_disabled":false,"rental_uris":{"android":"levelo://app?vid=c42346d2-8ead-422a-8711-e75dd0bf9da6","ios":"levelo://app?vid=c42346d2-8ead-422a-8711-e75dd0bf9da6"},"vehicle_type_id":"4","last_reported":1734617337,"current_range_meters":16800,"station_id":"ce4bgj12rcd13ifvqbc0","pricing_plan_id":"cebpf4jnsgd1na2vs0mg"},{"bike_id":"aebff4f6-fe4e-494c-9ec4-35d089f38eea","system_id":"levelo_inurba_marseille","lat":43.2815,"lon":5.42645,"is_reserved":false,"is_disabled":false,"rental_uris":{"android":"levelo://app?vid=aebff4f6-fe4e-494c-9ec4-35d089f38eea","ios":"levelo://app?vid=aebff4f6-fe4e-494c-9ec4-35d089f38eea"},"vehicle_type_id":"4","last_reported":1734617337,"current_range_meters":28000,"station_id":"ce4bhnh2rcd13ifvqgug","pricing_plan_id":"cebpf4jnsgd1na2vs0mg"},{"bike_id":"2545665d-28bd-4123-8136-d48ad2bc2d2e","system_id":"levelo_inurba_marseille","lat":43.3087,"lon":5.39655,"is_reserved":false,"is_disabled":false,"rental_uris":{"android":"levelo://app?vid=2545665d-28bd-4123-8136-d48ad2bc2d2e","ios":"levelo://app?vid=2545665d-28bd-4123-8136-d48ad2bc2d2e"},"vehicle_type_id":"4","last_reported":1734617337,"current_range_meters":37600,"station_id":"ce4bh012rcd13ifvqcv0","pricing_plan_id":"cebpf4jnsgd1na2vs0mg"},{"bike_id":"e64ee947-f49f-4ac8-acc9-23f0de33b069","system_id":"levelo_inurba_marseille","lat":43.25847,"lon":5.39424,"is_reserved":false,"is_disabled":false,"rental_uris":{"android":"levelo://app?vid=e64ee947-f49f-4ac8-acc9-23f0de33b069","ios":"levelo://app?vid=e64ee947-f49f-4ac8-acc9-23f0de33b069"},"vehicle_type_id":"4","last_reported":1734617337,"current_range_meters":9200,"station_id":"ce4bhip2rcd13ifvqft0","pricing_plan_id":"cebpf4jnsgd1na2vs0mg"},{"bike_id":"f2a1d246-a6c1-426d-b4f9-6c0e5cd8282d","system_id":"levelo_inurba_marseille","lat":43.30219,"lon":5.39476,"is_reserved":false,"is_disabled":false,"rental_uris":{"android":"levelo://app?vid=f2a1d246-a6c1-426d-b4f9-6c0e5cd8282d","ios":"levelo://app?vid=f2a1d246-a6c1-426d-b4f9-6c0e5cd8282d"},"vehicle_type_id":"4","last_reported":1734617337,"current_range_meters":38800,"station_id":"ce4bh0p2rcd13ifvqd70","pricing_plan_id":"cebpf4jnsgd1na2vs0mg"},{"bike_id":"298b8445-2c9f-45b2-ac4e-9c28b3d5da22","system_id":"levelo_inurba_marseille","lat":43.31229,"lon":5.36861,"is_reserved":false,"is_disabled":false,"rental_uris":{"android":"levelo://app?vid=298b8445-2c9f-45b2-ac4e-9c28b3d5da22","ios":"levelo://app?vid=298b8445-2c9f-45b2-ac4e-9c28b3d5da22"},"vehicle_type_id":"4","last_reported":1734617337,"current_range_meters":35200,"station_id":"ce4bgl92rcd13ifvqbq0","pricing_plan_id":"cebpf4jnsgd1na2vs0mg"},{"bike_id":"f4c56ef6-7291-463e-be49-229f2ca4445a","system_id":"levelo_inurba_marseille","lat":43.302975,"lon":5.392055,"is_reserved":false,"is_disabled":true,"rental_uris":{"android":"levelo://app?vid=f4c56ef6-7291-463e-be49-229f2ca4445a","ios":"levelo://app?vid=f4c56ef6-7291-463e-be49-229f2ca4445a"},"vehicle_type_id":"4","last_reported":1734617337,"current_range_meters":400,"station_id":"ce4bgkh2rcd13ifvqbk0","pricing_plan_id":"cebpf4jnsgd1na2vs0mg"},{"bike_id":"7ca2eb94-1282-48e6-8510-5cb2475092aa","system_id":"levelo_inurba_marseille","lat":43.29845,"lon":5.3627,"is_reserved":false,"is_disabled":false,"rental_uris":{"android":"levelo://app?vid=7ca2eb94-1282-48e6-8510-5cb2475092aa","ios":"levelo://app?vid=7ca2eb94-1282-48e6-8510-5cb2475092aa"},"vehicle_type_id":"4","last_reported":1734617337,"current_range_meters":17600,"station_id":"ce4bgpp2rcd13ifvqc3g","pricing_plan_id":"cebpf4jnsgd1na2vs0mg"},{"bike_id":"4a3adadd-0dd4-4960-ac68-e41574cc9da6","system_id":"levelo_inurba_marseille","lat":43.30559,"lon":5.36548,"is_reserved":false,"is_disabled":false,"rental_uris":{"android":"levelo://app?vid=4a3adadd-0dd4-4960-ac68-e41574cc9da6","ios":"levelo://app?vid=4a3adadd-0dd4-4960-ac68-e41574cc9da6"},"vehicle_type_id":"4","last_reported":1734617337,"current_range_meters":25200,"station_id":"ce4bgs12rcd13ifvqcag","pricing_plan_id":"cebpf4jnsgd1na2vs0mg"},{"bike_id":"30cf218e-0565-4b4d-b831-6b6e7547fc40","system_id":"levelo_inurba_marseille","lat":43.26804,"lon":5.40276,"is_reserved":false,"is_disabled":true,"rental_uris":{"android":"levelo://app?vid=30cf218e-0565-4b4d-b831-6b6e7547fc40","ios":"levelo://app?vid=30cf218e-0565-4b4d-b831-6b6e7547fc40"},"vehicle_type_id":"4","last_reported":1734617337,"current_range_meters":1200,"station_id":"ce501612rcd8frsf0b60","pricing_plan_id":"cebpf4jnsgd1na2vs0mg"},{"bike_id":"1d6615fc-a572-4fc0-999b-b46e373450d8","system_id":"levelo_inurba_marseille","lat":43.26937,"lon":5.40269,"is_reserved":false,"is_disabled":false,"rental_uris":{"android":"levelo://app?vid=1d6615fc-a572-4fc0-999b-b46e373450d8","ios":"levelo://app?vid=1d6615fc-a572-4fc0-999b-b46e373450d8"},"vehicle_type_id":"4","last_reported":1734617337,"current_range_meters":38800,"station_id":"cjm6bp8fraef2m0cb0m0","pricing_plan_id":"cebpf4jnsgd1na2vs0mg"},{"bike_id":"fcfca01c-afe6-47d0-97b1-24cd38cf13c3","system_id":"levelo_inurba_marseille","lat":43.25495,"lon":5.37648,"is_reserved":false,"is_disabled":false,"rental_uris":{"android":"levelo://app?vid=fcfca01c-afe6-47d0-97b1-24cd38cf13c3","ios":"levelo://app?vid=fcfca01c-afe6-47d0-97b1-24cd38cf13c3"},"vehicle_type_id":"4","last_reported":1734617337,"current_range_meters":38800,"station_id":"ce4bhh12rcd13ifvqff0","pricing_plan_id":"cebpf4jnsgd1na2vs0mg"},{"bike_id":"566d2fc9-5399-4398-a4c0-8e3a8af2d6ce","system_id":"levelo_inurba_marseille","lat":43.27506,"lon":5.4245,"is_reserved":false,"is_disabled":false,"rental_uris":{"android":"levelo://app?vid=566d2fc9-5399-4398-a4c0-8e3a8af2d6ce","ios":"levelo://app?vid=566d2fc9-5399-4398-a4c0-8e3a8af2d6ce"},"vehicle_type_id":"4","last_reported":1734617337,"current_range_meters":3200,"station_id":"ce4bhn92rcd13ifvqgrg","pricing_plan_id":"cebpf4jnsgd1na2vs0mg"},{"bike_id":"b292cae7-4940-4adf-a1f9-633edb1fbb8a","system_id":"levelo_inurba_marseille","lat":43.28712,"lon":5.3998,"is_reserved":false,"is_disabled":false,"rental_uris":{"android":"levelo://app?vid=b292cae7-4940-4adf-a1f9-633edb1fbb8a","ios":"levelo://app?vid=b292cae7-4940-4adf-a1f9-633edb1fbb8a"},"vehicle_type_id":"4","last_reported":1734617337,"current_range_meters":38800,"station_id":"ce4bho92rcd13ifvqh3g","pricing_plan_id":"cebpf4jnsgd1na2vs0mg"},{"bike_id":"1a06e05f-4d56-46a9-8b87-6d8e83c79d2a","system_id":"levelo_inurba_marseille","lat":43.30451,"lon":5.3791,"is_reserved":false,"is_disabled":false,"rental_uris":{"android":"levelo://app?vid=1a06e05f-4d56-46a9-8b87-6d8e83c79d2a","ios":"levelo://app?vid=1a06e05f-4d56-46a9-8b87-6d8e83c79d2a"},"vehicle_type_id":"4","last_reported":1734617337,"current_range_meters":38800,"station_id":"ce4bgup2rcd13ifvqcn0","pricing_plan_id":"cebpf4jnsgd1na2vs0mg"},{"bike_id":"ee541765-428a-4bb1-bc90-f1a524fdccf5","system_id":"levelo_inurba_marseille","lat":43.31743,"lon":5.43686,"is_reserved":false,"is_disabled":false,"rental_uris":{"android":"levelo://app?vid=ee541765-428a-4bb1-bc90-f1a524fdccf5","ios":"levelo://app?vid=ee541765-428a-4bb1-bc90-f1a524fdccf5"},"vehicle_type_id":"4","last_reported":1734617337,"current_range_meters":39200,"station_id":"ce4bhp92rcd13ifvqhcg","pricing_plan_id":"cebpf4jnsgd1na2vs0mg"},{"bike_id":"17b2d2b0-9855-46b4-a478-0bd9c7277056","system_id":"levelo_inurba_marseille","lat":43.30915,"lon":5.37841,"is_reserved":false,"is_disabled":true,"rental_uris":{"android":"levelo://app?vid=17b2d2b0-9855-46b4-a478-0bd9c7277056","ios":"levelo://app?vid=17b2d2b0-9855-46b4-a478-0bd9c7277056"},"vehicle_type_id":"4","last_reported":1734617337,"current_range_meters":0,"station_id":"","pricing_plan_id":"cebpf4jnsgd1na2vs0mg"},{"bike_id":"7448830e-8418-4753-ac56-c801b75e9294","system_id":"levelo_inurba_marseille","lat":43.29617,"lon":5.37741,"is_reserved":false,"is_disabled":false,"rental_uris":{"android":"levelo://app?vid=7448830e-8418-4753-ac56-c801b75e9294","ios":"levelo://app?vid=7448830e-8418-4753-ac56-c801b75e9294"},"vehicle_type_id":"4","last_reported":1734617337,"current_range_meters":38800,"station_id":"ce4bgi92rcd13ifvqb90","pricing_plan_id":"cebpf4jnsgd1na2vs0mg"},{"bike_id":"e1614097-2c37-4a2b-8bf7-29e2124f27de","system_id":"levelo_inurba_marseille","lat":43.2925,"lon":5.40903,"is_reserved":false,"is_disabled":false,"rental_uris":{"android":"levelo://app?vid=e1614097-2c37-4a2b-8bf7-29e2124f27de","ios":"levelo://app?vid=e1614097-2c37-4a2b-8bf7-29e2124f27de"},"vehicle_type_id":"4","last_reported":1734617337,"current_range_meters":38400,"station_id":"ce4bh192rcd13ifvqdc0","pricing_plan_id":"cebpf4jnsgd1na2vs0mg"},{"bike_id":"60edf47f-0fbc-42b3-878f-be37a0e8cf28","system_id":"levelo_inurba_marseille","lat":43.30961,"lon":5.39038,"is_reserved":false,"is_disabled":false,"rental_uris":{"android":"levelo://app?vid=60edf47f-0fbc-42b3-878f-be37a0e8cf28","ios":"levelo://app?vid=60edf47f-0fbc-42b3-878f-be37a0e8cf28"},"vehicle_type_id":"4","last_reported":1734617337,"current_range_meters":38000,"station_id":"ce4bgup2rcd13ifvqco0","pricing_plan_id":"cebpf4jnsgd1na2vs0mg"},{"bike_id":"7bffcd7b-607f-4005-9803-c0e4872f8dc8","system_id":"levelo_inurba_marseille","lat":43.28409,"lon":5.34985,"is_reserved":false,"is_disabled":true,"rental_uris":{"android":"levelo://app?vid=7bffcd7b-607f-4005-9803-c0e4872f8dc8","ios":"levelo://app?vid=7bffcd7b-607f-4005-9803-c0e4872f8dc8"},"vehicle_type_id":"4","last_reported":1734617337,"current_range_meters":0,"station_id":"ce4bhbh2rcd13ifvqepg","pricing_plan_id":"cebpf4jnsgd1na2vs0mg"},{"bike_id":"0f5e3cb2-933b-4868-873e-c8d89bcef74e","system_id":"levelo_inurba_marseille","lat":43.30139,"lon":5.38782,"is_reserved":false,"is_disabled":false,"rental_uris":{"android":"levelo://app?vid=0f5e3cb2-933b-4868-873e-c8d89bcef74e","ios":"levelo://app?vid=0f5e3cb2-933b-4868-873e-c8d89bcef74e"},"vehicle_type_id":"4","last_reported":1734617337,"current_range_meters":35600,"station_id":"ce4bhoh2rcd13ifvqh6g","pricing_plan_id":"cebpf4jnsgd1na2vs0mg"},{"bike_id":"9f97f512-1b19-443a-b67f-86de027e5577","system_id":"levelo_inurba_marseille","lat":43.34549,"lon":5.37605,"is_reserved":false,"is_disabled":true,"rental_uris":{"android":"levelo://app?vid=9f97f512-1b19-443a-b67f-86de027e5577","ios":"levelo://app?vid=9f97f512-1b19-443a-b67f-86de027e5577"},"vehicle_type_id":"4","last_reported":1734617337,"current_range_meters":22400,"station_id":"","pricing_plan_id":"cebpf4jnsgd1na2vs0mg"},{"bike_id":"da4cc445-7208-423d-bbea-6eed42d18866","system_id":"levelo_inurba_marseille","lat":43.29365,"lon":5.37859,"is_reserved":false,"is_disabled":false,"rental_uris":{"android":"levelo://app?vid=da4cc445-7208-423d-bbea-6eed42d18866","ios":"levelo://app?vid=da4cc445-7208-423d-bbea-6eed42d18866"},"vehicle_type_id":"4","last_reported":1734617337,"current_range_meters":38800,"station_id":"ce4bgjh2rcd13ifvqbf0","pricing_plan_id":"cebpf4jnsgd1na2vs0mg"},{"bike_id":"5c1b4a9a-cd9c-4e9e-a30b-20868002edd4","system_id":"levelo_inurba_marseille","lat":43.27921,"lon":5.39567,"is_reserved":false,"is_disabled":false,"rental_uris":{"android":"levelo://app?vid=5c1b4a9a-cd9c-4e9e-a30b-20868002edd4","ios":"levelo://app?vid=5c1b4a9a-cd9c-4e9e-a30b-20868002edd4"},"vehicle_type_id":"4","last_reported":1734617337,"current_range_meters":38800,"station_id":"ce4bhf92rcd13ifvqf40","pricing_plan_id":"cebpf4jnsgd1na2vs0mg"},{"bike_id":"d359ed4a-32df-4338-9cff-5d7d2bb4e8f4","system_id":"levelo_inurba_marseille","lat":43.31756,"lon":5.39021,"is_reserved":false,"is_disabled":false,"rental_uris":{"android":"levelo://app?vid=d359ed4a-32df-4338-9cff-5d7d2bb4e8f4","ios":"levelo://app?vid=d359ed4a-32df-4338-9cff-5d7d2bb4e8f4"},"vehicle_type_id":"4","last_reported":1734617337,"current_range_meters":28000,"station_id":"ce4bhqp2rcd13ifvqhng","pricing_plan_id":"cebpf4jnsgd1na2vs0mg"},{"bike_id":"3060ec07-a102-4ed3-88d0-58bbdc992303","system_id":"levelo_inurba_marseille","lat":43.298798,"lon":5.368186,"is_reserved":false,"is_disabled":false,"rental_uris":{"android":"levelo://app?vid=3060ec07-a102-4ed3-88d0-58bbdc992303","ios":"levelo://app?vid=3060ec07-a102-4ed3-88d0-58bbdc992303"},"vehicle_type_id":"4","last_reported":1734617337,"current_range_meters":19600,"station_id":"ce4bgm92rcd13ifvqbr0","pricing_plan_id":"cebpf4jnsgd1na2vs0mg"},{"bike_id":"d2b3815c-9e72-4cf6-ad7d-db0bff407f5c","system_id":"levelo_inurba_marseille","lat":43.28157,"lon":5.4264,"is_reserved":false,"is_disabled":false,"rental_uris":{"android":"levelo://app?vid=d2b3815c-9e72-4cf6-ad7d-db0bff407f5c","ios":"levelo://app?vid=d2b3815c-9e72-4cf6-ad7d-db0bff407f5c"},"vehicle_type_id":"4","last_reported":1734617337,"current_range_meters":19200,"station_id":"ce4bhnh2rcd13ifvqgug","pricing_plan_id":"cebpf4jnsgd1na2vs0mg"},{"bike_id":"43eb1024-3b5b-4817-baab-0a1232de5541","system_id":"levelo_inurba_marseille","lat":43.30534,"lon":5.36531,"is_reserved":false,"is_disabled":false,"rental_uris":{"android":"levelo://app?vid=43eb1024-3b5b-4817-baab-0a1232de5541","ios":"levelo://app?vid=43eb1024-3b5b-4817-baab-0a1232de5541"},"vehicle_type_id":"4","last_reported":1734617337,"current_range_meters":18000,"station_id":"ce4bgs12rcd13ifvqcag","pricing_plan_id":"cebpf4jnsgd1na2vs0mg"},{"bike_id":"f7d20769-2a20-48c4-8809-7b36ad73d511","system_id":"levelo_inurba_marseille","lat":43.29612,"lon":5.3772,"is_reserved":false,"is_disabled":true,"rental_uris":{"android":"levelo://app?vid=f7d20769-2a20-48c4-8809-7b36ad73d511","ios":"levelo://app?vid=f7d20769-2a20-48c4-8809-7b36ad73d511"},"vehicle_type_id":"4","last_reported":1734617337,"current_range_meters":2000,"station_id":"ce4bgi92rcd13ifvqb90","pricing_plan_id":"cebpf4jnsgd1na2vs0mg"},{"bike_id":"283eb788-e029-49ca-b25a-887139c885e5","system_id":"levelo_inurba_marseille","lat":43.29915,"lon":5.37475,"is_reserved":false,"is_disabled":false,"rental_uris":{"android":"levelo://app?vid=283eb788-e029-49ca-b25a-887139c885e5","ios":"levelo://app?vid=283eb788-e029-49ca-b25a-887139c885e5"},"vehicle_type_id":"4","last_reported":1734617337,"current_range_meters":32800,"station_id":"ce4bgjh2rcd13ifvqbg0","pricing_plan_id":"cebpf4jnsgd1na2vs0mg"},{"bike_id":"fb20bb97-4df8-43eb-be76-87caf6d34b24","system_id":"levelo_inurba_marseille","lat":43.30324,"lon":5.40435,"is_reserved":false,"is_disabled":false,"rental_uris":{"android":"levelo://app?vid=fb20bb97-4df8-43eb-be76-87caf6d34b24","ios":"levelo://app?vid=fb20bb97-4df8-43eb-be76-87caf6d34b24"},"vehicle_type_id":"4","last_reported":1734617337,"current_range_meters":4800,"station_id":"ce4bh012rcd13ifvqd10","pricing_plan_id":"cebpf4jnsgd1na2vs0mg"},{"bike_id":"4593b8aa-18bf-4533-864b-9b4909712147","system_id":"levelo_inurba_marseille","lat":43.29777,"lon":5.37112,"is_reserved":false,"is_disabled":false,"rental_uris":{"android":"levelo://app?vid=4593b8aa-18bf-4533-864b-9b4909712147","ios":"levelo://app?vid=4593b8aa-18bf-4533-864b-9b4909712147"},"vehicle_type_id":"4","last_reported":1734617337,"current_range_meters":28000,"station_id":"ce4bgop2rcd13ifvqc1g","pricing_plan_id":"cebpf4jnsgd1na2vs0mg"},{"bike_id":"405074bb-7988-4d4c-b3d9-0e0756acdbad","system_id":"levelo_inurba_marseille","lat":43.29855,"lon":5.36266,"is_reserved":false,"is_disabled":false,"rental_uris":{"android":"levelo://app?vid=405074bb-7988-4d4c-b3d9-0e0756acdbad","ios":"levelo://app?vid=405074bb-7988-4d4c-b3d9-0e0756acdbad"},"vehicle_type_id":"4","last_reported":1734617337,"current_range_meters":14800,"station_id":"ce4bgpp2rcd13ifvqc3g","pricing_plan_id":"cebpf4jnsgd1na2vs0mg"},{"bike_id":"27589c7b-1ff7-44e4-83f1-d7a65e77b5c9","system_id":"levelo_inurba_marseille","lat":43.32116,"lon":5.36759,"is_reserved":false,"is_disabled":false,"rental_uris":{"android":"levelo://app?vid=27589c7b-1ff7-44e4-83f1-d7a65e77b5c9","ios":"levelo://app?vid=27589c7b-1ff7-44e4-83f1-d7a65e77b5c9"},"vehicle_type_id":"4","last_reported":1734617337,"current_range_meters":29600,"station_id":"ce4bhrh2rcd13ifvqhug","pricing_plan_id":"cebpf4jnsgd1na2vs0mg"},{"bike_id":"88096ccc-9e40-4928-a4be-c22e6c954fec","system_id":"levelo_inurba_marseille","lat":43.30542,"lon":5.36555,"is_reserved":false,"is_disabled":false,"rental_uris":{"android":"levelo://app?vid=88096ccc-9e40-4928-a4be-c22e6c954fec","ios":"levelo://app?vid=88096ccc-9e40-4928-a4be-c22e6c954fec"},"vehicle_type_id":"4","last_reported":1734617337,"current_range_meters":6000,"station_id":"ce4bgs12rcd13ifvqcag","pricing_plan_id":"cebpf4jnsgd1na2vs0mg"},{"bike_id":"86664b57-6b70-4364-9d79-7d97a7fd0730","system_id":"levelo_inurba_marseille","lat":43.3054,"lon":5.36558,"is_reserved":false,"is_disabled":false,"rental_uris":{"android":"levelo://app?vid=86664b57-6b70-4364-9d79-7d97a7fd0730","ios":"levelo://app?vid=86664b57-6b70-4364-9d79-7d97a7fd0730"},"vehicle_type_id":"4","last_reported":1734617337,"current_range_meters":16800,"station_id":"ce4bgs12rcd13ifvqcag","pricing_plan_id":"cebpf4jnsgd1na2vs0mg"},{"bike_id":"016009ff-c5b8-4760-85e7-d9cd55f8086c","system_id":"levelo_inurba_marseille","lat":43.28403,"lon":5.34973,"is_reserved":false,"is_disabled":false,"rental_uris":{"android":"levelo://app?vid=016009ff-c5b8-4760-85e7-d9cd55f8086c","ios":"levelo://app?vid=016009ff-c5b8-4760-85e7-d9cd55f8086c"},"vehicle_type_id":"4","last_reported":1734617337,"current_range_meters":28000,"station_id":"ce4bhbh2rcd13ifvqepg","pricing_plan_id":"cebpf4jnsgd1na2vs0mg"},{"bike_id":"d4a92d73-458f-4633-b078-8b09bedbb320","system_id":"levelo_inurba_marseille","lat":43.31325,"lon":5.39698,"is_reserved":false,"is_disabled":false,"rental_uris":{"android":"levelo://app?vid=d4a92d73-458f-4633-b078-8b09bedbb320","ios":"levelo://app?vid=d4a92d73-458f-4633-b078-8b09bedbb320"},"vehicle_type_id":"4","last_reported":1734617337,"current_range_meters":31200,"station_id":"ce4bgvp2rcd13ifvqcu0","pricing_plan_id":"cebpf4jnsgd1na2vs0mg"},{"bike_id":"9964367f-1028-4724-aa62-50251982452a","system_id":"levelo_inurba_marseille","lat":43.28859,"lon":5.35853,"is_reserved":false,"is_disabled":false,"rental_uris":{"android":"levelo://app?vid=9964367f-1028-4724-aa62-50251982452a","ios":"levelo://app?vid=9964367f-1028-4724-aa62-50251982452a"},"vehicle_type_id":"4","last_reported":1734617337,"current_range_meters":38400,"station_id":"ce4bhb12rcd13ifvqem0","pricing_plan_id":"cebpf4jnsgd1na2vs0mg"},{"bike_id":"2a12bde8-ca1e-4ca8-8cbb-8dbf9a638106","system_id":"levelo_inurba_marseille","lat":43.232,"lon":5.3556,"is_reserved":false,"is_disabled":false,"rental_uris":{"android":"levelo://app?vid=2a12bde8-ca1e-4ca8-8cbb-8dbf9a638106","ios":"levelo://app?vid=2a12bde8-ca1e-4ca8-8cbb-8dbf9a638106"},"vehicle_type_id":"4","last_reported":1734617337,"current_range_meters":28800,"station_id":"ce4bhu92rcd13ifvqi70","pricing_plan_id":"cebpf4jnsgd1na2vs0mg"},{"bike_id":"e8213348-b35b-48e5-99ff-d8c9a6f92405","system_id":"levelo_inurba_marseille","lat":43.30075,"lon":5.39076,"is_reserved":false,"is_disabled":false,"rental_uris":{"android":"levelo://app?vid=e8213348-b35b-48e5-99ff-d8c9a6f92405","ios":"levelo://app?vid=e8213348-b35b-48e5-99ff-d8c9a6f92405"},"vehicle_type_id":"4","last_reported":1734617337,"current_range_meters":10000,"station_id":"ce4bh192rcd13ifvqdb0","pricing_plan_id":"cebpf4jnsgd1na2vs0mg"},{"bike_id":"e173759f-c4ff-48a0-b907-71e61cdab2c2","system_id":"levelo_inurba_marseille","lat":43.31333,"lon":5.39704,"is_reserved":false,"is_disabled":false,"rental_uris":{"android":"levelo://app?vid=e173759f-c4ff-48a0-b907-71e61cdab2c2","ios":"levelo://app?vid=e173759f-c4ff-48a0-b907-71e61cdab2c2"},"vehicle_type_id":"4","last_reported":1734617337,"current_range_meters":38800,"station_id":"ce4bgvp2rcd13ifvqcu0","pricing_plan_id":"cebpf4jnsgd1na2vs0mg"},{"bike_id":"4f62c01b-4ec2-46bf-a8fb-5cc456812462","system_id":"levelo_inurba_marseille","lat":43.30646,"lon":5.40098,"is_reserved":false,"is_disabled":false,"rental_uris":{"android":"levelo://app?vid=4f62c01b-4ec2-46bf-a8fb-5cc456812462","ios":"levelo://app?vid=4f62c01b-4ec2-46bf-a8fb-5cc456812462"},"vehicle_type_id":"4","last_reported":1734617337,"current_range_meters":33200,"station_id":"ce4bh112rcd13ifvqda0","pricing_plan_id":"cebpf4jnsgd1na2vs0mg"},{"bike_id":"fdeb4ccc-d850-402e-84ed-8ebecff29977","system_id":"levelo_inurba_marseille","lat":43.29703,"lon":5.37698,"is_reserved":false,"is_disabled":false,"rental_uris":{"android":"levelo://app?vid=fdeb4ccc-d850-402e-84ed-8ebecff29977","ios":"levelo://app?vid=fdeb4ccc-d850-402e-84ed-8ebecff29977"},"vehicle_type_id":"4","last_reported":1734617337,"current_range_meters":32800,"station_id":"ce4bgkh2rcd13ifvqbl0","pricing_plan_id":"cebpf4jnsgd1na2vs0mg"},{"bike_id":"35a59f53-aa82-4d61-a3ff-6194d35ba5f7","system_id":"levelo_inurba_marseille","lat":43.27506,"lon":5.42453,"is_reserved":false,"is_disabled":false,"rental_uris":{"android":"levelo://app?vid=35a59f53-aa82-4d61-a3ff-6194d35ba5f7","ios":"levelo://app?vid=35a59f53-aa82-4d61-a3ff-6194d35ba5f7"},"vehicle_type_id":"4","last_reported":1734617337,"current_range_meters":14000,"station_id":"ce4bhn92rcd13ifvqgrg","pricing_plan_id":"cebpf4jnsgd1na2vs0mg"},{"bike_id":"d0e0b033-35a3-4307-9c18-6dd52e5de49f","system_id":"levelo_inurba_marseille","lat":43.28858,"lon":5.3585,"is_reserved":false,"is_disabled":false,"rental_uris":{"android":"levelo://app?vid=d0e0b033-35a3-4307-9c18-6dd52e5de49f","ios":"levelo://app?vid=d0e0b033-35a3-4307-9c18-6dd52e5de49f"},"vehicle_type_id":"4","last_reported":1734617337,"current_range_meters":37600,"station_id":"ce4bhb12rcd13ifvqem0","pricing_plan_id":"cebpf4jnsgd1na2vs0mg"},{"bike_id":"b002d028-e42c-46e2-93ce-a18a7a90546e","system_id":"levelo_inurba_marseille","lat":43.32289,"lon":5.38278,"is_reserved":false,"is_disabled":false,"rental_uris":{"android":"levelo://app?vid=b002d028-e42c-46e2-93ce-a18a7a90546e","ios":"levelo://app?vid=b002d028-e42c-46e2-93ce-a18a7a90546e"},"vehicle_type_id":"4","last_reported":1734617337,"current_range_meters":21600,"station_id":"ce4bhr12rcd13ifvqhqg","pricing_plan_id":"cebpf4jnsgd1na2vs0mg"},{"bike_id":"8d2d1fc5-8995-4400-8cfc-148fb6ed4a6d","system_id":"levelo_inurba_marseille","lat":43.27494,"lon":5.42459,"is_reserved":false,"is_disabled":true,"rental_uris":{"android":"levelo://app?vid=8d2d1fc5-8995-4400-8cfc-148fb6ed4a6d","ios":"levelo://app?vid=8d2d1fc5-8995-4400-8cfc-148fb6ed4a6d"},"vehicle_type_id":"4","last_reported":1734617337,"current_range_meters":800,"station_id":"ce4bhn92rcd13ifvqgrg","pricing_plan_id":"cebpf4jnsgd1na2vs0mg"},{"bike_id":"67ce1248-4107-424b-aeba-66480db3fd82","system_id":"levelo_inurba_marseille","lat":43.2795,"lon":5.41052,"is_reserved":false,"is_disabled":false,"rental_uris":{"android":"levelo://app?vid=67ce1248-4107-424b-aeba-66480db3fd82","ios":"levelo://app?vid=67ce1248-4107-424b-aeba-66480db3fd82"},"vehicle_type_id":"4","last_reported":1734617337,"current_range_meters":38400,"station_id":"ce4bhnp2rcd13ifvqh0g","pricing_plan_id":"cebpf4jnsgd1na2vs0mg"},{"bike_id":"79b90008-ce57-405a-ab4f-873db0b7ef85","system_id":"levelo_inurba_marseille","lat":43.26594,"lon":5.39045,"is_reserved":false,"is_disabled":false,"rental_uris":{"android":"levelo://app?vid=79b90008-ce57-405a-ab4f-873db0b7ef85","ios":"levelo://app?vid=79b90008-ce57-405a-ab4f-873db0b7ef85"},"vehicle_type_id":"4","last_reported":1734617337,"current_range_meters":37600,"station_id":"ce4bhe12rcd13ifvqf30","pricing_plan_id":"cebpf4jnsgd1na2vs0mg"},{"bike_id":"64d80d09-f4a6-45c8-8e2b-73d831900f9a","system_id":"levelo_inurba_marseille","lat":43.29021,"lon":5.38622,"is_reserved":false,"is_disabled":false,"rental_uris":{"android":"levelo://app?vid=64d80d09-f4a6-45c8-8e2b-73d831900f9a","ios":"levelo://app?vid=64d80d09-f4a6-45c8-8e2b-73d831900f9a"},"vehicle_type_id":"4","last_reported":1734617337,"current_range_meters":24400,"station_id":"ce4bh4p2rcd13ifvqe0g","pricing_plan_id":"cebpf4jnsgd1na2vs0mg"},{"bike_id":"8c3371ec-79e8-41b5-9548-100ac417203a","system_id":"levelo_inurba_marseille","lat":43.28862,"lon":5.3584,"is_reserved":false,"is_disabled":false,"rental_uris":{"android":"levelo://app?vid=8c3371ec-79e8-41b5-9548-100ac417203a","ios":"levelo://app?vid=8c3371ec-79e8-41b5-9548-100ac417203a"},"vehicle_type_id":"4","last_reported":1734617337,"current_range_meters":31200,"station_id":"ce4bhb12rcd13ifvqem0","pricing_plan_id":"cebpf4jnsgd1na2vs0mg"},{"bike_id":"fb365c1e-ab55-42de-9221-75e6490c77ac","system_id":"levelo_inurba_marseille","lat":43.30301,"lon":5.39214,"is_reserved":false,"is_disabled":false,"rental_uris":{"android":"levelo://app?vid=fb365c1e-ab55-42de-9221-75e6490c77ac","ios":"levelo://app?vid=fb365c1e-ab55-42de-9221-75e6490c77ac"},"vehicle_type_id":"4","last_reported":1734617337,"current_range_meters":6000,"station_id":"ce4bgkh2rcd13ifvqbk0","pricing_plan_id":"cebpf4jnsgd1na2vs0mg"},{"bike_id":"b44f9236-c33f-43b3-ab7e-0f32e9951c9e","system_id":"levelo_inurba_marseille","lat":43.23194,"lon":5.35554,"is_reserved":false,"is_disabled":false,"rental_uris":{"android":"levelo://app?vid=b44f9236-c33f-43b3-ab7e-0f32e9951c9e","ios":"levelo://app?vid=b44f9236-c33f-43b3-ab7e-0f32e9951c9e"},"vehicle_type_id":"4","last_reported":1734617337,"current_range_meters":10800,"station_id":"ce4bhu92rcd13ifvqi70","pricing_plan_id":"cebpf4jnsgd1na2vs0mg"},{"bike_id":"4620dcd9-c3a6-4871-8162-c4a28f6d33ca","system_id":"levelo_inurba_marseille","lat":43.31922,"lon":5.40775,"is_reserved":false,"is_disabled":true,"rental_uris":{"android":"levelo://app?vid=4620dcd9-c3a6-4871-8162-c4a28f6d33ca","ios":"levelo://app?vid=4620dcd9-c3a6-4871-8162-c4a28f6d33ca"},"vehicle_type_id":"4","last_reported":1734617337,"current_range_meters":9200,"station_id":"ce4bhq12rcd13ifvqhig","pricing_plan_id":"cebpf4jnsgd1na2vs0mg"},{"bike_id":"141b19bd-54a1-460e-9c8d-f6aacfddcdfa","system_id":"levelo_inurba_marseille","lat":43.28934,"lon":5.38401,"is_reserved":false,"is_disabled":false,"rental_uris":{"android":"levelo://app?vid=141b19bd-54a1-460e-9c8d-f6aacfddcdfa","ios":"levelo://app?vid=141b19bd-54a1-460e-9c8d-f6aacfddcdfa"},"vehicle_type_id":"4","last_reported":1734617337,"current_range_meters":26000,"station_id":"ce4bh612rcd13ifvqe6g","pricing_plan_id":"cebpf4jnsgd1na2vs0mg"},{"bike_id":"38189c1a-1fea-4cb8-b62f-f8393fe110e8","system_id":"levelo_inurba_marseille","lat":43.3095,"lon":5.39029,"is_reserved":false,"is_disabled":false,"rental_uris":{"android":"levelo://app?vid=38189c1a-1fea-4cb8-b62f-f8393fe110e8","ios":"levelo://app?vid=38189c1a-1fea-4cb8-b62f-f8393fe110e8"},"vehicle_type_id":"4","last_reported":1734617337,"current_range_meters":20400,"station_id":"ce4bgup2rcd13ifvqco0","pricing_plan_id":"cebpf4jnsgd1na2vs0mg"},{"bike_id":"2edc8e2f-2556-4351-aeaf-7299a60616d6","system_id":"levelo_inurba_marseille","lat":43.24673,"lon":5.38171,"is_reserved":false,"is_disabled":false,"rental_uris":{"android":"levelo://app?vid=2edc8e2f-2556-4351-aeaf-7299a60616d6","ios":"levelo://app?vid=2edc8e2f-2556-4351-aeaf-7299a60616d6"},"vehicle_type_id":"4","last_reported":1734617337,"current_range_meters":36800,"station_id":"ce4bhih2rcd13ifvqfr0","pricing_plan_id":"cebpf4jnsgd1na2vs0mg"},{"bike_id":"beea06dd-930f-4a71-b020-a2265bba9670","system_id":"levelo_inurba_marseille","lat":43.32478,"lon":5.36561,"is_reserved":false,"is_disabled":false,"rental_uris":{"android":"levelo://app?vid=beea06dd-930f-4a71-b020-a2265bba9670","ios":"levelo://app?vid=beea06dd-930f-4a71-b020-a2265bba9670"},"vehicle_type_id":"4","last_reported":1734617337,"current_range_meters":33200,"station_id":"ce4bhs12rcd13ifvqhvg","pricing_plan_id":"cebpf4jnsgd1na2vs0mg"},{"bike_id":"699be605-c3f4-4276-babe-4ba137c46c01","system_id":"levelo_inurba_marseille","lat":43.26683,"lon":5.38272,"is_reserved":false,"is_disabled":false,"rental_uris":{"android":"levelo://app?vid=699be605-c3f4-4276-babe-4ba137c46c01","ios":"levelo://app?vid=699be605-c3f4-4276-babe-4ba137c46c01"},"vehicle_type_id":"4","last_reported":1734617337,"current_range_meters":24400,"station_id":"ce4bhg92rcd13ifvqf90","pricing_plan_id":"cebpf4jnsgd1na2vs0mg"},{"bike_id":"af958579-cc4d-44df-853f-d995a1a776b5","system_id":"levelo_inurba_marseille","lat":43.29847,"lon":5.36282,"is_reserved":false,"is_disabled":false,"rental_uris":{"android":"levelo://app?vid=af958579-cc4d-44df-853f-d995a1a776b5","ios":"levelo://app?vid=af958579-cc4d-44df-853f-d995a1a776b5"},"vehicle_type_id":"4","last_reported":1734617337,"current_range_meters":25200,"station_id":"ce4bgpp2rcd13ifvqc3g","pricing_plan_id":"cebpf4jnsgd1na2vs0mg"},{"bike_id":"b9641efc-6ed6-40ed-b5e9-920aef58b032","system_id":"levelo_inurba_marseille","lat":43.31685,"lon":5.40473,"is_reserved":false,"is_disabled":false,"rental_uris":{"android":"levelo://app?vid=b9641efc-6ed6-40ed-b5e9-920aef58b032","ios":"levelo://app?vid=b9641efc-6ed6-40ed-b5e9-920aef58b032"},"vehicle_type_id":"4","last_reported":1734617337,"current_range_meters":19200,"station_id":"ce4bh012rcd13ifvqd00","pricing_plan_id":"cebpf4jnsgd1na2vs0mg"},{"bike_id":"4546479c-96ba-4b7b-93be-17310f9dbf66","system_id":"levelo_inurba_marseille","lat":43.30918,"lon":5.36855,"is_reserved":false,"is_disabled":false,"rental_uris":{"android":"levelo://app?vid=4546479c-96ba-4b7b-93be-17310f9dbf66","ios":"levelo://app?vid=4546479c-96ba-4b7b-93be-17310f9dbf66"},"vehicle_type_id":"4","last_reported":1734617337,"current_range_meters":38000,"station_id":"ce4bgn92rcd13ifvqbvg","pricing_plan_id":"cebpf4jnsgd1na2vs0mg"},{"bike_id":"13dcd06c-9af0-4e97-93dd-f7110d153cc1","system_id":"levelo_inurba_marseille","lat":43.29848,"lon":5.36285,"is_reserved":false,"is_disabled":false,"rental_uris":{"android":"levelo://app?vid=13dcd06c-9af0-4e97-93dd-f7110d153cc1","ios":"levelo://app?vid=13dcd06c-9af0-4e97-93dd-f7110d153cc1"},"vehicle_type_id":"4","last_reported":1734617337,"current_range_meters":23200,"station_id":"ce4bgpp2rcd13ifvqc3g","pricing_plan_id":"cebpf4jnsgd1na2vs0mg"},{"bike_id":"9294b7c4-f950-43f8-8e30-fdbb56a51003","system_id":"levelo_inurba_marseille","lat":43.31484,"lon":5.36887,"is_reserved":false,"is_disabled":false,"rental_uris":{"android":"levelo://app?vid=9294b7c4-f950-43f8-8e30-fdbb56a51003","ios":"levelo://app?vid=9294b7c4-f950-43f8-8e30-fdbb56a51003"},"vehicle_type_id":"4","last_reported":1734617337,"current_range_meters":6400,"station_id":"","pricing_plan_id":"cebpf4jnsgd1na2vs0mg"},{"bike_id":"a91c04b4-feab-4e9e-97d5-035ffe3283c2","system_id":"levelo_inurba_marseille","lat":43.29906,"lon":5.37469,"is_reserved":false,"is_disabled":false,"rental_uris":{"android":"levelo://app?vid=a91c04b4-feab-4e9e-97d5-035ffe3283c2","ios":"levelo://app?vid=a91c04b4-feab-4e9e-97d5-035ffe3283c2"},"vehicle_type_id":"4","last_reported":1734617337,"current_range_meters":38800,"station_id":"ce4bgjh2rcd13ifvqbg0","pricing_plan_id":"cebpf4jnsgd1na2vs0mg"},{"bike_id":"a22ff1e1-2709-4d5d-bdce-1d2284ead1d1","system_id":"levelo_inurba_marseille","lat":43.29718,"lon":5.37698,"is_reserved":false,"is_disabled":false,"rental_uris":{"android":"levelo://app?vid=a22ff1e1-2709-4d5d-bdce-1d2284ead1d1","ios":"levelo://app?vid=a22ff1e1-2709-4d5d-bdce-1d2284ead1d1"},"vehicle_type_id":"4","last_reported":1734617337,"current_range_meters":38400,"station_id":"ce4bgkh2rcd13ifvqbl0","pricing_plan_id":"cebpf4jnsgd1na2vs0mg"},{"bike_id":"e7945f11-0a30-43c2-b17f-34a6bcbb2a44","system_id":"levelo_inurba_marseille","lat":43.30437,"lon":5.3975,"is_reserved":false,"is_disabled":false,"rental_uris":{"android":"levelo://app?vid=e7945f11-0a30-43c2-b17f-34a6bcbb2a44","ios":"levelo://app?vid=e7945f11-0a30-43c2-b17f-34a6bcbb2a44"},"vehicle_type_id":"4","last_reported":1734617337,"current_range_meters":33200,"station_id":"ce4bh092rcd13ifvqd20","pricing_plan_id":"cebpf4jnsgd1na2vs0mg"},{"bike_id":"6715ace7-353a-4ccb-9660-af23633d27d8","system_id":"levelo_inurba_marseille","lat":43.27614,"lon":5.36117,"is_reserved":false,"is_disabled":false,"rental_uris":{"android":"levelo://app?vid=6715ace7-353a-4ccb-9660-af23633d27d8","ios":"levelo://app?vid=6715ace7-353a-4ccb-9660-af23633d27d8"},"vehicle_type_id":"4","last_reported":1734617337,"current_range_meters":36400,"station_id":"ce4bgj92rcd13ifvqbe0","pricing_plan_id":"cebpf4jnsgd1na2vs0mg"},{"bike_id":"6ac937f1-6de1-4008-9e5e-4856e540182e","system_id":"levelo_inurba_marseille","lat":43.266887,"lon":5.382537,"is_reserved":false,"is_disabled":false,"rental_uris":{"android":"levelo://app?vid=6ac937f1-6de1-4008-9e5e-4856e540182e","ios":"levelo://app?vid=6ac937f1-6de1-4008-9e5e-4856e540182e"},"vehicle_type_id":"4","last_reported":1734617337,"current_range_meters":38800,"station_id":"ce4bhg92rcd13ifvqf90","pricing_plan_id":"cebpf4jnsgd1na2vs0mg"},{"bike_id":"f957ffa3-7b76-4b18-bb62-81627d313cf8","system_id":"levelo_inurba_marseille","lat":43.23202,"lon":5.35557,"is_reserved":false,"is_disabled":false,"rental_uris":{"android":"levelo://app?vid=f957ffa3-7b76-4b18-bb62-81627d313cf8","ios":"levelo://app?vid=f957ffa3-7b76-4b18-bb62-81627d313cf8"},"vehicle_type_id":"4","last_reported":1734617337,"current_range_meters":34000,"station_id":"ce4bhu92rcd13ifvqi70","pricing_plan_id":"cebpf4jnsgd1na2vs0mg"},{"bike_id":"8418e734-4fcd-4b94-951b-0d0ce81a5b83","system_id":"levelo_inurba_marseille","lat":43.29689,"lon":5.37295,"is_reserved":false,"is_disabled":false,"rental_uris":{"android":"levelo://app?vid=8418e734-4fcd-4b94-951b-0d0ce81a5b83","ios":"levelo://app?vid=8418e734-4fcd-4b94-951b-0d0ce81a5b83"},"vehicle_type_id":"4","last_reported":1734617337,"current_range_meters":36800,"station_id":"ce4bgk12rcd13ifvqbj0","pricing_plan_id":"cebpf4jnsgd1na2vs0mg"},{"bike_id":"dbf1d7d3-a0aa-40e8-af78-7c148b93ac1b","system_id":"levelo_inurba_marseille","lat":43.23174,"lon":5.39989,"is_reserved":false,"is_disabled":false,"rental_uris":{"android":"levelo://app?vid=dbf1d7d3-a0aa-40e8-af78-7c148b93ac1b","ios":"levelo://app?vid=dbf1d7d3-a0aa-40e8-af78-7c148b93ac1b"},"vehicle_type_id":"4","last_reported":1734617337,"current_range_meters":25600,"station_id":"ce4bhn12rcd13ifvqgqg","pricing_plan_id":"cebpf4jnsgd1na2vs0mg"},{"bike_id":"c6929287-9d23-42c4-8ce8-9ec0218d5220","system_id":"levelo_inurba_marseille","lat":43.29928,"lon":5.36556,"is_reserved":false,"is_disabled":false,"rental_uris":{"android":"levelo://app?vid=c6929287-9d23-42c4-8ce8-9ec0218d5220","ios":"levelo://app?vid=c6929287-9d23-42c4-8ce8-9ec0218d5220"},"vehicle_type_id":"4","last_reported":1734617337,"current_range_meters":18000,"station_id":"ce4bgm92rcd13ifvqbr0","pricing_plan_id":"cebpf4jnsgd1na2vs0mg"},{"bike_id":"710e66a5-3109-43a5-9e95-f350da5a7b85","system_id":"levelo_inurba_marseille","lat":43.27985,"lon":5.38736,"is_reserved":false,"is_disabled":false,"rental_uris":{"android":"levelo://app?vid=710e66a5-3109-43a5-9e95-f350da5a7b85","ios":"levelo://app?vid=710e66a5-3109-43a5-9e95-f350da5a7b85"},"vehicle_type_id":"4","last_reported":1734617337,"current_range_meters":32800,"station_id":"ce4bhg12rcd13ifvqf80","pricing_plan_id":"cebpf4jnsgd1na2vs0mg"},{"bike_id":"b00c1022-5130-420f-99c1-61db0d476a8e","system_id":"levelo_inurba_marseille","lat":43.29791,"lon":5.38115,"is_reserved":false,"is_disabled":true,"rental_uris":{"android":"levelo://app?vid=b00c1022-5130-420f-99c1-61db0d476a8e","ios":"levelo://app?vid=b00c1022-5130-420f-99c1-61db0d476a8e"},"vehicle_type_id":"4","last_reported":1734617337,"current_range_meters":2000,"station_id":"ce4bgip2rcd13ifvqbb0","pricing_plan_id":"cebpf4jnsgd1na2vs0mg"},{"bike_id":"a0ab432f-da66-45ee-bd4e-3bd41460fc75","system_id":"levelo_inurba_marseille","lat":43.30858,"lon":5.36911,"is_reserved":false,"is_disabled":false,"rental_uris":{"android":"levelo://app?vid=a0ab432f-da66-45ee-bd4e-3bd41460fc75","ios":"levelo://app?vid=a0ab432f-da66-45ee-bd4e-3bd41460fc75"},"vehicle_type_id":"4","last_reported":1734617337,"current_range_meters":26800,"station_id":"","pricing_plan_id":"cebpf4jnsgd1na2vs0mg"},{"bike_id":"aa258fcd-4072-48d7-a973-c58369f705e7","system_id":"levelo_inurba_marseille","lat":43.26954,"lon":5.38648,"is_reserved":false,"is_disabled":false,"rental_uris":{"android":"levelo://app?vid=aa258fcd-4072-48d7-a973-c58369f705e7","ios":"levelo://app?vid=aa258fcd-4072-48d7-a973-c58369f705e7"},"vehicle_type_id":"4","last_reported":1734617337,"current_range_meters":38400,"station_id":"ce4bhh92rcd13ifvqfh0","pricing_plan_id":"cebpf4jnsgd1na2vs0mg"},{"bike_id":"46faabfc-f46f-48ca-ac06-1a98dfabb3e7","system_id":"levelo_inurba_marseille","lat":43.30908,"lon":5.36856,"is_reserved":false,"is_disabled":false,"rental_uris":{"android":"levelo://app?vid=46faabfc-f46f-48ca-ac06-1a98dfabb3e7","ios":"levelo://app?vid=46faabfc-f46f-48ca-ac06-1a98dfabb3e7"},"vehicle_type_id":"4","last_reported":1734617337,"current_range_meters":39200,"station_id":"ce4bgn92rcd13ifvqbvg","pricing_plan_id":"cebpf4jnsgd1na2vs0mg"},{"bike_id":"ffd50738-4963-47aa-ab7d-955fbc933618","system_id":"levelo_inurba_marseille","lat":43.30552,"lon":5.36542,"is_reserved":false,"is_disabled":false,"rental_uris":{"android":"levelo://app?vid=ffd50738-4963-47aa-ab7d-955fbc933618","ios":"levelo://app?vid=ffd50738-4963-47aa-ab7d-955fbc933618"},"vehicle_type_id":"4","last_reported":1734617337,"current_range_meters":38400,"station_id":"ce4bgs12rcd13ifvqcag","pricing_plan_id":"cebpf4jnsgd1na2vs0mg"},{"bike_id":"13ca7421-335d-441c-a032-f18490c8285a","system_id":"levelo_inurba_marseille","lat":43.29796,"lon":5.38115,"is_reserved":false,"is_disabled":false,"rental_uris":{"android":"levelo://app?vid=13ca7421-335d-441c-a032-f18490c8285a","ios":"levelo://app?vid=13ca7421-335d-441c-a032-f18490c8285a"},"vehicle_type_id":"4","last_reported":1734617337,"current_range_meters":39200,"station_id":"ce4bgip2rcd13ifvqbb0","pricing_plan_id":"cebpf4jnsgd1na2vs0mg"},{"bike_id":"15f1e9fd-de86-44c0-ad90-338059d3e133","system_id":"levelo_inurba_marseille","lat":43.30915,"lon":5.36852,"is_reserved":false,"is_disabled":false,"rental_uris":{"android":"levelo://app?vid=15f1e9fd-de86-44c0-ad90-338059d3e133","ios":"levelo://app?vid=15f1e9fd-de86-44c0-ad90-338059d3e133"},"vehicle_type_id":"4","last_reported":1734617337,"current_range_meters":12400,"station_id":"ce4bgn92rcd13ifvqbvg","pricing_plan_id":"cebpf4jnsgd1na2vs0mg"},{"bike_id":"9aed28d6-2cfa-4159-b544-fc7437958c77","system_id":"levelo_inurba_marseille","lat":43.27612,"lon":5.36133,"is_reserved":false,"is_disabled":false,"rental_uris":{"android":"levelo://app?vid=9aed28d6-2cfa-4159-b544-fc7437958c77","ios":"levelo://app?vid=9aed28d6-2cfa-4159-b544-fc7437958c77"},"vehicle_type_id":"4","last_reported":1734617337,"current_range_meters":38800,"station_id":"ce4bgj92rcd13ifvqbe0","pricing_plan_id":"cebpf4jnsgd1na2vs0mg"},{"bike_id":"c6fc1f35-949d-4dc4-925e-046f798f5cdb","system_id":"levelo_inurba_marseille","lat":43.30413,"lon":5.41284,"is_reserved":false,"is_disabled":true,"rental_uris":{"android":"levelo://app?vid=c6fc1f35-949d-4dc4-925e-046f798f5cdb","ios":"levelo://app?vid=c6fc1f35-949d-4dc4-925e-046f798f5cdb"},"vehicle_type_id":"4","last_reported":1734617337,"current_range_meters":39200,"station_id":"ce4bhop2rcd13ifvqh8g","pricing_plan_id":"cebpf4jnsgd1na2vs0mg"},{"bike_id":"23ebeb95-56af-4a04-85c3-1fb7e7c37926","system_id":"levelo_inurba_marseille","lat":43.2958,"lon":5.37507,"is_reserved":false,"is_disabled":false,"rental_uris":{"android":"levelo://app?vid=23ebeb95-56af-4a04-85c3-1fb7e7c37926","ios":"levelo://app?vid=23ebeb95-56af-4a04-85c3-1fb7e7c37926"},"vehicle_type_id":"4","last_reported":1734617337,"current_range_meters":10800,"station_id":"ce4bgh92rcd13ifvqb50","pricing_plan_id":"cebpf4jnsgd1na2vs0mg"},{"bike_id":"21caaf6b-fb2e-4bb9-a7c3-65c8a1c43c5c","system_id":"levelo_inurba_marseille","lat":43.31721,"lon":5.3777,"is_reserved":false,"is_disabled":false,"rental_uris":{"android":"levelo://app?vid=21caaf6b-fb2e-4bb9-a7c3-65c8a1c43c5c","ios":"levelo://app?vid=21caaf6b-fb2e-4bb9-a7c3-65c8a1c43c5c"},"vehicle_type_id":"4","last_reported":1734617337,"current_range_meters":16800,"station_id":"ce4bgth2rcd13ifvqch0","pricing_plan_id":"cebpf4jnsgd1na2vs0mg"},{"bike_id":"6979b30d-119e-461d-92e4-8ccdeeeba566","system_id":"levelo_inurba_marseille","lat":43.28472,"lon":5.3841,"is_reserved":false,"is_disabled":false,"rental_uris":{"android":"levelo://app?vid=6979b30d-119e-461d-92e4-8ccdeeeba566","ios":"levelo://app?vid=6979b30d-119e-461d-92e4-8ccdeeeba566"},"vehicle_type_id":"4","last_reported":1734617337,"current_range_meters":38800,"station_id":"ce4bh512rcd13ifvqe3g","pricing_plan_id":"cebpf4jnsgd1na2vs0mg"},{"bike_id":"4a208263-5683-4c02-b8c0-8842a35d3fff","system_id":"levelo_inurba_marseille","lat":43.30502,"lon":5.36517,"is_reserved":false,"is_disabled":false,"rental_uris":{"android":"levelo://app?vid=4a208263-5683-4c02-b8c0-8842a35d3fff","ios":"levelo://app?vid=4a208263-5683-4c02-b8c0-8842a35d3fff"},"vehicle_type_id":"4","last_reported":1734617337,"current_range_meters":38000,"station_id":"","pricing_plan_id":"cebpf4jnsgd1na2vs0mg"},{"bike_id":"13411e02-e30b-4d1e-a85a-92295b9629fe","system_id":"levelo_inurba_marseille","lat":43.27376,"lon":5.36257,"is_reserved":false,"is_disabled":false,"rental_uris":{"android":"levelo://app?vid=13411e02-e30b-4d1e-a85a-92295b9629fe","ios":"levelo://app?vid=13411e02-e30b-4d1e-a85a-92295b9629fe"},"vehicle_type_id":"4","last_reported":1734617337,"current_range_meters":33600,"station_id":"ce4bhbh2rcd13ifvqeo0","pricing_plan_id":"cebpf4jnsgd1na2vs0mg"},{"bike_id":"3784ba47-10f6-4852-a968-472f06140a83","system_id":"levelo_inurba_marseille","lat":43.30785,"lon":5.37656,"is_reserved":false,"is_disabled":false,"rental_uris":{"android":"levelo://app?vid=3784ba47-10f6-4852-a968-472f06140a83","ios":"levelo://app?vid=3784ba47-10f6-4852-a968-472f06140a83"},"vehicle_type_id":"4","last_reported":1734617337,"current_range_meters":27600,"station_id":"ce4bgv92rcd13ifvqcq0","pricing_plan_id":"cebpf4jnsgd1na2vs0mg"},{"bike_id":"6118b054-9ea6-4b9d-8593-36a69758efff","system_id":"levelo_inurba_marseille","lat":43.23195,"lon":5.35551,"is_reserved":false,"is_disabled":false,"rental_uris":{"android":"levelo://app?vid=6118b054-9ea6-4b9d-8593-36a69758efff","ios":"levelo://app?vid=6118b054-9ea6-4b9d-8593-36a69758efff"},"vehicle_type_id":"4","last_reported":1734617337,"current_range_meters":38800,"station_id":"ce4bhu92rcd13ifvqi70","pricing_plan_id":"cebpf4jnsgd1na2vs0mg"},{"bike_id":"f42b81cf-aa56-42a7-902e-236e678f249c","system_id":"levelo_inurba_marseille","lat":43.2558,"lon":5.3823,"is_reserved":false,"is_disabled":false,"rental_uris":{"android":"levelo://app?vid=f42b81cf-aa56-42a7-902e-236e678f249c","ios":"levelo://app?vid=f42b81cf-aa56-42a7-902e-236e678f249c"},"vehicle_type_id":"4","last_reported":1734617337,"current_range_meters":11200,"station_id":"ce4bhih2rcd13ifvqfs0","pricing_plan_id":"cebpf4jnsgd1na2vs0mg"},{"bike_id":"7f677ead-a442-471f-9e46-3bba23d83c37","system_id":"levelo_inurba_marseille","lat":43.33761,"lon":5.37429,"is_reserved":false,"is_disabled":false,"rental_uris":{"android":"levelo://app?vid=7f677ead-a442-471f-9e46-3bba23d83c37","ios":"levelo://app?vid=7f677ead-a442-471f-9e46-3bba23d83c37"},"vehicle_type_id":"4","last_reported":1734617337,"current_range_meters":38400,"station_id":"","pricing_plan_id":"cebpf4jnsgd1na2vs0mg"},{"bike_id":"3eb7382b-7d32-4d30-9601-f68fea3912a7","system_id":"levelo_inurba_marseille","lat":43.30485,"lon":5.37913,"is_reserved":false,"is_disabled":false,"rental_uris":{"android":"levelo://app?vid=3eb7382b-7d32-4d30-9601-f68fea3912a7","ios":"levelo://app?vid=3eb7382b-7d32-4d30-9601-f68fea3912a7"},"vehicle_type_id":"4","last_reported":1734617337,"current_range_meters":38800,"station_id":"ce4bgup2rcd13ifvqcn0","pricing_plan_id":"cebpf4jnsgd1na2vs0mg"},{"bike_id":"4e3591ae-60f2-4097-8bba-b22f0691675b","system_id":"levelo_inurba_marseille","lat":43.34151,"lon":5.40911,"is_reserved":false,"is_disabled":false,"rental_uris":{"android":"levelo://app?vid=4e3591ae-60f2-4097-8bba-b22f0691675b","ios":"levelo://app?vid=4e3591ae-60f2-4097-8bba-b22f0691675b"},"vehicle_type_id":"4","last_reported":1734617337,"current_range_meters":36400,"station_id":"ce4bhqh2rcd13ifvqhlg","pricing_plan_id":"cebpf4jnsgd1na2vs0mg"},{"bike_id":"82784db9-6360-4161-bacd-e23667eb9c3e","system_id":"levelo_inurba_marseille","lat":43.3032,"lon":5.385615,"is_reserved":false,"is_disabled":true,"rental_uris":{"android":"levelo://app?vid=82784db9-6360-4161-bacd-e23667eb9c3e","ios":"levelo://app?vid=82784db9-6360-4161-bacd-e23667eb9c3e"},"vehicle_type_id":"4","last_reported":1734617337,"current_range_meters":6000,"station_id":"","pricing_plan_id":"cebpf4jnsgd1na2vs0mg"},{"bike_id":"9d2aefec-f4a3-4a23-a13a-c09b46ffe2e4","system_id":"levelo_inurba_marseille","lat":43.31167,"lon":5.3671,"is_reserved":false,"is_disabled":false,"rental_uris":{"android":"levelo://app?vid=9d2aefec-f4a3-4a23-a13a-c09b46ffe2e4","ios":"levelo://app?vid=9d2aefec-f4a3-4a23-a13a-c09b46ffe2e4"},"vehicle_type_id":"4","last_reported":1734617337,"current_range_meters":30400,"station_id":"","pricing_plan_id":"cebpf4jnsgd1na2vs0mg"},{"bike_id":"cd18d2e6-81cf-4e60-aa15-2ac8966c82fc","system_id":"levelo_inurba_marseille","lat":43.23152,"lon":5.43719,"is_reserved":false,"is_disabled":false,"rental_uris":{"android":"levelo://app?vid=cd18d2e6-81cf-4e60-aa15-2ac8966c82fc","ios":"levelo://app?vid=cd18d2e6-81cf-4e60-aa15-2ac8966c82fc"},"vehicle_type_id":"4","last_reported":1734617337,"current_range_meters":18000,"station_id":"ce4bhmp2rcd13ifvqgog","pricing_plan_id":"cebpf4jnsgd1na2vs0mg"},{"bike_id":"fdb00e72-6d85-4d61-9e62-d139d7971bf0","system_id":"levelo_inurba_marseille","lat":43.26952,"lon":5.3864,"is_reserved":false,"is_disabled":false,"rental_uris":{"android":"levelo://app?vid=fdb00e72-6d85-4d61-9e62-d139d7971bf0","ios":"levelo://app?vid=fdb00e72-6d85-4d61-9e62-d139d7971bf0"},"vehicle_type_id":"4","last_reported":1734617337,"current_range_meters":38800,"station_id":"ce4bhh92rcd13ifvqfh0","pricing_plan_id":"cebpf4jnsgd1na2vs0mg"},{"bike_id":"41360683-0f69-4c62-8b87-4868ce57f8d5","system_id":"levelo_inurba_marseille","lat":43.31497,"lon":5.37315,"is_reserved":false,"is_disabled":false,"rental_uris":{"android":"levelo://app?vid=41360683-0f69-4c62-8b87-4868ce57f8d5","ios":"levelo://app?vid=41360683-0f69-4c62-8b87-4868ce57f8d5"},"vehicle_type_id":"4","last_reported":1734617337,"current_range_meters":38400,"station_id":"ce4bgt12rcd13ifvqcd0","pricing_plan_id":"cebpf4jnsgd1na2vs0mg"},{"bike_id":"a2eba22b-b0ee-4005-9bf3-576bb458d391","system_id":"levelo_inurba_marseille","lat":43.279651,"lon":5.387544,"is_reserved":false,"is_disabled":true,"rental_uris":{"android":"levelo://app?vid=a2eba22b-b0ee-4005-9bf3-576bb458d391","ios":"levelo://app?vid=a2eba22b-b0ee-4005-9bf3-576bb458d391"},"vehicle_type_id":"4","last_reported":1734617337,"current_range_meters":0,"station_id":"","pricing_plan_id":"cebpf4jnsgd1na2vs0mg"},{"bike_id":"e7e90ade-9fda-4e94-9481-ce28fb04e6bb","system_id":"levelo_inurba_marseille","lat":43.295804,"lon":5.375137,"is_reserved":false,"is_disabled":false,"rental_uris":{"android":"levelo://app?vid=e7e90ade-9fda-4e94-9481-ce28fb04e6bb","ios":"levelo://app?vid=e7e90ade-9fda-4e94-9481-ce28fb04e6bb"},"vehicle_type_id":"4","last_reported":1734617337,"current_range_meters":9200,"station_id":"ce4bgh92rcd13ifvqb50","pricing_plan_id":"cebpf4jnsgd1na2vs0mg"},{"bike_id":"6e868a60-9f88-474e-adb5-72cc44996f9b","system_id":"levelo_inurba_marseille","lat":43.29538,"lon":5.375,"is_reserved":false,"is_disabled":true,"rental_uris":{"android":"levelo://app?vid=6e868a60-9f88-474e-adb5-72cc44996f9b","ios":"levelo://app?vid=6e868a60-9f88-474e-adb5-72cc44996f9b"},"vehicle_type_id":"4","last_reported":1734617337,"current_range_meters":0,"station_id":"ce4bgkp2rcd13ifvqbmg","pricing_plan_id":"cebpf4jnsgd1na2vs0mg"},{"bike_id":"f0377741-7cf6-450d-a6fd-153237b93a8a","system_id":"levelo_inurba_marseille","lat":43.25981,"lon":5.41013,"is_reserved":false,"is_disabled":false,"rental_uris":{"android":"levelo://app?vid=f0377741-7cf6-450d-a6fd-153237b93a8a","ios":"levelo://app?vid=f0377741-7cf6-450d-a6fd-153237b93a8a"},"vehicle_type_id":"4","last_reported":1734617337,"current_range_meters":17600,"station_id":"","pricing_plan_id":"cebpf4jnsgd1na2vs0mg"},{"bike_id":"4cbfcf11-0d75-410e-b23e-986976d476d4","system_id":"levelo_inurba_marseille","lat":43.30472,"lon":5.37922,"is_reserved":false,"is_disabled":false,"rental_uris":{"android":"levelo://app?vid=4cbfcf11-0d75-410e-b23e-986976d476d4","ios":"levelo://app?vid=4cbfcf11-0d75-410e-b23e-986976d476d4"},"vehicle_type_id":"4","last_reported":1734617337,"current_range_meters":18800,"station_id":"ce4bgup2rcd13ifvqcn0","pricing_plan_id":"cebpf4jnsgd1na2vs0mg"},{"bike_id":"cc489add-156a-4b56-b2d4-9ae44b1ced14","system_id":"levelo_inurba_marseille","lat":43.27618,"lon":5.36106,"is_reserved":false,"is_disabled":false,"rental_uris":{"android":"levelo://app?vid=cc489add-156a-4b56-b2d4-9ae44b1ced14","ios":"levelo://app?vid=cc489add-156a-4b56-b2d4-9ae44b1ced14"},"vehicle_type_id":"4","last_reported":1734617337,"current_range_meters":30000,"station_id":"ce4bgj92rcd13ifvqbe0","pricing_plan_id":"cebpf4jnsgd1na2vs0mg"},{"bike_id":"8b61a505-6689-4d59-bdbd-c2bc04b25a7f","system_id":"levelo_inurba_marseille","lat":43.305499,"lon":5.365355,"is_reserved":false,"is_disabled":false,"rental_uris":{"android":"levelo://app?vid=8b61a505-6689-4d59-bdbd-c2bc04b25a7f","ios":"levelo://app?vid=8b61a505-6689-4d59-bdbd-c2bc04b25a7f"},"vehicle_type_id":"4","last_reported":1734617337,"current_range_meters":25200,"station_id":"ce4bgs12rcd13ifvqcag","pricing_plan_id":"cebpf4jnsgd1na2vs0mg"},{"bike_id":"22615b5c-1b07-416f-9822-71aa32898e2d","system_id":"levelo_inurba_marseille","lat":43.326461,"lon":5.410077,"is_reserved":false,"is_disabled":false,"rental_uris":{"android":"levelo://app?vid=22615b5c-1b07-416f-9822-71aa32898e2d","ios":"levelo://app?vid=22615b5c-1b07-416f-9822-71aa32898e2d"},"vehicle_type_id":"4","last_reported":1734617337,"current_range_meters":36800,"station_id":"ce4bhpp2rcd13ifvqhgg","pricing_plan_id":"cebpf4jnsgd1na2vs0mg"},{"bike_id":"ac7c5f56-daad-496c-965f-9103737000e8","system_id":"levelo_inurba_marseille","lat":43.23972,"lon":5.36597,"is_reserved":false,"is_disabled":false,"rental_uris":{"android":"levelo://app?vid=ac7c5f56-daad-496c-965f-9103737000e8","ios":"levelo://app?vid=ac7c5f56-daad-496c-965f-9103737000e8"},"vehicle_type_id":"4","last_reported":1734617337,"current_range_meters":38800,"station_id":"ce4bhi12rcd13ifvqfp0","pricing_plan_id":"cebpf4jnsgd1na2vs0mg"},{"bike_id":"50f3ea1e-8d3a-452b-9061-37af2efe02cc","system_id":"levelo_inurba_marseille","lat":43.31285,"lon":5.40163,"is_reserved":false,"is_disabled":false,"rental_uris":{"android":"levelo://app?vid=50f3ea1e-8d3a-452b-9061-37af2efe02cc","ios":"levelo://app?vid=50f3ea1e-8d3a-452b-9061-37af2efe02cc"},"vehicle_type_id":"4","last_reported":1734617337,"current_range_meters":29600,"station_id":"ce4bh092rcd13ifvqd30","pricing_plan_id":"cebpf4jnsgd1na2vs0mg"},{"bike_id":"21001dda-fdf1-4767-8792-f8d5c2dc3afa","system_id":"levelo_inurba_marseille","lat":43.23962,"lon":5.36636,"is_reserved":false,"is_disabled":false,"rental_uris":{"android":"levelo://app?vid=21001dda-fdf1-4767-8792-f8d5c2dc3afa","ios":"levelo://app?vid=21001dda-fdf1-4767-8792-f8d5c2dc3afa"},"vehicle_type_id":"4","last_reported":1734617337,"current_range_meters":29600,"station_id":"ce4bhi12rcd13ifvqfp0","pricing_plan_id":"cebpf4jnsgd1na2vs0mg"},{"bike_id":"0cef6d55-09da-4dff-80ee-facea058c7a5","system_id":"levelo_inurba_marseille","lat":43.30055,"lon":5.36969,"is_reserved":false,"is_disabled":false,"rental_uris":{"android":"levelo://app?vid=0cef6d55-09da-4dff-80ee-facea058c7a5","ios":"levelo://app?vid=0cef6d55-09da-4dff-80ee-facea058c7a5"},"vehicle_type_id":"4","last_reported":1734617337,"current_range_meters":32800,"station_id":"","pricing_plan_id":"cebpf4jnsgd1na2vs0mg"},{"bike_id":"dc9726d3-3768-484d-a2e6-04d42c546123","system_id":"levelo_inurba_marseille","lat":43.30436,"lon":5.39749,"is_reserved":false,"is_disabled":false,"rental_uris":{"android":"levelo://app?vid=dc9726d3-3768-484d-a2e6-04d42c546123","ios":"levelo://app?vid=dc9726d3-3768-484d-a2e6-04d42c546123"},"vehicle_type_id":"4","last_reported":1734617337,"current_range_meters":39200,"station_id":"ce4bh092rcd13ifvqd20","pricing_plan_id":"cebpf4jnsgd1na2vs0mg"},{"bike_id":"23a049cd-2a20-411e-a25c-f3e09482729c","system_id":"levelo_inurba_marseille","lat":43.30432,"lon":5.37346,"is_reserved":false,"is_disabled":false,"rental_uris":{"android":"levelo://app?vid=23a049cd-2a20-411e-a25c-f3e09482729c","ios":"levelo://app?vid=23a049cd-2a20-411e-a25c-f3e09482729c"},"vehicle_type_id":"4","last_reported":1734617337,"current_range_meters":37600,"station_id":"","pricing_plan_id":"cebpf4jnsgd1na2vs0mg"},{"bike_id":"11de9416-df88-417e-aee7-4f564b6022ac","system_id":"levelo_inurba_marseille","lat":43.28473,"lon":5.38413,"is_reserved":false,"is_disabled":false,"rental_uris":{"android":"levelo://app?vid=11de9416-df88-417e-aee7-4f564b6022ac","ios":"levelo://app?vid=11de9416-df88-417e-aee7-4f564b6022ac"},"vehicle_type_id":"4","last_reported":1734617337,"current_range_meters":19200,"station_id":"ce4bh512rcd13ifvqe3g","pricing_plan_id":"cebpf4jnsgd1na2vs0mg"},{"bike_id":"e02df57b-7ec8-45e3-9fcf-f98e89aab15b","system_id":"levelo_inurba_marseille","lat":43.3049,"lon":5.3791,"is_reserved":false,"is_disabled":false,"rental_uris":{"android":"levelo://app?vid=e02df57b-7ec8-45e3-9fcf-f98e89aab15b","ios":"levelo://app?vid=e02df57b-7ec8-45e3-9fcf-f98e89aab15b"},"vehicle_type_id":"4","last_reported":1734617337,"current_range_meters":37600,"station_id":"ce4bgup2rcd13ifvqcn0","pricing_plan_id":"cebpf4jnsgd1na2vs0mg"},{"bike_id":"5641fc6b-ced4-49ed-91db-7c5ccd0794ba","system_id":"levelo_inurba_marseille","lat":43.30538,"lon":5.36547,"is_reserved":false,"is_disabled":false,"rental_uris":{"android":"levelo://app?vid=5641fc6b-ced4-49ed-91db-7c5ccd0794ba","ios":"levelo://app?vid=5641fc6b-ced4-49ed-91db-7c5ccd0794ba"},"vehicle_type_id":"4","last_reported":1734617337,"current_range_meters":31200,"station_id":"ce4bgs12rcd13ifvqcag","pricing_plan_id":"cebpf4jnsgd1na2vs0mg"},{"bike_id":"864f397f-7e17-44a8-862d-a9c8016c50f5","system_id":"levelo_inurba_marseille","lat":43.28367,"lon":5.38637,"is_reserved":false,"is_disabled":false,"rental_uris":{"android":"levelo://app?vid=864f397f-7e17-44a8-862d-a9c8016c50f5","ios":"levelo://app?vid=864f397f-7e17-44a8-862d-a9c8016c50f5"},"vehicle_type_id":"4","last_reported":1734617337,"current_range_meters":38800,"station_id":"ce4bh492rcd13ifvqdvg","pricing_plan_id":"cebpf4jnsgd1na2vs0mg"},{"bike_id":"7b305c6f-361b-46c6-bcc8-6b2d9fd084fa","system_id":"levelo_inurba_marseille","lat":43.28119,"lon":5.4422,"is_reserved":false,"is_disabled":true,"rental_uris":{"android":"levelo://app?vid=7b305c6f-361b-46c6-bcc8-6b2d9fd084fa","ios":"levelo://app?vid=7b305c6f-361b-46c6-bcc8-6b2d9fd084fa"},"vehicle_type_id":"4","last_reported":1734617337,"current_range_meters":0,"station_id":"","pricing_plan_id":"cebpf4jnsgd1na2vs0mg"},{"bike_id":"741ea4b3-763d-4684-9cc9-4d777e722653","system_id":"levelo_inurba_marseille","lat":43.31372,"lon":5.36718,"is_reserved":false,"is_disabled":false,"rental_uris":{"android":"levelo://app?vid=741ea4b3-763d-4684-9cc9-4d777e722653","ios":"levelo://app?vid=741ea4b3-763d-4684-9cc9-4d777e722653"},