{"last_updated":1739488131,"ttl":60,"version":"2.2","data":{"bikes":[{"bike_id":"25cbed1d-98ac-4052-a7fd-879f18a4128d","system_id":"levelo_inurba_marseille","lat":43.30137,"lon":5.39884,"is_reserved":false,"is_disabled":false,"rental_uris":{"android":"levelo://app?vid=25cbed1d-98ac-4052-a7fd-879f18a4128d","ios":"levelo://app?vid=25cbed1d-98ac-4052-a7fd-879f18a4128d"},"vehicle_type_id":"4","last_reported":1739488131,"current_range_meters":35600,"station_id":"ce4bh0h2rcd13ifvqd40","pricing_plan_id":"cebpf4jnsgd1na2vs0mg"},{"bike_id":"16a054cf-d220-4a13-8e1c-680ff7bd2a57","system_id":"levelo_inurba_marseille","lat":43.28428,"lon":5.39223,"is_reserved":false,"is_disabled":false,"rental_uris":{"android":"levelo://app?vid=16a054cf-d220-4a13-8e1c-680ff7bd2a57","ios":"levelo://app?vid=16a054cf-d220-4a13-8e1c-680ff7bd2a57"},"vehicle_type_id":"4","last_reported":1739488131,"current_range_meters":38000,"station_id":"ce4bhoh2rcd13ifvqh5g","pricing_plan_id":"cebpf4jnsgd1na2vs0mg"},{"bike_id":"fabe0dc0-e9b8-4510-811e-856b5cccb082","system_id":"levelo_inurba_marseille","lat":43.25497,"lon":5.37656,"is_reserved":false,"is_disabled":true,"rental_uris":{"android":"levelo://app?vid=fabe0dc0-e9b8-4510-811e-856b5cccb082","ios":"levelo://app?vid=fabe0dc0-e9b8-4510-811e-856b5cccb082"},"vehicle_type_id":"4","last_reported":1739488131,"current_range_meters":38000,"station_id":"ce4bhh12rcd13ifvqff0","pricing_plan_id":"cebpf4jnsgd1na2vs0mg"},{"bike_id":"8de44643-9c65-479b-92b5-27d16e23072f","system_id":"levelo_inurba_marseille","lat":43.229299,"lon":5.353793,"is_reserved":false,"is_disabled":false,"rental_uris":{"android":"levelo://app?vid=8de44643-9c65-479b-92b5-27d16e23072f","ios":"levelo://app?vid=8de44643-9c65-479b-92b5-27d16e23072f"},"vehicle_type_id":"4","last_reported":1739488131,"current_range_meters":37600,"station_id":"cpo3532slgdg3j2ikp40","pricing_plan_id":"cebpf4jnsgd1na2vs0mg"},{"bike_id":"cbe1212c-5034-48c9-a46a-1647b28b6c2d","system_id":"levelo_inurba_marseille","lat":43.28333,"lon":5.38085,"is_reserved":false,"is_disabled":true,"rental_uris":{"android":"levelo://app?vid=cbe1212c-5034-48c9-a46a-1647b28b6c2d","ios":"levelo://app?vid=cbe1212c-5034-48c9-a46a-1647b28b6c2d"},"vehicle_type_id":"4","last_reported":1739488131,"current_range_meters":36000,"station_id":"ce4bh412rcd13ifvqdr0","pricing_plan_id":"cebpf4jnsgd1na2vs0mg"},{"bike_id":"74b88b07-23bd-4dcd-aea6-19664a84e9b6","system_id":"levelo_inurba_marseille","lat":43.28701,"lon":5.39994,"is_reserved":false,"is_disabled":false,"rental_uris":{"android":"levelo://app?vid=74b88b07-23bd-4dcd-aea6-19664a84e9b6","ios":"levelo://app?vid=74b88b07-23bd-4dcd-aea6-19664a84e9b6"},"vehicle_type_id":"4","last_reported":1739488131,"current_range_meters":22800,"station_id":"ce4bho92rcd13ifvqh3g","pricing_plan_id":"cebpf4jnsgd1na2vs0mg"},{"bike_id":"2e489d72-7e04-4030-9a1f-b6594b2c2b30","system_id":"levelo_inurba_marseille","lat":43.32362,"lon":5.36755,"is_reserved":false,"is_disabled":false,"rental_uris":{"android":"levelo://app?vid=2e489d72-7e04-4030-9a1f-b6594b2c2b30","ios":"levelo://app?vid=2e489d72-7e04-4030-9a1f-b6594b2c2b30"},"vehicle_type_id":"4","last_reported":1739488131,"current_range_meters":16000,"station_id":"ce4bhsh2rcd13ifvqi2g","pricing_plan_id":"cebpf4jnsgd1na2vs0mg"},{"bike_id":"68226932-c6f0-4ec0-a130-8a216e63b2ce","system_id":"levelo_inurba_marseille","lat":43.28413,"lon":5.37521,"is_reserved":false,"is_disabled":false,"rental_uris":{"android":"levelo://app?vid=68226932-c6f0-4ec0-a130-8a216e63b2ce","ios":"levelo://app?vid=68226932-c6f0-4ec0-a130-8a216e63b2ce"},"vehicle_type_id":"4","last_reported":1739488131,"current_range_meters":31200,"station_id":"ce4bh412rcd13ifvqds0","pricing_plan_id":"cebpf4jnsgd1na2vs0mg"},{"bike_id":"1d4165b9-e8af-42e7-8e88-54a0f84b4f26","system_id":"levelo_inurba_marseille","lat":43.23183,"lon":5.39986,"is_reserved":false,"is_disabled":false,"rental_uris":{"android":"levelo://app?vid=1d4165b9-e8af-42e7-8e88-54a0f84b4f26","ios":"levelo://app?vid=1d4165b9-e8af-42e7-8e88-54a0f84b4f26"},"vehicle_type_id":"4","last_reported":1739488131,"current_range_meters":32800,"station_id":"ce4bhn12rcd13ifvqgqg","pricing_plan_id":"cebpf4jnsgd1na2vs0mg"},{"bike_id":"bf46de10-7c63-4fab-a484-f7df83630723","system_id":"levelo_inurba_marseille","lat":43.25117,"lon":5.40319,"is_reserved":false,"is_disabled":false,"rental_uris":{"android":"levelo://app?vid=bf46de10-7c63-4fab-a484-f7df83630723","ios":"levelo://app?vid=bf46de10-7c63-4fab-a484-f7df83630723"},"vehicle_type_id":"4","last_reported":1739488131,"current_range_meters":18800,"station_id":"ce4bhlh2rcd13ifvqgig","pricing_plan_id":"cebpf4jnsgd1na2vs0mg"},{"bike_id":"e8887aed-fddd-4b96-bc9f-849d198fae08","system_id":"levelo_inurba_marseille","lat":43.25583,"lon":5.3822,"is_reserved":false,"is_disabled":false,"rental_uris":{"android":"levelo://app?vid=e8887aed-fddd-4b96-bc9f-849d198fae08","ios":"levelo://app?vid=e8887aed-fddd-4b96-bc9f-849d198fae08"},"vehicle_type_id":"4","last_reported":1739488131,"current_range_meters":12400,"station_id":"ce4bhih2rcd13ifvqfs0","pricing_plan_id":"cebpf4jnsgd1na2vs0mg"},{"bike_id":"518631d8-764a-4efc-bcda-570976b01648","system_id":"levelo_inurba_marseille","lat":43.30365,"lon":5.41865,"is_reserved":false,"is_disabled":false,"rental_uris":{"android":"levelo://app?vid=518631d8-764a-4efc-bcda-570976b01648","ios":"levelo://app?vid=518631d8-764a-4efc-bcda-570976b01648"},"vehicle_type_id":"4","last_reported":1739488131,"current_range_meters":38000,"station_id":"ce4bhop2rcd13ifvqh7g","pricing_plan_id":"cebpf4jnsgd1na2vs0mg"},{"bike_id":"8390feee-0735-4b8f-90c8-f81c741ca7d5","system_id":"levelo_inurba_marseille","lat":43.24831,"lon":5.37468,"is_reserved":false,"is_disabled":false,"rental_uris":{"android":"levelo://app?vid=8390feee-0735-4b8f-90c8-f81c741ca7d5","ios":"levelo://app?vid=8390feee-0735-4b8f-90c8-f81c741ca7d5"},"vehicle_type_id":"4","last_reported":1739488131,"current_range_meters":36800,"station_id":"ce4bhgh2rcd13ifvqfb0","pricing_plan_id":"cebpf4jnsgd1na2vs0mg"},{"bike_id":"f782b3e3-757b-47f2-a420-6dab209543e5","system_id":"levelo_inurba_marseille","lat":43.26232,"lon":5.40451,"is_reserved":false,"is_disabled":false,"rental_uris":{"android":"levelo://app?vid=f782b3e3-757b-47f2-a420-6dab209543e5","ios":"levelo://app?vid=f782b3e3-757b-47f2-a420-6dab209543e5"},"vehicle_type_id":"4","last_reported":1739488131,"current_range_meters":17600,"station_id":"ce4bhmh2rcd13ifvqgmg","pricing_plan_id":"cebpf4jnsgd1na2vs0mg"},{"bike_id":"419461ff-c02a-44f5-8ced-15bda10c4fdc","system_id":"levelo_inurba_marseille","lat":43.29797,"lon":5.3934,"is_reserved":false,"is_disabled":false,"rental_uris":{"android":"levelo://app?vid=419461ff-c02a-44f5-8ced-15bda10c4fdc","ios":"levelo://app?vid=419461ff-c02a-44f5-8ced-15bda10c4fdc"},"vehicle_type_id":"4","last_reported":1739488131,"current_range_meters":19200,"station_id":"chh1huq6cuj3fo74tm60","pricing_plan_id":"cebpf4jnsgd1na2vs0mg"},{"bike_id":"3978400e-dc40-48da-93af-d286b1eaeaf6","system_id":"levelo_inurba_marseille","lat":43.25503,"lon":5.37663,"is_reserved":false,"is_disabled":false,"rental_uris":{"android":"levelo://app?vid=3978400e-dc40-48da-93af-d286b1eaeaf6","ios":"levelo://app?vid=3978400e-dc40-48da-93af-d286b1eaeaf6"},"vehicle_type_id":"4","last_reported":1739488131,"current_range_meters":38800,"station_id":"ce4bhh12rcd13ifvqff0","pricing_plan_id":"cebpf4jnsgd1na2vs0mg"},{"bike_id":"c5d83290-7e41-4747-be49-5a88384d605e","system_id":"levelo_inurba_marseille","lat":43.28483,"lon":5.38536,"is_reserved":false,"is_disabled":true,"rental_uris":{"android":"levelo://app?vid=c5d83290-7e41-4747-be49-5a88384d605e","ios":"levelo://app?vid=c5d83290-7e41-4747-be49-5a88384d605e"},"vehicle_type_id":"4","last_reported":1739488131,"current_range_meters":22400,"station_id":"ce4bh8p2rcd13ifvqeb0","pricing_plan_id":"cebpf4jnsgd1na2vs0mg"},{"bike_id":"56192679-cc8f-4f99-a19c-ed0875b3f321","system_id":"levelo_inurba_marseille","lat":43.31721,"lon":5.42402,"is_reserved":false,"is_disabled":false,"rental_uris":{"android":"levelo://app?vid=56192679-cc8f-4f99-a19c-ed0875b3f321","ios":"levelo://app?vid=56192679-cc8f-4f99-a19c-ed0875b3f321"},"vehicle_type_id":"4","last_reported":1739488131,"current_range_meters":38800,"station_id":"ce4bhp92rcd13ifvqhbg","pricing_plan_id":"cebpf4jnsgd1na2vs0mg"},{"bike_id":"1e93ede2-dad8-4287-ad3b-954fc9b3cf80","system_id":"levelo_inurba_marseille","lat":43.31361,"lon":5.38498,"is_reserved":false,"is_disabled":false,"rental_uris":{"android":"levelo://app?vid=1e93ede2-dad8-4287-ad3b-954fc9b3cf80","ios":"levelo://app?vid=1e93ede2-dad8-4287-ad3b-954fc9b3cf80"},"vehicle_type_id":"4","last_reported":1739488131,"current_range_meters":10000,"station_id":"ce4bgt92rcd13ifvqcf0","pricing_plan_id":"cebpf4jnsgd1na2vs0mg"},{"bike_id":"b09f54a7-16e7-4ffa-b2d1-3540c9a254de","system_id":"levelo_inurba_marseille","lat":43.28836,"lon":5.35857,"is_reserved":false,"is_disabled":false,"rental_uris":{"android":"levelo://app?vid=b09f54a7-16e7-4ffa-b2d1-3540c9a254de","ios":"levelo://app?vid=b09f54a7-16e7-4ffa-b2d1-3540c9a254de"},"vehicle_type_id":"4","last_reported":1739488131,"current_range_meters":36800,"station_id":"ce4bhb12rcd13ifvqem0","pricing_plan_id":"cebpf4jnsgd1na2vs0mg"},{"bike_id":"b34c6303-752a-46a1-93ad-ddbc991e20b6","system_id":"levelo_inurba_marseille","lat":43.23061,"lon":5.35506,"is_reserved":false,"is_disabled":false,"rental_uris":{"android":"levelo://app?vid=b34c6303-752a-46a1-93ad-ddbc991e20b6","ios":"levelo://app?vid=b34c6303-752a-46a1-93ad-ddbc991e20b6"},"vehicle_type_id":"4","last_reported":1739488131,"current_range_meters":7200,"station_id":"cpo3342slgdg3j2ifvpg","pricing_plan_id":"cebpf4jnsgd1na2vs0mg"},{"bike_id":"f4297ec3-a745-470f-8379-4a2b1e421801","system_id":"levelo_inurba_marseille","lat":43.29039,"lon":5.35916,"is_reserved":false,"is_disabled":true,"rental_uris":{"android":"levelo://app?vid=f4297ec3-a745-470f-8379-4a2b1e421801","ios":"levelo://app?vid=f4297ec3-a745-470f-8379-4a2b1e421801"},"vehicle_type_id":"4","last_reported":1739488131,"current_range_meters":38400,"station_id":"ce4bha92rcd13ifvqeg0","pricing_plan_id":"cebpf4jnsgd1na2vs0mg"},{"bike_id":"94f215f4-8d84-4a90-8447-d7fd34779bff","system_id":"levelo_inurba_marseille","lat":43.25505,"lon":5.37674,"is_reserved":false,"is_disabled":false,"rental_uris":{"android":"levelo://app?vid=94f215f4-8d84-4a90-8447-d7fd34779bff","ios":"levelo://app?vid=94f215f4-8d84-4a90-8447-d7fd34779bff"},"vehicle_type_id":"4","last_reported":1739488131,"current_range_meters":16000,"station_id":"ce4bhh12rcd13ifvqff0","pricing_plan_id":"cebpf4jnsgd1na2vs0mg"},{"bike_id":"7e3aa56e-620c-49ba-a222-8b981e930b79","system_id":"levelo_inurba_marseille","lat":43.31494,"lon":5.37303,"is_reserved":false,"is_disabled":false,"rental_uris":{"android":"levelo://app?vid=7e3aa56e-620c-49ba-a222-8b981e930b79","ios":"levelo://app?vid=7e3aa56e-620c-49ba-a222-8b981e930b79"},"vehicle_type_id":"4","last_reported":1739488131,"current_range_meters":37600,"station_id":"ce4bgt12rcd13ifvqcd0","pricing_plan_id":"cebpf4jnsgd1na2vs0mg"},{"bike_id":"3da25e73-fec0-480a-8081-623a169e9820","system_id":"levelo_inurba_marseille","lat":43.28937,"lon":5.39639,"is_reserved":false,"is_disabled":false,"rental_uris":{"android":"levelo://app?vid=3da25e73-fec0-480a-8081-623a169e9820","ios":"levelo://app?vid=3da25e73-fec0-480a-8081-623a169e9820"},"vehicle_type_id":"4","last_reported":1739488131,"current_range_meters":38400,"station_id":"ce4bh3h2rcd13ifvqdn0","pricing_plan_id":"cebpf4jnsgd1na2vs0mg"},{"bike_id":"ac563615-1c9b-4d54-94c9-bd17fd4a149f","system_id":"levelo_inurba_marseille","lat":43.284338,"lon":5.391873,"is_reserved":false,"is_disabled":false,"rental_uris":{"android":"levelo://app?vid=ac563615-1c9b-4d54-94c9-bd17fd4a149f","ios":"levelo://app?vid=ac563615-1c9b-4d54-94c9-bd17fd4a149f"},"vehicle_type_id":"4","last_reported":1739488131,"current_range_meters":38800,"station_id":"ce4bhoh2rcd13ifvqh5g","pricing_plan_id":"cebpf4jnsgd1na2vs0mg"},{"bike_id":"fe0dec67-db0e-49f0-a93e-10f71e03e351","system_id":"levelo_inurba_marseille","lat":43.2835,"lon":5.38106,"is_reserved":false,"is_disabled":false,"rental_uris":{"android":"levelo://app?vid=fe0dec67-db0e-49f0-a93e-10f71e03e351","ios":"levelo://app?vid=fe0dec67-db0e-49f0-a93e-10f71e03e351"},"vehicle_type_id":"4","last_reported":1739488131,"current_range_meters":29600,"station_id":"ce4bh412rcd13ifvqdr0","pricing_plan_id":"cebpf4jnsgd1na2vs0mg"},{"bike_id":"4771bdc5-5a9a-4126-baef-ad23555935fc","system_id":"levelo_inurba_marseille","lat":43.29519,"lon":5.39402,"is_reserved":false,"is_disabled":false,"rental_uris":{"android":"levelo://app?vid=4771bdc5-5a9a-4126-baef-ad23555935fc","ios":"levelo://app?vid=4771bdc5-5a9a-4126-baef-ad23555935fc"},"vehicle_type_id":"4","last_reported":1739488131,"current_range_meters":28400,"station_id":"ce4bh292rcd13ifvqdf0","pricing_plan_id":"cebpf4jnsgd1na2vs0mg"},{"bike_id":"ae9ac42c-c442-4a42-a6d9-83f1be830871","system_id":"levelo_inurba_marseille","lat":43.29921,"lon":5.36552,"is_reserved":false,"is_disabled":false,"rental_uris":{"android":"levelo://app?vid=ae9ac42c-c442-4a42-a6d9-83f1be830871","ios":"levelo://app?vid=ae9ac42c-c442-4a42-a6d9-83f1be830871"},"vehicle_type_id":"4","last_reported":1739488131,"current_range_meters":9200,"station_id":"ce4bgm92rcd13ifvqbr0","pricing_plan_id":"cebpf4jnsgd1na2vs0mg"},{"bike_id":"50e5a0ed-9431-4dbe-b952-8e5f0c3fa8c6","system_id":"levelo_inurba_marseille","lat":43.29046,"lon":5.35899,"is_reserved":false,"is_disabled":false,"rental_uris":{"android":"levelo://app?vid=50e5a0ed-9431-4dbe-b952-8e5f0c3fa8c6","ios":"levelo://app?vid=50e5a0ed-9431-4dbe-b952-8e5f0c3fa8c6"},"vehicle_type_id":"4","last_reported":1739488131,"current_range_meters":28400,"station_id":"ce4bha92rcd13ifvqeg0","pricing_plan_id":"cebpf4jnsgd1na2vs0mg"},{"bike_id":"2a7fbfda-36d8-455b-955d-63e67c8c1e23","system_id":"levelo_inurba_marseille","lat":43.3092,"lon":5.44011,"is_reserved":false,"is_disabled":false,"rental_uris":{"android":"levelo://app?vid=2a7fbfda-36d8-455b-955d-63e67c8c1e23","ios":"levelo://app?vid=2a7fbfda-36d8-455b-955d-63e67c8c1e23"},"vehicle_type_id":"4","last_reported":1739488131,"current_range_meters":27600,"station_id":"","pricing_plan_id":"cebpf4jnsgd1na2vs0mg"},{"bike_id":"3c94bbd2-975f-4b09-ac6e-8466a000999d","system_id":"levelo_inurba_marseille","lat":43.33612,"lon":5.41026,"is_reserved":false,"is_disabled":false,"rental_uris":{"android":"levelo://app?vid=3c94bbd2-975f-4b09-ac6e-8466a000999d","ios":"levelo://app?vid=3c94bbd2-975f-4b09-ac6e-8466a000999d"},"vehicle_type_id":"4","last_reported":1739488131,"current_range_meters":38000,"station_id":"ce4bhqh2rcd13ifvqhmg","pricing_plan_id":"cebpf4jnsgd1na2vs0mg"},{"bike_id":"cd2ade96-d83c-484d-ad63-31dd855266a0","system_id":"levelo_inurba_marseille","lat":43.29875,"lon":5.39746,"is_reserved":false,"is_disabled":false,"rental_uris":{"android":"levelo://app?vid=cd2ade96-d83c-484d-ad63-31dd855266a0","ios":"levelo://app?vid=cd2ade96-d83c-484d-ad63-31dd855266a0"},"vehicle_type_id":"4","last_reported":1739488131,"current_range_meters":38800,"station_id":"ce4bh0h2rcd13ifvqd50","pricing_plan_id":"cebpf4jnsgd1na2vs0mg"},{"bike_id":"670d8b79-cf37-4bf6-9297-ca0919e71705","system_id":"levelo_inurba_marseille","lat":43.30543,"lon":5.38441,"is_reserved":false,"is_disabled":true,"rental_uris":{"android":"levelo://app?vid=670d8b79-cf37-4bf6-9297-ca0919e71705","ios":"levelo://app?vid=670d8b79-cf37-4bf6-9297-ca0919e71705"},"vehicle_type_id":"4","last_reported":1739488131,"current_range_meters":34000,"station_id":"ce4bgg92rcd13ifvqb30","pricing_plan_id":"cebpf4jnsgd1na2vs0mg"},{"bike_id":"4004e863-e0ca-4122-9424-ab9f70e142e6","system_id":"levelo_inurba_marseille","lat":43.31693,"lon":5.39631,"is_reserved":false,"is_disabled":false,"rental_uris":{"android":"levelo://app?vid=4004e863-e0ca-4122-9424-ab9f70e142e6","ios":"levelo://app?vid=4004e863-e0ca-4122-9424-ab9f70e142e6"},"vehicle_type_id":"4","last_reported":1739488131,"current_range_meters":25200,"station_id":"","pricing_plan_id":"cebpf4jnsgd1na2vs0mg"},{"bike_id":"45435c86-c192-430f-878e-efcea7c98935","system_id":"levelo_inurba_marseille","lat":43.31367,"lon":5.38493,"is_reserved":false,"is_disabled":false,"rental_uris":{"android":"levelo://app?vid=45435c86-c192-430f-878e-efcea7c98935","ios":"levelo://app?vid=45435c86-c192-430f-878e-efcea7c98935"},"vehicle_type_id":"4","last_reported":1739488131,"current_range_meters":20800,"station_id":"ce4bgt92rcd13ifvqcf0","pricing_plan_id":"cebpf4jnsgd1na2vs0mg"},{"bike_id":"6251d29e-95fb-4619-ace3-cd2123170b74","system_id":"levelo_inurba_marseille","lat":43.3095,"lon":5.39054,"is_reserved":false,"is_disabled":false,"rental_uris":{"android":"levelo://app?vid=6251d29e-95fb-4619-ace3-cd2123170b74","ios":"levelo://app?vid=6251d29e-95fb-4619-ace3-cd2123170b74"},"vehicle_type_id":"4","last_reported":1739488131,"current_range_meters":28000,"station_id":"ce4bgup2rcd13ifvqco0","pricing_plan_id":"cebpf4jnsgd1na2vs0mg"},{"bike_id":"ad9b5912-f329-4b7c-b1ff-512cdba8e36d","system_id":"levelo_inurba_marseille","lat":43.29285,"lon":5.4346,"is_reserved":false,"is_disabled":false,"rental_uris":{"android":"levelo://app?vid=ad9b5912-f329-4b7c-b1ff-512cdba8e36d","ios":"levelo://app?vid=ad9b5912-f329-4b7c-b1ff-512cdba8e36d"},"vehicle_type_id":"4","last_reported":1739488131,"current_range_meters":32800,"station_id":"","pricing_plan_id":"cebpf4jnsgd1na2vs0mg"},{"bike_id":"a976e7ac-6155-4dcb-8d3a-9fd779764b7a","system_id":"levelo_inurba_marseille","lat":43.27846,"lon":5.39208,"is_reserved":false,"is_disabled":false,"rental_uris":{"android":"levelo://app?vid=a976e7ac-6155-4dcb-8d3a-9fd779764b7a","ios":"levelo://app?vid=a976e7ac-6155-4dcb-8d3a-9fd779764b7a"},"vehicle_type_id":"4","last_reported":1739488131,"current_range_meters":39200,"station_id":"ce4bhjp2rcd13ifvqga0","pricing_plan_id":"cebpf4jnsgd1na2vs0mg"},{"bike_id":"f7e93747-a447-433e-9a79-7f59de95b943","system_id":"levelo_inurba_marseille","lat":43.30814,"lon":5.38172,"is_reserved":false,"is_disabled":false,"rental_uris":{"android":"levelo://app?vid=f7e93747-a447-433e-9a79-7f59de95b943","ios":"levelo://app?vid=f7e93747-a447-433e-9a79-7f59de95b943"},"vehicle_type_id":"4","last_reported":1739488131,"current_range_meters":39200,"station_id":"ce4bgt12rcd13ifvqce0","pricing_plan_id":"cebpf4jnsgd1na2vs0mg"},{"bike_id":"e4d14330-222d-46d5-8f26-efec567da29c","system_id":"levelo_inurba_marseille","lat":43.286174,"lon":5.351023,"is_reserved":false,"is_disabled":false,"rental_uris":{"android":"levelo://app?vid=e4d14330-222d-46d5-8f26-efec567da29c","ios":"levelo://app?vid=e4d14330-222d-46d5-8f26-efec567da29c"},"vehicle_type_id":"4","last_reported":1739488131,"current_range_meters":38800,"station_id":"ce4bhch2rcd13ifvqeug","pricing_plan_id":"cebpf4jnsgd1na2vs0mg"},{"bike_id":"f92e748a-9f9b-4e54-8084-07e33515f3d5","system_id":"levelo_inurba_marseille","lat":43.2706,"lon":5.39319,"is_reserved":false,"is_disabled":true,"rental_uris":{"android":"levelo://app?vid=f92e748a-9f9b-4e54-8084-07e33515f3d5","ios":"levelo://app?vid=f92e748a-9f9b-4e54-8084-07e33515f3d5"},"vehicle_type_id":"4","last_reported":1739488131,"current_range_meters":0,"station_id":"","pricing_plan_id":"cebpf4jnsgd1na2vs0mg"},{"bike_id":"03f1ee11-be7f-45e6-a171-a893130e88b6","system_id":"levelo_inurba_marseille","lat":43.28994,"lon":5.35605,"is_reserved":false,"is_disabled":true,"rental_uris":{"android":"levelo://app?vid=03f1ee11-be7f-45e6-a171-a893130e88b6","ios":"levelo://app?vid=03f1ee11-be7f-45e6-a171-a893130e88b6"},"vehicle_type_id":"4","last_reported":1739488131,"current_range_meters":38000,"station_id":"ce4bhb92rcd13ifvqen0","pricing_plan_id":"cebpf4jnsgd1na2vs0mg"},{"bike_id":"704ec19d-e7c0-4858-a423-dcfa560220a5","system_id":"levelo_inurba_marseille","lat":43.23192,"lon":5.39975,"is_reserved":false,"is_disabled":false,"rental_uris":{"android":"levelo://app?vid=704ec19d-e7c0-4858-a423-dcfa560220a5","ios":"levelo://app?vid=704ec19d-e7c0-4858-a423-dcfa560220a5"},"vehicle_type_id":"4","last_reported":1739488131,"current_range_meters":36000,"station_id":"ce4bhn12rcd13ifvqgqg","pricing_plan_id":"cebpf4jnsgd1na2vs0mg"},{"bike_id":"44fd7d8a-aab8-4dc2-b5ee-a3da4bf71cb6","system_id":"levelo_inurba_marseille","lat":43.29516,"lon":5.3903,"is_reserved":false,"is_disabled":false,"rental_uris":{"android":"levelo://app?vid=44fd7d8a-aab8-4dc2-b5ee-a3da4bf71cb6","ios":"levelo://app?vid=44fd7d8a-aab8-4dc2-b5ee-a3da4bf71cb6"},"vehicle_type_id":"4","last_reported":1739488131,"current_range_meters":36400,"station_id":"ce4bh3p2rcd13ifvqdp0","pricing_plan_id":"cebpf4jnsgd1na2vs0mg"},{"bike_id":"81e8b687-b7dc-4f3b-902f-34681737fb40","system_id":"levelo_inurba_marseille","lat":43.3009,"lon":5.39079,"is_reserved":false,"is_disabled":false,"rental_uris":{"android":"levelo://app?vid=81e8b687-b7dc-4f3b-902f-34681737fb40","ios":"levelo://app?vid=81e8b687-b7dc-4f3b-902f-34681737fb40"},"vehicle_type_id":"4","last_reported":1739488131,"current_range_meters":33600,"station_id":"ce4bh192rcd13ifvqdb0","pricing_plan_id":"cebpf4jnsgd1na2vs0mg"},{"bike_id":"9ffe0681-9ede-4d8e-8df5-acca9b5ea6d7","system_id":"levelo_inurba_marseille","lat":43.29254,"lon":5.40916,"is_reserved":false,"is_disabled":false,"rental_uris":{"android":"levelo://app?vid=9ffe0681-9ede-4d8e-8df5-acca9b5ea6d7","ios":"levelo://app?vid=9ffe0681-9ede-4d8e-8df5-acca9b5ea6d7"},"vehicle_type_id":"4","last_reported":1739488131,"current_range_meters":38800,"station_id":"ce4bh192rcd13ifvqdc0","pricing_plan_id":"cebpf4jnsgd1na2vs0mg"},{"bike_id":"075f9f8c-dcec-4b2a-87fa-0f08fa1267f4","system_id":"levelo_inurba_marseille","lat":43.30925,"lon":5.40143,"is_reserved":false,"is_disabled":false,"rental_uris":{"android":"levelo://app?vid=075f9f8c-dcec-4b2a-87fa-0f08fa1267f4","ios":"levelo://app?vid=075f9f8c-dcec-4b2a-87fa-0f08fa1267f4"},"vehicle_type_id":"4","last_reported":1739488131,"current_range_meters":27600,"station_id":"ce4bgvp2rcd13ifvqct0","pricing_plan_id":"cebpf4jnsgd1na2vs0mg"},{"bike_id":"9cf8e6d9-67b8-441b-8ab4-08ef8560d2b0","system_id":"levelo_inurba_marseille","lat":43.33514,"lon":5.35585,"is_reserved":false,"is_disabled":true,"rental_uris":{"android":"levelo://app?vid=9cf8e6d9-67b8-441b-8ab4-08ef8560d2b0","ios":"levelo://app?vid=9cf8e6d9-67b8-441b-8ab4-08ef8560d2b0"},"vehicle_type_id":"4","last_reported":1739488131,"current_range_meters":0,"station_id":"","pricing_plan_id":"cebpf4jnsgd1na2vs0mg"},{"bike_id":"7a3720dd-298c-4d87-91ef-5d83e7db7658","system_id":"levelo_inurba_marseille","lat":43.24103,"lon":5.37764,"is_reserved":false,"is_disabled":false,"rental_uris":{"android":"levelo://app?vid=7a3720dd-298c-4d87-91ef-5d83e7db7658","ios":"levelo://app?vid=7a3720dd-298c-4d87-91ef-5d83e7db7658"},"vehicle_type_id":"4","last_reported":1739488131,"current_range_meters":38800,"station_id":"ce4bhnp2rcd13ifvqgvg","pricing_plan_id":"cebpf4jnsgd1na2vs0mg"},{"bike_id":"6279f888-1d4b-4ebb-b3f2-c7248902b00f","system_id":"levelo_inurba_marseille","lat":43.25493,"lon":5.37675,"is_reserved":false,"is_disabled":false,"rental_uris":{"android":"levelo://app?vid=6279f888-1d4b-4ebb-b3f2-c7248902b00f","ios":"levelo://app?vid=6279f888-1d4b-4ebb-b3f2-c7248902b00f"},"vehicle_type_id":"4","last_reported":1739488131,"current_range_meters":19600,"station_id":"ce4bhh12rcd13ifvqff0","pricing_plan_id":"cebpf4jnsgd1na2vs0mg"},{"bike_id":"ab4c983f-8a50-4c35-9ac5-504956717998","system_id":"levelo_inurba_marseille","lat":43.28965,"lon":5.36382,"is_reserved":false,"is_disabled":false,"rental_uris":{"android":"levelo://app?vid=ab4c983f-8a50-4c35-9ac5-504956717998","ios":"levelo://app?vid=ab4c983f-8a50-4c35-9ac5-504956717998"},"vehicle_type_id":"4","last_reported":1739488131,"current_range_meters":38800,"station_id":"ce4bhc92rcd13ifvqetg","pricing_plan_id":"cebpf4jnsgd1na2vs0mg"},{"bike_id":"3dac6192-3123-4c95-afea-ba492f5c9f4e","system_id":"levelo_inurba_marseille","lat":43.32673,"lon":5.43122,"is_reserved":false,"is_disabled":false,"rental_uris":{"android":"levelo://app?vid=3dac6192-3123-4c95-afea-ba492f5c9f4e","ios":"levelo://app?vid=3dac6192-3123-4c95-afea-ba492f5c9f4e"},"vehicle_type_id":"4","last_reported":1739488131,"current_range_meters":32400,"station_id":"","pricing_plan_id":"cebpf4jnsgd1na2vs0mg"},{"bike_id":"c0c875a4-5c95-4254-a403-0897218cf352","system_id":"levelo_inurba_marseille","lat":43.28273,"lon":5.35078,"is_reserved":false,"is_disabled":false,"rental_uris":{"android":"levelo://app?vid=c0c875a4-5c95-4254-a403-0897218cf352","ios":"levelo://app?vid=c0c875a4-5c95-4254-a403-0897218cf352"},"vehicle_type_id":"4","last_reported":1739488131,"current_range_meters":33200,"station_id":"ce4bhbp2rcd13ifvqerg","pricing_plan_id":"cebpf4jnsgd1na2vs0mg"},{"bike_id":"bc36b780-f51f-4dfc-8a78-664ab44bae67","system_id":"levelo_inurba_marseille","lat":43.30465,"lon":5.37919,"is_reserved":false,"is_disabled":false,"rental_uris":{"android":"levelo://app?vid=bc36b780-f51f-4dfc-8a78-664ab44bae67","ios":"levelo://app?vid=bc36b780-f51f-4dfc-8a78-664ab44bae67"},"vehicle_type_id":"4","last_reported":1739488131,"current_range_meters":36000,"station_id":"ce4bgup2rcd13ifvqcn0","pricing_plan_id":"cebpf4jnsgd1na2vs0mg"},{"bike_id":"e26e4d9a-d17a-4e05-a615-8cb1580b2ec8","system_id":"levelo_inurba_marseille","lat":43.25881,"lon":5.39923,"is_reserved":false,"is_disabled":false,"rental_uris":{"android":"levelo://app?vid=e26e4d9a-d17a-4e05-a615-8cb1580b2ec8","ios":"levelo://app?vid=e26e4d9a-d17a-4e05-a615-8cb1580b2ec8"},"vehicle_type_id":"4","last_reported":1739488131,"current_range_meters":39200,"station_id":"ce4bhl92rcd13ifvqghg","pricing_plan_id":"cebpf4jnsgd1na2vs0mg"},{"bike_id":"d8a5d151-9020-418b-990d-17bffb2b3256","system_id":"levelo_inurba_marseille","lat":43.27813,"lon":5.40723,"is_reserved":false,"is_disabled":false,"rental_uris":{"android":"levelo://app?vid=d8a5d151-9020-418b-990d-17bffb2b3256","ios":"levelo://app?vid=d8a5d151-9020-418b-990d-17bffb2b3256"},"vehicle_type_id":"4","last_reported":1739488131,"current_range_meters":18800,"station_id":"ce4bhnh2rcd13ifvqgtg","pricing_plan_id":"cebpf4jnsgd1na2vs0mg"},{"bike_id":"ec8d9d4e-d295-4b31-9d64-b8816510bc68","system_id":"levelo_inurba_marseille","lat":43.28615,"lon":5.35109,"is_reserved":false,"is_disabled":false,"rental_uris":{"android":"levelo://app?vid=ec8d9d4e-d295-4b31-9d64-b8816510bc68","ios":"levelo://app?vid=ec8d9d4e-d295-4b31-9d64-b8816510bc68"},"vehicle_type_id":"4","last_reported":1739488131,"current_range_meters":16400,"station_id":"ce4bhch2rcd13ifvqeug","pricing_plan_id":"cebpf4jnsgd1na2vs0mg"},{"bike_id":"51ab7186-5043-4bed-baca-73708608a302","system_id":"levelo_inurba_marseille","lat":43.29584,"lon":5.37026,"is_reserved":false,"is_disabled":true,"rental_uris":{"android":"levelo://app?vid=51ab7186-5043-4bed-baca-73708608a302","ios":"levelo://app?vid=51ab7186-5043-4bed-baca-73708608a302"},"vehicle_type_id":"4","last_reported":1739488131,"current_range_meters":0,"station_id":"","pricing_plan_id":"cebpf4jnsgd1na2vs0mg"},{"bike_id":"8c6156b5-146a-4d21-86e7-67a95893915c","system_id":"levelo_inurba_marseille","lat":43.29449,"lon":5.39756,"is_reserved":false,"is_disabled":false,"rental_uris":{"android":"levelo://app?vid=8c6156b5-146a-4d21-86e7-67a95893915c","ios":"levelo://app?vid=8c6156b5-146a-4d21-86e7-67a95893915c"},"vehicle_type_id":"4","last_reported":1739488131,"current_range_meters":37600,"station_id":"ce4bh3h2rcd13ifvqdo0","pricing_plan_id":"cebpf4jnsgd1na2vs0mg"},{"bike_id":"0a091e32-861c-4a90-ba8d-79373292393c","system_id":"levelo_inurba_marseille","lat":43.27616,"lon":5.36127,"is_reserved":false,"is_disabled":false,"rental_uris":{"android":"levelo://app?vid=0a091e32-861c-4a90-ba8d-79373292393c","ios":"levelo://app?vid=0a091e32-861c-4a90-ba8d-79373292393c"},"vehicle_type_id":"4","last_reported":1739488131,"current_range_meters":8400,"station_id":"ce4bgj92rcd13ifvqbe0","pricing_plan_id":"cebpf4jnsgd1na2vs0mg"},{"bike_id":"d3fc5f7e-9983-4343-a9af-f36df7d45f29","system_id":"levelo_inurba_marseille","lat":43.23181,"lon":5.39986,"is_reserved":false,"is_disabled":false,"rental_uris":{"android":"levelo://app?vid=d3fc5f7e-9983-4343-a9af-f36df7d45f29","ios":"levelo://app?vid=d3fc5f7e-9983-4343-a9af-f36df7d45f29"},"vehicle_type_id":"4","last_reported":1739488131,"current_range_meters":22800,"station_id":"ce4bhn12rcd13ifvqgqg","pricing_plan_id":"cebpf4jnsgd1na2vs0mg"},{"bike_id":"d01cfddf-7881-4b7c-815e-f570bddc475f","system_id":"levelo_inurba_marseille","lat":43.27946,"lon":5.41053,"is_reserved":false,"is_disabled":false,"rental_uris":{"android":"levelo://app?vid=d01cfddf-7881-4b7c-815e-f570bddc475f","ios":"levelo://app?vid=d01cfddf-7881-4b7c-815e-f570bddc475f"},"vehicle_type_id":"4","last_reported":1739488131,"current_range_meters":38800,"station_id":"ce4bhnp2rcd13ifvqh0g","pricing_plan_id":"cebpf4jnsgd1na2vs0mg"},{"bike_id":"33339b0f-3032-4f3f-9cf1-37f976611ced","system_id":"levelo_inurba_marseille","lat":43.28438,"lon":5.39198,"is_reserved":false,"is_disabled":false,"rental_uris":{"android":"levelo://app?vid=33339b0f-3032-4f3f-9cf1-37f976611ced","ios":"levelo://app?vid=33339b0f-3032-4f3f-9cf1-37f976611ced"},"vehicle_type_id":"4","last_reported":1739488131,"current_range_meters":32800,"station_id":"ce4bhoh2rcd13ifvqh5g","pricing_plan_id":"cebpf4jnsgd1na2vs0mg"},{"bike_id":"6a1c529c-cc99-418e-96ec-6be49a781e49","system_id":"levelo_inurba_marseille","lat":43.29419,"lon":5.38615,"is_reserved":false,"is_disabled":false,"rental_uris":{"android":"levelo://app?vid=6a1c529c-cc99-418e-96ec-6be49a781e49","ios":"levelo://app?vid=6a1c529c-cc99-418e-96ec-6be49a781e49"},"vehicle_type_id":"4","last_reported":1739488131,"current_range_meters":22400,"station_id":"ce4bh2h2rcd13ifvqdh0","pricing_plan_id":"cebpf4jnsgd1na2vs0mg"},{"bike_id":"86545730-ef1d-4ebc-8c78-941032a94a82","system_id":"levelo_inurba_marseille","lat":43.28036,"lon":5.36953,"is_reserved":false,"is_disabled":false,"rental_uris":{"android":"levelo://app?vid=86545730-ef1d-4ebc-8c78-941032a94a82","ios":"levelo://app?vid=86545730-ef1d-4ebc-8c78-941032a94a82"},"vehicle_type_id":"4","last_reported":1739488131,"current_range_meters":38000,"station_id":"ce4bha12rcd13ifvqef0","pricing_plan_id":"cebpf4jnsgd1na2vs0mg"},{"bike_id":"68ff56c3-b6fc-41fd-b5ad-861703c1b03c","system_id":"levelo_inurba_marseille","lat":43.29522,"lon":5.39032,"is_reserved":false,"is_disabled":false,"rental_uris":{"android":"levelo://app?vid=68ff56c3-b6fc-41fd-b5ad-861703c1b03c","ios":"levelo://app?vid=68ff56c3-b6fc-41fd-b5ad-861703c1b03c"},"vehicle_type_id":"4","last_reported":1739488131,"current_range_meters":38800,"station_id":"ce4bh3p2rcd13ifvqdp0","pricing_plan_id":"cebpf4jnsgd1na2vs0mg"},{"bike_id":"c40e2cb9-b89c-4dbd-956b-535ef79f1d37","system_id":"levelo_inurba_marseille","lat":43.248,"lon":5.37453,"is_reserved":false,"is_disabled":false,"rental_uris":{"android":"levelo://app?vid=c40e2cb9-b89c-4dbd-956b-535ef79f1d37","ios":"levelo://app?vid=c40e2cb9-b89c-4dbd-956b-535ef79f1d37"},"vehicle_type_id":"4","last_reported":1739488131,"current_range_meters":30800,"station_id":"ce4bhgh2rcd13ifvqfb0","pricing_plan_id":"cebpf4jnsgd1na2vs0mg"},{"bike_id":"7cd0daa1-55ff-4122-a5aa-b2ad843b72ea","system_id":"levelo_inurba_marseille","lat":43.28101,"lon":5.39859,"is_reserved":false,"is_disabled":false,"rental_uris":{"android":"levelo://app?vid=7cd0daa1-55ff-4122-a5aa-b2ad843b72ea","ios":"levelo://app?vid=7cd0daa1-55ff-4122-a5aa-b2ad843b72ea"},"vehicle_type_id":"4","last_reported":1739488131,"current_range_meters":9600,"station_id":"","pricing_plan_id":"cebpf4jnsgd1na2vs0mg"},{"bike_id":"79665ef5-e5c4-4fbd-9a3d-55fc72ed1691","system_id":"levelo_inurba_marseille","lat":43.28708,"lon":5.39976,"is_reserved":false,"is_disabled":true,"rental_uris":{"android":"levelo://app?vid=79665ef5-e5c4-4fbd-9a3d-55fc72ed1691","ios":"levelo://app?vid=79665ef5-e5c4-4fbd-9a3d-55fc72ed1691"},"vehicle_type_id":"4","last_reported":1739488131,"current_range_meters":0,"station_id":"ce4bho92rcd13ifvqh3g","pricing_plan_id":"cebpf4jnsgd1na2vs0mg"},{"bike_id":"d94ad0a4-4209-47fc-bb1e-86a94e106366","system_id":"levelo_inurba_marseille","lat":43.28852,"lon":5.35878,"is_reserved":false,"is_disabled":false,"rental_uris":{"android":"levelo://app?vid=d94ad0a4-4209-47fc-bb1e-86a94e106366","ios":"levelo://app?vid=d94ad0a4-4209-47fc-bb1e-86a94e106366"},"vehicle_type_id":"4","last_reported":1739488131,"current_range_meters":10000,"station_id":"ce4bhb12rcd13ifvqem0","pricing_plan_id":"cebpf4jnsgd1na2vs0mg"},{"bike_id":"ee079ffa-4416-4a91-bc98-3bd665acea3b","system_id":"levelo_inurba_marseille","lat":43.33731,"lon":5.39167,"is_reserved":false,"is_disabled":false,"rental_uris":{"android":"levelo://app?vid=ee079ffa-4416-4a91-bc98-3bd665acea3b","ios":"levelo://app?vid=ee079ffa-4416-4a91-bc98-3bd665acea3b"},"vehicle_type_id":"4","last_reported":1739488131,"current_range_meters":38800,"station_id":"ce4bhr92rcd13ifvqhsg","pricing_plan_id":"cebpf4jnsgd1na2vs0mg"},{"bike_id":"1fa82dc6-47d4-4356-bbca-393bf4461726","system_id":"levelo_inurba_marseille","lat":43.23964,"lon":5.36621,"is_reserved":false,"is_disabled":false,"rental_uris":{"android":"levelo://app?vid=1fa82dc6-47d4-4356-bbca-393bf4461726","ios":"levelo://app?vid=1fa82dc6-47d4-4356-bbca-393bf4461726"},"vehicle_type_id":"4","last_reported":1739488131,"current_range_meters":38000,"station_id":"ce4bhi12rcd13ifvqfp0","pricing_plan_id":"cebpf4jnsgd1na2vs0mg"},{"bike_id":"eafbb86e-0095-46c0-a2c6-0835e69f8ed6","system_id":"levelo_inurba_marseille","lat":43.30753,"lon":5.37456,"is_reserved":false,"is_disabled":false,"rental_uris":{"android":"levelo://app?vid=eafbb86e-0095-46c0-a2c6-0835e69f8ed6","ios":"levelo://app?vid=eafbb86e-0095-46c0-a2c6-0835e69f8ed6"},"vehicle_type_id":"4","last_reported":1739488131,"current_range_meters":10000,"station_id":"","pricing_plan_id":"cebpf4jnsgd1na2vs0mg"},{"bike_id":"55851924-ebf6-45cb-af08-d48cd614ee56","system_id":"levelo_inurba_marseille","lat":43.2782,"lon":5.40681,"is_reserved":false,"is_disabled":false,"rental_uris":{"android":"levelo://app?vid=55851924-ebf6-45cb-af08-d48cd614ee56","ios":"levelo://app?vid=55851924-ebf6-45cb-af08-d48cd614ee56"},"vehicle_type_id":"4","last_reported":1739488131,"current_range_meters":38800,"station_id":"ce4bhnh2rcd13ifvqgtg","pricing_plan_id":"cebpf4jnsgd1na2vs0mg"},{"bike_id":"9638b1de-6e65-4723-820d-87a0cd11082b","system_id":"levelo_inurba_marseille","lat":43.29975,"lon":5.385,"is_reserved":false,"is_disabled":true,"rental_uris":{"android":"levelo://app?vid=9638b1de-6e65-4723-820d-87a0cd11082b","ios":"levelo://app?vid=9638b1de-6e65-4723-820d-87a0cd11082b"},"vehicle_type_id":"4","last_reported":1739488131,"current_range_meters":38000,"station_id":"ce4bgj92rcd13ifvqbd0","pricing_plan_id":"cebpf4jnsgd1na2vs0mg"},{"bike_id":"a52e5f59-492e-4d41-bdaa-f501a2bbceb9","system_id":"levelo_inurba_marseille","lat":43.27373,"lon":5.36264,"is_reserved":false,"is_disabled":false,"rental_uris":{"android":"levelo://app?vid=a52e5f59-492e-4d41-bdaa-f501a2bbceb9","ios":"levelo://app?vid=a52e5f59-492e-4d41-bdaa-f501a2bbceb9"},"vehicle_type_id":"4","last_reported":1739488131,"current_range_meters":36400,"station_id":"ce4bhbh2rcd13ifvqeo0","pricing_plan_id":"cebpf4jnsgd1na2vs0mg"},{"bike_id":"2a4b9998-a405-4a0e-9257-7329c18e12ae","system_id":"levelo_inurba_marseille","lat":43.24066,"lon":5.3775,"is_reserved":false,"is_disabled":false,"rental_uris":{"android":"levelo://app?vid=2a4b9998-a405-4a0e-9257-7329c18e12ae","ios":"levelo://app?vid=2a4b9998-a405-4a0e-9257-7329c18e12ae"},"vehicle_type_id":"4","last_reported":1739488131,"current_range_meters":18000,"station_id":"ce4bhnp2rcd13ifvqgvg","pricing_plan_id":"cebpf4jnsgd1na2vs0mg"},{"bike_id":"896ec56b-5525-4094-9b48-4e6034904017","system_id":"levelo_inurba_marseille","lat":43.30891,"lon":5.39639,"is_reserved":false,"is_disabled":false,"rental_uris":{"android":"levelo://app?vid=896ec56b-5525-4094-9b48-4e6034904017","ios":"levelo://app?vid=896ec56b-5525-4094-9b48-4e6034904017"},"vehicle_type_id":"4","last_reported":1739488131,"current_range_meters":39200,"station_id":"ce4bh012rcd13ifvqcv0","pricing_plan_id":"cebpf4jnsgd1na2vs0mg"},{"bike_id":"7b290320-bc06-4477-a33e-5c3fe5fe8438","system_id":"levelo_inurba_marseille","lat":43.28696,"lon":5.38621,"is_reserved":false,"is_disabled":false,"rental_uris":{"android":"levelo://app?vid=7b290320-bc06-4477-a33e-5c3fe5fe8438","ios":"levelo://app?vid=7b290320-bc06-4477-a33e-5c3fe5fe8438"},"vehicle_type_id":"4","last_reported":1739488131,"current_range_meters":38000,"station_id":"ce4bh492rcd13ifvqdug","pricing_plan_id":"cebpf4jnsgd1na2vs0mg"},{"bike_id":"83dc17c6-5483-4911-a98e-812dbdb1c9f8","system_id":"levelo_inurba_marseille","lat":43.29567,"lon":5.40027,"is_reserved":false,"is_disabled":false,"rental_uris":{"android":"levelo://app?vid=83dc17c6-5483-4911-a98e-812dbdb1c9f8","ios":"levelo://app?vid=83dc17c6-5483-4911-a98e-812dbdb1c9f8"},"vehicle_type_id":"4","last_reported":1739488131,"current_range_meters":37600,"station_id":"","pricing_plan_id":"cebpf4jnsgd1na2vs0mg"},{"bike_id":"45f3f367-7300-440c-8e54-94f7fe66c0ff","system_id":"levelo_inurba_marseille","lat":43.26953,"lon":5.38646,"is_reserved":false,"is_disabled":false,"rental_uris":{"android":"levelo://app?vid=45f3f367-7300-440c-8e54-94f7fe66c0ff","ios":"levelo://app?vid=45f3f367-7300-440c-8e54-94f7fe66c0ff"},"vehicle_type_id":"4","last_reported":1739488131,"current_range_meters":6400,"station_id":"ce4bhh92rcd13ifvqfh0","pricing_plan_id":"cebpf4jnsgd1na2vs0mg"},{"bike_id":"a3c1a4ab-82f6-4315-9ed6-5bac6bafe89a","system_id":"levelo_inurba_marseille","lat":43.2873,"lon":5.36101,"is_reserved":false,"is_disabled":false,"rental_uris":{"android":"levelo://app?vid=a3c1a4ab-82f6-4315-9ed6-5bac6bafe89a","ios":"levelo://app?vid=a3c1a4ab-82f6-4315-9ed6-5bac6bafe89a"},"vehicle_type_id":"4","last_reported":1739488131,"current_range_meters":20800,"station_id":"cki0cbj6b192h4jlfktg","pricing_plan_id":"cebpf4jnsgd1na2vs0mg"},{"bike_id":"3f0d5a9b-ed4b-4d06-952e-029576553500","system_id":"levelo_inurba_marseille","lat":43.26057,"lon":5.39397,"is_reserved":false,"is_disabled":false,"rental_uris":{"android":"levelo://app?vid=3f0d5a9b-ed4b-4d06-952e-029576553500","ios":"levelo://app?vid=3f0d5a9b-ed4b-4d06-952e-029576553500"},"vehicle_type_id":"4","last_reported":1739488131,"current_range_meters":36400,"station_id":"ce4bhh92rcd13ifvqfj0","pricing_plan_id":"cebpf4jnsgd1na2vs0mg"},{"bike_id":"0f2de5cd-c636-4001-ab39-c26b347a3fee","system_id":"levelo_inurba_marseille","lat":43.260634,"lon":5.393971,"is_reserved":false,"is_disabled":false,"rental_uris":{"android":"levelo://app?vid=0f2de5cd-c636-4001-ab39-c26b347a3fee","ios":"levelo://app?vid=0f2de5cd-c636-4001-ab39-c26b347a3fee"},"vehicle_type_id":"4","last_reported":1739488131,"current_range_meters":38400,"station_id":"ce4bhh92rcd13ifvqfj0","pricing_plan_id":"cebpf4jnsgd1na2vs0mg"},{"bike_id":"64c6b46b-656d-4ea4-b38b-769c889a07b3","system_id":"levelo_inurba_marseille","lat":43.26562,"lon":5.39068,"is_reserved":false,"is_disabled":false,"rental_uris":{"android":"levelo://app?vid=64c6b46b-656d-4ea4-b38b-769c889a07b3","ios":"levelo://app?vid=64c6b46b-656d-4ea4-b38b-769c889a07b3"},"vehicle_type_id":"4","last_reported":1739488131,"current_range_meters":38400,"station_id":"","pricing_plan_id":"cebpf4jnsgd1na2vs0mg"},{"bike_id":"a9591f57-40b0-4884-aa29-23cc39ec7d64","system_id":"levelo_inurba_marseille","lat":43.26216,"lon":5.37429,"is_reserved":false,"is_disabled":true,"rental_uris":{"android":"levelo://app?vid=a9591f57-40b0-4884-aa29-23cc39ec7d64","ios":"levelo://app?vid=a9591f57-40b0-4884-aa29-23cc39ec7d64"},"vehicle_type_id":"4","last_reported":1739488131,"current_range_meters":0,"station_id":"ce4bhgp2rcd13ifvqfc0","pricing_plan_id":"cebpf4jnsgd1na2vs0mg"},{"bike_id":"341bf852-e4fc-4047-8754-8aa7c092413b","system_id":"levelo_inurba_marseille","lat":43.29509,"lon":5.39406,"is_reserved":false,"is_disabled":false,"rental_uris":{"android":"levelo://app?vid=341bf852-e4fc-4047-8754-8aa7c092413b","ios":"levelo://app?vid=341bf852-e4fc-4047-8754-8aa7c092413b"},"vehicle_type_id":"4","last_reported":1739488131,"current_range_meters":31200,"station_id":"ce4bh292rcd13ifvqdf0","pricing_plan_id":"cebpf4jnsgd1na2vs0mg"},{"bike_id":"72fd211a-f99e-487e-95dc-87109e724cf1","system_id":"levelo_inurba_marseille","lat":43.336,"lon":5.41038,"is_reserved":false,"is_disabled":false,"rental_uris":{"android":"levelo://app?vid=72fd211a-f99e-487e-95dc-87109e724cf1","ios":"levelo://app?vid=72fd211a-f99e-487e-95dc-87109e724cf1"},"vehicle_type_id":"4","last_reported":1739488131,"current_range_meters":38800,"station_id":"ce4bhqh2rcd13ifvqhmg","pricing_plan_id":"cebpf4jnsgd1na2vs0mg"},{"bike_id":"39b3d32d-86b7-4ebe-b308-23e56b697f3a","system_id":"levelo_inurba_marseille","lat":43.29032,"lon":5.39964,"is_reserved":false,"is_disabled":false,"rental_uris":{"android":"levelo://app?vid=39b3d32d-86b7-4ebe-b308-23e56b697f3a","ios":"levelo://app?vid=39b3d32d-86b7-4ebe-b308-23e56b697f3a"},"vehicle_type_id":"4","last_reported":1739488131,"current_range_meters":26000,"station_id":"ce4bh392rcd13ifvqdm0","pricing_plan_id":"cebpf4jnsgd1na2vs0mg"},{"bike_id":"85299ea2-1a1b-41d4-8ee9-43325dd8e003","system_id":"levelo_inurba_marseille","lat":43.29236,"lon":5.36034,"is_reserved":false,"is_disabled":false,"rental_uris":{"android":"levelo://app?vid=85299ea2-1a1b-41d4-8ee9-43325dd8e003","ios":"levelo://app?vid=85299ea2-1a1b-41d4-8ee9-43325dd8e003"},"vehicle_type_id":"4","last_reported":1739488131,"current_range_meters":38800,"station_id":"ce4bhbh2rcd13ifvqeqg","pricing_plan_id":"cebpf4jnsgd1na2vs0mg"},{"bike_id":"08a86ebb-b290-4f14-9520-6a5a716f26bd","system_id":"levelo_inurba_marseille","lat":43.23962,"lon":5.36638,"is_reserved":false,"is_disabled":false,"rental_uris":{"android":"levelo://app?vid=08a86ebb-b290-4f14-9520-6a5a716f26bd","ios":"levelo://app?vid=08a86ebb-b290-4f14-9520-6a5a716f26bd"},"vehicle_type_id":"4","last_reported":1739488131,"current_range_meters":38000,"station_id":"ce4bhi12rcd13ifvqfp0","pricing_plan_id":"cebpf4jnsgd1na2vs0mg"},{"bike_id":"b2c8e25e-7296-4575-b1ef-5c3d523d95d3","system_id":"levelo_inurba_marseille","lat":43.33021,"lon":5.39047,"is_reserved":false,"is_disabled":false,"rental_uris":{"android":"levelo://app?vid=b2c8e25e-7296-4575-b1ef-5c3d523d95d3","ios":"levelo://app?vid=b2c8e25e-7296-4575-b1ef-5c3d523d95d3"},"vehicle_type_id":"4","last_reported":1739488131,"current_range_meters":36400,"station_id":"ce4bhr92rcd13ifvqhrg","pricing_plan_id":"cebpf4jnsgd1na2vs0mg"},{"bike_id":"80897a2a-2a00-41fb-b479-a38b46796bd7","system_id":"levelo_inurba_marseille","lat":43.30421,"lon":5.37819,"is_reserved":false,"is_disabled":true,"rental_uris":{"android":"levelo://app?vid=80897a2a-2a00-41fb-b479-a38b46796bd7","ios":"levelo://app?vid=80897a2a-2a00-41fb-b479-a38b46796bd7"},"vehicle_type_id":"4","last_reported":1739488131,"current_range_meters":0,"station_id":"","pricing_plan_id":"cebpf4jnsgd1na2vs0mg"},{"bike_id":"678d6f34-cd9a-429e-868e-3a5dabab2e1e","system_id":"levelo_inurba_marseille","lat":43.31536,"lon":5.38027,"is_reserved":false,"is_disabled":false,"rental_uris":{"android":"levelo://app?vid=678d6f34-cd9a-429e-868e-3a5dabab2e1e","ios":"levelo://app?vid=678d6f34-cd9a-429e-868e-3a5dabab2e1e"},"vehicle_type_id":"4","last_reported":1739488131,"current_range_meters":32800,"station_id":"ce4bhsp2rcd13ifvqi50","pricing_plan_id":"cebpf4jnsgd1na2vs0mg"},{"bike_id":"23849fcd-4bc4-44f6-8337-e9a9a16fe0e7","system_id":"levelo_inurba_marseille","lat":43.29739,"lon":5.47954,"is_reserved":false,"is_disabled":false,"rental_uris":{"android":"levelo://app?vid=23849fcd-4bc4-44f6-8337-e9a9a16fe0e7","ios":"levelo://app?vid=23849fcd-4bc4-44f6-8337-e9a9a16fe0e7"},"vehicle_type_id":"4","last_reported":1739488131,"current_range_meters":6800,"station_id":"","pricing_plan_id":"cebpf4jnsgd1na2vs0mg"},{"bike_id":"fe02ae05-699c-4f05-a53d-04396c4b1391","system_id":"levelo_inurba_marseille","lat":43.29415,"lon":5.38602,"is_reserved":false,"is_disabled":false,"rental_uris":{"android":"levelo://app?vid=fe02ae05-699c-4f05-a53d-04396c4b1391","ios":"levelo://app?vid=fe02ae05-699c-4f05-a53d-04396c4b1391"},"vehicle_type_id":"4","last_reported":1739488131,"current_range_meters":38800,"station_id":"ce4bh2h2rcd13ifvqdh0","pricing_plan_id":"cebpf4jnsgd1na2vs0mg"},{"bike_id":"c4fe5688-a0d8-4193-9808-25ad393342b8","system_id":"levelo_inurba_marseille","lat":43.28932,"lon":5.36636,"is_reserved":false,"is_disabled":false,"rental_uris":{"android":"levelo://app?vid=c4fe5688-a0d8-4193-9808-25ad393342b8","ios":"levelo://app?vid=c4fe5688-a0d8-4193-9808-25ad393342b8"},"vehicle_type_id":"4","last_reported":1739488131,"current_range_meters":13600,"station_id":"ce4bhap2rcd13ifvqek0","pricing_plan_id":"cebpf4jnsgd1na2vs0mg"},{"bike_id":"b3fd0009-bbb7-4e76-a71a-f46e8625ffa6","system_id":"levelo_inurba_marseille","lat":43.2835,"lon":5.38108,"is_reserved":false,"is_disabled":false,"rental_uris":{"android":"levelo://app?vid=b3fd0009-bbb7-4e76-a71a-f46e8625ffa6","ios":"levelo://app?vid=b3fd0009-bbb7-4e76-a71a-f46e8625ffa6"},"vehicle_type_id":"4","last_reported":1739488131,"current_range_meters":24800,"station_id":"ce4bh412rcd13ifvqdr0","pricing_plan_id":"cebpf4jnsgd1na2vs0mg"},{"bike_id":"978ca430-5806-427e-a6a2-e650f48ff5c5","system_id":"levelo_inurba_marseille","lat":43.27996,"lon":5.40014,"is_reserved":false,"is_disabled":false,"rental_uris":{"android":"levelo://app?vid=978ca430-5806-427e-a6a2-e650f48ff5c5","ios":"levelo://app?vid=978ca430-5806-427e-a6a2-e650f48ff5c5"},"vehicle_type_id":"4","last_reported":1739488131,"current_range_meters":24000,"station_id":"ce4bho92rcd13ifvqh4g","pricing_plan_id":"cebpf4jnsgd1na2vs0mg"},{"bike_id":"bb4d395a-845a-4702-857d-85bf095d5271","system_id":"levelo_inurba_marseille","lat":43.29878,"lon":5.39749,"is_reserved":false,"is_disabled":false,"rental_uris":{"android":"levelo://app?vid=bb4d395a-845a-4702-857d-85bf095d5271","ios":"levelo://app?vid=bb4d395a-845a-4702-857d-85bf095d5271"},"vehicle_type_id":"4","last_reported":1739488131,"current_range_meters":38800,"station_id":"ce4bh0h2rcd13ifvqd50","pricing_plan_id":"cebpf4jnsgd1na2vs0mg"},{"bike_id":"0ab7eec2-6119-4907-ba85-b80b32964c1c","system_id":"levelo_inurba_marseille","lat":43.31175,"lon":5.38709,"is_reserved":false,"is_disabled":false,"rental_uris":{"android":"levelo://app?vid=0ab7eec2-6119-4907-ba85-b80b32964c1c","ios":"levelo://app?vid=0ab7eec2-6119-4907-ba85-b80b32964c1c"},"vehicle_type_id":"4","last_reported":1739488131,"current_range_meters":10800,"station_id":"ce4bgv12rcd13ifvqcp0","pricing_plan_id":"cebpf4jnsgd1na2vs0mg"},{"bike_id":"6cfbf51a-4ec4-4b50-afa2-a58eb7355bc4","system_id":"levelo_inurba_marseille","lat":43.32722,"lon":5.39164,"is_reserved":false,"is_disabled":false,"rental_uris":{"android":"levelo://app?vid=6cfbf51a-4ec4-4b50-afa2-a58eb7355bc4","ios":"levelo://app?vid=6cfbf51a-4ec4-4b50-afa2-a58eb7355bc4"},"vehicle_type_id":"4","last_reported":1739488131,"current_range_meters":25600,"station_id":"","pricing_plan_id":"cebpf4jnsgd1na2vs0mg"},{"bike_id":"2ffed822-7174-41f8-ad36-b592fa66c5a6","system_id":"levelo_inurba_marseille","lat":43.23066,"lon":5.35509,"is_reserved":false,"is_disabled":false,"rental_uris":{"android":"levelo://app?vid=2ffed822-7174-41f8-ad36-b592fa66c5a6","ios":"levelo://app?vid=2ffed822-7174-41f8-ad36-b592fa66c5a6"},"vehicle_type_id":"4","last_reported":1739488131,"current_range_meters":8000,"station_id":"cpo3342slgdg3j2ifvpg","pricing_plan_id":"cebpf4jnsgd1na2vs0mg"},{"bike_id":"1f91cd7a-cebf-4ea0-9a53-a7c89148183a","system_id":"levelo_inurba_marseille","lat":43.2466,"lon":5.38165,"is_reserved":false,"is_disabled":false,"rental_uris":{"android":"levelo://app?vid=1f91cd7a-cebf-4ea0-9a53-a7c89148183a","ios":"levelo://app?vid=1f91cd7a-cebf-4ea0-9a53-a7c89148183a"},"vehicle_type_id":"4","last_reported":1739488131,"current_range_meters":14400,"station_id":"ce4bhih2rcd13ifvqfr0","pricing_plan_id":"cebpf4jnsgd1na2vs0mg"},{"bike_id":"90069231-8d02-46fd-ba3f-d8e7e83900ee","system_id":"levelo_inurba_marseille","lat":43.28835,"lon":5.43821,"is_reserved":false,"is_disabled":true,"rental_uris":{"android":"levelo://app?vid=90069231-8d02-46fd-ba3f-d8e7e83900ee","ios":"levelo://app?vid=90069231-8d02-46fd-ba3f-d8e7e83900ee"},"vehicle_type_id":"4","last_reported":1739488131,"current_range_meters":0,"station_id":"","pricing_plan_id":"cebpf4jnsgd1na2vs0mg"},{"bike_id":"9d249881-5a15-4231-8a5b-9e0b021f19d2","system_id":"levelo_inurba_marseille","lat":43.27963,"lon":5.38712,"is_reserved":false,"is_disabled":true,"rental_uris":{"android":"levelo://app?vid=9d249881-5a15-4231-8a5b-9e0b021f19d2","ios":"levelo://app?vid=9d249881-5a15-4231-8a5b-9e0b021f19d2"},"vehicle_type_id":"4","last_reported":1739488131,"current_range_meters":34000,"station_id":"ce4bhg12rcd13ifvqf80","pricing_plan_id":"cebpf4jnsgd1na2vs0mg"},{"bike_id":"d9a997f1-9b9a-40fb-8842-705205b91da2","system_id":"levelo_inurba_marseille","lat":43.31708,"lon":5.37728,"is_reserved":false,"is_disabled":false,"rental_uris":{"android":"levelo://app?vid=d9a997f1-9b9a-40fb-8842-705205b91da2","ios":"levelo://app?vid=d9a997f1-9b9a-40fb-8842-705205b91da2"},"vehicle_type_id":"4","last_reported":1739488131,"current_range_meters":38800,"station_id":"ce4bgth2rcd13ifvqch0","pricing_plan_id":"cebpf4jnsgd1na2vs0mg"},{"bike_id":"21af4f6e-7ea6-4d16-a6b7-895889e3fb75","system_id":"levelo_inurba_marseille","lat":43.31006,"lon":5.38366,"is_reserved":false,"is_disabled":false,"rental_uris":{"android":"levelo://app?vid=21af4f6e-7ea6-4d16-a6b7-895889e3fb75","ios":"levelo://app?vid=21af4f6e-7ea6-4d16-a6b7-895889e3fb75"},"vehicle_type_id":"4","last_reported":1739488131,"current_range_meters":38800,"station_id":"ce4bgv92rcd13ifvqcr0","pricing_plan_id":"cebpf4jnsgd1na2vs0mg"},{"bike_id":"8878e5e8-e13c-4318-b499-fd415887d7cd","system_id":"levelo_inurba_marseille","lat":43.23966,"lon":5.36642,"is_reserved":false,"is_disabled":false,"rental_uris":{"android":"levelo://app?vid=8878e5e8-e13c-4318-b499-fd415887d7cd","ios":"levelo://app?vid=8878e5e8-e13c-4318-b499-fd415887d7cd"},"vehicle_type_id":"4","last_reported":1739488131,"current_range_meters":6000,"station_id":"ce4bhi12rcd13ifvqfp0","pricing_plan_id":"cebpf4jnsgd1na2vs0mg"},{"bike_id":"d6d61c8e-dde7-465e-9168-1931099a05b8","system_id":"levelo_inurba_marseille","lat":43.28737,"lon":5.36074,"is_reserved":false,"is_disabled":false,"rental_uris":{"android":"levelo://app?vid=d6d61c8e-dde7-465e-9168-1931099a05b8","ios":"levelo://app?vid=d6d61c8e-dde7-465e-9168-1931099a05b8"},"vehicle_type_id":"4","last_reported":1739488131,"current_range_meters":9600,"station_id":"cki0cbj6b192h4jlfktg","pricing_plan_id":"cebpf4jnsgd1na2vs0mg"},{"bike_id":"722c03d4-5f09-4a1d-bb2e-829c66405a32","system_id":"levelo_inurba_marseille","lat":43.27929,"lon":5.39579,"is_reserved":false,"is_disabled":true,"rental_uris":{"android":"levelo://app?vid=722c03d4-5f09-4a1d-bb2e-829c66405a32","ios":"levelo://app?vid=722c03d4-5f09-4a1d-bb2e-829c66405a32"},"vehicle_type_id":"4","last_reported":1739488131,"current_range_meters":38000,"station_id":"ce4bhf92rcd13ifvqf40","pricing_plan_id":"cebpf4jnsgd1na2vs0mg"},{"bike_id":"8f4abdc5-190d-46ac-8bfa-22d4a516235b","system_id":"levelo_inurba_marseille","lat":43.31354,"lon":5.38491,"is_reserved":false,"is_disabled":false,"rental_uris":{"android":"levelo://app?vid=8f4abdc5-190d-46ac-8bfa-22d4a516235b","ios":"levelo://app?vid=8f4abdc5-190d-46ac-8bfa-22d4a516235b"},"vehicle_type_id":"4","last_reported":1739488131,"current_range_meters":24800,"station_id":"ce4bgt92rcd13ifvqcf0","pricing_plan_id":"cebpf4jnsgd1na2vs0mg"},{"bike_id":"7f2dd42c-3edf-4bbd-9cda-b1ba7205dd9c","system_id":"levelo_inurba_marseille","lat":43.26491,"lon":5.39552,"is_reserved":false,"is_disabled":false,"rental_uris":{"android":"levelo://app?vid=7f2dd42c-3edf-4bbd-9cda-b1ba7205dd9c","ios":"levelo://app?vid=7f2dd42c-3edf-4bbd-9cda-b1ba7205dd9c"},"vehicle_type_id":"4","last_reported":1739488131,"current_range_meters":15200,"station_id":"ce4bhi12rcd13ifvqfq0","pricing_plan_id":"cebpf4jnsgd1na2vs0mg"},{"bike_id":"883a41ef-5b2f-4887-a49d-ab0d96979872","system_id":"levelo_inurba_marseille","lat":43.28618,"lon":5.35112,"is_reserved":false,"is_disabled":false,"rental_uris":{"android":"levelo://app?vid=883a41ef-5b2f-4887-a49d-ab0d96979872","ios":"levelo://app?vid=883a41ef-5b2f-4887-a49d-ab0d96979872"},"vehicle_type_id":"4","last_reported":1739488131,"current_range_meters":36000,"station_id":"ce4bhch2rcd13ifvqeug","pricing_plan_id":"cebpf4jnsgd1na2vs0mg"},{"bike_id":"00d56cf1-086d-4634-a590-acaef2a38372","system_id":"levelo_inurba_marseille","lat":43.26058,"lon":5.394,"is_reserved":false,"is_disabled":false,"rental_uris":{"android":"levelo://app?vid=00d56cf1-086d-4634-a590-acaef2a38372","ios":"levelo://app?vid=00d56cf1-086d-4634-a590-acaef2a38372"},"vehicle_type_id":"4","last_reported":1739488131,"current_range_meters":38800,"station_id":"ce4bhh92rcd13ifvqfj0","pricing_plan_id":"cebpf4jnsgd1na2vs0mg"},{"bike_id":"f502111f-7748-48e8-918b-58ab12805627","system_id":"levelo_inurba_marseille","lat":43.2794,"lon":5.41044,"is_reserved":false,"is_disabled":false,"rental_uris":{"android":"levelo://app?vid=f502111f-7748-48e8-918b-58ab12805627","ios":"levelo://app?vid=f502111f-7748-48e8-918b-58ab12805627"},"vehicle_type_id":"4","last_reported":1739488131,"current_range_meters":38800,"station_id":"ce4bhnp2rcd13ifvqh0g","pricing_plan_id":"cebpf4jnsgd1na2vs0mg"},{"bike_id":"03179e40-b791-4056-97b4-8250e7d749cb","system_id":"levelo_inurba_marseille","lat":43.24807,"lon":5.37459,"is_reserved":false,"is_disabled":false,"rental_uris":{"android":"levelo://app?vid=03179e40-b791-4056-97b4-8250e7d749cb","ios":"levelo://app?vid=03179e40-b791-4056-97b4-8250e7d749cb"},"vehicle_type_id":"4","last_reported":1739488131,"current_range_meters":38400,"station_id":"ce4bhgh2rcd13ifvqfb0","pricing_plan_id":"cebpf4jnsgd1na2vs0mg"},{"bike_id":"9d6eef78-3009-46b3-ad92-7455b95e4c94","system_id":"levelo_inurba_marseille","lat":43.29261,"lon":5.38449,"is_reserved":false,"is_disabled":false,"rental_uris":{"android":"levelo://app?vid=9d6eef78-3009-46b3-ad92-7455b95e4c94","ios":"levelo://app?vid=9d6eef78-3009-46b3-ad92-7455b95e4c94"},"vehicle_type_id":"4","last_reported":1739488131,"current_range_meters":25200,"station_id":"ce4bh692rcd13ifvqea0","pricing_plan_id":"cebpf4jnsgd1na2vs0mg"},{"bike_id":"60b4b24c-997c-42e2-b2f9-ef7d673c1e51","system_id":"levelo_inurba_marseille","lat":43.28467,"lon":5.35903,"is_reserved":false,"is_disabled":false,"rental_uris":{"android":"levelo://app?vid=60b4b24c-997c-42e2-b2f9-ef7d673c1e51","ios":"levelo://app?vid=60b4b24c-997c-42e2-b2f9-ef7d673c1e51"},"vehicle_type_id":"4","last_reported":1739488131,"current_range_meters":27200,"station_id":"ce4bhah2rcd13ifvqei0","pricing_plan_id":"cebpf4jnsgd1na2vs0mg"},{"bike_id":"68563780-e76c-44b3-9559-8353f8de7cb4","system_id":"levelo_inurba_marseille","lat":43.29568,"lon":5.39978,"is_reserved":false,"is_disabled":false,"rental_uris":{"android":"levelo://app?vid=68563780-e76c-44b3-9559-8353f8de7cb4","ios":"levelo://app?vid=68563780-e76c-44b3-9559-8353f8de7cb4"},"vehicle_type_id":"4","last_reported":1739488131,"current_range_meters":30000,"station_id":"ce4bh312rcd13ifvqdj0","pricing_plan_id":"cebpf4jnsgd1na2vs0mg"},{"bike_id":"2c4c9794-3113-479b-acab-d5ef09e3a308","system_id":"levelo_inurba_marseille","lat":43.29191,"lon":5.35806,"is_reserved":false,"is_disabled":false,"rental_uris":{"android":"levelo://app?vid=2c4c9794-3113-479b-acab-d5ef09e3a308","ios":"levelo://app?vid=2c4c9794-3113-479b-acab-d5ef09e3a308"},"vehicle_type_id":"4","last_reported":1739488131,"current_range_meters":31200,"station_id":"ce4bhb12rcd13ifvqel0","pricing_plan_id":"cebpf4jnsgd1na2vs0mg"},{"bike_id":"cf586230-3e5f-4695-8a1a-0a97e8ca5b40","system_id":"levelo_inurba_marseille","lat":43.298676,"lon":5.371216,"is_reserved":false,"is_disabled":false,"rental_uris":{"android":"levelo://app?vid=cf586230-3e5f-4695-8a1a-0a97e8ca5b40","ios":"levelo://app?vid=cf586230-3e5f-4695-8a1a-0a97e8ca5b40"},"vehicle_type_id":"4","last_reported":1739488131,"current_range_meters":29600,"station_id":"ce4bgop2rcd13ifvqc1g","pricing_plan_id":"cebpf4jnsgd1na2vs0mg"},{"bike_id":"f03e1547-f230-41cd-bdb5-f560a89b1a9d","system_id":"levelo_inurba_marseille","lat":43.28465,"lon":5.35892,"is_reserved":false,"is_disabled":false,"rental_uris":{"android":"levelo://app?vid=f03e1547-f230-41cd-bdb5-f560a89b1a9d","ios":"levelo://app?vid=f03e1547-f230-41cd-bdb5-f560a89b1a9d"},"vehicle_type_id":"4","last_reported":1739488131,"current_range_meters":39200,"station_id":"ce4bhah2rcd13ifvqei0","pricing_plan_id":"cebpf4jnsgd1na2vs0mg"},{"bike_id":"4d77db09-905c-49b4-96d1-a6c7bd4303b6","system_id":"levelo_inurba_marseille","lat":43.27383,"lon":5.36263,"is_reserved":false,"is_disabled":false,"rental_uris":{"android":"levelo://app?vid=4d77db09-905c-49b4-96d1-a6c7bd4303b6","ios":"levelo://app?vid=4d77db09-905c-49b4-96d1-a6c7bd4303b6"},"vehicle_type_id":"4","last_reported":1739488131,"current_range_meters":32400,"station_id":"ce4bhbh2rcd13ifvqeo0","pricing_plan_id":"cebpf4jnsgd1na2vs0mg"},{"bike_id":"d11b0b08-9f51-4e8d-a22a-eff7c43afd04","system_id":"levelo_inurba_marseille","lat":43.29197,"lon":5.35808,"is_reserved":false,"is_disabled":false,"rental_uris":{"android":"levelo://app?vid=d11b0b08-9f51-4e8d-a22a-eff7c43afd04","ios":"levelo://app?vid=d11b0b08-9f51-4e8d-a22a-eff7c43afd04"},"vehicle_type_id":"4","last_reported":1739488131,"current_range_meters":25600,"station_id":"ce4bhb12rcd13ifvqel0","pricing_plan_id":"cebpf4jnsgd1na2vs0mg"},{"bike_id":"79e5ad63-abd5-4d07-9e51-60dc9e7253cd","system_id":"levelo_inurba_marseille","lat":43.23185,"lon":5.40015,"is_reserved":false,"is_disabled":true,"rental_uris":{"android":"levelo://app?vid=79e5ad63-abd5-4d07-9e51-60dc9e7253cd","ios":"levelo://app?vid=79e5ad63-abd5-4d07-9e51-60dc9e7253cd"},"vehicle_type_id":"4","last_reported":1739488131,"current_range_meters":0,"station_id":"ce4bhn12rcd13ifvqgqg","pricing_plan_id":"cebpf4jnsgd1na2vs0mg"},{"bike_id":"c06925ce-0394-4a81-8fe3-dde101d115e8","system_id":"levelo_inurba_marseille","lat":43.29503,"lon":5.3905,"is_reserved":false,"is_disabled":false,"rental_uris":{"android":"levelo://app?vid=c06925ce-0394-4a81-8fe3-dde101d115e8","ios":"levelo://app?vid=c06925ce-0394-4a81-8fe3-dde101d115e8"},"vehicle_type_id":"4","last_reported":1739488131,"current_range_meters":38000,"station_id":"ce4bh3p2rcd13ifvqdp0","pricing_plan_id":"cebpf4jnsgd1na2vs0mg"},{"bike_id":"492e558b-0ce5-4984-b6b1-1d33f225a96b","system_id":"levelo_inurba_marseille","lat":43.24167,"lon":5.36403,"is_reserved":false,"is_disabled":false,"rental_uris":{"android":"levelo://app?vid=492e558b-0ce5-4984-b6b1-1d33f225a96b","ios":"levelo://app?vid=492e558b-0ce5-4984-b6b1-1d33f225a96b"},"vehicle_type_id":"4","last_reported":1739488131,"current_range_meters":38800,"station_id":"cpo36qri1sfpv3e86is0","pricing_plan_id":"cebpf4jnsgd1na2vs0mg"},{"bike_id":"6bf99e3e-9f10-4617-93f9-2e16108e33a0","system_id":"levelo_inurba_marseille","lat":43.23153,"lon":5.43705,"is_reserved":false,"is_disabled":false,"rental_uris":{"android":"levelo://app?vid=6bf99e3e-9f10-4617-93f9-2e16108e33a0","ios":"levelo://app?vid=6bf99e3e-9f10-4617-93f9-2e16108e33a0"},"vehicle_type_id":"4","last_reported":1739488131,"current_range_meters":38800,"station_id":"ce4bhmp2rcd13ifvqgog","pricing_plan_id":"cebpf4jnsgd1na2vs0mg"},{"bike_id":"069b441a-3fd9-4959-8a02-ec410f21c709","system_id":"levelo_inurba_marseille","lat":43.28923,"lon":5.36648,"is_reserved":false,"is_disabled":false,"rental_uris":{"android":"levelo://app?vid=069b441a-3fd9-4959-8a02-ec410f21c709","ios":"levelo://app?vid=069b441a-3fd9-4959-8a02-ec410f21c709"},"vehicle_type_id":"4","last_reported":1739488131,"current_range_meters":15200,"station_id":"ce4bhap2rcd13ifvqek0","pricing_plan_id":"cebpf4jnsgd1na2vs0mg"},{"bike_id":"6c95b6a2-01e2-455d-afce-e4902b73efd5","system_id":"levelo_inurba_marseille","lat":43.31193,"lon":5.36864,"is_reserved":false,"is_disabled":false,"rental_uris":{"android":"levelo://app?vid=6c95b6a2-01e2-455d-afce-e4902b73efd5","ios":"levelo://app?vid=6c95b6a2-01e2-455d-afce-e4902b73efd5"},"vehicle_type_id":"4","last_reported":1739488131,"current_range_meters":39200,"station_id":"ce4bgl92rcd13ifvqbq0","pricing_plan_id":"cebpf4jnsgd1na2vs0mg"},{"bike_id":"df3239c2-e012-4d37-a9dc-86e6bb00d774","system_id":"levelo_inurba_marseille","lat":43.28695,"lon":5.37394,"is_reserved":false,"is_disabled":false,"rental_uris":{"android":"levelo://app?vid=df3239c2-e012-4d37-a9dc-86e6bb00d774","ios":"levelo://app?vid=df3239c2-e012-4d37-a9dc-86e6bb00d774"},"vehicle_type_id":"4","last_reported":1739488131,"current_range_meters":35200,"station_id":"ce4bh3p2rcd13ifvqdq0","pricing_plan_id":"cebpf4jnsgd1na2vs0mg"},{"bike_id":"3e364230-e791-4719-a976-7d1bf64b79a1","system_id":"levelo_inurba_marseille","lat":43.3122,"lon":5.36867,"is_reserved":false,"is_disabled":true,"rental_uris":{"android":"levelo://app?vid=3e364230-e791-4719-a976-7d1bf64b79a1","ios":"levelo://app?vid=3e364230-e791-4719-a976-7d1bf64b79a1"},"vehicle_type_id":"4","last_reported":1739488131,"current_range_meters":0,"station_id":"ce4bgl92rcd13ifvqbq0","pricing_plan_id":"cebpf4jnsgd1na2vs0mg"},{"bike_id":"ff489825-db76-49d3-aa98-c1c0aaa6bdad","system_id":"levelo_inurba_marseille","lat":43.29225,"lon":5.36654,"is_reserved":false,"is_disabled":false,"rental_uris":{"android":"levelo://app?vid=ff489825-db76-49d3-aa98-c1c0aaa6bdad","ios":"levelo://app?vid=ff489825-db76-49d3-aa98-c1c0aaa6bdad"},"vehicle_type_id":"4","last_reported":1739488131,"current_range_meters":8400,"station_id":"","pricing_plan_id":"cebpf4jnsgd1na2vs0mg"},{"bike_id":"a543984a-deb5-4bc0-b775-35cece19d6bf","system_id":"levelo_inurba_marseille","lat":43.30537,"lon":5.38443,"is_reserved":false,"is_disabled":false,"rental_uris":{"android":"levelo://app?vid=a543984a-deb5-4bc0-b775-35cece19d6bf","ios":"levelo://app?vid=a543984a-deb5-4bc0-b775-35cece19d6bf"},"vehicle_type_id":"4","last_reported":1739488131,"current_range_meters":33200,"station_id":"ce4bgg92rcd13ifvqb30","pricing_plan_id":"cebpf4jnsgd1na2vs0mg"},{"bike_id":"b05188c1-c27a-4360-a55b-799ca6e034cf","system_id":"levelo_inurba_marseille","lat":43.28027,"lon":5.36946,"is_reserved":false,"is_disabled":false,"rental_uris":{"android":"levelo://app?vid=b05188c1-c27a-4360-a55b-799ca6e034cf","ios":"levelo://app?vid=b05188c1-c27a-4360-a55b-799ca6e034cf"},"vehicle_type_id":"4","last_reported":1739488131,"current_range_meters":12000,"station_id":"ce4bha12rcd13ifvqef0","pricing_plan_id":"cebpf4jnsgd1na2vs0mg"},{"bike_id":"bace8bf9-f802-4769-a1ab-149feec80afe","system_id":"levelo_inurba_marseille","lat":43.28856,"lon":5.35854,"is_reserved":false,"is_disabled":false,"rental_uris":{"android":"levelo://app?vid=bace8bf9-f802-4769-a1ab-149feec80afe","ios":"levelo://app?vid=bace8bf9-f802-4769-a1ab-149feec80afe"},"vehicle_type_id":"4","last_reported":1739488131,"current_range_meters":38000,"station_id":"ce4bhb12rcd13ifvqem0","pricing_plan_id":"cebpf4jnsgd1na2vs0mg"},{"bike_id":"12a05f82-38e9-4838-b031-b182163447ac","system_id":"levelo_inurba_marseille","lat":43.30207,"lon":5.39483,"is_reserved":false,"is_disabled":false,"rental_uris":{"android":"levelo://app?vid=12a05f82-38e9-4838-b031-b182163447ac","ios":"levelo://app?vid=12a05f82-38e9-4838-b031-b182163447ac"},"vehicle_type_id":"4","last_reported":1739488131,"current_range_meters":39200,"station_id":"ce4bh0p2rcd13ifvqd70","pricing_plan_id":"cebpf4jnsgd1na2vs0mg"},{"bike_id":"af7ae1e3-87b2-4cd3-9b8f-a973c351af89","system_id":"levelo_inurba_marseille","lat":43.23187,"lon":5.39979,"is_reserved":false,"is_disabled":false,"rental_uris":{"android":"levelo://app?vid=af7ae1e3-87b2-4cd3-9b8f-a973c351af89","ios":"levelo://app?vid=af7ae1e3-87b2-4cd3-9b8f-a973c351af89"},"vehicle_type_id":"4","last_reported":1739488131,"current_range_meters":36400,"station_id":"ce4bhn12rcd13ifvqgqg","pricing_plan_id":"cebpf4jnsgd1na2vs0mg"},{"bike_id":"004dcd9f-fe33-47bd-93fa-19bdccc4b89f","system_id":"levelo_inurba_marseille","lat":43.251181,"lon":5.403092,"is_reserved":false,"is_disabled":false,"rental_uris":{"android":"levelo://app?vid=004dcd9f-fe33-47bd-93fa-19bdccc4b89f","ios":"levelo://app?vid=004dcd9f-fe33-47bd-93fa-19bdccc4b89f"},"vehicle_type_id":"4","last_reported":1739488131,"current_range_meters":39200,"station_id":"ce4bhm12rcd13ifvqgkg","pricing_plan_id":"cebpf4jnsgd1na2vs0mg"},{"bike_id":"4dbc26c6-2a15-45e7-b1cd-4e0586d88b2f","system_id":"levelo_inurba_marseille","lat":43.27387,"lon":5.36262,"is_reserved":false,"is_disabled":true,"rental_uris":{"android":"levelo://app?vid=4dbc26c6-2a15-45e7-b1cd-4e0586d88b2f","ios":"levelo://app?vid=4dbc26c6-2a15-45e7-b1cd-4e0586d88b2f"},"vehicle_type_id":"4","last_reported":1739488131,"current_range_meters":36800,"station_id":"ce4bhbh2rcd13ifvqeo0","pricing_plan_id":"cebpf4jnsgd1na2vs0mg"},{"bike_id":"2a8d5b38-12c7-43ca-969a-fe7b4ef5b359","system_id":"levelo_inurba_marseille","lat":43.31695,"lon":5.37771,"is_reserved":false,"is_disabled":true,"rental_uris":{"android":"levelo://app?vid=2a8d5b38-12c7-43ca-969a-fe7b4ef5b359","ios":"levelo://app?vid=2a8d5b38-12c7-43ca-969a-fe7b4ef5b359"},"vehicle_type_id":"4","last_reported":1739488131,"current_range_meters":800,"station_id":"ce4bgth2rcd13ifvqch0","pricing_plan_id":"cebpf4jnsgd1na2vs0mg"},{"bike_id":"00f8a0ff-c4e3-42da-8103-f17cc4b1ba0d","system_id":"levelo_inurba_marseille","lat":43.28149,"lon":5.42646,"is_reserved":false,"is_disabled":false,"rental_uris":{"android":"levelo://app?vid=00f8a0ff-c4e3-42da-8103-f17cc4b1ba0d","ios":"levelo://app?vid=00f8a0ff-c4e3-42da-8103-f17cc4b1ba0d"},"vehicle_type_id":"4","last_reported":1739488131,"current_range_meters":20000,"station_id":"ce4bhnh2rcd13ifvqgug","pricing_plan_id":"cebpf4jnsgd1na2vs0mg"},{"bike_id":"25ffdaf5-3aef-400e-8a8d-8b1df7901e6b","system_id":"levelo_inurba_marseille","lat":43.29909,"lon":5.37465,"is_reserved":false,"is_disabled":true,"rental_uris":{"android":"levelo://app?vid=25ffdaf5-3aef-400e-8a8d-8b1df7901e6b","ios":"levelo://app?vid=25ffdaf5-3aef-400e-8a8d-8b1df7901e6b"},"vehicle_type_id":"4","last_reported":1739488131,"current_range_meters":0,"station_id":"ce4bgjh2rcd13ifvqbg0","pricing_plan_id":"cebpf4jnsgd1na2vs0mg"},{"bike_id":"d7211194-703e-4d7b-b1fc-6a1467a41aa6","system_id":"levelo_inurba_marseille","lat":43.2803,"lon":5.36939,"is_reserved":false,"is_disabled":false,"rental_uris":{"android":"levelo://app?vid=d7211194-703e-4d7b-b1fc-6a1467a41aa6","ios":"levelo://app?vid=d7211194-703e-4d7b-b1fc-6a1467a41aa6"},"vehicle_type_id":"4","last_reported":1739488131,"current_range_meters":38000,"station_id":"ce4bha12rcd13ifvqef0","pricing_plan_id":"cebpf4jnsgd1na2vs0mg"},{"bike_id":"5429a055-5c17-4863-ac08-ee7234bc7af8","system_id":"levelo_inurba_marseille","lat":43.32277,"lon":5.36834,"is_reserved":false,"is_disabled":false,"rental_uris":{"android":"levelo://app?vid=5429a055-5c17-4863-ac08-ee7234bc7af8","ios":"levelo://app?vid=5429a055-5c17-4863-ac08-ee7234bc7af8"},"vehicle_type_id":"4","last_reported":1739488131,"current_range_meters":38800,"station_id":"","pricing_plan_id":"cebpf4jnsgd1na2vs0mg"},{"bike_id":"9183921d-8e97-4c4b-a98e-67fb34e43b27","system_id":"levelo_inurba_marseille","lat":43.28623,"lon":5.35111,"is_reserved":false,"is_disabled":false,"rental_uris":{"android":"levelo://app?vid=9183921d-8e97-4c4b-a98e-67fb34e43b27","ios":"levelo://app?vid=9183921d-8e97-4c4b-a98e-67fb34e43b27"},"vehicle_type_id":"4","last_reported":1739488131,"current_range_meters":14000,"station_id":"ce4bhch2rcd13ifvqeug","pricing_plan_id":"cebpf4jnsgd1na2vs0mg"},{"bike_id":"e067571b-67a4-4767-99d2-aec18283f7e1","system_id":"levelo_inurba_marseille","lat":43.29627,"lon":5.37147,"is_reserved":false,"is_disabled":true,"rental_uris":{"android":"levelo://app?vid=e067571b-67a4-4767-99d2-aec18283f7e1","ios":"levelo://app?vid=e067571b-67a4-4767-99d2-aec18283f7e1"},"vehicle_type_id":"4","last_reported":1739488131,"current_range_meters":38800,"station_id":"ce4bgnh2rcd13ifvqc0g","pricing_plan_id":"cebpf4jnsgd1na2vs0mg"},{"bike_id":"acc39daa-3a4d-4c95-b5a8-16360a611402","system_id":"levelo_inurba_marseille","lat":43.29633,"lon":5.37174,"is_reserved":false,"is_disabled":true,"rental_uris":{"android":"levelo://app?vid=acc39daa-3a4d-4c95-b5a8-16360a611402","ios":"levelo://app?vid=acc39daa-3a4d-4c95-b5a8-16360a611402"},"vehicle_type_id":"4","last_reported":1739488131,"current_range_meters":37600,"station_id":"ce4bgnh2rcd13ifvqc0g","pricing_plan_id":"cebpf4jnsgd1na2vs0mg"},{"bike_id":"859c79c3-9c5b-47b3-94ad-94355d1f1457","system_id":"levelo_inurba_marseille","lat":43.24389,"lon":5.37062,"is_reserved":false,"is_disabled":false,"rental_uris":{"android":"levelo://app?vid=859c79c3-9c5b-47b3-94ad-94355d1f1457","ios":"levelo://app?vid=859c79c3-9c5b-47b3-94ad-94355d1f1457"},"vehicle_type_id":"4","last_reported":1739488131,"current_range_meters":16400,"station_id":"ce4bhhh2rcd13ifvqfk0","pricing_plan_id":"cebpf4jnsgd1na2vs0mg"},{"bike_id":"73858e40-321a-4358-ab0d-e21e94dd41fd","system_id":"levelo_inurba_marseille","lat":43.30787,"lon":5.37647,"is_reserved":false,"is_disabled":false,"rental_uris":{"android":"levelo://app?vid=73858e40-321a-4358-ab0d-e21e94dd41fd","ios":"levelo://app?vid=73858e40-321a-4358-ab0d-e21e94dd41fd"},"vehicle_type_id":"4","last_reported":1739488131,"current_range_meters":14000,"station_id":"ce4bgv92rcd13ifvqcq0","pricing_plan_id":"cebpf4jnsgd1na2vs0mg"},{"bike_id":"a1505b08-87f3-4069-b8b4-96ee939f9b94","system_id":"levelo_inurba_marseille","lat":43.31756,"lon":5.39018,"is_reserved":false,"is_disabled":false,"rental_uris":{"android":"levelo://app?vid=a1505b08-87f3-4069-b8b4-96ee939f9b94","ios":"levelo://app?vid=a1505b08-87f3-4069-b8b4-96ee939f9b94"},"vehicle_type_id":"4","last_reported":1739488131,"current_range_meters":3600,"station_id":"ce4bhqp2rcd13ifvqhng","pricing_plan_id":"cebpf4jnsgd1na2vs0mg"},{"bike_id":"1d8204d6-20f6-4a8f-ba07-0c1be05b8057","system_id":"levelo_inurba_marseille","lat":43.31725,"lon":5.42397,"is_reserved":false,"is_disabled":false,"rental_uris":{"android":"levelo://app?vid=1d8204d6-20f6-4a8f-ba07-0c1be05b8057","ios":"levelo://app?vid=1d8204d6-20f6-4a8f-ba07-0c1be05b8057"},"vehicle_type_id":"4","last_reported":1739488131,"current_range_meters":38000,"station_id":"ce4bhp92rcd13ifvqhbg","pricing_plan_id":"cebpf4jnsgd1na2vs0mg"},{"bike_id":"0e7b7964-ea54-42c5-bc2b-8ebf34f8cbe5","system_id":"levelo_inurba_marseille","lat":43.27604,"lon":5.36107,"is_reserved":false,"is_disabled":false,"rental_uris":{"android":"levelo://app?vid=0e7b7964-ea54-42c5-bc2b-8ebf34f8cbe5","ios":"levelo://app?vid=0e7b7964-ea54-42c5-bc2b-8ebf34f8cbe5"},"vehicle_type_id":"4","last_reported":1739488131,"current_range_meters":30800,"station_id":"ce4bgj92rcd13ifvqbe0","pricing_plan_id":"cebpf4jnsgd1na2vs0mg"},{"bike_id":"90713628-a9a7-4e90-bdb0-82ab5f1a7cc8","system_id":"levelo_inurba_marseille","lat":43.30252,"lon":5.4006,"is_reserved":false,"is_disabled":false,"rental_uris":{"android":"levelo://app?vid=90713628-a9a7-4e90-bdb0-82ab5f1a7cc8","ios":"levelo://app?vid=90713628-a9a7-4e90-bdb0-82ab5f1a7cc8"},"vehicle_type_id":"4","last_reported":1739488131,"current_range_meters":18000,"station_id":"ce4bgvh2rcd13ifvqcs0","pricing_plan_id":"cebpf4jnsgd1na2vs0mg"},{"bike_id":"461adab4-122d-4728-a5a3-e5e54925a223","system_id":"levelo_inurba_marseille","lat":43.2951,"lon":5.39039,"is_reserved":false,"is_disabled":false,"rental_uris":{"android":"levelo://app?vid=461adab4-122d-4728-a5a3-e5e54925a223","ios":"levelo://app?vid=461adab4-122d-4728-a5a3-e5e54925a223"},"vehicle_type_id":"4","last_reported":1739488131,"current_range_meters":28800,"station_id":"ce4bh3p2rcd13ifvqdp0","pricing_plan_id":"cebpf4jnsgd1na2vs0mg"},{"bike_id":"ef7ec514-7320-436f-a10e-c1bbd9633915","system_id":"levelo_inurba_marseille","lat":43.29909,"lon":5.38149,"is_reserved":false,"is_disabled":false,"rental_uris":{"android":"levelo://app?vid=ef7ec514-7320-436f-a10e-c1bbd9633915","ios":"levelo://app?vid=ef7ec514-7320-436f-a10e-c1bbd9633915"},"vehicle_type_id":"4","last_reported":1739488131,"current_range_meters":14400,"station_id":"ce4bgj12rcd13ifvqbc0","pricing_plan_id":"cebpf4jnsgd1na2vs0mg"},{"bike_id":"a40e6477-f581-46a3-9649-1a7492848197","system_id":"levelo_inurba_marseille","lat":43.31893,"lon":5.4073,"is_reserved":false,"is_disabled":false,"rental_uris":{"android":"levelo://app?vid=a40e6477-f581-46a3-9649-1a7492848197","ios":"levelo://app?vid=a40e6477-f581-46a3-9649-1a7492848197"},"vehicle_type_id":"4","last_reported":1739488131,"current_range_meters":14000,"station_id":"ce4bhq12rcd13ifvqhig","pricing_plan_id":"cebpf4jnsgd1na2vs0mg"},{"bike_id":"d6f38d8d-bb5a-4b27-b5d4-6029f0946ece","system_id":"levelo_inurba_marseille","lat":43.27475,"lon":5.43545,"is_reserved":false,"is_disabled":false,"rental_uris":{"android":"levelo://app?vid=d6f38d8d-bb5a-4b27-b5d4-6029f0946ece","ios":"levelo://app?vid=d6f38d8d-bb5a-4b27-b5d4-6029f0946ece"},"vehicle_type_id":"4","last_reported":1739488131,"current_range_meters":10800,"station_id":"","pricing_plan_id":"cebpf4jnsgd1na2vs0mg"},{"bike_id":"537454ac-80e7-4925-a511-c1d8a661a1ca","system_id":"levelo_inurba_marseille","lat":43.28443,"lon":5.39192,"is_reserved":false,"is_disabled":false,"rental_uris":{"android":"levelo://app?vid=537454ac-80e7-4925-a511-c1d8a661a1ca","ios":"levelo://app?vid=537454ac-80e7-4925-a511-c1d8a661a1ca"},"vehicle_type_id":"4","last_reported":1739488131,"current_range_meters":38800,"station_id":"ce4bhoh2rcd13ifvqh5g","pricing_plan_id":"cebpf4jnsgd1na2vs0mg"},{"bike_id":"9e8fe326-5d76-4691-9e64-acf86b994dab","system_id":"levelo_inurba_marseille","lat":43.27617,"lon":5.36111,"is_reserved":false,"is_disabled":false,"rental_uris":{"android":"levelo://app?vid=9e8fe326-5d76-4691-9e64-acf86b994dab","ios":"levelo://app?vid=9e8fe326-5d76-4691-9e64-acf86b994dab"},"vehicle_type_id":"4","last_reported":1739488131,"current_range_meters":29600,"station_id":"ce4bgj92rcd13ifvqbe0","pricing_plan_id":"cebpf4jnsgd1na2vs0mg"},{"bike_id":"eb74081f-8035-495f-a073-abb8444b5eb2","system_id":"levelo_inurba_marseille","lat":43.2396,"lon":5.366262,"is_reserved":false,"is_disabled":false,"rental_uris":{"android":"levelo://app?vid=eb74081f-8035-495f-a073-abb8444b5eb2","ios":"levelo://app?vid=eb74081f-8035-495f-a073-abb8444b5eb2"},"vehicle_type_id":"4","last_reported":1739488131,"current_range_meters":38000,"station_id":"ce4bhi12rcd13ifvqfp0","pricing_plan_id":"cebpf4jnsgd1na2vs0mg"},{"bike_id":"213e7ed3-b6c6-470c-8e37-ca6ffb58bff8","system_id":"levelo_inurba_marseille","lat":43.27486,"lon":5.42461,"is_reserved":false,"is_disabled":true,"rental_uris":{"android":"levelo://app?vid=213e7ed3-b6c6-470c-8e37-ca6ffb58bff8","ios":"levelo://app?vid=213e7ed3-b6c6-470c-8e37-ca6ffb58bff8"},"vehicle_type_id":"4","last_reported":1739488131,"current_range_meters":26800,"station_id":"ce4bhn92rcd13ifvqgrg","pricing_plan_id":"cebpf4jnsgd1na2vs0mg"},{"bike_id":"9e9a6714-3fc9-40fa-9906-8520375a2b7c","system_id":"levelo_inurba_marseille","lat":43.23141,"lon":5.43746,"is_reserved":false,"is_disabled":false,"rental_uris":{"android":"levelo://app?vid=9e9a6714-3fc9-40fa-9906-8520375a2b7c","ios":"levelo://app?vid=9e9a6714-3fc9-40fa-9906-8520375a2b7c"},"vehicle_type_id":"4","last_reported":1739488131,"current_range_meters":39200,"station_id":"ce4bhmp2rcd13ifvqgog","pricing_plan_id":"cebpf4jnsgd1na2vs0mg"},{"bike_id":"861e94fe-13dc-4381-880a-a34620fe78bc","system_id":"levelo_inurba_marseille","lat":43.31537,"lon":5.38046,"is_reserved":false,"is_disabled":false,"rental_uris":{"android":"levelo://app?vid=861e94fe-13dc-4381-880a-a34620fe78bc","ios":"levelo://app?vid=861e94fe-13dc-4381-880a-a34620fe78bc"},"vehicle_type_id":"4","last_reported":1739488131,"current_range_meters":25200,"station_id":"ce4bhsp2rcd13ifvqi50","pricing_plan_id":"cebpf4jnsgd1na2vs0mg"},{"bike_id":"3b92acd6-3254-4254-8822-55a356dbb932","system_id":"levelo_inurba_marseille","lat":43.29534,"lon":5.38535,"is_reserved":false,"is_disabled":false,"rental_uris":{"android":"levelo://app?vid=3b92acd6-3254-4254-8822-55a356dbb932","ios":"levelo://app?vid=3b92acd6-3254-4254-8822-55a356dbb932"},"vehicle_type_id":"4","last_reported":1739488131,"current_range_meters":27600,"station_id":"ce4bgih2rcd13ifvqba0","pricing_plan_id":"cebpf4jnsgd1na2vs0mg"},{"bike_id":"1ec14052-2d33-4aa1-9ab8-58cc71db74d1","system_id":"levelo_inurba_marseille","lat":43.24171,"lon":5.363976,"is_reserved":false,"is_disabled":true,"rental_uris":{"android":"levelo://app?vid=1ec14052-2d33-4aa1-9ab8-58cc71db74d1","ios":"levelo://app?vid=1ec14052-2d33-4aa1-9ab8-58cc71db74d1"},"vehicle_type_id":"4","last_reported":1739488131,"current_range_meters":4000,"station_id":"cpo36qri1sfpv3e86is0","pricing_plan_id":"cebpf4jnsgd1na2vs0mg"},{"bike_id":"6e58a69c-2a4e-4c49-840d-6e728a603acb","system_id":"levelo_inurba_marseille","lat":43.23064,"lon":5.35496,"is_reserved":false,"is_disabled":false,"rental_uris":{"android":"levelo://app?vid=6e58a69c-2a4e-4c49-840d-6e728a603acb","ios":"levelo://app?vid=6e58a69c-2a4e-4c49-840d-6e728a603acb"},"vehicle_type_id":"4","last_reported":1739488131,"current_range_meters":38400,"station_id":"cpo3342slgdg3j2ifvpg","pricing_plan_id":"cebpf4jnsgd1na2vs0mg"},{"bike_id":"dd8cfd07-1e64-4ba0-981a-369cc0b99fc9","system_id":"levelo_inurba_marseille","lat":43.28143,"lon":5.42643,"is_reserved":false,"is_disabled":false,"rental_uris":{"android":"levelo://app?vid=dd8cfd07-1e64-4ba0-981a-369cc0b99fc9","ios":"levelo://app?vid=dd8cfd07-1e64-4ba0-981a-369cc0b99fc9"},"vehicle_type_id":"4","last_reported":1739488131,"current_range_meters":38800,"station_id":"ce4bhnh2rcd13ifvqgug","pricing_plan_id":"cebpf4jnsgd1na2vs0mg"},{"bike_id":"cdd384b0-278a-4f91-b9e6-35c402322f3a","system_id":"levelo_inurba_marseille","lat":43.29521,"lon":5.39405,"is_reserved":false,"is_disabled":false,"rental_uris":{"android":"levelo://app?vid=cdd384b0-278a-4f91-b9e6-35c402322f3a","ios":"levelo://app?vid=cdd384b0-278a-4f91-b9e6-35c402322f3a"},"vehicle_type_id":"4","last_reported":1739488131,"current_range_meters":39200,"station_id":"ce4bh292rcd13ifvqdf0","pricing_plan_id":"cebpf4jnsgd1na2vs0mg"},{"bike_id":"ad8f6ef4-cc35-4977-9039-32a61f9200e5","system_id":"levelo_inurba_marseille","lat":43.28616,"lon":5.35114,"is_reserved":false,"is_disabled":false,"rental_uris":{"android":"levelo://app?vid=ad8f6ef4-cc35-4977-9039-32a61f9200e5","ios":"levelo://app?vid=ad8f6ef4-cc35-4977-9039-32a61f9200e5"},"vehicle_type_id":"4","last_reported":1739488131,"current_range_meters":38800,"station_id":"ce4bhch2rcd13ifvqeug","pricing_plan_id":"cebpf4jnsgd1na2vs0mg"},{"bike_id":"0734d612-ef77-4b2c-aaa6-bce46c2274cc","system_id":"levelo_inurba_marseille","lat":43.29943,"lon":5.36521,"is_reserved":false,"is_disabled":true,"rental_uris":{"android":"levelo://app?vid=0734d612-ef77-4b2c-aaa6-bce46c2274cc","ios":"levelo://app?vid=0734d612-ef77-4b2c-aaa6-bce46c2274cc"},"vehicle_type_id":"4","last_reported":1739488131,"current_range_meters":32800,"station_id":"ce4bgm92rcd13ifvqbr0","pricing_plan_id":"cebpf4jnsgd1na2vs0mg"},{"bike_id":"f50eff07-a8c4-4cc6-b46b-160543be4a0c","system_id":"levelo_inurba_marseille","lat":43.28404,"lon":5.37539,"is_reserved":false,"is_disabled":false,"rental_uris":{"android":"levelo://app?vid=f50eff07-a8c4-4cc6-b46b-160543be4a0c","ios":"levelo://app?vid=f50eff07-a8c4-4cc6-b46b-160543be4a0c"},"vehicle_type_id":"4","last_reported":1739488131,"current_range_meters":17200,"station_id":"ce4bh412rcd13ifvqds0","pricing_plan_id":"cebpf4jnsgd1na2vs0mg"},{"bike_id":"4450d397-c7c4-4c68-aed9-fa811598c082","system_id":"levelo_inurba_marseille","lat":43.32536,"lon":5.36508,"is_reserved":false,"is_disabled":false,"rental_uris":{"android":"levelo://app?vid=4450d397-c7c4-4c68-aed9-fa811598c082","ios":"levelo://app?vid=4450d397-c7c4-4c68-aed9-fa811598c082"},"vehicle_type_id":"4","last_reported":1739488131,"current_range_meters":34800,"station_id":"","pricing_plan_id":"cebpf4jnsgd1na2vs0mg"},{"bike_id":"58780a35-d695-4159-aac9-029e55b1a2e7","system_id":"levelo_inurba_marseille","lat":43.2893,"lon":5.36634,"is_reserved":false,"is_disabled":false,"rental_uris":{"android":"levelo://app?vid=58780a35-d695-4159-aac9-029e55b1a2e7","ios":"levelo://app?vid=58780a35-d695-4159-aac9-029e55b1a2e7"},"vehicle_type_id":"4","last_reported":1739488131,"current_range_meters":7200,"station_id":"ce4bhap2rcd13ifvqek0","pricing_plan_id":"cebpf4jnsgd1na2vs0mg"},{"bike_id":"f692e2a9-f61b-4756-b34f-0b932f852eba","system_id":"levelo_inurba_marseille","lat":43.294241,"lon":5.386106,"is_reserved":false,"is_disabled":false,"rental_uris":{"android":"levelo://app?vid=f692e2a9-f61b-4756-b34f-0b932f852eba","ios":"levelo://app?vid=f692e2a9-f61b-4756-b34f-0b932f852eba"},"vehicle_type_id":"4","last_reported":1739488131,"current_range_meters":33200,"station_id":"ce4bh2h2rcd13ifvqdh0","pricing_plan_id":"cebpf4jnsgd1na2vs0mg"},{"bike_id":"97eb59e8-9229-4c3f-bb4a-3cddb70ead00","system_id":"levelo_inurba_marseille","lat":43.30322,"lon":5.40456,"is_reserved":false,"is_disabled":false,"rental_uris":{"android":"levelo://app?vid=97eb59e8-9229-4c3f-bb4a-3cddb70ead00","ios":"levelo://app?vid=97eb59e8-9229-4c3f-bb4a-3cddb70ead00"},"vehicle_type_id":"4","last_reported":1739488131,"current_range_meters":16000,"station_id":"ce4bh012rcd13ifvqd10","pricing_plan_id":"cebpf4jnsgd1na2vs0mg"},{"bike_id":"04e79b02-26b7-408e-8d07-a04361b8a27a","system_id":"levelo_inurba_marseille","lat":43.23199,"lon":5.39996,"is_reserved":false,"is_disabled":false,"rental_uris":{"android":"levelo://app?vid=04e79b02-26b7-408e-8d07-a04361b8a27a","ios":"levelo://app?vid=04e79b02-26b7-408e-8d07-a04361b8a27a"},"vehicle_type_id":"4","last_reported":1739488131,"current_range_meters":38800,"station_id":"ce4bhn12rcd13ifvqgqg","pricing_plan_id":"cebpf4jnsgd1na2vs0mg"},{"bike_id":"f1e9c0b9-f532-4ec0-97b1-eb54817a0905","system_id":"levelo_inurba_marseille","lat":43.302054,"lon":5.369556,"is_reserved":false,"is_disabled":false,"rental_uris":{"android":"levelo://app?vid=f1e9c0b9-f532-4ec0-97b1-eb54817a0905","ios":"levelo://app?vid=f1e9c0b9-f532-4ec0-97b1-eb54817a0905"},"vehicle_type_id":"4","last_reported":1739488131,"current_range_meters":28000,"station_id":"ce4bgqh2rcd13ifvqc5g","pricing_plan_id":"cebpf4jnsgd1na2vs0mg"},{"bike_id":"4345e8c3-0ade-4021-b61d-18fd9837e5fe","system_id":"levelo_inurba_marseille","lat":43.25012,"lon":5.38924,"is_reserved":false,"is_disabled":false,"rental_uris":{"android":"levelo://app?vid=4345e8c3-0ade-4021-b61d-18fd9837e5fe","ios":"levelo://app?vid=4345e8c3-0ade-4021-b61d-18fd9837e5fe"},"vehicle_type_id":"4","last_reported":1739488131,"current_range_meters":13600,"station_id":"ce4bhgp2rcd13ifvqfd0","pricing_plan_id":"cebpf4jnsgd1na2vs0mg"},{"bike_id":"b64cb318-9a9d-45df-b9e1-d16ce258851f","system_id":"levelo_inurba_marseille","lat":43.28151,"lon":5.42645,"is_reserved":false,"is_disabled":true,"rental_uris":{"android":"levelo://app?vid=b64cb318-9a9d-45df-b9e1-d16ce258851f","ios":"levelo://app?vid=b64cb318-9a9d-45df-b9e1-d16ce258851f"},"vehicle_type_id":"4","last_reported":1739488131,"current_range_meters":4800,"station_id":"ce4bhnh2rcd13ifvqgug","pricing_plan_id":"cebpf4jnsgd1na2vs0mg"},{"bike_id":"152fd37b-faf3-480e-a36f-94e6a745b61a","system_id":"levelo_inurba_marseille","lat":43.29314,"lon":5.37193,"is_reserved":false,"is_disabled":true,"rental_uris":{"android":"levelo://app?vid=152fd37b-faf3-480e-a36f-94e6a745b61a","ios":"levelo://app?vid=152fd37b-faf3-480e-a36f-94e6a745b61a"},"vehicle_type_id":"4","last_reported":1739488131,"current_range_meters":38800,"station_id":"ce4bgh92rcd13ifvqb40","pricing_plan_id":"cebpf4jnsgd1na2vs0mg"},{"bike_id":"bfc49af4-c889-4ef8-a15b-6906606cf721","system_id":"levelo_inurba_marseille","lat":43.28279,"lon":5.35079,"is_reserved":false,"is_disabled":false,"rental_uris":{"android":"levelo://app?vid=bfc49af4-c889-4ef8-a15b-6906606cf721","ios":"levelo://app?vid=bfc49af4-c889-4ef8-a15b-6906606cf721"},"vehicle_type_id":"4","last_reported":1739488131,"current_range_meters":37600,"station_id":"ce4bhbp2rcd13ifvqerg","pricing_plan_id":"cebpf4jnsgd1na2vs0mg"},{"bike_id":"34cb3af6-4a81-4efd-b90d-66e3fcfdb1d2","system_id":"levelo_inurba_marseille","lat":43.2846,"lon":5.35879,"is_reserved":false,"is_disabled":false,"rental_uris":{"android":"levelo://app?vid=34cb3af6-4a81-4efd-b90d-66e3fcfdb1d2","ios":"levelo://app?vid=34cb3af6-4a81-4efd-b90d-66e3fcfdb1d2"},"vehicle_type_id":"4","last_reported":1739488131,"current_range_meters":34800,"station_id":"ce4bhah2rcd13ifvqei0","pricing_plan_id":"cebpf4jnsgd1na2vs0mg"},{"bike_id":"783355e1-c776-4eb8-92a1-fe69be4da903","system_id":"levelo_inurba_marseille","lat":43.28376,"lon":5.38639,"is_reserved":false,"is_disabled":false,"rental_uris":{"android":"levelo://app?vid=783355e1-c776-4eb8-92a1-fe69be4da903","ios":"levelo://app?vid=783355e1-c776-4eb8-92a1-fe69be4da903"},"vehicle_type_id":"4","last_reported":1739488131,"current_range_meters":19200,"station_id":"ce4bh492rcd13ifvqdvg","pricing_plan_id":"cebpf4jnsgd1na2vs0mg"},{"bike_id":"b25aee4b-38b1-41c7-941b-bed50dc07f24","system_id":"levelo_inurba_marseille","lat":43.28443,"lon":5.39206,"is_reserved":false,"is_disabled":false,"rental_uris":{"android":"levelo://app?vid=b25aee4b-38b1-41c7-941b-bed50dc07f24","ios":"levelo://app?vid=b25aee4b-38b1-41c7-941b-bed50dc07f24"},"vehicle_type_id":"4","last_reported":1739488131,"current_range_meters":27600,"station_id":"ce4bhoh2rcd13ifvqh5g","pricing_plan_id":"cebpf4jnsgd1na2vs0mg"},{"bike_id":"527fb167-ceff-455e-ae21-9ef95f9ad97b","system_id":"levelo_inurba_marseille","lat":43.28577,"lon":5.39499,"is_reserved":false,"is_disabled":false,"rental_uris":{"android":"levelo://app?vid=527fb167-ceff-455e-ae21-9ef95f9ad97b","ios":"levelo://app?vid=527fb167-ceff-455e-ae21-9ef95f9ad97b"},"vehicle_type_id":"4","last_reported":1739488131,"current_range_meters":19200,"station_id":"ce4bh292rcd13ifvqdg0","pricing_plan_id":"cebpf4jnsgd1na2vs0mg"},{"bike_id":"bbb6f758-ef12-4737-861c-2da510dfe0ae","system_id":"levelo_inurba_marseille","lat":43.30049,"lon":5.37501,"is_reserved":false,"is_disabled":false,"rental_uris":{"android":"levelo://app?vid=bbb6f758-ef12-4737-861c-2da510dfe0ae","ios":"levelo://app?vid=bbb6f758-ef12-4737-861c-2da510dfe0ae"},"vehicle_type_id":"4","last_reported":1739488131,"current_range_meters":22000,"station_id":"","pricing_plan_id":"cebpf4jnsgd1na2vs0mg"},{"bike_id":"566a85f5-81da-4f94-8dbd-eb103455fda5","system_id":"levelo_inurba_marseille","lat":43.29435,"lon":5.39766,"is_reserved":false,"is_disabled":false,"rental_uris":{"android":"levelo://app?vid=566a85f5-81da-4f94-8dbd-eb103455fda5","ios":"levelo://app?vid=566a85f5-81da-4f94-8dbd-eb103455fda5"},"vehicle_type_id":"4","last_reported":1739488131,"current_range_meters":37600,"station_id":"ce4bh3h2rcd13ifvqdo0","pricing_plan_id":"cebpf4jnsgd1na2vs0mg"},{"bike_id":"4fcd7495-19fd-4022-b338-e4d5549a12be","system_id":"levelo_inurba_marseille","lat":43.30308,"lon":5.39209,"is_reserved":false,"is_disabled":false,"rental_uris":{"android":"levelo://app?vid=4fcd7495-19fd-4022-b338-e4d5549a12be","ios":"levelo://app?vid=4fcd7495-19fd-4022-b338-e4d5549a12be"},"vehicle_type_id":"4","last_reported":1739488131,"current_range_meters":25200,"station_id":"ce4bgkh2rcd13ifvqbk0","pricing_plan_id":"cebpf4jnsgd1na2vs0mg"},{"bike_id":"973ad2a7-44d0-4dfc-aabe-779b9eeced18","system_id":"levelo_inurba_marseille","lat":43.3075,"lon":5.37641,"is_reserved":false,"is_disabled":false,"rental_uris":{"android":"levelo://app?vid=973ad2a7-44d0-4dfc-aabe-779b9eeced18","ios":"levelo://app?vid=973ad2a7-44d0-4dfc-aabe-779b9eeced18"},"vehicle_type_id":"4","last_reported":1739488131,"current_range_meters":38800,"station_id":"ce4bgv92rcd13ifvqcq0","pricing_plan_id":"cebpf4jnsgd1na2vs0mg"},{"bike_id":"167a2690-5c77-4992-9449-a82dc4323504","system_id":"levelo_inurba_marseille","lat":43.30887,"lon":5.39663,"is_reserved":false,"is_disabled":false,"rental_uris":{"android":"levelo://app?vid=167a2690-5c77-4992-9449-a82dc4323504","ios":"levelo://app?vid=167a2690-5c77-4992-9449-a82dc4323504"},"vehicle_type_id":"4","last_reported":1739488131,"current_range_meters":29600,"station_id":"ce4bh012rcd13ifvqcv0","pricing_plan_id":"cebpf4jnsgd1na2vs0mg"},{"bike_id":"d38cdbe8-a8af-4066-8a7b-efc3320f9786","system_id":"levelo_inurba_marseille","lat":43.30814,"lon":5.3741,"is_reserved":false,"is_disabled":false,"rental_uris":{"android":"levelo://app?vid=d38cdbe8-a8af-4066-8a7b-efc3320f9786","ios":"levelo://app?vid=d38cdbe8-a8af-4066-8a7b-efc3320f9786"},"vehicle_type_id":"4","last_reported":1739488131,"current_range_meters":28800,"station_id":"","pricing_plan_id":"cebpf4jnsgd1na2vs0mg"},{"bike_id":"a93f7d49-edc5-45ec-baf3-74ca26311e2c","system_id":"levelo_inurba_marseille","lat":43.26031,"lon":5.37537,"is_reserved":false,"is_disabled":false,"rental_uris":{"android":"levelo://app?vid=a93f7d49-edc5-45ec-baf3-74ca26311e2c","ios":"levelo://app?vid=a93f7d49-edc5-45ec-baf3-74ca26311e2c"},"vehicle_type_id":"4","last_reported":1739488131,"current_range_meters":25200,"station_id":"ce4bhgh2rcd13ifvqfa0","pricing_plan_id":"cebpf4jnsgd1na2vs0mg"},{"bike_id":"3f4587c8-bf2a-4695-84ed-a60e651c2f78","system_id":"levelo_inurba_marseille","lat":43.30538,"lon":5.38434,"is_reserved":false,"is_disabled":false,"rental_uris":{"android":"levelo://app?vid=3f4587c8-bf2a-4695-84ed-a60e651c2f78","ios":"levelo://app?vid=3f4587c8-bf2a-4695-84ed-a60e651c2f78"},"vehicle_type_id":"4","last_reported":1739488131,"current_range_meters":35600,"station_id":"ce4bgg92rcd13ifvqb30","pricing_plan_id":"cebpf4jnsgd1na2vs0mg"},{"bike_id":"b75124e2-ba1b-4483-be55-83c993879b4b","system_id":"levelo_inurba_marseille","lat":43.30097,"lon":5.39099,"is_reserved":false,"is_disabled":false,"rental_uris":{"android":"levelo://app?vid=b75124e2-ba1b-4483-be55-83c993879b4b","ios":"levelo://app?vid=b75124e2-ba1b-4483-be55-83c993879b4b"},"vehicle_type_id":"4","last_reported":1739488131,"current_range_meters":27600,"station_id":"ce4bh192rcd13ifvqdb0","pricing_plan_id":"cebpf4jnsgd1na2vs0mg"},{"bike_id":"d4ac20eb-79e8-49fa-8068-ecb704b9c948","system_id":"levelo_inurba_marseille","lat":43.30299,"lon":5.39236,"is_reserved":false,"is_disabled":false,"rental_uris":{"android":"levelo://app?vid=d4ac20eb-79e8-49fa-8068-ecb704b9c948","ios":"levelo://app?vid=d4ac20eb-79e8-49fa-8068-ecb704b9c948"},"vehicle_type_id":"4","last_reported":1739488131,"current_range_meters":13600,"station_id":"ce4bgkh2rcd13ifvqbk0","pricing_plan_id":"cebpf4jnsgd1na2vs0mg"},{"bike_id":"ee566f3d-0e78-4ced-ac1b-e3b33c18e89e","system_id":"levelo_inurba_marseille","lat":43.2439,"lon":5.370518,"is_reserved":false,"is_disabled":false,"rental_uris":{"android":"levelo://app?vid=ee566f3d-0e78-4ced-ac1b-e3b33c18e89e","ios":"levelo://app?vid=ee566f3d-0e78-4ced-ac1b-e3b33c18e89e"},"vehicle_type_id":"4","last_reported":1739488131,"current_range_meters":20000,"station_id":"ce4bhhh2rcd13ifvqfk0","pricing_plan_id":"cebpf4jnsgd1na2vs0mg"},{"bike_id":"da7f2fae-5747-45f2-981c-2899a6e7dc68","system_id":"levelo_inurba_marseille","lat":43.25576,"lon":5.38244,"is_reserved":false,"is_disabled":false,"rental_uris":{"android":"levelo://app?vid=da7f2fae-5747-45f2-981c-2899a6e7dc68","ios":"levelo://app?vid=da7f2fae-5747-45f2-981c-2899a6e7dc68"},"vehicle_type_id":"4","last_reported":1739488131,"current_range_meters":27600,"station_id":"ce4bhih2rcd13ifvqfs0","pricing_plan_id":"cebpf4jnsgd1na2vs0mg"},{"bike_id":"0522f794-1232-4c9b-bc22-b0243233d03c","system_id":"levelo_inurba_marseille","lat":43.27943,"lon":5.41046,"is_reserved":false,"is_disabled":false,"rental_uris":{"android":"levelo://app?vid=0522f794-1232-4c9b-bc22-b0243233d03c","ios":"levelo://app?vid=0522f794-1232-4c9b-bc22-b0243233d03c"},"vehicle_type_id":"4","last_reported":1739488131,"current_range_meters":38800,"station_id":"ce4bhnp2rcd13ifvqh0g","pricing_plan_id":"cebpf4jnsgd1na2vs0mg"},{"bike_id":"c21dda3e-d1f3-4914-a585-72ad4740861f","system_id":"levelo_inurba_marseille","lat":43.270703,"lon":5.422899,"is_reserved":false,"is_disabled":false,"rental_uris":{"android":"levelo://app?vid=c21dda3e-d1f3-4914-a585-72ad4740861f","ios":"levelo://app?vid=c21dda3e-d1f3-4914-a585-72ad4740861f"},"vehicle_type_id":"4","last_reported":1739488131,"current_range_meters":21600,"station_id":"ce4bhk92rcd13ifvqgb0","pricing_plan_id":"cebpf4jnsgd1na2vs0mg"},{"bike_id":"54ce597b-1ca1-4d62-923d-d4b29eec04b3","system_id":"levelo_inurba_marseille","lat":43.31131,"lon":5.38261,"is_reserved":false,"is_disabled":false,"rental_uris":{"android":"levelo://app?vid=54ce597b-1ca1-4d62-923d-d4b29eec04b3","ios":"levelo://app?vid=54ce597b-1ca1-4d62-923d-d4b29eec04b3"},"vehicle_type_id":"4","last_reported":1739488131,"current_range_meters":8400,"station_id":"","pricing_plan_id":"cebpf4jnsgd1na2vs0mg"},{"bike_id":"5900da6e-6ade-4e81-b9ef-ce2685f5a5b4","system_id":"levelo_inurba_marseille","lat":43.2885,"lon":5.39338,"is_reserved":false,"is_disabled":true,"rental_uris":{"android":"levelo://app?vid=5900da6e-6ade-4e81-b9ef-ce2685f5a5b4","ios":"levelo://app?vid=5900da6e-6ade-4e81-b9ef-ce2685f5a5b4"},"vehicle_type_id":"4","last_reported":1739488131,"current_range_meters":6800,"station_id":"ce4bh2p2rcd13ifvqdi0","pricing_plan_id":"cebpf4jnsgd1na2vs0mg"},{"bike_id":"402369da-661e-404a-928c-d7b4f9814877","system_id":"levelo_inurba_marseille","lat":43.31529,"lon":5.38049,"is_reserved":false,"is_disabled":false,"rental_uris":{"android":"levelo://app?vid=402369da-661e-404a-928c-d7b4f9814877","ios":"levelo://app?vid=402369da-661e-404a-928c-d7b4f9814877"},"vehicle_type_id":"4","last_reported":1739488131,"current_range_meters":28400,"station_id":"ce4bhsp2rcd13ifvqi50","pricing_plan_id":"cebpf4jnsgd1na2vs0mg"},{"bike_id":"1ee49351-a32d-42a5-8df5-b60e302d37e7","system_id":"levelo_inurba_marseille","lat":43.28839,"lon":5.35851,"is_reserved":false,"is_disabled":false,"rental_uris":{"android":"levelo://app?vid=1ee49351-a32d-42a5-8df5-b60e302d37e7","ios":"levelo://app?vid=1ee49351-a32d-42a5-8df5-b60e302d37e7"},"vehicle_type_id":"4","last_reported":1739488131,"current_range_meters":32800,"station_id":"ce4bhb12rcd13ifvqem0","pricing_plan_id":"cebpf4jnsgd1na2vs0mg"},{"bike_id":"a2124de6-613b-40d6-9f3e-d71ba335a3b4","system_id":"levelo_inurba_marseille","lat":43.29365,"lon":5.37849,"is_reserved":false,"is_disabled":false,"rental_uris":{"android":"levelo://app?vid=a2124de6-613b-40d6-9f3e-d71ba335a3b4","ios":"levelo://app?vid=a2124de6-613b-40d6-9f3e-d71ba335a3b4"},"vehicle_type_id":"4","last_reported":1739488131,"current_range_meters":18800,"station_id":"ce4bgjh2rcd13ifvqbf0","pricing_plan_id":"cebpf4jnsgd1na2vs0mg"},{"bike_id":"07fd906f-9878-4839-a015-1dfa82cdeeeb","system_id":"levelo_inurba_marseille","lat":43.29195,"lon":5.35791,"is_reserved":false,"is_disabled":false,"rental_uris":{"android":"levelo://app?vid=07fd906f-9878-4839-a015-1dfa82cdeeeb","ios":"levelo://app?vid=07fd906f-9878-4839-a015-1dfa82cdeeeb"},"vehicle_type_id":"4","last_reported":1739488131,"current_range_meters":38800,"station_id":"ce4bhb12rcd13ifvqel0","pricing_plan_id":"cebpf4jnsgd1na2vs0mg"},{"bike_id":"808c4efd-140e-40c8-9fa7-cbc579b492ed","system_id":"levelo_inurba_marseille","lat":43.28959,"lon":5.36399,"is_reserved":false,"is_disabled":false,"rental_uris":{"android":"levelo://app?vid=808c4efd-140e-40c8-9fa7-cbc579b492ed","ios":"levelo://app?vid=808c4efd-140e-40c8-9fa7-cbc579b492ed"},"vehicle_type_id":"4","last_reported":1739488131,"current_range_meters":38800,"station_id":"ce4bhc92rcd13ifvqetg","pricing_plan_id":"cebpf4jnsgd1na2vs0mg"},{"bike_id":"cf3c2716-5dae-4e74-984d-57dfadef03c6","system_id":"levelo_inurba_marseille","lat":43.31227,"lon":5.36888,"is_reserved":false,"is_disabled":false,"rental_uris":{"android":"levelo://app?vid=cf3c2716-5dae-4e74-984d-57dfadef03c6","ios":"levelo://app?vid=cf3c2716-5dae-4e74-984d-57dfadef03c6"},"vehicle_type_id":"4","last_reported":1739488131,"current_range_meters":30400,"station_id":"ce4bgl92rcd13ifvqbq0","pricing_plan_id":"cebpf4jnsgd1na2vs0mg"},{"bike_id":"a150dea7-ec4d-4dec-b2a3-26a1df0a86c0","system_id":"levelo_inurba_marseille","lat":43.30442,"lon":5.38889,"is_reserved":false,"is_disabled":false,"rental_uris":{"android":"levelo://app?vid=a150dea7-ec4d-4dec-b2a3-26a1df0a86c0","ios":"levelo://app?vid=a150dea7-ec4d-4dec-b2a3-26a1df0a86c0"},"vehicle_type_id":"4","last_reported":1739488131,"current_range_meters":6800,"station_id":"ce4bgk12rcd13ifvqbi0","pricing_plan_id":"cebpf4jnsgd1na2vs0mg"},{"bike_id":"033f7383-e654-419d-8484-19cf64c5e9f1","system_id":"levelo_inurba_marseille","lat":43.28616,"lon":5.35107,"is_reserved":false,"is_disabled":false,"rental_uris":{"android":"levelo://app?vid=033f7383-e654-419d-8484-19cf64c5e9f1","ios":"levelo://app?vid=033f7383-e654-419d-8484-19cf64c5e9f1"},"vehicle_type_id":"4","last_reported":1739488131,"current_range_meters":36000,"station_id":"ce4bhch2rcd13ifvqeug","pricing_plan_id":"cebpf4jnsgd1na2vs0mg"},{"bike_id":"e5ef80dd-4702-46bb-bfde-5dd61590a716","system_id":"levelo_inurba_marseille","lat":43.29241,"lon":5.40907,"is_reserved":false,"is_disabled":false,"rental_uris":{"android":"levelo://app?vid=e5ef80dd-4702-46bb-bfde-5dd61590a716","ios":"levelo://app?vid=e5ef80dd-4702-46bb-bfde-5dd61590a716"},"vehicle_type_id":"4","last_reported":1739488131,"current_range_meters":38000,"station_id":"ce4bh192rcd13ifvqdc0","pricing_plan_id":"cebpf4jnsgd1na2vs0mg"},{"bike_id":"39dd43a7-ebb8-40e7-8206-788a02d9b9e8","system_id":"levelo_inurba_marseille","lat":43.30788,"lon":5.3766,"is_reserved":false,"is_disabled":false,"rental_uris":{"android":"levelo://app?vid=39dd43a7-ebb8-40e7-8206-788a02d9b9e8","ios":"levelo://app?vid=39dd43a7-ebb8-40e7-8206-788a02d9b9e8"},"vehicle_type_id":"4","last_reported":1739488131,"current_range_meters":30400,"station_id":"ce4bgv92rcd13ifvqcq0","pricing_plan_id":"cebpf4jnsgd1na2vs0mg"},{"bike_id":"d5759068-1fad-4f54-9856-d87ead305c76","system_id":"levelo_inurba_marseille","lat":43.2928,"lon":5.4012,"is_reserved":false,"is_disabled":false,"rental_uris":{"android":"levelo://app?vid=d5759068-1fad-4f54-9856-d87ead305c76","ios":"levelo://app?vid=d5759068-1fad-4f54-9856-d87ead305c76"},"vehicle_type_id":"4","last_reported":1739488131,"current_range_meters":8400,"station_id":"ce4bh312rcd13ifvqdk0","pricing_plan_id":"cebpf4jnsgd1na2vs0mg"},{"bike_id":"8366fb7c-0063-4186-8d36-8b24404479fb","system_id":"levelo_inurba_marseille","lat":43.31361,"lon":5.38512,"is_reserved":false,"is_disabled":true,"rental_uris":{"android":"levelo://app?vid=8366fb7c-0063-4186-8d36-8b24404479fb","ios":"levelo://app?vid=8366fb7c-0063-4186-8d36-8b24404479fb"},"vehicle_type_id":"4","last_reported":1739488131,"current_range_meters":800,"station_id":"ce4bgt92rcd13ifvqcf0","pricing_plan_id":"cebpf4jnsgd1na2vs0mg"},{"bike_id":"34ff8bfe-6f25-4887-9c0c-94c8070d656f","system_id":"levelo_inurba_marseille","lat":43.30587,"lon":5.39356,"is_reserved":false,"is_disabled":false,"rental_uris":{"android":"levelo://app?vid=34ff8bfe-6f25-4887-9c0c-94c8070d656f","ios":"levelo://app?vid=34ff8bfe-6f25-4887-9c0c-94c8070d656f"},"vehicle_type_id":"4","last_reported":1739488131,"current_range_meters":27600,"station_id":"ce4bh0p2rcd13ifvqd80","pricing_plan_id":"cebpf4jnsgd1na2vs0mg"},{"bike_id":"0bcf13c0-f59c-4988-8838-69f30d35f568","system_id":"levelo_inurba_marseille","lat":43.25921,"lon":5.40891,"is_reserved":false,"is_disabled":false,"rental_uris":{"android":"levelo://app?vid=0bcf13c0-f59c-4988-8838-69f30d35f568","ios":"levelo://app?vid=0bcf13c0-f59c-4988-8838-69f30d35f568"},"vehicle_type_id":"4","last_reported":1739488131,"current_range_meters":36400,"station_id":"ce4bhm92rcd13ifvqglg","pricing_plan_id":"cebpf4jnsgd1na2vs0mg"},{"bike_id":"b8a4c6fb-5aef-4871-8769-f0f985186c26","system_id":"levelo_inurba_marseille","lat":43.29535,"lon":5.38519,"is_reserved":false,"is_disabled":false,"rental_uris":{"android":"levelo://app?vid=b8a4c6fb-5aef-4871-8769-f0f985186c26","ios":"levelo://app?vid=b8a4c6fb-5aef-4871-8769-f0f985186c26"},"vehicle_type_id":"4","last_reported":1739488131,"current_range_meters":35600,"station_id":"ce4bgih2rcd13ifvqba0","pricing_plan_id":"cebpf4jnsgd1na2vs0mg"},{"bike_id":"eed51985-6abc-4136-9c70-f0994b322ee2","system_id":"levelo_inurba_marseille","lat":43.29403,"lon":5.38631,"is_reserved":false,"is_disabled":true,"rental_uris":{"android":"levelo://app?vid=eed51985-6abc-4136-9c70-f0994b322ee2","ios":"levelo://app?vid=eed51985-6abc-4136-9c70-f0994b322ee2"},