{"last_updated":1692529431,"ttl":30,"version":"2.2","data":{"bikes":[{"bike_id":"918f4bff-7103-4127-9e5a-a0986304de4a","system_id":"levelo_inurba_marseille","lat":43.313391,"lon":5.36706,"is_reserved":false,"is_disabled":false,"rental_uris":{"android":"levelo://app?vid=918f4bff-7103-4127-9e5a-a0986304de4a","ios":"levelo://app?vid=918f4bff-7103-4127-9e5a-a0986304de4a"},"vehicle_type_id":"4","last_reported":1692529432,"current_range_meters":11600,"station_id":"ce4bgr92rcd13ifvqc6g","pricing_plan_id":"free"},{"bike_id":"37c29c49-c831-47fc-81f0-69ce674917e5","system_id":"levelo_inurba_marseille","lat":43.313391,"lon":5.36706,"is_reserved":false,"is_disabled":false,"rental_uris":{"android":"levelo://app?vid=37c29c49-c831-47fc-81f0-69ce674917e5","ios":"levelo://app?vid=37c29c49-c831-47fc-81f0-69ce674917e5"},"vehicle_type_id":"4","last_reported":1692529432,"current_range_meters":28800,"station_id":"ce4bgr92rcd13ifvqc6g","pricing_plan_id":"free"},{"bike_id":"f22ca441-4e4e-4660-b824-b2f46943e54d","system_id":"levelo_inurba_marseille","lat":43.312239,"lon":5.368562,"is_reserved":false,"is_disabled":false,"rental_uris":{"android":"levelo://app?vid=f22ca441-4e4e-4660-b824-b2f46943e54d","ios":"levelo://app?vid=f22ca441-4e4e-4660-b824-b2f46943e54d"},"vehicle_type_id":"4","last_reported":1692529432,"current_range_meters":31200,"station_id":"ce4bgl92rcd13ifvqbq0","pricing_plan_id":"free"},{"bike_id":"3ffc1099-3ecb-4360-b31e-186a7fe283e2","system_id":"levelo_inurba_marseille","lat":43.312239,"lon":5.368562,"is_reserved":false,"is_disabled":false,"rental_uris":{"android":"levelo://app?vid=3ffc1099-3ecb-4360-b31e-186a7fe283e2","ios":"levelo://app?vid=3ffc1099-3ecb-4360-b31e-186a7fe283e2"},"vehicle_type_id":"4","last_reported":1692529432,"current_range_meters":16800,"station_id":"ce4bgl92rcd13ifvqbq0","pricing_plan_id":"free"},{"bike_id":"9e8495a7-1fa4-4387-8e15-405165b6b9a5","system_id":"levelo_inurba_marseille","lat":43.30906,"lon":5.36847,"is_reserved":false,"is_disabled":false,"rental_uris":{"android":"levelo://app?vid=9e8495a7-1fa4-4387-8e15-405165b6b9a5","ios":"levelo://app?vid=9e8495a7-1fa4-4387-8e15-405165b6b9a5"},"vehicle_type_id":"4","last_reported":1692529432,"current_range_meters":23200,"station_id":"ce4bgn92rcd13ifvqbvg","pricing_plan_id":"free"},{"bike_id":"386ed8e3-b71e-4f68-86af-202c5b76503e","system_id":"levelo_inurba_marseille","lat":43.305368,"lon":5.367343,"is_reserved":false,"is_disabled":false,"rental_uris":{"android":"levelo://app?vid=386ed8e3-b71e-4f68-86af-202c5b76503e","ios":"levelo://app?vid=386ed8e3-b71e-4f68-86af-202c5b76503e"},"vehicle_type_id":"4","last_reported":1692529432,"current_range_meters":20400,"station_id":"ce4bgrp2rcd13ifvqc9g","pricing_plan_id":"free"},{"bike_id":"24336699-8282-4684-bb43-a91ebf85ff8d","system_id":"levelo_inurba_marseille","lat":43.305368,"lon":5.367343,"is_reserved":false,"is_disabled":false,"rental_uris":{"android":"levelo://app?vid=24336699-8282-4684-bb43-a91ebf85ff8d","ios":"levelo://app?vid=24336699-8282-4684-bb43-a91ebf85ff8d"},"vehicle_type_id":"4","last_reported":1692529432,"current_range_meters":20000,"station_id":"ce4bgrp2rcd13ifvqc9g","pricing_plan_id":"free"},{"bike_id":"0149ade2-2534-4222-96df-596a007da836","system_id":"levelo_inurba_marseille","lat":43.305712,"lon":5.365641,"is_reserved":false,"is_disabled":false,"rental_uris":{"android":"levelo://app?vid=0149ade2-2534-4222-96df-596a007da836","ios":"levelo://app?vid=0149ade2-2534-4222-96df-596a007da836"},"vehicle_type_id":"4","last_reported":1692529432,"current_range_meters":29200,"station_id":"ce4bgs12rcd13ifvqcag","pricing_plan_id":"free"},{"bike_id":"9fbe6e18-d192-44c2-98b5-cafb68b41aa4","system_id":"levelo_inurba_marseille","lat":43.3054,"lon":5.3653,"is_reserved":false,"is_disabled":false,"rental_uris":{"android":"levelo://app?vid=9fbe6e18-d192-44c2-98b5-cafb68b41aa4","ios":"levelo://app?vid=9fbe6e18-d192-44c2-98b5-cafb68b41aa4"},"vehicle_type_id":"4","last_reported":1692529432,"current_range_meters":7200,"station_id":"ce4bgs12rcd13ifvqcag","pricing_plan_id":"free"},{"bike_id":"6ac39044-75bd-4057-b409-2745d9af88bc","system_id":"levelo_inurba_marseille","lat":43.305706,"lon":5.365654,"is_reserved":false,"is_disabled":false,"rental_uris":{"android":"levelo://app?vid=6ac39044-75bd-4057-b409-2745d9af88bc","ios":"levelo://app?vid=6ac39044-75bd-4057-b409-2745d9af88bc"},"vehicle_type_id":"4","last_reported":1692529432,"current_range_meters":26000,"station_id":"ce4bgs12rcd13ifvqcag","pricing_plan_id":"free"},{"bike_id":"bc9987ee-ee6d-4b81-9124-826f7d3649b9","system_id":"levelo_inurba_marseille","lat":43.305706,"lon":5.365654,"is_reserved":false,"is_disabled":false,"rental_uris":{"android":"levelo://app?vid=bc9987ee-ee6d-4b81-9124-826f7d3649b9","ios":"levelo://app?vid=bc9987ee-ee6d-4b81-9124-826f7d3649b9"},"vehicle_type_id":"4","last_reported":1692529432,"current_range_meters":31200,"station_id":"ce4bgs12rcd13ifvqcag","pricing_plan_id":"free"},{"bike_id":"d398739c-f6ff-496d-a4ed-b291ed90a6ec","system_id":"levelo_inurba_marseille","lat":43.305989,"lon":5.37225,"is_reserved":false,"is_disabled":false,"rental_uris":{"android":"levelo://app?vid=d398739c-f6ff-496d-a4ed-b291ed90a6ec","ios":"levelo://app?vid=d398739c-f6ff-496d-a4ed-b291ed90a6ec"},"vehicle_type_id":"4","last_reported":1692529432,"current_range_meters":21600,"station_id":"ce4bgqh2rcd13ifvqc4g","pricing_plan_id":"free"},{"bike_id":"11c1e018-9a60-4a0d-bc01-c5791bb4f6c2","system_id":"levelo_inurba_marseille","lat":43.31701,"lon":5.37766,"is_reserved":false,"is_disabled":false,"rental_uris":{"android":"levelo://app?vid=11c1e018-9a60-4a0d-bc01-c5791bb4f6c2","ios":"levelo://app?vid=11c1e018-9a60-4a0d-bc01-c5791bb4f6c2"},"vehicle_type_id":"4","last_reported":1692529432,"current_range_meters":1200,"station_id":"ce4bgth2rcd13ifvqch0","pricing_plan_id":"free"},{"bike_id":"2853069c-edb4-47a8-8b6a-798f5cd95477","system_id":"levelo_inurba_marseille","lat":43.31997,"lon":5.38142,"is_reserved":false,"is_disabled":false,"rental_uris":{"android":"levelo://app?vid=2853069c-edb4-47a8-8b6a-798f5cd95477","ios":"levelo://app?vid=2853069c-edb4-47a8-8b6a-798f5cd95477"},"vehicle_type_id":"4","last_reported":1692529432,"current_range_meters":0,"station_id":"ce4bhr12rcd13ifvqhpg","pricing_plan_id":"free"},{"bike_id":"2b367fde-2c35-451b-b8a6-d8a34532cd83","system_id":"levelo_inurba_marseille","lat":43.313571,"lon":5.384829,"is_reserved":false,"is_disabled":false,"rental_uris":{"android":"levelo://app?vid=2b367fde-2c35-451b-b8a6-d8a34532cd83","ios":"levelo://app?vid=2b367fde-2c35-451b-b8a6-d8a34532cd83"},"vehicle_type_id":"4","last_reported":1692529432,"current_range_meters":15200,"station_id":"ce4bgt92rcd13ifvqcf0","pricing_plan_id":"free"},{"bike_id":"431a5782-99fd-46c0-aafc-6694d2976417","system_id":"levelo_inurba_marseille","lat":43.2993,"lon":5.36524,"is_reserved":false,"is_disabled":false,"rental_uris":{"android":"levelo://app?vid=431a5782-99fd-46c0-aafc-6694d2976417","ios":"levelo://app?vid=431a5782-99fd-46c0-aafc-6694d2976417"},"vehicle_type_id":"4","last_reported":1692529432,"current_range_meters":18800,"station_id":"ce4bgm92rcd13ifvqbr0","pricing_plan_id":"free"},{"bike_id":"af386a9d-51cc-445b-ba88-939572dd6c4b","system_id":"levelo_inurba_marseille","lat":43.299209,"lon":5.365547,"is_reserved":false,"is_disabled":false,"rental_uris":{"android":"levelo://app?vid=af386a9d-51cc-445b-ba88-939572dd6c4b","ios":"levelo://app?vid=af386a9d-51cc-445b-ba88-939572dd6c4b"},"vehicle_type_id":"4","last_reported":1692529432,"current_range_meters":31200,"station_id":"ce4bgm92rcd13ifvqbr0","pricing_plan_id":"free"},{"bike_id":"6b14a3a9-f8cf-431f-af43-45099695a032","system_id":"levelo_inurba_marseille","lat":43.298433,"lon":5.362774,"is_reserved":false,"is_disabled":false,"rental_uris":{"android":"levelo://app?vid=6b14a3a9-f8cf-431f-af43-45099695a032","ios":"levelo://app?vid=6b14a3a9-f8cf-431f-af43-45099695a032"},"vehicle_type_id":"4","last_reported":1692529432,"current_range_meters":27200,"station_id":"ce4bgpp2rcd13ifvqc3g","pricing_plan_id":"free"},{"bike_id":"a6346084-6168-4c19-8617-8d87c066e38e","system_id":"levelo_inurba_marseille","lat":43.29853,"lon":5.36288,"is_reserved":false,"is_disabled":false,"rental_uris":{"android":"levelo://app?vid=a6346084-6168-4c19-8617-8d87c066e38e","ios":"levelo://app?vid=a6346084-6168-4c19-8617-8d87c066e38e"},"vehicle_type_id":"4","last_reported":1692529432,"current_range_meters":4400,"station_id":"ce4bgpp2rcd13ifvqc3g","pricing_plan_id":"free"},{"bike_id":"0819b604-be47-4c4c-9814-a305819ab4ba","system_id":"levelo_inurba_marseille","lat":43.298433,"lon":5.362774,"is_reserved":false,"is_disabled":false,"rental_uris":{"android":"levelo://app?vid=0819b604-be47-4c4c-9814-a305819ab4ba","ios":"levelo://app?vid=0819b604-be47-4c4c-9814-a305819ab4ba"},"vehicle_type_id":"4","last_reported":1692529432,"current_range_meters":8400,"station_id":"ce4bgpp2rcd13ifvqc3g","pricing_plan_id":"free"},{"bike_id":"10b59d93-04c8-4d2d-8663-1f76d0e8a456","system_id":"levelo_inurba_marseille","lat":43.29841,"lon":5.36265,"is_reserved":false,"is_disabled":false,"rental_uris":{"android":"levelo://app?vid=10b59d93-04c8-4d2d-8663-1f76d0e8a456","ios":"levelo://app?vid=10b59d93-04c8-4d2d-8663-1f76d0e8a456"},"vehicle_type_id":"4","last_reported":1692529432,"current_range_meters":28000,"station_id":"ce4bgpp2rcd13ifvqc3g","pricing_plan_id":"free"},{"bike_id":"b885f463-e8c5-42cc-902f-7152167ce1c7","system_id":"levelo_inurba_marseille","lat":43.299243,"lon":5.374807,"is_reserved":false,"is_disabled":false,"rental_uris":{"android":"levelo://app?vid=b885f463-e8c5-42cc-902f-7152167ce1c7","ios":"levelo://app?vid=b885f463-e8c5-42cc-902f-7152167ce1c7"},"vehicle_type_id":"4","last_reported":1692529432,"current_range_meters":31200,"station_id":"ce4bgjh2rcd13ifvqbg0","pricing_plan_id":"free"},{"bike_id":"160098f0-edc7-4a4a-a7df-ad0aca3d246e","system_id":"levelo_inurba_marseille","lat":43.311722,"lon":5.387247,"is_reserved":false,"is_disabled":false,"rental_uris":{"android":"levelo://app?vid=160098f0-edc7-4a4a-a7df-ad0aca3d246e","ios":"levelo://app?vid=160098f0-edc7-4a4a-a7df-ad0aca3d246e"},"vehicle_type_id":"4","last_reported":1692529432,"current_range_meters":28800,"station_id":"ce4bgv12rcd13ifvqcp0","pricing_plan_id":"free"},{"bike_id":"6c90e819-9ede-4e93-90aa-655ea665a015","system_id":"levelo_inurba_marseille","lat":43.297774,"lon":5.370875,"is_reserved":false,"is_disabled":false,"rental_uris":{"android":"levelo://app?vid=6c90e819-9ede-4e93-90aa-655ea665a015","ios":"levelo://app?vid=6c90e819-9ede-4e93-90aa-655ea665a015"},"vehicle_type_id":"4","last_reported":1692529432,"current_range_meters":24400,"station_id":"ce4bgop2rcd13ifvqc1g","pricing_plan_id":"free"},{"bike_id":"b815ce0f-8c6d-460d-8747-b98d1251b4b3","system_id":"levelo_inurba_marseille","lat":43.32287,"lon":5.38259,"is_reserved":false,"is_disabled":false,"rental_uris":{"android":"levelo://app?vid=b815ce0f-8c6d-460d-8747-b98d1251b4b3","ios":"levelo://app?vid=b815ce0f-8c6d-460d-8747-b98d1251b4b3"},"vehicle_type_id":"4","last_reported":1692529432,"current_range_meters":12000,"station_id":"ce4bhr12rcd13ifvqhqg","pricing_plan_id":"free"},{"bike_id":"5b5c8cae-b425-4976-9ba8-5ae205664d6b","system_id":"levelo_inurba_marseille","lat":43.322872,"lon":5.382756,"is_reserved":false,"is_disabled":false,"rental_uris":{"android":"levelo://app?vid=5b5c8cae-b425-4976-9ba8-5ae205664d6b","ios":"levelo://app?vid=5b5c8cae-b425-4976-9ba8-5ae205664d6b"},"vehicle_type_id":"4","last_reported":1692529432,"current_range_meters":14800,"station_id":"ce4bhr12rcd13ifvqhqg","pricing_plan_id":"free"},{"bike_id":"a1f7b084-f437-4e0c-8b20-334f54c48d59","system_id":"levelo_inurba_marseille","lat":43.32289,"lon":5.38268,"is_reserved":false,"is_disabled":false,"rental_uris":{"android":"levelo://app?vid=a1f7b084-f437-4e0c-8b20-334f54c48d59","ios":"levelo://app?vid=a1f7b084-f437-4e0c-8b20-334f54c48d59"},"vehicle_type_id":"4","last_reported":1692529432,"current_range_meters":14800,"station_id":"ce4bhr12rcd13ifvqhqg","pricing_plan_id":"free"},{"bike_id":"b9784bc4-a1f4-4e7b-a996-3746dcc4c656","system_id":"levelo_inurba_marseille","lat":43.32285,"lon":5.38279,"is_reserved":false,"is_disabled":false,"rental_uris":{"android":"levelo://app?vid=b9784bc4-a1f4-4e7b-a996-3746dcc4c656","ios":"levelo://app?vid=b9784bc4-a1f4-4e7b-a996-3746dcc4c656"},"vehicle_type_id":"4","last_reported":1692529432,"current_range_meters":6400,"station_id":"ce4bhr12rcd13ifvqhqg","pricing_plan_id":"free"},{"bike_id":"110bd150-ae2d-4085-890c-a8f4481980e0","system_id":"levelo_inurba_marseille","lat":43.32292,"lon":5.38279,"is_reserved":false,"is_disabled":false,"rental_uris":{"android":"levelo://app?vid=110bd150-ae2d-4085-890c-a8f4481980e0","ios":"levelo://app?vid=110bd150-ae2d-4085-890c-a8f4481980e0"},"vehicle_type_id":"4","last_reported":1692529432,"current_range_meters":26400,"station_id":"ce4bhr12rcd13ifvqhqg","pricing_plan_id":"free"},{"bike_id":"2ab2c619-9cfb-4da7-9f78-cfb4995f9eec","system_id":"levelo_inurba_marseille","lat":43.32824,"lon":5.3668,"is_reserved":false,"is_disabled":false,"rental_uris":{"android":"levelo://app?vid=2ab2c619-9cfb-4da7-9f78-cfb4995f9eec","ios":"levelo://app?vid=2ab2c619-9cfb-4da7-9f78-cfb4995f9eec"},"vehicle_type_id":"4","last_reported":1692529432,"current_range_meters":4000,"station_id":"ce4bhs92rcd13ifvqi0g","pricing_plan_id":"free"},{"bike_id":"0f135836-946e-4e91-9b15-72b385cbdf04","system_id":"levelo_inurba_marseille","lat":43.32829,"lon":5.36682,"is_reserved":false,"is_disabled":false,"rental_uris":{"android":"levelo://app?vid=0f135836-946e-4e91-9b15-72b385cbdf04","ios":"levelo://app?vid=0f135836-946e-4e91-9b15-72b385cbdf04"},"vehicle_type_id":"4","last_reported":1692529432,"current_range_meters":29600,"station_id":"ce4bhs92rcd13ifvqi0g","pricing_plan_id":"free"},{"bike_id":"29bd25cb-b8b5-42f3-8864-19511863c069","system_id":"levelo_inurba_marseille","lat":43.3283,"lon":5.36692,"is_reserved":false,"is_disabled":false,"rental_uris":{"android":"levelo://app?vid=29bd25cb-b8b5-42f3-8864-19511863c069","ios":"levelo://app?vid=29bd25cb-b8b5-42f3-8864-19511863c069"},"vehicle_type_id":"4","last_reported":1692529432,"current_range_meters":26400,"station_id":"ce4bhs92rcd13ifvqi0g","pricing_plan_id":"free"},{"bike_id":"cb6c408c-56b3-4aaa-8904-aaf9a843fb9a","system_id":"levelo_inurba_marseille","lat":43.328371,"lon":5.366909,"is_reserved":false,"is_disabled":false,"rental_uris":{"android":"levelo://app?vid=cb6c408c-56b3-4aaa-8904-aaf9a843fb9a","ios":"levelo://app?vid=cb6c408c-56b3-4aaa-8904-aaf9a843fb9a"},"vehicle_type_id":"4","last_reported":1692529432,"current_range_meters":19600,"station_id":"ce4bhs92rcd13ifvqi0g","pricing_plan_id":"free"},{"bike_id":"8789418c-5fcb-45bc-8570-a5a919b55c11","system_id":"levelo_inurba_marseille","lat":43.328371,"lon":5.366909,"is_reserved":false,"is_disabled":false,"rental_uris":{"android":"levelo://app?vid=8789418c-5fcb-45bc-8570-a5a919b55c11","ios":"levelo://app?vid=8789418c-5fcb-45bc-8570-a5a919b55c11"},"vehicle_type_id":"4","last_reported":1692529432,"current_range_meters":9600,"station_id":"ce4bhs92rcd13ifvqi0g","pricing_plan_id":"free"},{"bike_id":"dd789220-e7b5-42c1-b9dc-dc4243148021","system_id":"levelo_inurba_marseille","lat":43.297163,"lon":5.365866,"is_reserved":false,"is_disabled":false,"rental_uris":{"android":"levelo://app?vid=dd789220-e7b5-42c1-b9dc-dc4243148021","ios":"levelo://app?vid=dd789220-e7b5-42c1-b9dc-dc4243148021"},"vehicle_type_id":"4","last_reported":1692529432,"current_range_meters":31200,"station_id":"ce4bgn12rcd13ifvqbt0","pricing_plan_id":"free"},{"bike_id":"3ae83bd7-4f98-4718-85d0-b16eb97344f2","system_id":"levelo_inurba_marseille","lat":43.29711,"lon":5.36607,"is_reserved":false,"is_disabled":false,"rental_uris":{"android":"levelo://app?vid=3ae83bd7-4f98-4718-85d0-b16eb97344f2","ios":"levelo://app?vid=3ae83bd7-4f98-4718-85d0-b16eb97344f2"},"vehicle_type_id":"4","last_reported":1692529432,"current_range_meters":31200,"station_id":"ce4bgn12rcd13ifvqbt0","pricing_plan_id":"free"},{"bike_id":"7327895c-de84-471e-8d10-75404cb1d63b","system_id":"levelo_inurba_marseille","lat":43.297163,"lon":5.365866,"is_reserved":false,"is_disabled":false,"rental_uris":{"android":"levelo://app?vid=7327895c-de84-471e-8d10-75404cb1d63b","ios":"levelo://app?vid=7327895c-de84-471e-8d10-75404cb1d63b"},"vehicle_type_id":"4","last_reported":1692529432,"current_range_meters":29600,"station_id":"ce4bgn12rcd13ifvqbt0","pricing_plan_id":"free"},{"bike_id":"bb155e93-116e-494a-9911-2df351c7dae8","system_id":"levelo_inurba_marseille","lat":43.296131,"lon":5.370773,"is_reserved":false,"is_disabled":false,"rental_uris":{"android":"levelo://app?vid=bb155e93-116e-494a-9911-2df351c7dae8","ios":"levelo://app?vid=bb155e93-116e-494a-9911-2df351c7dae8"},"vehicle_type_id":"4","last_reported":1692529432,"current_range_meters":27200,"station_id":"ce4bgnh2rcd13ifvqc0g","pricing_plan_id":"free"},{"bike_id":"e0aefba6-63e2-40dc-b240-0944f567576b","system_id":"levelo_inurba_marseille","lat":43.296131,"lon":5.370791,"is_reserved":false,"is_disabled":false,"rental_uris":{"android":"levelo://app?vid=e0aefba6-63e2-40dc-b240-0944f567576b","ios":"levelo://app?vid=e0aefba6-63e2-40dc-b240-0944f567576b"},"vehicle_type_id":"4","last_reported":1692529432,"current_range_meters":26000,"station_id":"ce4bgnh2rcd13ifvqc0g","pricing_plan_id":"free"},{"bike_id":"8326adef-f4fb-46bf-866f-9f80cf3bbc02","system_id":"levelo_inurba_marseille","lat":43.29573,"lon":5.367355,"is_reserved":false,"is_disabled":false,"rental_uris":{"android":"levelo://app?vid=8326adef-f4fb-46bf-866f-9f80cf3bbc02","ios":"levelo://app?vid=8326adef-f4fb-46bf-866f-9f80cf3bbc02"},"vehicle_type_id":"4","last_reported":1692529432,"current_range_meters":18000,"station_id":"ce4bgph2rcd13ifvqc2g","pricing_plan_id":"free"},{"bike_id":"d3139180-8ba9-4c91-b6e4-8baae3c22113","system_id":"levelo_inurba_marseille","lat":43.29614,"lon":5.37187,"is_reserved":false,"is_disabled":false,"rental_uris":{"android":"levelo://app?vid=d3139180-8ba9-4c91-b6e4-8baae3c22113","ios":"levelo://app?vid=d3139180-8ba9-4c91-b6e4-8baae3c22113"},"vehicle_type_id":"4","last_reported":1692529432,"current_range_meters":30000,"station_id":"","pricing_plan_id":"free"},{"bike_id":"a0b86a73-4ade-4e7c-bd9f-ed3e2b8e3bfe","system_id":"levelo_inurba_marseille","lat":43.299028,"lon":5.381509,"is_reserved":false,"is_disabled":false,"rental_uris":{"android":"levelo://app?vid=a0b86a73-4ade-4e7c-bd9f-ed3e2b8e3bfe","ios":"levelo://app?vid=a0b86a73-4ade-4e7c-bd9f-ed3e2b8e3bfe"},"vehicle_type_id":"4","last_reported":1692529432,"current_range_meters":6400,"station_id":"ce4bgj12rcd13ifvqbc0","pricing_plan_id":"free"},{"bike_id":"70237b1a-51a5-4931-9ff7-54761a080f8e","system_id":"levelo_inurba_marseille","lat":43.299028,"lon":5.381509,"is_reserved":false,"is_disabled":false,"rental_uris":{"android":"levelo://app?vid=70237b1a-51a5-4931-9ff7-54761a080f8e","ios":"levelo://app?vid=70237b1a-51a5-4931-9ff7-54761a080f8e"},"vehicle_type_id":"4","last_reported":1692529432,"current_range_meters":30000,"station_id":"ce4bgj12rcd13ifvqbc0","pricing_plan_id":"free"},{"bike_id":"65737b37-4aa5-42a5-a923-e2edd0944a26","system_id":"levelo_inurba_marseille","lat":43.299028,"lon":5.381509,"is_reserved":false,"is_disabled":false,"rental_uris":{"android":"levelo://app?vid=65737b37-4aa5-42a5-a923-e2edd0944a26","ios":"levelo://app?vid=65737b37-4aa5-42a5-a923-e2edd0944a26"},"vehicle_type_id":"4","last_reported":1692529432,"current_range_meters":20800,"station_id":"ce4bgj12rcd13ifvqbc0","pricing_plan_id":"free"},{"bike_id":"34300c12-c747-4e2c-9b06-14a8220aa48c","system_id":"levelo_inurba_marseille","lat":43.299028,"lon":5.381509,"is_reserved":false,"is_disabled":false,"rental_uris":{"android":"levelo://app?vid=34300c12-c747-4e2c-9b06-14a8220aa48c","ios":"levelo://app?vid=34300c12-c747-4e2c-9b06-14a8220aa48c"},"vehicle_type_id":"4","last_reported":1692529432,"current_range_meters":21600,"station_id":"ce4bgj12rcd13ifvqbc0","pricing_plan_id":"free"},{"bike_id":"a675eac7-e595-40ac-b5e9-92788252d446","system_id":"levelo_inurba_marseille","lat":43.299028,"lon":5.381509,"is_reserved":false,"is_disabled":false,"rental_uris":{"android":"levelo://app?vid=a675eac7-e595-40ac-b5e9-92788252d446","ios":"levelo://app?vid=a675eac7-e595-40ac-b5e9-92788252d446"},"vehicle_type_id":"4","last_reported":1692529432,"current_range_meters":0,"station_id":"ce4bgj12rcd13ifvqbc0","pricing_plan_id":"free"},{"bike_id":"821e9a9e-3d71-40b4-b81b-c726123046c0","system_id":"levelo_inurba_marseille","lat":43.317557,"lon":5.390173,"is_reserved":false,"is_disabled":false,"rental_uris":{"android":"levelo://app?vid=821e9a9e-3d71-40b4-b81b-c726123046c0","ios":"levelo://app?vid=821e9a9e-3d71-40b4-b81b-c726123046c0"},"vehicle_type_id":"4","last_reported":1692529432,"current_range_meters":18800,"station_id":"ce4bhqp2rcd13ifvqhng","pricing_plan_id":"free"},{"bike_id":"a4df99ce-0488-49dd-a888-94686f562e88","system_id":"levelo_inurba_marseille","lat":43.295748,"lon":5.37522,"is_reserved":false,"is_disabled":false,"rental_uris":{"android":"levelo://app?vid=a4df99ce-0488-49dd-a888-94686f562e88","ios":"levelo://app?vid=a4df99ce-0488-49dd-a888-94686f562e88"},"vehicle_type_id":"4","last_reported":1692529432,"current_range_meters":29600,"station_id":"ce4bgh92rcd13ifvqb50","pricing_plan_id":"free"},{"bike_id":"8a5d8009-3994-492a-9f55-e8786a2e9c1d","system_id":"levelo_inurba_marseille","lat":43.297946,"lon":5.381214,"is_reserved":false,"is_disabled":false,"rental_uris":{"android":"levelo://app?vid=8a5d8009-3994-492a-9f55-e8786a2e9c1d","ios":"levelo://app?vid=8a5d8009-3994-492a-9f55-e8786a2e9c1d"},"vehicle_type_id":"4","last_reported":1692529432,"current_range_meters":17200,"station_id":"ce4bgip2rcd13ifvqbb0","pricing_plan_id":"free"},{"bike_id":"9100f3f9-63a5-4048-b31e-cae6b7442f59","system_id":"levelo_inurba_marseille","lat":43.30847,"lon":5.39183,"is_reserved":false,"is_disabled":false,"rental_uris":{"android":"levelo://app?vid=9100f3f9-63a5-4048-b31e-cae6b7442f59","ios":"levelo://app?vid=9100f3f9-63a5-4048-b31e-cae6b7442f59"},"vehicle_type_id":"4","last_reported":1692529432,"current_range_meters":18400,"station_id":"","pricing_plan_id":"free"},{"bike_id":"23d61178-fcaa-4ba4-aee4-746c25e5b4bf","system_id":"levelo_inurba_marseille","lat":43.33083,"lon":5.37468,"is_reserved":false,"is_disabled":false,"rental_uris":{"android":"levelo://app?vid=23d61178-fcaa-4ba4-aee4-746c25e5b4bf","ios":"levelo://app?vid=23d61178-fcaa-4ba4-aee4-746c25e5b4bf"},"vehicle_type_id":"4","last_reported":1692529432,"current_range_meters":26400,"station_id":"","pricing_plan_id":"free"},{"bike_id":"21fcea45-e491-4a85-bcbf-bf5cd0b62ccf","system_id":"levelo_inurba_marseille","lat":43.32358,"lon":5.38882,"is_reserved":false,"is_disabled":false,"rental_uris":{"android":"levelo://app?vid=21fcea45-e491-4a85-bcbf-bf5cd0b62ccf","ios":"levelo://app?vid=21fcea45-e491-4a85-bcbf-bf5cd0b62ccf"},"vehicle_type_id":"4","last_reported":1692529432,"current_range_meters":28800,"station_id":"ce4bhqp2rcd13ifvqhog","pricing_plan_id":"free"},{"bike_id":"6b6cba89-d2b8-44bb-8454-5df08cf65f67","system_id":"levelo_inurba_marseille","lat":43.32366,"lon":5.38886,"is_reserved":false,"is_disabled":false,"rental_uris":{"android":"levelo://app?vid=6b6cba89-d2b8-44bb-8454-5df08cf65f67","ios":"levelo://app?vid=6b6cba89-d2b8-44bb-8454-5df08cf65f67"},"vehicle_type_id":"4","last_reported":1692529432,"current_range_meters":8800,"station_id":"ce4bhqp2rcd13ifvqhog","pricing_plan_id":"free"},{"bike_id":"0126f869-77bb-4690-a14f-53e2dd9d4689","system_id":"levelo_inurba_marseille","lat":43.3237,"lon":5.38888,"is_reserved":false,"is_disabled":false,"rental_uris":{"android":"levelo://app?vid=0126f869-77bb-4690-a14f-53e2dd9d4689","ios":"levelo://app?vid=0126f869-77bb-4690-a14f-53e2dd9d4689"},"vehicle_type_id":"4","last_reported":1692529432,"current_range_meters":22000,"station_id":"ce4bhqp2rcd13ifvqhog","pricing_plan_id":"free"},{"bike_id":"ca09e0b8-f3a0-448c-8443-5ea5419aad1c","system_id":"levelo_inurba_marseille","lat":43.29601,"lon":5.381084,"is_reserved":false,"is_disabled":false,"rental_uris":{"android":"levelo://app?vid=ca09e0b8-f3a0-448c-8443-5ea5419aad1c","ios":"levelo://app?vid=ca09e0b8-f3a0-448c-8443-5ea5419aad1c"},"vehicle_type_id":"4","last_reported":1692529432,"current_range_meters":24800,"station_id":"ce4bgl12rcd13ifvqbo0","pricing_plan_id":"free"},{"bike_id":"38fef587-7cc5-4800-b069-87b8f296a10a","system_id":"levelo_inurba_marseille","lat":43.293009,"lon":5.374584,"is_reserved":false,"is_disabled":false,"rental_uris":{"android":"levelo://app?vid=38fef587-7cc5-4800-b069-87b8f296a10a","ios":"levelo://app?vid=38fef587-7cc5-4800-b069-87b8f296a10a"},"vehicle_type_id":"4","last_reported":1692529432,"current_range_meters":31200,"station_id":"ce4bgi12rcd13ifvqb70","pricing_plan_id":"free"},{"bike_id":"9b8058fd-1fff-4c76-8dff-18ee55c1519f","system_id":"levelo_inurba_marseille","lat":43.305994,"lon":5.393687,"is_reserved":false,"is_disabled":false,"rental_uris":{"android":"levelo://app?vid=9b8058fd-1fff-4c76-8dff-18ee55c1519f","ios":"levelo://app?vid=9b8058fd-1fff-4c76-8dff-18ee55c1519f"},"vehicle_type_id":"4","last_reported":1692529432,"current_range_meters":11600,"station_id":"ce4bh0p2rcd13ifvqd80","pricing_plan_id":"free"},{"bike_id":"0724f352-a262-45b7-9b71-9a09ff17d945","system_id":"levelo_inurba_marseille","lat":43.303002,"lon":5.392142,"is_reserved":false,"is_disabled":false,"rental_uris":{"android":"levelo://app?vid=0724f352-a262-45b7-9b71-9a09ff17d945","ios":"levelo://app?vid=0724f352-a262-45b7-9b71-9a09ff17d945"},"vehicle_type_id":"4","last_reported":1692529432,"current_range_meters":20400,"station_id":"ce4bgkh2rcd13ifvqbk0","pricing_plan_id":"free"},{"bike_id":"cc850a66-7df1-4588-b151-c3644665e2bc","system_id":"levelo_inurba_marseille","lat":43.29866,"lon":5.389115,"is_reserved":false,"is_disabled":false,"rental_uris":{"android":"levelo://app?vid=cc850a66-7df1-4588-b151-c3644665e2bc","ios":"levelo://app?vid=cc850a66-7df1-4588-b151-c3644665e2bc"},"vehicle_type_id":"4","last_reported":1692529432,"current_range_meters":17200,"station_id":"ce4bh392rcd13ifvqdl0","pricing_plan_id":"free"},{"bike_id":"1f05297f-8d4a-4f93-b1d7-3e019ea5a013","system_id":"levelo_inurba_marseille","lat":43.298764,"lon":5.388973,"is_reserved":false,"is_disabled":false,"rental_uris":{"android":"levelo://app?vid=1f05297f-8d4a-4f93-b1d7-3e019ea5a013","ios":"levelo://app?vid=1f05297f-8d4a-4f93-b1d7-3e019ea5a013"},"vehicle_type_id":"4","last_reported":1692529432,"current_range_meters":4800,"station_id":"ce4bh392rcd13ifvqdl0","pricing_plan_id":"free"},{"bike_id":"b24efd8f-f8ce-4faf-8e9d-d8f55a252ca0","system_id":"levelo_inurba_marseille","lat":43.31327,"lon":5.39694,"is_reserved":false,"is_disabled":false,"rental_uris":{"android":"levelo://app?vid=b24efd8f-f8ce-4faf-8e9d-d8f55a252ca0","ios":"levelo://app?vid=b24efd8f-f8ce-4faf-8e9d-d8f55a252ca0"},"vehicle_type_id":"4","last_reported":1692529432,"current_range_meters":22400,"station_id":"ce4bgvp2rcd13ifvqcu0","pricing_plan_id":"free"},{"bike_id":"d578e2f6-a0b3-41f6-a972-c5cc1b88cd71","system_id":"levelo_inurba_marseille","lat":43.31325,"lon":5.39698,"is_reserved":false,"is_disabled":false,"rental_uris":{"android":"levelo://app?vid=d578e2f6-a0b3-41f6-a972-c5cc1b88cd71","ios":"levelo://app?vid=d578e2f6-a0b3-41f6-a972-c5cc1b88cd71"},"vehicle_type_id":"4","last_reported":1692529432,"current_range_meters":27600,"station_id":"ce4bgvp2rcd13ifvqcu0","pricing_plan_id":"free"},{"bike_id":"440c92a7-d3c4-4138-a6da-5e9f30ee9fbf","system_id":"levelo_inurba_marseille","lat":43.3133,"lon":5.39699,"is_reserved":false,"is_disabled":false,"rental_uris":{"android":"levelo://app?vid=440c92a7-d3c4-4138-a6da-5e9f30ee9fbf","ios":"levelo://app?vid=440c92a7-d3c4-4138-a6da-5e9f30ee9fbf"},"vehicle_type_id":"4","last_reported":1692529432,"current_range_meters":29200,"station_id":"ce4bgvp2rcd13ifvqcu0","pricing_plan_id":"free"},{"bike_id":"c5766598-0cf6-4a2e-b504-6ec46f86bb56","system_id":"levelo_inurba_marseille","lat":43.30893,"lon":5.39657,"is_reserved":false,"is_disabled":false,"rental_uris":{"android":"levelo://app?vid=c5766598-0cf6-4a2e-b504-6ec46f86bb56","ios":"levelo://app?vid=c5766598-0cf6-4a2e-b504-6ec46f86bb56"},"vehicle_type_id":"4","last_reported":1692529432,"current_range_meters":19200,"station_id":"ce4bh012rcd13ifvqcv0","pricing_plan_id":"free"},{"bike_id":"f1acd258-2026-46ba-9147-1eb5a522a103","system_id":"levelo_inurba_marseille","lat":43.290631,"lon":5.359244,"is_reserved":false,"is_disabled":false,"rental_uris":{"android":"levelo://app?vid=f1acd258-2026-46ba-9147-1eb5a522a103","ios":"levelo://app?vid=f1acd258-2026-46ba-9147-1eb5a522a103"},"vehicle_type_id":"4","last_reported":1692529432,"current_range_meters":28400,"station_id":"ce4bha92rcd13ifvqeg0","pricing_plan_id":"free"},{"bike_id":"e6f0a162-8d56-4f96-aaa4-76d5082436c3","system_id":"levelo_inurba_marseille","lat":43.290302,"lon":5.375609,"is_reserved":false,"is_disabled":false,"rental_uris":{"android":"levelo://app?vid=e6f0a162-8d56-4f96-aaa4-76d5082436c3","ios":"levelo://app?vid=e6f0a162-8d56-4f96-aaa4-76d5082436c3"},"vehicle_type_id":"4","last_reported":1692529432,"current_range_meters":17600,"station_id":"ce4bh692rcd13ifvqe90","pricing_plan_id":"free"},{"bike_id":"b20aa800-eb54-4c56-939a-d2bfbcbe7537","system_id":"levelo_inurba_marseille","lat":43.290327,"lon":5.375711,"is_reserved":false,"is_disabled":false,"rental_uris":{"android":"levelo://app?vid=b20aa800-eb54-4c56-939a-d2bfbcbe7537","ios":"levelo://app?vid=b20aa800-eb54-4c56-939a-d2bfbcbe7537"},"vehicle_type_id":"4","last_reported":1692529432,"current_range_meters":21600,"station_id":"ce4bh692rcd13ifvqe90","pricing_plan_id":"free"},{"bike_id":"2838aad9-8b63-4a48-b043-e8ade28f8f7b","system_id":"levelo_inurba_marseille","lat":43.289184,"lon":5.366408,"is_reserved":false,"is_disabled":false,"rental_uris":{"android":"levelo://app?vid=2838aad9-8b63-4a48-b043-e8ade28f8f7b","ios":"levelo://app?vid=2838aad9-8b63-4a48-b043-e8ade28f8f7b"},"vehicle_type_id":"4","last_reported":1692529432,"current_range_meters":14000,"station_id":"ce4bhap2rcd13ifvqek0","pricing_plan_id":"free"},{"bike_id":"dd9cebaf-1728-4a7a-96c5-4adabd6f61a8","system_id":"levelo_inurba_marseille","lat":43.292644,"lon":5.384257,"is_reserved":false,"is_disabled":false,"rental_uris":{"android":"levelo://app?vid=dd9cebaf-1728-4a7a-96c5-4adabd6f61a8","ios":"levelo://app?vid=dd9cebaf-1728-4a7a-96c5-4adabd6f61a8"},"vehicle_type_id":"4","last_reported":1692529432,"current_range_meters":9600,"station_id":"ce4bh692rcd13ifvqea0","pricing_plan_id":"free"},{"bike_id":"9acb1d15-1a47-417d-a359-200b783022be","system_id":"levelo_inurba_marseille","lat":43.30479,"lon":5.39787,"is_reserved":false,"is_disabled":false,"rental_uris":{"android":"levelo://app?vid=9acb1d15-1a47-417d-a359-200b783022be","ios":"levelo://app?vid=9acb1d15-1a47-417d-a359-200b783022be"},"vehicle_type_id":"4","last_reported":1692529432,"current_range_meters":28400,"station_id":"ce4bh092rcd13ifvqd20","pricing_plan_id":"free"},{"bike_id":"5036c72a-6252-47f4-a9fb-50fd514d506a","system_id":"levelo_inurba_marseille","lat":43.33039,"lon":5.38918,"is_reserved":false,"is_disabled":false,"rental_uris":{"android":"levelo://app?vid=5036c72a-6252-47f4-a9fb-50fd514d506a","ios":"levelo://app?vid=5036c72a-6252-47f4-a9fb-50fd514d506a"},"vehicle_type_id":"4","last_reported":1692529432,"current_range_meters":20400,"station_id":"ce4bhr92rcd13ifvqhrg","pricing_plan_id":"free"},{"bike_id":"16105e4d-cb4a-4aae-91bb-2ecd41a7406b","system_id":"levelo_inurba_marseille","lat":43.33042,"lon":5.38916,"is_reserved":false,"is_disabled":false,"rental_uris":{"android":"levelo://app?vid=16105e4d-cb4a-4aae-91bb-2ecd41a7406b","ios":"levelo://app?vid=16105e4d-cb4a-4aae-91bb-2ecd41a7406b"},"vehicle_type_id":"4","last_reported":1692529432,"current_range_meters":20400,"station_id":"ce4bhr92rcd13ifvqhrg","pricing_plan_id":"free"},{"bike_id":"331b6e0a-8cfc-4305-9eef-0266cde03da7","system_id":"levelo_inurba_marseille","lat":43.3304,"lon":5.38921,"is_reserved":false,"is_disabled":false,"rental_uris":{"android":"levelo://app?vid=331b6e0a-8cfc-4305-9eef-0266cde03da7","ios":"levelo://app?vid=331b6e0a-8cfc-4305-9eef-0266cde03da7"},"vehicle_type_id":"4","last_reported":1692529432,"current_range_meters":13600,"station_id":"ce4bhr92rcd13ifvqhrg","pricing_plan_id":"free"},{"bike_id":"de450cac-4370-4660-9455-3e94463307a2","system_id":"levelo_inurba_marseille","lat":43.3304,"lon":5.38922,"is_reserved":false,"is_disabled":false,"rental_uris":{"android":"levelo://app?vid=de450cac-4370-4660-9455-3e94463307a2","ios":"levelo://app?vid=de450cac-4370-4660-9455-3e94463307a2"},"vehicle_type_id":"4","last_reported":1692529432,"current_range_meters":15600,"station_id":"ce4bhr92rcd13ifvqhrg","pricing_plan_id":"free"},{"bike_id":"a5d7998c-4c76-4390-bbcf-8c2a2abd7eba","system_id":"levelo_inurba_marseille","lat":43.3304,"lon":5.38923,"is_reserved":false,"is_disabled":false,"rental_uris":{"android":"levelo://app?vid=a5d7998c-4c76-4390-bbcf-8c2a2abd7eba","ios":"levelo://app?vid=a5d7998c-4c76-4390-bbcf-8c2a2abd7eba"},"vehicle_type_id":"4","last_reported":1692529432,"current_range_meters":29600,"station_id":"ce4bhr92rcd13ifvqhrg","pricing_plan_id":"free"},{"bike_id":"a64b8170-4f22-42b1-bf04-f0ea7767b287","system_id":"levelo_inurba_marseille","lat":43.33047,"lon":5.38914,"is_reserved":false,"is_disabled":false,"rental_uris":{"android":"levelo://app?vid=a64b8170-4f22-42b1-bf04-f0ea7767b287","ios":"levelo://app?vid=a64b8170-4f22-42b1-bf04-f0ea7767b287"},"vehicle_type_id":"4","last_reported":1692529432,"current_range_meters":26800,"station_id":"ce4bhr92rcd13ifvqhrg","pricing_plan_id":"free"},{"bike_id":"c8619c93-5f6a-45f4-8e07-c81fcc1e21be","system_id":"levelo_inurba_marseille","lat":43.33044,"lon":5.38919,"is_reserved":false,"is_disabled":false,"rental_uris":{"android":"levelo://app?vid=c8619c93-5f6a-45f4-8e07-c81fcc1e21be","ios":"levelo://app?vid=c8619c93-5f6a-45f4-8e07-c81fcc1e21be"},"vehicle_type_id":"4","last_reported":1692529432,"current_range_meters":24800,"station_id":"ce4bhr92rcd13ifvqhrg","pricing_plan_id":"free"},{"bike_id":"86eac789-1e56-496d-abfa-705e29d378c7","system_id":"levelo_inurba_marseille","lat":43.33043,"lon":5.38921,"is_reserved":false,"is_disabled":false,"rental_uris":{"android":"levelo://app?vid=86eac789-1e56-496d-abfa-705e29d378c7","ios":"levelo://app?vid=86eac789-1e56-496d-abfa-705e29d378c7"},"vehicle_type_id":"4","last_reported":1692529432,"current_range_meters":27600,"station_id":"ce4bhr92rcd13ifvqhrg","pricing_plan_id":"free"},{"bike_id":"9e24a65c-fe1e-45dc-88b9-dd0cad85064c","system_id":"levelo_inurba_marseille","lat":43.33046,"lon":5.38917,"is_reserved":false,"is_disabled":false,"rental_uris":{"android":"levelo://app?vid=9e24a65c-fe1e-45dc-88b9-dd0cad85064c","ios":"levelo://app?vid=9e24a65c-fe1e-45dc-88b9-dd0cad85064c"},"vehicle_type_id":"4","last_reported":1692529432,"current_range_meters":27600,"station_id":"ce4bhr92rcd13ifvqhrg","pricing_plan_id":"free"},{"bike_id":"ba194107-ea90-4b33-9338-192f5dc06471","system_id":"levelo_inurba_marseille","lat":43.30467,"lon":5.39799,"is_reserved":false,"is_disabled":false,"rental_uris":{"android":"levelo://app?vid=ba194107-ea90-4b33-9338-192f5dc06471","ios":"levelo://app?vid=ba194107-ea90-4b33-9338-192f5dc06471"},"vehicle_type_id":"4","last_reported":1692529432,"current_range_meters":29600,"station_id":"","pricing_plan_id":"free"},{"bike_id":"3b3e7c42-cded-4bde-b175-99650afa4f17","system_id":"levelo_inurba_marseille","lat":43.33046,"lon":5.38918,"is_reserved":false,"is_disabled":false,"rental_uris":{"android":"levelo://app?vid=3b3e7c42-cded-4bde-b175-99650afa4f17","ios":"levelo://app?vid=3b3e7c42-cded-4bde-b175-99650afa4f17"},"vehicle_type_id":"4","last_reported":1692529432,"current_range_meters":22000,"station_id":"ce4bhr92rcd13ifvqhrg","pricing_plan_id":"free"},{"bike_id":"708f7f21-b221-4c14-94b6-b5d8e3289350","system_id":"levelo_inurba_marseille","lat":43.33045,"lon":5.3892,"is_reserved":false,"is_disabled":false,"rental_uris":{"android":"levelo://app?vid=708f7f21-b221-4c14-94b6-b5d8e3289350","ios":"levelo://app?vid=708f7f21-b221-4c14-94b6-b5d8e3289350"},"vehicle_type_id":"4","last_reported":1692529432,"current_range_meters":18800,"station_id":"ce4bhr92rcd13ifvqhrg","pricing_plan_id":"free"},{"bike_id":"86535332-25ae-4735-984f-2b7a7387a6af","system_id":"levelo_inurba_marseille","lat":43.33044,"lon":5.38922,"is_reserved":false,"is_disabled":false,"rental_uris":{"android":"levelo://app?vid=86535332-25ae-4735-984f-2b7a7387a6af","ios":"levelo://app?vid=86535332-25ae-4735-984f-2b7a7387a6af"},"vehicle_type_id":"4","last_reported":1692529432,"current_range_meters":28000,"station_id":"ce4bhr92rcd13ifvqhrg","pricing_plan_id":"free"},{"bike_id":"70576a93-fbdb-4696-908e-c08c0f1995f8","system_id":"levelo_inurba_marseille","lat":43.33046,"lon":5.3892,"is_reserved":false,"is_disabled":false,"rental_uris":{"android":"levelo://app?vid=70576a93-fbdb-4696-908e-c08c0f1995f8","ios":"levelo://app?vid=70576a93-fbdb-4696-908e-c08c0f1995f8"},"vehicle_type_id":"4","last_reported":1692529432,"current_range_meters":23600,"station_id":"ce4bhr92rcd13ifvqhrg","pricing_plan_id":"free"},{"bike_id":"9ca928ee-8a70-4281-ad9c-b441b0cb5fc1","system_id":"levelo_inurba_marseille","lat":43.290104,"lon":5.356111,"is_reserved":false,"is_disabled":false,"rental_uris":{"android":"levelo://app?vid=9ca928ee-8a70-4281-ad9c-b441b0cb5fc1","ios":"levelo://app?vid=9ca928ee-8a70-4281-ad9c-b441b0cb5fc1"},"vehicle_type_id":"4","last_reported":1692529432,"current_range_meters":26000,"station_id":"ce4bhb92rcd13ifvqen0","pricing_plan_id":"free"},{"bike_id":"d2b15eb2-4474-4e56-aace-fe335ab0092e","system_id":"levelo_inurba_marseille","lat":43.33047,"lon":5.3892,"is_reserved":false,"is_disabled":false,"rental_uris":{"android":"levelo://app?vid=d2b15eb2-4474-4e56-aace-fe335ab0092e","ios":"levelo://app?vid=d2b15eb2-4474-4e56-aace-fe335ab0092e"},"vehicle_type_id":"4","last_reported":1692529432,"current_range_meters":12800,"station_id":"ce4bhr92rcd13ifvqhrg","pricing_plan_id":"free"},{"bike_id":"024f4d94-1555-4991-925c-5e7448051bbb","system_id":"levelo_inurba_marseille","lat":43.33046,"lon":5.38922,"is_reserved":false,"is_disabled":false,"rental_uris":{"android":"levelo://app?vid=024f4d94-1555-4991-925c-5e7448051bbb","ios":"levelo://app?vid=024f4d94-1555-4991-925c-5e7448051bbb"},"vehicle_type_id":"4","last_reported":1692529432,"current_range_meters":26400,"station_id":"ce4bhr92rcd13ifvqhrg","pricing_plan_id":"free"},{"bike_id":"5c8c244a-8618-42d9-abf2-521b07f6577d","system_id":"levelo_inurba_marseille","lat":43.33044,"lon":5.38925,"is_reserved":false,"is_disabled":false,"rental_uris":{"android":"levelo://app?vid=5c8c244a-8618-42d9-abf2-521b07f6577d","ios":"levelo://app?vid=5c8c244a-8618-42d9-abf2-521b07f6577d"},"vehicle_type_id":"4","last_reported":1692529432,"current_range_meters":25600,"station_id":"ce4bhr92rcd13ifvqhrg","pricing_plan_id":"free"},{"bike_id":"eb950724-6c95-4fb2-915f-35b08a8cfd23","system_id":"levelo_inurba_marseille","lat":43.33048,"lon":5.38919,"is_reserved":false,"is_disabled":false,"rental_uris":{"android":"levelo://app?vid=eb950724-6c95-4fb2-915f-35b08a8cfd23","ios":"levelo://app?vid=eb950724-6c95-4fb2-915f-35b08a8cfd23"},"vehicle_type_id":"4","last_reported":1692529432,"current_range_meters":17600,"station_id":"ce4bhr92rcd13ifvqhrg","pricing_plan_id":"free"},{"bike_id":"52662068-d06a-40c1-bfee-ce6664dc3a83","system_id":"levelo_inurba_marseille","lat":43.33048,"lon":5.3892,"is_reserved":false,"is_disabled":false,"rental_uris":{"android":"levelo://app?vid=52662068-d06a-40c1-bfee-ce6664dc3a83","ios":"levelo://app?vid=52662068-d06a-40c1-bfee-ce6664dc3a83"},"vehicle_type_id":"4","last_reported":1692529432,"current_range_meters":1200,"station_id":"ce4bhr92rcd13ifvqhrg","pricing_plan_id":"free"},{"bike_id":"7d19a255-9f7a-4d0e-beba-2bfebb3c7b5e","system_id":"levelo_inurba_marseille","lat":43.3305,"lon":5.3892,"is_reserved":false,"is_disabled":false,"rental_uris":{"android":"levelo://app?vid=7d19a255-9f7a-4d0e-beba-2bfebb3c7b5e","ios":"levelo://app?vid=7d19a255-9f7a-4d0e-beba-2bfebb3c7b5e"},"vehicle_type_id":"4","last_reported":1692529432,"current_range_meters":20400,"station_id":"ce4bhr92rcd13ifvqhrg","pricing_plan_id":"free"},{"bike_id":"c8e96acb-e596-44e5-9cfb-81c5b56653b0","system_id":"levelo_inurba_marseille","lat":43.290995,"lon":5.381361,"is_reserved":false,"is_disabled":false,"rental_uris":{"android":"levelo://app?vid=c8e96acb-e596-44e5-9cfb-81c5b56653b0","ios":"levelo://app?vid=c8e96acb-e596-44e5-9cfb-81c5b56653b0"},"vehicle_type_id":"4","last_reported":1692529432,"current_range_meters":9600,"station_id":"ce4bh512rcd13ifvqe2g","pricing_plan_id":"free"},{"bike_id":"c7d3186c-bee1-4f44-abff-b5b6c034fbb9","system_id":"levelo_inurba_marseille","lat":43.289741,"lon":5.378306,"is_reserved":false,"is_disabled":false,"rental_uris":{"android":"levelo://app?vid=c7d3186c-bee1-4f44-abff-b5b6c034fbb9","ios":"levelo://app?vid=c7d3186c-bee1-4f44-abff-b5b6c034fbb9"},"vehicle_type_id":"4","last_reported":1692529432,"current_range_meters":29600,"station_id":"ce4bh9p2rcd13ifvqed0","pricing_plan_id":"free"},{"bike_id":"5af4842c-fa57-4dbf-ae71-4b0188cb63cc","system_id":"levelo_inurba_marseille","lat":43.28856,"lon":5.358371,"is_reserved":false,"is_disabled":false,"rental_uris":{"android":"levelo://app?vid=5af4842c-fa57-4dbf-ae71-4b0188cb63cc","ios":"levelo://app?vid=5af4842c-fa57-4dbf-ae71-4b0188cb63cc"},"vehicle_type_id":"4","last_reported":1692529432,"current_range_meters":6800,"station_id":"ce4bhb12rcd13ifvqem0","pricing_plan_id":"free"},{"bike_id":"a71d2afb-8f25-4d34-a588-181b68754fe8","system_id":"levelo_inurba_marseille","lat":43.28856,"lon":5.358371,"is_reserved":false,"is_disabled":false,"rental_uris":{"android":"levelo://app?vid=a71d2afb-8f25-4d34-a588-181b68754fe8","ios":"levelo://app?vid=a71d2afb-8f25-4d34-a588-181b68754fe8"},"vehicle_type_id":"4","last_reported":1692529432,"current_range_meters":31200,"station_id":"ce4bhb12rcd13ifvqem0","pricing_plan_id":"free"},{"bike_id":"55d87718-4fb3-4bad-9695-e270da9b8241","system_id":"levelo_inurba_marseille","lat":43.290137,"lon":5.381293,"is_reserved":false,"is_disabled":false,"rental_uris":{"android":"levelo://app?vid=55d87718-4fb3-4bad-9695-e270da9b8241","ios":"levelo://app?vid=55d87718-4fb3-4bad-9695-e270da9b8241"},"vehicle_type_id":"4","last_reported":1692529432,"current_range_meters":22800,"station_id":"ce4bh4p2rcd13ifvqe1g","pricing_plan_id":"free"},{"bike_id":"5aa929d1-4547-4a62-827c-3c8589aa17c9","system_id":"levelo_inurba_marseille","lat":43.312609,"lon":5.401662,"is_reserved":false,"is_disabled":false,"rental_uris":{"android":"levelo://app?vid=5aa929d1-4547-4a62-827c-3c8589aa17c9","ios":"levelo://app?vid=5aa929d1-4547-4a62-827c-3c8589aa17c9"},"vehicle_type_id":"4","last_reported":1692529432,"current_range_meters":14400,"station_id":"ce4bh092rcd13ifvqd30","pricing_plan_id":"free"},{"bike_id":"c1f6f501-c80f-4eb8-a57b-d17f36b2a053","system_id":"levelo_inurba_marseille","lat":43.31276,"lon":5.40167,"is_reserved":false,"is_disabled":false,"rental_uris":{"android":"levelo://app?vid=c1f6f501-c80f-4eb8-a57b-d17f36b2a053","ios":"levelo://app?vid=c1f6f501-c80f-4eb8-a57b-d17f36b2a053"},"vehicle_type_id":"4","last_reported":1692529432,"current_range_meters":21600,"station_id":"ce4bh092rcd13ifvqd30","pricing_plan_id":"free"},{"bike_id":"533ccc34-a877-49a0-8434-a2a1d076242d","system_id":"levelo_inurba_marseille","lat":43.3093,"lon":5.40138,"is_reserved":false,"is_disabled":false,"rental_uris":{"android":"levelo://app?vid=533ccc34-a877-49a0-8434-a2a1d076242d","ios":"levelo://app?vid=533ccc34-a877-49a0-8434-a2a1d076242d"},"vehicle_type_id":"4","last_reported":1692529432,"current_range_meters":27200,"station_id":"ce4bgvp2rcd13ifvqct0","pricing_plan_id":"free"},{"bike_id":"669c3ade-8928-411a-bf18-0b4f82560fa9","system_id":"levelo_inurba_marseille","lat":43.312609,"lon":5.401662,"is_reserved":false,"is_disabled":false,"rental_uris":{"android":"levelo://app?vid=669c3ade-8928-411a-bf18-0b4f82560fa9","ios":"levelo://app?vid=669c3ade-8928-411a-bf18-0b4f82560fa9"},"vehicle_type_id":"4","last_reported":1692529432,"current_range_meters":20000,"station_id":"ce4bh092rcd13ifvqd30","pricing_plan_id":"free"},{"bike_id":"95b7f7df-e2c5-44a6-bf5d-0a221952cf53","system_id":"levelo_inurba_marseille","lat":43.31271,"lon":5.40171,"is_reserved":false,"is_disabled":false,"rental_uris":{"android":"levelo://app?vid=95b7f7df-e2c5-44a6-bf5d-0a221952cf53","ios":"levelo://app?vid=95b7f7df-e2c5-44a6-bf5d-0a221952cf53"},"vehicle_type_id":"4","last_reported":1692529432,"current_range_meters":29200,"station_id":"ce4bh092rcd13ifvqd30","pricing_plan_id":"free"},{"bike_id":"627387c6-c7ea-42b3-be48-fac5d0fe9b32","system_id":"levelo_inurba_marseille","lat":43.312654,"lon":5.40171,"is_reserved":false,"is_disabled":false,"rental_uris":{"android":"levelo://app?vid=627387c6-c7ea-42b3-be48-fac5d0fe9b32","ios":"levelo://app?vid=627387c6-c7ea-42b3-be48-fac5d0fe9b32"},"vehicle_type_id":"4","last_reported":1692529432,"current_range_meters":8800,"station_id":"","pricing_plan_id":"free"},{"bike_id":"a7f9136e-4f42-4f26-9f8f-0bb6ccd7eda2","system_id":"levelo_inurba_marseille","lat":43.30642,"lon":5.401031,"is_reserved":false,"is_disabled":false,"rental_uris":{"android":"levelo://app?vid=a7f9136e-4f42-4f26-9f8f-0bb6ccd7eda2","ios":"levelo://app?vid=a7f9136e-4f42-4f26-9f8f-0bb6ccd7eda2"},"vehicle_type_id":"4","last_reported":1692529432,"current_range_meters":16800,"station_id":"ce4bh112rcd13ifvqda0","pricing_plan_id":"free"},{"bike_id":"f965c954-9206-4a97-b035-75895b629336","system_id":"levelo_inurba_marseille","lat":43.304188,"lon":5.412904,"is_reserved":false,"is_disabled":false,"rental_uris":{"android":"levelo://app?vid=f965c954-9206-4a97-b035-75895b629336","ios":"levelo://app?vid=f965c954-9206-4a97-b035-75895b629336"},"vehicle_type_id":"4","last_reported":1692529432,"current_range_meters":26000,"station_id":"ce4bhop2rcd13ifvqh8g","pricing_plan_id":"free"},{"bike_id":"75199276-b705-4ad7-b6a9-49aeaa84628a","system_id":"levelo_inurba_marseille","lat":43.286591,"lon":5.363346,"is_reserved":false,"is_disabled":false,"rental_uris":{"android":"levelo://app?vid=75199276-b705-4ad7-b6a9-49aeaa84628a","ios":"levelo://app?vid=75199276-b705-4ad7-b6a9-49aeaa84628a"},"vehicle_type_id":"4","last_reported":1692529432,"current_range_meters":30800,"station_id":"ce4bhah2rcd13ifvqej0","pricing_plan_id":"free"},{"bike_id":"b59abd60-cd03-4bb5-a797-7df841760ffc","system_id":"levelo_inurba_marseille","lat":43.30413,"lon":5.40104,"is_reserved":false,"is_disabled":false,"rental_uris":{"android":"levelo://app?vid=b59abd60-cd03-4bb5-a797-7df841760ffc","ios":"levelo://app?vid=b59abd60-cd03-4bb5-a797-7df841760ffc"},"vehicle_type_id":"4","last_reported":1692529432,"current_range_meters":23600,"station_id":"","pricing_plan_id":"free"},{"bike_id":"f6d6fe3c-6ea2-497a-a9c3-710a16e7e1a3","system_id":"levelo_inurba_marseille","lat":43.28657,"lon":5.36342,"is_reserved":false,"is_disabled":false,"rental_uris":{"android":"levelo://app?vid=f6d6fe3c-6ea2-497a-a9c3-710a16e7e1a3","ios":"levelo://app?vid=f6d6fe3c-6ea2-497a-a9c3-710a16e7e1a3"},"vehicle_type_id":"4","last_reported":1692529432,"current_range_meters":30400,"station_id":"ce4bhah2rcd13ifvqej0","pricing_plan_id":"free"},{"bike_id":"6b184877-6ea5-4e4f-89a9-bc6693ac7c6a","system_id":"levelo_inurba_marseille","lat":43.302759,"lon":5.400793,"is_reserved":false,"is_disabled":false,"rental_uris":{"android":"levelo://app?vid=6b184877-6ea5-4e4f-89a9-bc6693ac7c6a","ios":"levelo://app?vid=6b184877-6ea5-4e4f-89a9-bc6693ac7c6a"},"vehicle_type_id":"4","last_reported":1692529432,"current_range_meters":25600,"station_id":"ce4bgvh2rcd13ifvqcs0","pricing_plan_id":"free"},{"bike_id":"0576c703-2c0c-4904-b523-d3faa5a55937","system_id":"levelo_inurba_marseille","lat":43.316517,"lon":5.404375,"is_reserved":false,"is_disabled":false,"rental_uris":{"android":"levelo://app?vid=0576c703-2c0c-4904-b523-d3faa5a55937","ios":"levelo://app?vid=0576c703-2c0c-4904-b523-d3faa5a55937"},"vehicle_type_id":"4","last_reported":1692529432,"current_range_meters":10000,"station_id":"ce4bh012rcd13ifvqd00","pricing_plan_id":"free"},{"bike_id":"7da9e437-1e79-4b5f-9ab0-65254ac17dd7","system_id":"levelo_inurba_marseille","lat":43.31647,"lon":5.40439,"is_reserved":false,"is_disabled":false,"rental_uris":{"android":"levelo://app?vid=7da9e437-1e79-4b5f-9ab0-65254ac17dd7","ios":"levelo://app?vid=7da9e437-1e79-4b5f-9ab0-65254ac17dd7"},"vehicle_type_id":"4","last_reported":1692529432,"current_range_meters":22000,"station_id":"ce4bh012rcd13ifvqd00","pricing_plan_id":"free"},{"bike_id":"7f7b55c1-4ef7-487a-98a2-e4413282b47e","system_id":"levelo_inurba_marseille","lat":43.286182,"lon":5.351075,"is_reserved":false,"is_disabled":false,"rental_uris":{"android":"levelo://app?vid=7f7b55c1-4ef7-487a-98a2-e4413282b47e","ios":"levelo://app?vid=7f7b55c1-4ef7-487a-98a2-e4413282b47e"},"vehicle_type_id":"4","last_reported":1692529432,"current_range_meters":29600,"station_id":"ce4bhch2rcd13ifvqeug","pricing_plan_id":"free"},{"bike_id":"c55c0c5e-3295-46f4-ba50-c24a7a85e4bc","system_id":"levelo_inurba_marseille","lat":43.286177,"lon":5.351084,"is_reserved":false,"is_disabled":false,"rental_uris":{"android":"levelo://app?vid=c55c0c5e-3295-46f4-ba50-c24a7a85e4bc","ios":"levelo://app?vid=c55c0c5e-3295-46f4-ba50-c24a7a85e4bc"},"vehicle_type_id":"4","last_reported":1692529432,"current_range_meters":31200,"station_id":"ce4bhch2rcd13ifvqeug","pricing_plan_id":"free"},{"bike_id":"2ef5ec5b-9cdd-49ca-887d-6e7374f138ab","system_id":"levelo_inurba_marseille","lat":43.2862,"lon":5.35101,"is_reserved":false,"is_disabled":false,"rental_uris":{"android":"levelo://app?vid=2ef5ec5b-9cdd-49ca-887d-6e7374f138ab","ios":"levelo://app?vid=2ef5ec5b-9cdd-49ca-887d-6e7374f138ab"},"vehicle_type_id":"4","last_reported":1692529432,"current_range_meters":28000,"station_id":"ce4bhch2rcd13ifvqeug","pricing_plan_id":"free"},{"bike_id":"388d5bc3-8789-4951-8707-1cde2ba92267","system_id":"levelo_inurba_marseille","lat":43.286176,"lon":5.351077,"is_reserved":false,"is_disabled":false,"rental_uris":{"android":"levelo://app?vid=388d5bc3-8789-4951-8707-1cde2ba92267","ios":"levelo://app?vid=388d5bc3-8789-4951-8707-1cde2ba92267"},"vehicle_type_id":"4","last_reported":1692529432,"current_range_meters":28000,"station_id":"ce4bhch2rcd13ifvqeug","pricing_plan_id":"free"},{"bike_id":"490f218c-cb4f-4fc2-a802-725a7fa2065d","system_id":"levelo_inurba_marseille","lat":43.286176,"lon":5.351077,"is_reserved":false,"is_disabled":false,"rental_uris":{"android":"levelo://app?vid=490f218c-cb4f-4fc2-a802-725a7fa2065d","ios":"levelo://app?vid=490f218c-cb4f-4fc2-a802-725a7fa2065d"},"vehicle_type_id":"4","last_reported":1692529432,"current_range_meters":19600,"station_id":"ce4bhch2rcd13ifvqeug","pricing_plan_id":"free"},{"bike_id":"c5300d0d-ca1a-4b0b-8dda-776a57fbe5a3","system_id":"levelo_inurba_marseille","lat":43.28613,"lon":5.351197,"is_reserved":false,"is_disabled":false,"rental_uris":{"android":"levelo://app?vid=c5300d0d-ca1a-4b0b-8dda-776a57fbe5a3","ios":"levelo://app?vid=c5300d0d-ca1a-4b0b-8dda-776a57fbe5a3"},"vehicle_type_id":"4","last_reported":1692529432,"current_range_meters":23200,"station_id":"ce4bhch2rcd13ifvqeug","pricing_plan_id":"free"},{"bike_id":"153d0c2c-c718-4008-a4b7-8c4998b77777","system_id":"levelo_inurba_marseille","lat":43.28617,"lon":5.35105,"is_reserved":false,"is_disabled":false,"rental_uris":{"android":"levelo://app?vid=153d0c2c-c718-4008-a4b7-8c4998b77777","ios":"levelo://app?vid=153d0c2c-c718-4008-a4b7-8c4998b77777"},"vehicle_type_id":"4","last_reported":1692529432,"current_range_meters":8400,"station_id":"ce4bhch2rcd13ifvqeug","pricing_plan_id":"free"},{"bike_id":"c9db8386-c8fe-43e5-b039-f237193b813e","system_id":"levelo_inurba_marseille","lat":43.286152,"lon":5.351043,"is_reserved":false,"is_disabled":false,"rental_uris":{"android":"levelo://app?vid=c9db8386-c8fe-43e5-b039-f237193b813e","ios":"levelo://app?vid=c9db8386-c8fe-43e5-b039-f237193b813e"},"vehicle_type_id":"4","last_reported":1692529432,"current_range_meters":6000,"station_id":"ce4bhg92rcd13ifvqf90","pricing_plan_id":"free"},{"bike_id":"b98702f3-0e54-4fb5-990c-0cb8a8efe915","system_id":"levelo_inurba_marseille","lat":43.285856,"lon":5.350771,"is_reserved":false,"is_disabled":false,"rental_uris":{"android":"levelo://app?vid=b98702f3-0e54-4fb5-990c-0cb8a8efe915","ios":"levelo://app?vid=b98702f3-0e54-4fb5-990c-0cb8a8efe915"},"vehicle_type_id":"4","last_reported":1692529432,"current_range_meters":17600,"station_id":"ce4bhch2rcd13ifvqeug","pricing_plan_id":"free"},{"bike_id":"28c1ccf7-8e8d-4587-8e97-d39a1468663e","system_id":"levelo_inurba_marseille","lat":43.286146,"lon":5.351033,"is_reserved":false,"is_disabled":false,"rental_uris":{"android":"levelo://app?vid=28c1ccf7-8e8d-4587-8e97-d39a1468663e","ios":"levelo://app?vid=28c1ccf7-8e8d-4587-8e97-d39a1468663e"},"vehicle_type_id":"4","last_reported":1692529432,"current_range_meters":24400,"station_id":"ce4bhch2rcd13ifvqeug","pricing_plan_id":"free"},{"bike_id":"13d056e7-e3cb-4fd3-a5bc-f0b619506c44","system_id":"levelo_inurba_marseille","lat":43.285856,"lon":5.350771,"is_reserved":false,"is_disabled":false,"rental_uris":{"android":"levelo://app?vid=13d056e7-e3cb-4fd3-a5bc-f0b619506c44","ios":"levelo://app?vid=13d056e7-e3cb-4fd3-a5bc-f0b619506c44"},"vehicle_type_id":"4","last_reported":1692529432,"current_range_meters":22000,"station_id":"ce4bhch2rcd13ifvqeug","pricing_plan_id":"free"},{"bike_id":"e8ff56f5-3624-4687-b422-b33e9a3cb88e","system_id":"levelo_inurba_marseille","lat":43.286127,"lon":5.351076,"is_reserved":false,"is_disabled":false,"rental_uris":{"android":"levelo://app?vid=e8ff56f5-3624-4687-b422-b33e9a3cb88e","ios":"levelo://app?vid=e8ff56f5-3624-4687-b422-b33e9a3cb88e"},"vehicle_type_id":"4","last_reported":1692529432,"current_range_meters":18400,"station_id":"ce4bhch2rcd13ifvqeug","pricing_plan_id":"free"},{"bike_id":"35eec3a1-aa54-4990-8eb4-78e6c0dd24d0","system_id":"levelo_inurba_marseille","lat":43.28615,"lon":5.351,"is_reserved":false,"is_disabled":false,"rental_uris":{"android":"levelo://app?vid=35eec3a1-aa54-4990-8eb4-78e6c0dd24d0","ios":"levelo://app?vid=35eec3a1-aa54-4990-8eb4-78e6c0dd24d0"},"vehicle_type_id":"4","last_reported":1692529432,"current_range_meters":29600,"station_id":"ce4bhch2rcd13ifvqeug","pricing_plan_id":"free"},{"bike_id":"f1536ed0-8d90-4d9a-9372-3c087e5e7ef4","system_id":"levelo_inurba_marseille","lat":43.285856,"lon":5.350771,"is_reserved":false,"is_disabled":false,"rental_uris":{"android":"levelo://app?vid=f1536ed0-8d90-4d9a-9372-3c087e5e7ef4","ios":"levelo://app?vid=f1536ed0-8d90-4d9a-9372-3c087e5e7ef4"},"vehicle_type_id":"4","last_reported":1692529432,"current_range_meters":20000,"station_id":"ce4bhch2rcd13ifvqeug","pricing_plan_id":"free"},{"bike_id":"2363d3b5-6c15-401a-a59c-ee80bd4af927","system_id":"levelo_inurba_marseille","lat":43.28415,"lon":5.37522,"is_reserved":false,"is_disabled":false,"rental_uris":{"android":"levelo://app?vid=2363d3b5-6c15-401a-a59c-ee80bd4af927","ios":"levelo://app?vid=2363d3b5-6c15-401a-a59c-ee80bd4af927"},"vehicle_type_id":"4","last_reported":1692529432,"current_range_meters":17200,"station_id":"ce4bh412rcd13ifvqds0","pricing_plan_id":"free"},{"bike_id":"0d971501-e578-464c-918c-252b6c5d92bb","system_id":"levelo_inurba_marseille","lat":43.283998,"lon":5.375062,"is_reserved":false,"is_disabled":false,"rental_uris":{"android":"levelo://app?vid=0d971501-e578-464c-918c-252b6c5d92bb","ios":"levelo://app?vid=0d971501-e578-464c-918c-252b6c5d92bb"},"vehicle_type_id":"4","last_reported":1692529432,"current_range_meters":15200,"station_id":"ce4bh412rcd13ifvqds0","pricing_plan_id":"free"},{"bike_id":"bdc3f47b-e1d1-4a3a-b0c1-e8a91d4b0833","system_id":"levelo_inurba_marseille","lat":43.319179,"lon":5.407725,"is_reserved":false,"is_disabled":false,"rental_uris":{"android":"levelo://app?vid=bdc3f47b-e1d1-4a3a-b0c1-e8a91d4b0833","ios":"levelo://app?vid=bdc3f47b-e1d1-4a3a-b0c1-e8a91d4b0833"},"vehicle_type_id":"4","last_reported":1692529432,"current_range_meters":17200,"station_id":"ce4bhq12rcd13ifvqhig","pricing_plan_id":"free"},{"bike_id":"1b87b56f-4215-463a-b1c5-b340fcd8ac67","system_id":"levelo_inurba_marseille","lat":43.31884,"lon":5.4073,"is_reserved":false,"is_disabled":false,"rental_uris":{"android":"levelo://app?vid=1b87b56f-4215-463a-b1c5-b340fcd8ac67","ios":"levelo://app?vid=1b87b56f-4215-463a-b1c5-b340fcd8ac67"},"vehicle_type_id":"4","last_reported":1692529432,"current_range_meters":1600,"station_id":"","pricing_plan_id":"free"},{"bike_id":"e63a24e9-4d9d-4b90-829e-bb9789271d21","system_id":"levelo_inurba_marseille","lat":43.31884,"lon":5.4073,"is_reserved":false,"is_disabled":false,"rental_uris":{"android":"levelo://app?vid=e63a24e9-4d9d-4b90-829e-bb9789271d21","ios":"levelo://app?vid=e63a24e9-4d9d-4b90-829e-bb9789271d21"},"vehicle_type_id":"4","last_reported":1692529432,"current_range_meters":23200,"station_id":"","pricing_plan_id":"free"},{"bike_id":"942613c3-2b7e-447d-9c00-68442e28d06c","system_id":"levelo_inurba_marseille","lat":43.319179,"lon":5.407725,"is_reserved":false,"is_disabled":false,"rental_uris":{"android":"levelo://app?vid=942613c3-2b7e-447d-9c00-68442e28d06c","ios":"levelo://app?vid=942613c3-2b7e-447d-9c00-68442e28d06c"},"vehicle_type_id":"4","last_reported":1692529432,"current_range_meters":18400,"station_id":"ce4bhq12rcd13ifvqhig","pricing_plan_id":"free"},{"bike_id":"877a0b6d-e768-4923-8ce1-6527d0d0cdf6","system_id":"levelo_inurba_marseille","lat":43.31885,"lon":5.40737,"is_reserved":false,"is_disabled":false,"rental_uris":{"android":"levelo://app?vid=877a0b6d-e768-4923-8ce1-6527d0d0cdf6","ios":"levelo://app?vid=877a0b6d-e768-4923-8ce1-6527d0d0cdf6"},"vehicle_type_id":"4","last_reported":1692529432,"current_range_meters":26000,"station_id":"ce4bhq12rcd13ifvqhig","pricing_plan_id":"free"},{"bike_id":"f13d5e3e-fdf4-4bdd-8a95-6e8a1ceb27f9","system_id":"levelo_inurba_marseille","lat":43.319179,"lon":5.407725,"is_reserved":false,"is_disabled":false,"rental_uris":{"android":"levelo://app?vid=f13d5e3e-fdf4-4bdd-8a95-6e8a1ceb27f9","ios":"levelo://app?vid=f13d5e3e-fdf4-4bdd-8a95-6e8a1ceb27f9"},"vehicle_type_id":"4","last_reported":1692529432,"current_range_meters":30400,"station_id":"ce4bhq12rcd13ifvqhig","pricing_plan_id":"free"},{"bike_id":"186ddf38-a5ca-44a9-9dd3-9bfe2a53544b","system_id":"levelo_inurba_marseille","lat":43.33712,"lon":5.39185,"is_reserved":false,"is_disabled":false,"rental_uris":{"android":"levelo://app?vid=186ddf38-a5ca-44a9-9dd3-9bfe2a53544b","ios":"levelo://app?vid=186ddf38-a5ca-44a9-9dd3-9bfe2a53544b"},"vehicle_type_id":"4","last_reported":1692529432,"current_range_meters":25200,"station_id":"ce4bhr92rcd13ifvqhsg","pricing_plan_id":"free"},{"bike_id":"17105054-6fd8-493b-b0be-1ed88688055c","system_id":"levelo_inurba_marseille","lat":43.33719,"lon":5.39175,"is_reserved":false,"is_disabled":false,"rental_uris":{"android":"levelo://app?vid=17105054-6fd8-493b-b0be-1ed88688055c","ios":"levelo://app?vid=17105054-6fd8-493b-b0be-1ed88688055c"},"vehicle_type_id":"4","last_reported":1692529432,"current_range_meters":26800,"station_id":"ce4bhr92rcd13ifvqhsg","pricing_plan_id":"free"},{"bike_id":"2b3f06e0-8f2d-4133-9563-f19f57fe46e5","system_id":"levelo_inurba_marseille","lat":43.337168,"lon":5.391825,"is_reserved":false,"is_disabled":false,"rental_uris":{"android":"levelo://app?vid=2b3f06e0-8f2d-4133-9563-f19f57fe46e5","ios":"levelo://app?vid=2b3f06e0-8f2d-4133-9563-f19f57fe46e5"},"vehicle_type_id":"4","last_reported":1692529432,"current_range_meters":7200,"station_id":"ce4bhr92rcd13ifvqhsg","pricing_plan_id":"free"},{"bike_id":"7d2969ab-a065-4a23-b19e-667095d799c9","system_id":"levelo_inurba_marseille","lat":43.33716,"lon":5.39184,"is_reserved":false,"is_disabled":false,"rental_uris":{"android":"levelo://app?vid=7d2969ab-a065-4a23-b19e-667095d799c9","ios":"levelo://app?vid=7d2969ab-a065-4a23-b19e-667095d799c9"},"vehicle_type_id":"4","last_reported":1692529432,"current_range_meters":6800,"station_id":"ce4bhr92rcd13ifvqhsg","pricing_plan_id":"free"},{"bike_id":"efe8b264-ad35-4139-b98d-40041f267f16","system_id":"levelo_inurba_marseille","lat":43.33722,"lon":5.39178,"is_reserved":false,"is_disabled":false,"rental_uris":{"android":"levelo://app?vid=efe8b264-ad35-4139-b98d-40041f267f16","ios":"levelo://app?vid=efe8b264-ad35-4139-b98d-40041f267f16"},"vehicle_type_id":"4","last_reported":1692529432,"current_range_meters":24000,"station_id":"ce4bhr92rcd13ifvqhsg","pricing_plan_id":"free"},{"bike_id":"c24cecf2-0503-470c-b3d3-fc37f377f710","system_id":"levelo_inurba_marseille","lat":43.3372,"lon":5.39183,"is_reserved":false,"is_disabled":false,"rental_uris":{"android":"levelo://app?vid=c24cecf2-0503-470c-b3d3-fc37f377f710","ios":"levelo://app?vid=c24cecf2-0503-470c-b3d3-fc37f377f710"},"vehicle_type_id":"4","last_reported":1692529432,"current_range_meters":25600,"station_id":"ce4bhr92rcd13ifvqhsg","pricing_plan_id":"free"},{"bike_id":"baef72cb-b22b-4d30-82e9-ac3a300140d7","system_id":"levelo_inurba_marseille","lat":43.323464,"lon":5.406297,"is_reserved":false,"is_disabled":false,"rental_uris":{"android":"levelo://app?vid=baef72cb-b22b-4d30-82e9-ac3a300140d7","ios":"levelo://app?vid=baef72cb-b22b-4d30-82e9-ac3a300140d7"},"vehicle_type_id":"4","last_reported":1692529432,"current_range_meters":29200,"station_id":"ce4bhq92rcd13ifvqhjg","pricing_plan_id":"free"},{"bike_id":"72fc020d-a1d4-460a-a3d1-6187a1ea65d2","system_id":"levelo_inurba_marseille","lat":43.33721,"lon":5.39183,"is_reserved":false,"is_disabled":false,"rental_uris":{"android":"levelo://app?vid=72fc020d-a1d4-460a-a3d1-6187a1ea65d2","ios":"levelo://app?vid=72fc020d-a1d4-460a-a3d1-6187a1ea65d2"},"vehicle_type_id":"4","last_reported":1692529432,"current_range_meters":23600,"station_id":"ce4bhr92rcd13ifvqhsg","pricing_plan_id":"free"},{"bike_id":"8bd09c71-02ae-4371-8b55-ce1e7e2bf2df","system_id":"levelo_inurba_marseille","lat":43.33719,"lon":5.39187,"is_reserved":false,"is_disabled":false,"rental_uris":{"android":"levelo://app?vid=8bd09c71-02ae-4371-8b55-ce1e7e2bf2df","ios":"levelo://app?vid=8bd09c71-02ae-4371-8b55-ce1e7e2bf2df"},"vehicle_type_id":"4","last_reported":1692529432,"current_range_meters":26800,"station_id":"ce4bhr92rcd13ifvqhsg","pricing_plan_id":"free"},{"bike_id":"e45012d8-673a-4bd6-93d3-a427f767a00d","system_id":"levelo_inurba_marseille","lat":43.33719,"lon":5.39189,"is_reserved":false,"is_disabled":false,"rental_uris":{"android":"levelo://app?vid=e45012d8-673a-4bd6-93d3-a427f767a00d","ios":"levelo://app?vid=e45012d8-673a-4bd6-93d3-a427f767a00d"},"vehicle_type_id":"4","last_reported":1692529432,"current_range_meters":24400,"station_id":"ce4bhr92rcd13ifvqhsg","pricing_plan_id":"free"},{"bike_id":"0dda2562-498f-4f90-abfb-f3c666db2d2e","system_id":"levelo_inurba_marseille","lat":43.33725,"lon":5.39183,"is_reserved":false,"is_disabled":false,"rental_uris":{"android":"levelo://app?vid=0dda2562-498f-4f90-abfb-f3c666db2d2e","ios":"levelo://app?vid=0dda2562-498f-4f90-abfb-f3c666db2d2e"},"vehicle_type_id":"4","last_reported":1692529432,"current_range_meters":20400,"station_id":"ce4bhr92rcd13ifvqhsg","pricing_plan_id":"free"},{"bike_id":"01f563c5-7ac0-4d44-b1b3-0549f3b949f3","system_id":"levelo_inurba_marseille","lat":43.33723,"lon":5.39188,"is_reserved":false,"is_disabled":false,"rental_uris":{"android":"levelo://app?vid=01f563c5-7ac0-4d44-b1b3-0549f3b949f3","ios":"levelo://app?vid=01f563c5-7ac0-4d44-b1b3-0549f3b949f3"},"vehicle_type_id":"4","last_reported":1692529432,"current_range_meters":26800,"station_id":"ce4bhr92rcd13ifvqhsg","pricing_plan_id":"free"},{"bike_id":"12c0f407-4ac2-49d3-b1e8-783bd26a8644","system_id":"levelo_inurba_marseille","lat":43.33724,"lon":5.39188,"is_reserved":false,"is_disabled":false,"rental_uris":{"android":"levelo://app?vid=12c0f407-4ac2-49d3-b1e8-783bd26a8644","ios":"levelo://app?vid=12c0f407-4ac2-49d3-b1e8-783bd26a8644"},"vehicle_type_id":"4","last_reported":1692529432,"current_range_meters":26000,"station_id":"ce4bhr92rcd13ifvqhsg","pricing_plan_id":"free"},{"bike_id":"02f29c2d-847e-4148-9200-bdb4c19acc46","system_id":"levelo_inurba_marseille","lat":43.3373,"lon":5.39184,"is_reserved":false,"is_disabled":false,"rental_uris":{"android":"levelo://app?vid=02f29c2d-847e-4148-9200-bdb4c19acc46","ios":"levelo://app?vid=02f29c2d-847e-4148-9200-bdb4c19acc46"},"vehicle_type_id":"4","last_reported":1692529432,"current_range_meters":26400,"station_id":"ce4bhr92rcd13ifvqhsg","pricing_plan_id":"free"},{"bike_id":"5334cee5-c9ac-46f5-9b83-1487973bf88b","system_id":"levelo_inurba_marseille","lat":43.29792,"lon":5.40417,"is_reserved":false,"is_disabled":false,"rental_uris":{"android":"levelo://app?vid=5334cee5-c9ac-46f5-9b83-1487973bf88b","ios":"levelo://app?vid=5334cee5-c9ac-46f5-9b83-1487973bf88b"},"vehicle_type_id":"4","last_reported":1692529432,"current_range_meters":30800,"station_id":"ce4bh112rcd13ifvqd90","pricing_plan_id":"free"},{"bike_id":"e44d1e31-fb7d-4d45-b4eb-c060512db9cb","system_id":"levelo_inurba_marseille","lat":43.28438,"lon":5.35002,"is_reserved":false,"is_disabled":false,"rental_uris":{"android":"levelo://app?vid=e44d1e31-fb7d-4d45-b4eb-c060512db9cb","ios":"levelo://app?vid=e44d1e31-fb7d-4d45-b4eb-c060512db9cb"},"vehicle_type_id":"4","last_reported":1692529432,"current_range_meters":30000,"station_id":"ce4bhbh2rcd13ifvqepg","pricing_plan_id":"free"},{"bike_id":"66139586-765e-4df4-852b-17d508c1991d","system_id":"levelo_inurba_marseille","lat":43.28435,"lon":5.34993,"is_reserved":false,"is_disabled":false,"rental_uris":{"android":"levelo://app?vid=66139586-765e-4df4-852b-17d508c1991d","ios":"levelo://app?vid=66139586-765e-4df4-852b-17d508c1991d"},"vehicle_type_id":"4","last_reported":1692529432,"current_range_meters":13200,"station_id":"ce4bhbh2rcd13ifvqepg","pricing_plan_id":"free"},{"bike_id":"3a78b823-185c-439d-af78-03f7e0b4a6ce","system_id":"levelo_inurba_marseille","lat":43.28431,"lon":5.34995,"is_reserved":false,"is_disabled":false,"rental_uris":{"android":"levelo://app?vid=3a78b823-185c-439d-af78-03f7e0b4a6ce","ios":"levelo://app?vid=3a78b823-185c-439d-af78-03f7e0b4a6ce"},"vehicle_type_id":"4","last_reported":1692529432,"current_range_meters":26800,"station_id":"ce4bhbh2rcd13ifvqepg","pricing_plan_id":"free"},{"bike_id":"0c4b6542-aeb1-4ff5-b556-5dc03a8c9046","system_id":"levelo_inurba_marseille","lat":43.28433,"lon":5.34988,"is_reserved":false,"is_disabled":false,"rental_uris":{"android":"levelo://app?vid=0c4b6542-aeb1-4ff5-b556-5dc03a8c9046","ios":"levelo://app?vid=0c4b6542-aeb1-4ff5-b556-5dc03a8c9046"},"vehicle_type_id":"4","last_reported":1692529432,"current_range_meters":24400,"station_id":"ce4bhbh2rcd13ifvqepg","pricing_plan_id":"free"},{"bike_id":"1c51d1d5-ab99-47e6-a431-bb9337f29bb3","system_id":"levelo_inurba_marseille","lat":43.28431,"lon":5.34994,"is_reserved":false,"is_disabled":false,"rental_uris":{"android":"levelo://app?vid=1c51d1d5-ab99-47e6-a431-bb9337f29bb3","ios":"levelo://app?vid=1c51d1d5-ab99-47e6-a431-bb9337f29bb3"},"vehicle_type_id":"4","last_reported":1692529432,"current_range_meters":24800,"station_id":"ce4bhbh2rcd13ifvqepg","pricing_plan_id":"free"},{"bike_id":"8f6893bb-ec38-4728-b8d9-d234ff347755","system_id":"levelo_inurba_marseille","lat":43.28428,"lon":5.34989,"is_reserved":false,"is_disabled":false,"rental_uris":{"android":"levelo://app?vid=8f6893bb-ec38-4728-b8d9-d234ff347755","ios":"levelo://app?vid=8f6893bb-ec38-4728-b8d9-d234ff347755"},"vehicle_type_id":"4","last_reported":1692529432,"current_range_meters":23600,"station_id":"ce4bhbh2rcd13ifvqepg","pricing_plan_id":"free"},{"bike_id":"9b4b587b-24f8-4427-a599-ca521fbb0882","system_id":"levelo_inurba_marseille","lat":43.28427,"lon":5.34987,"is_reserved":false,"is_disabled":false,"rental_uris":{"android":"levelo://app?vid=9b4b587b-24f8-4427-a599-ca521fbb0882","ios":"levelo://app?vid=9b4b587b-24f8-4427-a599-ca521fbb0882"},"vehicle_type_id":"4","last_reported":1692529432,"current_range_meters":26800,"station_id":"ce4bhbh2rcd13ifvqepg","pricing_plan_id":"free"},{"bike_id":"cbab3a93-0879-405f-8af0-54bff1d5bbc5","system_id":"levelo_inurba_marseille","lat":43.284217,"lon":5.349697,"is_reserved":false,"is_disabled":false,"rental_uris":{"android":"levelo://app?vid=cbab3a93-0879-405f-8af0-54bff1d5bbc5","ios":"levelo://app?vid=cbab3a93-0879-405f-8af0-54bff1d5bbc5"},"vehicle_type_id":"4","last_reported":1692529432,"current_range_meters":16400,"station_id":"ce4bhbh2rcd13ifvqepg","pricing_plan_id":"free"},{"bike_id":"ba3691b5-3c59-476d-a171-f578ef6422e2","system_id":"levelo_inurba_marseille","lat":43.28424,"lon":5.34988,"is_reserved":false,"is_disabled":false,"rental_uris":{"android":"levelo://app?vid=ba3691b5-3c59-476d-a171-f578ef6422e2","ios":"levelo://app?vid=ba3691b5-3c59-476d-a171-f578ef6422e2"},"vehicle_type_id":"4","last_reported":1692529432,"current_range_meters":26400,"station_id":"ce4bhbh2rcd13ifvqepg","pricing_plan_id":"free"},{"bike_id":"449275bc-2a78-49c5-b2b8-5f6c36b963d0","system_id":"levelo_inurba_marseille","lat":43.28423,"lon":5.34988,"is_reserved":false,"is_disabled":false,"rental_uris":{"android":"levelo://app?vid=449275bc-2a78-49c5-b2b8-5f6c36b963d0","ios":"levelo://app?vid=449275bc-2a78-49c5-b2b8-5f6c36b963d0"},"vehicle_type_id":"4","last_reported":1692529432,"current_range_meters":18000,"station_id":"ce4bhbh2rcd13ifvqepg","pricing_plan_id":"free"},{"bike_id":"bf590359-a6e5-40e1-b4ac-dd91551bde50","system_id":"levelo_inurba_marseille","lat":43.28424,"lon":5.34984,"is_reserved":false,"is_disabled":false,"rental_uris":{"android":"levelo://app?vid=bf590359-a6e5-40e1-b4ac-dd91551bde50","ios":"levelo://app?vid=bf590359-a6e5-40e1-b4ac-dd91551bde50"},"vehicle_type_id":"4","last_reported":1692529432,"current_range_meters":24400,"station_id":"ce4bhbh2rcd13ifvqepg","pricing_plan_id":"free"},{"bike_id":"9e2cc02c-a705-4060-9eaf-1b318d132dda","system_id":"levelo_inurba_marseille","lat":43.284217,"lon":5.349697,"is_reserved":false,"is_disabled":false,"rental_uris":{"android":"levelo://app?vid=9e2cc02c-a705-4060-9eaf-1b318d132dda","ios":"levelo://app?vid=9e2cc02c-a705-4060-9eaf-1b318d132dda"},"vehicle_type_id":"4","last_reported":1692529432,"current_range_meters":26400,"station_id":"ce4bhbh2rcd13ifvqepg","pricing_plan_id":"free"},{"bike_id":"a31e86b3-ea18-43f9-b1f7-dd803fc797fc","system_id":"levelo_inurba_marseille","lat":43.28421,"lon":5.34989,"is_reserved":false,"is_disabled":false,"rental_uris":{"android":"levelo://app?vid=a31e86b3-ea18-43f9-b1f7-dd803fc797fc","ios":"levelo://app?vid=a31e86b3-ea18-43f9-b1f7-dd803fc797fc"},"vehicle_type_id":"4","last_reported":1692529432,"current_range_meters":24000,"station_id":"ce4bhbh2rcd13ifvqepg","pricing_plan_id":"free"},{"bike_id":"ded535db-8116-47d9-9076-0aa3e207106a","system_id":"levelo_inurba_marseille","lat":43.28423,"lon":5.3498,"is_reserved":false,"is_disabled":false,"rental_uris":{"android":"levelo://app?vid=ded535db-8116-47d9-9076-0aa3e207106a","ios":"levelo://app?vid=ded535db-8116-47d9-9076-0aa3e207106a"},"vehicle_type_id":"4","last_reported":1692529432,"current_range_meters":23200,"station_id":"ce4bhbh2rcd13ifvqepg","pricing_plan_id":"free"},{"bike_id":"cb38a159-6ed3-4430-892d-95dc4c9f513a","system_id":"levelo_inurba_marseille","lat":43.284217,"lon":5.349697,"is_reserved":false,"is_disabled":false,"rental_uris":{"android":"levelo://app?vid=cb38a159-6ed3-4430-892d-95dc4c9f513a","ios":"levelo://app?vid=cb38a159-6ed3-4430-892d-95dc4c9f513a"},"vehicle_type_id":"4","last_reported":1692529432,"current_range_meters":18400,"station_id":"ce4bhbh2rcd13ifvqepg","pricing_plan_id":"free"},{"bike_id":"a0b4d391-e169-4cb5-bd1c-90095e4e3a4e","system_id":"levelo_inurba_marseille","lat":43.284217,"lon":5.349697,"is_reserved":false,"is_disabled":false,"rental_uris":{"android":"levelo://app?vid=a0b4d391-e169-4cb5-bd1c-90095e4e3a4e","ios":"levelo://app?vid=a0b4d391-e169-4cb5-bd1c-90095e4e3a4e"},"vehicle_type_id":"4","last_reported":1692529432,"current_range_meters":7200,"station_id":"ce4bhbh2rcd13ifvqepg","pricing_plan_id":"free"},{"bike_id":"d469c425-9fe3-4880-bc9e-6ab171e4a129","system_id":"levelo_inurba_marseille","lat":43.284217,"lon":5.349697,"is_reserved":false,"is_disabled":false,"rental_uris":{"android":"levelo://app?vid=d469c425-9fe3-4880-bc9e-6ab171e4a129","ios":"levelo://app?vid=d469c425-9fe3-4880-bc9e-6ab171e4a129"},"vehicle_type_id":"4","last_reported":1692529432,"current_range_meters":31200,"station_id":"ce4bhbh2rcd13ifvqepg","pricing_plan_id":"free"},{"bike_id":"82935ee0-305e-4c20-b8ea-282184fada34","system_id":"levelo_inurba_marseille","lat":43.28415,"lon":5.34973,"is_reserved":false,"is_disabled":false,"rental_uris":{"android":"levelo://app?vid=82935ee0-305e-4c20-b8ea-282184fada34","ios":"levelo://app?vid=82935ee0-305e-4c20-b8ea-282184fada34"},"vehicle_type_id":"4","last_reported":1692529432,"current_range_meters":3200,"station_id":"ce4bhbh2rcd13ifvqepg","pricing_plan_id":"free"},{"bike_id":"05c0ea99-3bc7-454e-8314-ea424bcbf8f9","system_id":"levelo_inurba_marseille","lat":43.284217,"lon":5.349697,"is_reserved":false,"is_disabled":false,"rental_uris":{"android":"levelo://app?vid=05c0ea99-3bc7-454e-8314-ea424bcbf8f9","ios":"levelo://app?vid=05c0ea99-3bc7-454e-8314-ea424bcbf8f9"},"vehicle_type_id":"4","last_reported":1692529432,"current_range_meters":31200,"station_id":"ce4bhbh2rcd13ifvqepg","pricing_plan_id":"free"},{"bike_id":"1eeb51f9-4b42-45be-b69e-90d11c587f78","system_id":"levelo_inurba_marseille","lat":43.284217,"lon":5.349697,"is_reserved":false,"is_disabled":false,"rental_uris":{"android":"levelo://app?vid=1eeb51f9-4b42-45be-b69e-90d11c587f78","ios":"levelo://app?vid=1eeb51f9-4b42-45be-b69e-90d11c587f78"},"vehicle_type_id":"4","last_reported":1692529432,"current_range_meters":27200,"station_id":"ce4bhbh2rcd13ifvqepg","pricing_plan_id":"free"},{"bike_id":"af5969d4-4493-4a0e-a09a-bb4d639951ea","system_id":"levelo_inurba_marseille","lat":43.284217,"lon":5.349697,"is_reserved":false,"is_disabled":false,"rental_uris":{"android":"levelo://app?vid=af5969d4-4493-4a0e-a09a-bb4d639951ea","ios":"levelo://app?vid=af5969d4-4493-4a0e-a09a-bb4d639951ea"},"vehicle_type_id":"4","last_reported":1692529432,"current_range_meters":17200,"station_id":"ce4bhbh2rcd13ifvqepg","pricing_plan_id":"free"},{"bike_id":"f50aca5f-cf5b-4020-925f-826a2e34874f","system_id":"levelo_inurba_marseille","lat":43.28938,"lon":5.39629,"is_reserved":false,"is_disabled":false,"rental_uris":{"android":"levelo://app?vid=f50aca5f-cf5b-4020-925f-826a2e34874f","ios":"levelo://app?vid=f50aca5f-cf5b-4020-925f-826a2e34874f"},"vehicle_type_id":"4","last_reported":1692529432,"current_range_meters":30400,"station_id":"ce4bh3h2rcd13ifvqdn0","pricing_plan_id":"free"},{"bike_id":"5cec26ac-344f-432b-af34-450b75305b9b","system_id":"levelo_inurba_marseille","lat":43.292724,"lon":5.401131,"is_reserved":false,"is_disabled":false,"rental_uris":{"android":"levelo://app?vid=5cec26ac-344f-432b-af34-450b75305b9b","ios":"levelo://app?vid=5cec26ac-344f-432b-af34-450b75305b9b"},"vehicle_type_id":"4","last_reported":1692529432,"current_range_meters":31200,"station_id":"ce4bh312rcd13ifvqdk0","pricing_plan_id":"free"},{"bike_id":"a8f6eb94-3a22-424f-b7cd-e4738aede737","system_id":"levelo_inurba_marseille","lat":43.28275,"lon":5.35066,"is_reserved":false,"is_disabled":false,"rental_uris":{"android":"levelo://app?vid=a8f6eb94-3a22-424f-b7cd-e4738aede737","ios":"levelo://app?vid=a8f6eb94-3a22-424f-b7cd-e4738aede737"},"vehicle_type_id":"4","last_reported":1692529432,"current_range_meters":27600,"station_id":"ce4bhbp2rcd13ifvqerg","pricing_plan_id":"free"},{"bike_id":"76a12acf-e571-477d-80e6-99a5458a065e","system_id":"levelo_inurba_marseille","lat":43.28273,"lon":5.35064,"is_reserved":false,"is_disabled":false,"rental_uris":{"android":"levelo://app?vid=76a12acf-e571-477d-80e6-99a5458a065e","ios":"levelo://app?vid=76a12acf-e571-477d-80e6-99a5458a065e"},"vehicle_type_id":"4","last_reported":1692529432,"current_range_meters":30000,"station_id":"ce4bhbp2rcd13ifvqerg","pricing_plan_id":"free"},{"bike_id":"b1b05236-5f32-49c8-bdd4-366369cbb933","system_id":"levelo_inurba_marseille","lat":43.28275,"lon":5.35056,"is_reserved":false,"is_disabled":false,"rental_uris":{"android":"levelo://app?vid=b1b05236-5f32-49c8-bdd4-366369cbb933","ios":"levelo://app?vid=b1b05236-5f32-49c8-bdd4-366369cbb933"},"vehicle_type_id":"4","last_reported":1692529432,"current_range_meters":21200,"station_id":"ce4bhbp2rcd13ifvqerg","pricing_plan_id":"free"},{"bike_id":"88940920-727e-47f8-bee6-24feedff1167","system_id":"levelo_inurba_marseille","lat":43.282744,"lon":5.350533,"is_reserved":false,"is_disabled":false,"rental_uris":{"android":"levelo://app?vid=88940920-727e-47f8-bee6-24feedff1167","ios":"levelo://app?vid=88940920-727e-47f8-bee6-24feedff1167"},"vehicle_type_id":"4","last_reported":1692529432,"current_range_meters":30000,"station_id":"ce4bhbp2rcd13ifvqerg","pricing_plan_id":"free"},{"bike_id":"6a9d6ae4-eced-42a9-b94b-85e9a0ad4018","system_id":"levelo_inurba_marseille","lat":43.28265,"lon":5.35071,"is_reserved":false,"is_disabled":false,"rental_uris":{"android":"levelo://app?vid=6a9d6ae4-eced-42a9-b94b-85e9a0ad4018","ios":"levelo://app?vid=6a9d6ae4-eced-42a9-b94b-85e9a0ad4018"},"vehicle_type_id":"4","last_reported":1692529432,"current_range_meters":31200,"station_id":"ce4bhbp2rcd13ifvqerg","pricing_plan_id":"free"},{"bike_id":"3e54afbe-9dae-4dbc-b335-4a8f80dac08b","system_id":"levelo_inurba_marseille","lat":43.282688,"lon":5.350534,"is_reserved":false,"is_disabled":false,"rental_uris":{"android":"levelo://app?vid=3e54afbe-9dae-4dbc-b335-4a8f80dac08b","ios":"levelo://app?vid=3e54afbe-9dae-4dbc-b335-4a8f80dac08b"},"vehicle_type_id":"4","last_reported":1692529432,"current_range_meters":31200,"station_id":"ce4bhbp2rcd13ifvqerg","pricing_plan_id":"free"},{"bike_id":"7def75b8-7f3d-46b7-97f5-4f28c799c589","system_id":"levelo_inurba_marseille","lat":43.282744,"lon":5.350533,"is_reserved":false,"is_disabled":false,"rental_uris":{"android":"levelo://app?vid=7def75b8-7f3d-46b7-97f5-4f28c799c589","ios":"levelo://app?vid=7def75b8-7f3d-46b7-97f5-4f28c799c589"},"vehicle_type_id":"4","last_reported":1692529432,"current_range_meters":30400,"station_id":"ce4bhbp2rcd13ifvqerg","pricing_plan_id":"free"},{"bike_id":"b034ba69-a764-4f4f-8988-008b6912a5a1","system_id":"levelo_inurba_marseille","lat":43.282681,"lon":5.350511,"is_reserved":false,"is_disabled":false,"rental_uris":{"android":"levelo://app?vid=b034ba69-a764-4f4f-8988-008b6912a5a1","ios":"levelo://app?vid=b034ba69-a764-4f4f-8988-008b6912a5a1"},"vehicle_type_id":"4","last_reported":1692529432,"current_range_meters":31200,"station_id":"ce4bhbp2rcd13ifvqerg","pricing_plan_id":"free"},{"bike_id":"b698c148-949b-4db4-bd85-0b23f6a76c41","system_id":"levelo_inurba_marseille","lat":43.2826,"lon":5.35058,"is_reserved":false,"is_disabled":false,"rental_uris":{"android":"levelo://app?vid=b698c148-949b-4db4-bd85-0b23f6a76c41","ios":"levelo://app?vid=b698c148-949b-4db4-bd85-0b23f6a76c41"},"vehicle_type_id":"4","last_reported":1692529432,"current_range_meters":31200,"station_id":"ce4bhbp2rcd13ifvqerg","pricing_plan_id":"free"},{"bike_id":"9f46cfde-4f76-4076-bade-5765c2d3d473","system_id":"levelo_inurba_marseille","lat":43.28039,"lon":5.369297,"is_reserved":false,"is_disabled":false,"rental_uris":{"android":"levelo://app?vid=9f46cfde-4f76-4076-bade-5765c2d3d473","ios":"levelo://app?vid=9f46cfde-4f76-4076-bade-5765c2d3d473"},"vehicle_type_id":"4","last_reported":1692529432,"current_range_meters":31200,"station_id":"ce4bha12rcd13ifvqef0","pricing_plan_id":"free"},{"bike_id":"72b1bb2c-361a-407d-b70a-7666837a36b2","system_id":"levelo_inurba_marseille","lat":43.29041,"lon":5.399634,"is_reserved":false,"is_disabled":false,"rental_uris":{"android":"levelo://app?vid=72b1bb2c-361a-407d-b70a-7666837a36b2","ios":"levelo://app?vid=72b1bb2c-361a-407d-b70a-7666837a36b2"},"vehicle_type_id":"4","last_reported":1692529432,"current_range_meters":20400,"station_id":"ce4bh392rcd13ifvqdm0","pricing_plan_id":"free"},{"bike_id":"d397ee0a-2792-49ce-b55b-5d1772af80c1","system_id":"levelo_inurba_marseille","lat":43.28117,"lon":5.35169,"is_reserved":false,"is_disabled":false,"rental_uris":{"android":"levelo://app?vid=d397ee0a-2792-49ce-b55b-5d1772af80c1","ios":"levelo://app?vid=d397ee0a-2792-49ce-b55b-5d1772af80c1"},"vehicle_type_id":"4","last_reported":1692529432,"current_range_meters":20800,"station_id":"","pricing_plan_id":"free"},{"bike_id":"7c1b1bd7-a8bd-4271-9f90-9746bc464f9d","system_id":"levelo_inurba_marseille","lat":43.284462,"lon":5.392121,"is_reserved":false,"is_disabled":false,"rental_uris":{"android":"levelo://app?vid=7c1b1bd7-a8bd-4271-9f90-9746bc464f9d","ios":"levelo://app?vid=7c1b1bd7-a8bd-4271-9f90-9746bc464f9d"},"vehicle_type_id":"4","last_reported":1692529432,"current_range_meters":5200,"station_id":"ce4bhoh2rcd13ifvqh5g","pricing_plan_id":"free"},{"bike_id":"3192f301-7501-4ac0-8cfd-a8dcb5b9fa88","system_id":"levelo_inurba_marseille","lat":43.28573,"lon":5.394992,"is_reserved":false,"is_disabled":false,"rental_uris":{"android":"levelo://app?vid=3192f301-7501-4ac0-8cfd-a8dcb5b9fa88","ios":"levelo://app?vid=3192f301-7501-4ac0-8cfd-a8dcb5b9fa88"},"vehicle_type_id":"4","last_reported":1692529432,"current_range_meters":31200,"station_id":"ce4bh292rcd13ifvqdg0","pricing_plan_id":"free"},{"bike_id":"f8ef4f78-badc-40d1-a4a9-077301466e56","system_id":"levelo_inurba_marseille","lat":43.32662,"lon":5.40978,"is_reserved":false,"is_disabled":false,"rental_uris":{"android":"levelo://app?vid=f8ef4f78-badc-40d1-a4a9-077301466e56","ios":"levelo://app?vid=f8ef4f78-badc-40d1-a4a9-077301466e56"},"vehicle_type_id":"4","last_reported":1692529432,"current_range_meters":9600,"station_id":"ce4bhpp2rcd13ifvqhgg","pricing_plan_id":"free"},{"bike_id":"50e3d6a6-c6f3-4510-bfd8-05a5ff159b18","system_id":"levelo_inurba_marseille","lat":43.279087,"lon":5.380114,"is_reserved":false,"is_disabled":false,"rental_uris":{"android":"levelo://app?vid=50e3d6a6-c6f3-4510-bfd8-05a5ff159b18","ios":"levelo://app?vid=50e3d6a6-c6f3-4510-bfd8-05a5ff159b18"},"vehicle_type_id":"4","last_reported":1692529432,"current_range_meters":7200,"station_id":"ce4bhf92rcd13ifvqf50","pricing_plan_id":"free"},{"bike_id":"46f3f9eb-7665-4972-96ad-e19d5fde0a16","system_id":"levelo_inurba_marseille","lat":43.320045,"lon":5.415046,"is_reserved":false,"is_disabled":false,"rental_uris":{"android":"levelo://app?vid=46f3f9eb-7665-4972-96ad-e19d5fde0a16","ios":"levelo://app?vid=46f3f9eb-7665-4972-96ad-e19d5fde0a16"},"vehicle_type_id":"4","last_reported":1692529432,"current_range_meters":30000,"station_id":"ce4bhq92rcd13ifvqhkg","pricing_plan_id":"free"},{"bike_id":"089e7af7-adf3-4ccc-9080-393d0558ba6c","system_id":"levelo_inurba_marseille","lat":43.320045,"lon":5.415046,"is_reserved":false,"is_disabled":false,"rental_uris":{"android":"levelo://app?vid=089e7af7-adf3-4ccc-9080-393d0558ba6c","ios":"levelo://app?vid=089e7af7-adf3-4ccc-9080-393d0558ba6c"},"vehicle_type_id":"4","last_reported":1692529432,"current_range_meters":24400,"station_id":"ce4bhq92rcd13ifvqhkg","pricing_plan_id":"free"},{"bike_id":"10ab37a0-08c3-4a82-aaff-34a20c59ac58","system_id":"levelo_inurba_marseille","lat":43.320045,"lon":5.415046,"is_reserved":false,"is_disabled":false,"rental_uris":{"android":"levelo://app?vid=10ab37a0-08c3-4a82-aaff-34a20c59ac58","ios":"levelo://app?vid=10ab37a0-08c3-4a82-aaff-34a20c59ac58"},"vehicle_type_id":"4","last_reported":1692529432,"current_range_meters":30000,"station_id":"ce4bhq92rcd13ifvqhkg","pricing_plan_id":"free"},{"bike_id":"e4d30b70-a50d-4a1d-885d-431b4fea59ac","system_id":"levelo_inurba_marseille","lat":43.299579,"lon":5.413255,"is_reserved":false,"is_disabled":false,"rental_uris":{"android":"levelo://app?vid=e4d30b70-a50d-4a1d-885d-431b4fea59ac","ios":"levelo://app?vid=e4d30b70-a50d-4a1d-885d-431b4fea59ac"},"vehicle_type_id":"4","last_reported":1692529432,"current_range_meters":30400,"station_id":"ce4bhp12rcd13ifvqh9g","pricing_plan_id":"free"},{"bike_id":"be2c4610-b11e-42e8-a7d1-ae5831dc2451","system_id":"levelo_inurba_marseille","lat":43.299579,"lon":5.413255,"is_reserved":false,"is_disabled":false,"rental_uris":{"android":"levelo://app?vid=be2c4610-b11e-42e8-a7d1-ae5831dc2451","ios":"levelo://app?vid=be2c4610-b11e-42e8-a7d1-ae5831dc2451"},"vehicle_type_id":"4","last_reported":1692529432,"current_range_meters":800,"station_id":"ce4bhp12rcd13ifvqh9g","pricing_plan_id":"free"},{"bike_id":"b70b0978-4c04-4f9a-add1-468a2f781544","system_id":"levelo_inurba_marseille","lat":43.320045,"lon":5.415048,"is_reserved":false,"is_disabled":false,"rental_uris":{"android":"levelo://app?vid=b70b0978-4c04-4f9a-add1-468a2f781544","ios":"levelo://app?vid=b70b0978-4c04-4f9a-add1-468a2f781544"},"vehicle_type_id":"4","last_reported":1692529432,"current_range_meters":31200,"station_id":"ce4bhq92rcd13ifvqhkg","pricing_plan_id":"free"},{"bike_id":"11a4b1c9-49f7-4181-b5d7-95af5c113298","system_id":"levelo_inurba_marseille","lat":43.320045,"lon":5.415046,"is_reserved":false,"is_disabled":false,"rental_uris":{"android":"levelo://app?vid=11a4b1c9-49f7-4181-b5d7-95af5c113298","ios":"levelo://app?vid=11a4b1c9-49f7-4181-b5d7-95af5c113298"},"vehicle_type_id":"4","last_reported":1692529432,"current_range_meters":31200,"station_id":"ce4bhq92rcd13ifvqhkg","pricing_plan_id":"free"},{"bike_id":"c7bce72a-8572-4cf2-a878-5bdb237bf239","system_id":"levelo_inurba_marseille","lat":43.320045,"lon":5.415048,"is_reserved":false,"is_disabled":false,"rental_uris":{"android":"levelo://app?vid=c7bce72a-8572-4cf2-a878-5bdb237bf239","ios":"levelo://app?vid=c7bce72a-8572-4cf2-a878-5bdb237bf239"},"vehicle_type_id":"4","last_reported":1692529432,"current_range_meters":16800,"station_id":"ce4bhq92rcd13ifvqhkg","pricing_plan_id":"free"},{"bike_id":"c327718a-8fe6-4791-a349-aba0f8f94e82","system_id":"levelo_inurba_marseille","lat":43.279742,"lon":5.38744,"is_reserved":false,"is_disabled":false,"rental_uris":{"android":"levelo://app?vid=c327718a-8fe6-4791-a349-aba0f8f94e82","ios":"levelo://app?vid=c327718a-8fe6-4791-a349-aba0f8f94e82"},"vehicle_type_id":"4","last_reported":1692529432,"current_range_meters":26000,"station_id":"ce4bhg12rcd13ifvqf80","pricing_plan_id":"free"},{"bike_id":"57600dc2-6356-452d-b555-48124a177e0e","system_id":"levelo_inurba_marseille","lat":43.320045,"lon":5.415046,"is_reserved":false,"is_disabled":false,"rental_uris":{"android":"levelo://app?vid=57600dc2-6356-452d-b555-48124a177e0e","ios":"levelo://app?vid=57600dc2-6356-452d-b555-48124a177e0e"},"vehicle_type_id":"4","last_reported":1692529432,"current_range_meters":30000,"station_id":"ce4bhq92rcd13ifvqhkg","pricing_plan_id":"free"},{"bike_id":"e4513ff6-3a62-4989-abad-4a9f8136595d","system_id":"levelo_inurba_marseille","lat":43.292569,"lon":5.409107,"is_reserved":false,"is_disabled":false,"rental_uris":{"android":"levelo://app?vid=e4513ff6-3a62-4989-abad-4a9f8136595d","ios":"levelo://app?vid=e4513ff6-3a62-4989-abad-4a9f8136595d"},"vehicle_type_id":"4","last_reported":1692529432,"current_range_meters":2800,"station_id":"ce4bh192rcd13ifvqdc0","pricing_plan_id":"free"},{"bike_id":"cee1920e-6994-4674-b7cc-13e5cade9665","system_id":"levelo_inurba_marseille","lat":43.292571,"lon":5.409107,"is_reserved":false,"is_disabled":false,"rental_uris":{"android":"levelo://app?vid=cee1920e-6994-4674-b7cc-13e5cade9665","ios":"levelo://app?vid=cee1920e-6994-4674-b7cc-13e5cade9665"},"vehicle_type_id":"4","last_reported":1692529432,"current_range_meters":28800,"station_id":"ce4bh192rcd13ifvqdc0","pricing_plan_id":"free"},{"bike_id":"64bedaff-f111-4569-8539-540cffc35f57","system_id":"levelo_inurba_marseille","lat":43.292569,"lon":5.409107,"is_reserved":false,"is_disabled":false,"rental_uris":{"android":"levelo://app?vid=64bedaff-f111-4569-8539-540cffc35f57","ios":"levelo://app?vid=64bedaff-f111-4569-8539-540cffc35f57"},"vehicle_type_id":"4","last_reported":1692529432,"current_range_meters":24800,"station_id":"ce4bh192rcd13ifvqdc0","pricing_plan_id":"free"},{"bike_id":"dcd8696d-ee04-4c34-867d-3997b6dcb097","system_id":"levelo_inurba_marseille","lat":43.292569,"lon":5.409107,"is_reserved":false,"is_disabled":false,"rental_uris":{"android":"levelo://app?vid=dcd8696d-ee04-4c34-867d-3997b6dcb097","ios":"levelo://app?vid=dcd8696d-ee04-4c34-867d-3997b6dcb097"},"vehicle_type_id":"4","last_reported":1692529432,"current_range_meters":20400,"station_id":"ce4bh192rcd13ifvqdc0","pricing_plan_id":"free"},{"bike_id":"34cd8c15-cca7-4dc8-8525-af24a0ed5659","system_id":"levelo_inurba_marseille","lat":43.292569,"lon":5.409107,"is_reserved":false,"is_disabled":false,"rental_uris":{"android":"levelo://app?vid=34cd8c15-cca7-4dc8-8525-af24a0ed5659","ios":"levelo://app?vid=34cd8c15-cca7-4dc8-8525-af24a0ed5659"},"vehicle_type_id":"4","last_reported":1692529432,"current_range_meters":31200,"station_id":"ce4bh192rcd13ifvqdc0","pricing_plan_id":"free"},{"bike_id":"a170c304-a55a-4f9c-babf-7e65e73de820","system_id":"levelo_inurba_marseille","lat":43.292569,"lon":5.409107,"is_reserved":false,"is_disabled":false,"rental_uris":{"android":"levelo://app?vid=a170c304-a55a-4f9c-babf-7e65e73de820","ios":"levelo://app?vid=a170c304-a55a-4f9c-babf-7e65e73de820"},"vehicle_type_id":"4","last_reported":1692529432,"current_range_meters":31200,"station_id":"ce4bh192rcd13ifvqdc0","pricing_plan_id":"free"},{"bike_id":"480eed89-9bfe-4799-90d1-b5ded03d30b8","system_id":"levelo_inurba_marseille","lat":43.292571,"lon":5.409107,"is_reserved":false,"is_disabled":false,"rental_uris":{"android":"levelo://app?vid=480eed89-9bfe-4799-90d1-b5ded03d30b8","ios":"levelo://app?vid=480eed89-9bfe-4799-90d1-b5ded03d30b8"},"vehicle_type_id":"4","last_reported":1692529432,"current_range_meters":31200,"station_id":"ce4bh192rcd13ifvqdc0","pricing_plan_id":"free"},{"bike_id":"fb0ae550-86fb-4cbe-890e-81812a6cab98","system_id":"levelo_inurba_marseille","lat":43.292569,"lon":5.409107,"is_reserved":false,"is_disabled":false,"rental_uris":{"android":"levelo://app?vid=fb0ae550-86fb-4cbe-890e-81812a6cab98","ios":"levelo://app?vid=fb0ae550-86fb-4cbe-890e-81812a6cab98"},"vehicle_type_id":"4","last_reported":1692529432,"current_range_meters":20400,"station_id":"ce4bh192rcd13ifvqdc0","pricing_plan_id":"free"},{"bike_id":"183a29c2-c1df-461d-90a9-6875be7662c8","system_id":"levelo_inurba_marseille","lat":43.27619,"lon":5.36118,"is_reserved":false,"is_disabled":false,"rental_uris":{"android":"levelo://app?vid=183a29c2-c1df-461d-90a9-6875be7662c8","ios":"levelo://app?vid=183a29c2-c1df-461d-90a9-6875be7662c8"},"vehicle_type_id":"4","last_reported":1692529432,"current_range_meters":25200,"station_id":"ce4bgj92rcd13ifvqbe0","pricing_plan_id":"free"},{"bike_id":"18775127-fd27-467e-8751-1eb9914c1c0e","system_id":"levelo_inurba_marseille","lat":43.32543,"lon":5.4144,"is_reserved":false,"is_disabled":false,"rental_uris":{"android":"levelo://app?vid=18775127-fd27-467e-8751-1eb9914c1c0e","ios":"levelo://app?vid=18775127-fd27-467e-8751-1eb9914c1c0e"},"vehicle_type_id":"4","last_reported":1692529432,"current_range_meters":26000,"station_id":"ce4bhq12rcd13ifvqhhg","pricing_plan_id":"free"},{"bike_id":"a17dd3b5-b988-448f-bea5-da964cf60421","system_id":"levelo_inurba_marseille","lat":43.276192,"lon":5.360998,"is_reserved":false,"is_disabled":false,"rental_uris":{"android":"levelo://app?vid=a17dd3b5-b988-448f-bea5-da964cf60421","ios":"levelo://app?vid=a17dd3b5-b988-448f-bea5-da964cf60421"},"vehicle_type_id":"4","last_reported":1692529432,"current_range_meters":0,"station_id":"ce4bgj92rcd13ifvqbe0","pricing_plan_id":"free"},{"bike_id":"4808912e-4373-4104-91a4-bb35b7136e75","system_id":"levelo_inurba_marseille","lat":43.27617,"lon":5.36119,"is_reserved":false,"is_disabled":false,"rental_uris":{"android":"levelo://app?vid=4808912e-4373-4104-91a4-bb35b7136e75","ios":"levelo://app?vid=4808912e-4373-4104-91a4-bb35b7136e75"},"vehicle_type_id":"4","last_reported":1692529432,"current_range_meters":22800,"station_id":"ce4bgj92rcd13ifvqbe0","pricing_plan_id":"free"},{"bike_id":"1250ba03-3a5b-480b-96e9-b2427ebbdecd","system_id":"levelo_inurba_marseille","lat":43.32542,"lon":5.41445,"is_reserved":false,"is_disabled":false,"rental_uris":{"android":"levelo://app?vid=1250ba03-3a5b-480b-96e9-b2427ebbdecd","ios":"levelo://app?vid=1250ba03-3a5b-480b-96e9-b2427ebbdecd"},"vehicle_type_id":"4","last_reported":1692529432,"current_range_meters":22800,"station_id":"ce4bhq12rcd13ifvqhhg","pricing_plan_id":"free"},{"bike_id":"a26b4ea9-4414-4d0d-9457-0538cdc41cef","system_id":"levelo_inurba_marseille","lat":43.32544,"lon":5.41445,"is_reserved":false,"is_disabled":false,"rental_uris":{"android":"levelo://app?vid=a26b4ea9-4414-4d0d-9457-0538cdc41cef","ios":"levelo://app?vid=a26b4ea9-4414-4d0d-9457-0538cdc41cef"},"vehicle_type_id":"4","last_reported":1692529432,"current_range_meters":9600,"station_id":"ce4bhq12rcd13ifvqhhg","pricing_plan_id":"free"},{"bike_id":"8a04e671-e020-418d-8acb-77e8bf79abd5","system_id":"levelo_inurba_marseille","lat":43.280784,"lon":5.396622,"is_reserved":false,"is_disabled":false,"rental_uris":{"android":"levelo://app?vid=8a04e671-e020-418d-8acb-77e8bf79abd5","ios":"levelo://app?vid=8a04e671-e020-418d-8acb-77e8bf79abd5"},"vehicle_type_id":"4","last_reported":1692529432,"current_range_meters":31200,"station_id":"ce4bho12rcd13ifvqh2g","pricing_plan_id":"free"},{"bike_id":"0f67a69e-76f0-4351-bea4-61e17cb3c34f","system_id":"levelo_inurba_marseille","lat":43.280784,"lon":5.396622,"is_reserved":false,"is_disabled":false,"rental_uris":{"android":"levelo://app?vid=0f67a69e-76f0-4351-bea4-61e17cb3c34f","ios":"levelo://app?vid=0f67a69e-76f0-4351-bea4-61e17cb3c34f"},"vehicle_type_id":"4","last_reported":1692529432,"current_range_meters":28000,"station_id":"ce4bho12rcd13ifvqh2g","pricing_plan_id":"free"},{"bike_id":"22e4ed32-a316-45b9-a29d-1389f293cfe5","system_id":"levelo_inurba_marseille","lat":43.303837,"lon":5.418724,"is_reserved":false,"is_disabled":false,"rental_uris":{"android":"levelo://app?vid=22e4ed32-a316-45b9-a29d-1389f293cfe5","ios":"levelo://app?vid=22e4ed32-a316-45b9-a29d-1389f293cfe5"},"vehicle_type_id":"4","last_reported":1692529432,"current_range_meters":1600,"station_id":"ce4bhop2rcd13ifvqh7g","pricing_plan_id":"free"},{"bike_id":"ec78f0cb-4443-4f22-b841-66dbd48a43b5","system_id":"levelo_inurba_marseille","lat":43.2738,"lon":5.3625,"is_reserved":false,"is_disabled":false,"rental_uris":{"android":"levelo://app?vid=ec78f0cb-4443-4f22-b841-66dbd48a43b5","ios":"levelo://app?vid=ec78f0cb-4443-4f22-b841-66dbd48a43b5"},"vehicle_type_id":"4","last_reported":1692529432,"current_range_meters":16000,"station_id":"ce4bhbh2rcd13ifvqeo0","pricing_plan_id":"free"},{"bike_id":"2ba06fb3-b9f4-47ba-b9a6-8cf0b4abcbae","system_id":"levelo_inurba_marseille","lat":43.273613,"lon":5.362705,"is_reserved":false,"is_disabled":false,"rental_uris":{"android":"levelo://app?vid=2ba06fb3-b9f4-47ba-b9a6-8cf0b4abcbae","ios":"levelo://app?vid=2ba06fb3-b9f4-47ba-b9a6-8cf0b4abcbae"},"vehicle_type_id":"4","last_reported":1692529432,"current_range_meters":25600,"station_id":"ce4bhbh2rcd13ifvqeo0","pricing_plan_id":"free"},{"bike_id":"32a721a2-51e2-4144-a680-a8dddb20bb6c","system_id":"levelo_inurba_marseille","lat":43.273613,"lon":5.362705,"is_reserved":false,"is_disabled":false,"rental_uris":{"android":"levelo://app?vid=32a721a2-51e2-4144-a680-a8dddb20bb6c","ios":"levelo://app?vid=32a721a2-51e2-4144-a680-a8dddb20bb6c"},"vehicle_type_id":"4","last_reported":1692529432,"current_range_meters":16800,"station_id":"ce4bhbh2rcd13ifvqeo0","pricing_plan_id":"free"},{"bike_id":"b2712ce6-59b8-44f7-82f4-4de849670a35","system_id":"levelo_inurba_marseille","lat":43.273613,"lon":5.362705,"is_reserved":false,"is_disabled":false,"rental_uris":{"android":"levelo://app?vid=b2712ce6-59b8-44f7-82f4-4de849670a35","ios":"levelo://app?vid=b2712ce6-59b8-44f7-82f4-4de849670a35"},"vehicle_type_id":"4","last_reported":1692529432,"current_range_meters":23600,"station_id":"ce4bhbh2rcd13ifvqeo0","pricing_plan_id":"free"},{"bike_id":"bd6424dc-eb2c-457b-bfe5-529bfe26598c","system_id":"levelo_inurba_marseille","lat":43.273613,"lon":5.362705,"is_reserved":false,"is_disabled":false,"rental_uris":{"android":"levelo://app?vid=bd6424dc-eb2c-457b-bfe5-529bfe26598c","ios":"levelo://app?vid=bd6424dc-eb2c-457b-bfe5-529bfe26598c"},"vehicle_type_id":"4","last_reported":1692529432,"current_range_meters":30800,"station_id":"ce4bhbh2rcd13ifvqeo0","pricing_plan_id":"free"},{"bike_id":"757b2cdf-b087-4807-8332-5f213be06aa7","system_id":"levelo_inurba_marseille","lat":43.273613,"lon":5.362705,"is_reserved":false,"is_disabled":false,"rental_uris":{"android":"levelo://app?vid=757b2cdf-b087-4807-8332-5f213be06aa7","ios":"levelo://app?vid=757b2cdf-b087-4807-8332-5f213be06aa7"},"vehicle_type_id":"4","last_reported":1692529432,"current_range_meters":31200,"station_id":"ce4bhbh2rcd13ifvqeo0","pricing_plan_id":"free"},{"bike_id":"70bed432-7d5a-4975-8cf7-b27d2bcaeea6","system_id":"levelo_inurba_marseille","lat":43.273613,"lon":5.362705,"is_reserved":false,"is_disabled":false,"rental_uris":{"android":"levelo://app?vid=70bed432-7d5a-4975-8cf7-b27d2bcaeea6","ios":"levelo://app?vid=70bed432-7d5a-4975-8cf7-b27d2bcaeea6"},"vehicle_type_id":"4","last_reported":1692529432,"current_range_meters":27200,"station_id":"ce4bhbh2rcd13ifvqeo0","pricing_plan_id":"free"},{"bike_id":"14251694-5f0e-4841-b57e-311fb4cfa8d9","system_id":"levelo_inurba_marseille","lat":43.273613,"lon":5.362705,"is_reserved":false,"is_disabled":false,"rental_uris":{"android":"levelo://app?vid=14251694-5f0e-4841-b57e-311fb4cfa8d9","ios":"levelo://app?vid=14251694-5f0e-4841-b57e-311fb4cfa8d9"},"vehicle_type_id":"4","last_reported":1692529432,"current_range_meters":6000,"station_id":"ce4bhbh2rcd13ifvqeo0","pricing_plan_id":"free"},{"bike_id":"87751c2e-92ec-4f3b-b020-b5827f2266e4","system_id":"levelo_inurba_marseille","lat":43.273613,"lon":5.362705,"is_reserved":false,"is_disabled":false,"rental_uris":{"android":"levelo://app?vid=87751c2e-92ec-4f3b-b020-b5827f2266e4","ios":"levelo://app?vid=87751c2e-92ec-4f3b-b020-b5827f2266e4"},"vehicle_type_id":"4","last_reported":1692529432,"current_range_meters":31200,"station_id":"ce4bhbh2rcd13ifvqeo0","pricing_plan_id":"free"},{"bike_id":"5032d218-329f-4800-b40a-feab85940990","system_id":"levelo_inurba_marseille","lat":43.275625,"lon":5.384392,"is_reserved":false,"is_disabled":false,"rental_uris":{"android":"levelo://app?vid=5032d218-329f-4800-b40a-feab85940990","ios":"levelo://app?vid=5032d218-329f-4800-b40a-feab85940990"},"vehicle_type_id":"4","last_reported":1692529432,"current_range_meters":20000,"station_id":"ce4bhh92rcd13ifvqfi0","pricing_plan_id":"free"},{"bike_id":"5a39adc5-6a9d-42d9-83bf-65798735766b","system_id":"levelo_inurba_marseille","lat":43.273609,"lon":5.362708,"is_reserved":false,"is_disabled":false,"rental_uris":{"android":"levelo://app?vid=5a39adc5-6a9d-42d9-83bf-65798735766b","ios":"levelo://app?vid=5a39adc5-6a9d-42d9-83bf-65798735766b"},"vehicle_type_id":"4","last_reported":1692529432,"current_range_meters":18400,"station_id":"ce4bhbh2rcd13ifvqeo0","pricing_plan_id":"free"},{"bike_id":"e5c53506-d7dc-44ae-a2e1-1987a200f55f","system_id":"levelo_inurba_marseille","lat":43.273609,"lon":5.362708,"is_reserved":false,"is_disabled":false,"rental_uris":{"android":"levelo://app?vid=e5c53506-d7dc-44ae-a2e1-1987a200f55f","ios":"levelo://app?vid=e5c53506-d7dc-44ae-a2e1-1987a200f55f"},"vehicle_type_id":"4","last_reported":1692529432,"current_range_meters":26000,"station_id":"ce4bhbh2rcd13ifvqeo0","pricing_plan_id":"free"},{"bike_id":"1eb5e004-2343-460c-b121-85d534cbc518","system_id":"levelo_inurba_marseille","lat":43.273609,"lon":5.362708,"is_reserved":false,"is_disabled":false,"rental_uris":{"android":"levelo://app?vid=1eb5e004-2343-460c-b121-85d534cbc518","ios":"levelo://app?vid=1eb5e004-2343-460c-b121-85d534cbc518"},"vehicle_type_id":"4","last_reported":1692529432,"current_range_meters":24000,"station_id":"ce4bhbh2rcd13ifvqeo0","pricing_plan_id":"free"},