{"last_updated":1751540961,"ttl":60,"version":"2.2","data":{"bikes":[{"bike_id":"3da29fb8-fc97-44c6-b9ac-31dd456b2fd4","system_id":"levelo_inurba_marseille","lat":43.33771,"lon":5.37424,"is_reserved":false,"is_disabled":true,"rental_uris":{"android":"levelo://app?vid=3da29fb8-fc97-44c6-b9ac-31dd456b2fd4","ios":"levelo://app?vid=3da29fb8-fc97-44c6-b9ac-31dd456b2fd4"},"vehicle_type_id":"4","last_reported":1751540962,"current_range_meters":0,"station_id":"","pricing_plan_id":"cebpf4jnsgd1na2vs0mg"},{"bike_id":"01861ad8-a8d7-4be6-816e-651927c87584","system_id":"levelo_inurba_marseille","lat":43.33751,"lon":5.37456,"is_reserved":false,"is_disabled":true,"rental_uris":{"android":"levelo://app?vid=01861ad8-a8d7-4be6-816e-651927c87584","ios":"levelo://app?vid=01861ad8-a8d7-4be6-816e-651927c87584"},"vehicle_type_id":"4","last_reported":1751540962,"current_range_meters":0,"station_id":"","pricing_plan_id":"cebpf4jnsgd1na2vs0mg"},{"bike_id":"6e5b5a4d-1ee5-4068-9613-fb44ab4d8a9a","system_id":"levelo_inurba_marseille","lat":43.34844,"lon":5.34699,"is_reserved":false,"is_disabled":true,"rental_uris":{"android":"levelo://app?vid=6e5b5a4d-1ee5-4068-9613-fb44ab4d8a9a","ios":"levelo://app?vid=6e5b5a4d-1ee5-4068-9613-fb44ab4d8a9a"},"vehicle_type_id":"4","last_reported":1751540962,"current_range_meters":0,"station_id":"","pricing_plan_id":"cebpf4jnsgd1na2vs0mg"},{"bike_id":"7e39ea07-3ec1-4f66-8d21-89c3fc316912","system_id":"levelo_inurba_marseille","lat":43.31744,"lon":5.4244,"is_reserved":false,"is_disabled":true,"rental_uris":{"android":"levelo://app?vid=7e39ea07-3ec1-4f66-8d21-89c3fc316912","ios":"levelo://app?vid=7e39ea07-3ec1-4f66-8d21-89c3fc316912"},"vehicle_type_id":"4","last_reported":1751540962,"current_range_meters":0,"station_id":"","pricing_plan_id":"cebpf4jnsgd1na2vs0mg"},{"bike_id":"8e365e3c-559a-4ba6-a6c5-4c159e2434fc","system_id":"levelo_inurba_marseille","lat":43.21741,"lon":5.346,"is_reserved":false,"is_disabled":true,"rental_uris":{"android":"levelo://app?vid=8e365e3c-559a-4ba6-a6c5-4c159e2434fc","ios":"levelo://app?vid=8e365e3c-559a-4ba6-a6c5-4c159e2434fc"},"vehicle_type_id":"4","last_reported":1751540962,"current_range_meters":0,"station_id":"","pricing_plan_id":"cebpf4jnsgd1na2vs0mg"},{"bike_id":"5fe1f33a-ebc4-4182-b521-7ef3eadc1773","system_id":"levelo_inurba_marseille","lat":43.268858,"lon":5.368648,"is_reserved":false,"is_disabled":true,"rental_uris":{"android":"levelo://app?vid=5fe1f33a-ebc4-4182-b521-7ef3eadc1773","ios":"levelo://app?vid=5fe1f33a-ebc4-4182-b521-7ef3eadc1773"},"vehicle_type_id":"4","last_reported":1751540962,"current_range_meters":0,"station_id":"","pricing_plan_id":"cebpf4jnsgd1na2vs0mg"},{"bike_id":"e198fdcc-cd13-4de1-8bde-5dc6dca16ab0","system_id":"levelo_inurba_marseille","lat":43.31083,"lon":5.38375,"is_reserved":false,"is_disabled":true,"rental_uris":{"android":"levelo://app?vid=e198fdcc-cd13-4de1-8bde-5dc6dca16ab0","ios":"levelo://app?vid=e198fdcc-cd13-4de1-8bde-5dc6dca16ab0"},"vehicle_type_id":"4","last_reported":1751540962,"current_range_meters":0,"station_id":"ce4bgv92rcd13ifvqcr0","pricing_plan_id":"cebpf4jnsgd1na2vs0mg"},{"bike_id":"a4ceb6fd-8bc1-4d86-9a2f-a75c20b5ce2e","system_id":"levelo_inurba_marseille","lat":43.2768,"lon":5.3886,"is_reserved":false,"is_disabled":true,"rental_uris":{"android":"levelo://app?vid=a4ceb6fd-8bc1-4d86-9a2f-a75c20b5ce2e","ios":"levelo://app?vid=a4ceb6fd-8bc1-4d86-9a2f-a75c20b5ce2e"},"vehicle_type_id":"4","last_reported":1751540962,"current_range_meters":0,"station_id":"ce4bhi12rcd13ifvqfo0","pricing_plan_id":"cebpf4jnsgd1na2vs0mg"},{"bike_id":"45a36d42-3f75-4451-929c-2980bab85fb7","system_id":"levelo_inurba_marseille","lat":43.23173,"lon":5.43738,"is_reserved":false,"is_disabled":true,"rental_uris":{"android":"levelo://app?vid=45a36d42-3f75-4451-929c-2980bab85fb7","ios":"levelo://app?vid=45a36d42-3f75-4451-929c-2980bab85fb7"},"vehicle_type_id":"4","last_reported":1751540962,"current_range_meters":0,"station_id":"ce4bhmp2rcd13ifvqgog","pricing_plan_id":"cebpf4jnsgd1na2vs0mg"},{"bike_id":"34525e0e-88eb-4fe8-be83-e19f0f1185d3","system_id":"levelo_inurba_marseille","lat":43.22502,"lon":5.34775,"is_reserved":false,"is_disabled":true,"rental_uris":{"android":"levelo://app?vid=34525e0e-88eb-4fe8-be83-e19f0f1185d3","ios":"levelo://app?vid=34525e0e-88eb-4fe8-be83-e19f0f1185d3"},"vehicle_type_id":"4","last_reported":1751540962,"current_range_meters":0,"station_id":"st_cvj5dfep6f1abm77gieg","pricing_plan_id":"cebpf4jnsgd1na2vs0mg"},{"bike_id":"8e520791-f3c2-458c-9680-3acd4b41f812","system_id":"levelo_inurba_marseille","lat":43.31167,"lon":5.38716,"is_reserved":false,"is_disabled":true,"rental_uris":{"android":"levelo://app?vid=8e520791-f3c2-458c-9680-3acd4b41f812","ios":"levelo://app?vid=8e520791-f3c2-458c-9680-3acd4b41f812"},"vehicle_type_id":"4","last_reported":1751540962,"current_range_meters":400,"station_id":"ce4bgv12rcd13ifvqcp0","pricing_plan_id":"cebpf4jnsgd1na2vs0mg"},{"bike_id":"cbab8e8e-76d8-4b25-9f75-190c476c076a","system_id":"levelo_inurba_marseille","lat":43.3361,"lon":5.41005,"is_reserved":false,"is_disabled":true,"rental_uris":{"android":"levelo://app?vid=cbab8e8e-76d8-4b25-9f75-190c476c076a","ios":"levelo://app?vid=cbab8e8e-76d8-4b25-9f75-190c476c076a"},"vehicle_type_id":"4","last_reported":1751540962,"current_range_meters":400,"station_id":"ce4bhqh2rcd13ifvqhmg","pricing_plan_id":"cebpf4jnsgd1na2vs0mg"},{"bike_id":"c66042d5-201d-45a8-9bcb-4fcd213ba6aa","system_id":"levelo_inurba_marseille","lat":43.26937,"lon":5.40266,"is_reserved":false,"is_disabled":true,"rental_uris":{"android":"levelo://app?vid=c66042d5-201d-45a8-9bcb-4fcd213ba6aa","ios":"levelo://app?vid=c66042d5-201d-45a8-9bcb-4fcd213ba6aa"},"vehicle_type_id":"4","last_reported":1751540962,"current_range_meters":400,"station_id":"cjm6bp8fraef2m0cb0m0","pricing_plan_id":"cebpf4jnsgd1na2vs0mg"},{"bike_id":"9795e511-4f68-494d-9846-41f87f5dd923","system_id":"levelo_inurba_marseille","lat":43.225053,"lon":5.347861,"is_reserved":false,"is_disabled":true,"rental_uris":{"android":"levelo://app?vid=9795e511-4f68-494d-9846-41f87f5dd923","ios":"levelo://app?vid=9795e511-4f68-494d-9846-41f87f5dd923"},"vehicle_type_id":"4","last_reported":1751540962,"current_range_meters":400,"station_id":"st_cvj5dfep6f1abm77gieg","pricing_plan_id":"cebpf4jnsgd1na2vs0mg"},{"bike_id":"a43dd371-aa0a-4b01-b8e3-0a02a62da194","system_id":"levelo_inurba_marseille","lat":43.28465,"lon":5.35894,"is_reserved":false,"is_disabled":true,"rental_uris":{"android":"levelo://app?vid=a43dd371-aa0a-4b01-b8e3-0a02a62da194","ios":"levelo://app?vid=a43dd371-aa0a-4b01-b8e3-0a02a62da194"},"vehicle_type_id":"4","last_reported":1751540962,"current_range_meters":800,"station_id":"ce4bhah2rcd13ifvqei0","pricing_plan_id":"cebpf4jnsgd1na2vs0mg"},{"bike_id":"75d0a17c-d0c5-45e5-9632-3722a87e82d5","system_id":"levelo_inurba_marseille","lat":43.32117,"lon":5.36806,"is_reserved":false,"is_disabled":true,"rental_uris":{"android":"levelo://app?vid=75d0a17c-d0c5-45e5-9632-3722a87e82d5","ios":"levelo://app?vid=75d0a17c-d0c5-45e5-9632-3722a87e82d5"},"vehicle_type_id":"4","last_reported":1751540962,"current_range_meters":1200,"station_id":"ce4bhrh2rcd13ifvqhug","pricing_plan_id":"cebpf4jnsgd1na2vs0mg"},{"bike_id":"acc6c06a-34b5-4f62-9844-ad286fadf5da","system_id":"levelo_inurba_marseille","lat":43.31075,"lon":5.38356,"is_reserved":false,"is_disabled":true,"rental_uris":{"android":"levelo://app?vid=acc6c06a-34b5-4f62-9844-ad286fadf5da","ios":"levelo://app?vid=acc6c06a-34b5-4f62-9844-ad286fadf5da"},"vehicle_type_id":"4","last_reported":1751540962,"current_range_meters":1600,"station_id":"ce4bgv92rcd13ifvqcr0","pricing_plan_id":"cebpf4jnsgd1na2vs0mg"},{"bike_id":"529ce0a4-8e1e-4ea3-8586-5762fd1402ce","system_id":"levelo_inurba_marseille","lat":43.29008,"lon":5.3561,"is_reserved":false,"is_disabled":true,"rental_uris":{"android":"levelo://app?vid=529ce0a4-8e1e-4ea3-8586-5762fd1402ce","ios":"levelo://app?vid=529ce0a4-8e1e-4ea3-8586-5762fd1402ce"},"vehicle_type_id":"4","last_reported":1751540962,"current_range_meters":1600,"station_id":"ce4bhb92rcd13ifvqen0","pricing_plan_id":"cebpf4jnsgd1na2vs0mg"},{"bike_id":"59eb9a5d-1cf5-4578-a296-4943a02abab8","system_id":"levelo_inurba_marseille","lat":43.29531,"lon":5.38552,"is_reserved":false,"is_disabled":true,"rental_uris":{"android":"levelo://app?vid=59eb9a5d-1cf5-4578-a296-4943a02abab8","ios":"levelo://app?vid=59eb9a5d-1cf5-4578-a296-4943a02abab8"},"vehicle_type_id":"4","last_reported":1751540962,"current_range_meters":2000,"station_id":"ce4bgih2rcd13ifvqba0","pricing_plan_id":"cebpf4jnsgd1na2vs0mg"},{"bike_id":"4ef27fec-1716-44d4-aabb-3c6267b763ac","system_id":"levelo_inurba_marseille","lat":43.27374,"lon":5.36245,"is_reserved":false,"is_disabled":true,"rental_uris":{"android":"levelo://app?vid=4ef27fec-1716-44d4-aabb-3c6267b763ac","ios":"levelo://app?vid=4ef27fec-1716-44d4-aabb-3c6267b763ac"},"vehicle_type_id":"4","last_reported":1751540962,"current_range_meters":2000,"station_id":"ce4bhbh2rcd13ifvqeo0","pricing_plan_id":"cebpf4jnsgd1na2vs0mg"},{"bike_id":"97424823-4e32-45c0-895b-4787cfc71571","system_id":"levelo_inurba_marseille","lat":43.23198,"lon":5.35554,"is_reserved":false,"is_disabled":true,"rental_uris":{"android":"levelo://app?vid=97424823-4e32-45c0-895b-4787cfc71571","ios":"levelo://app?vid=97424823-4e32-45c0-895b-4787cfc71571"},"vehicle_type_id":"4","last_reported":1751540962,"current_range_meters":2000,"station_id":"ce4bhu92rcd13ifvqi70","pricing_plan_id":"cebpf4jnsgd1na2vs0mg"},{"bike_id":"665d3082-0143-4742-b578-e08632d82f77","system_id":"levelo_inurba_marseille","lat":43.295311,"lon":5.385451,"is_reserved":false,"is_disabled":false,"rental_uris":{"android":"levelo://app?vid=665d3082-0143-4742-b578-e08632d82f77","ios":"levelo://app?vid=665d3082-0143-4742-b578-e08632d82f77"},"vehicle_type_id":"4","last_reported":1751540962,"current_range_meters":2800,"station_id":"ce4bgih2rcd13ifvqba0","pricing_plan_id":"cebpf4jnsgd1na2vs0mg"},{"bike_id":"d30d2212-fc3a-44c5-9171-cddbc571174d","system_id":"levelo_inurba_marseille","lat":43.2904,"lon":5.39956,"is_reserved":false,"is_disabled":false,"rental_uris":{"android":"levelo://app?vid=d30d2212-fc3a-44c5-9171-cddbc571174d","ios":"levelo://app?vid=d30d2212-fc3a-44c5-9171-cddbc571174d"},"vehicle_type_id":"4","last_reported":1751540962,"current_range_meters":3200,"station_id":"ce4bh392rcd13ifvqdm0","pricing_plan_id":"cebpf4jnsgd1na2vs0mg"},{"bike_id":"3171c720-c684-4a95-8c6a-ab128f5d1044","system_id":"levelo_inurba_marseille","lat":43.31396,"lon":5.36773,"is_reserved":false,"is_disabled":false,"rental_uris":{"android":"levelo://app?vid=3171c720-c684-4a95-8c6a-ab128f5d1044","ios":"levelo://app?vid=3171c720-c684-4a95-8c6a-ab128f5d1044"},"vehicle_type_id":"4","last_reported":1751540962,"current_range_meters":3600,"station_id":"ce4bgr92rcd13ifvqc6g","pricing_plan_id":"cebpf4jnsgd1na2vs0mg"},{"bike_id":"f0cc4c24-a650-4566-8677-1825fa1847b6","system_id":"levelo_inurba_marseille","lat":43.28414,"lon":5.34975,"is_reserved":false,"is_disabled":false,"rental_uris":{"android":"levelo://app?vid=f0cc4c24-a650-4566-8677-1825fa1847b6","ios":"levelo://app?vid=f0cc4c24-a650-4566-8677-1825fa1847b6"},"vehicle_type_id":"4","last_reported":1751540962,"current_range_meters":3600,"station_id":"ce4bhbh2rcd13ifvqepg","pricing_plan_id":"cebpf4jnsgd1na2vs0mg"},{"bike_id":"cd458e21-489b-4fee-bc3b-89fa0f317852","system_id":"levelo_inurba_marseille","lat":43.2549,"lon":5.37646,"is_reserved":false,"is_disabled":false,"rental_uris":{"android":"levelo://app?vid=cd458e21-489b-4fee-bc3b-89fa0f317852","ios":"levelo://app?vid=cd458e21-489b-4fee-bc3b-89fa0f317852"},"vehicle_type_id":"4","last_reported":1751540962,"current_range_meters":4000,"station_id":"ce4bhh12rcd13ifvqff0","pricing_plan_id":"cebpf4jnsgd1na2vs0mg"},{"bike_id":"28e381ac-e7e5-41e2-a33f-826079194204","system_id":"levelo_inurba_marseille","lat":43.32339,"lon":5.40613,"is_reserved":false,"is_disabled":false,"rental_uris":{"android":"levelo://app?vid=28e381ac-e7e5-41e2-a33f-826079194204","ios":"levelo://app?vid=28e381ac-e7e5-41e2-a33f-826079194204"},"vehicle_type_id":"4","last_reported":1751540962,"current_range_meters":4000,"station_id":"ce4bhq92rcd13ifvqhjg","pricing_plan_id":"cebpf4jnsgd1na2vs0mg"},{"bike_id":"cf118203-dfba-4a72-8f47-668c562e2473","system_id":"levelo_inurba_marseille","lat":43.31371,"lon":5.36756,"is_reserved":false,"is_disabled":false,"rental_uris":{"android":"levelo://app?vid=cf118203-dfba-4a72-8f47-668c562e2473","ios":"levelo://app?vid=cf118203-dfba-4a72-8f47-668c562e2473"},"vehicle_type_id":"4","last_reported":1751540962,"current_range_meters":4400,"station_id":"ce4bgr92rcd13ifvqc6g","pricing_plan_id":"cebpf4jnsgd1na2vs0mg"},{"bike_id":"f01bc8f1-adbd-4ce7-b1a0-7a0fa10b7efb","system_id":"levelo_inurba_marseille","lat":43.33033,"lon":5.39066,"is_reserved":false,"is_disabled":false,"rental_uris":{"android":"levelo://app?vid=f01bc8f1-adbd-4ce7-b1a0-7a0fa10b7efb","ios":"levelo://app?vid=f01bc8f1-adbd-4ce7-b1a0-7a0fa10b7efb"},"vehicle_type_id":"4","last_reported":1751540962,"current_range_meters":4400,"station_id":"ce4bhr92rcd13ifvqhrg","pricing_plan_id":"cebpf4jnsgd1na2vs0mg"},{"bike_id":"4792b17c-c917-4b11-a8f3-6466f0a03dc8","system_id":"levelo_inurba_marseille","lat":43.2316,"lon":5.43713,"is_reserved":false,"is_disabled":false,"rental_uris":{"android":"levelo://app?vid=4792b17c-c917-4b11-a8f3-6466f0a03dc8","ios":"levelo://app?vid=4792b17c-c917-4b11-a8f3-6466f0a03dc8"},"vehicle_type_id":"4","last_reported":1751540962,"current_range_meters":4800,"station_id":"ce4bhmp2rcd13ifvqgog","pricing_plan_id":"cebpf4jnsgd1na2vs0mg"},{"bike_id":"b5afba14-8b3c-4d05-884f-e556e0b6f0aa","system_id":"levelo_inurba_marseille","lat":43.32341,"lon":5.40613,"is_reserved":false,"is_disabled":false,"rental_uris":{"android":"levelo://app?vid=b5afba14-8b3c-4d05-884f-e556e0b6f0aa","ios":"levelo://app?vid=b5afba14-8b3c-4d05-884f-e556e0b6f0aa"},"vehicle_type_id":"4","last_reported":1751540962,"current_range_meters":4800,"station_id":"ce4bhq92rcd13ifvqhjg","pricing_plan_id":"cebpf4jnsgd1na2vs0mg"},{"bike_id":"8becf1b9-b72c-4763-a062-bbd587ae45bf","system_id":"levelo_inurba_marseille","lat":43.32616,"lon":5.42558,"is_reserved":false,"is_disabled":false,"rental_uris":{"android":"levelo://app?vid=8becf1b9-b72c-4763-a062-bbd587ae45bf","ios":"levelo://app?vid=8becf1b9-b72c-4763-a062-bbd587ae45bf"},"vehicle_type_id":"4","last_reported":1751540962,"current_range_meters":5600,"station_id":"","pricing_plan_id":"cebpf4jnsgd1na2vs0mg"},{"bike_id":"3e6171f4-125b-4554-ba86-05bc4f030a93","system_id":"levelo_inurba_marseille","lat":43.29042,"lon":5.39957,"is_reserved":false,"is_disabled":false,"rental_uris":{"android":"levelo://app?vid=3e6171f4-125b-4554-ba86-05bc4f030a93","ios":"levelo://app?vid=3e6171f4-125b-4554-ba86-05bc4f030a93"},"vehicle_type_id":"4","last_reported":1751540962,"current_range_meters":5600,"station_id":"ce4bh392rcd13ifvqdm0","pricing_plan_id":"cebpf4jnsgd1na2vs0mg"},{"bike_id":"1b409115-0514-4ce6-8920-006cd923631c","system_id":"levelo_inurba_marseille","lat":43.244015,"lon":5.370693,"is_reserved":false,"is_disabled":false,"rental_uris":{"android":"levelo://app?vid=1b409115-0514-4ce6-8920-006cd923631c","ios":"levelo://app?vid=1b409115-0514-4ce6-8920-006cd923631c"},"vehicle_type_id":"4","last_reported":1751540962,"current_range_meters":5600,"station_id":"ce4bhhh2rcd13ifvqfk0","pricing_plan_id":"cebpf4jnsgd1na2vs0mg"},{"bike_id":"cba5b54b-79c5-4b17-abe0-2f4e94c57b41","system_id":"levelo_inurba_marseille","lat":43.280735,"lon":5.347741,"is_reserved":false,"is_disabled":false,"rental_uris":{"android":"levelo://app?vid=cba5b54b-79c5-4b17-abe0-2f4e94c57b41","ios":"levelo://app?vid=cba5b54b-79c5-4b17-abe0-2f4e94c57b41"},"vehicle_type_id":"4","last_reported":1751540962,"current_range_meters":6000,"station_id":"","pricing_plan_id":"cebpf4jnsgd1na2vs0mg"},{"bike_id":"e769f623-03fc-4be6-8213-ff683d844b24","system_id":"levelo_inurba_marseille","lat":43.29372,"lon":5.37824,"is_reserved":false,"is_disabled":false,"rental_uris":{"android":"levelo://app?vid=e769f623-03fc-4be6-8213-ff683d844b24","ios":"levelo://app?vid=e769f623-03fc-4be6-8213-ff683d844b24"},"vehicle_type_id":"4","last_reported":1751540962,"current_range_meters":6000,"station_id":"ce4bgjh2rcd13ifvqbf0","pricing_plan_id":"cebpf4jnsgd1na2vs0mg"},{"bike_id":"88f0d88a-1dec-4977-a19a-71293da7fba4","system_id":"levelo_inurba_marseille","lat":43.323606,"lon":5.36744,"is_reserved":false,"is_disabled":false,"rental_uris":{"android":"levelo://app?vid=88f0d88a-1dec-4977-a19a-71293da7fba4","ios":"levelo://app?vid=88f0d88a-1dec-4977-a19a-71293da7fba4"},"vehicle_type_id":"4","last_reported":1751540962,"current_range_meters":6000,"station_id":"ce4bhsh2rcd13ifvqi2g","pricing_plan_id":"cebpf4jnsgd1na2vs0mg"},{"bike_id":"410cd204-d2d6-41ca-97b9-cb840c901b57","system_id":"levelo_inurba_marseille","lat":43.28419,"lon":5.34974,"is_reserved":false,"is_disabled":false,"rental_uris":{"android":"levelo://app?vid=410cd204-d2d6-41ca-97b9-cb840c901b57","ios":"levelo://app?vid=410cd204-d2d6-41ca-97b9-cb840c901b57"},"vehicle_type_id":"4","last_reported":1751540962,"current_range_meters":6400,"station_id":"ce4bhbh2rcd13ifvqepg","pricing_plan_id":"cebpf4jnsgd1na2vs0mg"},{"bike_id":"54aa0689-1cb3-4286-bc98-1e129ee9f2e8","system_id":"levelo_inurba_marseille","lat":43.33609,"lon":5.41035,"is_reserved":false,"is_disabled":false,"rental_uris":{"android":"levelo://app?vid=54aa0689-1cb3-4286-bc98-1e129ee9f2e8","ios":"levelo://app?vid=54aa0689-1cb3-4286-bc98-1e129ee9f2e8"},"vehicle_type_id":"4","last_reported":1751540962,"current_range_meters":6400,"station_id":"ce4bhqh2rcd13ifvqhmg","pricing_plan_id":"cebpf4jnsgd1na2vs0mg"},{"bike_id":"3fbceb20-d877-411e-a90d-f13a05e02fc6","system_id":"levelo_inurba_marseille","lat":43.30368,"lon":5.37871,"is_reserved":false,"is_disabled":false,"rental_uris":{"android":"levelo://app?vid=3fbceb20-d877-411e-a90d-f13a05e02fc6","ios":"levelo://app?vid=3fbceb20-d877-411e-a90d-f13a05e02fc6"},"vehicle_type_id":"4","last_reported":1751540962,"current_range_meters":6800,"station_id":"","pricing_plan_id":"cebpf4jnsgd1na2vs0mg"},{"bike_id":"6dc273b0-c16c-4f5e-9362-dfb0cb7f1833","system_id":"levelo_inurba_marseille","lat":43.27376,"lon":5.36261,"is_reserved":false,"is_disabled":false,"rental_uris":{"android":"levelo://app?vid=6dc273b0-c16c-4f5e-9362-dfb0cb7f1833","ios":"levelo://app?vid=6dc273b0-c16c-4f5e-9362-dfb0cb7f1833"},"vehicle_type_id":"4","last_reported":1751540962,"current_range_meters":6800,"station_id":"ce4bhbh2rcd13ifvqeo0","pricing_plan_id":"cebpf4jnsgd1na2vs0mg"},{"bike_id":"f37c5ffb-6b55-459d-9fd7-9f7772f8e81b","system_id":"levelo_inurba_marseille","lat":43.265663,"lon":5.390387,"is_reserved":false,"is_disabled":false,"rental_uris":{"android":"levelo://app?vid=f37c5ffb-6b55-459d-9fd7-9f7772f8e81b","ios":"levelo://app?vid=f37c5ffb-6b55-459d-9fd7-9f7772f8e81b"},"vehicle_type_id":"4","last_reported":1751540962,"current_range_meters":6800,"station_id":"ce4bhjp2rcd13ifvqg90","pricing_plan_id":"cebpf4jnsgd1na2vs0mg"},{"bike_id":"90f9662c-0262-4e34-926b-e4cd75a8e88f","system_id":"levelo_inurba_marseille","lat":43.24183,"lon":5.39724,"is_reserved":false,"is_disabled":false,"rental_uris":{"android":"levelo://app?vid=90f9662c-0262-4e34-926b-e4cd75a8e88f","ios":"levelo://app?vid=90f9662c-0262-4e34-926b-e4cd75a8e88f"},"vehicle_type_id":"4","last_reported":1751540962,"current_range_meters":7200,"station_id":"ce4bhn12rcd13ifvqgpg","pricing_plan_id":"cebpf4jnsgd1na2vs0mg"},{"bike_id":"7089ffc7-750d-445d-8f45-447d38e26119","system_id":"levelo_inurba_marseille","lat":43.30375,"lon":5.42484,"is_reserved":false,"is_disabled":false,"rental_uris":{"android":"levelo://app?vid=7089ffc7-750d-445d-8f45-447d38e26119","ios":"levelo://app?vid=7089ffc7-750d-445d-8f45-447d38e26119"},"vehicle_type_id":"4","last_reported":1751540962,"current_range_meters":7200,"station_id":"ce4bhoh2rcd13ifvqh6g","pricing_plan_id":"cebpf4jnsgd1na2vs0mg"},{"bike_id":"b54bef8d-87a2-406a-80c9-95d05b68e2ee","system_id":"levelo_inurba_marseille","lat":43.305507,"lon":5.365504,"is_reserved":false,"is_disabled":false,"rental_uris":{"android":"levelo://app?vid=b54bef8d-87a2-406a-80c9-95d05b68e2ee","ios":"levelo://app?vid=b54bef8d-87a2-406a-80c9-95d05b68e2ee"},"vehicle_type_id":"4","last_reported":1751540962,"current_range_meters":8000,"station_id":"ce4bgs12rcd13ifvqcag","pricing_plan_id":"cebpf4jnsgd1na2vs0mg"},{"bike_id":"c1d22c16-89b5-44df-8562-1e08681ee557","system_id":"levelo_inurba_marseille","lat":43.26214,"lon":5.37441,"is_reserved":false,"is_disabled":false,"rental_uris":{"android":"levelo://app?vid=c1d22c16-89b5-44df-8562-1e08681ee557","ios":"levelo://app?vid=c1d22c16-89b5-44df-8562-1e08681ee557"},"vehicle_type_id":"4","last_reported":1751540962,"current_range_meters":8000,"station_id":"ce4bhgp2rcd13ifvqfc0","pricing_plan_id":"cebpf4jnsgd1na2vs0mg"},{"bike_id":"ef50a132-c502-4afc-a8c2-7de6a0df1152","system_id":"levelo_inurba_marseille","lat":43.225054,"lon":5.347869,"is_reserved":false,"is_disabled":false,"rental_uris":{"android":"levelo://app?vid=ef50a132-c502-4afc-a8c2-7de6a0df1152","ios":"levelo://app?vid=ef50a132-c502-4afc-a8c2-7de6a0df1152"},"vehicle_type_id":"4","last_reported":1751540962,"current_range_meters":8000,"station_id":"st_cvj5dfep6f1abm77gieg","pricing_plan_id":"cebpf4jnsgd1na2vs0mg"},{"bike_id":"da921d92-526f-401b-95dc-b12109d1091d","system_id":"levelo_inurba_marseille","lat":43.36362,"lon":5.35031,"is_reserved":false,"is_disabled":false,"rental_uris":{"android":"levelo://app?vid=da921d92-526f-401b-95dc-b12109d1091d","ios":"levelo://app?vid=da921d92-526f-401b-95dc-b12109d1091d"},"vehicle_type_id":"4","last_reported":1751540962,"current_range_meters":8400,"station_id":"","pricing_plan_id":"cebpf4jnsgd1na2vs0mg"},{"bike_id":"777fe419-40c4-4b77-a6b2-f817bfd7fc7a","system_id":"levelo_inurba_marseille","lat":43.28341,"lon":5.38103,"is_reserved":false,"is_disabled":false,"rental_uris":{"android":"levelo://app?vid=777fe419-40c4-4b77-a6b2-f817bfd7fc7a","ios":"levelo://app?vid=777fe419-40c4-4b77-a6b2-f817bfd7fc7a"},"vehicle_type_id":"4","last_reported":1751540962,"current_range_meters":8400,"station_id":"ce4bh412rcd13ifvqdr0","pricing_plan_id":"cebpf4jnsgd1na2vs0mg"},{"bike_id":"f82c41dc-995c-4d31-972b-8a15d5267f7f","system_id":"levelo_inurba_marseille","lat":43.27073,"lon":5.4228,"is_reserved":false,"is_disabled":false,"rental_uris":{"android":"levelo://app?vid=f82c41dc-995c-4d31-972b-8a15d5267f7f","ios":"levelo://app?vid=f82c41dc-995c-4d31-972b-8a15d5267f7f"},"vehicle_type_id":"4","last_reported":1751540962,"current_range_meters":8400,"station_id":"ce4bhk92rcd13ifvqgb0","pricing_plan_id":"cebpf4jnsgd1na2vs0mg"},{"bike_id":"a62a0ef6-babe-44d3-9278-a9bccd58a7db","system_id":"levelo_inurba_marseille","lat":43.29568,"lon":5.42289,"is_reserved":false,"is_disabled":false,"rental_uris":{"android":"levelo://app?vid=a62a0ef6-babe-44d3-9278-a9bccd58a7db","ios":"levelo://app?vid=a62a0ef6-babe-44d3-9278-a9bccd58a7db"},"vehicle_type_id":"4","last_reported":1751540962,"current_range_meters":8400,"station_id":"ce4bhph2rcd13ifvqhdg","pricing_plan_id":"cebpf4jnsgd1na2vs0mg"},{"bike_id":"eb6f172f-68c2-4fbc-b984-276818caa76a","system_id":"levelo_inurba_marseille","lat":43.29308,"lon":5.43865,"is_reserved":false,"is_disabled":false,"rental_uris":{"android":"levelo://app?vid=eb6f172f-68c2-4fbc-b984-276818caa76a","ios":"levelo://app?vid=eb6f172f-68c2-4fbc-b984-276818caa76a"},"vehicle_type_id":"4","last_reported":1751540962,"current_range_meters":8800,"station_id":"","pricing_plan_id":"cebpf4jnsgd1na2vs0mg"},{"bike_id":"92a55816-ec1f-4052-be2e-4365b150ef1a","system_id":"levelo_inurba_marseille","lat":43.30885,"lon":5.39654,"is_reserved":false,"is_disabled":false,"rental_uris":{"android":"levelo://app?vid=92a55816-ec1f-4052-be2e-4365b150ef1a","ios":"levelo://app?vid=92a55816-ec1f-4052-be2e-4365b150ef1a"},"vehicle_type_id":"4","last_reported":1751540962,"current_range_meters":8800,"station_id":"ce4bh012rcd13ifvqcv0","pricing_plan_id":"cebpf4jnsgd1na2vs0mg"},{"bike_id":"ed2b74a8-a1f5-4586-a743-07150b52fb35","system_id":"levelo_inurba_marseille","lat":43.28041,"lon":5.36941,"is_reserved":false,"is_disabled":false,"rental_uris":{"android":"levelo://app?vid=ed2b74a8-a1f5-4586-a743-07150b52fb35","ios":"levelo://app?vid=ed2b74a8-a1f5-4586-a743-07150b52fb35"},"vehicle_type_id":"4","last_reported":1751540962,"current_range_meters":8800,"station_id":"ce4bha12rcd13ifvqef0","pricing_plan_id":"cebpf4jnsgd1na2vs0mg"},{"bike_id":"b369f055-cd22-4fb6-a728-69430ded506c","system_id":"levelo_inurba_marseille","lat":43.21746,"lon":5.34599,"is_reserved":false,"is_disabled":false,"rental_uris":{"android":"levelo://app?vid=b369f055-cd22-4fb6-a728-69430ded506c","ios":"levelo://app?vid=b369f055-cd22-4fb6-a728-69430ded506c"},"vehicle_type_id":"4","last_reported":1751540962,"current_range_meters":9200,"station_id":"","pricing_plan_id":"cebpf4jnsgd1na2vs0mg"},{"bike_id":"7960f354-f4be-4cfe-a187-0e233f937d35","system_id":"levelo_inurba_marseille","lat":43.29977,"lon":5.37177,"is_reserved":false,"is_disabled":false,"rental_uris":{"android":"levelo://app?vid=7960f354-f4be-4cfe-a187-0e233f937d35","ios":"levelo://app?vid=7960f354-f4be-4cfe-a187-0e233f937d35"},"vehicle_type_id":"4","last_reported":1751540962,"current_range_meters":9200,"station_id":"ce4bgr92rcd13ifvqc7g","pricing_plan_id":"cebpf4jnsgd1na2vs0mg"},{"bike_id":"6b5f2251-5553-4d29-b6c6-2d7bc1acfca1","system_id":"levelo_inurba_marseille","lat":43.30953,"lon":5.39039,"is_reserved":false,"is_disabled":false,"rental_uris":{"android":"levelo://app?vid=6b5f2251-5553-4d29-b6c6-2d7bc1acfca1","ios":"levelo://app?vid=6b5f2251-5553-4d29-b6c6-2d7bc1acfca1"},"vehicle_type_id":"4","last_reported":1751540962,"current_range_meters":9200,"station_id":"ce4bgup2rcd13ifvqco0","pricing_plan_id":"cebpf4jnsgd1na2vs0mg"},{"bike_id":"3dc8dfc0-e16e-4ce8-a052-be43045dd11f","system_id":"levelo_inurba_marseille","lat":43.24182,"lon":5.39724,"is_reserved":false,"is_disabled":false,"rental_uris":{"android":"levelo://app?vid=3dc8dfc0-e16e-4ce8-a052-be43045dd11f","ios":"levelo://app?vid=3dc8dfc0-e16e-4ce8-a052-be43045dd11f"},"vehicle_type_id":"4","last_reported":1751540962,"current_range_meters":9200,"station_id":"ce4bhn12rcd13ifvqgpg","pricing_plan_id":"cebpf4jnsgd1na2vs0mg"},{"bike_id":"7d13b89f-040f-47a2-9b58-c96a993e200a","system_id":"levelo_inurba_marseille","lat":43.32112,"lon":5.36788,"is_reserved":false,"is_disabled":false,"rental_uris":{"android":"levelo://app?vid=7d13b89f-040f-47a2-9b58-c96a993e200a","ios":"levelo://app?vid=7d13b89f-040f-47a2-9b58-c96a993e200a"},"vehicle_type_id":"4","last_reported":1751540962,"current_range_meters":9200,"station_id":"ce4bhrh2rcd13ifvqhug","pricing_plan_id":"cebpf4jnsgd1na2vs0mg"},{"bike_id":"0e95c039-e344-4ef2-8ae3-2271111801b3","system_id":"levelo_inurba_marseille","lat":43.22505,"lon":5.347863,"is_reserved":false,"is_disabled":false,"rental_uris":{"android":"levelo://app?vid=0e95c039-e344-4ef2-8ae3-2271111801b3","ios":"levelo://app?vid=0e95c039-e344-4ef2-8ae3-2271111801b3"},"vehicle_type_id":"4","last_reported":1751540962,"current_range_meters":9200,"station_id":"st_cvj5dfep6f1abm77gieg","pricing_plan_id":"cebpf4jnsgd1na2vs0mg"},{"bike_id":"8dfeef17-7968-4560-971b-1d2072005294","system_id":"levelo_inurba_marseille","lat":43.28933,"lon":5.36645,"is_reserved":false,"is_disabled":false,"rental_uris":{"android":"levelo://app?vid=8dfeef17-7968-4560-971b-1d2072005294","ios":"levelo://app?vid=8dfeef17-7968-4560-971b-1d2072005294"},"vehicle_type_id":"4","last_reported":1751540962,"current_range_meters":9600,"station_id":"ce4bhap2rcd13ifvqek0","pricing_plan_id":"cebpf4jnsgd1na2vs0mg"},{"bike_id":"b17e9340-d308-4e2d-b938-21245cd5f07a","system_id":"levelo_inurba_marseille","lat":43.25826,"lon":5.39436,"is_reserved":false,"is_disabled":false,"rental_uris":{"android":"levelo://app?vid=b17e9340-d308-4e2d-b938-21245cd5f07a","ios":"levelo://app?vid=b17e9340-d308-4e2d-b938-21245cd5f07a"},"vehicle_type_id":"4","last_reported":1751540962,"current_range_meters":9600,"station_id":"ce4bhip2rcd13ifvqft0","pricing_plan_id":"cebpf4jnsgd1na2vs0mg"},{"bike_id":"dc2161d1-7b35-4899-99bf-9b8391e34874","system_id":"levelo_inurba_marseille","lat":43.27809,"lon":5.40717,"is_reserved":false,"is_disabled":false,"rental_uris":{"android":"levelo://app?vid=dc2161d1-7b35-4899-99bf-9b8391e34874","ios":"levelo://app?vid=dc2161d1-7b35-4899-99bf-9b8391e34874"},"vehicle_type_id":"4","last_reported":1751540962,"current_range_meters":9600,"station_id":"ce4bhnh2rcd13ifvqgtg","pricing_plan_id":"cebpf4jnsgd1na2vs0mg"},{"bike_id":"9a7d342a-ff8e-46c4-af1e-6e0519bd67dc","system_id":"levelo_inurba_marseille","lat":43.291433,"lon":5.355899,"is_reserved":false,"is_disabled":false,"rental_uris":{"android":"levelo://app?vid=9a7d342a-ff8e-46c4-af1e-6e0519bd67dc","ios":"levelo://app?vid=9a7d342a-ff8e-46c4-af1e-6e0519bd67dc"},"vehicle_type_id":"4","last_reported":1751540962,"current_range_meters":10000,"station_id":"","pricing_plan_id":"cebpf4jnsgd1na2vs0mg"},{"bike_id":"7e62b058-a7ed-4634-80f1-04d3de596de7","system_id":"levelo_inurba_marseille","lat":43.29842,"lon":5.36819,"is_reserved":false,"is_disabled":false,"rental_uris":{"android":"levelo://app?vid=7e62b058-a7ed-4634-80f1-04d3de596de7","ios":"levelo://app?vid=7e62b058-a7ed-4634-80f1-04d3de596de7"},"vehicle_type_id":"4","last_reported":1751540962,"current_range_meters":10000,"station_id":"","pricing_plan_id":"cebpf4jnsgd1na2vs0mg"},{"bike_id":"bf00a211-3496-4df0-8e4e-99767047ca09","system_id":"levelo_inurba_marseille","lat":43.2997,"lon":5.37597,"is_reserved":false,"is_disabled":false,"rental_uris":{"android":"levelo://app?vid=bf00a211-3496-4df0-8e4e-99767047ca09","ios":"levelo://app?vid=bf00a211-3496-4df0-8e4e-99767047ca09"},"vehicle_type_id":"4","last_reported":1751540962,"current_range_meters":10000,"station_id":"","pricing_plan_id":"cebpf4jnsgd1na2vs0mg"},{"bike_id":"9e34e714-4b86-4e0e-bd46-e33844bdfb81","system_id":"levelo_inurba_marseille","lat":43.29297,"lon":5.37452,"is_reserved":false,"is_disabled":false,"rental_uris":{"android":"levelo://app?vid=9e34e714-4b86-4e0e-bd46-e33844bdfb81","ios":"levelo://app?vid=9e34e714-4b86-4e0e-bd46-e33844bdfb81"},"vehicle_type_id":"4","last_reported":1751540962,"current_range_meters":10000,"station_id":"ce4bgi12rcd13ifvqb70","pricing_plan_id":"cebpf4jnsgd1na2vs0mg"},{"bike_id":"4b70a2a0-4a48-4c6f-a6d3-adde6d2d3d28","system_id":"levelo_inurba_marseille","lat":43.31281,"lon":5.40172,"is_reserved":false,"is_disabled":false,"rental_uris":{"android":"levelo://app?vid=4b70a2a0-4a48-4c6f-a6d3-adde6d2d3d28","ios":"levelo://app?vid=4b70a2a0-4a48-4c6f-a6d3-adde6d2d3d28"},"vehicle_type_id":"4","last_reported":1751540962,"current_range_meters":10000,"station_id":"ce4bh092rcd13ifvqd30","pricing_plan_id":"cebpf4jnsgd1na2vs0mg"},{"bike_id":"89494d6e-e11a-438f-8875-5fc51e937fc2","system_id":"levelo_inurba_marseille","lat":43.303634,"lon":5.418774,"is_reserved":false,"is_disabled":false,"rental_uris":{"android":"levelo://app?vid=89494d6e-e11a-438f-8875-5fc51e937fc2","ios":"levelo://app?vid=89494d6e-e11a-438f-8875-5fc51e937fc2"},"vehicle_type_id":"4","last_reported":1751540962,"current_range_meters":10000,"station_id":"ce4bhop2rcd13ifvqh7g","pricing_plan_id":"cebpf4jnsgd1na2vs0mg"},{"bike_id":"b44c5f08-ff86-44db-a0f4-3b801f7529e3","system_id":"levelo_inurba_marseille","lat":43.32063,"lon":5.4154,"is_reserved":false,"is_disabled":false,"rental_uris":{"android":"levelo://app?vid=b44c5f08-ff86-44db-a0f4-3b801f7529e3","ios":"levelo://app?vid=b44c5f08-ff86-44db-a0f4-3b801f7529e3"},"vehicle_type_id":"4","last_reported":1751540962,"current_range_meters":10000,"station_id":"ce4bhq92rcd13ifvqhkg","pricing_plan_id":"cebpf4jnsgd1na2vs0mg"},{"bike_id":"22c65f34-5b9a-4ce8-b3b0-5a1a52b259a2","system_id":"levelo_inurba_marseille","lat":43.297108,"lon":5.401891,"is_reserved":false,"is_disabled":false,"rental_uris":{"android":"levelo://app?vid=22c65f34-5b9a-4ce8-b3b0-5a1a52b259a2","ios":"levelo://app?vid=22c65f34-5b9a-4ce8-b3b0-5a1a52b259a2"},"vehicle_type_id":"4","last_reported":1751540962,"current_range_meters":10800,"station_id":"","pricing_plan_id":"cebpf4jnsgd1na2vs0mg"},{"bike_id":"e26ba497-efc7-4420-b8c5-9fa5e27f2ce4","system_id":"levelo_inurba_marseille","lat":43.31361,"lon":5.3706,"is_reserved":false,"is_disabled":false,"rental_uris":{"android":"levelo://app?vid=e26ba497-efc7-4420-b8c5-9fa5e27f2ce4","ios":"levelo://app?vid=e26ba497-efc7-4420-b8c5-9fa5e27f2ce4"},"vehicle_type_id":"4","last_reported":1751540962,"current_range_meters":10800,"station_id":"","pricing_plan_id":"cebpf4jnsgd1na2vs0mg"},{"bike_id":"f228e694-30f5-4a8c-ba5e-247b89fba895","system_id":"levelo_inurba_marseille","lat":43.29171,"lon":5.37154,"is_reserved":false,"is_disabled":false,"rental_uris":{"android":"levelo://app?vid=f228e694-30f5-4a8c-ba5e-247b89fba895","ios":"levelo://app?vid=f228e694-30f5-4a8c-ba5e-247b89fba895"},"vehicle_type_id":"4","last_reported":1751540962,"current_range_meters":10800,"station_id":"ce4bha92rcd13ifvqeh0","pricing_plan_id":"cebpf4jnsgd1na2vs0mg"},{"bike_id":"ed0cd128-9a20-423c-ae21-46960837db8b","system_id":"levelo_inurba_marseille","lat":43.27553,"lon":5.3843,"is_reserved":false,"is_disabled":false,"rental_uris":{"android":"levelo://app?vid=ed0cd128-9a20-423c-ae21-46960837db8b","ios":"levelo://app?vid=ed0cd128-9a20-423c-ae21-46960837db8b"},"vehicle_type_id":"4","last_reported":1751540962,"current_range_meters":10800,"station_id":"ce4bhh92rcd13ifvqfi0","pricing_plan_id":"cebpf4jnsgd1na2vs0mg"},{"bike_id":"bcfd0eda-b9ab-4bec-9ca3-3f2b86617415","system_id":"levelo_inurba_marseille","lat":43.21199,"lon":5.350738,"is_reserved":false,"is_disabled":false,"rental_uris":{"android":"levelo://app?vid=bcfd0eda-b9ab-4bec-9ca3-3f2b86617415","ios":"levelo://app?vid=bcfd0eda-b9ab-4bec-9ca3-3f2b86617415"},"vehicle_type_id":"4","last_reported":1751540962,"current_range_meters":10800,"station_id":"st_cvj6sg6p6f1abm77japg","pricing_plan_id":"cebpf4jnsgd1na2vs0mg"},{"bike_id":"2b10c041-5c45-4141-aabe-3729b5fc3a9f","system_id":"levelo_inurba_marseille","lat":43.29702,"lon":5.37699,"is_reserved":false,"is_disabled":false,"rental_uris":{"android":"levelo://app?vid=2b10c041-5c45-4141-aabe-3729b5fc3a9f","ios":"levelo://app?vid=2b10c041-5c45-4141-aabe-3729b5fc3a9f"},"vehicle_type_id":"4","last_reported":1751540962,"current_range_meters":11200,"station_id":"ce4bgkh2rcd13ifvqbl0","pricing_plan_id":"cebpf4jnsgd1na2vs0mg"},{"bike_id":"afc263f7-1fa4-4f95-83ef-54521145c0e0","system_id":"levelo_inurba_marseille","lat":43.30555,"lon":5.3654,"is_reserved":false,"is_disabled":false,"rental_uris":{"android":"levelo://app?vid=afc263f7-1fa4-4f95-83ef-54521145c0e0","ios":"levelo://app?vid=afc263f7-1fa4-4f95-83ef-54521145c0e0"},"vehicle_type_id":"4","last_reported":1751540962,"current_range_meters":11200,"station_id":"ce4bgs12rcd13ifvqcag","pricing_plan_id":"cebpf4jnsgd1na2vs0mg"},{"bike_id":"2d659fe1-36b2-4981-bcd7-0c6fca4b3667","system_id":"levelo_inurba_marseille","lat":43.30532,"lon":5.36554,"is_reserved":false,"is_disabled":false,"rental_uris":{"android":"levelo://app?vid=2d659fe1-36b2-4981-bcd7-0c6fca4b3667","ios":"levelo://app?vid=2d659fe1-36b2-4981-bcd7-0c6fca4b3667"},"vehicle_type_id":"4","last_reported":1751540962,"current_range_meters":11200,"station_id":"ce4bgs12rcd13ifvqcag","pricing_plan_id":"cebpf4jnsgd1na2vs0mg"},{"bike_id":"9bbb3505-f5f2-4752-b6b8-995e04070cae","system_id":"levelo_inurba_marseille","lat":43.30095,"lon":5.39089,"is_reserved":false,"is_disabled":false,"rental_uris":{"android":"levelo://app?vid=9bbb3505-f5f2-4752-b6b8-995e04070cae","ios":"levelo://app?vid=9bbb3505-f5f2-4752-b6b8-995e04070cae"},"vehicle_type_id":"4","last_reported":1751540962,"current_range_meters":11200,"station_id":"ce4bh192rcd13ifvqdb0","pricing_plan_id":"cebpf4jnsgd1na2vs0mg"},{"bike_id":"61104d5b-b68d-4b18-819f-6b184becb4c5","system_id":"levelo_inurba_marseille","lat":43.29369,"lon":5.3784,"is_reserved":false,"is_disabled":false,"rental_uris":{"android":"levelo://app?vid=61104d5b-b68d-4b18-819f-6b184becb4c5","ios":"levelo://app?vid=61104d5b-b68d-4b18-819f-6b184becb4c5"},"vehicle_type_id":"4","last_reported":1751540962,"current_range_meters":11600,"station_id":"ce4bgjh2rcd13ifvqbf0","pricing_plan_id":"cebpf4jnsgd1na2vs0mg"},{"bike_id":"52d79e24-4353-4094-98d6-de29d7514972","system_id":"levelo_inurba_marseille","lat":43.31494,"lon":5.37303,"is_reserved":false,"is_disabled":false,"rental_uris":{"android":"levelo://app?vid=52d79e24-4353-4094-98d6-de29d7514972","ios":"levelo://app?vid=52d79e24-4353-4094-98d6-de29d7514972"},"vehicle_type_id":"4","last_reported":1751540962,"current_range_meters":11600,"station_id":"ce4bgt12rcd13ifvqcd0","pricing_plan_id":"cebpf4jnsgd1na2vs0mg"},{"bike_id":"163f19c4-3e82-44a5-b3a6-28f99bd40702","system_id":"levelo_inurba_marseille","lat":43.23968,"lon":5.3663,"is_reserved":false,"is_disabled":false,"rental_uris":{"android":"levelo://app?vid=163f19c4-3e82-44a5-b3a6-28f99bd40702","ios":"levelo://app?vid=163f19c4-3e82-44a5-b3a6-28f99bd40702"},"vehicle_type_id":"4","last_reported":1751540962,"current_range_meters":11600,"station_id":"ce4bhi12rcd13ifvqfp0","pricing_plan_id":"cebpf4jnsgd1na2vs0mg"},{"bike_id":"b901cae9-08be-4e8b-841a-a49aead12b2a","system_id":"levelo_inurba_marseille","lat":43.255331,"lon":5.409248,"is_reserved":false,"is_disabled":false,"rental_uris":{"android":"levelo://app?vid=b901cae9-08be-4e8b-841a-a49aead12b2a","ios":"levelo://app?vid=b901cae9-08be-4e8b-841a-a49aead12b2a"},"vehicle_type_id":"4","last_reported":1751540962,"current_range_meters":11600,"station_id":"ce4bhkp2rcd13ifvqgd0","pricing_plan_id":"cebpf4jnsgd1na2vs0mg"},{"bike_id":"e36eeb04-35cc-4a52-97d7-6ba58bfe555b","system_id":"levelo_inurba_marseille","lat":43.29549,"lon":5.42296,"is_reserved":false,"is_disabled":false,"rental_uris":{"android":"levelo://app?vid=e36eeb04-35cc-4a52-97d7-6ba58bfe555b","ios":"levelo://app?vid=e36eeb04-35cc-4a52-97d7-6ba58bfe555b"},"vehicle_type_id":"4","last_reported":1751540962,"current_range_meters":11600,"station_id":"ce4bhph2rcd13ifvqhdg","pricing_plan_id":"cebpf4jnsgd1na2vs0mg"},{"bike_id":"9d06beda-1bc5-4b5e-a97e-4c40320ce321","system_id":"levelo_inurba_marseille","lat":43.33604,"lon":5.410221,"is_reserved":false,"is_disabled":false,"rental_uris":{"android":"levelo://app?vid=9d06beda-1bc5-4b5e-a97e-4c40320ce321","ios":"levelo://app?vid=9d06beda-1bc5-4b5e-a97e-4c40320ce321"},"vehicle_type_id":"4","last_reported":1751540962,"current_range_meters":11600,"station_id":"ce4bhqh2rcd13ifvqhmg","pricing_plan_id":"cebpf4jnsgd1na2vs0mg"},{"bike_id":"16a8afe6-e43e-4d1b-a7bd-ed83d113735a","system_id":"levelo_inurba_marseille","lat":43.32436,"lon":5.41185,"is_reserved":false,"is_disabled":false,"rental_uris":{"android":"levelo://app?vid=16a8afe6-e43e-4d1b-a7bd-ed83d113735a","ios":"levelo://app?vid=16a8afe6-e43e-4d1b-a7bd-ed83d113735a"},"vehicle_type_id":"4","last_reported":1751540962,"current_range_meters":12000,"station_id":"","pricing_plan_id":"cebpf4jnsgd1na2vs0mg"},{"bike_id":"64bb485e-0856-48ce-befe-bde5a394f93d","system_id":"levelo_inurba_marseille","lat":43.27614,"lon":5.38894,"is_reserved":false,"is_disabled":false,"rental_uris":{"android":"levelo://app?vid=64bb485e-0856-48ce-befe-bde5a394f93d","ios":"levelo://app?vid=64bb485e-0856-48ce-befe-bde5a394f93d"},"vehicle_type_id":"4","last_reported":1751540962,"current_range_meters":12000,"station_id":"","pricing_plan_id":"cebpf4jnsgd1na2vs0mg"},{"bike_id":"a309f7b6-cc6c-462b-bf81-88494e0f3050","system_id":"levelo_inurba_marseille","lat":43.30553,"lon":5.36527,"is_reserved":false,"is_disabled":false,"rental_uris":{"android":"levelo://app?vid=a309f7b6-cc6c-462b-bf81-88494e0f3050","ios":"levelo://app?vid=a309f7b6-cc6c-462b-bf81-88494e0f3050"},"vehicle_type_id":"4","last_reported":1751540962,"current_range_meters":12000,"station_id":"ce4bgs12rcd13ifvqcag","pricing_plan_id":"cebpf4jnsgd1na2vs0mg"},{"bike_id":"dc81dbc8-9488-4a21-9af2-3df10e171ef5","system_id":"levelo_inurba_marseille","lat":43.28346,"lon":5.38114,"is_reserved":false,"is_disabled":false,"rental_uris":{"android":"levelo://app?vid=dc81dbc8-9488-4a21-9af2-3df10e171ef5","ios":"levelo://app?vid=dc81dbc8-9488-4a21-9af2-3df10e171ef5"},"vehicle_type_id":"4","last_reported":1751540962,"current_range_meters":12000,"station_id":"ce4bh412rcd13ifvqdr0","pricing_plan_id":"cebpf4jnsgd1na2vs0mg"},{"bike_id":"959e6f20-8ed0-4d36-bc1d-3efb82d6190b","system_id":"levelo_inurba_marseille","lat":43.21209,"lon":5.35123,"is_reserved":false,"is_disabled":false,"rental_uris":{"android":"levelo://app?vid=959e6f20-8ed0-4d36-bc1d-3efb82d6190b","ios":"levelo://app?vid=959e6f20-8ed0-4d36-bc1d-3efb82d6190b"},"vehicle_type_id":"4","last_reported":1751540962,"current_range_meters":12000,"station_id":"st_cvj6sg6p6f1abm77japg","pricing_plan_id":"cebpf4jnsgd1na2vs0mg"},{"bike_id":"5bd451ed-0066-4e3f-a862-828c225711d5","system_id":"levelo_inurba_marseille","lat":43.297903,"lon":5.380873,"is_reserved":false,"is_disabled":false,"rental_uris":{"android":"levelo://app?vid=5bd451ed-0066-4e3f-a862-828c225711d5","ios":"levelo://app?vid=5bd451ed-0066-4e3f-a862-828c225711d5"},"vehicle_type_id":"4","last_reported":1751540962,"current_range_meters":12400,"station_id":"ce4bgip2rcd13ifvqbb0","pricing_plan_id":"cebpf4jnsgd1na2vs0mg"},{"bike_id":"ac951e49-6695-47c7-aead-2059a7cbd14b","system_id":"levelo_inurba_marseille","lat":43.30104,"lon":5.39089,"is_reserved":false,"is_disabled":false,"rental_uris":{"android":"levelo://app?vid=ac951e49-6695-47c7-aead-2059a7cbd14b","ios":"levelo://app?vid=ac951e49-6695-47c7-aead-2059a7cbd14b"},"vehicle_type_id":"4","last_reported":1751540962,"current_range_meters":12400,"station_id":"ce4bh192rcd13ifvqdb0","pricing_plan_id":"cebpf4jnsgd1na2vs0mg"},{"bike_id":"4f60aa92-92a2-4c82-a3da-e9cf53fb88b9","system_id":"levelo_inurba_marseille","lat":43.25492,"lon":5.37656,"is_reserved":false,"is_disabled":false,"rental_uris":{"android":"levelo://app?vid=4f60aa92-92a2-4c82-a3da-e9cf53fb88b9","ios":"levelo://app?vid=4f60aa92-92a2-4c82-a3da-e9cf53fb88b9"},"vehicle_type_id":"4","last_reported":1751540962,"current_range_meters":12400,"station_id":"ce4bhh12rcd13ifvqff0","pricing_plan_id":"cebpf4jnsgd1na2vs0mg"},{"bike_id":"9a8867fb-7534-4fea-a0c5-ab319f67ba6a","system_id":"levelo_inurba_marseille","lat":43.24388,"lon":5.37053,"is_reserved":false,"is_disabled":false,"rental_uris":{"android":"levelo://app?vid=9a8867fb-7534-4fea-a0c5-ab319f67ba6a","ios":"levelo://app?vid=9a8867fb-7534-4fea-a0c5-ab319f67ba6a"},"vehicle_type_id":"4","last_reported":1751540962,"current_range_meters":12400,"station_id":"ce4bhhh2rcd13ifvqfk0","pricing_plan_id":"cebpf4jnsgd1na2vs0mg"},{"bike_id":"8b784f28-b0e0-4960-8cfe-7e3d0de16521","system_id":"levelo_inurba_marseille","lat":43.2315,"lon":5.43717,"is_reserved":false,"is_disabled":false,"rental_uris":{"android":"levelo://app?vid=8b784f28-b0e0-4960-8cfe-7e3d0de16521","ios":"levelo://app?vid=8b784f28-b0e0-4960-8cfe-7e3d0de16521"},"vehicle_type_id":"4","last_reported":1751540962,"current_range_meters":12400,"station_id":"ce4bhmp2rcd13ifvqgog","pricing_plan_id":"cebpf4jnsgd1na2vs0mg"},{"bike_id":"8b275258-2617-4b52-9a95-0d45670b5894","system_id":"levelo_inurba_marseille","lat":43.330264,"lon":5.390494,"is_reserved":false,"is_disabled":false,"rental_uris":{"android":"levelo://app?vid=8b275258-2617-4b52-9a95-0d45670b5894","ios":"levelo://app?vid=8b275258-2617-4b52-9a95-0d45670b5894"},"vehicle_type_id":"4","last_reported":1751540962,"current_range_meters":12400,"station_id":"ce4bhr92rcd13ifvqhrg","pricing_plan_id":"cebpf4jnsgd1na2vs0mg"},{"bike_id":"0e030323-4386-4e72-9a0d-0f6a2ff539de","system_id":"levelo_inurba_marseille","lat":43.29614,"lon":5.40558,"is_reserved":false,"is_disabled":false,"rental_uris":{"android":"levelo://app?vid=0e030323-4386-4e72-9a0d-0f6a2ff539de","ios":"levelo://app?vid=0e030323-4386-4e72-9a0d-0f6a2ff539de"},"vehicle_type_id":"4","last_reported":1751540962,"current_range_meters":12800,"station_id":"ce4bh0h2rcd13ifvqd60","pricing_plan_id":"cebpf4jnsgd1na2vs0mg"},{"bike_id":"5f1590cb-1409-4bc4-b379-1daeaa86f422","system_id":"levelo_inurba_marseille","lat":43.25931,"lon":5.40902,"is_reserved":false,"is_disabled":false,"rental_uris":{"android":"levelo://app?vid=5f1590cb-1409-4bc4-b379-1daeaa86f422","ios":"levelo://app?vid=5f1590cb-1409-4bc4-b379-1daeaa86f422"},"vehicle_type_id":"4","last_reported":1751540962,"current_range_meters":12800,"station_id":"ce4bhm92rcd13ifvqglg","pricing_plan_id":"cebpf4jnsgd1na2vs0mg"},{"bike_id":"b30e31d7-58a6-4ca8-84c8-7339151a0883","system_id":"levelo_inurba_marseille","lat":43.24161,"lon":5.36412,"is_reserved":false,"is_disabled":false,"rental_uris":{"android":"levelo://app?vid=b30e31d7-58a6-4ca8-84c8-7339151a0883","ios":"levelo://app?vid=b30e31d7-58a6-4ca8-84c8-7339151a0883"},"vehicle_type_id":"4","last_reported":1751540962,"current_range_meters":12800,"station_id":"cpo36qri1sfpv3e86is0","pricing_plan_id":"cebpf4jnsgd1na2vs0mg"},{"bike_id":"28e85b4b-5229-454c-9c4c-1283a3943a17","system_id":"levelo_inurba_marseille","lat":43.29572,"lon":5.37535,"is_reserved":false,"is_disabled":false,"rental_uris":{"android":"levelo://app?vid=28e85b4b-5229-454c-9c4c-1283a3943a17","ios":"levelo://app?vid=28e85b4b-5229-454c-9c4c-1283a3943a17"},"vehicle_type_id":"4","last_reported":1751540962,"current_range_meters":13600,"station_id":"ce4bgh92rcd13ifvqb50","pricing_plan_id":"cebpf4jnsgd1na2vs0mg"},{"bike_id":"468faf8d-9700-4620-a88a-bad7643aa81a","system_id":"levelo_inurba_marseille","lat":43.30316,"lon":5.39199,"is_reserved":false,"is_disabled":false,"rental_uris":{"android":"levelo://app?vid=468faf8d-9700-4620-a88a-bad7643aa81a","ios":"levelo://app?vid=468faf8d-9700-4620-a88a-bad7643aa81a"},"vehicle_type_id":"4","last_reported":1751540962,"current_range_meters":13600,"station_id":"ce4bgkh2rcd13ifvqbk0","pricing_plan_id":"cebpf4jnsgd1na2vs0mg"},{"bike_id":"3582907c-1b23-4c4a-8721-4cd0d835aa7a","system_id":"levelo_inurba_marseille","lat":43.298461,"lon":5.362663,"is_reserved":false,"is_disabled":false,"rental_uris":{"android":"levelo://app?vid=3582907c-1b23-4c4a-8721-4cd0d835aa7a","ios":"levelo://app?vid=3582907c-1b23-4c4a-8721-4cd0d835aa7a"},"vehicle_type_id":"4","last_reported":1751540962,"current_range_meters":13600,"station_id":"ce4bgpp2rcd13ifvqc3g","pricing_plan_id":"cebpf4jnsgd1na2vs0mg"},{"bike_id":"09a51d17-1b05-40aa-a16a-11c017bff622","system_id":"levelo_inurba_marseille","lat":43.29848,"lon":5.36281,"is_reserved":false,"is_disabled":false,"rental_uris":{"android":"levelo://app?vid=09a51d17-1b05-40aa-a16a-11c017bff622","ios":"levelo://app?vid=09a51d17-1b05-40aa-a16a-11c017bff622"},"vehicle_type_id":"4","last_reported":1751540962,"current_range_meters":13600,"station_id":"ce4bgpp2rcd13ifvqc3g","pricing_plan_id":"cebpf4jnsgd1na2vs0mg"},{"bike_id":"7076efe0-1ff3-4aa3-ae37-967417622e8d","system_id":"levelo_inurba_marseille","lat":43.29225,"lon":5.36053,"is_reserved":false,"is_disabled":false,"rental_uris":{"android":"levelo://app?vid=7076efe0-1ff3-4aa3-ae37-967417622e8d","ios":"levelo://app?vid=7076efe0-1ff3-4aa3-ae37-967417622e8d"},"vehicle_type_id":"4","last_reported":1751540962,"current_range_meters":13600,"station_id":"ce4bhbh2rcd13ifvqeqg","pricing_plan_id":"cebpf4jnsgd1na2vs0mg"},{"bike_id":"122d2e12-1432-426e-87bb-4f64eeba567c","system_id":"levelo_inurba_marseille","lat":43.30893,"lon":5.37182,"is_reserved":false,"is_disabled":false,"rental_uris":{"android":"levelo://app?vid=122d2e12-1432-426e-87bb-4f64eeba567c","ios":"levelo://app?vid=122d2e12-1432-426e-87bb-4f64eeba567c"},"vehicle_type_id":"4","last_reported":1751540962,"current_range_meters":14000,"station_id":"ce4bguh2rcd13ifvqckg","pricing_plan_id":"cebpf4jnsgd1na2vs0mg"},{"bike_id":"16d8d7c8-fb59-4257-adb8-eec44b04f613","system_id":"levelo_inurba_marseille","lat":43.29868,"lon":5.3972,"is_reserved":false,"is_disabled":false,"rental_uris":{"android":"levelo://app?vid=16d8d7c8-fb59-4257-adb8-eec44b04f613","ios":"levelo://app?vid=16d8d7c8-fb59-4257-adb8-eec44b04f613"},"vehicle_type_id":"4","last_reported":1751540962,"current_range_meters":14000,"station_id":"ce4bh0h2rcd13ifvqd50","pricing_plan_id":"cebpf4jnsgd1na2vs0mg"},{"bike_id":"e416c998-4d9a-4848-acdf-fc99f6494b08","system_id":"levelo_inurba_marseille","lat":43.25499,"lon":5.37628,"is_reserved":false,"is_disabled":false,"rental_uris":{"android":"levelo://app?vid=e416c998-4d9a-4848-acdf-fc99f6494b08","ios":"levelo://app?vid=e416c998-4d9a-4848-acdf-fc99f6494b08"},"vehicle_type_id":"4","last_reported":1751540962,"current_range_meters":14000,"station_id":"ce4bhh12rcd13ifvqff0","pricing_plan_id":"cebpf4jnsgd1na2vs0mg"},{"bike_id":"912d67f3-78e7-48fd-8929-37f0572cfee4","system_id":"levelo_inurba_marseille","lat":43.26389,"lon":5.37442,"is_reserved":false,"is_disabled":false,"rental_uris":{"android":"levelo://app?vid=912d67f3-78e7-48fd-8929-37f0572cfee4","ios":"levelo://app?vid=912d67f3-78e7-48fd-8929-37f0572cfee4"},"vehicle_type_id":"4","last_reported":1751540962,"current_range_meters":14400,"station_id":"","pricing_plan_id":"cebpf4jnsgd1na2vs0mg"},{"bike_id":"a588469b-12ca-41c6-8c6f-3f3bda5b7f15","system_id":"levelo_inurba_marseille","lat":43.31562,"lon":5.38404,"is_reserved":false,"is_disabled":false,"rental_uris":{"android":"levelo://app?vid=a588469b-12ca-41c6-8c6f-3f3bda5b7f15","ios":"levelo://app?vid=a588469b-12ca-41c6-8c6f-3f3bda5b7f15"},"vehicle_type_id":"4","last_reported":1751540962,"current_range_meters":14400,"station_id":"","pricing_plan_id":"cebpf4jnsgd1na2vs0mg"},{"bike_id":"004dd51d-720d-4ef9-b093-3887cdbe8006","system_id":"levelo_inurba_marseille","lat":43.29553,"lon":5.37508,"is_reserved":false,"is_disabled":false,"rental_uris":{"android":"levelo://app?vid=004dd51d-720d-4ef9-b093-3887cdbe8006","ios":"levelo://app?vid=004dd51d-720d-4ef9-b093-3887cdbe8006"},"vehicle_type_id":"4","last_reported":1751540962,"current_range_meters":14400,"station_id":"ce4bgkp2rcd13ifvqbmg","pricing_plan_id":"cebpf4jnsgd1na2vs0mg"},{"bike_id":"a4e15f80-53fd-417d-9757-38e79c796361","system_id":"levelo_inurba_marseille","lat":43.3053,"lon":5.36745,"is_reserved":false,"is_disabled":false,"rental_uris":{"android":"levelo://app?vid=a4e15f80-53fd-417d-9757-38e79c796361","ios":"levelo://app?vid=a4e15f80-53fd-417d-9757-38e79c796361"},"vehicle_type_id":"4","last_reported":1751540962,"current_range_meters":14400,"station_id":"ce4bgrp2rcd13ifvqc9g","pricing_plan_id":"cebpf4jnsgd1na2vs0mg"},{"bike_id":"aa0f1230-e1e9-41f1-9211-043e633764ce","system_id":"levelo_inurba_marseille","lat":43.30552,"lon":5.36513,"is_reserved":false,"is_disabled":false,"rental_uris":{"android":"levelo://app?vid=aa0f1230-e1e9-41f1-9211-043e633764ce","ios":"levelo://app?vid=aa0f1230-e1e9-41f1-9211-043e633764ce"},"vehicle_type_id":"4","last_reported":1751540962,"current_range_meters":14800,"station_id":"ce4bgs12rcd13ifvqcag","pricing_plan_id":"cebpf4jnsgd1na2vs0mg"},{"bike_id":"3127aa94-ef1f-4ab8-b2e3-1da153a47168","system_id":"levelo_inurba_marseille","lat":43.225072,"lon":5.347857,"is_reserved":false,"is_disabled":false,"rental_uris":{"android":"levelo://app?vid=3127aa94-ef1f-4ab8-b2e3-1da153a47168","ios":"levelo://app?vid=3127aa94-ef1f-4ab8-b2e3-1da153a47168"},"vehicle_type_id":"4","last_reported":1751540962,"current_range_meters":14800,"station_id":"st_cvj5dfep6f1abm77gieg","pricing_plan_id":"cebpf4jnsgd1na2vs0mg"},{"bike_id":"ffc4ee84-d1be-4ebc-8ebf-1a1ca37b8401","system_id":"levelo_inurba_marseille","lat":43.30848,"lon":5.37413,"is_reserved":false,"is_disabled":false,"rental_uris":{"android":"levelo://app?vid=ffc4ee84-d1be-4ebc-8ebf-1a1ca37b8401","ios":"levelo://app?vid=ffc4ee84-d1be-4ebc-8ebf-1a1ca37b8401"},"vehicle_type_id":"4","last_reported":1751540962,"current_range_meters":15200,"station_id":"","pricing_plan_id":"cebpf4jnsgd1na2vs0mg"},{"bike_id":"74da8f58-2e0d-49af-8617-6f647e2570f5","system_id":"levelo_inurba_marseille","lat":43.29801,"lon":5.38096,"is_reserved":false,"is_disabled":false,"rental_uris":{"android":"levelo://app?vid=74da8f58-2e0d-49af-8617-6f647e2570f5","ios":"levelo://app?vid=74da8f58-2e0d-49af-8617-6f647e2570f5"},"vehicle_type_id":"4","last_reported":1751540962,"current_range_meters":15200,"station_id":"ce4bgip2rcd13ifvqbb0","pricing_plan_id":"cebpf4jnsgd1na2vs0mg"},{"bike_id":"4d9e1e29-4356-40e9-a814-d50291620d2a","system_id":"levelo_inurba_marseille","lat":43.29712,"lon":5.37698,"is_reserved":false,"is_disabled":false,"rental_uris":{"android":"levelo://app?vid=4d9e1e29-4356-40e9-a814-d50291620d2a","ios":"levelo://app?vid=4d9e1e29-4356-40e9-a814-d50291620d2a"},"vehicle_type_id":"4","last_reported":1751540962,"current_range_meters":15200,"station_id":"ce4bgkh2rcd13ifvqbl0","pricing_plan_id":"cebpf4jnsgd1na2vs0mg"},{"bike_id":"e25a6f29-8ba9-40e1-8dd9-fcbb5c784e5b","system_id":"levelo_inurba_marseille","lat":43.28672,"lon":5.38657,"is_reserved":false,"is_disabled":false,"rental_uris":{"android":"levelo://app?vid=e25a6f29-8ba9-40e1-8dd9-fcbb5c784e5b","ios":"levelo://app?vid=e25a6f29-8ba9-40e1-8dd9-fcbb5c784e5b"},"vehicle_type_id":"4","last_reported":1751540962,"current_range_meters":15200,"station_id":"ce4bh492rcd13ifvqdug","pricing_plan_id":"cebpf4jnsgd1na2vs0mg"},{"bike_id":"ca4a7e0b-e700-497b-8a37-7ce86328b149","system_id":"levelo_inurba_marseille","lat":43.33026,"lon":5.39041,"is_reserved":false,"is_disabled":false,"rental_uris":{"android":"levelo://app?vid=ca4a7e0b-e700-497b-8a37-7ce86328b149","ios":"levelo://app?vid=ca4a7e0b-e700-497b-8a37-7ce86328b149"},"vehicle_type_id":"4","last_reported":1751540962,"current_range_meters":15200,"station_id":"ce4bhr92rcd13ifvqhrg","pricing_plan_id":"cebpf4jnsgd1na2vs0mg"},{"bike_id":"ba154a12-11bd-42a5-958a-5992f5d043d1","system_id":"levelo_inurba_marseille","lat":43.3046,"lon":5.37023,"is_reserved":false,"is_disabled":false,"rental_uris":{"android":"levelo://app?vid=ba154a12-11bd-42a5-958a-5992f5d043d1","ios":"levelo://app?vid=ba154a12-11bd-42a5-958a-5992f5d043d1"},"vehicle_type_id":"4","last_reported":1751540962,"current_range_meters":16000,"station_id":"","pricing_plan_id":"cebpf4jnsgd1na2vs0mg"},{"bike_id":"7d70be05-7a85-441d-8d39-b29831f245c2","system_id":"levelo_inurba_marseille","lat":43.29706,"lon":5.36617,"is_reserved":false,"is_disabled":false,"rental_uris":{"android":"levelo://app?vid=7d70be05-7a85-441d-8d39-b29831f245c2","ios":"levelo://app?vid=7d70be05-7a85-441d-8d39-b29831f245c2"},"vehicle_type_id":"4","last_reported":1751540962,"current_range_meters":16000,"station_id":"ce4bgn12rcd13ifvqbt0","pricing_plan_id":"cebpf4jnsgd1na2vs0mg"},{"bike_id":"61cec656-a0c9-4012-a0dc-be531d588648","system_id":"levelo_inurba_marseille","lat":43.2407,"lon":5.37766,"is_reserved":false,"is_disabled":false,"rental_uris":{"android":"levelo://app?vid=61cec656-a0c9-4012-a0dc-be531d588648","ios":"levelo://app?vid=61cec656-a0c9-4012-a0dc-be531d588648"},"vehicle_type_id":"4","last_reported":1751540962,"current_range_meters":16000,"station_id":"ce4bhnp2rcd13ifvqgvg","pricing_plan_id":"cebpf4jnsgd1na2vs0mg"},{"bike_id":"61bfdee2-3ff6-438c-9920-b7a24a0df7a3","system_id":"levelo_inurba_marseille","lat":43.30144,"lon":5.39851,"is_reserved":false,"is_disabled":false,"rental_uris":{"android":"levelo://app?vid=61bfdee2-3ff6-438c-9920-b7a24a0df7a3","ios":"levelo://app?vid=61bfdee2-3ff6-438c-9920-b7a24a0df7a3"},"vehicle_type_id":"4","last_reported":1751540962,"current_range_meters":16400,"station_id":"ce4bh0h2rcd13ifvqd40","pricing_plan_id":"cebpf4jnsgd1na2vs0mg"},{"bike_id":"77a9e021-5bd5-45a7-b20f-5a801462770f","system_id":"levelo_inurba_marseille","lat":43.28412,"lon":5.34974,"is_reserved":false,"is_disabled":false,"rental_uris":{"android":"levelo://app?vid=77a9e021-5bd5-45a7-b20f-5a801462770f","ios":"levelo://app?vid=77a9e021-5bd5-45a7-b20f-5a801462770f"},"vehicle_type_id":"4","last_reported":1751540962,"current_range_meters":16400,"station_id":"ce4bhbh2rcd13ifvqepg","pricing_plan_id":"cebpf4jnsgd1na2vs0mg"},{"bike_id":"288c01c0-a99b-4073-85f6-7c5bccb78629","system_id":"levelo_inurba_marseille","lat":43.28418,"lon":5.34975,"is_reserved":false,"is_disabled":false,"rental_uris":{"android":"levelo://app?vid=288c01c0-a99b-4073-85f6-7c5bccb78629","ios":"levelo://app?vid=288c01c0-a99b-4073-85f6-7c5bccb78629"},"vehicle_type_id":"4","last_reported":1751540962,"current_range_meters":16400,"station_id":"ce4bhbh2rcd13ifvqepg","pricing_plan_id":"cebpf4jnsgd1na2vs0mg"},{"bike_id":"b2877304-14ba-4751-84a6-16ff9990cb3e","system_id":"levelo_inurba_marseille","lat":43.289399,"lon":5.363743,"is_reserved":false,"is_disabled":false,"rental_uris":{"android":"levelo://app?vid=b2877304-14ba-4751-84a6-16ff9990cb3e","ios":"levelo://app?vid=b2877304-14ba-4751-84a6-16ff9990cb3e"},"vehicle_type_id":"4","last_reported":1751540962,"current_range_meters":16400,"station_id":"ce4bhc92rcd13ifvqetg","pricing_plan_id":"cebpf4jnsgd1na2vs0mg"},{"bike_id":"a954cf97-6fdb-445a-8de6-7ce5c13c4e27","system_id":"levelo_inurba_marseille","lat":43.24664,"lon":5.38164,"is_reserved":false,"is_disabled":false,"rental_uris":{"android":"levelo://app?vid=a954cf97-6fdb-445a-8de6-7ce5c13c4e27","ios":"levelo://app?vid=a954cf97-6fdb-445a-8de6-7ce5c13c4e27"},"vehicle_type_id":"4","last_reported":1751540962,"current_range_meters":16400,"station_id":"ce4bhih2rcd13ifvqfr0","pricing_plan_id":"cebpf4jnsgd1na2vs0mg"},{"bike_id":"6bf57b0a-809a-4cf7-b405-ef74a78507a3","system_id":"levelo_inurba_marseille","lat":43.25732,"lon":5.41103,"is_reserved":false,"is_disabled":false,"rental_uris":{"android":"levelo://app?vid=6bf57b0a-809a-4cf7-b405-ef74a78507a3","ios":"levelo://app?vid=6bf57b0a-809a-4cf7-b405-ef74a78507a3"},"vehicle_type_id":"4","last_reported":1751540962,"current_range_meters":16400,"station_id":"ce4bhkp2rcd13ifvqgd0","pricing_plan_id":"cebpf4jnsgd1na2vs0mg"},{"bike_id":"b114c7d7-5812-4f16-aaa4-1d26988844ab","system_id":"levelo_inurba_marseille","lat":43.27169,"lon":5.40999,"is_reserved":false,"is_disabled":false,"rental_uris":{"android":"levelo://app?vid=b114c7d7-5812-4f16-aaa4-1d26988844ab","ios":"levelo://app?vid=b114c7d7-5812-4f16-aaa4-1d26988844ab"},"vehicle_type_id":"4","last_reported":1751540962,"current_range_meters":16400,"station_id":"ce4bhl12rcd13ifvqgf0","pricing_plan_id":"cebpf4jnsgd1na2vs0mg"},{"bike_id":"6d6dfafc-e82f-4f97-a51c-8e64851db9f1","system_id":"levelo_inurba_marseille","lat":43.27998,"lon":5.40007,"is_reserved":false,"is_disabled":false,"rental_uris":{"android":"levelo://app?vid=6d6dfafc-e82f-4f97-a51c-8e64851db9f1","ios":"levelo://app?vid=6d6dfafc-e82f-4f97-a51c-8e64851db9f1"},"vehicle_type_id":"4","last_reported":1751540962,"current_range_meters":16400,"station_id":"ce4bho92rcd13ifvqh4g","pricing_plan_id":"cebpf4jnsgd1na2vs0mg"},{"bike_id":"37b84a38-055a-4a6e-a56a-8ff3d0c1b2ec","system_id":"levelo_inurba_marseille","lat":43.2122,"lon":5.35116,"is_reserved":false,"is_disabled":false,"rental_uris":{"android":"levelo://app?vid=37b84a38-055a-4a6e-a56a-8ff3d0c1b2ec","ios":"levelo://app?vid=37b84a38-055a-4a6e-a56a-8ff3d0c1b2ec"},"vehicle_type_id":"4","last_reported":1751540962,"current_range_meters":16400,"station_id":"st_cvj6sg6p6f1abm77japg","pricing_plan_id":"cebpf4jnsgd1na2vs0mg"},{"bike_id":"a985f2f4-6a3b-46ba-a738-e84bc568026c","system_id":"levelo_inurba_marseille","lat":43.30516,"lon":5.36539,"is_reserved":false,"is_disabled":false,"rental_uris":{"android":"levelo://app?vid=a985f2f4-6a3b-46ba-a738-e84bc568026c","ios":"levelo://app?vid=a985f2f4-6a3b-46ba-a738-e84bc568026c"},"vehicle_type_id":"4","last_reported":1751540962,"current_range_meters":16800,"station_id":"","pricing_plan_id":"cebpf4jnsgd1na2vs0mg"},{"bike_id":"175513bb-dce2-48e2-83c8-1e9f1cb23cd0","system_id":"levelo_inurba_marseille","lat":43.286255,"lon":5.412651,"is_reserved":false,"is_disabled":false,"rental_uris":{"android":"levelo://app?vid=175513bb-dce2-48e2-83c8-1e9f1cb23cd0","ios":"levelo://app?vid=175513bb-dce2-48e2-83c8-1e9f1cb23cd0"},"vehicle_type_id":"4","last_reported":1751540962,"current_range_meters":16800,"station_id":"","pricing_plan_id":"cebpf4jnsgd1na2vs0mg"},{"bike_id":"d6a97fc8-7c5d-4b77-9d38-d22003db8fe5","system_id":"levelo_inurba_marseille","lat":43.34721,"lon":5.36602,"is_reserved":false,"is_disabled":false,"rental_uris":{"android":"levelo://app?vid=d6a97fc8-7c5d-4b77-9d38-d22003db8fe5","ios":"levelo://app?vid=d6a97fc8-7c5d-4b77-9d38-d22003db8fe5"},"vehicle_type_id":"4","last_reported":1751540962,"current_range_meters":16800,"station_id":"","pricing_plan_id":"cebpf4jnsgd1na2vs0mg"},{"bike_id":"b96d2c8e-d4ec-4ff5-9923-fa59e49de267","system_id":"levelo_inurba_marseille","lat":43.29888,"lon":5.37494,"is_reserved":false,"is_disabled":false,"rental_uris":{"android":"levelo://app?vid=b96d2c8e-d4ec-4ff5-9923-fa59e49de267","ios":"levelo://app?vid=b96d2c8e-d4ec-4ff5-9923-fa59e49de267"},"vehicle_type_id":"4","last_reported":1751540962,"current_range_meters":16800,"station_id":"ce4bgjh2rcd13ifvqbg0","pricing_plan_id":"cebpf4jnsgd1na2vs0mg"},{"bike_id":"2992004f-ac1e-4e80-9a3b-b6f6eb76f0db","system_id":"levelo_inurba_marseille","lat":43.29713,"lon":5.37707,"is_reserved":false,"is_disabled":false,"rental_uris":{"android":"levelo://app?vid=2992004f-ac1e-4e80-9a3b-b6f6eb76f0db","ios":"levelo://app?vid=2992004f-ac1e-4e80-9a3b-b6f6eb76f0db"},"vehicle_type_id":"4","last_reported":1751540962,"current_range_meters":16800,"station_id":"ce4bgkh2rcd13ifvqbl0","pricing_plan_id":"cebpf4jnsgd1na2vs0mg"},{"bike_id":"d616197d-d266-4f28-b53b-297ba4cf814d","system_id":"levelo_inurba_marseille","lat":43.31118,"lon":5.37769,"is_reserved":false,"is_disabled":false,"rental_uris":{"android":"levelo://app?vid=d616197d-d266-4f28-b53b-297ba4cf814d","ios":"levelo://app?vid=d616197d-d266-4f28-b53b-297ba4cf814d"},"vehicle_type_id":"4","last_reported":1751540962,"current_range_meters":16800,"station_id":"ce4bgt92rcd13ifvqcg0","pricing_plan_id":"cebpf4jnsgd1na2vs0mg"},{"bike_id":"0752249a-aed0-4e51-bf27-6d81f3b39741","system_id":"levelo_inurba_marseille","lat":43.30097,"lon":5.39079,"is_reserved":false,"is_disabled":false,"rental_uris":{"android":"levelo://app?vid=0752249a-aed0-4e51-bf27-6d81f3b39741","ios":"levelo://app?vid=0752249a-aed0-4e51-bf27-6d81f3b39741"},"vehicle_type_id":"4","last_reported":1751540962,"current_range_meters":16800,"station_id":"ce4bh192rcd13ifvqdb0","pricing_plan_id":"cebpf4jnsgd1na2vs0mg"},{"bike_id":"b4cb9b95-2797-4941-8135-fa8cdc1d3d3e","system_id":"levelo_inurba_marseille","lat":43.29191,"lon":5.39327,"is_reserved":false,"is_disabled":false,"rental_uris":{"android":"levelo://app?vid=b4cb9b95-2797-4941-8135-fa8cdc1d3d3e","ios":"levelo://app?vid=b4cb9b95-2797-4941-8135-fa8cdc1d3d3e"},"vehicle_type_id":"4","last_reported":1751540962,"current_range_meters":16800,"station_id":"ce4bh192rcd13ifvqdd0","pricing_plan_id":"cebpf4jnsgd1na2vs0mg"},{"bike_id":"e4b88d66-636c-4701-8420-339006a4cced","system_id":"levelo_inurba_marseille","lat":43.2952,"lon":5.39396,"is_reserved":false,"is_disabled":false,"rental_uris":{"android":"levelo://app?vid=e4b88d66-636c-4701-8420-339006a4cced","ios":"levelo://app?vid=e4b88d66-636c-4701-8420-339006a4cced"},"vehicle_type_id":"4","last_reported":1751540962,"current_range_meters":16800,"station_id":"ce4bh292rcd13ifvqdf0","pricing_plan_id":"cebpf4jnsgd1na2vs0mg"},{"bike_id":"7c67e7dd-7a7f-426b-9249-641f91643932","system_id":"levelo_inurba_marseille","lat":43.24169,"lon":5.36404,"is_reserved":false,"is_disabled":false,"rental_uris":{"android":"levelo://app?vid=7c67e7dd-7a7f-426b-9249-641f91643932","ios":"levelo://app?vid=7c67e7dd-7a7f-426b-9249-641f91643932"},"vehicle_type_id":"4","last_reported":1751540962,"current_range_meters":16800,"station_id":"cpo36qri1sfpv3e86is0","pricing_plan_id":"cebpf4jnsgd1na2vs0mg"},{"bike_id":"a6715104-7492-4ec6-a996-23050baf8551","system_id":"levelo_inurba_marseille","lat":43.22505,"lon":5.3478,"is_reserved":false,"is_disabled":false,"rental_uris":{"android":"levelo://app?vid=a6715104-7492-4ec6-a996-23050baf8551","ios":"levelo://app?vid=a6715104-7492-4ec6-a996-23050baf8551"},"vehicle_type_id":"4","last_reported":1751540962,"current_range_meters":16800,"station_id":"st_cvj5dfep6f1abm77gieg","pricing_plan_id":"cebpf4jnsgd1na2vs0mg"},{"bike_id":"4d4995e7-0bba-4ac2-a238-afd84a5e99b5","system_id":"levelo_inurba_marseille","lat":43.304848,"lon":5.398345,"is_reserved":false,"is_disabled":false,"rental_uris":{"android":"levelo://app?vid=4d4995e7-0bba-4ac2-a238-afd84a5e99b5","ios":"levelo://app?vid=4d4995e7-0bba-4ac2-a238-afd84a5e99b5"},"vehicle_type_id":"4","last_reported":1751540962,"current_range_meters":17200,"station_id":"","pricing_plan_id":"cebpf4jnsgd1na2vs0mg"},{"bike_id":"0c4b7fdb-b39e-49b3-a2b0-ae3d0f43e89d","system_id":"levelo_inurba_marseille","lat":43.329044,"lon":5.405585,"is_reserved":false,"is_disabled":false,"rental_uris":{"android":"levelo://app?vid=0c4b7fdb-b39e-49b3-a2b0-ae3d0f43e89d","ios":"levelo://app?vid=0c4b7fdb-b39e-49b3-a2b0-ae3d0f43e89d"},"vehicle_type_id":"4","last_reported":1751540962,"current_range_meters":17200,"station_id":"","pricing_plan_id":"cebpf4jnsgd1na2vs0mg"},{"bike_id":"e80458f6-d2a2-4f3e-9d1e-50b3a42d0b8e","system_id":"levelo_inurba_marseille","lat":43.28419,"lon":5.34978,"is_reserved":false,"is_disabled":false,"rental_uris":{"android":"levelo://app?vid=e80458f6-d2a2-4f3e-9d1e-50b3a42d0b8e","ios":"levelo://app?vid=e80458f6-d2a2-4f3e-9d1e-50b3a42d0b8e"},"vehicle_type_id":"4","last_reported":1751540962,"current_range_meters":17200,"station_id":"ce4bhbh2rcd13ifvqepg","pricing_plan_id":"cebpf4jnsgd1na2vs0mg"},{"bike_id":"2e48fca3-ffe9-4d95-86cb-e781dcb8a44e","system_id":"levelo_inurba_marseille","lat":43.30357,"lon":5.41873,"is_reserved":false,"is_disabled":false,"rental_uris":{"android":"levelo://app?vid=2e48fca3-ffe9-4d95-86cb-e781dcb8a44e","ios":"levelo://app?vid=2e48fca3-ffe9-4d95-86cb-e781dcb8a44e"},"vehicle_type_id":"4","last_reported":1751540962,"current_range_meters":17200,"station_id":"ce4bhop2rcd13ifvqh7g","pricing_plan_id":"cebpf4jnsgd1na2vs0mg"},{"bike_id":"b19cea31-4713-475e-adff-68764a256fc0","system_id":"levelo_inurba_marseille","lat":43.30533,"lon":5.367687,"is_reserved":false,"is_disabled":false,"rental_uris":{"android":"levelo://app?vid=b19cea31-4713-475e-adff-68764a256fc0","ios":"levelo://app?vid=b19cea31-4713-475e-adff-68764a256fc0"},"vehicle_type_id":"4","last_reported":1751540962,"current_range_meters":17600,"station_id":"ce4bgrp2rcd13ifvqc9g","pricing_plan_id":"cebpf4jnsgd1na2vs0mg"},{"bike_id":"603f229c-09b9-4145-9510-d250a8eff49b","system_id":"levelo_inurba_marseille","lat":43.28611,"lon":5.35099,"is_reserved":true,"is_disabled":false,"rental_uris":{"android":"levelo://app?vid=603f229c-09b9-4145-9510-d250a8eff49b","ios":"levelo://app?vid=603f229c-09b9-4145-9510-d250a8eff49b"},"vehicle_type_id":"4","last_reported":1751540962,"current_range_meters":17600,"station_id":"ce4bhch2rcd13ifvqeug","pricing_plan_id":"cebpf4jnsgd1na2vs0mg"},{"bike_id":"4e4381dc-6dd7-414a-ac25-ccfd28b481c5","system_id":"levelo_inurba_marseille","lat":43.26685,"lon":5.38274,"is_reserved":false,"is_disabled":false,"rental_uris":{"android":"levelo://app?vid=4e4381dc-6dd7-414a-ac25-ccfd28b481c5","ios":"levelo://app?vid=4e4381dc-6dd7-414a-ac25-ccfd28b481c5"},"vehicle_type_id":"4","last_reported":1751540962,"current_range_meters":17600,"station_id":"ce4bhg92rcd13ifvqf90","pricing_plan_id":"cebpf4jnsgd1na2vs0mg"},{"bike_id":"57e84e33-8ef2-49b0-9c52-2dd89adcc82a","system_id":"levelo_inurba_marseille","lat":43.23152,"lon":5.43711,"is_reserved":false,"is_disabled":false,"rental_uris":{"android":"levelo://app?vid=57e84e33-8ef2-49b0-9c52-2dd89adcc82a","ios":"levelo://app?vid=57e84e33-8ef2-49b0-9c52-2dd89adcc82a"},"vehicle_type_id":"4","last_reported":1751540962,"current_range_meters":17600,"station_id":"ce4bhmp2rcd13ifvqgog","pricing_plan_id":"cebpf4jnsgd1na2vs0mg"},{"bike_id":"5e197122-e8ec-4f01-b370-6bbfc10c6950","system_id":"levelo_inurba_marseille","lat":43.21192,"lon":5.35066,"is_reserved":false,"is_disabled":false,"rental_uris":{"android":"levelo://app?vid=5e197122-e8ec-4f01-b370-6bbfc10c6950","ios":"levelo://app?vid=5e197122-e8ec-4f01-b370-6bbfc10c6950"},"vehicle_type_id":"4","last_reported":1751540962,"current_range_meters":17600,"station_id":"st_cvj6sg6p6f1abm77japg","pricing_plan_id":"cebpf4jnsgd1na2vs0mg"},{"bike_id":"7e21e8f2-09c8-4cc5-8113-278ebd23888d","system_id":"levelo_inurba_marseille","lat":43.211978,"lon":5.350618,"is_reserved":false,"is_disabled":false,"rental_uris":{"android":"levelo://app?vid=7e21e8f2-09c8-4cc5-8113-278ebd23888d","ios":"levelo://app?vid=7e21e8f2-09c8-4cc5-8113-278ebd23888d"},"vehicle_type_id":"4","last_reported":1751540962,"current_range_meters":17600,"station_id":"st_cvj6sg6p6f1abm77japg","pricing_plan_id":"cebpf4jnsgd1na2vs0mg"},{"bike_id":"b2ce53ca-166b-417e-9d70-9bee393f75bb","system_id":"levelo_inurba_marseille","lat":43.21203,"lon":5.35095,"is_reserved":false,"is_disabled":false,"rental_uris":{"android":"levelo://app?vid=b2ce53ca-166b-417e-9d70-9bee393f75bb","ios":"levelo://app?vid=b2ce53ca-166b-417e-9d70-9bee393f75bb"},"vehicle_type_id":"4","last_reported":1751540962,"current_range_meters":17600,"station_id":"st_cvj6sg6p6f1abm77japg","pricing_plan_id":"cebpf4jnsgd1na2vs0mg"},{"bike_id":"0c5e46df-9adb-4aa5-842c-17a1961c0106","system_id":"levelo_inurba_marseille","lat":43.27967,"lon":5.40712,"is_reserved":false,"is_disabled":false,"rental_uris":{"android":"levelo://app?vid=0c5e46df-9adb-4aa5-842c-17a1961c0106","ios":"levelo://app?vid=0c5e46df-9adb-4aa5-842c-17a1961c0106"},"vehicle_type_id":"4","last_reported":1751540962,"current_range_meters":18000,"station_id":"","pricing_plan_id":"cebpf4jnsgd1na2vs0mg"},{"bike_id":"9de5e5eb-7aca-47d5-a8fb-d44c5761fb80","system_id":"levelo_inurba_marseille","lat":43.29844,"lon":5.36302,"is_reserved":false,"is_disabled":false,"rental_uris":{"android":"levelo://app?vid=9de5e5eb-7aca-47d5-a8fb-d44c5761fb80","ios":"levelo://app?vid=9de5e5eb-7aca-47d5-a8fb-d44c5761fb80"},"vehicle_type_id":"4","last_reported":1751540962,"current_range_meters":18000,"station_id":"ce4bgpp2rcd13ifvqc3g","pricing_plan_id":"cebpf4jnsgd1na2vs0mg"},{"bike_id":"0bcf60c6-4042-4a3f-8bc3-b4abddcf5799","system_id":"levelo_inurba_marseille","lat":43.30557,"lon":5.36715,"is_reserved":false,"is_disabled":false,"rental_uris":{"android":"levelo://app?vid=0bcf60c6-4042-4a3f-8bc3-b4abddcf5799","ios":"levelo://app?vid=0bcf60c6-4042-4a3f-8bc3-b4abddcf5799"},"vehicle_type_id":"4","last_reported":1751540962,"current_range_meters":18000,"station_id":"ce4bgrp2rcd13ifvqc9g","pricing_plan_id":"cebpf4jnsgd1na2vs0mg"},{"bike_id":"44d35dcc-0703-4e38-8a5a-9a70bd719d2f","system_id":"levelo_inurba_marseille","lat":43.311057,"lon":5.377845,"is_reserved":false,"is_disabled":false,"rental_uris":{"android":"levelo://app?vid=44d35dcc-0703-4e38-8a5a-9a70bd719d2f","ios":"levelo://app?vid=44d35dcc-0703-4e38-8a5a-9a70bd719d2f"},"vehicle_type_id":"4","last_reported":1751540962,"current_range_meters":18000,"station_id":"ce4bgt92rcd13ifvqcg0","pricing_plan_id":"cebpf4jnsgd1na2vs0mg"},{"bike_id":"9e407ba8-2841-4932-8f97-01cd9325a67e","system_id":"levelo_inurba_marseille","lat":43.25741,"lon":5.41111,"is_reserved":false,"is_disabled":false,"rental_uris":{"android":"levelo://app?vid=9e407ba8-2841-4932-8f97-01cd9325a67e","ios":"levelo://app?vid=9e407ba8-2841-4932-8f97-01cd9325a67e"},"vehicle_type_id":"4","last_reported":1751540962,"current_range_meters":18000,"station_id":"ce4bhkp2rcd13ifvqgd0","pricing_plan_id":"cebpf4jnsgd1na2vs0mg"},{"bike_id":"072c1623-0cde-4bde-882e-9ebd9afe837d","system_id":"levelo_inurba_marseille","lat":43.231491,"lon":5.437136,"is_reserved":false,"is_disabled":false,"rental_uris":{"android":"levelo://app?vid=072c1623-0cde-4bde-882e-9ebd9afe837d","ios":"levelo://app?vid=072c1623-0cde-4bde-882e-9ebd9afe837d"},"vehicle_type_id":"4","last_reported":1751540962,"current_range_meters":18000,"station_id":"ce4bhmp2rcd13ifvqgog","pricing_plan_id":"cebpf4jnsgd1na2vs0mg"},{"bike_id":"fc0c7b28-a6d5-4a7a-818f-d673619ef9f3","system_id":"levelo_inurba_marseille","lat":43.33024,"lon":5.39037,"is_reserved":false,"is_disabled":false,"rental_uris":{"android":"levelo://app?vid=fc0c7b28-a6d5-4a7a-818f-d673619ef9f3","ios":"levelo://app?vid=fc0c7b28-a6d5-4a7a-818f-d673619ef9f3"},"vehicle_type_id":"4","last_reported":1751540962,"current_range_meters":18000,"station_id":"ce4bhr92rcd13ifvqhrg","pricing_plan_id":"cebpf4jnsgd1na2vs0mg"},{"bike_id":"6030ce7f-eb63-456b-91d4-965016f3c2f0","system_id":"levelo_inurba_marseille","lat":43.23193,"lon":5.35553,"is_reserved":false,"is_disabled":false,"rental_uris":{"android":"levelo://app?vid=6030ce7f-eb63-456b-91d4-965016f3c2f0","ios":"levelo://app?vid=6030ce7f-eb63-456b-91d4-965016f3c2f0"},"vehicle_type_id":"4","last_reported":1751540962,"current_range_meters":18000,"station_id":"ce4bhu92rcd13ifvqi70","pricing_plan_id":"cebpf4jnsgd1na2vs0mg"},{"bike_id":"cc04118e-9312-4bf8-9106-d64e829afbaa","system_id":"levelo_inurba_marseille","lat":43.21197,"lon":5.35075,"is_reserved":false,"is_disabled":false,"rental_uris":{"android":"levelo://app?vid=cc04118e-9312-4bf8-9106-d64e829afbaa","ios":"levelo://app?vid=cc04118e-9312-4bf8-9106-d64e829afbaa"},"vehicle_type_id":"4","last_reported":1751540962,"current_range_meters":18000,"station_id":"st_cvj6sg6p6f1abm77japg","pricing_plan_id":"cebpf4jnsgd1na2vs0mg"},{"bike_id":"1c8ab180-05fd-405f-9922-b2b2c2d5142f","system_id":"levelo_inurba_marseille","lat":43.33816,"lon":5.38134,"is_reserved":false,"is_disabled":false,"rental_uris":{"android":"levelo://app?vid=1c8ab180-05fd-405f-9922-b2b2c2d5142f","ios":"levelo://app?vid=1c8ab180-05fd-405f-9922-b2b2c2d5142f"},"vehicle_type_id":"4","last_reported":1751540962,"current_range_meters":18800,"station_id":"","pricing_plan_id":"cebpf4jnsgd1na2vs0mg"},{"bike_id":"90ccc6e8-7cf3-4f38-b381-08ebc63637bc","system_id":"levelo_inurba_marseille","lat":43.225469,"lon":5.348805,"is_reserved":false,"is_disabled":false,"rental_uris":{"android":"levelo://app?vid=90ccc6e8-7cf3-4f38-b381-08ebc63637bc","ios":"levelo://app?vid=90ccc6e8-7cf3-4f38-b381-08ebc63637bc"},"vehicle_type_id":"4","last_reported":1751540962,"current_range_meters":18800,"station_id":"","pricing_plan_id":"cebpf4jnsgd1na2vs0mg"},{"bike_id":"ba931a71-b6d8-4dbb-bb12-a615eaaef27d","system_id":"levelo_inurba_marseille","lat":43.297347,"lon":5.381359,"is_reserved":false,"is_disabled":false,"rental_uris":{"android":"levelo://app?vid=ba931a71-b6d8-4dbb-bb12-a615eaaef27d","ios":"levelo://app?vid=ba931a71-b6d8-4dbb-bb12-a615eaaef27d"},"vehicle_type_id":"4","last_reported":1751540962,"current_range_meters":18800,"station_id":"ce4bgip2rcd13ifvqbb0","pricing_plan_id":"cebpf4jnsgd1na2vs0mg"},{"bike_id":"587e85fa-90f1-4359-a39f-d6529b993743","system_id":"levelo_inurba_marseille","lat":43.29843,"lon":5.36284,"is_reserved":false,"is_disabled":false,"rental_uris":{"android":"levelo://app?vid=587e85fa-90f1-4359-a39f-d6529b993743","ios":"levelo://app?vid=587e85fa-90f1-4359-a39f-d6529b993743"},"vehicle_type_id":"4","last_reported":1751540962,"current_range_meters":18800,"station_id":"ce4bgpp2rcd13ifvqc3g","pricing_plan_id":"cebpf4jnsgd1na2vs0mg"},{"bike_id":"15e873c2-0c46-4d90-ad70-84190b8eec93","system_id":"levelo_inurba_marseille","lat":43.30551,"lon":5.36529,"is_reserved":false,"is_disabled":false,"rental_uris":{"android":"levelo://app?vid=15e873c2-0c46-4d90-ad70-84190b8eec93","ios":"levelo://app?vid=15e873c2-0c46-4d90-ad70-84190b8eec93"},"vehicle_type_id":"4","last_reported":1751540962,"current_range_meters":18800,"station_id":"ce4bgs12rcd13ifvqcag","pricing_plan_id":"cebpf4jnsgd1na2vs0mg"},{"bike_id":"62216843-d9c4-47b8-bcd2-70812d8e2b95","system_id":"levelo_inurba_marseille","lat":43.30456,"lon":5.3791,"is_reserved":false,"is_disabled":false,"rental_uris":{"android":"levelo://app?vid=62216843-d9c4-47b8-bcd2-70812d8e2b95","ios":"levelo://app?vid=62216843-d9c4-47b8-bcd2-70812d8e2b95"},"vehicle_type_id":"4","last_reported":1751540962,"current_range_meters":18800,"station_id":"ce4bgup2rcd13ifvqcn0","pricing_plan_id":"cebpf4jnsgd1na2vs0mg"},{"bike_id":"7349c630-57a5-4776-be1d-858665f8f5ce","system_id":"levelo_inurba_marseille","lat":43.31169,"lon":5.387,"is_reserved":false,"is_disabled":false,"rental_uris":{"android":"levelo://app?vid=7349c630-57a5-4776-be1d-858665f8f5ce","ios":"levelo://app?vid=7349c630-57a5-4776-be1d-858665f8f5ce"},"vehicle_type_id":"4","last_reported":1751540962,"current_range_meters":18800,"station_id":"ce4bgv12rcd13ifvqcp0","pricing_plan_id":"cebpf4jnsgd1na2vs0mg"},{"bike_id":"addb59e3-b3cd-4c73-b2b4-ada6ed0afe39","system_id":"levelo_inurba_marseille","lat":43.3065,"lon":5.40086,"is_reserved":false,"is_disabled":false,"rental_uris":{"android":"levelo://app?vid=addb59e3-b3cd-4c73-b2b4-ada6ed0afe39","ios":"levelo://app?vid=addb59e3-b3cd-4c73-b2b4-ada6ed0afe39"},"vehicle_type_id":"4","last_reported":1751540962,"current_range_meters":18800,"station_id":"ce4bh112rcd13ifvqda0","pricing_plan_id":"cebpf4jnsgd1na2vs0mg"},{"bike_id":"82d79c5e-9c0e-45f4-ac84-238beb27acb3","system_id":"levelo_inurba_marseille","lat":43.28681,"lon":5.38671,"is_reserved":false,"is_disabled":false,"rental_uris":{"android":"levelo://app?vid=82d79c5e-9c0e-45f4-ac84-238beb27acb3","ios":"levelo://app?vid=82d79c5e-9c0e-45f4-ac84-238beb27acb3"},"vehicle_type_id":"4","last_reported":1751540962,"current_range_meters":18800,"station_id":"ce4bh492rcd13ifvqdug","pricing_plan_id":"cebpf4jnsgd1na2vs0mg"},{"bike_id":"55aa929b-2db6-4ab6-8121-df233a47781a","system_id":"levelo_inurba_marseille","lat":43.26214,"lon":5.3743,"is_reserved":false,"is_disabled":false,"rental_uris":{"android":"levelo://app?vid=55aa929b-2db6-4ab6-8121-df233a47781a","ios":"levelo://app?vid=55aa929b-2db6-4ab6-8121-df233a47781a"},"vehicle_type_id":"4","last_reported":1751540962,"current_range_meters":18800,"station_id":"ce4bhgp2rcd13ifvqfc0","pricing_plan_id":"cebpf4jnsgd1na2vs0mg"},{"bike_id":"df2ad5da-c9c7-4100-b825-8bb9694e84cb","system_id":"levelo_inurba_marseille","lat":43.26215,"lon":5.37431,"is_reserved":false,"is_disabled":false,"rental_uris":{"android":"levelo://app?vid=df2ad5da-c9c7-4100-b825-8bb9694e84cb","ios":"levelo://app?vid=df2ad5da-c9c7-4100-b825-8bb9694e84cb"},"vehicle_type_id":"4","last_reported":1751540962,"current_range_meters":18800,"station_id":"ce4bhgp2rcd13ifvqfc0","pricing_plan_id":"cebpf4jnsgd1na2vs0mg"},{"bike_id":"046a7880-e7ac-4e6a-a802-d0f574715c6b","system_id":"levelo_inurba_marseille","lat":43.33014,"lon":5.39059,"is_reserved":false,"is_disabled":false,"rental_uris":{"android":"levelo://app?vid=046a7880-e7ac-4e6a-a802-d0f574715c6b","ios":"levelo://app?vid=046a7880-e7ac-4e6a-a802-d0f574715c6b"},"vehicle_type_id":"4","last_reported":1751540962,"current_range_meters":18800,"station_id":"ce4bhr92rcd13ifvqhrg","pricing_plan_id":"cebpf4jnsgd1na2vs0mg"},{"bike_id":"e9d26c79-d78f-4002-bc79-c4aa63e66364","system_id":"levelo_inurba_marseille","lat":43.31171,"lon":5.38634,"is_reserved":false,"is_disabled":false,"rental_uris":{"android":"levelo://app?vid=e9d26c79-d78f-4002-bc79-c4aa63e66364","ios":"levelo://app?vid=e9d26c79-d78f-4002-bc79-c4aa63e66364"},"vehicle_type_id":"4","last_reported":1751540962,"current_range_meters":19200,"station_id":"","pricing_plan_id":"cebpf4jnsgd1na2vs0mg"},{"bike_id":"25df2163-6abd-4a78-b0fe-fe4cca498eda","system_id":"levelo_inurba_marseille","lat":43.30947,"lon":5.39031,"is_reserved":false,"is_disabled":false,"rental_uris":{"android":"levelo://app?vid=25df2163-6abd-4a78-b0fe-fe4cca498eda","ios":"levelo://app?vid=25df2163-6abd-4a78-b0fe-fe4cca498eda"},"vehicle_type_id":"4","last_reported":1751540962,"current_range_meters":19200,"station_id":"ce4bgup2rcd13ifvqco0","pricing_plan_id":"cebpf4jnsgd1na2vs0mg"},{"bike_id":"ec19b26d-8eae-4bd6-97bb-8c8b96809804","system_id":"levelo_inurba_marseille","lat":43.30976,"lon":5.39057,"is_reserved":false,"is_disabled":false,"rental_uris":{"android":"levelo://app?vid=ec19b26d-8eae-4bd6-97bb-8c8b96809804","ios":"levelo://app?vid=ec19b26d-8eae-4bd6-97bb-8c8b96809804"},"vehicle_type_id":"4","last_reported":1751540962,"current_range_meters":19200,"station_id":"ce4bgup2rcd13ifvqco0","pricing_plan_id":"cebpf4jnsgd1na2vs0mg"},{"bike_id":"5ecbe7d9-b835-47e3-87d6-0fd67017673c","system_id":"levelo_inurba_marseille","lat":43.32106,"lon":5.36881,"is_reserved":false,"is_disabled":false,"rental_uris":{"android":"levelo://app?vid=5ecbe7d9-b835-47e3-87d6-0fd67017673c","ios":"levelo://app?vid=5ecbe7d9-b835-47e3-87d6-0fd67017673c"},"vehicle_type_id":"4","last_reported":1751540962,"current_range_meters":19200,"station_id":"ce4bhrh2rcd13ifvqhug","pricing_plan_id":"cebpf4jnsgd1na2vs0mg"},{"bike_id":"32c0fc37-6823-41d0-9497-8d1eea24742c","system_id":"levelo_inurba_marseille","lat":43.241703,"lon":5.363991,"is_reserved":false,"is_disabled":false,"rental_uris":{"android":"levelo://app?vid=32c0fc37-6823-41d0-9497-8d1eea24742c","ios":"levelo://app?vid=32c0fc37-6823-41d0-9497-8d1eea24742c"},"vehicle_type_id":"4","last_reported":1751540962,"current_range_meters":19200,"station_id":"cpo36qri1sfpv3e86is0","pricing_plan_id":"cebpf4jnsgd1na2vs0mg"},{"bike_id":"5f1e5526-9ff8-4075-8194-48a897f058b4","system_id":"levelo_inurba_marseille","lat":43.2119,"lon":5.35066,"is_reserved":false,"is_disabled":false,"rental_uris":{"android":"levelo://app?vid=5f1e5526-9ff8-4075-8194-48a897f058b4","ios":"levelo://app?vid=5f1e5526-9ff8-4075-8194-48a897f058b4"},"vehicle_type_id":"4","last_reported":1751540962,"current_range_meters":19200,"station_id":"st_cvj6sg6p6f1abm77japg","pricing_plan_id":"cebpf4jnsgd1na2vs0mg"},{"bike_id":"7d1b1f09-a04b-49fe-8d0b-db9e7e6a0dab","system_id":"levelo_inurba_marseille","lat":43.30534,"lon":5.36721,"is_reserved":false,"is_disabled":false,"rental_uris":{"android":"levelo://app?vid=7d1b1f09-a04b-49fe-8d0b-db9e7e6a0dab","ios":"levelo://app?vid=7d1b1f09-a04b-49fe-8d0b-db9e7e6a0dab"},"vehicle_type_id":"4","last_reported":1751540962,"current_range_meters":19600,"station_id":"ce4bgrp2rcd13ifvqc9g","pricing_plan_id":"cebpf4jnsgd1na2vs0mg"},{"bike_id":"5ca573f7-adce-4e65-a0a5-8aecba433aef","system_id":"levelo_inurba_marseille","lat":43.30961,"lon":5.39054,"is_reserved":false,"is_disabled":false,"rental_uris":{"android":"levelo://app?vid=5ca573f7-adce-4e65-a0a5-8aecba433aef","ios":"levelo://app?vid=5ca573f7-adce-4e65-a0a5-8aecba433aef"},"vehicle_type_id":"4","last_reported":1751540962,"current_range_meters":19600,"station_id":"ce4bgup2rcd13ifvqco0","pricing_plan_id":"cebpf4jnsgd1na2vs0mg"},{"bike_id":"3cb3d71c-6395-4b7f-aa9b-1a2f48cc64ef","system_id":"levelo_inurba_marseille","lat":43.29159,"lon":5.37158,"is_reserved":false,"is_disabled":false,"rental_uris":{"android":"levelo://app?vid=3cb3d71c-6395-4b7f-aa9b-1a2f48cc64ef","ios":"levelo://app?vid=3cb3d71c-6395-4b7f-aa9b-1a2f48cc64ef"},"vehicle_type_id":"4","last_reported":1751540962,"current_range_meters":19600,"station_id":"ce4bha92rcd13ifvqeh0","pricing_plan_id":"cebpf4jnsgd1na2vs0mg"},{"bike_id":"9ced1d76-9d01-429f-a9f0-5b9836532f21","system_id":"levelo_inurba_marseille","lat":43.272,"lon":5.39208,"is_reserved":false,"is_disabled":false,"rental_uris":{"android":"levelo://app?vid=9ced1d76-9d01-429f-a9f0-5b9836532f21","ios":"levelo://app?vid=9ced1d76-9d01-429f-a9f0-5b9836532f21"},"vehicle_type_id":"4","last_reported":1751540962,"current_range_meters":19600,"station_id":"ce4bhhp2rcd13ifvqfm0","pricing_plan_id":"cebpf4jnsgd1na2vs0mg"},{"bike_id":"08e81811-c9ab-430d-a98b-a4424b37dd49","system_id":"levelo_inurba_marseille","lat":43.295548,"lon":5.422908,"is_reserved":false,"is_disabled":false,"rental_uris":{"android":"levelo://app?vid=08e81811-c9ab-430d-a98b-a4424b37dd49","ios":"levelo://app?vid=08e81811-c9ab-430d-a98b-a4424b37dd49"},"vehicle_type_id":"4","last_reported":1751540962,"current_range_meters":19600,"station_id":"ce4bhph2rcd13ifvqhdg","pricing_plan_id":"cebpf4jnsgd1na2vs0mg"},{"bike_id":"d3bdb41c-8b0a-446d-98af-e6de2988fc13","system_id":"levelo_inurba_marseille","lat":43.22507,"lon":5.34783,"is_reserved":false,"is_disabled":false,"rental_uris":{"android":"levelo://app?vid=d3bdb41c-8b0a-446d-98af-e6de2988fc13","ios":"levelo://app?vid=d3bdb41c-8b0a-446d-98af-e6de2988fc13"},"vehicle_type_id":"4","last_reported":1751540962,"current_range_meters":19600,"station_id":"st_cvj5dfep6f1abm77gieg","pricing_plan_id":"cebpf4jnsgd1na2vs0mg"},{"bike_id":"3eabe1e2-f9f5-41cb-a4ed-73ca7f909c5c","system_id":"levelo_inurba_marseille","lat":43.21196,"lon":5.35053,"is_reserved":false,"is_disabled":false,"rental_uris":{"android":"levelo://app?vid=3eabe1e2-f9f5-41cb-a4ed-73ca7f909c5c","ios":"levelo://app?vid=3eabe1e2-f9f5-41cb-a4ed-73ca7f909c5c"},"vehicle_type_id":"4","last_reported":1751540962,"current_range_meters":19600,"station_id":"st_cvj6sg6p6f1abm77japg","pricing_plan_id":"cebpf4jnsgd1na2vs0mg"},{"bike_id":"ba926bfc-9632-4680-b0ed-32a040d6fb83","system_id":"levelo_inurba_marseille","lat":43.21195,"lon":5.35082,"is_reserved":false,"is_disabled":false,"rental_uris":{"android":"levelo://app?vid=ba926bfc-9632-4680-b0ed-32a040d6fb83","ios":"levelo://app?vid=ba926bfc-9632-4680-b0ed-32a040d6fb83"},"vehicle_type_id":"4","last_reported":1751540962,"current_range_meters":19600,"station_id":"st_cvj6sg6p6f1abm77japg","pricing_plan_id":"cebpf4jnsgd1na2vs0mg"},{"bike_id":"b13877a6-4825-4d82-b46b-67fa8ad66c5d","system_id":"levelo_inurba_marseille","lat":43.211926,"lon":5.350674,"is_reserved":false,"is_disabled":false,"rental_uris":{"android":"levelo://app?vid=b13877a6-4825-4d82-b46b-67fa8ad66c5d","ios":"levelo://app?vid=b13877a6-4825-4d82-b46b-67fa8ad66c5d"},"vehicle_type_id":"4","last_reported":1751540962,"current_range_meters":19600,"station_id":"st_cvj6sg6p6f1abm77japg","pricing_plan_id":"cebpf4jnsgd1na2vs0mg"},{"bike_id":"7712491c-e18b-4b09-bb79-30880b357c07","system_id":"levelo_inurba_marseille","lat":43.21197,"lon":5.35113,"is_reserved":false,"is_disabled":false,"rental_uris":{"android":"levelo://app?vid=7712491c-e18b-4b09-bb79-30880b357c07","ios":"levelo://app?vid=7712491c-e18b-4b09-bb79-30880b357c07"},"vehicle_type_id":"4","last_reported":1751540962,"current_range_meters":19600,"station_id":"st_cvj6sg6p6f1abm77japg","pricing_plan_id":"cebpf4jnsgd1na2vs0mg"},{"bike_id":"63acad33-6ce0-4879-bb8b-7b4910bd10f3","system_id":"levelo_inurba_marseille","lat":43.24749,"lon":5.41161,"is_reserved":false,"is_disabled":false,"rental_uris":{"android":"levelo://app?vid=63acad33-6ce0-4879-bb8b-7b4910bd10f3","ios":"levelo://app?vid=63acad33-6ce0-4879-bb8b-7b4910bd10f3"},"vehicle_type_id":"4","last_reported":1751540962,"current_range_meters":20000,"station_id":"","pricing_plan_id":"cebpf4jnsgd1na2vs0mg"},{"bike_id":"d3b53325-5026-4aae-8b86-f89c2b36d42f","system_id":"levelo_inurba_marseille","lat":43.30133,"lon":5.38792,"is_reserved":false,"is_disabled":false,"rental_uris":{"android":"levelo://app?vid=d3b53325-5026-4aae-8b86-f89c2b36d42f","ios":"levelo://app?vid=d3b53325-5026-4aae-8b86-f89c2b36d42f"},"vehicle_type_id":"4","last_reported":1751540962,"current_range_meters":20000,"station_id":"ce4bghh2rcd13ifvqb60","pricing_plan_id":"cebpf4jnsgd1na2vs0mg"},{"bike_id":"a0a51b78-6dd1-4ea7-9cfb-271b727826da","system_id":"levelo_inurba_marseille","lat":43.29532,"lon":5.38548,"is_reserved":false,"is_disabled":false,"rental_uris":{"android":"levelo://app?vid=a0a51b78-6dd1-4ea7-9cfb-271b727826da","ios":"levelo://app?vid=a0a51b78-6dd1-4ea7-9cfb-271b727826da"},"vehicle_type_id":"4","last_reported":1751540962,"current_range_meters":20000,"station_id":"ce4bgih2rcd13ifvqba0","pricing_plan_id":"cebpf4jnsgd1na2vs0mg"},{"bike_id":"04661a8b-d2f4-4ca3-a376-86c6b67cb199","system_id":"levelo_inurba_marseille","lat":43.30876,"lon":5.37189,"is_reserved":false,"is_disabled":false,"rental_uris":{"android":"levelo://app?vid=04661a8b-d2f4-4ca3-a376-86c6b67cb199","ios":"levelo://app?vid=04661a8b-d2f4-4ca3-a376-86c6b67cb199"},"vehicle_type_id":"4","last_reported":1751540962,"current_range_meters":20000,"station_id":"ce4bguh2rcd13ifvqckg","pricing_plan_id":"cebpf4jnsgd1na2vs0mg"},{"bike_id":"21104c7e-80d8-4ce4-96fe-2e70198f3af4","system_id":"levelo_inurba_marseille","lat":43.274204,"lon":5.394089,"is_reserved":false,"is_disabled":false,"rental_uris":{"android":"levelo://app?vid=21104c7e-80d8-4ce4-96fe-2e70198f3af4","ios":"levelo://app?vid=21104c7e-80d8-4ce4-96fe-2e70198f3af4"},"vehicle_type_id":"4","last_reported":1751540962,"current_range_meters":20000,"station_id":"ce4bhdp2rcd13ifvqf20","pricing_plan_id":"cebpf4jnsgd1na2vs0mg"},{"bike_id":"39fa5f31-4afa-4271-a36e-400e3970d6f0","system_id":"levelo_inurba_marseille","lat":43.30376,"lon":5.37602,"is_reserved":false,"is_disabled":false,"rental_uris":{"android":"levelo://app?vid=39fa5f31-4afa-4271-a36e-400e3970d6f0","ios":"levelo://app?vid=39fa5f31-4afa-4271-a36e-400e3970d6f0"},"vehicle_type_id":"4","last_reported":1751540962,"current_range_meters":20400,"station_id":"","pricing_plan_id":"cebpf4jnsgd1na2vs0mg"},{"bike_id":"1ad18452-ee95-46e0-b346-0c37d77a51ca","system_id":"levelo_inurba_marseille","lat":43.245711,"lon":5.38049,"is_reserved":false,"is_disabled":false,"rental_uris":{"android":"levelo://app?vid=1ad18452-ee95-46e0-b346-0c37d77a51ca","ios":"levelo://app?vid=1ad18452-ee95-46e0-b346-0c37d77a51ca"},"vehicle_type_id":"4","last_reported":1751540962,"current_range_meters":20400,"station_id":"ce4bhhh2rcd13ifvqfk0","pricing_plan_id":"cebpf4jnsgd1na2vs0mg"},{"bike_id":"f915e77b-9553-49d5-8659-7bbddd61e86c","system_id":"levelo_inurba_marseille","lat":43.34147,"lon":5.40943,"is_reserved":false,"is_disabled":false,"rental_uris":{"android":"levelo://app?vid=f915e77b-9553-49d5-8659-7bbddd61e86c","ios":"levelo://app?vid=f915e77b-9553-49d5-8659-7bbddd61e86c"},"vehicle_type_id":"4","last_reported":1751540962,"current_range_meters":20400,"station_id":"ce4bhqh2rcd13ifvqhlg","pricing_plan_id":"cebpf4jnsgd1na2vs0mg"},{"bike_id":"b3d7a6ac-4ad8-404e-91ae-53d96dbbd9fb","system_id":"levelo_inurba_marseille","lat":43.211967,"lon":5.350634,"is_reserved":false,"is_disabled":false,"rental_uris":{"android":"levelo://app?vid=b3d7a6ac-4ad8-404e-91ae-53d96dbbd9fb","ios":"levelo://app?vid=b3d7a6ac-4ad8-404e-91ae-53d96dbbd9fb"},"vehicle_type_id":"4","last_reported":1751540962,"current_range_meters":20400,"station_id":"st_cvj6sg6p6f1abm77japg","pricing_plan_id":"cebpf4jnsgd1na2vs0mg"},{"bike_id":"4b8da722-ee9e-48a4-a5e5-3a8a10364708","system_id":"levelo_inurba_marseille","lat":43.312324,"lon":5.378227,"is_reserved":false,"is_disabled":false,"rental_uris":{"android":"levelo://app?vid=4b8da722-ee9e-48a4-a5e5-3a8a10364708","ios":"levelo://app?vid=4b8da722-ee9e-48a4-a5e5-3a8a10364708"},"vehicle_type_id":"4","last_reported":1751540962,"current_range_meters":20800,"station_id":"","pricing_plan_id":"cebpf4jnsgd1na2vs0mg"},{"bike_id":"dfb5ec38-91a0-45c8-b79d-6efed116fb50","system_id":"levelo_inurba_marseille","lat":43.29967,"lon":5.38499,"is_reserved":false,"is_disabled":false,"rental_uris":{"android":"levelo://app?vid=dfb5ec38-91a0-45c8-b79d-6efed116fb50","ios":"levelo://app?vid=dfb5ec38-91a0-45c8-b79d-6efed116fb50"},"vehicle_type_id":"4","last_reported":1751540962,"current_range_meters":20800,"station_id":"ce4bgj92rcd13ifvqbd0","pricing_plan_id":"cebpf4jnsgd1na2vs0mg"},{"bike_id":"f414ee38-9d96-49b8-af9c-7384f1c7a2d5","system_id":"levelo_inurba_marseille","lat":43.31355,"lon":5.38493,"is_reserved":false,"is_disabled":false,"rental_uris":{"android":"levelo://app?vid=f414ee38-9d96-49b8-af9c-7384f1c7a2d5","ios":"levelo://app?vid=f414ee38-9d96-49b8-af9c-7384f1c7a2d5"},"vehicle_type_id":"4","last_reported":1751540962,"current_range_meters":20800,"station_id":"ce4bgt92rcd13ifvqcf0","pricing_plan_id":"cebpf4jnsgd1na2vs0mg"},{"bike_id":"d820cb80-aded-49c4-b760-b7e81476cd52","system_id":"levelo_inurba_marseille","lat":43.28416,"lon":5.34974,"is_reserved":false,"is_disabled":false,"rental_uris":{"android":"levelo://app?vid=d820cb80-aded-49c4-b760-b7e81476cd52","ios":"levelo://app?vid=d820cb80-aded-49c4-b760-b7e81476cd52"},"vehicle_type_id":"4","last_reported":1751540962,"current_range_meters":20800,"station_id":"ce4bhbh2rcd13ifvqepg","pricing_plan_id":"cebpf4jnsgd1na2vs0mg"},{"bike_id":"833bb9ff-7b15-4a8e-91f3-ff216ef28553","system_id":"levelo_inurba_marseille","lat":43.31707,"lon":5.37512,"is_reserved":false,"is_disabled":false,"rental_uris":{"android":"levelo://app?vid=833bb9ff-7b15-4a8e-91f3-ff216ef28553","ios":"levelo://app?vid=833bb9ff-7b15-4a8e-91f3-ff216ef28553"},"vehicle_type_id":"4","last_reported":1751540962,"current_range_meters":21600,"station_id":"","pricing_plan_id":"cebpf4jnsgd1na2vs0mg"},{"bike_id":"8f35577a-eb1f-42be-9fa9-a6a0b01a5264","system_id":"levelo_inurba_marseille","lat":43.30348,"lon":5.37884,"is_reserved":false,"is_disabled":false,"rental_uris":{"android":"levelo://app?vid=8f35577a-eb1f-42be-9fa9-a6a0b01a5264","ios":"levelo://app?vid=8f35577a-eb1f-42be-9fa9-a6a0b01a5264"},"vehicle_type_id":"4","last_reported":1751540962,"current_range_meters":21600,"station_id":"","pricing_plan_id":"cebpf4jnsgd1na2vs0mg"},{"bike_id":"8734bc42-361e-4c72-9212-27e99f10c61f","system_id":"levelo_inurba_marseille","lat":43.27368,"lon":5.42772,"is_reserved":false,"is_disabled":false,"rental_uris":{"android":"levelo://app?vid=8734bc42-361e-4c72-9212-27e99f10c61f","ios":"levelo://app?vid=8734bc42-361e-4c72-9212-27e99f10c61f"},"vehicle_type_id":"4","last_reported":1751540962,"current_range_meters":21600,"station_id":"","pricing_plan_id":"cebpf4jnsgd1na2vs0mg"},{"bike_id":"7be93d05-2405-4cfe-a0c4-c6f3670e10c7","system_id":"levelo_inurba_marseille","lat":43.21218,"lon":5.35125,"is_reserved":false,"is_disabled":false,"rental_uris":{"android":"levelo://app?vid=7be93d05-2405-4cfe-a0c4-c6f3670e10c7","ios":"levelo://app?vid=7be93d05-2405-4cfe-a0c4-c6f3670e10c7"},"vehicle_type_id":"4","last_reported":1751540962,"current_range_meters":21600,"station_id":"","pricing_plan_id":"cebpf4jnsgd1na2vs0mg"},{"bike_id":"85b2758c-d216-4889-90dd-eb6d112ecb49","system_id":"levelo_inurba_marseille","lat":43.307693,"lon":5.392211,"is_reserved":false,"is_disabled":false,"rental_uris":{"android":"levelo://app?vid=85b2758c-d216-4889-90dd-eb6d112ecb49","ios":"levelo://app?vid=85b2758c-d216-4889-90dd-eb6d112ecb49"},"vehicle_type_id":"4","last_reported":1751540962,"current_range_meters":21600,"station_id":"ce4bgv12rcd13ifvqcp0","pricing_plan_id":"cebpf4jnsgd1na2vs0mg"},{"bike_id":"c1e7a157-af44-4328-abe6-aade551a7398","system_id":"levelo_inurba_marseille","lat":43.2867,"lon":5.38673,"is_reserved":false,"is_disabled":false,"rental_uris":{"android":"levelo://app?vid=c1e7a157-af44-4328-abe6-aade551a7398","ios":"levelo://app?vid=c1e7a157-af44-4328-abe6-aade551a7398"},"vehicle_type_id":"4","last_reported":1751540962,"current_range_meters":21600,"station_id":"ce4bh492rcd13ifvqdug","pricing_plan_id":"cebpf4jnsgd1na2vs0mg"},{"bike_id":"6050330e-fe2f-4323-a299-5a7d1f73ceca","system_id":"levelo_inurba_marseille","lat":43.28667,"lon":5.38668,"is_reserved":false,"is_disabled":false,"rental_uris":{"android":"levelo://app?vid=6050330e-fe2f-4323-a299-5a7d1f73ceca","ios":"levelo://app?vid=6050330e-fe2f-4323-a299-5a7d1f73ceca"},"vehicle_type_id":"4","last_reported":1751540962,"current_range_meters":21600,"station_id":"ce4bh492rcd13ifvqdug","pricing_plan_id":"cebpf4jnsgd1na2vs0mg"},{"bike_id":"8b0ea559-0a75-401b-a3f0-7eb9c36fa177","system_id":"levelo_inurba_marseille","lat":43.284159,"lon":5.349797,"is_reserved":false,"is_disabled":false,"rental_uris":{"android":"levelo://app?vid=8b0ea559-0a75-401b-a3f0-7eb9c36fa177","ios":"levelo://app?vid=8b0ea559-0a75-401b-a3f0-7eb9c36fa177"},"vehicle_type_id":"4","last_reported":1751540962,"current_range_meters":21600,"station_id":"ce4bhbh2rcd13ifvqepg","pricing_plan_id":"cebpf4jnsgd1na2vs0mg"},{"bike_id":"f40c1ff0-570d-4258-b9a7-b3f88ce6996d","system_id":"levelo_inurba_marseille","lat":43.28424,"lon":5.34994,"is_reserved":false,"is_disabled":false,"rental_uris":{"android":"levelo://app?vid=f40c1ff0-570d-4258-b9a7-b3f88ce6996d","ios":"levelo://app?vid=f40c1ff0-570d-4258-b9a7-b3f88ce6996d"},"vehicle_type_id":"4","last_reported":1751540962,"current_range_meters":21600,"station_id":"ce4bhbh2rcd13ifvqepg","pricing_plan_id":"cebpf4jnsgd1na2vs0mg"},{"bike_id":"b59a8552-e674-426c-aec0-ebd0310dfee1","system_id":"levelo_inurba_marseille","lat":43.28417,"lon":5.34978,"is_reserved":false,"is_disabled":false,"rental_uris":{"android":"levelo://app?vid=b59a8552-e674-426c-aec0-ebd0310dfee1","ios":"levelo://app?vid=b59a8552-e674-426c-aec0-ebd0310dfee1"},"vehicle_type_id":"4","last_reported":1751540962,"current_range_meters":21600,"station_id":"ce4bhbh2rcd13ifvqepg","pricing_plan_id":"cebpf4jnsgd1na2vs0mg"},{"bike_id":"60319928-d4d1-45ad-bc4b-70be978c4913","system_id":"levelo_inurba_marseille","lat":43.24071,"lon":5.37747,"is_reserved":false,"is_disabled":false,"rental_uris":{"android":"levelo://app?vid=60319928-d4d1-45ad-bc4b-70be978c4913","ios":"levelo://app?vid=60319928-d4d1-45ad-bc4b-70be978c4913"},"vehicle_type_id":"4","last_reported":1751540962,"current_range_meters":21600,"station_id":"ce4bhnp2rcd13ifvqgvg","pricing_plan_id":"cebpf4jnsgd1na2vs0mg"},{"bike_id":"c2b5c54c-eb47-4f5f-9944-bcdd0c80f7e4","system_id":"levelo_inurba_marseille","lat":43.23061,"lon":5.35487,"is_reserved":false,"is_disabled":false,"rental_uris":{"android":"levelo://app?vid=c2b5c54c-eb47-4f5f-9944-bcdd0c80f7e4","ios":"levelo://app?vid=c2b5c54c-eb47-4f5f-9944-bcdd0c80f7e4"},"vehicle_type_id":"4","last_reported":1751540962,"current_range_meters":21600,"station_id":"cpo3342slgdg3j2ifvpg","pricing_plan_id":"cebpf4jnsgd1na2vs0mg"},{"bike_id":"2df575c4-3ed1-4ae5-ac1c-852d98bbc3b8","system_id":"levelo_inurba_marseille","lat":43.29775,"lon":5.37097,"is_reserved":false,"is_disabled":false,"rental_uris":{"android":"levelo://app?vid=2df575c4-3ed1-4ae5-ac1c-852d98bbc3b8","ios":"levelo://app?vid=2df575c4-3ed1-4ae5-ac1c-852d98bbc3b8"},"vehicle_type_id":"4","last_reported":1751540962,"current_range_meters":22000,"station_id":"ce4bgop2rcd13ifvqc1g","pricing_plan_id":"cebpf4jnsgd1na2vs0mg"},{"bike_id":"2a10a9f5-2212-4c17-9f21-87801b5b2da5","system_id":"levelo_inurba_marseille","lat":43.30791,"lon":5.38156,"is_reserved":false,"is_disabled":false,"rental_uris":{"android":"levelo://app?vid=2a10a9f5-2212-4c17-9f21-87801b5b2da5","ios":"levelo://app?vid=2a10a9f5-2212-4c17-9f21-87801b5b2da5"},"vehicle_type_id":"4","last_reported":1751540962,"current_range_meters":22000,"station_id":"ce4bgt12rcd13ifvqce0","pricing_plan_id":"cebpf4jnsgd1na2vs0mg"},{"bike_id":"4f8c7826-ef00-4467-b0a9-56921dcbf3b3","system_id":"levelo_inurba_marseille","lat":43.31167,"lon":5.38721,"is_reserved":false,"is_disabled":true,"rental_uris":{"android":"levelo://app?vid=4f8c7826-ef00-4467-b0a9-56921dcbf3b3","ios":"levelo://app?vid=4f8c7826-ef00-4467-b0a9-56921dcbf3b3"},"vehicle_type_id":"4","last_reported":1751540962,"current_range_meters":22000,"station_id":"ce4bgv12rcd13ifvqcp0","pricing_plan_id":"cebpf4jnsgd1na2vs0mg"},{"bike_id":"60b24f89-c322-4f2f-b07b-774aaff2b885","system_id":"levelo_inurba_marseille","lat":43.28672,"lon":5.38671,"is_reserved":false,"is_disabled":false,"rental_uris":{"android":"levelo://app?vid=60b24f89-c322-4f2f-b07b-774aaff2b885","ios":"levelo://app?vid=60b24f89-c322-4f2f-b07b-774aaff2b885"},"vehicle_type_id":"4","last_reported":1751540962,"current_range_meters":22000,"station_id":"ce4bh492rcd13ifvqdug","pricing_plan_id":"cebpf4jnsgd1na2vs0mg"},{"bike_id":"acaea3d4-89fe-49f6-a119-3f6302ae77b1","system_id":"levelo_inurba_marseille","lat":43.2956,"lon":5.42288,"is_reserved":false,"is_disabled":false,"rental_uris":{"android":"levelo://app?vid=acaea3d4-89fe-49f6-a119-3f6302ae77b1","ios":"levelo://app?vid=acaea3d4-89fe-49f6-a119-3f6302ae77b1"},"vehicle_type_id":"4","last_reported":1751540962,"current_range_meters":22000,"station_id":"ce4bhph2rcd13ifvqhdg","pricing_plan_id":"cebpf4jnsgd1na2vs0mg"},{"bike_id":"c13c93ac-6b62-443c-9e36-caf61b27325a","system_id":"levelo_inurba_marseille","lat":43.21189,"lon":5.3506,"is_reserved":false,"is_disabled":false,"rental_uris":{"android":"levelo://app?vid=c13c93ac-6b62-443c-9e36-caf61b27325a","ios":"levelo://app?vid=c13c93ac-6b62-443c-9e36-caf61b27325a"},"vehicle_type_id":"4","last_reported":1751540962,"current_range_meters":22000,"station_id":"st_cvj6sg6p6f1abm77japg","pricing_plan_id":"cebpf4jnsgd1na2vs0mg"},