{"last_updated":1783338832,"ttl":60,"version":"2.2","data":{"bikes":[{"bike_id":"ba0c28b1-8732-48e2-8079-f25b2b3fbc3c","system_id":"levelo_inurba_marseille","lat":43.337444,"lon":5.374475,"is_reserved":false,"is_disabled":false,"rental_uris":{"android":"levelo://app?vid=ba0c28b1-8732-48e2-8079-f25b2b3fbc3c","ios":"levelo://app?vid=ba0c28b1-8732-48e2-8079-f25b2b3fbc3c"},"vehicle_type_id":"4","last_reported":1783338833,"current_range_meters":0,"station_id":"","pricing_plan_id":"cebpf4jnsgd1na2vs0mg"},{"bike_id":"5cf8ff3f-002e-4490-b36d-5909b772d854","system_id":"levelo_inurba_marseille","lat":43.22533,"lon":5.3484,"is_reserved":false,"is_disabled":true,"rental_uris":{"android":"levelo://app?vid=5cf8ff3f-002e-4490-b36d-5909b772d854","ios":"levelo://app?vid=5cf8ff3f-002e-4490-b36d-5909b772d854"},"vehicle_type_id":"4","last_reported":1783338833,"current_range_meters":2800,"station_id":"st_cvj5dfep6f1abm77gieg","pricing_plan_id":"cebpf4jnsgd1na2vs0mg"},{"bike_id":"98d9ab63-952f-49d0-8775-50ac81ca5fd7","system_id":"levelo_inurba_marseille","lat":43.30924,"lon":5.37497,"is_reserved":false,"is_disabled":false,"rental_uris":{"android":"levelo://app?vid=98d9ab63-952f-49d0-8775-50ac81ca5fd7","ios":"levelo://app?vid=98d9ab63-952f-49d0-8775-50ac81ca5fd7"},"vehicle_type_id":"4","last_reported":1783338833,"current_range_meters":2800,"station_id":"","pricing_plan_id":"cebpf4jnsgd1na2vs0mg"},{"bike_id":"6b4bd43f-9d60-40f8-96cc-0292b478f552","system_id":"levelo_inurba_marseille","lat":43.28779,"lon":5.4662,"is_reserved":false,"is_disabled":false,"rental_uris":{"android":"levelo://app?vid=6b4bd43f-9d60-40f8-96cc-0292b478f552","ios":"levelo://app?vid=6b4bd43f-9d60-40f8-96cc-0292b478f552"},"vehicle_type_id":"4","last_reported":1783338833,"current_range_meters":2800,"station_id":"","pricing_plan_id":"cebpf4jnsgd1na2vs0mg"},{"bike_id":"e8c36f44-e967-42dc-83fc-1418600e4dea","system_id":"levelo_inurba_marseille","lat":43.302907,"lon":5.377195,"is_reserved":false,"is_disabled":false,"rental_uris":{"android":"levelo://app?vid=e8c36f44-e967-42dc-83fc-1418600e4dea","ios":"levelo://app?vid=e8c36f44-e967-42dc-83fc-1418600e4dea"},"vehicle_type_id":"4","last_reported":1783338833,"current_range_meters":2800,"station_id":"ce4bgqh2rcd13ifvqc5g","pricing_plan_id":"cebpf4jnsgd1na2vs0mg"},{"bike_id":"da912a6f-d863-4165-a077-3ed521edb79b","system_id":"levelo_inurba_marseille","lat":43.27333,"lon":5.39079,"is_reserved":false,"is_disabled":false,"rental_uris":{"android":"levelo://app?vid=da912a6f-d863-4165-a077-3ed521edb79b","ios":"levelo://app?vid=da912a6f-d863-4165-a077-3ed521edb79b"},"vehicle_type_id":"4","last_reported":1783338833,"current_range_meters":2800,"station_id":"ce4bhgp2rcd13ifvqfe0","pricing_plan_id":"cebpf4jnsgd1na2vs0mg"},{"bike_id":"2a8f592d-3ebd-4853-bf23-1a2cca68a093","system_id":"levelo_inurba_marseille","lat":43.27061,"lon":5.38531,"is_reserved":false,"is_disabled":false,"rental_uris":{"android":"levelo://app?vid=2a8f592d-3ebd-4853-bf23-1a2cca68a093","ios":"levelo://app?vid=2a8f592d-3ebd-4853-bf23-1a2cca68a093"},"vehicle_type_id":"4","last_reported":1783338833,"current_range_meters":2800,"station_id":"","pricing_plan_id":"cebpf4jnsgd1na2vs0mg"},{"bike_id":"d1253fb4-6f3c-46e3-bf71-4af8db9a822e","system_id":"levelo_inurba_marseille","lat":43.276858,"lon":5.388737,"is_reserved":false,"is_disabled":false,"rental_uris":{"android":"levelo://app?vid=d1253fb4-6f3c-46e3-bf71-4af8db9a822e","ios":"levelo://app?vid=d1253fb4-6f3c-46e3-bf71-4af8db9a822e"},"vehicle_type_id":"4","last_reported":1783338833,"current_range_meters":2800,"station_id":"ce4bhi12rcd13ifvqfo0","pricing_plan_id":"cebpf4jnsgd1na2vs0mg"},{"bike_id":"d230c7da-04b9-477c-ac31-d2650e0427fd","system_id":"levelo_inurba_marseille","lat":43.31086,"lon":5.37796,"is_reserved":false,"is_disabled":true,"rental_uris":{"android":"levelo://app?vid=d230c7da-04b9-477c-ac31-d2650e0427fd","ios":"levelo://app?vid=d230c7da-04b9-477c-ac31-d2650e0427fd"},"vehicle_type_id":"4","last_reported":1783338833,"current_range_meters":2800,"station_id":"ce4bgt92rcd13ifvqcg0","pricing_plan_id":"cebpf4jnsgd1na2vs0mg"},{"bike_id":"f8925e60-2190-44b4-a4da-f668af10c094","system_id":"levelo_inurba_marseille","lat":43.29383,"lon":5.37839,"is_reserved":false,"is_disabled":false,"rental_uris":{"android":"levelo://app?vid=f8925e60-2190-44b4-a4da-f668af10c094","ios":"levelo://app?vid=f8925e60-2190-44b4-a4da-f668af10c094"},"vehicle_type_id":"4","last_reported":1783338833,"current_range_meters":2800,"station_id":"ce4bgjh2rcd13ifvqbf0","pricing_plan_id":"cebpf4jnsgd1na2vs0mg"},{"bike_id":"77ba167a-7190-45fa-a650-f9267544f7cb","system_id":"levelo_inurba_marseille","lat":43.25427,"lon":5.38015,"is_reserved":false,"is_disabled":false,"rental_uris":{"android":"levelo://app?vid=77ba167a-7190-45fa-a650-f9267544f7cb","ios":"levelo://app?vid=77ba167a-7190-45fa-a650-f9267544f7cb"},"vehicle_type_id":"4","last_reported":1783338833,"current_range_meters":2800,"station_id":"","pricing_plan_id":"cebpf4jnsgd1na2vs0mg"},{"bike_id":"d455396b-25c8-4bf4-aa48-4df15ad83f7e","system_id":"levelo_inurba_marseille","lat":43.33868,"lon":5.3479,"is_reserved":false,"is_disabled":false,"rental_uris":{"android":"levelo://app?vid=d455396b-25c8-4bf4-aa48-4df15ad83f7e","ios":"levelo://app?vid=d455396b-25c8-4bf4-aa48-4df15ad83f7e"},"vehicle_type_id":"4","last_reported":1783338833,"current_range_meters":2800,"station_id":"","pricing_plan_id":"cebpf4jnsgd1na2vs0mg"},{"bike_id":"7f12e5a2-955f-42a0-87a4-54480f18e191","system_id":"levelo_inurba_marseille","lat":43.289465,"lon":5.363946,"is_reserved":false,"is_disabled":false,"rental_uris":{"android":"levelo://app?vid=7f12e5a2-955f-42a0-87a4-54480f18e191","ios":"levelo://app?vid=7f12e5a2-955f-42a0-87a4-54480f18e191"},"vehicle_type_id":"4","last_reported":1783338833,"current_range_meters":2800,"station_id":"","pricing_plan_id":"cebpf4jnsgd1na2vs0mg"},{"bike_id":"874cdbf5-f73a-4bf6-9706-9772d5804d11","system_id":"levelo_inurba_marseille","lat":43.3354,"lon":5.37466,"is_reserved":false,"is_disabled":false,"rental_uris":{"android":"levelo://app?vid=874cdbf5-f73a-4bf6-9706-9772d5804d11","ios":"levelo://app?vid=874cdbf5-f73a-4bf6-9706-9772d5804d11"},"vehicle_type_id":"4","last_reported":1783338833,"current_range_meters":3200,"station_id":"st_d46tts09ee8s73dlu43g","pricing_plan_id":"cebpf4jnsgd1na2vs0mg"},{"bike_id":"8add3d14-7583-4bbe-a39a-8070d5f4d47a","system_id":"levelo_inurba_marseille","lat":43.32495,"lon":5.38293,"is_reserved":false,"is_disabled":false,"rental_uris":{"android":"levelo://app?vid=8add3d14-7583-4bbe-a39a-8070d5f4d47a","ios":"levelo://app?vid=8add3d14-7583-4bbe-a39a-8070d5f4d47a"},"vehicle_type_id":"4","last_reported":1783338833,"current_range_meters":3200,"station_id":"st_d4asgbiv49dc73anf9m0","pricing_plan_id":"cebpf4jnsgd1na2vs0mg"},{"bike_id":"29f91a90-234e-4f0d-aa4f-11679ad59417","system_id":"levelo_inurba_marseille","lat":43.23195,"lon":5.39988,"is_reserved":false,"is_disabled":false,"rental_uris":{"android":"levelo://app?vid=29f91a90-234e-4f0d-aa4f-11679ad59417","ios":"levelo://app?vid=29f91a90-234e-4f0d-aa4f-11679ad59417"},"vehicle_type_id":"4","last_reported":1783338833,"current_range_meters":3200,"station_id":"ce4bhn12rcd13ifvqgqg","pricing_plan_id":"cebpf4jnsgd1na2vs0mg"},{"bike_id":"669f0b3f-3dbd-4ada-a98e-0cadc67efe45","system_id":"levelo_inurba_marseille","lat":43.31691,"lon":5.4046,"is_reserved":false,"is_disabled":false,"rental_uris":{"android":"levelo://app?vid=669f0b3f-3dbd-4ada-a98e-0cadc67efe45","ios":"levelo://app?vid=669f0b3f-3dbd-4ada-a98e-0cadc67efe45"},"vehicle_type_id":"4","last_reported":1783338833,"current_range_meters":3200,"station_id":"ce4bh012rcd13ifvqd00","pricing_plan_id":"cebpf4jnsgd1na2vs0mg"},{"bike_id":"1bc69c0e-0bef-4dd0-9c32-f25cac91de35","system_id":"levelo_inurba_marseille","lat":43.26734,"lon":5.37202,"is_reserved":false,"is_disabled":false,"rental_uris":{"android":"levelo://app?vid=1bc69c0e-0bef-4dd0-9c32-f25cac91de35","ios":"levelo://app?vid=1bc69c0e-0bef-4dd0-9c32-f25cac91de35"},"vehicle_type_id":"4","last_reported":1783338833,"current_range_meters":3200,"station_id":"","pricing_plan_id":"cebpf4jnsgd1na2vs0mg"},{"bike_id":"87601c6a-f11e-4999-b138-e85c92822115","system_id":"levelo_inurba_marseille","lat":43.27071,"lon":5.42284,"is_reserved":false,"is_disabled":false,"rental_uris":{"android":"levelo://app?vid=87601c6a-f11e-4999-b138-e85c92822115","ios":"levelo://app?vid=87601c6a-f11e-4999-b138-e85c92822115"},"vehicle_type_id":"4","last_reported":1783338833,"current_range_meters":3200,"station_id":"ce4bhk92rcd13ifvqgb0","pricing_plan_id":"cebpf4jnsgd1na2vs0mg"},{"bike_id":"3892050e-cb6a-457e-90e6-5def440715fd","system_id":"levelo_inurba_marseille","lat":43.287,"lon":5.46687,"is_reserved":false,"is_disabled":false,"rental_uris":{"android":"levelo://app?vid=3892050e-cb6a-457e-90e6-5def440715fd","ios":"levelo://app?vid=3892050e-cb6a-457e-90e6-5def440715fd"},"vehicle_type_id":"4","last_reported":1783338833,"current_range_meters":3200,"station_id":"st_d6tc3vkotcvc738tfjhg","pricing_plan_id":"cebpf4jnsgd1na2vs0mg"},{"bike_id":"ffb6459d-1182-45d4-9830-40df7f4e23be","system_id":"levelo_inurba_marseille","lat":43.21751,"lon":5.34612,"is_reserved":false,"is_disabled":false,"rental_uris":{"android":"levelo://app?vid=ffb6459d-1182-45d4-9830-40df7f4e23be","ios":"levelo://app?vid=ffb6459d-1182-45d4-9830-40df7f4e23be"},"vehicle_type_id":"4","last_reported":1783338833,"current_range_meters":3200,"station_id":"st_cvj6r9ubvosntc0bgbag","pricing_plan_id":"cebpf4jnsgd1na2vs0mg"},{"bike_id":"339bbbfe-6e87-41b8-b3db-810e529addc3","system_id":"levelo_inurba_marseille","lat":43.25975,"lon":5.40893,"is_reserved":false,"is_disabled":false,"rental_uris":{"android":"levelo://app?vid=339bbbfe-6e87-41b8-b3db-810e529addc3","ios":"levelo://app?vid=339bbbfe-6e87-41b8-b3db-810e529addc3"},"vehicle_type_id":"4","last_reported":1783338833,"current_range_meters":3200,"station_id":"","pricing_plan_id":"cebpf4jnsgd1na2vs0mg"},{"bike_id":"7eabf167-73b0-48c0-81b3-f6aafb69f4b3","system_id":"levelo_inurba_marseille","lat":43.23193,"lon":5.35553,"is_reserved":false,"is_disabled":false,"rental_uris":{"android":"levelo://app?vid=7eabf167-73b0-48c0-81b3-f6aafb69f4b3","ios":"levelo://app?vid=7eabf167-73b0-48c0-81b3-f6aafb69f4b3"},"vehicle_type_id":"4","last_reported":1783338833,"current_range_meters":3200,"station_id":"ce4bhu92rcd13ifvqi70","pricing_plan_id":"cebpf4jnsgd1na2vs0mg"},{"bike_id":"be97f77b-683a-44ce-8240-f5ff6433cfe3","system_id":"levelo_inurba_marseille","lat":43.23198,"lon":5.35535,"is_reserved":false,"is_disabled":true,"rental_uris":{"android":"levelo://app?vid=be97f77b-683a-44ce-8240-f5ff6433cfe3","ios":"levelo://app?vid=be97f77b-683a-44ce-8240-f5ff6433cfe3"},"vehicle_type_id":"4","last_reported":1783338833,"current_range_meters":3200,"station_id":"ce4bhu92rcd13ifvqi70","pricing_plan_id":"cebpf4jnsgd1na2vs0mg"},{"bike_id":"5f593a42-889b-45c9-a43f-fdc920e209e9","system_id":"levelo_inurba_marseille","lat":43.32338,"lon":5.37007,"is_reserved":false,"is_disabled":false,"rental_uris":{"android":"levelo://app?vid=5f593a42-889b-45c9-a43f-fdc920e209e9","ios":"levelo://app?vid=5f593a42-889b-45c9-a43f-fdc920e209e9"},"vehicle_type_id":"4","last_reported":1783338833,"current_range_meters":3600,"station_id":"","pricing_plan_id":"cebpf4jnsgd1na2vs0mg"},{"bike_id":"fbe3b498-4302-4e28-a16c-ffbd4fad62fb","system_id":"levelo_inurba_marseille","lat":43.23149,"lon":5.43723,"is_reserved":false,"is_disabled":false,"rental_uris":{"android":"levelo://app?vid=fbe3b498-4302-4e28-a16c-ffbd4fad62fb","ios":"levelo://app?vid=fbe3b498-4302-4e28-a16c-ffbd4fad62fb"},"vehicle_type_id":"4","last_reported":1783338833,"current_range_meters":3600,"station_id":"ce4bhmp2rcd13ifvqgog","pricing_plan_id":"cebpf4jnsgd1na2vs0mg"},{"bike_id":"d1f95cf9-3c50-44e1-afec-1a16e5b009af","system_id":"levelo_inurba_marseille","lat":43.266713,"lon":5.372395,"is_reserved":false,"is_disabled":false,"rental_uris":{"android":"levelo://app?vid=d1f95cf9-3c50-44e1-afec-1a16e5b009af","ios":"levelo://app?vid=d1f95cf9-3c50-44e1-afec-1a16e5b009af"},"vehicle_type_id":"4","last_reported":1783338833,"current_range_meters":3600,"station_id":"","pricing_plan_id":"cebpf4jnsgd1na2vs0mg"},{"bike_id":"915e3d40-6d4e-4210-b27c-1a3fdcbe039c","system_id":"levelo_inurba_marseille","lat":43.29915,"lon":5.38139,"is_reserved":false,"is_disabled":false,"rental_uris":{"android":"levelo://app?vid=915e3d40-6d4e-4210-b27c-1a3fdcbe039c","ios":"levelo://app?vid=915e3d40-6d4e-4210-b27c-1a3fdcbe039c"},"vehicle_type_id":"4","last_reported":1783338833,"current_range_meters":3600,"station_id":"ce4bgj12rcd13ifvqbc0","pricing_plan_id":"cebpf4jnsgd1na2vs0mg"},{"bike_id":"2d3dd4f4-c2be-4315-be3d-f35763bc2c71","system_id":"levelo_inurba_marseille","lat":43.26697,"lon":5.40187,"is_reserved":false,"is_disabled":false,"rental_uris":{"android":"levelo://app?vid=2d3dd4f4-c2be-4315-be3d-f35763bc2c71","ios":"levelo://app?vid=2d3dd4f4-c2be-4315-be3d-f35763bc2c71"},"vehicle_type_id":"4","last_reported":1783338833,"current_range_meters":3600,"station_id":"","pricing_plan_id":"cebpf4jnsgd1na2vs0mg"},{"bike_id":"e84cc822-4b86-4d7f-8caa-7b219dba3c6f","system_id":"levelo_inurba_marseille","lat":43.27957,"lon":5.41033,"is_reserved":false,"is_disabled":true,"rental_uris":{"android":"levelo://app?vid=e84cc822-4b86-4d7f-8caa-7b219dba3c6f","ios":"levelo://app?vid=e84cc822-4b86-4d7f-8caa-7b219dba3c6f"},"vehicle_type_id":"4","last_reported":1783338833,"current_range_meters":3600,"station_id":"ce4bhnp2rcd13ifvqh0g","pricing_plan_id":"cebpf4jnsgd1na2vs0mg"},{"bike_id":"5e480115-a460-4823-9875-70fcf4a15173","system_id":"levelo_inurba_marseille","lat":43.26362,"lon":5.41084,"is_reserved":false,"is_disabled":false,"rental_uris":{"android":"levelo://app?vid=5e480115-a460-4823-9875-70fcf4a15173","ios":"levelo://app?vid=5e480115-a460-4823-9875-70fcf4a15173"},"vehicle_type_id":"4","last_reported":1783338833,"current_range_meters":3600,"station_id":"st_d4e5ca6na9uc73bfl5fg","pricing_plan_id":"cebpf4jnsgd1na2vs0mg"},{"bike_id":"b99fa2fa-6caa-4e97-a941-8427d6ff2309","system_id":"levelo_inurba_marseille","lat":43.26246,"lon":5.38753,"is_reserved":false,"is_disabled":true,"rental_uris":{"android":"levelo://app?vid=b99fa2fa-6caa-4e97-a941-8427d6ff2309","ios":"levelo://app?vid=b99fa2fa-6caa-4e97-a941-8427d6ff2309"},"vehicle_type_id":"4","last_reported":1783338833,"current_range_meters":3600,"station_id":"st_d8gjfg747rts73coq3b0","pricing_plan_id":"cebpf4jnsgd1na2vs0mg"},{"bike_id":"defe664f-116a-400b-aa68-5aba6647b941","system_id":"levelo_inurba_marseille","lat":43.29306,"lon":5.44566,"is_reserved":false,"is_disabled":false,"rental_uris":{"android":"levelo://app?vid=defe664f-116a-400b-aa68-5aba6647b941","ios":"levelo://app?vid=defe664f-116a-400b-aa68-5aba6647b941"},"vehicle_type_id":"4","last_reported":1783338833,"current_range_meters":3600,"station_id":"","pricing_plan_id":"cebpf4jnsgd1na2vs0mg"},{"bike_id":"66f64495-157d-434d-a3ef-5a17f45e04e3","system_id":"levelo_inurba_marseille","lat":43.24137,"lon":5.40953,"is_reserved":false,"is_disabled":false,"rental_uris":{"android":"levelo://app?vid=66f64495-157d-434d-a3ef-5a17f45e04e3","ios":"levelo://app?vid=66f64495-157d-434d-a3ef-5a17f45e04e3"},"vehicle_type_id":"4","last_reported":1783338833,"current_range_meters":3600,"station_id":"","pricing_plan_id":"cebpf4jnsgd1na2vs0mg"},{"bike_id":"a12a4f83-c050-4064-a9cd-bf7775a31f2f","system_id":"levelo_inurba_marseille","lat":43.24656,"lon":5.38182,"is_reserved":false,"is_disabled":true,"rental_uris":{"android":"levelo://app?vid=a12a4f83-c050-4064-a9cd-bf7775a31f2f","ios":"levelo://app?vid=a12a4f83-c050-4064-a9cd-bf7775a31f2f"},"vehicle_type_id":"4","last_reported":1783338833,"current_range_meters":3600,"station_id":"ce4bhih2rcd13ifvqfr0","pricing_plan_id":"cebpf4jnsgd1na2vs0mg"},{"bike_id":"95e2c5d3-ee09-417b-93c0-7f04fa895ada","system_id":"levelo_inurba_marseille","lat":43.3193,"lon":5.37333,"is_reserved":false,"is_disabled":false,"rental_uris":{"android":"levelo://app?vid=95e2c5d3-ee09-417b-93c0-7f04fa895ada","ios":"levelo://app?vid=95e2c5d3-ee09-417b-93c0-7f04fa895ada"},"vehicle_type_id":"4","last_reported":1783338833,"current_range_meters":3600,"station_id":"","pricing_plan_id":"cebpf4jnsgd1na2vs0mg"},{"bike_id":"9aad7fb2-4b68-4ff1-a63e-5832ca4f6501","system_id":"levelo_inurba_marseille","lat":43.26926,"lon":5.38519,"is_reserved":false,"is_disabled":false,"rental_uris":{"android":"levelo://app?vid=9aad7fb2-4b68-4ff1-a63e-5832ca4f6501","ios":"levelo://app?vid=9aad7fb2-4b68-4ff1-a63e-5832ca4f6501"},"vehicle_type_id":"4","last_reported":1783338833,"current_range_meters":3600,"station_id":"","pricing_plan_id":"cebpf4jnsgd1na2vs0mg"},{"bike_id":"05531383-928f-4ffc-8161-0272e5293130","system_id":"levelo_inurba_marseille","lat":43.28011,"lon":5.41669,"is_reserved":false,"is_disabled":false,"rental_uris":{"android":"levelo://app?vid=05531383-928f-4ffc-8161-0272e5293130","ios":"levelo://app?vid=05531383-928f-4ffc-8161-0272e5293130"},"vehicle_type_id":"4","last_reported":1783338833,"current_range_meters":3600,"station_id":"ce4bho12rcd13ifvqh1g","pricing_plan_id":"cebpf4jnsgd1na2vs0mg"},{"bike_id":"6e28c7de-4432-46c6-8824-5a05812aca65","system_id":"levelo_inurba_marseille","lat":43.22534,"lon":5.3483,"is_reserved":false,"is_disabled":true,"rental_uris":{"android":"levelo://app?vid=6e28c7de-4432-46c6-8824-5a05812aca65","ios":"levelo://app?vid=6e28c7de-4432-46c6-8824-5a05812aca65"},"vehicle_type_id":"4","last_reported":1783338833,"current_range_meters":4000,"station_id":"st_cvj5dfep6f1abm77gieg","pricing_plan_id":"cebpf4jnsgd1na2vs0mg"},{"bike_id":"aacd0c58-de55-42dc-9d9a-cf072125cb46","system_id":"levelo_inurba_marseille","lat":43.23205,"lon":5.35568,"is_reserved":false,"is_disabled":false,"rental_uris":{"android":"levelo://app?vid=aacd0c58-de55-42dc-9d9a-cf072125cb46","ios":"levelo://app?vid=aacd0c58-de55-42dc-9d9a-cf072125cb46"},"vehicle_type_id":"4","last_reported":1783338833,"current_range_meters":4000,"station_id":"ce4bhu92rcd13ifvqi70","pricing_plan_id":"cebpf4jnsgd1na2vs0mg"},{"bike_id":"3fcf6205-f23c-4cee-8363-04389955351d","system_id":"levelo_inurba_marseille","lat":43.22569,"lon":5.41625,"is_reserved":false,"is_disabled":true,"rental_uris":{"android":"levelo://app?vid=3fcf6205-f23c-4cee-8363-04389955351d","ios":"levelo://app?vid=3fcf6205-f23c-4cee-8363-04389955351d"},"vehicle_type_id":"4","last_reported":1783338833,"current_range_meters":4000,"station_id":"st_d2o4gvlbi1j2169b742g","pricing_plan_id":"cebpf4jnsgd1na2vs0mg"},{"bike_id":"f48150ab-bbf7-4a6a-97b8-0a23502e3f9b","system_id":"levelo_inurba_marseille","lat":43.25855,"lon":5.39899,"is_reserved":false,"is_disabled":false,"rental_uris":{"android":"levelo://app?vid=f48150ab-bbf7-4a6a-97b8-0a23502e3f9b","ios":"levelo://app?vid=f48150ab-bbf7-4a6a-97b8-0a23502e3f9b"},"vehicle_type_id":"4","last_reported":1783338833,"current_range_meters":4000,"station_id":"ce4bhl92rcd13ifvqghg","pricing_plan_id":"cebpf4jnsgd1na2vs0mg"},{"bike_id":"e2770b29-2b53-4a1b-b237-7b8799569b06","system_id":"levelo_inurba_marseille","lat":43.29513,"lon":5.39402,"is_reserved":false,"is_disabled":true,"rental_uris":{"android":"levelo://app?vid=e2770b29-2b53-4a1b-b237-7b8799569b06","ios":"levelo://app?vid=e2770b29-2b53-4a1b-b237-7b8799569b06"},"vehicle_type_id":"4","last_reported":1783338833,"current_range_meters":4000,"station_id":"ce4bh292rcd13ifvqdf0","pricing_plan_id":"cebpf4jnsgd1na2vs0mg"},{"bike_id":"f735ab1c-3bdf-441e-9888-b457dfdf0ed1","system_id":"levelo_inurba_marseille","lat":43.26681,"lon":5.38298,"is_reserved":false,"is_disabled":true,"rental_uris":{"android":"levelo://app?vid=f735ab1c-3bdf-441e-9888-b457dfdf0ed1","ios":"levelo://app?vid=f735ab1c-3bdf-441e-9888-b457dfdf0ed1"},"vehicle_type_id":"4","last_reported":1783338833,"current_range_meters":4000,"station_id":"ce4bhg92rcd13ifvqf90","pricing_plan_id":"cebpf4jnsgd1na2vs0mg"},{"bike_id":"7a71c416-c3b5-4289-ad0e-531bcb18f06d","system_id":"levelo_inurba_marseille","lat":43.33265,"lon":5.37893,"is_reserved":false,"is_disabled":false,"rental_uris":{"android":"levelo://app?vid=7a71c416-c3b5-4289-ad0e-531bcb18f06d","ios":"levelo://app?vid=7a71c416-c3b5-4289-ad0e-531bcb18f06d"},"vehicle_type_id":"4","last_reported":1783338833,"current_range_meters":4000,"station_id":"","pricing_plan_id":"cebpf4jnsgd1na2vs0mg"},{"bike_id":"d6d29673-b9f7-46d1-b2fa-1f306c52324d","system_id":"levelo_inurba_marseille","lat":43.31166,"lon":5.36846,"is_reserved":false,"is_disabled":false,"rental_uris":{"android":"levelo://app?vid=d6d29673-b9f7-46d1-b2fa-1f306c52324d","ios":"levelo://app?vid=d6d29673-b9f7-46d1-b2fa-1f306c52324d"},"vehicle_type_id":"4","last_reported":1783338833,"current_range_meters":4000,"station_id":"","pricing_plan_id":"cebpf4jnsgd1na2vs0mg"},{"bike_id":"950ea333-4ac3-4ffb-9bdf-7cd4c9f5edb4","system_id":"levelo_inurba_marseille","lat":43.26688,"lon":5.38278,"is_reserved":false,"is_disabled":false,"rental_uris":{"android":"levelo://app?vid=950ea333-4ac3-4ffb-9bdf-7cd4c9f5edb4","ios":"levelo://app?vid=950ea333-4ac3-4ffb-9bdf-7cd4c9f5edb4"},"vehicle_type_id":"4","last_reported":1783338833,"current_range_meters":4000,"station_id":"ce4bhg92rcd13ifvqf90","pricing_plan_id":"cebpf4jnsgd1na2vs0mg"},{"bike_id":"66c6e5ad-12fd-409e-a59d-315fc11950b1","system_id":"levelo_inurba_marseille","lat":43.2758,"lon":5.3844,"is_reserved":false,"is_disabled":false,"rental_uris":{"android":"levelo://app?vid=66c6e5ad-12fd-409e-a59d-315fc11950b1","ios":"levelo://app?vid=66c6e5ad-12fd-409e-a59d-315fc11950b1"},"vehicle_type_id":"4","last_reported":1783338833,"current_range_meters":4000,"station_id":"ce4bhh92rcd13ifvqfi0","pricing_plan_id":"cebpf4jnsgd1na2vs0mg"},{"bike_id":"a65a844d-2e1c-48b4-8ff3-17e93698fba6","system_id":"levelo_inurba_marseille","lat":43.31225,"lon":5.36854,"is_reserved":false,"is_disabled":true,"rental_uris":{"android":"levelo://app?vid=a65a844d-2e1c-48b4-8ff3-17e93698fba6","ios":"levelo://app?vid=a65a844d-2e1c-48b4-8ff3-17e93698fba6"},"vehicle_type_id":"4","last_reported":1783338833,"current_range_meters":4000,"station_id":"ce4bgl92rcd13ifvqbq0","pricing_plan_id":"cebpf4jnsgd1na2vs0mg"},{"bike_id":"acb6b183-d4d6-4d8e-974e-924b61f91a80","system_id":"levelo_inurba_marseille","lat":43.34409,"lon":5.42053,"is_reserved":false,"is_disabled":false,"rental_uris":{"android":"levelo://app?vid=acb6b183-d4d6-4d8e-974e-924b61f91a80","ios":"levelo://app?vid=acb6b183-d4d6-4d8e-974e-924b61f91a80"},"vehicle_type_id":"4","last_reported":1783338833,"current_range_meters":4000,"station_id":"","pricing_plan_id":"cebpf4jnsgd1na2vs0mg"},{"bike_id":"f7826c83-beb8-416f-bc97-d9c1cfbddb0b","system_id":"levelo_inurba_marseille","lat":43.25151,"lon":5.40475,"is_reserved":false,"is_disabled":false,"rental_uris":{"android":"levelo://app?vid=f7826c83-beb8-416f-bc97-d9c1cfbddb0b","ios":"levelo://app?vid=f7826c83-beb8-416f-bc97-d9c1cfbddb0b"},"vehicle_type_id":"4","last_reported":1783338833,"current_range_meters":4000,"station_id":"","pricing_plan_id":"cebpf4jnsgd1na2vs0mg"},{"bike_id":"6cea1c8d-d4e3-4a1e-a7bf-09f184a66d8f","system_id":"levelo_inurba_marseille","lat":43.30319,"lon":5.36895,"is_reserved":false,"is_disabled":false,"rental_uris":{"android":"levelo://app?vid=6cea1c8d-d4e3-4a1e-a7bf-09f184a66d8f","ios":"levelo://app?vid=6cea1c8d-d4e3-4a1e-a7bf-09f184a66d8f"},"vehicle_type_id":"4","last_reported":1783338833,"current_range_meters":4000,"station_id":"ce4bgqh2rcd13ifvqc5g","pricing_plan_id":"cebpf4jnsgd1na2vs0mg"},{"bike_id":"f5862b25-8b9f-4511-934a-30eb2d62b473","system_id":"levelo_inurba_marseille","lat":43.23763,"lon":5.36192,"is_reserved":false,"is_disabled":false,"rental_uris":{"android":"levelo://app?vid=f5862b25-8b9f-4511-934a-30eb2d62b473","ios":"levelo://app?vid=f5862b25-8b9f-4511-934a-30eb2d62b473"},"vehicle_type_id":"4","last_reported":1783338833,"current_range_meters":4400,"station_id":"","pricing_plan_id":"cebpf4jnsgd1na2vs0mg"},{"bike_id":"0a0f04d2-8c2b-484b-836b-2f76e8eed297","system_id":"levelo_inurba_marseille","lat":43.28702,"lon":5.46699,"is_reserved":false,"is_disabled":false,"rental_uris":{"android":"levelo://app?vid=0a0f04d2-8c2b-484b-836b-2f76e8eed297","ios":"levelo://app?vid=0a0f04d2-8c2b-484b-836b-2f76e8eed297"},"vehicle_type_id":"4","last_reported":1783338833,"current_range_meters":4400,"station_id":"st_d6tc3vkotcvc738tfjhg","pricing_plan_id":"cebpf4jnsgd1na2vs0mg"},{"bike_id":"5d3aab2d-4b4f-48c7-9c15-a6db30cb06a9","system_id":"levelo_inurba_marseille","lat":43.29983,"lon":5.38488,"is_reserved":false,"is_disabled":false,"rental_uris":{"android":"levelo://app?vid=5d3aab2d-4b4f-48c7-9c15-a6db30cb06a9","ios":"levelo://app?vid=5d3aab2d-4b4f-48c7-9c15-a6db30cb06a9"},"vehicle_type_id":"4","last_reported":1783338833,"current_range_meters":4400,"station_id":"ce4bgj92rcd13ifvqbd0","pricing_plan_id":"cebpf4jnsgd1na2vs0mg"},{"bike_id":"ae9653ca-a981-4fa4-848f-da55e76d424c","system_id":"levelo_inurba_marseille","lat":43.27175,"lon":5.40991,"is_reserved":false,"is_disabled":false,"rental_uris":{"android":"levelo://app?vid=ae9653ca-a981-4fa4-848f-da55e76d424c","ios":"levelo://app?vid=ae9653ca-a981-4fa4-848f-da55e76d424c"},"vehicle_type_id":"4","last_reported":1783338833,"current_range_meters":4400,"station_id":"ce4bhl12rcd13ifvqgf0","pricing_plan_id":"cebpf4jnsgd1na2vs0mg"},{"bike_id":"6b703ae7-b021-4d07-a990-ef927f27bcc0","system_id":"levelo_inurba_marseille","lat":43.25437,"lon":5.376,"is_reserved":false,"is_disabled":false,"rental_uris":{"android":"levelo://app?vid=6b703ae7-b021-4d07-a990-ef927f27bcc0","ios":"levelo://app?vid=6b703ae7-b021-4d07-a990-ef927f27bcc0"},"vehicle_type_id":"4","last_reported":1783338833,"current_range_meters":4400,"station_id":"","pricing_plan_id":"cebpf4jnsgd1na2vs0mg"},{"bike_id":"b44f05af-5789-4808-9c69-9c51b2676634","system_id":"levelo_inurba_marseille","lat":43.33778,"lon":5.37467,"is_reserved":false,"is_disabled":false,"rental_uris":{"android":"levelo://app?vid=b44f05af-5789-4808-9c69-9c51b2676634","ios":"levelo://app?vid=b44f05af-5789-4808-9c69-9c51b2676634"},"vehicle_type_id":"4","last_reported":1783338833,"current_range_meters":4400,"station_id":"","pricing_plan_id":"cebpf4jnsgd1na2vs0mg"},{"bike_id":"d62a5f06-a4d3-43f1-8950-c438f1f04a18","system_id":"levelo_inurba_marseille","lat":43.27497,"lon":5.40539,"is_reserved":false,"is_disabled":false,"rental_uris":{"android":"levelo://app?vid=d62a5f06-a4d3-43f1-8950-c438f1f04a18","ios":"levelo://app?vid=d62a5f06-a4d3-43f1-8950-c438f1f04a18"},"vehicle_type_id":"4","last_reported":1783338833,"current_range_meters":4400,"station_id":"","pricing_plan_id":"cebpf4jnsgd1na2vs0mg"},{"bike_id":"3e947fc2-89ac-4d9d-8faf-e1c57fd9fc07","system_id":"levelo_inurba_marseille","lat":43.29475,"lon":5.43304,"is_reserved":false,"is_disabled":false,"rental_uris":{"android":"levelo://app?vid=3e947fc2-89ac-4d9d-8faf-e1c57fd9fc07","ios":"levelo://app?vid=3e947fc2-89ac-4d9d-8faf-e1c57fd9fc07"},"vehicle_type_id":"4","last_reported":1783338833,"current_range_meters":4400,"station_id":"st_d3j5ugp08ojc73fj9d10","pricing_plan_id":"cebpf4jnsgd1na2vs0mg"},{"bike_id":"62ed54c7-0b04-446c-bc84-af79c29989a0","system_id":"levelo_inurba_marseille","lat":43.30412,"lon":5.41278,"is_reserved":false,"is_disabled":false,"rental_uris":{"android":"levelo://app?vid=62ed54c7-0b04-446c-bc84-af79c29989a0","ios":"levelo://app?vid=62ed54c7-0b04-446c-bc84-af79c29989a0"},"vehicle_type_id":"4","last_reported":1783338833,"current_range_meters":4400,"station_id":"ce4bhop2rcd13ifvqh8g","pricing_plan_id":"cebpf4jnsgd1na2vs0mg"},{"bike_id":"11ab4e40-d38d-42fd-b65a-1ee6253477a9","system_id":"levelo_inurba_marseille","lat":43.27404,"lon":5.393894,"is_reserved":false,"is_disabled":false,"rental_uris":{"android":"levelo://app?vid=11ab4e40-d38d-42fd-b65a-1ee6253477a9","ios":"levelo://app?vid=11ab4e40-d38d-42fd-b65a-1ee6253477a9"},"vehicle_type_id":"4","last_reported":1783338833,"current_range_meters":4400,"station_id":"ce4bhdp2rcd13ifvqf20","pricing_plan_id":"cebpf4jnsgd1na2vs0mg"},{"bike_id":"ebb69cdb-f57c-486a-9d37-3814132e26e5","system_id":"levelo_inurba_marseille","lat":43.28032,"lon":5.36944,"is_reserved":false,"is_disabled":true,"rental_uris":{"android":"levelo://app?vid=ebb69cdb-f57c-486a-9d37-3814132e26e5","ios":"levelo://app?vid=ebb69cdb-f57c-486a-9d37-3814132e26e5"},"vehicle_type_id":"4","last_reported":1783338833,"current_range_meters":4400,"station_id":"ce4bha12rcd13ifvqef0","pricing_plan_id":"cebpf4jnsgd1na2vs0mg"},{"bike_id":"d3445804-aa86-4322-9d7c-8853ed1e9664","system_id":"levelo_inurba_marseille","lat":43.2956,"lon":5.42298,"is_reserved":false,"is_disabled":false,"rental_uris":{"android":"levelo://app?vid=d3445804-aa86-4322-9d7c-8853ed1e9664","ios":"levelo://app?vid=d3445804-aa86-4322-9d7c-8853ed1e9664"},"vehicle_type_id":"4","last_reported":1783338833,"current_range_meters":4400,"station_id":"ce4bhph2rcd13ifvqhdg","pricing_plan_id":"cebpf4jnsgd1na2vs0mg"},{"bike_id":"341189df-87d6-42c3-96f4-af8b02306453","system_id":"levelo_inurba_marseille","lat":43.26956,"lon":5.38647,"is_reserved":false,"is_disabled":false,"rental_uris":{"android":"levelo://app?vid=341189df-87d6-42c3-96f4-af8b02306453","ios":"levelo://app?vid=341189df-87d6-42c3-96f4-af8b02306453"},"vehicle_type_id":"4","last_reported":1783338833,"current_range_meters":4400,"station_id":"ce4bhh92rcd13ifvqfh0","pricing_plan_id":"cebpf4jnsgd1na2vs0mg"},{"bike_id":"d542e80b-c621-4744-a175-6c723a1aa866","system_id":"levelo_inurba_marseille","lat":43.29317,"lon":5.44549,"is_reserved":false,"is_disabled":false,"rental_uris":{"android":"levelo://app?vid=d542e80b-c621-4744-a175-6c723a1aa866","ios":"levelo://app?vid=d542e80b-c621-4744-a175-6c723a1aa866"},"vehicle_type_id":"4","last_reported":1783338833,"current_range_meters":4400,"station_id":"","pricing_plan_id":"cebpf4jnsgd1na2vs0mg"},{"bike_id":"4d04075e-e187-4b98-81a5-04d9a633d9af","system_id":"levelo_inurba_marseille","lat":43.32915,"lon":5.3681,"is_reserved":false,"is_disabled":false,"rental_uris":{"android":"levelo://app?vid=4d04075e-e187-4b98-81a5-04d9a633d9af","ios":"levelo://app?vid=4d04075e-e187-4b98-81a5-04d9a633d9af"},"vehicle_type_id":"4","last_reported":1783338833,"current_range_meters":4400,"station_id":"","pricing_plan_id":"cebpf4jnsgd1na2vs0mg"},{"bike_id":"c9445652-b236-402b-8ec1-fb5567a22b0f","system_id":"levelo_inurba_marseille","lat":43.24466,"lon":5.4094,"is_reserved":false,"is_disabled":false,"rental_uris":{"android":"levelo://app?vid=c9445652-b236-402b-8ec1-fb5567a22b0f","ios":"levelo://app?vid=c9445652-b236-402b-8ec1-fb5567a22b0f"},"vehicle_type_id":"4","last_reported":1783338833,"current_range_meters":4400,"station_id":"","pricing_plan_id":"cebpf4jnsgd1na2vs0mg"},{"bike_id":"fc5d7b22-bed1-4640-a4b2-9379b1406486","system_id":"levelo_inurba_marseille","lat":43.29429,"lon":5.38439,"is_reserved":false,"is_disabled":true,"rental_uris":{"android":"levelo://app?vid=fc5d7b22-bed1-4640-a4b2-9379b1406486","ios":"levelo://app?vid=fc5d7b22-bed1-4640-a4b2-9379b1406486"},"vehicle_type_id":"4","last_reported":1783338833,"current_range_meters":4400,"station_id":"","pricing_plan_id":"cebpf4jnsgd1na2vs0mg"},{"bike_id":"3f634875-aa7c-4a3f-a190-fc79072ea8b9","system_id":"levelo_inurba_marseille","lat":43.23195,"lon":5.35548,"is_reserved":false,"is_disabled":false,"rental_uris":{"android":"levelo://app?vid=3f634875-aa7c-4a3f-a190-fc79072ea8b9","ios":"levelo://app?vid=3f634875-aa7c-4a3f-a190-fc79072ea8b9"},"vehicle_type_id":"4","last_reported":1783338833,"current_range_meters":4400,"station_id":"ce4bhu92rcd13ifvqi70","pricing_plan_id":"cebpf4jnsgd1na2vs0mg"},{"bike_id":"19914a48-7974-4b8e-b8a2-de423df83549","system_id":"levelo_inurba_marseille","lat":43.28692,"lon":5.46682,"is_reserved":false,"is_disabled":false,"rental_uris":{"android":"levelo://app?vid=19914a48-7974-4b8e-b8a2-de423df83549","ios":"levelo://app?vid=19914a48-7974-4b8e-b8a2-de423df83549"},"vehicle_type_id":"4","last_reported":1783338833,"current_range_meters":4800,"station_id":"st_d6tc3vkotcvc738tfjhg","pricing_plan_id":"cebpf4jnsgd1na2vs0mg"},{"bike_id":"277eeda4-0ed8-418d-bd4b-dc50b5219d3a","system_id":"levelo_inurba_marseille","lat":43.29481,"lon":5.43303,"is_reserved":false,"is_disabled":false,"rental_uris":{"android":"levelo://app?vid=277eeda4-0ed8-418d-bd4b-dc50b5219d3a","ios":"levelo://app?vid=277eeda4-0ed8-418d-bd4b-dc50b5219d3a"},"vehicle_type_id":"4","last_reported":1783338833,"current_range_meters":4800,"station_id":"st_d3j5ugp08ojc73fj9d10","pricing_plan_id":"cebpf4jnsgd1na2vs0mg"},{"bike_id":"d4057e6e-750c-482c-9be9-a1e254cbd3f3","system_id":"levelo_inurba_marseille","lat":43.26681,"lon":5.38261,"is_reserved":false,"is_disabled":false,"rental_uris":{"android":"levelo://app?vid=d4057e6e-750c-482c-9be9-a1e254cbd3f3","ios":"levelo://app?vid=d4057e6e-750c-482c-9be9-a1e254cbd3f3"},"vehicle_type_id":"4","last_reported":1783338833,"current_range_meters":4800,"station_id":"ce4bhg92rcd13ifvqf90","pricing_plan_id":"cebpf4jnsgd1na2vs0mg"},{"bike_id":"18f30a2a-03ed-49e0-b18e-66975ac4b055","system_id":"levelo_inurba_marseille","lat":43.23304,"lon":5.40819,"is_reserved":false,"is_disabled":false,"rental_uris":{"android":"levelo://app?vid=18f30a2a-03ed-49e0-b18e-66975ac4b055","ios":"levelo://app?vid=18f30a2a-03ed-49e0-b18e-66975ac4b055"},"vehicle_type_id":"4","last_reported":1783338833,"current_range_meters":4800,"station_id":"","pricing_plan_id":"cebpf4jnsgd1na2vs0mg"},{"bike_id":"60169cfa-1234-472b-b41c-25d91abce480","system_id":"levelo_inurba_marseille","lat":43.29941,"lon":5.37201,"is_reserved":false,"is_disabled":false,"rental_uris":{"android":"levelo://app?vid=60169cfa-1234-472b-b41c-25d91abce480","ios":"levelo://app?vid=60169cfa-1234-472b-b41c-25d91abce480"},"vehicle_type_id":"4","last_reported":1783338833,"current_range_meters":4800,"station_id":"ce4bgr92rcd13ifvqc7g","pricing_plan_id":"cebpf4jnsgd1na2vs0mg"},{"bike_id":"4d52a61b-5c30-41df-a6ac-71b42f016aed","system_id":"levelo_inurba_marseille","lat":43.25869,"lon":5.3991,"is_reserved":false,"is_disabled":true,"rental_uris":{"android":"levelo://app?vid=4d52a61b-5c30-41df-a6ac-71b42f016aed","ios":"levelo://app?vid=4d52a61b-5c30-41df-a6ac-71b42f016aed"},"vehicle_type_id":"4","last_reported":1783338833,"current_range_meters":4800,"station_id":"ce4bhl92rcd13ifvqghg","pricing_plan_id":"cebpf4jnsgd1na2vs0mg"},{"bike_id":"8fec6c78-b460-42d7-b78b-be9ed7c2fffd","system_id":"levelo_inurba_marseille","lat":43.28159,"lon":5.42651,"is_reserved":false,"is_disabled":false,"rental_uris":{"android":"levelo://app?vid=8fec6c78-b460-42d7-b78b-be9ed7c2fffd","ios":"levelo://app?vid=8fec6c78-b460-42d7-b78b-be9ed7c2fffd"},"vehicle_type_id":"4","last_reported":1783338833,"current_range_meters":4800,"station_id":"ce4bhnh2rcd13ifvqgug","pricing_plan_id":"cebpf4jnsgd1na2vs0mg"},{"bike_id":"ddbe2579-6945-4bc8-b2f5-09e7b00294a8","system_id":"levelo_inurba_marseille","lat":43.25089,"lon":5.39519,"is_reserved":false,"is_disabled":false,"rental_uris":{"android":"levelo://app?vid=ddbe2579-6945-4bc8-b2f5-09e7b00294a8","ios":"levelo://app?vid=ddbe2579-6945-4bc8-b2f5-09e7b00294a8"},"vehicle_type_id":"4","last_reported":1783338833,"current_range_meters":4800,"station_id":"ce4bhm12rcd13ifvqgkg","pricing_plan_id":"cebpf4jnsgd1na2vs0mg"},{"bike_id":"0b30640f-eb76-476f-a5fa-574abf3378b4","system_id":"levelo_inurba_marseille","lat":43.33744,"lon":5.37465,"is_reserved":false,"is_disabled":false,"rental_uris":{"android":"levelo://app?vid=0b30640f-eb76-476f-a5fa-574abf3378b4","ios":"levelo://app?vid=0b30640f-eb76-476f-a5fa-574abf3378b4"},"vehicle_type_id":"4","last_reported":1783338833,"current_range_meters":4800,"station_id":"","pricing_plan_id":"cebpf4jnsgd1na2vs0mg"},{"bike_id":"64bf0160-8d27-43dd-b37b-f0902d5032ce","system_id":"levelo_inurba_marseille","lat":43.29482,"lon":5.43322,"is_reserved":false,"is_disabled":false,"rental_uris":{"android":"levelo://app?vid=64bf0160-8d27-43dd-b37b-f0902d5032ce","ios":"levelo://app?vid=64bf0160-8d27-43dd-b37b-f0902d5032ce"},"vehicle_type_id":"4","last_reported":1783338833,"current_range_meters":4800,"station_id":"st_d3j5ugp08ojc73fj9d10","pricing_plan_id":"cebpf4jnsgd1na2vs0mg"},{"bike_id":"6fc31c23-f133-4057-8931-d520a9495dcf","system_id":"levelo_inurba_marseille","lat":43.241672,"lon":5.363891,"is_reserved":false,"is_disabled":false,"rental_uris":{"android":"levelo://app?vid=6fc31c23-f133-4057-8931-d520a9495dcf","ios":"levelo://app?vid=6fc31c23-f133-4057-8931-d520a9495dcf"},"vehicle_type_id":"4","last_reported":1783338833,"current_range_meters":4800,"station_id":"cpo36qri1sfpv3e86is0","pricing_plan_id":"cebpf4jnsgd1na2vs0mg"},{"bike_id":"6f7a01a8-ee4c-4eed-b676-8bb956e41341","system_id":"levelo_inurba_marseille","lat":43.28976,"lon":5.42484,"is_reserved":false,"is_disabled":false,"rental_uris":{"android":"levelo://app?vid=6f7a01a8-ee4c-4eed-b676-8bb956e41341","ios":"levelo://app?vid=6f7a01a8-ee4c-4eed-b676-8bb956e41341"},"vehicle_type_id":"4","last_reported":1783338833,"current_range_meters":4800,"station_id":"","pricing_plan_id":"cebpf4jnsgd1na2vs0mg"},{"bike_id":"f469375b-6348-42cf-b696-dbeaebb7418c","system_id":"levelo_inurba_marseille","lat":43.26221,"lon":5.38794,"is_reserved":false,"is_disabled":true,"rental_uris":{"android":"levelo://app?vid=f469375b-6348-42cf-b696-dbeaebb7418c","ios":"levelo://app?vid=f469375b-6348-42cf-b696-dbeaebb7418c"},"vehicle_type_id":"4","last_reported":1783338833,"current_range_meters":4800,"station_id":"st_d8gjfg747rts73coq3b0","pricing_plan_id":"cebpf4jnsgd1na2vs0mg"},{"bike_id":"68f15f16-03e7-4500-a627-dad23dd9e9de","system_id":"levelo_inurba_marseille","lat":43.26067,"lon":5.37499,"is_reserved":false,"is_disabled":false,"rental_uris":{"android":"levelo://app?vid=68f15f16-03e7-4500-a627-dad23dd9e9de","ios":"levelo://app?vid=68f15f16-03e7-4500-a627-dad23dd9e9de"},"vehicle_type_id":"4","last_reported":1783338833,"current_range_meters":4800,"station_id":"","pricing_plan_id":"cebpf4jnsgd1na2vs0mg"},{"bike_id":"c1c88b11-92f5-437b-85af-b745aa920b32","system_id":"levelo_inurba_marseille","lat":43.26688,"lon":5.3872,"is_reserved":false,"is_disabled":false,"rental_uris":{"android":"levelo://app?vid=c1c88b11-92f5-437b-85af-b745aa920b32","ios":"levelo://app?vid=c1c88b11-92f5-437b-85af-b745aa920b32"},"vehicle_type_id":"4","last_reported":1783338833,"current_range_meters":4800,"station_id":"","pricing_plan_id":"cebpf4jnsgd1na2vs0mg"},{"bike_id":"603a365b-cb0a-4ee6-afde-1fc504650c6f","system_id":"levelo_inurba_marseille","lat":43.31108,"lon":5.43851,"is_reserved":false,"is_disabled":false,"rental_uris":{"android":"levelo://app?vid=603a365b-cb0a-4ee6-afde-1fc504650c6f","ios":"levelo://app?vid=603a365b-cb0a-4ee6-afde-1fc504650c6f"},"vehicle_type_id":"4","last_reported":1783338833,"current_range_meters":5600,"station_id":"","pricing_plan_id":"cebpf4jnsgd1na2vs0mg"},{"bike_id":"54c69063-9131-466c-867c-ae9ff04c7411","system_id":"levelo_inurba_marseille","lat":43.30216,"lon":5.39513,"is_reserved":false,"is_disabled":true,"rental_uris":{"android":"levelo://app?vid=54c69063-9131-466c-867c-ae9ff04c7411","ios":"levelo://app?vid=54c69063-9131-466c-867c-ae9ff04c7411"},"vehicle_type_id":"4","last_reported":1783338833,"current_range_meters":5600,"station_id":"ce4bh0p2rcd13ifvqd70","pricing_plan_id":"cebpf4jnsgd1na2vs0mg"},{"bike_id":"138e49e7-8d22-4832-895c-d97d918d2d72","system_id":"levelo_inurba_marseille","lat":43.27823,"lon":5.36449,"is_reserved":false,"is_disabled":false,"rental_uris":{"android":"levelo://app?vid=138e49e7-8d22-4832-895c-d97d918d2d72","ios":"levelo://app?vid=138e49e7-8d22-4832-895c-d97d918d2d72"},"vehicle_type_id":"4","last_reported":1783338833,"current_range_meters":5600,"station_id":"","pricing_plan_id":"cebpf4jnsgd1na2vs0mg"},{"bike_id":"27046f21-dad5-402c-be82-70b0c189eef0","system_id":"levelo_inurba_marseille","lat":43.30302,"lon":5.36899,"is_reserved":false,"is_disabled":false,"rental_uris":{"android":"levelo://app?vid=27046f21-dad5-402c-be82-70b0c189eef0","ios":"levelo://app?vid=27046f21-dad5-402c-be82-70b0c189eef0"},"vehicle_type_id":"4","last_reported":1783338833,"current_range_meters":5600,"station_id":"ce4bgqh2rcd13ifvqc5g","pricing_plan_id":"cebpf4jnsgd1na2vs0mg"},{"bike_id":"4a08a9a1-1143-4202-92af-f2bf0379fe84","system_id":"levelo_inurba_marseille","lat":43.28511,"lon":5.3539,"is_reserved":false,"is_disabled":false,"rental_uris":{"android":"levelo://app?vid=4a08a9a1-1143-4202-92af-f2bf0379fe84","ios":"levelo://app?vid=4a08a9a1-1143-4202-92af-f2bf0379fe84"},"vehicle_type_id":"4","last_reported":1783338833,"current_range_meters":5600,"station_id":"","pricing_plan_id":"cebpf4jnsgd1na2vs0mg"},{"bike_id":"85375d55-e0d1-447d-809b-18247820754d","system_id":"levelo_inurba_marseille","lat":43.28918,"lon":5.48157,"is_reserved":false,"is_disabled":false,"rental_uris":{"android":"levelo://app?vid=85375d55-e0d1-447d-809b-18247820754d","ios":"levelo://app?vid=85375d55-e0d1-447d-809b-18247820754d"},"vehicle_type_id":"4","last_reported":1783338833,"current_range_meters":5600,"station_id":"","pricing_plan_id":"cebpf4jnsgd1na2vs0mg"},{"bike_id":"db8a891d-01a8-477c-86bb-61f9ddbc2ad3","system_id":"levelo_inurba_marseille","lat":43.24945,"lon":5.40501,"is_reserved":false,"is_disabled":false,"rental_uris":{"android":"levelo://app?vid=db8a891d-01a8-477c-86bb-61f9ddbc2ad3","ios":"levelo://app?vid=db8a891d-01a8-477c-86bb-61f9ddbc2ad3"},"vehicle_type_id":"4","last_reported":1783338833,"current_range_meters":5600,"station_id":"st_d2ngiaodas8pm72gd1h0","pricing_plan_id":"cebpf4jnsgd1na2vs0mg"},{"bike_id":"d5a4aa2d-cb43-47d6-af76-dda19b880491","system_id":"levelo_inurba_marseille","lat":43.28476,"lon":5.484,"is_reserved":false,"is_disabled":false,"rental_uris":{"android":"levelo://app?vid=d5a4aa2d-cb43-47d6-af76-dda19b880491","ios":"levelo://app?vid=d5a4aa2d-cb43-47d6-af76-dda19b880491"},"vehicle_type_id":"4","last_reported":1783338833,"current_range_meters":5600,"station_id":"st_d3svhcjqgbts73a3dn0g","pricing_plan_id":"cebpf4jnsgd1na2vs0mg"},{"bike_id":"49ab2764-f571-4f43-8b96-23d3b0325d1b","system_id":"levelo_inurba_marseille","lat":43.25364,"lon":5.38198,"is_reserved":false,"is_disabled":false,"rental_uris":{"android":"levelo://app?vid=49ab2764-f571-4f43-8b96-23d3b0325d1b","ios":"levelo://app?vid=49ab2764-f571-4f43-8b96-23d3b0325d1b"},"vehicle_type_id":"4","last_reported":1783338833,"current_range_meters":5600,"station_id":"","pricing_plan_id":"cebpf4jnsgd1na2vs0mg"},{"bike_id":"e40f7e4d-aee3-4c7e-9ab5-4a739fc7a822","system_id":"levelo_inurba_marseille","lat":43.25119,"lon":5.40326,"is_reserved":false,"is_disabled":false,"rental_uris":{"android":"levelo://app?vid=e40f7e4d-aee3-4c7e-9ab5-4a739fc7a822","ios":"levelo://app?vid=e40f7e4d-aee3-4c7e-9ab5-4a739fc7a822"},"vehicle_type_id":"4","last_reported":1783338833,"current_range_meters":5600,"station_id":"ce4bhlh2rcd13ifvqgig","pricing_plan_id":"cebpf4jnsgd1na2vs0mg"},{"bike_id":"030265b2-4dd1-44f4-b998-e3903e3adbf1","system_id":"levelo_inurba_marseille","lat":43.28622,"lon":5.37059,"is_reserved":false,"is_disabled":true,"rental_uris":{"android":"levelo://app?vid=030265b2-4dd1-44f4-b998-e3903e3adbf1","ios":"levelo://app?vid=030265b2-4dd1-44f4-b998-e3903e3adbf1"},"vehicle_type_id":"4","last_reported":1783338833,"current_range_meters":5600,"station_id":"ce4bht12rcd13ifvqi60","pricing_plan_id":"cebpf4jnsgd1na2vs0mg"},{"bike_id":"17daf048-1c60-49bd-b23d-a1f49765f287","system_id":"levelo_inurba_marseille","lat":43.29263,"lon":5.38444,"is_reserved":false,"is_disabled":false,"rental_uris":{"android":"levelo://app?vid=17daf048-1c60-49bd-b23d-a1f49765f287","ios":"levelo://app?vid=17daf048-1c60-49bd-b23d-a1f49765f287"},"vehicle_type_id":"4","last_reported":1783338833,"current_range_meters":5600,"station_id":"ce4bh692rcd13ifvqea0","pricing_plan_id":"cebpf4jnsgd1na2vs0mg"},{"bike_id":"fe2331ff-174a-4181-b6ef-65ab29ab85bd","system_id":"levelo_inurba_marseille","lat":43.33173,"lon":5.37701,"is_reserved":false,"is_disabled":false,"rental_uris":{"android":"levelo://app?vid=fe2331ff-174a-4181-b6ef-65ab29ab85bd","ios":"levelo://app?vid=fe2331ff-174a-4181-b6ef-65ab29ab85bd"},"vehicle_type_id":"4","last_reported":1783338833,"current_range_meters":5600,"station_id":"st_d46cu089ee8s73dldbu0","pricing_plan_id":"cebpf4jnsgd1na2vs0mg"},{"bike_id":"d1876312-33de-4bb0-8320-d81e2abc15d1","system_id":"levelo_inurba_marseille","lat":43.291026,"lon":5.381306,"is_reserved":false,"is_disabled":false,"rental_uris":{"android":"levelo://app?vid=d1876312-33de-4bb0-8320-d81e2abc15d1","ios":"levelo://app?vid=d1876312-33de-4bb0-8320-d81e2abc15d1"},"vehicle_type_id":"4","last_reported":1783338833,"current_range_meters":5600,"station_id":"ce4bha92rcd13ifvqeh0","pricing_plan_id":"cebpf4jnsgd1na2vs0mg"},{"bike_id":"dc41f11d-9cc5-467b-80c4-b05f41fae0e6","system_id":"levelo_inurba_marseille","lat":43.30879,"lon":5.39839,"is_reserved":false,"is_disabled":false,"rental_uris":{"android":"levelo://app?vid=dc41f11d-9cc5-467b-80c4-b05f41fae0e6","ios":"levelo://app?vid=dc41f11d-9cc5-467b-80c4-b05f41fae0e6"},"vehicle_type_id":"4","last_reported":1783338833,"current_range_meters":5600,"station_id":"","pricing_plan_id":"cebpf4jnsgd1na2vs0mg"},{"bike_id":"7c427d21-5ba3-47e9-b621-2ca7d29df3d2","system_id":"levelo_inurba_marseille","lat":43.28465,"lon":5.43739,"is_reserved":false,"is_disabled":false,"rental_uris":{"android":"levelo://app?vid=7c427d21-5ba3-47e9-b621-2ca7d29df3d2","ios":"levelo://app?vid=7c427d21-5ba3-47e9-b621-2ca7d29df3d2"},"vehicle_type_id":"4","last_reported":1783338833,"current_range_meters":5600,"station_id":"","pricing_plan_id":"cebpf4jnsgd1na2vs0mg"},{"bike_id":"6561da10-7a09-4fd9-b043-45bdb7ded2ef","system_id":"levelo_inurba_marseille","lat":43.25108,"lon":5.40336,"is_reserved":false,"is_disabled":true,"rental_uris":{"android":"levelo://app?vid=6561da10-7a09-4fd9-b043-45bdb7ded2ef","ios":"levelo://app?vid=6561da10-7a09-4fd9-b043-45bdb7ded2ef"},"vehicle_type_id":"4","last_reported":1783338833,"current_range_meters":6000,"station_id":"ce4bhlh2rcd13ifvqgig","pricing_plan_id":"cebpf4jnsgd1na2vs0mg"},{"bike_id":"3e6c6bce-5072-4983-bf29-cb65bad52ecf","system_id":"levelo_inurba_marseille","lat":43.28142,"lon":5.42647,"is_reserved":false,"is_disabled":false,"rental_uris":{"android":"levelo://app?vid=3e6c6bce-5072-4983-bf29-cb65bad52ecf","ios":"levelo://app?vid=3e6c6bce-5072-4983-bf29-cb65bad52ecf"},"vehicle_type_id":"4","last_reported":1783338833,"current_range_meters":6000,"station_id":"ce4bhnh2rcd13ifvqgug","pricing_plan_id":"cebpf4jnsgd1na2vs0mg"},{"bike_id":"0e009c86-b7d9-4cc2-a243-82761cdc5f47","system_id":"levelo_inurba_marseille","lat":43.26788,"lon":5.3942,"is_reserved":false,"is_disabled":false,"rental_uris":{"android":"levelo://app?vid=0e009c86-b7d9-4cc2-a243-82761cdc5f47","ios":"levelo://app?vid=0e009c86-b7d9-4cc2-a243-82761cdc5f47"},"vehicle_type_id":"4","last_reported":1783338833,"current_range_meters":6000,"station_id":"ce4bhh12rcd13ifvqfg0","pricing_plan_id":"cebpf4jnsgd1na2vs0mg"},{"bike_id":"4cf5d60e-9140-4a8a-8441-24f2bea126c8","system_id":"levelo_inurba_marseille","lat":43.28913,"lon":5.43765,"is_reserved":false,"is_disabled":false,"rental_uris":{"android":"levelo://app?vid=4cf5d60e-9140-4a8a-8441-24f2bea126c8","ios":"levelo://app?vid=4cf5d60e-9140-4a8a-8441-24f2bea126c8"},"vehicle_type_id":"4","last_reported":1783338833,"current_range_meters":6000,"station_id":"","pricing_plan_id":"cebpf4jnsgd1na2vs0mg"},{"bike_id":"7b641340-2932-4b86-932d-76da787765f3","system_id":"levelo_inurba_marseille","lat":43.25112,"lon":5.40346,"is_reserved":false,"is_disabled":false,"rental_uris":{"android":"levelo://app?vid=7b641340-2932-4b86-932d-76da787765f3","ios":"levelo://app?vid=7b641340-2932-4b86-932d-76da787765f3"},"vehicle_type_id":"4","last_reported":1783338833,"current_range_meters":6000,"station_id":"ce4bhlh2rcd13ifvqgig","pricing_plan_id":"cebpf4jnsgd1na2vs0mg"},{"bike_id":"387cec3a-e642-4a2c-990a-6ccb2c6301c6","system_id":"levelo_inurba_marseille","lat":43.24179,"lon":5.39737,"is_reserved":false,"is_disabled":false,"rental_uris":{"android":"levelo://app?vid=387cec3a-e642-4a2c-990a-6ccb2c6301c6","ios":"levelo://app?vid=387cec3a-e642-4a2c-990a-6ccb2c6301c6"},"vehicle_type_id":"4","last_reported":1783338833,"current_range_meters":6000,"station_id":"ce4bhn12rcd13ifvqgpg","pricing_plan_id":"cebpf4jnsgd1na2vs0mg"},{"bike_id":"76605457-c44a-4942-b530-bca78ece21b7","system_id":"levelo_inurba_marseille","lat":43.27199,"lon":5.39201,"is_reserved":false,"is_disabled":false,"rental_uris":{"android":"levelo://app?vid=76605457-c44a-4942-b530-bca78ece21b7","ios":"levelo://app?vid=76605457-c44a-4942-b530-bca78ece21b7"},"vehicle_type_id":"4","last_reported":1783338833,"current_range_meters":6000,"station_id":"ce4bhhp2rcd13ifvqfm0","pricing_plan_id":"cebpf4jnsgd1na2vs0mg"},{"bike_id":"c8d1330d-73ec-4bb8-a1ed-810d635790ec","system_id":"levelo_inurba_marseille","lat":43.289246,"lon":5.384034,"is_reserved":false,"is_disabled":false,"rental_uris":{"android":"levelo://app?vid=c8d1330d-73ec-4bb8-a1ed-810d635790ec","ios":"levelo://app?vid=c8d1330d-73ec-4bb8-a1ed-810d635790ec"},"vehicle_type_id":"4","last_reported":1783338833,"current_range_meters":6000,"station_id":"ce4bh612rcd13ifvqe6g","pricing_plan_id":"cebpf4jnsgd1na2vs0mg"},{"bike_id":"5a04911e-4078-4c24-9363-7f9b14af4e3d","system_id":"levelo_inurba_marseille","lat":43.27317,"lon":5.39078,"is_reserved":false,"is_disabled":false,"rental_uris":{"android":"levelo://app?vid=5a04911e-4078-4c24-9363-7f9b14af4e3d","ios":"levelo://app?vid=5a04911e-4078-4c24-9363-7f9b14af4e3d"},"vehicle_type_id":"4","last_reported":1783338833,"current_range_meters":6000,"station_id":"ce4bhgp2rcd13ifvqfe0","pricing_plan_id":"cebpf4jnsgd1na2vs0mg"},{"bike_id":"20caa1fc-06d5-4252-9f45-594b25108b35","system_id":"levelo_inurba_marseille","lat":43.28477,"lon":5.48407,"is_reserved":false,"is_disabled":false,"rental_uris":{"android":"levelo://app?vid=20caa1fc-06d5-4252-9f45-594b25108b35","ios":"levelo://app?vid=20caa1fc-06d5-4252-9f45-594b25108b35"},"vehicle_type_id":"4","last_reported":1783338833,"current_range_meters":6000,"station_id":"st_d3svhcjqgbts73a3dn0g","pricing_plan_id":"cebpf4jnsgd1na2vs0mg"},{"bike_id":"8e9546ae-18d3-4df6-b40f-cbaa84d9f508","system_id":"levelo_inurba_marseille","lat":43.29197,"lon":5.35804,"is_reserved":false,"is_disabled":false,"rental_uris":{"android":"levelo://app?vid=8e9546ae-18d3-4df6-b40f-cbaa84d9f508","ios":"levelo://app?vid=8e9546ae-18d3-4df6-b40f-cbaa84d9f508"},"vehicle_type_id":"4","last_reported":1783338833,"current_range_meters":6000,"station_id":"ce4bhb12rcd13ifvqel0","pricing_plan_id":"cebpf4jnsgd1na2vs0mg"},{"bike_id":"24101c5c-8eb7-4f51-a037-e1fbe9f469c5","system_id":"levelo_inurba_marseille","lat":43.25031,"lon":5.3792,"is_reserved":false,"is_disabled":false,"rental_uris":{"android":"levelo://app?vid=24101c5c-8eb7-4f51-a037-e1fbe9f469c5","ios":"levelo://app?vid=24101c5c-8eb7-4f51-a037-e1fbe9f469c5"},"vehicle_type_id":"4","last_reported":1783338833,"current_range_meters":6000,"station_id":"","pricing_plan_id":"cebpf4jnsgd1na2vs0mg"},{"bike_id":"04c7155a-d7b5-4ab2-9019-dc9d7b8f85a4","system_id":"levelo_inurba_marseille","lat":43.28256,"lon":5.35085,"is_reserved":false,"is_disabled":false,"rental_uris":{"android":"levelo://app?vid=04c7155a-d7b5-4ab2-9019-dc9d7b8f85a4","ios":"levelo://app?vid=04c7155a-d7b5-4ab2-9019-dc9d7b8f85a4"},"vehicle_type_id":"4","last_reported":1783338833,"current_range_meters":6000,"station_id":"ce4bhbp2rcd13ifvqerg","pricing_plan_id":"cebpf4jnsgd1na2vs0mg"},{"bike_id":"87da481c-7e44-49ce-9617-64ee4bd27ca4","system_id":"levelo_inurba_marseille","lat":43.2641,"lon":5.39879,"is_reserved":false,"is_disabled":false,"rental_uris":{"android":"levelo://app?vid=87da481c-7e44-49ce-9617-64ee4bd27ca4","ios":"levelo://app?vid=87da481c-7e44-49ce-9617-64ee4bd27ca4"},"vehicle_type_id":"4","last_reported":1783338833,"current_range_meters":6000,"station_id":"","pricing_plan_id":"cebpf4jnsgd1na2vs0mg"},{"bike_id":"927f034a-0960-4153-81f1-316c469b9213","system_id":"levelo_inurba_marseille","lat":43.25867,"lon":5.39891,"is_reserved":false,"is_disabled":true,"rental_uris":{"android":"levelo://app?vid=927f034a-0960-4153-81f1-316c469b9213","ios":"levelo://app?vid=927f034a-0960-4153-81f1-316c469b9213"},"vehicle_type_id":"4","last_reported":1783338833,"current_range_meters":6000,"station_id":"ce4bhl92rcd13ifvqghg","pricing_plan_id":"cebpf4jnsgd1na2vs0mg"},{"bike_id":"da995ece-b413-4ae7-8af4-b3e727781c7e","system_id":"levelo_inurba_marseille","lat":43.28479,"lon":5.43747,"is_reserved":false,"is_disabled":false,"rental_uris":{"android":"levelo://app?vid=da995ece-b413-4ae7-8af4-b3e727781c7e","ios":"levelo://app?vid=da995ece-b413-4ae7-8af4-b3e727781c7e"},"vehicle_type_id":"4","last_reported":1783338833,"current_range_meters":6000,"station_id":"","pricing_plan_id":"cebpf4jnsgd1na2vs0mg"},{"bike_id":"268860b7-a6e7-4b6e-a857-94d1ec5f8071","system_id":"levelo_inurba_marseille","lat":43.29194,"lon":5.35792,"is_reserved":false,"is_disabled":true,"rental_uris":{"android":"levelo://app?vid=268860b7-a6e7-4b6e-a857-94d1ec5f8071","ios":"levelo://app?vid=268860b7-a6e7-4b6e-a857-94d1ec5f8071"},"vehicle_type_id":"4","last_reported":1783338833,"current_range_meters":6400,"station_id":"ce4bhb12rcd13ifvqel0","pricing_plan_id":"cebpf4jnsgd1na2vs0mg"},{"bike_id":"4ee984c7-9ea7-4d65-b004-0965f9c95932","system_id":"levelo_inurba_marseille","lat":43.23775,"lon":5.36618,"is_reserved":false,"is_disabled":false,"rental_uris":{"android":"levelo://app?vid=4ee984c7-9ea7-4d65-b004-0965f9c95932","ios":"levelo://app?vid=4ee984c7-9ea7-4d65-b004-0965f9c95932"},"vehicle_type_id":"4","last_reported":1783338833,"current_range_meters":6400,"station_id":"st_d3nk18o9ro0c73en2l3g","pricing_plan_id":"cebpf4jnsgd1na2vs0mg"},{"bike_id":"6584fea4-3aeb-4646-91eb-6103f8071261","system_id":"levelo_inurba_marseille","lat":43.31096,"lon":5.40039,"is_reserved":false,"is_disabled":false,"rental_uris":{"android":"levelo://app?vid=6584fea4-3aeb-4646-91eb-6103f8071261","ios":"levelo://app?vid=6584fea4-3aeb-4646-91eb-6103f8071261"},"vehicle_type_id":"4","last_reported":1783338833,"current_range_meters":6400,"station_id":"","pricing_plan_id":"cebpf4jnsgd1na2vs0mg"},{"bike_id":"fb2e8bd1-8803-4d96-b5e9-5618c029fbea","system_id":"levelo_inurba_marseille","lat":43.28724,"lon":5.37935,"is_reserved":false,"is_disabled":true,"rental_uris":{"android":"levelo://app?vid=fb2e8bd1-8803-4d96-b5e9-5618c029fbea","ios":"levelo://app?vid=fb2e8bd1-8803-4d96-b5e9-5618c029fbea"},"vehicle_type_id":"4","last_reported":1783338833,"current_range_meters":6400,"station_id":"ce4bh9p2rcd13ifvqec0","pricing_plan_id":"cebpf4jnsgd1na2vs0mg"},{"bike_id":"4549dd83-ecbf-487d-8def-62011df84d20","system_id":"levelo_inurba_marseille","lat":43.2496,"lon":5.40498,"is_reserved":false,"is_disabled":false,"rental_uris":{"android":"levelo://app?vid=4549dd83-ecbf-487d-8def-62011df84d20","ios":"levelo://app?vid=4549dd83-ecbf-487d-8def-62011df84d20"},"vehicle_type_id":"4","last_reported":1783338833,"current_range_meters":6400,"station_id":"st_d2ngiaodas8pm72gd1h0","pricing_plan_id":"cebpf4jnsgd1na2vs0mg"},{"bike_id":"c3d94bf3-19b7-443d-bc75-2bac8eb17cbe","system_id":"levelo_inurba_marseille","lat":43.33148,"lon":5.3985,"is_reserved":false,"is_disabled":false,"rental_uris":{"android":"levelo://app?vid=c3d94bf3-19b7-443d-bc75-2bac8eb17cbe","ios":"levelo://app?vid=c3d94bf3-19b7-443d-bc75-2bac8eb17cbe"},"vehicle_type_id":"4","last_reported":1783338833,"current_range_meters":6400,"station_id":"","pricing_plan_id":"cebpf4jnsgd1na2vs0mg"},{"bike_id":"c223056a-cee4-44b0-b411-9e874d6d5516","system_id":"levelo_inurba_marseille","lat":43.29484,"lon":5.39902,"is_reserved":false,"is_disabled":false,"rental_uris":{"android":"levelo://app?vid=c223056a-cee4-44b0-b411-9e874d6d5516","ios":"levelo://app?vid=c223056a-cee4-44b0-b411-9e874d6d5516"},"vehicle_type_id":"4","last_reported":1783338833,"current_range_meters":6400,"station_id":"","pricing_plan_id":"cebpf4jnsgd1na2vs0mg"},{"bike_id":"1b3387d5-b042-4c75-9dea-b2f5bf6f53d4","system_id":"levelo_inurba_marseille","lat":43.24188,"lon":5.39696,"is_reserved":false,"is_disabled":true,"rental_uris":{"android":"levelo://app?vid=1b3387d5-b042-4c75-9dea-b2f5bf6f53d4","ios":"levelo://app?vid=1b3387d5-b042-4c75-9dea-b2f5bf6f53d4"},"vehicle_type_id":"4","last_reported":1783338833,"current_range_meters":6400,"station_id":"ce4bhn12rcd13ifvqgpg","pricing_plan_id":"cebpf4jnsgd1na2vs0mg"},{"bike_id":"75ff83bf-1286-44d7-8a1c-247fc5404876","system_id":"levelo_inurba_marseille","lat":43.3135,"lon":5.36793,"is_reserved":false,"is_disabled":false,"rental_uris":{"android":"levelo://app?vid=75ff83bf-1286-44d7-8a1c-247fc5404876","ios":"levelo://app?vid=75ff83bf-1286-44d7-8a1c-247fc5404876"},"vehicle_type_id":"4","last_reported":1783338833,"current_range_meters":6400,"station_id":"","pricing_plan_id":"cebpf4jnsgd1na2vs0mg"},{"bike_id":"e9c7bfa8-5874-4f90-ad84-6bece76dfa23","system_id":"levelo_inurba_marseille","lat":43.29427,"lon":5.3594,"is_reserved":false,"is_disabled":false,"rental_uris":{"android":"levelo://app?vid=e9c7bfa8-5874-4f90-ad84-6bece76dfa23","ios":"levelo://app?vid=e9c7bfa8-5874-4f90-ad84-6bece76dfa23"},"vehicle_type_id":"4","last_reported":1783338833,"current_range_meters":6400,"station_id":"","pricing_plan_id":"cebpf4jnsgd1na2vs0mg"},{"bike_id":"a76149b9-4d1e-434b-9dce-68b3dea0a305","system_id":"levelo_inurba_marseille","lat":43.31997,"lon":5.38162,"is_reserved":false,"is_disabled":false,"rental_uris":{"android":"levelo://app?vid=a76149b9-4d1e-434b-9dce-68b3dea0a305","ios":"levelo://app?vid=a76149b9-4d1e-434b-9dce-68b3dea0a305"},"vehicle_type_id":"4","last_reported":1783338833,"current_range_meters":6400,"station_id":"ce4bhr12rcd13ifvqhpg","pricing_plan_id":"cebpf4jnsgd1na2vs0mg"},{"bike_id":"32d0abeb-f517-4264-a904-e5817efbc2f5","system_id":"levelo_inurba_marseille","lat":43.28929,"lon":5.38407,"is_reserved":false,"is_disabled":true,"rental_uris":{"android":"levelo://app?vid=32d0abeb-f517-4264-a904-e5817efbc2f5","ios":"levelo://app?vid=32d0abeb-f517-4264-a904-e5817efbc2f5"},"vehicle_type_id":"4","last_reported":1783338833,"current_range_meters":6400,"station_id":"ce4bh612rcd13ifvqe6g","pricing_plan_id":"cebpf4jnsgd1na2vs0mg"},{"bike_id":"c24b0d68-14d9-44af-8b0c-35f8569c6d0c","system_id":"levelo_inurba_marseille","lat":43.28485,"lon":5.38541,"is_reserved":false,"is_disabled":true,"rental_uris":{"android":"levelo://app?vid=c24b0d68-14d9-44af-8b0c-35f8569c6d0c","ios":"levelo://app?vid=c24b0d68-14d9-44af-8b0c-35f8569c6d0c"},"vehicle_type_id":"4","last_reported":1783338833,"current_range_meters":6400,"station_id":"ce4bh8p2rcd13ifvqeb0","pricing_plan_id":"cebpf4jnsgd1na2vs0mg"},{"bike_id":"f4eb42f1-4017-4869-809d-ab0b91df0440","system_id":"levelo_inurba_marseille","lat":43.240764,"lon":5.377593,"is_reserved":false,"is_disabled":false,"rental_uris":{"android":"levelo://app?vid=f4eb42f1-4017-4869-809d-ab0b91df0440","ios":"levelo://app?vid=f4eb42f1-4017-4869-809d-ab0b91df0440"},"vehicle_type_id":"4","last_reported":1783338833,"current_range_meters":6400,"station_id":"ce4bhnp2rcd13ifvqgvg","pricing_plan_id":"cebpf4jnsgd1na2vs0mg"},{"bike_id":"d2974c90-490a-4ce0-82b2-9802a308be0c","system_id":"levelo_inurba_marseille","lat":43.2871,"lon":5.4002,"is_reserved":false,"is_disabled":true,"rental_uris":{"android":"levelo://app?vid=d2974c90-490a-4ce0-82b2-9802a308be0c","ios":"levelo://app?vid=d2974c90-490a-4ce0-82b2-9802a308be0c"},"vehicle_type_id":"4","last_reported":1783338833,"current_range_meters":6400,"station_id":"ce4bho92rcd13ifvqh3g","pricing_plan_id":"cebpf4jnsgd1na2vs0mg"},{"bike_id":"46468b74-5455-42c1-b355-213b9be4a89c","system_id":"levelo_inurba_marseille","lat":43.22531,"lon":5.34829,"is_reserved":false,"is_disabled":false,"rental_uris":{"android":"levelo://app?vid=46468b74-5455-42c1-b355-213b9be4a89c","ios":"levelo://app?vid=46468b74-5455-42c1-b355-213b9be4a89c"},"vehicle_type_id":"4","last_reported":1783338833,"current_range_meters":6400,"station_id":"st_cvj5dfep6f1abm77gieg","pricing_plan_id":"cebpf4jnsgd1na2vs0mg"},{"bike_id":"bb975002-fceb-4e90-ae85-40532adcadad","system_id":"levelo_inurba_marseille","lat":43.289949,"lon":5.38148,"is_reserved":false,"is_disabled":false,"rental_uris":{"android":"levelo://app?vid=bb975002-fceb-4e90-ae85-40532adcadad","ios":"levelo://app?vid=bb975002-fceb-4e90-ae85-40532adcadad"},"vehicle_type_id":"4","last_reported":1783338833,"current_range_meters":6400,"station_id":"","pricing_plan_id":"cebpf4jnsgd1na2vs0mg"},{"bike_id":"14e98b39-b7a8-4608-8aac-1d8635ff8bf5","system_id":"levelo_inurba_marseille","lat":43.28485,"lon":5.48382,"is_reserved":false,"is_disabled":false,"rental_uris":{"android":"levelo://app?vid=14e98b39-b7a8-4608-8aac-1d8635ff8bf5","ios":"levelo://app?vid=14e98b39-b7a8-4608-8aac-1d8635ff8bf5"},"vehicle_type_id":"4","last_reported":1783338833,"current_range_meters":6400,"station_id":"st_d3svhcjqgbts73a3dn0g","pricing_plan_id":"cebpf4jnsgd1na2vs0mg"},{"bike_id":"a2327749-5094-48cb-8a0f-52c7de8de03a","system_id":"levelo_inurba_marseille","lat":43.28718,"lon":5.46706,"is_reserved":false,"is_disabled":false,"rental_uris":{"android":"levelo://app?vid=a2327749-5094-48cb-8a0f-52c7de8de03a","ios":"levelo://app?vid=a2327749-5094-48cb-8a0f-52c7de8de03a"},"vehicle_type_id":"4","last_reported":1783338833,"current_range_meters":6400,"station_id":"st_d6tc3vkotcvc738tfjhg","pricing_plan_id":"cebpf4jnsgd1na2vs0mg"},{"bike_id":"b9b8d713-f78c-4372-912a-c5687f1ab1fe","system_id":"levelo_inurba_marseille","lat":43.27326,"lon":5.3907,"is_reserved":false,"is_disabled":false,"rental_uris":{"android":"levelo://app?vid=b9b8d713-f78c-4372-912a-c5687f1ab1fe","ios":"levelo://app?vid=b9b8d713-f78c-4372-912a-c5687f1ab1fe"},"vehicle_type_id":"4","last_reported":1783338833,"current_range_meters":6400,"station_id":"ce4bhgp2rcd13ifvqfe0","pricing_plan_id":"cebpf4jnsgd1na2vs0mg"},{"bike_id":"85706f81-4982-4276-b755-d4181aa895f9","system_id":"levelo_inurba_marseille","lat":43.28415,"lon":5.3847,"is_reserved":false,"is_disabled":false,"rental_uris":{"android":"levelo://app?vid=85706f81-4982-4276-b755-d4181aa895f9","ios":"levelo://app?vid=85706f81-4982-4276-b755-d4181aa895f9"},"vehicle_type_id":"4","last_reported":1783338833,"current_range_meters":6800,"station_id":"","pricing_plan_id":"cebpf4jnsgd1na2vs0mg"},{"bike_id":"7ca25a96-4e3e-4137-a0cd-a40c842e8b34","system_id":"levelo_inurba_marseille","lat":43.26199,"lon":5.37942,"is_reserved":false,"is_disabled":false,"rental_uris":{"android":"levelo://app?vid=7ca25a96-4e3e-4137-a0cd-a40c842e8b34","ios":"levelo://app?vid=7ca25a96-4e3e-4137-a0cd-a40c842e8b34"},"vehicle_type_id":"4","last_reported":1783338833,"current_range_meters":6800,"station_id":"ce4bhjp2rcd13ifvqg90","pricing_plan_id":"cebpf4jnsgd1na2vs0mg"},{"bike_id":"c157fe32-e5ff-4651-998b-20cd4caf1514","system_id":"levelo_inurba_marseille","lat":43.32011,"lon":5.38161,"is_reserved":false,"is_disabled":false,"rental_uris":{"android":"levelo://app?vid=c157fe32-e5ff-4651-998b-20cd4caf1514","ios":"levelo://app?vid=c157fe32-e5ff-4651-998b-20cd4caf1514"},"vehicle_type_id":"4","last_reported":1783338833,"current_range_meters":6800,"station_id":"ce4bhr12rcd13ifvqhpg","pricing_plan_id":"cebpf4jnsgd1na2vs0mg"},{"bike_id":"5f8491b7-6afe-4763-8c6d-f7eadff0e4de","system_id":"levelo_inurba_marseille","lat":43.2651,"lon":5.36997,"is_reserved":false,"is_disabled":true,"rental_uris":{"android":"levelo://app?vid=5f8491b7-6afe-4763-8c6d-f7eadff0e4de","ios":"levelo://app?vid=5f8491b7-6afe-4763-8c6d-f7eadff0e4de"},"vehicle_type_id":"4","last_reported":1783338833,"current_range_meters":6800,"station_id":"","pricing_plan_id":"cebpf4jnsgd1na2vs0mg"},{"bike_id":"92a0c0cb-0818-4864-a9ba-8af564118461","system_id":"levelo_inurba_marseille","lat":43.32404,"lon":5.37401,"is_reserved":false,"is_disabled":false,"rental_uris":{"android":"levelo://app?vid=92a0c0cb-0818-4864-a9ba-8af564118461","ios":"levelo://app?vid=92a0c0cb-0818-4864-a9ba-8af564118461"},"vehicle_type_id":"4","last_reported":1783338833,"current_range_meters":6800,"station_id":"","pricing_plan_id":"cebpf4jnsgd1na2vs0mg"},{"bike_id":"9db47c28-d135-4619-b753-4c4fa126f9fd","system_id":"levelo_inurba_marseille","lat":43.29225,"lon":5.36077,"is_reserved":false,"is_disabled":true,"rental_uris":{"android":"levelo://app?vid=9db47c28-d135-4619-b753-4c4fa126f9fd","ios":"levelo://app?vid=9db47c28-d135-4619-b753-4c4fa126f9fd"},"vehicle_type_id":"4","last_reported":1783338833,"current_range_meters":6800,"station_id":"ce4bhbh2rcd13ifvqeqg","pricing_plan_id":"cebpf4jnsgd1na2vs0mg"},{"bike_id":"5ee813a1-e546-4536-979e-7aa9bf6e52cd","system_id":"levelo_inurba_marseille","lat":43.29267,"lon":5.38436,"is_reserved":false,"is_disabled":false,"rental_uris":{"android":"levelo://app?vid=5ee813a1-e546-4536-979e-7aa9bf6e52cd","ios":"levelo://app?vid=5ee813a1-e546-4536-979e-7aa9bf6e52cd"},"vehicle_type_id":"4","last_reported":1783338833,"current_range_meters":6800,"station_id":"ce4bh692rcd13ifvqea0","pricing_plan_id":"cebpf4jnsgd1na2vs0mg"},{"bike_id":"d4c27657-31d1-43b4-bb37-fa58fb3a4672","system_id":"levelo_inurba_marseille","lat":43.23907,"lon":5.37455,"is_reserved":false,"is_disabled":false,"rental_uris":{"android":"levelo://app?vid=d4c27657-31d1-43b4-bb37-fa58fb3a4672","ios":"levelo://app?vid=d4c27657-31d1-43b4-bb37-fa58fb3a4672"},"vehicle_type_id":"4","last_reported":1783338833,"current_range_meters":6800,"station_id":"st_d6sm7csbq4hs73f8fpjg","pricing_plan_id":"cebpf4jnsgd1na2vs0mg"},{"bike_id":"ff615668-d490-4429-92e4-68bf4459ec73","system_id":"levelo_inurba_marseille","lat":43.28728,"lon":5.36077,"is_reserved":false,"is_disabled":false,"rental_uris":{"android":"levelo://app?vid=ff615668-d490-4429-92e4-68bf4459ec73","ios":"levelo://app?vid=ff615668-d490-4429-92e4-68bf4459ec73"},"vehicle_type_id":"4","last_reported":1783338833,"current_range_meters":6800,"station_id":"cki0cbj6b192h4jlfktg","pricing_plan_id":"cebpf4jnsgd1na2vs0mg"},{"bike_id":"f56c5a55-490f-470f-bccd-8a878283165b","system_id":"levelo_inurba_marseille","lat":43.3179,"lon":5.36832,"is_reserved":false,"is_disabled":false,"rental_uris":{"android":"levelo://app?vid=f56c5a55-490f-470f-bccd-8a878283165b","ios":"levelo://app?vid=f56c5a55-490f-470f-bccd-8a878283165b"},"vehicle_type_id":"4","last_reported":1783338833,"current_range_meters":6800,"station_id":"","pricing_plan_id":"cebpf4jnsgd1na2vs0mg"},{"bike_id":"0ba407b9-8f7c-4b1d-9764-07d0a46dc2f3","system_id":"levelo_inurba_marseille","lat":43.3053,"lon":5.36712,"is_reserved":false,"is_disabled":false,"rental_uris":{"android":"levelo://app?vid=0ba407b9-8f7c-4b1d-9764-07d0a46dc2f3","ios":"levelo://app?vid=0ba407b9-8f7c-4b1d-9764-07d0a46dc2f3"},"vehicle_type_id":"4","last_reported":1783338833,"current_range_meters":6800,"station_id":"ce4bgrp2rcd13ifvqc9g","pricing_plan_id":"cebpf4jnsgd1na2vs0mg"},{"bike_id":"d7243867-d830-4852-bcaf-39fdde4db026","system_id":"levelo_inurba_marseille","lat":43.2557,"lon":5.38222,"is_reserved":false,"is_disabled":false,"rental_uris":{"android":"levelo://app?vid=d7243867-d830-4852-bcaf-39fdde4db026","ios":"levelo://app?vid=d7243867-d830-4852-bcaf-39fdde4db026"},"vehicle_type_id":"4","last_reported":1783338833,"current_range_meters":6800,"station_id":"ce4bhih2rcd13ifvqfs0","pricing_plan_id":"cebpf4jnsgd1na2vs0mg"},{"bike_id":"71becb9a-ab46-42f9-a9e1-22e903d92813","system_id":"levelo_inurba_marseille","lat":43.261921,"lon":5.374257,"is_reserved":false,"is_disabled":true,"rental_uris":{"android":"levelo://app?vid=71becb9a-ab46-42f9-a9e1-22e903d92813","ios":"levelo://app?vid=71becb9a-ab46-42f9-a9e1-22e903d92813"},"vehicle_type_id":"4","last_reported":1783338833,"current_range_meters":6800,"station_id":"ce4bhgp2rcd13ifvqfc0","pricing_plan_id":"cebpf4jnsgd1na2vs0mg"},{"bike_id":"afe9a566-d8c0-4f06-a183-9935532dd6e0","system_id":"levelo_inurba_marseille","lat":43.25288,"lon":5.37508,"is_reserved":false,"is_disabled":false,"rental_uris":{"android":"levelo://app?vid=afe9a566-d8c0-4f06-a183-9935532dd6e0","ios":"levelo://app?vid=afe9a566-d8c0-4f06-a183-9935532dd6e0"},"vehicle_type_id":"4","last_reported":1783338833,"current_range_meters":6800,"station_id":"","pricing_plan_id":"cebpf4jnsgd1na2vs0mg"},{"bike_id":"1da93bae-13ce-4bad-8162-7c4c7f28fe8c","system_id":"levelo_inurba_marseille","lat":43.24433,"lon":5.36937,"is_reserved":false,"is_disabled":false,"rental_uris":{"android":"levelo://app?vid=1da93bae-13ce-4bad-8162-7c4c7f28fe8c","ios":"levelo://app?vid=1da93bae-13ce-4bad-8162-7c4c7f28fe8c"},"vehicle_type_id":"4","last_reported":1783338833,"current_range_meters":6800,"station_id":"","pricing_plan_id":"cebpf4jnsgd1na2vs0mg"},{"bike_id":"dce70b5e-bfa1-48e4-8fe0-9ec162dd1e48","system_id":"levelo_inurba_marseille","lat":43.26207,"lon":5.41519,"is_reserved":false,"is_disabled":false,"rental_uris":{"android":"levelo://app?vid=dce70b5e-bfa1-48e4-8fe0-9ec162dd1e48","ios":"levelo://app?vid=dce70b5e-bfa1-48e4-8fe0-9ec162dd1e48"},"vehicle_type_id":"4","last_reported":1783338833,"current_range_meters":6800,"station_id":"","pricing_plan_id":"cebpf4jnsgd1na2vs0mg"},{"bike_id":"d5dbb47c-8ba2-4e54-b416-2f0a81f1246b","system_id":"levelo_inurba_marseille","lat":43.32111,"lon":5.36825,"is_reserved":false,"is_disabled":false,"rental_uris":{"android":"levelo://app?vid=d5dbb47c-8ba2-4e54-b416-2f0a81f1246b","ios":"levelo://app?vid=d5dbb47c-8ba2-4e54-b416-2f0a81f1246b"},"vehicle_type_id":"4","last_reported":1783338833,"current_range_meters":6800,"station_id":"ce4bhrh2rcd13ifvqhug","pricing_plan_id":"cebpf4jnsgd1na2vs0mg"},{"bike_id":"3010767e-f640-42ed-b363-badada237844","system_id":"levelo_inurba_marseille","lat":43.30545,"lon":5.36546,"is_reserved":false,"is_disabled":false,"rental_uris":{"android":"levelo://app?vid=3010767e-f640-42ed-b363-badada237844","ios":"levelo://app?vid=3010767e-f640-42ed-b363-badada237844"},"vehicle_type_id":"4","last_reported":1783338833,"current_range_meters":7200,"station_id":"ce4bgs12rcd13ifvqcag","pricing_plan_id":"cebpf4jnsgd1na2vs0mg"},{"bike_id":"72db5589-dfd0-442a-904d-e9c5bdcd1d4f","system_id":"levelo_inurba_marseille","lat":43.31629,"lon":5.37968,"is_reserved":false,"is_disabled":false,"rental_uris":{"android":"levelo://app?vid=72db5589-dfd0-442a-904d-e9c5bdcd1d4f","ios":"levelo://app?vid=72db5589-dfd0-442a-904d-e9c5bdcd1d4f"},"vehicle_type_id":"4","last_reported":1783338833,"current_range_meters":7200,"station_id":"","pricing_plan_id":"cebpf4jnsgd1na2vs0mg"},{"bike_id":"83c84a20-730e-4e01-98ad-96dbfe139b23","system_id":"levelo_inurba_marseille","lat":43.24806,"lon":5.37458,"is_reserved":false,"is_disabled":false,"rental_uris":{"android":"levelo://app?vid=83c84a20-730e-4e01-98ad-96dbfe139b23","ios":"levelo://app?vid=83c84a20-730e-4e01-98ad-96dbfe139b23"},"vehicle_type_id":"4","last_reported":1783338833,"current_range_meters":7200,"station_id":"ce4bhgh2rcd13ifvqfb0","pricing_plan_id":"cebpf4jnsgd1na2vs0mg"},{"bike_id":"4005dd98-0779-4c68-83a5-40299f8ec295","system_id":"levelo_inurba_marseille","lat":43.28442,"lon":5.39209,"is_reserved":false,"is_disabled":false,"rental_uris":{"android":"levelo://app?vid=4005dd98-0779-4c68-83a5-40299f8ec295","ios":"levelo://app?vid=4005dd98-0779-4c68-83a5-40299f8ec295"},"vehicle_type_id":"4","last_reported":1783338833,"current_range_meters":7200,"station_id":"ce4bhoh2rcd13ifvqh5g","pricing_plan_id":"cebpf4jnsgd1na2vs0mg"},{"bike_id":"700367e5-6c87-4c9d-b09c-2b54e001a8c5","system_id":"levelo_inurba_marseille","lat":43.29218,"lon":5.36058,"is_reserved":false,"is_disabled":true,"rental_uris":{"android":"levelo://app?vid=700367e5-6c87-4c9d-b09c-2b54e001a8c5","ios":"levelo://app?vid=700367e5-6c87-4c9d-b09c-2b54e001a8c5"},"vehicle_type_id":"4","last_reported":1783338833,"current_range_meters":7200,"station_id":"ce4bhbh2rcd13ifvqeqg","pricing_plan_id":"cebpf4jnsgd1na2vs0mg"},{"bike_id":"1e08ecd0-50a4-4eb8-afe1-31846af3ed79","system_id":"levelo_inurba_marseille","lat":43.24389,"lon":5.37064,"is_reserved":false,"is_disabled":false,"rental_uris":{"android":"levelo://app?vid=1e08ecd0-50a4-4eb8-afe1-31846af3ed79","ios":"levelo://app?vid=1e08ecd0-50a4-4eb8-afe1-31846af3ed79"},"vehicle_type_id":"4","last_reported":1783338833,"current_range_meters":7200,"station_id":"ce4bhhh2rcd13ifvqfk0","pricing_plan_id":"cebpf4jnsgd1na2vs0mg"},{"bike_id":"8106ca99-f827-40dd-90a5-a5e8ac3a1d30","system_id":"levelo_inurba_marseille","lat":43.2848,"lon":5.48403,"is_reserved":false,"is_disabled":false,"rental_uris":{"android":"levelo://app?vid=8106ca99-f827-40dd-90a5-a5e8ac3a1d30","ios":"levelo://app?vid=8106ca99-f827-40dd-90a5-a5e8ac3a1d30"},"vehicle_type_id":"4","last_reported":1783338833,"current_range_meters":7200,"station_id":"st_d3svhcjqgbts73a3dn0g","pricing_plan_id":"cebpf4jnsgd1na2vs0mg"},{"bike_id":"c080cb97-d429-411b-94f0-5cffa330db91","system_id":"levelo_inurba_marseille","lat":43.24187,"lon":5.39736,"is_reserved":false,"is_disabled":false,"rental_uris":{"android":"levelo://app?vid=c080cb97-d429-411b-94f0-5cffa330db91","ios":"levelo://app?vid=c080cb97-d429-411b-94f0-5cffa330db91"},"vehicle_type_id":"4","last_reported":1783338833,"current_range_meters":7200,"station_id":"ce4bhn12rcd13ifvqgpg","pricing_plan_id":"cebpf4jnsgd1na2vs0mg"},{"bike_id":"978eacfc-093e-4da5-8ac6-7e1b11ee6540","system_id":"levelo_inurba_marseille","lat":43.33556,"lon":5.37519,"is_reserved":false,"is_disabled":false,"rental_uris":{"android":"levelo://app?vid=978eacfc-093e-4da5-8ac6-7e1b11ee6540","ios":"levelo://app?vid=978eacfc-093e-4da5-8ac6-7e1b11ee6540"},"vehicle_type_id":"4","last_reported":1783338833,"current_range_meters":7200,"station_id":"st_d46tts09ee8s73dlu43g","pricing_plan_id":"cebpf4jnsgd1na2vs0mg"},{"bike_id":"489a3b60-7fdc-49f3-8e39-20342089933f","system_id":"levelo_inurba_marseille","lat":43.30522,"lon":5.36547,"is_reserved":false,"is_disabled":false,"rental_uris":{"android":"levelo://app?vid=489a3b60-7fdc-49f3-8e39-20342089933f","ios":"levelo://app?vid=489a3b60-7fdc-49f3-8e39-20342089933f"},"vehicle_type_id":"4","last_reported":1783338833,"current_range_meters":7200,"station_id":"ce4bgs12rcd13ifvqcag","pricing_plan_id":"cebpf4jnsgd1na2vs0mg"},{"bike_id":"71fef714-6c63-4364-af8c-bee37a99ff10","system_id":"levelo_inurba_marseille","lat":43.24804,"lon":5.37461,"is_reserved":false,"is_disabled":false,"rental_uris":{"android":"levelo://app?vid=71fef714-6c63-4364-af8c-bee37a99ff10","ios":"levelo://app?vid=71fef714-6c63-4364-af8c-bee37a99ff10"},"vehicle_type_id":"4","last_reported":1783338833,"current_range_meters":7200,"station_id":"ce4bhgh2rcd13ifvqfb0","pricing_plan_id":"cebpf4jnsgd1na2vs0mg"},{"bike_id":"ac4fcc2a-dde7-409f-b112-e6f7e21d647b","system_id":"levelo_inurba_marseille","lat":43.29999,"lon":5.38181,"is_reserved":false,"is_disabled":false,"rental_uris":{"android":"levelo://app?vid=ac4fcc2a-dde7-409f-b112-e6f7e21d647b","ios":"levelo://app?vid=ac4fcc2a-dde7-409f-b112-e6f7e21d647b"},"vehicle_type_id":"4","last_reported":1783338833,"current_range_meters":7200,"station_id":"","pricing_plan_id":"cebpf4jnsgd1na2vs0mg"},{"bike_id":"b686c42b-1df3-47fc-9997-f3010654edbe","system_id":"levelo_inurba_marseille","lat":43.31364,"lon":5.38502,"is_reserved":false,"is_disabled":false,"rental_uris":{"android":"levelo://app?vid=b686c42b-1df3-47fc-9997-f3010654edbe","ios":"levelo://app?vid=b686c42b-1df3-47fc-9997-f3010654edbe"},"vehicle_type_id":"4","last_reported":1783338833,"current_range_meters":7200,"station_id":"ce4bgt92rcd13ifvqcf0","pricing_plan_id":"cebpf4jnsgd1na2vs0mg"},{"bike_id":"4996a355-8dfb-496b-a2b0-24d36771391a","system_id":"levelo_inurba_marseille","lat":43.21177,"lon":5.35079,"is_reserved":false,"is_disabled":false,"rental_uris":{"android":"levelo://app?vid=4996a355-8dfb-496b-a2b0-24d36771391a","ios":"levelo://app?vid=4996a355-8dfb-496b-a2b0-24d36771391a"},"vehicle_type_id":"4","last_reported":1783338833,"current_range_meters":7200,"station_id":"st_cvj6sg6p6f1abm77japg","pricing_plan_id":"cebpf4jnsgd1na2vs0mg"},{"bike_id":"4d5b3ba0-9275-4b23-97a3-832f857cb614","system_id":"levelo_inurba_marseille","lat":43.31221,"lon":5.36881,"is_reserved":false,"is_disabled":false,"rental_uris":{"android":"levelo://app?vid=4d5b3ba0-9275-4b23-97a3-832f857cb614","ios":"levelo://app?vid=4d5b3ba0-9275-4b23-97a3-832f857cb614"},"vehicle_type_id":"4","last_reported":1783338833,"current_range_meters":7200,"station_id":"ce4bgl92rcd13ifvqbq0","pricing_plan_id":"cebpf4jnsgd1na2vs0mg"},{"bike_id":"1ba6b8d5-a035-4632-bf04-7bde0fa5e7b5","system_id":"levelo_inurba_marseille","lat":43.32485,"lon":5.36567,"is_reserved":false,"is_disabled":false,"rental_uris":{"android":"levelo://app?vid=1ba6b8d5-a035-4632-bf04-7bde0fa5e7b5","ios":"levelo://app?vid=1ba6b8d5-a035-4632-bf04-7bde0fa5e7b5"},"vehicle_type_id":"4","last_reported":1783338833,"current_range_meters":7200,"station_id":"ce4bhs12rcd13ifvqhvg","pricing_plan_id":"cebpf4jnsgd1na2vs0mg"},{"bike_id":"11db4a1c-c58a-4165-8d22-3e24d0455675","system_id":"levelo_inurba_marseille","lat":43.30949,"lon":5.39012,"is_reserved":false,"is_disabled":false,"rental_uris":{"android":"levelo://app?vid=11db4a1c-c58a-4165-8d22-3e24d0455675","ios":"levelo://app?vid=11db4a1c-c58a-4165-8d22-3e24d0455675"},"vehicle_type_id":"4","last_reported":1783338833,"current_range_meters":7200,"station_id":"ce4bgup2rcd13ifvqco0","pricing_plan_id":"cebpf4jnsgd1na2vs0mg"},{"bike_id":"61011a8c-e519-483b-84f4-cf6e52b5d19c","system_id":"levelo_inurba_marseille","lat":43.27969,"lon":5.38742,"is_reserved":false,"is_disabled":false,"rental_uris":{"android":"levelo://app?vid=61011a8c-e519-483b-84f4-cf6e52b5d19c","ios":"levelo://app?vid=61011a8c-e519-483b-84f4-cf6e52b5d19c"},"vehicle_type_id":"4","last_reported":1783338833,"current_range_meters":7200,"station_id":"ce4bhg12rcd13ifvqf80","pricing_plan_id":"cebpf4jnsgd1na2vs0mg"},{"bike_id":"1b5fd56e-4e80-4902-8582-5f138f36b818","system_id":"levelo_inurba_marseille","lat":43.23154,"lon":5.4372,"is_reserved":false,"is_disabled":false,"rental_uris":{"android":"levelo://app?vid=1b5fd56e-4e80-4902-8582-5f138f36b818","ios":"levelo://app?vid=1b5fd56e-4e80-4902-8582-5f138f36b818"},"vehicle_type_id":"4","last_reported":1783338833,"current_range_meters":8000,"station_id":"ce4bhmp2rcd13ifvqgog","pricing_plan_id":"cebpf4jnsgd1na2vs0mg"},{"bike_id":"ab3219eb-bda7-4c24-8bb8-3a41799407b6","system_id":"levelo_inurba_marseille","lat":43.33756,"lon":5.37445,"is_reserved":false,"is_disabled":false,"rental_uris":{"android":"levelo://app?vid=ab3219eb-bda7-4c24-8bb8-3a41799407b6","ios":"levelo://app?vid=ab3219eb-bda7-4c24-8bb8-3a41799407b6"},"vehicle_type_id":"4","last_reported":1783338833,"current_range_meters":8000,"station_id":"","pricing_plan_id":"cebpf4jnsgd1na2vs0mg"},{"bike_id":"8ac11b8f-6291-4a9a-aa8b-eefc105a96f2","system_id":"levelo_inurba_marseille","lat":43.30424,"lon":5.39794,"is_reserved":false,"is_disabled":false,"rental_uris":{"android":"levelo://app?vid=8ac11b8f-6291-4a9a-aa8b-eefc105a96f2","ios":"levelo://app?vid=8ac11b8f-6291-4a9a-aa8b-eefc105a96f2"},"vehicle_type_id":"4","last_reported":1783338833,"current_range_meters":8000,"station_id":"ce4bh092rcd13ifvqd20","pricing_plan_id":"cebpf4jnsgd1na2vs0mg"},{"bike_id":"f1fa67ea-70e8-494e-90f1-3cd8a54e2aac","system_id":"levelo_inurba_marseille","lat":43.28281,"lon":5.35067,"is_reserved":false,"is_disabled":true,"rental_uris":{"android":"levelo://app?vid=f1fa67ea-70e8-494e-90f1-3cd8a54e2aac","ios":"levelo://app?vid=f1fa67ea-70e8-494e-90f1-3cd8a54e2aac"},"vehicle_type_id":"4","last_reported":1783338833,"current_range_meters":8000,"station_id":"ce4bhbp2rcd13ifvqerg","pricing_plan_id":"cebpf4jnsgd1na2vs0mg"},{"bike_id":"a9de9f06-5ad3-4267-b8e5-66ab81f9e206","system_id":"levelo_inurba_marseille","lat":43.23775,"lon":5.36631,"is_reserved":false,"is_disabled":false,"rental_uris":{"android":"levelo://app?vid=a9de9f06-5ad3-4267-b8e5-66ab81f9e206","ios":"levelo://app?vid=a9de9f06-5ad3-4267-b8e5-66ab81f9e206"},"vehicle_type_id":"4","last_reported":1783338833,"current_range_meters":8000,"station_id":"st_d3nk18o9ro0c73en2l3g","pricing_plan_id":"cebpf4jnsgd1na2vs0mg"},{"bike_id":"df8ce680-348e-47d0-92ea-a06487739a15","system_id":"levelo_inurba_marseille","lat":43.30057,"lon":5.38355,"is_reserved":false,"is_disabled":false,"rental_uris":{"android":"levelo://app?vid=df8ce680-348e-47d0-92ea-a06487739a15","ios":"levelo://app?vid=df8ce680-348e-47d0-92ea-a06487739a15"},"vehicle_type_id":"4","last_reported":1783338833,"current_range_meters":8000,"station_id":"","pricing_plan_id":"cebpf4jnsgd1na2vs0mg"},{"bike_id":"5c27c21d-e49d-4272-89f4-b58751c04dc1","system_id":"levelo_inurba_marseille","lat":43.23433,"lon":5.38123,"is_reserved":false,"is_disabled":false,"rental_uris":{"android":"levelo://app?vid=5c27c21d-e49d-4272-89f4-b58751c04dc1","ios":"levelo://app?vid=5c27c21d-e49d-4272-89f4-b58751c04dc1"},"vehicle_type_id":"4","last_reported":1783338833,"current_range_meters":8000,"station_id":"","pricing_plan_id":"cebpf4jnsgd1na2vs0mg"},{"bike_id":"f97b2962-952f-4675-9f09-93ce493a22ba","system_id":"levelo_inurba_marseille","lat":43.29033,"lon":5.38642,"is_reserved":false,"is_disabled":false,"rental_uris":{"android":"levelo://app?vid=f97b2962-952f-4675-9f09-93ce493a22ba","ios":"levelo://app?vid=f97b2962-952f-4675-9f09-93ce493a22ba"},"vehicle_type_id":"4","last_reported":1783338833,"current_range_meters":8000,"station_id":"ce4bh4p2rcd13ifvqe0g","pricing_plan_id":"cebpf4jnsgd1na2vs0mg"},{"bike_id":"773f950c-1a37-4f11-85a7-7cbf338fd285","system_id":"levelo_inurba_marseille","lat":43.24957,"lon":5.40503,"is_reserved":false,"is_disabled":false,"rental_uris":{"android":"levelo://app?vid=773f950c-1a37-4f11-85a7-7cbf338fd285","ios":"levelo://app?vid=773f950c-1a37-4f11-85a7-7cbf338fd285"},"vehicle_type_id":"4","last_reported":1783338833,"current_range_meters":8000,"station_id":"st_d2ngiaodas8pm72gd1h0","pricing_plan_id":"cebpf4jnsgd1na2vs0mg"},{"bike_id":"cc738f32-f811-4e3f-b968-0bc0d7c9be0d","system_id":"levelo_inurba_marseille","lat":43.29261,"lon":5.40916,"is_reserved":false,"is_disabled":true,"rental_uris":{"android":"levelo://app?vid=cc738f32-f811-4e3f-b968-0bc0d7c9be0d","ios":"levelo://app?vid=cc738f32-f811-4e3f-b968-0bc0d7c9be0d"},"vehicle_type_id":"4","last_reported":1783338833,"current_range_meters":8000,"station_id":"ce4bh192rcd13ifvqdc0","pricing_plan_id":"cebpf4jnsgd1na2vs0mg"},{"bike_id":"3112c030-03e7-4ad3-a895-94002cb7d5c7","system_id":"levelo_inurba_marseille","lat":43.23961,"lon":5.3662,"is_reserved":false,"is_disabled":true,"rental_uris":{"android":"levelo://app?vid=3112c030-03e7-4ad3-a895-94002cb7d5c7","ios":"levelo://app?vid=3112c030-03e7-4ad3-a895-94002cb7d5c7"},"vehicle_type_id":"4","last_reported":1783338833,"current_range_meters":8000,"station_id":"ce4bhi12rcd13ifvqfp0","pricing_plan_id":"cebpf4jnsgd1na2vs0mg"},{"bike_id":"4014f91a-ee33-44ef-b529-b234e9656f9c","system_id":"levelo_inurba_marseille","lat":43.26978,"lon":5.40581,"is_reserved":false,"is_disabled":false,"rental_uris":{"android":"levelo://app?vid=4014f91a-ee33-44ef-b529-b234e9656f9c","ios":"levelo://app?vid=4014f91a-ee33-44ef-b529-b234e9656f9c"},"vehicle_type_id":"4","last_reported":1783338833,"current_range_meters":8000,"station_id":"","pricing_plan_id":"cebpf4jnsgd1na2vs0mg"},{"bike_id":"34ed2b61-2d24-44e5-8a59-4c31441ea853","system_id":"levelo_inurba_marseille","lat":43.26235,"lon":5.38787,"is_reserved":false,"is_disabled":false,"rental_uris":{"android":"levelo://app?vid=34ed2b61-2d24-44e5-8a59-4c31441ea853","ios":"levelo://app?vid=34ed2b61-2d24-44e5-8a59-4c31441ea853"},"vehicle_type_id":"4","last_reported":1783338833,"current_range_meters":8000,"station_id":"st_d8gjfg747rts73coq3b0","pricing_plan_id":"cebpf4jnsgd1na2vs0mg"},{"bike_id":"677846a9-b8d6-4f3a-8407-9ce11dbd2718","system_id":"levelo_inurba_marseille","lat":43.21746,"lon":5.34607,"is_reserved":false,"is_disabled":false,"rental_uris":{"android":"levelo://app?vid=677846a9-b8d6-4f3a-8407-9ce11dbd2718","ios":"levelo://app?vid=677846a9-b8d6-4f3a-8407-9ce11dbd2718"},"vehicle_type_id":"4","last_reported":1783338833,"current_range_meters":8000,"station_id":"st_cvj6r9ubvosntc0bgbag","pricing_plan_id":"cebpf4jnsgd1na2vs0mg"},{"bike_id":"f818dd43-8988-47cb-912c-6dbe93f69579","system_id":"levelo_inurba_marseille","lat":43.293,"lon":5.37462,"is_reserved":false,"is_disabled":false,"rental_uris":{"android":"levelo://app?vid=f818dd43-8988-47cb-912c-6dbe93f69579","ios":"levelo://app?vid=f818dd43-8988-47cb-912c-6dbe93f69579"},"vehicle_type_id":"4","last_reported":1783338833,"current_range_meters":8000,"station_id":"ce4bgi12rcd13ifvqb70","pricing_plan_id":"cebpf4jnsgd1na2vs0mg"},{"bike_id":"d0b958a4-0781-4a1e-83d0-28cb0b198006","system_id":"levelo_inurba_marseille","lat":43.29596,"lon":5.38597,"is_reserved":false,"is_disabled":false,"rental_uris":{"android":"levelo://app?vid=d0b958a4-0781-4a1e-83d0-28cb0b198006","ios":"levelo://app?vid=d0b958a4-0781-4a1e-83d0-28cb0b198006"},"vehicle_type_id":"4","last_reported":1783338833,"current_range_meters":8000,"station_id":"","pricing_plan_id":"cebpf4jnsgd1na2vs0mg"},{"bike_id":"bf006c5a-f473-40f1-9b25-6a7c1c1aa79d","system_id":"levelo_inurba_marseille","lat":43.28265,"lon":5.35072,"is_reserved":false,"is_disabled":false,"rental_uris":{"android":"levelo://app?vid=bf006c5a-f473-40f1-9b25-6a7c1c1aa79d","ios":"levelo://app?vid=bf006c5a-f473-40f1-9b25-6a7c1c1aa79d"},"vehicle_type_id":"4","last_reported":1783338833,"current_range_meters":8000,"station_id":"ce4bhbp2rcd13ifvqerg","pricing_plan_id":"cebpf4jnsgd1na2vs0mg"},{"bike_id":"febe731b-eddf-4c48-9e7e-17588e64904a","system_id":"levelo_inurba_marseille","lat":43.299724,"lon":5.367532,"is_reserved":false,"is_disabled":false,"rental_uris":{"android":"levelo://app?vid=febe731b-eddf-4c48-9e7e-17588e64904a","ios":"levelo://app?vid=febe731b-eddf-4c48-9e7e-17588e64904a"},"vehicle_type_id":"4","last_reported":1783338833,"current_range_meters":8000,"station_id":"","pricing_plan_id":"cebpf4jnsgd1na2vs0mg"},{"bike_id":"a40fac1c-fdae-4a33-8735-3f7c9c669ebe","system_id":"levelo_inurba_marseille","lat":43.29737,"lon":5.38242,"is_reserved":false,"is_disabled":false,"rental_uris":{"android":"levelo://app?vid=a40fac1c-fdae-4a33-8735-3f7c9c669ebe","ios":"levelo://app?vid=a40fac1c-fdae-4a33-8735-3f7c9c669ebe"},"vehicle_type_id":"4","last_reported":1783338833,"current_range_meters":8400,"station_id":"","pricing_plan_id":"cebpf4jnsgd1na2vs0mg"},{"bike_id":"d7c33e32-1bf6-466d-abaf-8816e2645afe","system_id":"levelo_inurba_marseille","lat":43.31895,"lon":5.40736,"is_reserved":false,"is_disabled":true,"rental_uris":{"android":"levelo://app?vid=d7c33e32-1bf6-466d-abaf-8816e2645afe","ios":"levelo://app?vid=d7c33e32-1bf6-466d-abaf-8816e2645afe"},"vehicle_type_id":"4","last_reported":1783338833,"current_range_meters":8400,"station_id":"ce4bhq12rcd13ifvqhig","pricing_plan_id":"cebpf4jnsgd1na2vs0mg"},{"bike_id":"52688b43-18e1-43b3-994b-b8a5739f27b7","system_id":"levelo_inurba_marseille","lat":43.25113,"lon":5.40339,"is_reserved":false,"is_disabled":false,"rental_uris":{"android":"levelo://app?vid=52688b43-18e1-43b3-994b-b8a5739f27b7","ios":"levelo://app?vid=52688b43-18e1-43b3-994b-b8a5739f27b7"},"vehicle_type_id":"4","last_reported":1783338833,"current_range_meters":8400,"station_id":"ce4bhlh2rcd13ifvqgig","pricing_plan_id":"cebpf4jnsgd1na2vs0mg"},{"bike_id":"4461f359-e578-4853-804a-593f2289f613","system_id":"levelo_inurba_marseille","lat":43.29649,"lon":5.4014,"is_reserved":false,"is_disabled":false,"rental_uris":{"android":"levelo://app?vid=4461f359-e578-4853-804a-593f2289f613","ios":"levelo://app?vid=4461f359-e578-4853-804a-593f2289f613"},"vehicle_type_id":"4","last_reported":1783338833,"current_range_meters":8400,"station_id":"","pricing_plan_id":"cebpf4jnsgd1na2vs0mg"},{"bike_id":"d6dcb6f7-e0af-4be4-a896-463850c7a739","system_id":"levelo_inurba_marseille","lat":43.23899,"lon":5.37462,"is_reserved":false,"is_disabled":true,"rental_uris":{"android":"levelo://app?vid=d6dcb6f7-e0af-4be4-a896-463850c7a739","ios":"levelo://app?vid=d6dcb6f7-e0af-4be4-a896-463850c7a739"},"vehicle_type_id":"4","last_reported":1783338833,"current_range_meters":8400,"station_id":"st_d6sm7csbq4hs73f8fpjg","pricing_plan_id":"cebpf4jnsgd1na2vs0mg"},{"bike_id":"043c2c43-2596-4f30-8123-f69d134d13b1","system_id":"levelo_inurba_marseille","lat":43.27687,"lon":5.38951,"is_reserved":false,"is_disabled":false,"rental_uris":{"android":"levelo://app?vid=043c2c43-2596-4f30-8123-f69d134d13b1","ios":"levelo://app?vid=043c2c43-2596-4f30-8123-f69d134d13b1"},"vehicle_type_id":"4","last_reported":1783338833,"current_range_meters":8400,"station_id":"","pricing_plan_id":"cebpf4jnsgd1na2vs0mg"},{"bike_id":"d0c1e1e8-f57f-4c0d-871c-25556d6c2415","system_id":"levelo_inurba_marseille","lat":43.31186,"lon":5.37105,"is_reserved":false,"is_disabled":false,"rental_uris":{"android":"levelo://app?vid=d0c1e1e8-f57f-4c0d-871c-25556d6c2415","ios":"levelo://app?vid=d0c1e1e8-f57f-4c0d-871c-25556d6c2415"},"vehicle_type_id":"4","last_reported":1783338833,"current_range_meters":8400,"station_id":"","pricing_plan_id":"cebpf4jnsgd1na2vs0mg"},{"bike_id":"e08fc74e-e451-4f24-ac5f-579fadc941d9","system_id":"levelo_inurba_marseille","lat":43.33165,"lon":5.37735,"is_reserved":false,"is_disabled":false,"rental_uris":{"android":"levelo://app?vid=e08fc74e-e451-4f24-ac5f-579fadc941d9","ios":"levelo://app?vid=e08fc74e-e451-4f24-ac5f-579fadc941d9"},"vehicle_type_id":"4","last_reported":1783338833,"current_range_meters":8400,"station_id":"st_d46cu089ee8s73dldbu0","pricing_plan_id":"cebpf4jnsgd1na2vs0mg"},{"bike_id":"4b71ea7a-3ffc-4ca2-a5b0-91fcaaf1579c","system_id":"levelo_inurba_marseille","lat":43.30311,"lon":5.38265,"is_reserved":false,"is_disabled":false,"rental_uris":{"android":"levelo://app?vid=4b71ea7a-3ffc-4ca2-a5b0-91fcaaf1579c","ios":"levelo://app?vid=4b71ea7a-3ffc-4ca2-a5b0-91fcaaf1579c"},"vehicle_type_id":"4","last_reported":1783338833,"current_range_meters":8400,"station_id":"","pricing_plan_id":"cebpf4jnsgd1na2vs0mg"},{"bike_id":"1ba829f8-b1b3-42c4-b7d6-56798fbfb19b","system_id":"levelo_inurba_marseille","lat":43.28435,"lon":5.35168,"is_reserved":false,"is_disabled":false,"rental_uris":{"android":"levelo://app?vid=1ba829f8-b1b3-42c4-b7d6-56798fbfb19b","ios":"levelo://app?vid=1ba829f8-b1b3-42c4-b7d6-56798fbfb19b"},"vehicle_type_id":"4","last_reported":1783338833,"current_range_meters":8400,"station_id":"","pricing_plan_id":"cebpf4jnsgd1na2vs0mg"},{"bike_id":"4bb72506-4f3b-4ca7-992e-20cc9c7bb1d6","system_id":"levelo_inurba_marseille","lat":43.24722,"lon":5.41854,"is_reserved":false,"is_disabled":false,"rental_uris":{"android":"levelo://app?vid=4bb72506-4f3b-4ca7-992e-20cc9c7bb1d6","ios":"levelo://app?vid=4bb72506-4f3b-4ca7-992e-20cc9c7bb1d6"},"vehicle_type_id":"4","last_reported":1783338833,"current_range_meters":8400,"station_id":"","pricing_plan_id":"cebpf4jnsgd1na2vs0mg"},{"bike_id":"eee1ab4f-0966-4dad-963e-be6cfdcaaa46","system_id":"levelo_inurba_marseille","lat":43.24537,"lon":5.39523,"is_reserved":false,"is_disabled":true,"rental_uris":{"android":"levelo://app?vid=eee1ab4f-0966-4dad-963e-be6cfdcaaa46","ios":"levelo://app?vid=eee1ab4f-0966-4dad-963e-be6cfdcaaa46"},"vehicle_type_id":"4","last_reported":1783338833,"current_range_meters":8400,"station_id":"ce4bhlp2rcd13ifvqgjg","pricing_plan_id":"cebpf4jnsgd1na2vs0mg"},{"bike_id":"73377ad8-1017-4729-947b-411971e4f44b","system_id":"levelo_inurba_marseille","lat":43.27748,"lon":5.41822,"is_reserved":false,"is_disabled":false,"rental_uris":{"android":"levelo://app?vid=73377ad8-1017-4729-947b-411971e4f44b","ios":"levelo://app?vid=73377ad8-1017-4729-947b-411971e4f44b"},"vehicle_type_id":"4","last_reported":1783338833,"current_range_meters":8400,"station_id":"","pricing_plan_id":"cebpf4jnsgd1na2vs0mg"},{"bike_id":"ec21b348-a79c-45e5-a2ca-3a10372453e7","system_id":"levelo_inurba_marseille","lat":43.31919,"lon":5.3988,"is_reserved":false,"is_disabled":false,"rental_uris":{"android":"levelo://app?vid=ec21b348-a79c-45e5-a2ca-3a10372453e7","ios":"levelo://app?vid=ec21b348-a79c-45e5-a2ca-3a10372453e7"},"vehicle_type_id":"4","last_reported":1783338833,"current_range_meters":8400,"station_id":"","pricing_plan_id":"cebpf4jnsgd1na2vs0mg"},{"bike_id":"8f9589bc-5102-48ec-bff3-0aa876684c01","system_id":"levelo_inurba_marseille","lat":43.2982,"lon":5.4407,"is_reserved":false,"is_disabled":true,"rental_uris":{"android":"levelo://app?vid=8f9589bc-5102-48ec-bff3-0aa876684c01","ios":"levelo://app?vid=8f9589bc-5102-48ec-bff3-0aa876684c01"},"vehicle_type_id":"4","last_reported":1783338833,"current_range_meters":8400,"station_id":"st_d3jp68qikq2c7381ktn0","pricing_plan_id":"cebpf4jnsgd1na2vs0mg"},{"bike_id":"9e5a2ef5-40b8-4842-abef-5a9e0877c3d7","system_id":"levelo_inurba_marseille","lat":43.28475,"lon":5.48401,"is_reserved":false,"is_disabled":false,"rental_uris":{"android":"levelo://app?vid=9e5a2ef5-40b8-4842-abef-5a9e0877c3d7","ios":"levelo://app?vid=9e5a2ef5-40b8-4842-abef-5a9e0877c3d7"},"vehicle_type_id":"4","last_reported":1783338833,"current_range_meters":8400,"station_id":"st_d3svhcjqgbts73a3dn0g","pricing_plan_id":"cebpf4jnsgd1na2vs0mg"},{"bike_id":"392c3337-6c79-43a2-8793-f52cbbcc2fa9","system_id":"levelo_inurba_marseille","lat":43.26561,"lon":5.42098,"is_reserved":false,"is_disabled":false,"rental_uris":{"android":"levelo://app?vid=392c3337-6c79-43a2-8793-f52cbbcc2fa9","ios":"levelo://app?vid=392c3337-6c79-43a2-8793-f52cbbcc2fa9"},"vehicle_type_id":"4","last_reported":1783338833,"current_range_meters":8400,"station_id":"","pricing_plan_id":"cebpf4jnsgd1na2vs0mg"},{"bike_id":"903a8d73-3e85-4052-8ea2-b67ffb0321fe","system_id":"levelo_inurba_marseille","lat":43.30873,"lon":5.36856,"is_reserved":false,"is_disabled":false,"rental_uris":{"android":"levelo://app?vid=903a8d73-3e85-4052-8ea2-b67ffb0321fe","ios":"levelo://app?vid=903a8d73-3e85-4052-8ea2-b67ffb0321fe"},"vehicle_type_id":"4","last_reported":1783338833,"current_range_meters":8400,"station_id":"ce4bgn92rcd13ifvqbvg","pricing_plan_id":"cebpf4jnsgd1na2vs0mg"},{"bike_id":"3693dc1e-17b5-4023-adc8-597a047615fd","system_id":"levelo_inurba_marseille","lat":43.28941,"lon":5.3664,"is_reserved":false,"is_disabled":false,"rental_uris":{"android":"levelo://app?vid=3693dc1e-17b5-4023-adc8-597a047615fd","ios":"levelo://app?vid=3693dc1e-17b5-4023-adc8-597a047615fd"},"vehicle_type_id":"4","last_reported":1783338833,"current_range_meters":8400,"station_id":"ce4bhap2rcd13ifvqek0","pricing_plan_id":"cebpf4jnsgd1na2vs0mg"},{"bike_id":"6c034547-84ec-496b-b01c-f88b93ca2686","system_id":"levelo_inurba_marseille","lat":43.24956,"lon":5.40505,"is_reserved":false,"is_disabled":false,"rental_uris":{"android":"levelo://app?vid=6c034547-84ec-496b-b01c-f88b93ca2686","ios":"levelo://app?vid=6c034547-84ec-496b-b01c-f88b93ca2686"},"vehicle_type_id":"4","last_reported":1783338833,"current_range_meters":8400,"station_id":"st_d2ngiaodas8pm72gd1h0","pricing_plan_id":"cebpf4jnsgd1na2vs0mg"},{"bike_id":"20ec29c3-56be-45d5-be9c-414b94796951","system_id":"levelo_inurba_marseille","lat":43.2792,"lon":5.39586,"is_reserved":false,"is_disabled":false,"rental_uris":{"android":"levelo://app?vid=20ec29c3-56be-45d5-be9c-414b94796951","ios":"levelo://app?vid=20ec29c3-56be-45d5-be9c-414b94796951"},"vehicle_type_id":"4","last_reported":1783338833,"current_range_meters":8800,"station_id":"ce4bhf92rcd13ifvqf40","pricing_plan_id":"cebpf4jnsgd1na2vs0mg"},{"bike_id":"b7889e1a-d6a9-4bee-950f-b9ab53371ccd","system_id":"levelo_inurba_marseille","lat":43.33018,"lon":5.39061,"is_reserved":false,"is_disabled":false,"rental_uris":{"android":"levelo://app?vid=b7889e1a-d6a9-4bee-950f-b9ab53371ccd","ios":"levelo://app?vid=b7889e1a-d6a9-4bee-950f-b9ab53371ccd"},"vehicle_type_id":"4","last_reported":1783338833,"current_range_meters":8800,"station_id":"ce4bhr92rcd13ifvqhrg","pricing_plan_id":"cebpf4jnsgd1na2vs0mg"},{"bike_id":"7fb54030-81c0-4653-ab50-a6e69be8636f","system_id":"levelo_inurba_marseille","lat":43.26072,"lon":5.37471,"is_reserved":false,"is_disabled":false,"rental_uris":{"android":"levelo://app?vid=7fb54030-81c0-4653-ab50-a6e69be8636f","ios":"levelo://app?vid=7fb54030-81c0-4653-ab50-a6e69be8636f"},"vehicle_type_id":"4","last_reported":1783338833,"current_range_meters":8800,"station_id":"","pricing_plan_id":"cebpf4jnsgd1na2vs0mg"},{"bike_id":"e90b35ca-545d-4ba0-9ead-801e526b5559","system_id":"levelo_inurba_marseille","lat":43.29257,"lon":5.38436,"is_reserved":false,"is_disabled":false,"rental_uris":{"android":"levelo://app?vid=e90b35ca-545d-4ba0-9ead-801e526b5559","ios":"levelo://app?vid=e90b35ca-545d-4ba0-9ead-801e526b5559"},"vehicle_type_id":"4","last_reported":1783338833,"current_range_meters":8800,"station_id":"ce4bh692rcd13ifvqea0","pricing_plan_id":"cebpf4jnsgd1na2vs0mg"},{"bike_id":"47f21026-4eec-4bb3-967a-1aff5f7e9435","system_id":"levelo_inurba_marseille","lat":43.28481,"lon":5.38532,"is_reserved":false,"is_disabled":false,"rental_uris":{"android":"levelo://app?vid=47f21026-4eec-4bb3-967a-1aff5f7e9435","ios":"levelo://app?vid=47f21026-4eec-4bb3-967a-1aff5f7e9435"},"vehicle_type_id":"4","last_reported":1783338833,"current_range_meters":8800,"station_id":"ce4bh8p2rcd13ifvqeb0","pricing_plan_id":"cebpf4jnsgd1na2vs0mg"},{"bike_id":"86e4f781-3982-4257-a386-8aedf18fc4a8","system_id":"levelo_inurba_marseille","lat":43.27811,"lon":5.39177,"is_reserved":false,"is_disabled":false,"rental_uris":{"android":"levelo://app?vid=86e4f781-3982-4257-a386-8aedf18fc4a8","ios":"levelo://app?vid=86e4f781-3982-4257-a386-8aedf18fc4a8"},"vehicle_type_id":"4","last_reported":1783338833,"current_range_meters":8800,"station_id":"ce4bhjp2rcd13ifvqga0","pricing_plan_id":"cebpf4jnsgd1na2vs0mg"},{"bike_id":"83d12e0d-3fc3-4698-9356-2ed0ddaaa337","system_id":"levelo_inurba_marseille","lat":43.231475,"lon":5.437153,"is_reserved":false,"is_disabled":false,"rental_uris":{"android":"levelo://app?vid=83d12e0d-3fc3-4698-9356-2ed0ddaaa337","ios":"levelo://app?vid=83d12e0d-3fc3-4698-9356-2ed0ddaaa337"},"vehicle_type_id":"4","last_reported":1783338833,"current_range_meters":8800,"station_id":"ce4bhmp2rcd13ifvqgog","pricing_plan_id":"cebpf4jnsgd1na2vs0mg"},{"bike_id":"c7a3de34-d1b4-4ccd-aa12-305bade0272c","system_id":"levelo_inurba_marseille","lat":43.2175,"lon":5.34599,"is_reserved":false,"is_disabled":false,"rental_uris":{"android":"levelo://app?vid=c7a3de34-d1b4-4ccd-aa12-305bade0272c","ios":"levelo://app?vid=c7a3de34-d1b4-4ccd-aa12-305bade0272c"},"vehicle_type_id":"4","last_reported":1783338833,"current_range_meters":8800,"station_id":"st_cvj6r9ubvosntc0bgbag","pricing_plan_id":"cebpf4jnsgd1na2vs0mg"},{"bike_id":"5afcb3b2-7417-472d-b268-4140794fd1eb","system_id":"levelo_inurba_marseille","lat":43.23355,"lon":5.41189,"is_reserved":false,"is_disabled":false,"rental_uris":{"android":"levelo://app?vid=5afcb3b2-7417-472d-b268-4140794fd1eb","ios":"levelo://app?vid=5afcb3b2-7417-472d-b268-4140794fd1eb"},"vehicle_type_id":"4","last_reported":1783338833,"current_range_meters":8800,"station_id":"st_d75pvndhf9lc73cqq3eg","pricing_plan_id":"cebpf4jnsgd1na2vs0mg"},{"bike_id":"f7809977-bda7-43e8-bb7e-4bef8b6f0f97","system_id":"levelo_inurba_marseille","lat":43.30011,"lon":5.37361,"is_reserved":false,"is_disabled":false,"rental_uris":{"android":"levelo://app?vid=f7809977-bda7-43e8-bb7e-4bef8b6f0f97","ios":"levelo://app?vid=f7809977-bda7-43e8-bb7e-4bef8b6f0f97"},"vehicle_type_id":"4","last_reported":1783338833,"current_range_meters":8800,"station_id":"","pricing_plan_id":"cebpf4jnsgd1na2vs0mg"},{"bike_id":"61287fb3-39d9-4390-b23d-f995c3bf09cc","system_id":"levelo_inurba_marseille","lat":43.28446,"lon":5.39204,"is_reserved":false,"is_disabled":false,"rental_uris":{"android":"levelo://app?vid=61287fb3-39d9-4390-b23d-f995c3bf09cc","ios":"levelo://app?vid=61287fb3-39d9-4390-b23d-f995c3bf09cc"},"vehicle_type_id":"4","last_reported":1783338833,"current_range_meters":8800,"station_id":"ce4bhoh2rcd13ifvqh5g","pricing_plan_id":"cebpf4jnsgd1na2vs0mg"},{"bike_id":"19f607a3-0a54-4eff-a69a-0f6684840ec5","system_id":"levelo_inurba_marseille","lat":43.24945,"lon":5.40487,"is_reserved":false,"is_disabled":false,"rental_uris":{"android":"levelo://app?vid=19f607a3-0a54-4eff-a69a-0f6684840ec5","ios":"levelo://app?vid=19f607a3-0a54-4eff-a69a-0f6684840ec5"},"vehicle_type_id":"4","last_reported":1783338833,"current_range_meters":8800,"station_id":"st_d2ngiaodas8pm72gd1h0","pricing_plan_id":"cebpf4jnsgd1na2vs0mg"},