{"last_updated":1736406520,"ttl":60,"version":"2.2","data":{"bikes":[{"bike_id":"fd09b6dd-a930-4254-9561-2bfbddb06a72","system_id":"levelo_inurba_marseille","lat":43.30479,"lon":5.37911,"is_reserved":false,"is_disabled":false,"rental_uris":{"android":"levelo://app?vid=fd09b6dd-a930-4254-9561-2bfbddb06a72","ios":"levelo://app?vid=fd09b6dd-a930-4254-9561-2bfbddb06a72"},"vehicle_type_id":"4","last_reported":1736406520,"current_range_meters":38800,"station_id":"ce4bgup2rcd13ifvqcn0","pricing_plan_id":"cebpf4jnsgd1na2vs0mg"},{"bike_id":"1db5158e-767d-4ae3-99cf-55245b9ab73b","system_id":"levelo_inurba_marseille","lat":43.23953,"lon":5.36651,"is_reserved":false,"is_disabled":false,"rental_uris":{"android":"levelo://app?vid=1db5158e-767d-4ae3-99cf-55245b9ab73b","ios":"levelo://app?vid=1db5158e-767d-4ae3-99cf-55245b9ab73b"},"vehicle_type_id":"4","last_reported":1736406520,"current_range_meters":23200,"station_id":"ce4bhi12rcd13ifvqfp0","pricing_plan_id":"cebpf4jnsgd1na2vs0mg"},{"bike_id":"424b02a3-71fc-4629-934b-0ffcd9c06e9e","system_id":"levelo_inurba_marseille","lat":43.30876,"lon":5.39653,"is_reserved":false,"is_disabled":false,"rental_uris":{"android":"levelo://app?vid=424b02a3-71fc-4629-934b-0ffcd9c06e9e","ios":"levelo://app?vid=424b02a3-71fc-4629-934b-0ffcd9c06e9e"},"vehicle_type_id":"4","last_reported":1736406520,"current_range_meters":37600,"station_id":"ce4bh012rcd13ifvqcv0","pricing_plan_id":"cebpf4jnsgd1na2vs0mg"},{"bike_id":"c2aea2f4-9f3f-4be6-9d98-23b4bb3c1c50","system_id":"levelo_inurba_marseille","lat":43.24235,"lon":5.37947,"is_reserved":false,"is_disabled":false,"rental_uris":{"android":"levelo://app?vid=c2aea2f4-9f3f-4be6-9d98-23b4bb3c1c50","ios":"levelo://app?vid=c2aea2f4-9f3f-4be6-9d98-23b4bb3c1c50"},"vehicle_type_id":"4","last_reported":1736406520,"current_range_meters":14000,"station_id":"ce4bhnp2rcd13ifvqgvg","pricing_plan_id":"cebpf4jnsgd1na2vs0mg"},{"bike_id":"9b5c5205-d5c6-4893-b6de-21cc35d594a1","system_id":"levelo_inurba_marseille","lat":43.26558,"lon":5.38997,"is_reserved":false,"is_disabled":false,"rental_uris":{"android":"levelo://app?vid=9b5c5205-d5c6-4893-b6de-21cc35d594a1","ios":"levelo://app?vid=9b5c5205-d5c6-4893-b6de-21cc35d594a1"},"vehicle_type_id":"4","last_reported":1736406520,"current_range_meters":12800,"station_id":"ce4bhe12rcd13ifvqf30","pricing_plan_id":"cebpf4jnsgd1na2vs0mg"},{"bike_id":"079a2489-d193-414b-8b47-82e93bfb4b65","system_id":"levelo_inurba_marseille","lat":43.28883,"lon":5.38018,"is_reserved":false,"is_disabled":false,"rental_uris":{"android":"levelo://app?vid=079a2489-d193-414b-8b47-82e93bfb4b65","ios":"levelo://app?vid=079a2489-d193-414b-8b47-82e93bfb4b65"},"vehicle_type_id":"4","last_reported":1736406520,"current_range_meters":34000,"station_id":"","pricing_plan_id":"cebpf4jnsgd1na2vs0mg"},{"bike_id":"38b313e7-9a2f-452f-bdb8-d453ae7237a3","system_id":"levelo_inurba_marseille","lat":43.27486,"lon":5.42453,"is_reserved":false,"is_disabled":false,"rental_uris":{"android":"levelo://app?vid=38b313e7-9a2f-452f-bdb8-d453ae7237a3","ios":"levelo://app?vid=38b313e7-9a2f-452f-bdb8-d453ae7237a3"},"vehicle_type_id":"4","last_reported":1736406520,"current_range_meters":38800,"station_id":"ce4bhn92rcd13ifvqgrg","pricing_plan_id":"cebpf4jnsgd1na2vs0mg"},{"bike_id":"41d6970c-e10d-400f-848a-5bd88654fc55","system_id":"levelo_inurba_marseille","lat":43.28208,"lon":5.40344,"is_reserved":false,"is_disabled":false,"rental_uris":{"android":"levelo://app?vid=41d6970c-e10d-400f-848a-5bd88654fc55","ios":"levelo://app?vid=41d6970c-e10d-400f-848a-5bd88654fc55"},"vehicle_type_id":"4","last_reported":1736406520,"current_range_meters":13600,"station_id":"","pricing_plan_id":"cebpf4jnsgd1na2vs0mg"},{"bike_id":"c25da445-2bd6-4668-92d8-67b9db836116","system_id":"levelo_inurba_marseille","lat":43.30588,"lon":5.37619,"is_reserved":false,"is_disabled":true,"rental_uris":{"android":"levelo://app?vid=c25da445-2bd6-4668-92d8-67b9db836116","ios":"levelo://app?vid=c25da445-2bd6-4668-92d8-67b9db836116"},"vehicle_type_id":"4","last_reported":1736406520,"current_range_meters":2000,"station_id":"","pricing_plan_id":"cebpf4jnsgd1na2vs0mg"},{"bike_id":"79167e8a-95b6-4db3-abed-314db13fc8c6","system_id":"levelo_inurba_marseille","lat":43.29555,"lon":5.42281,"is_reserved":false,"is_disabled":false,"rental_uris":{"android":"levelo://app?vid=79167e8a-95b6-4db3-abed-314db13fc8c6","ios":"levelo://app?vid=79167e8a-95b6-4db3-abed-314db13fc8c6"},"vehicle_type_id":"4","last_reported":1736406520,"current_range_meters":39200,"station_id":"ce4bhph2rcd13ifvqhdg","pricing_plan_id":"cebpf4jnsgd1na2vs0mg"},{"bike_id":"051ee3d7-17a2-401e-9bd5-08261edf66ab","system_id":"levelo_inurba_marseille","lat":43.25939,"lon":5.40904,"is_reserved":false,"is_disabled":false,"rental_uris":{"android":"levelo://app?vid=051ee3d7-17a2-401e-9bd5-08261edf66ab","ios":"levelo://app?vid=051ee3d7-17a2-401e-9bd5-08261edf66ab"},"vehicle_type_id":"4","last_reported":1736406520,"current_range_meters":22000,"station_id":"ce4bhm92rcd13ifvqglg","pricing_plan_id":"cebpf4jnsgd1na2vs0mg"},{"bike_id":"1d87dcc6-0d99-437e-b1de-d99e02c4975a","system_id":"levelo_inurba_marseille","lat":43.30945,"lon":5.39026,"is_reserved":false,"is_disabled":false,"rental_uris":{"android":"levelo://app?vid=1d87dcc6-0d99-437e-b1de-d99e02c4975a","ios":"levelo://app?vid=1d87dcc6-0d99-437e-b1de-d99e02c4975a"},"vehicle_type_id":"4","last_reported":1736406520,"current_range_meters":19600,"station_id":"ce4bgup2rcd13ifvqco0","pricing_plan_id":"cebpf4jnsgd1na2vs0mg"},{"bike_id":"784c114c-6b4b-4d66-8437-8a364b7d7999","system_id":"levelo_inurba_marseille","lat":43.33718,"lon":5.39177,"is_reserved":false,"is_disabled":false,"rental_uris":{"android":"levelo://app?vid=784c114c-6b4b-4d66-8437-8a364b7d7999","ios":"levelo://app?vid=784c114c-6b4b-4d66-8437-8a364b7d7999"},"vehicle_type_id":"4","last_reported":1736406520,"current_range_meters":30800,"station_id":"ce4bhr92rcd13ifvqhsg","pricing_plan_id":"cebpf4jnsgd1na2vs0mg"},{"bike_id":"d28e2f9e-0a71-4b44-a0c9-91e88d95df50","system_id":"levelo_inurba_marseille","lat":43.28267,"lon":5.35054,"is_reserved":false,"is_disabled":false,"rental_uris":{"android":"levelo://app?vid=d28e2f9e-0a71-4b44-a0c9-91e88d95df50","ios":"levelo://app?vid=d28e2f9e-0a71-4b44-a0c9-91e88d95df50"},"vehicle_type_id":"4","last_reported":1736406520,"current_range_meters":37600,"station_id":"ce4bhbp2rcd13ifvqerg","pricing_plan_id":"cebpf4jnsgd1na2vs0mg"},{"bike_id":"b527bb75-0dc2-484e-8ef8-1c7057e4dec2","system_id":"levelo_inurba_marseille","lat":43.2903,"lon":5.38642,"is_reserved":false,"is_disabled":false,"rental_uris":{"android":"levelo://app?vid=b527bb75-0dc2-484e-8ef8-1c7057e4dec2","ios":"levelo://app?vid=b527bb75-0dc2-484e-8ef8-1c7057e4dec2"},"vehicle_type_id":"4","last_reported":1736406520,"current_range_meters":32400,"station_id":"ce4bh4p2rcd13ifvqe0g","pricing_plan_id":"cebpf4jnsgd1na2vs0mg"},{"bike_id":"ece82557-6569-4215-9027-5b44a37fe52e","system_id":"levelo_inurba_marseille","lat":43.290718,"lon":5.380126,"is_reserved":false,"is_disabled":true,"rental_uris":{"android":"levelo://app?vid=ece82557-6569-4215-9027-5b44a37fe52e","ios":"levelo://app?vid=ece82557-6569-4215-9027-5b44a37fe52e"},"vehicle_type_id":"4","last_reported":1736406520,"current_range_meters":0,"station_id":"","pricing_plan_id":"cebpf4jnsgd1na2vs0mg"},{"bike_id":"27867ec6-dc38-4e93-906a-9fa049ef4236","system_id":"levelo_inurba_marseille","lat":43.30554,"lon":5.36701,"is_reserved":false,"is_disabled":false,"rental_uris":{"android":"levelo://app?vid=27867ec6-dc38-4e93-906a-9fa049ef4236","ios":"levelo://app?vid=27867ec6-dc38-4e93-906a-9fa049ef4236"},"vehicle_type_id":"4","last_reported":1736406520,"current_range_meters":38800,"station_id":"ce4bgrp2rcd13ifvqc9g","pricing_plan_id":"cebpf4jnsgd1na2vs0mg"},{"bike_id":"088f591d-5a85-4e82-8673-eab18061f6a6","system_id":"levelo_inurba_marseille","lat":43.30591,"lon":5.39352,"is_reserved":false,"is_disabled":false,"rental_uris":{"android":"levelo://app?vid=088f591d-5a85-4e82-8673-eab18061f6a6","ios":"levelo://app?vid=088f591d-5a85-4e82-8673-eab18061f6a6"},"vehicle_type_id":"4","last_reported":1736406520,"current_range_meters":26800,"station_id":"ce4bh0p2rcd13ifvqd80","pricing_plan_id":"cebpf4jnsgd1na2vs0mg"},{"bike_id":"f40a23e1-4db4-43c9-bf26-5d3436aadc87","system_id":"levelo_inurba_marseille","lat":43.28359,"lon":5.3864,"is_reserved":false,"is_disabled":true,"rental_uris":{"android":"levelo://app?vid=f40a23e1-4db4-43c9-bf26-5d3436aadc87","ios":"levelo://app?vid=f40a23e1-4db4-43c9-bf26-5d3436aadc87"},"vehicle_type_id":"4","last_reported":1736406520,"current_range_meters":36000,"station_id":"ce4bh492rcd13ifvqdvg","pricing_plan_id":"cebpf4jnsgd1na2vs0mg"},{"bike_id":"efbc13d8-a15f-41bc-b68a-9c78a57ff274","system_id":"levelo_inurba_marseille","lat":43.31361,"lon":5.36715,"is_reserved":false,"is_disabled":false,"rental_uris":{"android":"levelo://app?vid=efbc13d8-a15f-41bc-b68a-9c78a57ff274","ios":"levelo://app?vid=efbc13d8-a15f-41bc-b68a-9c78a57ff274"},"vehicle_type_id":"4","last_reported":1736406520,"current_range_meters":35200,"station_id":"ce4bgr92rcd13ifvqc6g","pricing_plan_id":"cebpf4jnsgd1na2vs0mg"},{"bike_id":"73eb524f-2d58-4a00-9fa5-76f6077910dd","system_id":"levelo_inurba_marseille","lat":43.23196,"lon":5.39985,"is_reserved":false,"is_disabled":true,"rental_uris":{"android":"levelo://app?vid=73eb524f-2d58-4a00-9fa5-76f6077910dd","ios":"levelo://app?vid=73eb524f-2d58-4a00-9fa5-76f6077910dd"},"vehicle_type_id":"4","last_reported":1736406520,"current_range_meters":9200,"station_id":"ce4bhn12rcd13ifvqgqg","pricing_plan_id":"cebpf4jnsgd1na2vs0mg"},{"bike_id":"56927883-162a-4449-b147-a1ca9b8005ba","system_id":"levelo_inurba_marseille","lat":43.2862,"lon":5.35095,"is_reserved":false,"is_disabled":false,"rental_uris":{"android":"levelo://app?vid=56927883-162a-4449-b147-a1ca9b8005ba","ios":"levelo://app?vid=56927883-162a-4449-b147-a1ca9b8005ba"},"vehicle_type_id":"4","last_reported":1736406520,"current_range_meters":14800,"station_id":"ce4bhch2rcd13ifvqeug","pricing_plan_id":"cebpf4jnsgd1na2vs0mg"},{"bike_id":"2199d219-e0ca-4b28-a772-ba63161f237a","system_id":"levelo_inurba_marseille","lat":43.32115,"lon":5.36764,"is_reserved":false,"is_disabled":false,"rental_uris":{"android":"levelo://app?vid=2199d219-e0ca-4b28-a772-ba63161f237a","ios":"levelo://app?vid=2199d219-e0ca-4b28-a772-ba63161f237a"},"vehicle_type_id":"4","last_reported":1736406520,"current_range_meters":14000,"station_id":"ce4bhrh2rcd13ifvqhug","pricing_plan_id":"cebpf4jnsgd1na2vs0mg"},{"bike_id":"68050027-080d-4972-98c7-270cea0f120d","system_id":"levelo_inurba_marseille","lat":43.24394,"lon":5.37056,"is_reserved":false,"is_disabled":false,"rental_uris":{"android":"levelo://app?vid=68050027-080d-4972-98c7-270cea0f120d","ios":"levelo://app?vid=68050027-080d-4972-98c7-270cea0f120d"},"vehicle_type_id":"4","last_reported":1736406520,"current_range_meters":6000,"station_id":"ce4bhhh2rcd13ifvqfk0","pricing_plan_id":"cebpf4jnsgd1na2vs0mg"},{"bike_id":"8f31d92a-9bf4-41df-91d0-5167720ff5af","system_id":"levelo_inurba_marseille","lat":43.30943,"lon":5.39026,"is_reserved":false,"is_disabled":false,"rental_uris":{"android":"levelo://app?vid=8f31d92a-9bf4-41df-91d0-5167720ff5af","ios":"levelo://app?vid=8f31d92a-9bf4-41df-91d0-5167720ff5af"},"vehicle_type_id":"4","last_reported":1736406520,"current_range_meters":38400,"station_id":"ce4bgup2rcd13ifvqco0","pricing_plan_id":"cebpf4jnsgd1na2vs0mg"},{"bike_id":"de4fc73f-dc82-490e-b241-7c27da93ee4f","system_id":"levelo_inurba_marseille","lat":43.2997,"lon":5.38488,"is_reserved":false,"is_disabled":false,"rental_uris":{"android":"levelo://app?vid=de4fc73f-dc82-490e-b241-7c27da93ee4f","ios":"levelo://app?vid=de4fc73f-dc82-490e-b241-7c27da93ee4f"},"vehicle_type_id":"4","last_reported":1736406520,"current_range_meters":38800,"station_id":"ce4bgj92rcd13ifvqbd0","pricing_plan_id":"cebpf4jnsgd1na2vs0mg"},{"bike_id":"e99c27fb-7798-40ac-99df-368bf4419c54","system_id":"levelo_inurba_marseille","lat":43.29797,"lon":5.38087,"is_reserved":false,"is_disabled":false,"rental_uris":{"android":"levelo://app?vid=e99c27fb-7798-40ac-99df-368bf4419c54","ios":"levelo://app?vid=e99c27fb-7798-40ac-99df-368bf4419c54"},"vehicle_type_id":"4","last_reported":1736406520,"current_range_meters":36000,"station_id":"ce4bgip2rcd13ifvqbb0","pricing_plan_id":"cebpf4jnsgd1na2vs0mg"},{"bike_id":"f9797068-a616-4d41-9fe6-cccf2c34403c","system_id":"levelo_inurba_marseille","lat":43.28938,"lon":5.39631,"is_reserved":false,"is_disabled":false,"rental_uris":{"android":"levelo://app?vid=f9797068-a616-4d41-9fe6-cccf2c34403c","ios":"levelo://app?vid=f9797068-a616-4d41-9fe6-cccf2c34403c"},"vehicle_type_id":"4","last_reported":1736406520,"current_range_meters":36800,"station_id":"ce4bh3h2rcd13ifvqdn0","pricing_plan_id":"cebpf4jnsgd1na2vs0mg"},{"bike_id":"5f01e351-0beb-4bec-99a6-8ccfaafab549","system_id":"levelo_inurba_marseille","lat":43.29018,"lon":5.38123,"is_reserved":false,"is_disabled":true,"rental_uris":{"android":"levelo://app?vid=5f01e351-0beb-4bec-99a6-8ccfaafab549","ios":"levelo://app?vid=5f01e351-0beb-4bec-99a6-8ccfaafab549"},"vehicle_type_id":"4","last_reported":1736406520,"current_range_meters":38000,"station_id":"ce4bh4p2rcd13ifvqe1g","pricing_plan_id":"cebpf4jnsgd1na2vs0mg"},{"bike_id":"ee384e3e-9647-4264-93b1-5fa6ffb0a512","system_id":"levelo_inurba_marseille","lat":43.2752,"lon":5.4247,"is_reserved":false,"is_disabled":false,"rental_uris":{"android":"levelo://app?vid=ee384e3e-9647-4264-93b1-5fa6ffb0a512","ios":"levelo://app?vid=ee384e3e-9647-4264-93b1-5fa6ffb0a512"},"vehicle_type_id":"4","last_reported":1736406520,"current_range_meters":28400,"station_id":"ce4bhn92rcd13ifvqgrg","pricing_plan_id":"cebpf4jnsgd1na2vs0mg"},{"bike_id":"7dec6aae-3a5e-48d2-8ad8-6396fd199003","system_id":"levelo_inurba_marseille","lat":43.33756,"lon":5.39186,"is_reserved":false,"is_disabled":false,"rental_uris":{"android":"levelo://app?vid=7dec6aae-3a5e-48d2-8ad8-6396fd199003","ios":"levelo://app?vid=7dec6aae-3a5e-48d2-8ad8-6396fd199003"},"vehicle_type_id":"4","last_reported":1736406520,"current_range_meters":38800,"station_id":"ce4bhr92rcd13ifvqhsg","pricing_plan_id":"cebpf4jnsgd1na2vs0mg"},{"bike_id":"6cef133b-2783-4159-bcaf-db8e9f6852c9","system_id":"levelo_inurba_marseille","lat":43.26962,"lon":5.40276,"is_reserved":false,"is_disabled":false,"rental_uris":{"android":"levelo://app?vid=6cef133b-2783-4159-bcaf-db8e9f6852c9","ios":"levelo://app?vid=6cef133b-2783-4159-bcaf-db8e9f6852c9"},"vehicle_type_id":"4","last_reported":1736406520,"current_range_meters":38000,"station_id":"cjm6bp8fraef2m0cb0m0","pricing_plan_id":"cebpf4jnsgd1na2vs0mg"},{"bike_id":"1aefdccc-7e2b-45c1-a671-e6f4e5d94ebb","system_id":"levelo_inurba_marseille","lat":43.34139,"lon":5.40902,"is_reserved":false,"is_disabled":false,"rental_uris":{"android":"levelo://app?vid=1aefdccc-7e2b-45c1-a671-e6f4e5d94ebb","ios":"levelo://app?vid=1aefdccc-7e2b-45c1-a671-e6f4e5d94ebb"},"vehicle_type_id":"4","last_reported":1736406520,"current_range_meters":35600,"station_id":"ce4bhqh2rcd13ifvqhlg","pricing_plan_id":"cebpf4jnsgd1na2vs0mg"},{"bike_id":"e64ccaa1-341f-4e45-98d3-5478b7337fac","system_id":"levelo_inurba_marseille","lat":43.27495,"lon":5.42446,"is_reserved":false,"is_disabled":false,"rental_uris":{"android":"levelo://app?vid=e64ccaa1-341f-4e45-98d3-5478b7337fac","ios":"levelo://app?vid=e64ccaa1-341f-4e45-98d3-5478b7337fac"},"vehicle_type_id":"4","last_reported":1736406520,"current_range_meters":24400,"station_id":"ce4bhn92rcd13ifvqgrg","pricing_plan_id":"cebpf4jnsgd1na2vs0mg"},{"bike_id":"027fb515-cf5e-4431-9b8b-d23328baea59","system_id":"levelo_inurba_marseille","lat":43.23447,"lon":5.41169,"is_reserved":false,"is_disabled":false,"rental_uris":{"android":"levelo://app?vid=027fb515-cf5e-4431-9b8b-d23328baea59","ios":"levelo://app?vid=027fb515-cf5e-4431-9b8b-d23328baea59"},"vehicle_type_id":"4","last_reported":1736406520,"current_range_meters":16000,"station_id":"","pricing_plan_id":"cebpf4jnsgd1na2vs0mg"},{"bike_id":"88949504-6208-41c0-b499-f6b0d65f210e","system_id":"levelo_inurba_marseille","lat":43.28416,"lon":5.38056,"is_reserved":false,"is_disabled":false,"rental_uris":{"android":"levelo://app?vid=88949504-6208-41c0-b499-f6b0d65f210e","ios":"levelo://app?vid=88949504-6208-41c0-b499-f6b0d65f210e"},"vehicle_type_id":"4","last_reported":1736406520,"current_range_meters":36400,"station_id":"ce4bh412rcd13ifvqdr0","pricing_plan_id":"cebpf4jnsgd1na2vs0mg"},{"bike_id":"0548464b-ef06-42b9-8259-a8997dec7927","system_id":"levelo_inurba_marseille","lat":43.29367,"lon":5.37842,"is_reserved":false,"is_disabled":true,"rental_uris":{"android":"levelo://app?vid=0548464b-ef06-42b9-8259-a8997dec7927","ios":"levelo://app?vid=0548464b-ef06-42b9-8259-a8997dec7927"},"vehicle_type_id":"4","last_reported":1736406520,"current_range_meters":38000,"station_id":"ce4bgjh2rcd13ifvqbf0","pricing_plan_id":"cebpf4jnsgd1na2vs0mg"},{"bike_id":"be4c59f4-a498-44be-a430-245c96b05e75","system_id":"levelo_inurba_marseille","lat":43.328221,"lon":5.391689,"is_reserved":false,"is_disabled":false,"rental_uris":{"android":"levelo://app?vid=be4c59f4-a498-44be-a430-245c96b05e75","ios":"levelo://app?vid=be4c59f4-a498-44be-a430-245c96b05e75"},"vehicle_type_id":"4","last_reported":1736406520,"current_range_meters":11600,"station_id":"","pricing_plan_id":"cebpf4jnsgd1na2vs0mg"},{"bike_id":"feeeae9a-4bcc-477a-bc8c-e9391fa8aedd","system_id":"levelo_inurba_marseille","lat":43.29169,"lon":5.39295,"is_reserved":false,"is_disabled":true,"rental_uris":{"android":"levelo://app?vid=feeeae9a-4bcc-477a-bc8c-e9391fa8aedd","ios":"levelo://app?vid=feeeae9a-4bcc-477a-bc8c-e9391fa8aedd"},"vehicle_type_id":"4","last_reported":1736406520,"current_range_meters":0,"station_id":"ce4bh192rcd13ifvqdd0","pricing_plan_id":"cebpf4jnsgd1na2vs0mg"},{"bike_id":"b790555e-c645-4797-938b-5d140e18e6e6","system_id":"levelo_inurba_marseille","lat":43.30476,"lon":5.37917,"is_reserved":false,"is_disabled":false,"rental_uris":{"android":"levelo://app?vid=b790555e-c645-4797-938b-5d140e18e6e6","ios":"levelo://app?vid=b790555e-c645-4797-938b-5d140e18e6e6"},"vehicle_type_id":"4","last_reported":1736406520,"current_range_meters":37600,"station_id":"ce4bgup2rcd13ifvqcn0","pricing_plan_id":"cebpf4jnsgd1na2vs0mg"},{"bike_id":"dbe4d7d2-95f9-4a28-b000-f9ac7c3f52eb","system_id":"levelo_inurba_marseille","lat":43.29197,"lon":5.39298,"is_reserved":false,"is_disabled":true,"rental_uris":{"android":"levelo://app?vid=dbe4d7d2-95f9-4a28-b000-f9ac7c3f52eb","ios":"levelo://app?vid=dbe4d7d2-95f9-4a28-b000-f9ac7c3f52eb"},"vehicle_type_id":"4","last_reported":1736406520,"current_range_meters":400,"station_id":"ce4bh192rcd13ifvqdd0","pricing_plan_id":"cebpf4jnsgd1na2vs0mg"},{"bike_id":"b02ae6ee-06d8-4b9f-9872-c8fcf9b7576a","system_id":"levelo_inurba_marseille","lat":43.3055,"lon":5.3655,"is_reserved":false,"is_disabled":true,"rental_uris":{"android":"levelo://app?vid=b02ae6ee-06d8-4b9f-9872-c8fcf9b7576a","ios":"levelo://app?vid=b02ae6ee-06d8-4b9f-9872-c8fcf9b7576a"},"vehicle_type_id":"4","last_reported":1736406520,"current_range_meters":20800,"station_id":"ce4bgs12rcd13ifvqcag","pricing_plan_id":"cebpf4jnsgd1na2vs0mg"},{"bike_id":"3a93b626-6488-4c23-9c41-ac11a0e46d18","system_id":"levelo_inurba_marseille","lat":43.30952,"lon":5.39044,"is_reserved":false,"is_disabled":false,"rental_uris":{"android":"levelo://app?vid=3a93b626-6488-4c23-9c41-ac11a0e46d18","ios":"levelo://app?vid=3a93b626-6488-4c23-9c41-ac11a0e46d18"},"vehicle_type_id":"4","last_reported":1736406520,"current_range_meters":20400,"station_id":"ce4bgup2rcd13ifvqco0","pricing_plan_id":"cebpf4jnsgd1na2vs0mg"},{"bike_id":"88d3281d-3774-4453-a399-da9a7778c29e","system_id":"levelo_inurba_marseille","lat":43.26563,"lon":5.39007,"is_reserved":false,"is_disabled":true,"rental_uris":{"android":"levelo://app?vid=88d3281d-3774-4453-a399-da9a7778c29e","ios":"levelo://app?vid=88d3281d-3774-4453-a399-da9a7778c29e"},"vehicle_type_id":"4","last_reported":1736406520,"current_range_meters":400,"station_id":"ce4bhe12rcd13ifvqf30","pricing_plan_id":"cebpf4jnsgd1na2vs0mg"},{"bike_id":"c3dbeb28-ca99-422a-92f2-16cfc21a1ad7","system_id":"levelo_inurba_marseille","lat":43.30601,"lon":5.39363,"is_reserved":false,"is_disabled":false,"rental_uris":{"android":"levelo://app?vid=c3dbeb28-ca99-422a-92f2-16cfc21a1ad7","ios":"levelo://app?vid=c3dbeb28-ca99-422a-92f2-16cfc21a1ad7"},"vehicle_type_id":"4","last_reported":1736406520,"current_range_meters":25600,"station_id":"ce4bh0p2rcd13ifvqd80","pricing_plan_id":"cebpf4jnsgd1na2vs0mg"},{"bike_id":"e5410bec-fb17-4f9c-8010-02da077ef2ca","system_id":"levelo_inurba_marseille","lat":43.27981,"lon":5.38755,"is_reserved":false,"is_disabled":false,"rental_uris":{"android":"levelo://app?vid=e5410bec-fb17-4f9c-8010-02da077ef2ca","ios":"levelo://app?vid=e5410bec-fb17-4f9c-8010-02da077ef2ca"},"vehicle_type_id":"4","last_reported":1736406520,"current_range_meters":6400,"station_id":"ce4bhg12rcd13ifvqf80","pricing_plan_id":"cebpf4jnsgd1na2vs0mg"},{"bike_id":"f998e369-1ffd-45eb-b926-75c2b92a3024","system_id":"levelo_inurba_marseille","lat":43.29278,"lon":5.40116,"is_reserved":false,"is_disabled":false,"rental_uris":{"android":"levelo://app?vid=f998e369-1ffd-45eb-b926-75c2b92a3024","ios":"levelo://app?vid=f998e369-1ffd-45eb-b926-75c2b92a3024"},"vehicle_type_id":"4","last_reported":1736406520,"current_range_meters":32400,"station_id":"ce4bh312rcd13ifvqdk0","pricing_plan_id":"cebpf4jnsgd1na2vs0mg"},{"bike_id":"5a510936-ef30-4d40-ad66-b08ff6fa754c","system_id":"levelo_inurba_marseille","lat":43.30962,"lon":5.3907,"is_reserved":false,"is_disabled":false,"rental_uris":{"android":"levelo://app?vid=5a510936-ef30-4d40-ad66-b08ff6fa754c","ios":"levelo://app?vid=5a510936-ef30-4d40-ad66-b08ff6fa754c"},"vehicle_type_id":"4","last_reported":1736406520,"current_range_meters":39200,"station_id":"ce4bgup2rcd13ifvqco0","pricing_plan_id":"cebpf4jnsgd1na2vs0mg"},{"bike_id":"f5f2ea4c-9879-498b-9100-0a05f023fb34","system_id":"levelo_inurba_marseille","lat":43.28942,"lon":5.36643,"is_reserved":false,"is_disabled":false,"rental_uris":{"android":"levelo://app?vid=f5f2ea4c-9879-498b-9100-0a05f023fb34","ios":"levelo://app?vid=f5f2ea4c-9879-498b-9100-0a05f023fb34"},"vehicle_type_id":"4","last_reported":1736406520,"current_range_meters":24000,"station_id":"ce4bhap2rcd13ifvqek0","pricing_plan_id":"cebpf4jnsgd1na2vs0mg"},{"bike_id":"260ad999-6910-4ca2-bb14-f62dc04964ab","system_id":"levelo_inurba_marseille","lat":43.25006,"lon":5.38926,"is_reserved":false,"is_disabled":false,"rental_uris":{"android":"levelo://app?vid=260ad999-6910-4ca2-bb14-f62dc04964ab","ios":"levelo://app?vid=260ad999-6910-4ca2-bb14-f62dc04964ab"},"vehicle_type_id":"4","last_reported":1736406520,"current_range_meters":4000,"station_id":"ce4bhgp2rcd13ifvqfd0","pricing_plan_id":"cebpf4jnsgd1na2vs0mg"},{"bike_id":"203882bc-d15e-430f-85de-2e7151a43996","system_id":"levelo_inurba_marseille","lat":43.30782,"lon":5.37647,"is_reserved":false,"is_disabled":false,"rental_uris":{"android":"levelo://app?vid=203882bc-d15e-430f-85de-2e7151a43996","ios":"levelo://app?vid=203882bc-d15e-430f-85de-2e7151a43996"},"vehicle_type_id":"4","last_reported":1736406520,"current_range_meters":36800,"station_id":"ce4bgv92rcd13ifvqcq0","pricing_plan_id":"cebpf4jnsgd1na2vs0mg"},{"bike_id":"62c17a2a-95a1-4fa6-bcce-42552dd81ec1","system_id":"levelo_inurba_marseille","lat":43.3149,"lon":5.37317,"is_reserved":false,"is_disabled":true,"rental_uris":{"android":"levelo://app?vid=62c17a2a-95a1-4fa6-bcce-42552dd81ec1","ios":"levelo://app?vid=62c17a2a-95a1-4fa6-bcce-42552dd81ec1"},"vehicle_type_id":"4","last_reported":1736406520,"current_range_meters":0,"station_id":"ce4bgt12rcd13ifvqcd0","pricing_plan_id":"cebpf4jnsgd1na2vs0mg"},{"bike_id":"978a329c-0ea7-4caf-8578-9b393ff5e1b1","system_id":"levelo_inurba_marseille","lat":43.32536,"lon":5.41433,"is_reserved":false,"is_disabled":false,"rental_uris":{"android":"levelo://app?vid=978a329c-0ea7-4caf-8578-9b393ff5e1b1","ios":"levelo://app?vid=978a329c-0ea7-4caf-8578-9b393ff5e1b1"},"vehicle_type_id":"4","last_reported":1736406520,"current_range_meters":32000,"station_id":"ce4bhq12rcd13ifvqhhg","pricing_plan_id":"cebpf4jnsgd1na2vs0mg"},{"bike_id":"0bb18fce-6faa-40ab-8066-a4cf72d623a7","system_id":"levelo_inurba_marseille","lat":43.28701,"lon":5.3737,"is_reserved":false,"is_disabled":false,"rental_uris":{"android":"levelo://app?vid=0bb18fce-6faa-40ab-8066-a4cf72d623a7","ios":"levelo://app?vid=0bb18fce-6faa-40ab-8066-a4cf72d623a7"},"vehicle_type_id":"4","last_reported":1736406520,"current_range_meters":38800,"station_id":"ce4bh3p2rcd13ifvqdq0","pricing_plan_id":"cebpf4jnsgd1na2vs0mg"},{"bike_id":"ae870ab4-710e-4ed3-9af4-fcc88a5e6080","system_id":"levelo_inurba_marseille","lat":43.26924,"lon":5.38904,"is_reserved":false,"is_disabled":true,"rental_uris":{"android":"levelo://app?vid=ae870ab4-710e-4ed3-9af4-fcc88a5e6080","ios":"levelo://app?vid=ae870ab4-710e-4ed3-9af4-fcc88a5e6080"},"vehicle_type_id":"4","last_reported":1736406520,"current_range_meters":2000,"station_id":"ce4bhhh2rcd13ifvqfl0","pricing_plan_id":"cebpf4jnsgd1na2vs0mg"},{"bike_id":"074f581e-c7b5-47b2-a4b9-c284fa70c031","system_id":"levelo_inurba_marseille","lat":43.28489,"lon":5.3855,"is_reserved":false,"is_disabled":true,"rental_uris":{"android":"levelo://app?vid=074f581e-c7b5-47b2-a4b9-c284fa70c031","ios":"levelo://app?vid=074f581e-c7b5-47b2-a4b9-c284fa70c031"},"vehicle_type_id":"4","last_reported":1736406520,"current_range_meters":38800,"station_id":"ce4bh8p2rcd13ifvqeb0","pricing_plan_id":"cebpf4jnsgd1na2vs0mg"},{"bike_id":"1f7acae7-6f95-41c5-acb6-5b27620cc537","system_id":"levelo_inurba_marseille","lat":43.25733,"lon":5.41095,"is_reserved":false,"is_disabled":false,"rental_uris":{"android":"levelo://app?vid=1f7acae7-6f95-41c5-acb6-5b27620cc537","ios":"levelo://app?vid=1f7acae7-6f95-41c5-acb6-5b27620cc537"},"vehicle_type_id":"4","last_reported":1736406520,"current_range_meters":32400,"station_id":"ce4bhkp2rcd13ifvqgd0","pricing_plan_id":"cebpf4jnsgd1na2vs0mg"},{"bike_id":"1a55702b-0603-4b8e-a18f-8e9aadc27b1d","system_id":"levelo_inurba_marseille","lat":43.28424,"lon":5.37511,"is_reserved":false,"is_disabled":false,"rental_uris":{"android":"levelo://app?vid=1a55702b-0603-4b8e-a18f-8e9aadc27b1d","ios":"levelo://app?vid=1a55702b-0603-4b8e-a18f-8e9aadc27b1d"},"vehicle_type_id":"4","last_reported":1736406520,"current_range_meters":14000,"station_id":"ce4bh412rcd13ifvqds0","pricing_plan_id":"cebpf4jnsgd1na2vs0mg"},{"bike_id":"f59f91e7-8ce9-452a-b6a7-1ff02ba0ea59","system_id":"levelo_inurba_marseille","lat":43.28117,"lon":5.3785,"is_reserved":false,"is_disabled":false,"rental_uris":{"android":"levelo://app?vid=f59f91e7-8ce9-452a-b6a7-1ff02ba0ea59","ios":"levelo://app?vid=f59f91e7-8ce9-452a-b6a7-1ff02ba0ea59"},"vehicle_type_id":"4","last_reported":1736406520,"current_range_meters":38800,"station_id":"ce4bha12rcd13ifvqee0","pricing_plan_id":"cebpf4jnsgd1na2vs0mg"},{"bike_id":"1317d9c5-6115-4289-976f-21e3dea4341c","system_id":"levelo_inurba_marseille","lat":43.288496,"lon":5.358494,"is_reserved":false,"is_disabled":false,"rental_uris":{"android":"levelo://app?vid=1317d9c5-6115-4289-976f-21e3dea4341c","ios":"levelo://app?vid=1317d9c5-6115-4289-976f-21e3dea4341c"},"vehicle_type_id":"4","last_reported":1736406520,"current_range_meters":34800,"station_id":"ce4bhb12rcd13ifvqem0","pricing_plan_id":"cebpf4jnsgd1na2vs0mg"},{"bike_id":"128e494f-c5f6-49d1-8da7-12ffc5ea9838","system_id":"levelo_inurba_marseille","lat":43.241658,"lon":5.363924,"is_reserved":false,"is_disabled":false,"rental_uris":{"android":"levelo://app?vid=128e494f-c5f6-49d1-8da7-12ffc5ea9838","ios":"levelo://app?vid=128e494f-c5f6-49d1-8da7-12ffc5ea9838"},"vehicle_type_id":"4","last_reported":1736406520,"current_range_meters":12800,"station_id":"cpo36qri1sfpv3e86is0","pricing_plan_id":"cebpf4jnsgd1na2vs0mg"},{"bike_id":"4804ac12-bdb2-4271-ab7c-c1d403e3f01b","system_id":"levelo_inurba_marseille","lat":43.30305,"lon":5.40269,"is_reserved":false,"is_disabled":false,"rental_uris":{"android":"levelo://app?vid=4804ac12-bdb2-4271-ab7c-c1d403e3f01b","ios":"levelo://app?vid=4804ac12-bdb2-4271-ab7c-c1d403e3f01b"},"vehicle_type_id":"4","last_reported":1736406520,"current_range_meters":38400,"station_id":"ce4bgvh2rcd13ifvqcs0","pricing_plan_id":"cebpf4jnsgd1na2vs0mg"},{"bike_id":"bfe61413-0f2e-4c52-b47b-cd780543338a","system_id":"levelo_inurba_marseille","lat":43.27964,"lon":5.38745,"is_reserved":false,"is_disabled":false,"rental_uris":{"android":"levelo://app?vid=bfe61413-0f2e-4c52-b47b-cd780543338a","ios":"levelo://app?vid=bfe61413-0f2e-4c52-b47b-cd780543338a"},"vehicle_type_id":"4","last_reported":1736406520,"current_range_meters":38800,"station_id":"ce4bhg12rcd13ifvqf80","pricing_plan_id":"cebpf4jnsgd1na2vs0mg"},{"bike_id":"13410f0c-5da0-428f-a35c-269f9a8f1cde","system_id":"levelo_inurba_marseille","lat":43.29032,"lon":5.39968,"is_reserved":false,"is_disabled":false,"rental_uris":{"android":"levelo://app?vid=13410f0c-5da0-428f-a35c-269f9a8f1cde","ios":"levelo://app?vid=13410f0c-5da0-428f-a35c-269f9a8f1cde"},"vehicle_type_id":"4","last_reported":1736406520,"current_range_meters":32400,"station_id":"ce4bh392rcd13ifvqdm0","pricing_plan_id":"cebpf4jnsgd1na2vs0mg"},{"bike_id":"7dc30849-b0f3-4b71-a023-b16ff446c39b","system_id":"levelo_inurba_marseille","lat":43.28349,"lon":5.38084,"is_reserved":false,"is_disabled":false,"rental_uris":{"android":"levelo://app?vid=7dc30849-b0f3-4b71-a023-b16ff446c39b","ios":"levelo://app?vid=7dc30849-b0f3-4b71-a023-b16ff446c39b"},"vehicle_type_id":"4","last_reported":1736406520,"current_range_meters":24800,"station_id":"ce4bh412rcd13ifvqdr0","pricing_plan_id":"cebpf4jnsgd1na2vs0mg"},{"bike_id":"9fd9a3de-90df-466c-8510-f29e450ec62b","system_id":"levelo_inurba_marseille","lat":43.310801,"lon":5.42437,"is_reserved":false,"is_disabled":true,"rental_uris":{"android":"levelo://app?vid=9fd9a3de-90df-466c-8510-f29e450ec62b","ios":"levelo://app?vid=9fd9a3de-90df-466c-8510-f29e450ec62b"},"vehicle_type_id":"4","last_reported":1736406520,"current_range_meters":14400,"station_id":"ce4bhp92rcd13ifvqhag","pricing_plan_id":"cebpf4jnsgd1na2vs0mg"},{"bike_id":"037144ed-aafa-4390-8d32-ef4e940ab49d","system_id":"levelo_inurba_marseille","lat":43.28658,"lon":5.36338,"is_reserved":false,"is_disabled":false,"rental_uris":{"android":"levelo://app?vid=037144ed-aafa-4390-8d32-ef4e940ab49d","ios":"levelo://app?vid=037144ed-aafa-4390-8d32-ef4e940ab49d"},"vehicle_type_id":"4","last_reported":1736406520,"current_range_meters":4000,"station_id":"ce4bhah2rcd13ifvqej0","pricing_plan_id":"cebpf4jnsgd1na2vs0mg"},{"bike_id":"7e647b87-ee39-48c8-8a57-8ca415c7293d","system_id":"levelo_inurba_marseille","lat":43.23066,"lon":5.35494,"is_reserved":false,"is_disabled":false,"rental_uris":{"android":"levelo://app?vid=7e647b87-ee39-48c8-8a57-8ca415c7293d","ios":"levelo://app?vid=7e647b87-ee39-48c8-8a57-8ca415c7293d"},"vehicle_type_id":"4","last_reported":1736406520,"current_range_meters":35200,"station_id":"cpo3342slgdg3j2ifvpg","pricing_plan_id":"cebpf4jnsgd1na2vs0mg"},{"bike_id":"2e111832-e19b-4555-bbf4-d6a50be9d832","system_id":"levelo_inurba_marseille","lat":43.28409,"lon":5.37525,"is_reserved":false,"is_disabled":true,"rental_uris":{"android":"levelo://app?vid=2e111832-e19b-4555-bbf4-d6a50be9d832","ios":"levelo://app?vid=2e111832-e19b-4555-bbf4-d6a50be9d832"},"vehicle_type_id":"4","last_reported":1736406520,"current_range_meters":33600,"station_id":"ce4bh412rcd13ifvqds0","pricing_plan_id":"cebpf4jnsgd1na2vs0mg"},{"bike_id":"24307caa-82bb-4f57-91ba-965dff668f46","system_id":"levelo_inurba_marseille","lat":43.32659,"lon":5.40987,"is_reserved":false,"is_disabled":false,"rental_uris":{"android":"levelo://app?vid=24307caa-82bb-4f57-91ba-965dff668f46","ios":"levelo://app?vid=24307caa-82bb-4f57-91ba-965dff668f46"},"vehicle_type_id":"4","last_reported":1736406520,"current_range_meters":30400,"station_id":"ce4bhpp2rcd13ifvqhgg","pricing_plan_id":"cebpf4jnsgd1na2vs0mg"},{"bike_id":"22297ec0-8d05-44c5-ab13-33d59f1bdba1","system_id":"levelo_inurba_marseille","lat":43.3021,"lon":5.3946,"is_reserved":false,"is_disabled":false,"rental_uris":{"android":"levelo://app?vid=22297ec0-8d05-44c5-ab13-33d59f1bdba1","ios":"levelo://app?vid=22297ec0-8d05-44c5-ab13-33d59f1bdba1"},"vehicle_type_id":"4","last_reported":1736406520,"current_range_meters":28400,"station_id":"ce4bh0p2rcd13ifvqd70","pricing_plan_id":"cebpf4jnsgd1na2vs0mg"},{"bike_id":"102cb488-e37e-4a25-ae00-7f174450be41","system_id":"levelo_inurba_marseille","lat":43.275671,"lon":5.384256,"is_reserved":false,"is_disabled":false,"rental_uris":{"android":"levelo://app?vid=102cb488-e37e-4a25-ae00-7f174450be41","ios":"levelo://app?vid=102cb488-e37e-4a25-ae00-7f174450be41"},"vehicle_type_id":"4","last_reported":1736406520,"current_range_meters":38400,"station_id":"ce4bhh92rcd13ifvqfi0","pricing_plan_id":"cebpf4jnsgd1na2vs0mg"},{"bike_id":"42ac7311-0557-4ab5-8605-e268815df75e","system_id":"levelo_inurba_marseille","lat":43.3043,"lon":5.39744,"is_reserved":false,"is_disabled":false,"rental_uris":{"android":"levelo://app?vid=42ac7311-0557-4ab5-8605-e268815df75e","ios":"levelo://app?vid=42ac7311-0557-4ab5-8605-e268815df75e"},"vehicle_type_id":"4","last_reported":1736406520,"current_range_meters":36800,"station_id":"ce4bh092rcd13ifvqd20","pricing_plan_id":"cebpf4jnsgd1na2vs0mg"},{"bike_id":"af2f2691-642a-471f-a229-6edf3264ebdb","system_id":"levelo_inurba_marseille","lat":43.29931,"lon":5.36536,"is_reserved":false,"is_disabled":false,"rental_uris":{"android":"levelo://app?vid=af2f2691-642a-471f-a229-6edf3264ebdb","ios":"levelo://app?vid=af2f2691-642a-471f-a229-6edf3264ebdb"},"vehicle_type_id":"4","last_reported":1736406520,"current_range_meters":31200,"station_id":"ce4bgm92rcd13ifvqbr0","pricing_plan_id":"cebpf4jnsgd1na2vs0mg"},{"bike_id":"47f78906-79ec-4312-b87c-b16484c68cff","system_id":"levelo_inurba_marseille","lat":43.2887,"lon":5.35867,"is_reserved":false,"is_disabled":false,"rental_uris":{"android":"levelo://app?vid=47f78906-79ec-4312-b87c-b16484c68cff","ios":"levelo://app?vid=47f78906-79ec-4312-b87c-b16484c68cff"},"vehicle_type_id":"4","last_reported":1736406520,"current_range_meters":39200,"station_id":"ce4bhb12rcd13ifvqem0","pricing_plan_id":"cebpf4jnsgd1na2vs0mg"},{"bike_id":"fcbaffe8-b8e4-40cb-a05d-aed4ba01af4b","system_id":"levelo_inurba_marseille","lat":43.30585,"lon":5.39358,"is_reserved":false,"is_disabled":false,"rental_uris":{"android":"levelo://app?vid=fcbaffe8-b8e4-40cb-a05d-aed4ba01af4b","ios":"levelo://app?vid=fcbaffe8-b8e4-40cb-a05d-aed4ba01af4b"},"vehicle_type_id":"4","last_reported":1736406520,"current_range_meters":30800,"station_id":"ce4bh0p2rcd13ifvqd80","pricing_plan_id":"cebpf4jnsgd1na2vs0mg"},{"bike_id":"7259c4e2-7970-427f-9c43-e252b6fb3d40","system_id":"levelo_inurba_marseille","lat":43.3014,"lon":5.38788,"is_reserved":false,"is_disabled":false,"rental_uris":{"android":"levelo://app?vid=7259c4e2-7970-427f-9c43-e252b6fb3d40","ios":"levelo://app?vid=7259c4e2-7970-427f-9c43-e252b6fb3d40"},"vehicle_type_id":"4","last_reported":1736406520,"current_range_meters":35200,"station_id":"ce4bhoh2rcd13ifvqh6g","pricing_plan_id":"cebpf4jnsgd1na2vs0mg"},{"bike_id":"cafa34fc-2429-46b2-9781-044d9a0d991e","system_id":"levelo_inurba_marseille","lat":43.28351,"lon":5.38091,"is_reserved":false,"is_disabled":false,"rental_uris":{"android":"levelo://app?vid=cafa34fc-2429-46b2-9781-044d9a0d991e","ios":"levelo://app?vid=cafa34fc-2429-46b2-9781-044d9a0d991e"},"vehicle_type_id":"4","last_reported":1736406520,"current_range_meters":38800,"station_id":"ce4bh412rcd13ifvqdr0","pricing_plan_id":"cebpf4jnsgd1na2vs0mg"},{"bike_id":"65425017-ef49-4ccc-80b9-a4d6b6f2d755","system_id":"levelo_inurba_marseille","lat":43.31275,"lon":5.40174,"is_reserved":false,"is_disabled":false,"rental_uris":{"android":"levelo://app?vid=65425017-ef49-4ccc-80b9-a4d6b6f2d755","ios":"levelo://app?vid=65425017-ef49-4ccc-80b9-a4d6b6f2d755"},"vehicle_type_id":"4","last_reported":1736406520,"current_range_meters":29600,"station_id":"ce4bh092rcd13ifvqd30","pricing_plan_id":"cebpf4jnsgd1na2vs0mg"},{"bike_id":"09e3588e-7ba5-47e4-87a0-bfa5eb2056aa","system_id":"levelo_inurba_marseille","lat":43.31758,"lon":5.39012,"is_reserved":false,"is_disabled":false,"rental_uris":{"android":"levelo://app?vid=09e3588e-7ba5-47e4-87a0-bfa5eb2056aa","ios":"levelo://app?vid=09e3588e-7ba5-47e4-87a0-bfa5eb2056aa"},"vehicle_type_id":"4","last_reported":1736406520,"current_range_meters":17200,"station_id":"ce4bhqp2rcd13ifvqhng","pricing_plan_id":"cebpf4jnsgd1na2vs0mg"},{"bike_id":"e39f6b1f-389e-44fc-b750-d548ad83bcc0","system_id":"levelo_inurba_marseille","lat":43.26808,"lon":5.40253,"is_reserved":false,"is_disabled":false,"rental_uris":{"android":"levelo://app?vid=e39f6b1f-389e-44fc-b750-d548ad83bcc0","ios":"levelo://app?vid=e39f6b1f-389e-44fc-b750-d548ad83bcc0"},"vehicle_type_id":"4","last_reported":1736406520,"current_range_meters":33200,"station_id":"ce501612rcd8frsf0b60","pricing_plan_id":"cebpf4jnsgd1na2vs0mg"},{"bike_id":"a0353e02-f61e-4c4a-b079-581d0669d9ae","system_id":"levelo_inurba_marseille","lat":43.31705,"lon":5.37763,"is_reserved":false,"is_disabled":false,"rental_uris":{"android":"levelo://app?vid=a0353e02-f61e-4c4a-b079-581d0669d9ae","ios":"levelo://app?vid=a0353e02-f61e-4c4a-b079-581d0669d9ae"},"vehicle_type_id":"4","last_reported":1736406520,"current_range_meters":38800,"station_id":"ce4bgth2rcd13ifvqch0","pricing_plan_id":"cebpf4jnsgd1na2vs0mg"},{"bike_id":"2d1536de-ed9a-4813-bbd6-10bda74ca621","system_id":"levelo_inurba_marseille","lat":43.24797,"lon":5.37452,"is_reserved":false,"is_disabled":false,"rental_uris":{"android":"levelo://app?vid=2d1536de-ed9a-4813-bbd6-10bda74ca621","ios":"levelo://app?vid=2d1536de-ed9a-4813-bbd6-10bda74ca621"},"vehicle_type_id":"4","last_reported":1736406520,"current_range_meters":11200,"station_id":"ce4bhgh2rcd13ifvqfb0","pricing_plan_id":"cebpf4jnsgd1na2vs0mg"},{"bike_id":"444d1215-ad71-40cc-a987-53715e6472a1","system_id":"levelo_inurba_marseille","lat":43.28477,"lon":5.38404,"is_reserved":false,"is_disabled":false,"rental_uris":{"android":"levelo://app?vid=444d1215-ad71-40cc-a987-53715e6472a1","ios":"levelo://app?vid=444d1215-ad71-40cc-a987-53715e6472a1"},"vehicle_type_id":"4","last_reported":1736406520,"current_range_meters":17600,"station_id":"ce4bh512rcd13ifvqe3g","pricing_plan_id":"cebpf4jnsgd1na2vs0mg"},{"bike_id":"39faa2fe-395f-49c9-9056-e37436793a85","system_id":"levelo_inurba_marseille","lat":43.30314,"lon":5.40439,"is_reserved":false,"is_disabled":true,"rental_uris":{"android":"levelo://app?vid=39faa2fe-395f-49c9-9056-e37436793a85","ios":"levelo://app?vid=39faa2fe-395f-49c9-9056-e37436793a85"},"vehicle_type_id":"4","last_reported":1736406520,"current_range_meters":29600,"station_id":"ce4bh012rcd13ifvqd10","pricing_plan_id":"cebpf4jnsgd1na2vs0mg"},{"bike_id":"40681bb4-2d2e-4521-933c-09501083c22d","system_id":"levelo_inurba_marseille","lat":43.29592,"lon":5.381,"is_reserved":false,"is_disabled":false,"rental_uris":{"android":"levelo://app?vid=40681bb4-2d2e-4521-933c-09501083c22d","ios":"levelo://app?vid=40681bb4-2d2e-4521-933c-09501083c22d"},"vehicle_type_id":"4","last_reported":1736406520,"current_range_meters":30400,"station_id":"ce4bgl12rcd13ifvqbo0","pricing_plan_id":"cebpf4jnsgd1na2vs0mg"},{"bike_id":"6774a2e4-c3d8-477b-975d-dba2b0bd8695","system_id":"levelo_inurba_marseille","lat":43.2847,"lon":5.38414,"is_reserved":false,"is_disabled":false,"rental_uris":{"android":"levelo://app?vid=6774a2e4-c3d8-477b-975d-dba2b0bd8695","ios":"levelo://app?vid=6774a2e4-c3d8-477b-975d-dba2b0bd8695"},"vehicle_type_id":"4","last_reported":1736406520,"current_range_meters":38000,"station_id":"ce4bh512rcd13ifvqe3g","pricing_plan_id":"cebpf4jnsgd1na2vs0mg"},{"bike_id":"ee31af65-8f6b-4958-b048-ba78a3897db1","system_id":"levelo_inurba_marseille","lat":43.33611,"lon":5.41035,"is_reserved":false,"is_disabled":false,"rental_uris":{"android":"levelo://app?vid=ee31af65-8f6b-4958-b048-ba78a3897db1","ios":"levelo://app?vid=ee31af65-8f6b-4958-b048-ba78a3897db1"},"vehicle_type_id":"4","last_reported":1736406520,"current_range_meters":17200,"station_id":"ce4bhqh2rcd13ifvqhmg","pricing_plan_id":"cebpf4jnsgd1na2vs0mg"},{"bike_id":"78cf7860-0a57-46e1-ae18-c4489c3d4c0b","system_id":"levelo_inurba_marseille","lat":43.30411,"lon":5.41262,"is_reserved":false,"is_disabled":false,"rental_uris":{"android":"levelo://app?vid=78cf7860-0a57-46e1-ae18-c4489c3d4c0b","ios":"levelo://app?vid=78cf7860-0a57-46e1-ae18-c4489c3d4c0b"},"vehicle_type_id":"4","last_reported":1736406520,"current_range_meters":38800,"station_id":"ce4bhop2rcd13ifvqh8g","pricing_plan_id":"cebpf4jnsgd1na2vs0mg"},{"bike_id":"2b814576-82ce-4758-abf3-c79e907188a0","system_id":"levelo_inurba_marseille","lat":43.29476,"lon":5.37612,"is_reserved":false,"is_disabled":false,"rental_uris":{"android":"levelo://app?vid=2b814576-82ce-4758-abf3-c79e907188a0","ios":"levelo://app?vid=2b814576-82ce-4758-abf3-c79e907188a0"},"vehicle_type_id":"4","last_reported":1736406520,"current_range_meters":8800,"station_id":"","pricing_plan_id":"cebpf4jnsgd1na2vs0mg"},{"bike_id":"634a031a-85f4-4a82-a081-262bdc08dc08","system_id":"levelo_inurba_marseille","lat":43.27493,"lon":5.4245,"is_reserved":false,"is_disabled":false,"rental_uris":{"android":"levelo://app?vid=634a031a-85f4-4a82-a081-262bdc08dc08","ios":"levelo://app?vid=634a031a-85f4-4a82-a081-262bdc08dc08"},"vehicle_type_id":"4","last_reported":1736406520,"current_range_meters":28000,"station_id":"ce4bhn92rcd13ifvqgrg","pricing_plan_id":"cebpf4jnsgd1na2vs0mg"},{"bike_id":"4b1bcc07-82a7-477b-8def-610d4f653cb3","system_id":"levelo_inurba_marseille","lat":43.29023,"lon":5.38131,"is_reserved":false,"is_disabled":true,"rental_uris":{"android":"levelo://app?vid=4b1bcc07-82a7-477b-8def-610d4f653cb3","ios":"levelo://app?vid=4b1bcc07-82a7-477b-8def-610d4f653cb3"},"vehicle_type_id":"4","last_reported":1736406520,"current_range_meters":25200,"station_id":"ce4bh4p2rcd13ifvqe1g","pricing_plan_id":"cebpf4jnsgd1na2vs0mg"},{"bike_id":"b69e39e4-e108-465d-bddd-4ffc1dea8f10","system_id":"levelo_inurba_marseille","lat":43.25721,"lon":5.4113,"is_reserved":false,"is_disabled":false,"rental_uris":{"android":"levelo://app?vid=b69e39e4-e108-465d-bddd-4ffc1dea8f10","ios":"levelo://app?vid=b69e39e4-e108-465d-bddd-4ffc1dea8f10"},"vehicle_type_id":"4","last_reported":1736406520,"current_range_meters":36800,"station_id":"ce4bhkp2rcd13ifvqgd0","pricing_plan_id":"cebpf4jnsgd1na2vs0mg"},{"bike_id":"f2536309-8d2b-4ccd-86e1-4c168080c77c","system_id":"levelo_inurba_marseille","lat":43.231968,"lon":5.355458,"is_reserved":false,"is_disabled":false,"rental_uris":{"android":"levelo://app?vid=f2536309-8d2b-4ccd-86e1-4c168080c77c","ios":"levelo://app?vid=f2536309-8d2b-4ccd-86e1-4c168080c77c"},"vehicle_type_id":"4","last_reported":1736406520,"current_range_meters":8400,"station_id":"ce4bhu92rcd13ifvqi70","pricing_plan_id":"cebpf4jnsgd1na2vs0mg"},{"bike_id":"37473974-effd-49ca-be9f-43a2b2a7e5ee","system_id":"levelo_inurba_marseille","lat":43.30468,"lon":5.37896,"is_reserved":false,"is_disabled":false,"rental_uris":{"android":"levelo://app?vid=37473974-effd-49ca-be9f-43a2b2a7e5ee","ios":"levelo://app?vid=37473974-effd-49ca-be9f-43a2b2a7e5ee"},"vehicle_type_id":"4","last_reported":1736406520,"current_range_meters":24000,"station_id":"ce4bgup2rcd13ifvqcn0","pricing_plan_id":"cebpf4jnsgd1na2vs0mg"},{"bike_id":"2b9beccd-e5fc-4eb2-b03d-19ca0040f1a3","system_id":"levelo_inurba_marseille","lat":43.29085,"lon":5.38166,"is_reserved":false,"is_disabled":false,"rental_uris":{"android":"levelo://app?vid=2b9beccd-e5fc-4eb2-b03d-19ca0040f1a3","ios":"levelo://app?vid=2b9beccd-e5fc-4eb2-b03d-19ca0040f1a3"},"vehicle_type_id":"4","last_reported":1736406520,"current_range_meters":7200,"station_id":"ce4bh512rcd13ifvqe2g","pricing_plan_id":"cebpf4jnsgd1na2vs0mg"},{"bike_id":"b8b738cb-ef0c-4357-b3a7-9b64021e64ef","system_id":"levelo_inurba_marseille","lat":43.33001,"lon":5.39062,"is_reserved":false,"is_disabled":false,"rental_uris":{"android":"levelo://app?vid=b8b738cb-ef0c-4357-b3a7-9b64021e64ef","ios":"levelo://app?vid=b8b738cb-ef0c-4357-b3a7-9b64021e64ef"},"vehicle_type_id":"4","last_reported":1736406520,"current_range_meters":35200,"station_id":"ce4bhr92rcd13ifvqhrg","pricing_plan_id":"cebpf4jnsgd1na2vs0mg"},{"bike_id":"834bf074-3839-434a-89d6-617847f95fc7","system_id":"levelo_inurba_marseille","lat":43.31776,"lon":5.39038,"is_reserved":false,"is_disabled":false,"rental_uris":{"android":"levelo://app?vid=834bf074-3839-434a-89d6-617847f95fc7","ios":"levelo://app?vid=834bf074-3839-434a-89d6-617847f95fc7"},"vehicle_type_id":"4","last_reported":1736406520,"current_range_meters":31200,"station_id":"ce4bhqp2rcd13ifvqhng","pricing_plan_id":"cebpf4jnsgd1na2vs0mg"},{"bike_id":"bb636211-c010-46b6-b358-bf7db6dac6a4","system_id":"levelo_inurba_marseille","lat":43.29018,"lon":5.38135,"is_reserved":false,"is_disabled":true,"rental_uris":{"android":"levelo://app?vid=bb636211-c010-46b6-b358-bf7db6dac6a4","ios":"levelo://app?vid=bb636211-c010-46b6-b358-bf7db6dac6a4"},"vehicle_type_id":"4","last_reported":1736406520,"current_range_meters":37600,"station_id":"ce4bh4p2rcd13ifvqe1g","pricing_plan_id":"cebpf4jnsgd1na2vs0mg"},{"bike_id":"36cd0b0b-3b9b-4f45-8abd-e5b966ccd39a","system_id":"levelo_inurba_marseille","lat":43.31886,"lon":5.40731,"is_reserved":false,"is_disabled":false,"rental_uris":{"android":"levelo://app?vid=36cd0b0b-3b9b-4f45-8abd-e5b966ccd39a","ios":"levelo://app?vid=36cd0b0b-3b9b-4f45-8abd-e5b966ccd39a"},"vehicle_type_id":"4","last_reported":1736406520,"current_range_meters":38800,"station_id":"ce4bhq12rcd13ifvqhig","pricing_plan_id":"cebpf4jnsgd1na2vs0mg"},{"bike_id":"f76caccf-de8b-4760-a4b0-3d1087b2d15c","system_id":"levelo_inurba_marseille","lat":43.27836,"lon":5.39204,"is_reserved":false,"is_disabled":false,"rental_uris":{"android":"levelo://app?vid=f76caccf-de8b-4760-a4b0-3d1087b2d15c","ios":"levelo://app?vid=f76caccf-de8b-4760-a4b0-3d1087b2d15c"},"vehicle_type_id":"4","last_reported":1736406520,"current_range_meters":38000,"station_id":"ce4bhjp2rcd13ifvqga0","pricing_plan_id":"cebpf4jnsgd1na2vs0mg"},{"bike_id":"730ac88e-25cf-4c16-8bb4-ef5233b286a1","system_id":"levelo_inurba_marseille","lat":43.25005,"lon":5.38925,"is_reserved":false,"is_disabled":false,"rental_uris":{"android":"levelo://app?vid=730ac88e-25cf-4c16-8bb4-ef5233b286a1","ios":"levelo://app?vid=730ac88e-25cf-4c16-8bb4-ef5233b286a1"},"vehicle_type_id":"4","last_reported":1736406520,"current_range_meters":19200,"station_id":"ce4bhgp2rcd13ifvqfd0","pricing_plan_id":"cebpf4jnsgd1na2vs0mg"},{"bike_id":"a023b9e2-2413-4b3d-a218-b9727e7097b5","system_id":"levelo_inurba_marseille","lat":43.292991,"lon":5.374633,"is_reserved":false,"is_disabled":true,"rental_uris":{"android":"levelo://app?vid=a023b9e2-2413-4b3d-a218-b9727e7097b5","ios":"levelo://app?vid=a023b9e2-2413-4b3d-a218-b9727e7097b5"},"vehicle_type_id":"4","last_reported":1736406520,"current_range_meters":30800,"station_id":"ce4bgi12rcd13ifvqb70","pricing_plan_id":"cebpf4jnsgd1na2vs0mg"},{"bike_id":"4996929c-8555-4c1d-82ea-eced4c3a1454","system_id":"levelo_inurba_marseille","lat":43.30128,"lon":5.38773,"is_reserved":false,"is_disabled":false,"rental_uris":{"android":"levelo://app?vid=4996929c-8555-4c1d-82ea-eced4c3a1454","ios":"levelo://app?vid=4996929c-8555-4c1d-82ea-eced4c3a1454"},"vehicle_type_id":"4","last_reported":1736406520,"current_range_meters":38400,"station_id":"ce4bghh2rcd13ifvqb60","pricing_plan_id":"cebpf4jnsgd1na2vs0mg"},{"bike_id":"3e2246cb-9b6f-4fe1-82f2-4dd1b71e8bfa","system_id":"levelo_inurba_marseille","lat":43.29931,"lon":5.39869,"is_reserved":false,"is_disabled":false,"rental_uris":{"android":"levelo://app?vid=3e2246cb-9b6f-4fe1-82f2-4dd1b71e8bfa","ios":"levelo://app?vid=3e2246cb-9b6f-4fe1-82f2-4dd1b71e8bfa"},"vehicle_type_id":"4","last_reported":1736406520,"current_range_meters":32000,"station_id":"","pricing_plan_id":"cebpf4jnsgd1na2vs0mg"},{"bike_id":"43d93e53-9f11-415d-98d7-95709d8633e5","system_id":"levelo_inurba_marseille","lat":43.26567,"lon":5.3901,"is_reserved":false,"is_disabled":false,"rental_uris":{"android":"levelo://app?vid=43d93e53-9f11-415d-98d7-95709d8633e5","ios":"levelo://app?vid=43d93e53-9f11-415d-98d7-95709d8633e5"},"vehicle_type_id":"4","last_reported":1736406520,"current_range_meters":23200,"station_id":"ce4bhe12rcd13ifvqf30","pricing_plan_id":"cebpf4jnsgd1na2vs0mg"},{"bike_id":"c20dadfa-f7de-4f19-942f-5cb99e1cc8be","system_id":"levelo_inurba_marseille","lat":43.28561,"lon":5.39493,"is_reserved":false,"is_disabled":false,"rental_uris":{"android":"levelo://app?vid=c20dadfa-f7de-4f19-942f-5cb99e1cc8be","ios":"levelo://app?vid=c20dadfa-f7de-4f19-942f-5cb99e1cc8be"},"vehicle_type_id":"4","last_reported":1736406520,"current_range_meters":36800,"station_id":"ce4bh292rcd13ifvqdg0","pricing_plan_id":"cebpf4jnsgd1na2vs0mg"},{"bike_id":"c8831233-fa92-42c8-bad8-f9b1712aecd6","system_id":"levelo_inurba_marseille","lat":43.29647,"lon":5.38543,"is_reserved":false,"is_disabled":true,"rental_uris":{"android":"levelo://app?vid=c8831233-fa92-42c8-bad8-f9b1712aecd6","ios":"levelo://app?vid=c8831233-fa92-42c8-bad8-f9b1712aecd6"},"vehicle_type_id":"4","last_reported":1736406520,"current_range_meters":38800,"station_id":"","pricing_plan_id":"cebpf4jnsgd1na2vs0mg"},{"bike_id":"1e762259-eb64-4eab-9613-5da94c1e621b","system_id":"levelo_inurba_marseille","lat":43.28476,"lon":5.38421,"is_reserved":false,"is_disabled":false,"rental_uris":{"android":"levelo://app?vid=1e762259-eb64-4eab-9613-5da94c1e621b","ios":"levelo://app?vid=1e762259-eb64-4eab-9613-5da94c1e621b"},"vehicle_type_id":"4","last_reported":1736406520,"current_range_meters":16000,"station_id":"ce4bh512rcd13ifvqe3g","pricing_plan_id":"cebpf4jnsgd1na2vs0mg"},{"bike_id":"78a7474e-f186-4ee8-a3dd-551a9222c30c","system_id":"levelo_inurba_marseille","lat":43.30592,"lon":5.39358,"is_reserved":false,"is_disabled":true,"rental_uris":{"android":"levelo://app?vid=78a7474e-f186-4ee8-a3dd-551a9222c30c","ios":"levelo://app?vid=78a7474e-f186-4ee8-a3dd-551a9222c30c"},"vehicle_type_id":"4","last_reported":1736406520,"current_range_meters":1200,"station_id":"ce4bh0p2rcd13ifvqd80","pricing_plan_id":"cebpf4jnsgd1na2vs0mg"},{"bike_id":"08985ba5-7c68-47fa-a59d-4c0274768be4","system_id":"levelo_inurba_marseille","lat":43.251,"lon":5.40335,"is_reserved":false,"is_disabled":false,"rental_uris":{"android":"levelo://app?vid=08985ba5-7c68-47fa-a59d-4c0274768be4","ios":"levelo://app?vid=08985ba5-7c68-47fa-a59d-4c0274768be4"},"vehicle_type_id":"4","last_reported":1736406520,"current_range_meters":4800,"station_id":"ce4bhlh2rcd13ifvqgig","pricing_plan_id":"cebpf4jnsgd1na2vs0mg"},{"bike_id":"2825a119-5b5a-4630-b83a-5a86bf58ccad","system_id":"levelo_inurba_marseille","lat":43.312792,"lon":5.373686,"is_reserved":false,"is_disabled":false,"rental_uris":{"android":"levelo://app?vid=2825a119-5b5a-4630-b83a-5a86bf58ccad","ios":"levelo://app?vid=2825a119-5b5a-4630-b83a-5a86bf58ccad"},"vehicle_type_id":"4","last_reported":1736406520,"current_range_meters":6800,"station_id":"","pricing_plan_id":"cebpf4jnsgd1na2vs0mg"},{"bike_id":"599cb150-7973-4a42-bd67-2927c118c704","system_id":"levelo_inurba_marseille","lat":43.3359,"lon":5.40967,"is_reserved":false,"is_disabled":false,"rental_uris":{"android":"levelo://app?vid=599cb150-7973-4a42-bd67-2927c118c704","ios":"levelo://app?vid=599cb150-7973-4a42-bd67-2927c118c704"},"vehicle_type_id":"4","last_reported":1736406520,"current_range_meters":37600,"station_id":"ce4bhqh2rcd13ifvqhmg","pricing_plan_id":"cebpf4jnsgd1na2vs0mg"},{"bike_id":"a5de4f51-c9f5-4f57-aa6d-d7fdb83ee152","system_id":"levelo_inurba_marseille","lat":43.26215,"lon":5.37452,"is_reserved":false,"is_disabled":true,"rental_uris":{"android":"levelo://app?vid=a5de4f51-c9f5-4f57-aa6d-d7fdb83ee152","ios":"levelo://app?vid=a5de4f51-c9f5-4f57-aa6d-d7fdb83ee152"},"vehicle_type_id":"4","last_reported":1736406520,"current_range_meters":1200,"station_id":"ce4bhgp2rcd13ifvqfc0","pricing_plan_id":"cebpf4jnsgd1na2vs0mg"},{"bike_id":"0bb8dcd6-6b65-46ad-98ce-3ac45b5e8db2","system_id":"levelo_inurba_marseille","lat":43.24389,"lon":5.37064,"is_reserved":false,"is_disabled":false,"rental_uris":{"android":"levelo://app?vid=0bb8dcd6-6b65-46ad-98ce-3ac45b5e8db2","ios":"levelo://app?vid=0bb8dcd6-6b65-46ad-98ce-3ac45b5e8db2"},"vehicle_type_id":"4","last_reported":1736406520,"current_range_meters":16000,"station_id":"ce4bhhh2rcd13ifvqfk0","pricing_plan_id":"cebpf4jnsgd1na2vs0mg"},{"bike_id":"3cddc7d0-66f2-44ac-afa2-f28c1202d2e7","system_id":"levelo_inurba_marseille","lat":43.33647,"lon":5.4108,"is_reserved":false,"is_disabled":false,"rental_uris":{"android":"levelo://app?vid=3cddc7d0-66f2-44ac-afa2-f28c1202d2e7","ios":"levelo://app?vid=3cddc7d0-66f2-44ac-afa2-f28c1202d2e7"},"vehicle_type_id":"4","last_reported":1736406520,"current_range_meters":36800,"station_id":"ce4bhqh2rcd13ifvqhmg","pricing_plan_id":"cebpf4jnsgd1na2vs0mg"},{"bike_id":"4efd2084-9715-446a-aae8-df22bb0734d5","system_id":"levelo_inurba_marseille","lat":43.25933,"lon":5.40911,"is_reserved":false,"is_disabled":false,"rental_uris":{"android":"levelo://app?vid=4efd2084-9715-446a-aae8-df22bb0734d5","ios":"levelo://app?vid=4efd2084-9715-446a-aae8-df22bb0734d5"},"vehicle_type_id":"4","last_reported":1736406520,"current_range_meters":24000,"station_id":"ce4bhm92rcd13ifvqglg","pricing_plan_id":"cebpf4jnsgd1na2vs0mg"},{"bike_id":"e7ae70f7-9028-4369-9a40-f98d783790cd","system_id":"levelo_inurba_marseille","lat":43.3087,"lon":5.39633,"is_reserved":false,"is_disabled":false,"rental_uris":{"android":"levelo://app?vid=e7ae70f7-9028-4369-9a40-f98d783790cd","ios":"levelo://app?vid=e7ae70f7-9028-4369-9a40-f98d783790cd"},"vehicle_type_id":"4","last_reported":1736406520,"current_range_meters":38800,"station_id":"ce4bh012rcd13ifvqcv0","pricing_plan_id":"cebpf4jnsgd1na2vs0mg"},{"bike_id":"b3bcc562-0163-4e5e-9000-dc891d7a2c53","system_id":"levelo_inurba_marseille","lat":43.27426,"lon":5.39412,"is_reserved":false,"is_disabled":false,"rental_uris":{"android":"levelo://app?vid=b3bcc562-0163-4e5e-9000-dc891d7a2c53","ios":"levelo://app?vid=b3bcc562-0163-4e5e-9000-dc891d7a2c53"},"vehicle_type_id":"4","last_reported":1736406520,"current_range_meters":35600,"station_id":"ce4bhdp2rcd13ifvqf20","pricing_plan_id":"cebpf4jnsgd1na2vs0mg"},{"bike_id":"7a0a8a69-615c-43f3-a001-073b74f4a57b","system_id":"levelo_inurba_marseille","lat":43.25577,"lon":5.38222,"is_reserved":false,"is_disabled":false,"rental_uris":{"android":"levelo://app?vid=7a0a8a69-615c-43f3-a001-073b74f4a57b","ios":"levelo://app?vid=7a0a8a69-615c-43f3-a001-073b74f4a57b"},"vehicle_type_id":"4","last_reported":1736406520,"current_range_meters":31200,"station_id":"ce4bhih2rcd13ifvqfs0","pricing_plan_id":"cebpf4jnsgd1na2vs0mg"},{"bike_id":"43beb3ff-6dba-44c4-8cee-ee4bda60cbb9","system_id":"levelo_inurba_marseille","lat":43.27979,"lon":5.38757,"is_reserved":false,"is_disabled":false,"rental_uris":{"android":"levelo://app?vid=43beb3ff-6dba-44c4-8cee-ee4bda60cbb9","ios":"levelo://app?vid=43beb3ff-6dba-44c4-8cee-ee4bda60cbb9"},"vehicle_type_id":"4","last_reported":1736406520,"current_range_meters":6800,"station_id":"ce4bhg12rcd13ifvqf80","pricing_plan_id":"cebpf4jnsgd1na2vs0mg"},{"bike_id":"d03baa4e-a1ff-4dbb-aa3a-8f7610789178","system_id":"levelo_inurba_marseille","lat":43.33741,"lon":5.39214,"is_reserved":false,"is_disabled":false,"rental_uris":{"android":"levelo://app?vid=d03baa4e-a1ff-4dbb-aa3a-8f7610789178","ios":"levelo://app?vid=d03baa4e-a1ff-4dbb-aa3a-8f7610789178"},"vehicle_type_id":"4","last_reported":1736406520,"current_range_meters":38800,"station_id":"ce4bhr92rcd13ifvqhsg","pricing_plan_id":"cebpf4jnsgd1na2vs0mg"},{"bike_id":"d5470c79-2751-4325-8543-6242ca460841","system_id":"levelo_inurba_marseille","lat":43.30479,"lon":5.37904,"is_reserved":false,"is_disabled":false,"rental_uris":{"android":"levelo://app?vid=d5470c79-2751-4325-8543-6242ca460841","ios":"levelo://app?vid=d5470c79-2751-4325-8543-6242ca460841"},"vehicle_type_id":"4","last_reported":1736406520,"current_range_meters":36400,"station_id":"ce4bgup2rcd13ifvqcn0","pricing_plan_id":"cebpf4jnsgd1na2vs0mg"},{"bike_id":"0a3d01c7-b1b6-4282-806b-4f33aa594a92","system_id":"levelo_inurba_marseille","lat":43.24394,"lon":5.3707,"is_reserved":false,"is_disabled":false,"rental_uris":{"android":"levelo://app?vid=0a3d01c7-b1b6-4282-806b-4f33aa594a92","ios":"levelo://app?vid=0a3d01c7-b1b6-4282-806b-4f33aa594a92"},"vehicle_type_id":"4","last_reported":1736406520,"current_range_meters":38800,"station_id":"ce4bhhh2rcd13ifvqfk0","pricing_plan_id":"cebpf4jnsgd1na2vs0mg"},{"bike_id":"290a6b31-1b68-42c3-b8b1-0b352d94cd8b","system_id":"levelo_inurba_marseille","lat":43.27206,"lon":5.39178,"is_reserved":false,"is_disabled":false,"rental_uris":{"android":"levelo://app?vid=290a6b31-1b68-42c3-b8b1-0b352d94cd8b","ios":"levelo://app?vid=290a6b31-1b68-42c3-b8b1-0b352d94cd8b"},"vehicle_type_id":"4","last_reported":1736406520,"current_range_meters":37600,"station_id":"ce4bhhp2rcd13ifvqfm0","pricing_plan_id":"cebpf4jnsgd1na2vs0mg"},{"bike_id":"6634f8bf-9d52-4118-86a1-d5dfb9f73ba8","system_id":"levelo_inurba_marseille","lat":43.284389,"lon":5.391894,"is_reserved":false,"is_disabled":true,"rental_uris":{"android":"levelo://app?vid=6634f8bf-9d52-4118-86a1-d5dfb9f73ba8","ios":"levelo://app?vid=6634f8bf-9d52-4118-86a1-d5dfb9f73ba8"},"vehicle_type_id":"4","last_reported":1736406520,"current_range_meters":36800,"station_id":"ce4bhoh2rcd13ifvqh5g","pricing_plan_id":"cebpf4jnsgd1na2vs0mg"},{"bike_id":"a48e8ede-8b89-467e-ba10-f85bc2205c8e","system_id":"levelo_inurba_marseille","lat":43.281003,"lon":5.378431,"is_reserved":false,"is_disabled":false,"rental_uris":{"android":"levelo://app?vid=a48e8ede-8b89-467e-ba10-f85bc2205c8e","ios":"levelo://app?vid=a48e8ede-8b89-467e-ba10-f85bc2205c8e"},"vehicle_type_id":"4","last_reported":1736406520,"current_range_meters":38800,"station_id":"ce4bha12rcd13ifvqee0","pricing_plan_id":"cebpf4jnsgd1na2vs0mg"},{"bike_id":"5ed0875a-e47c-4908-ab9e-ba87e3a2e914","system_id":"levelo_inurba_marseille","lat":43.30315,"lon":5.40431,"is_reserved":false,"is_disabled":true,"rental_uris":{"android":"levelo://app?vid=5ed0875a-e47c-4908-ab9e-ba87e3a2e914","ios":"levelo://app?vid=5ed0875a-e47c-4908-ab9e-ba87e3a2e914"},"vehicle_type_id":"4","last_reported":1736406520,"current_range_meters":0,"station_id":"ce4bh012rcd13ifvqd10","pricing_plan_id":"cebpf4jnsgd1na2vs0mg"},{"bike_id":"ca9626e5-a457-4577-a0f7-a63c295c1909","system_id":"levelo_inurba_marseille","lat":43.2898,"lon":5.37828,"is_reserved":false,"is_disabled":false,"rental_uris":{"android":"levelo://app?vid=ca9626e5-a457-4577-a0f7-a63c295c1909","ios":"levelo://app?vid=ca9626e5-a457-4577-a0f7-a63c295c1909"},"vehicle_type_id":"4","last_reported":1736406520,"current_range_meters":30400,"station_id":"ce4bh9p2rcd13ifvqed0","pricing_plan_id":"cebpf4jnsgd1na2vs0mg"},{"bike_id":"116bb4c1-3a22-4d49-b9c7-c27e8abe447c","system_id":"levelo_inurba_marseille","lat":43.31335,"lon":5.3968,"is_reserved":false,"is_disabled":false,"rental_uris":{"android":"levelo://app?vid=116bb4c1-3a22-4d49-b9c7-c27e8abe447c","ios":"levelo://app?vid=116bb4c1-3a22-4d49-b9c7-c27e8abe447c"},"vehicle_type_id":"4","last_reported":1736406520,"current_range_meters":38800,"station_id":"ce4bgvp2rcd13ifvqcu0","pricing_plan_id":"cebpf4jnsgd1na2vs0mg"},{"bike_id":"984183ab-4139-4b2d-b3d8-e709d25ef67c","system_id":"levelo_inurba_marseille","lat":43.31526,"lon":5.38932,"is_reserved":false,"is_disabled":false,"rental_uris":{"android":"levelo://app?vid=984183ab-4139-4b2d-b3d8-e709d25ef67c","ios":"levelo://app?vid=984183ab-4139-4b2d-b3d8-e709d25ef67c"},"vehicle_type_id":"4","last_reported":1736406520,"current_range_meters":14000,"station_id":"","pricing_plan_id":"cebpf4jnsgd1na2vs0mg"},{"bike_id":"e3487d63-f120-4e4c-a770-3d093ba1410b","system_id":"levelo_inurba_marseille","lat":43.2408,"lon":5.37747,"is_reserved":false,"is_disabled":false,"rental_uris":{"android":"levelo://app?vid=e3487d63-f120-4e4c-a770-3d093ba1410b","ios":"levelo://app?vid=e3487d63-f120-4e4c-a770-3d093ba1410b"},"vehicle_type_id":"4","last_reported":1736406520,"current_range_meters":31200,"station_id":"ce4bhnp2rcd13ifvqgvg","pricing_plan_id":"cebpf4jnsgd1na2vs0mg"},{"bike_id":"2e7a3700-1fc2-42d8-8b5e-d8508213efaa","system_id":"levelo_inurba_marseille","lat":43.30776,"lon":5.37633,"is_reserved":false,"is_disabled":false,"rental_uris":{"android":"levelo://app?vid=2e7a3700-1fc2-42d8-8b5e-d8508213efaa","ios":"levelo://app?vid=2e7a3700-1fc2-42d8-8b5e-d8508213efaa"},"vehicle_type_id":"4","last_reported":1736406520,"current_range_meters":38000,"station_id":"ce4bgv92rcd13ifvqcq0","pricing_plan_id":"cebpf4jnsgd1na2vs0mg"},{"bike_id":"41c552b0-b252-484d-958b-0e183eb269d5","system_id":"levelo_inurba_marseille","lat":43.27496,"lon":5.42448,"is_reserved":false,"is_disabled":false,"rental_uris":{"android":"levelo://app?vid=41c552b0-b252-484d-958b-0e183eb269d5","ios":"levelo://app?vid=41c552b0-b252-484d-958b-0e183eb269d5"},"vehicle_type_id":"4","last_reported":1736406520,"current_range_meters":2800,"station_id":"ce4bhn92rcd13ifvqgrg","pricing_plan_id":"cebpf4jnsgd1na2vs0mg"},{"bike_id":"2521e2ab-d3d0-4401-aa84-15ce3c1bee78","system_id":"levelo_inurba_marseille","lat":43.31713,"lon":5.42393,"is_reserved":false,"is_disabled":false,"rental_uris":{"android":"levelo://app?vid=2521e2ab-d3d0-4401-aa84-15ce3c1bee78","ios":"levelo://app?vid=2521e2ab-d3d0-4401-aa84-15ce3c1bee78"},"vehicle_type_id":"4","last_reported":1736406520,"current_range_meters":38800,"station_id":"ce4bhp92rcd13ifvqhbg","pricing_plan_id":"cebpf4jnsgd1na2vs0mg"},{"bike_id":"bb5f7b1b-fafb-45b0-a6b7-306e5a25c30d","system_id":"levelo_inurba_marseille","lat":43.23153,"lon":5.4372,"is_reserved":false,"is_disabled":false,"rental_uris":{"android":"levelo://app?vid=bb5f7b1b-fafb-45b0-a6b7-306e5a25c30d","ios":"levelo://app?vid=bb5f7b1b-fafb-45b0-a6b7-306e5a25c30d"},"vehicle_type_id":"4","last_reported":1736406520,"current_range_meters":20800,"station_id":"ce4bhmp2rcd13ifvqgog","pricing_plan_id":"cebpf4jnsgd1na2vs0mg"},{"bike_id":"8b39156c-3ea4-4869-b1d6-7c5c55ac828a","system_id":"levelo_inurba_marseille","lat":43.24052,"lon":5.37707,"is_reserved":false,"is_disabled":false,"rental_uris":{"android":"levelo://app?vid=8b39156c-3ea4-4869-b1d6-7c5c55ac828a","ios":"levelo://app?vid=8b39156c-3ea4-4869-b1d6-7c5c55ac828a"},"vehicle_type_id":"4","last_reported":1736406520,"current_range_meters":2800,"station_id":"ce4bhnp2rcd13ifvqgvg","pricing_plan_id":"cebpf4jnsgd1na2vs0mg"},{"bike_id":"c1036f07-11e0-4d1c-ac50-b0205b60a939","system_id":"levelo_inurba_marseille","lat":43.30956,"lon":5.39055,"is_reserved":false,"is_disabled":false,"rental_uris":{"android":"levelo://app?vid=c1036f07-11e0-4d1c-ac50-b0205b60a939","ios":"levelo://app?vid=c1036f07-11e0-4d1c-ac50-b0205b60a939"},"vehicle_type_id":"4","last_reported":1736406520,"current_range_meters":38800,"station_id":"ce4bgup2rcd13ifvqco0","pricing_plan_id":"cebpf4jnsgd1na2vs0mg"},{"bike_id":"bd2625b1-3fbd-4bba-be12-e2b9bac661f2","system_id":"levelo_inurba_marseille","lat":43.30263,"lon":5.4007,"is_reserved":false,"is_disabled":false,"rental_uris":{"android":"levelo://app?vid=bd2625b1-3fbd-4bba-be12-e2b9bac661f2","ios":"levelo://app?vid=bd2625b1-3fbd-4bba-be12-e2b9bac661f2"},"vehicle_type_id":"4","last_reported":1736406520,"current_range_meters":38800,"station_id":"ce4bgvh2rcd13ifvqcs0","pricing_plan_id":"cebpf4jnsgd1na2vs0mg"},{"bike_id":"61f80575-9f0e-4647-b8bb-2460d9473614","system_id":"levelo_inurba_marseille","lat":43.27551,"lon":5.38399,"is_reserved":false,"is_disabled":false,"rental_uris":{"android":"levelo://app?vid=61f80575-9f0e-4647-b8bb-2460d9473614","ios":"levelo://app?vid=61f80575-9f0e-4647-b8bb-2460d9473614"},"vehicle_type_id":"4","last_reported":1736406520,"current_range_meters":38800,"station_id":"ce4bhh92rcd13ifvqfi0","pricing_plan_id":"cebpf4jnsgd1na2vs0mg"},{"bike_id":"3e9af0f3-c885-4d2f-828e-990566482751","system_id":"levelo_inurba_marseille","lat":43.31376,"lon":5.38524,"is_reserved":false,"is_disabled":true,"rental_uris":{"android":"levelo://app?vid=3e9af0f3-c885-4d2f-828e-990566482751","ios":"levelo://app?vid=3e9af0f3-c885-4d2f-828e-990566482751"},"vehicle_type_id":"4","last_reported":1736406520,"current_range_meters":0,"station_id":"ce4bgt92rcd13ifvqcf0","pricing_plan_id":"cebpf4jnsgd1na2vs0mg"},{"bike_id":"b21dcf80-509b-405b-bb35-c7b3d9eba343","system_id":"levelo_inurba_marseille","lat":43.27066,"lon":5.42275,"is_reserved":false,"is_disabled":false,"rental_uris":{"android":"levelo://app?vid=b21dcf80-509b-405b-bb35-c7b3d9eba343","ios":"levelo://app?vid=b21dcf80-509b-405b-bb35-c7b3d9eba343"},"vehicle_type_id":"4","last_reported":1736406520,"current_range_meters":38800,"station_id":"ce4bhk92rcd13ifvqgb0","pricing_plan_id":"cebpf4jnsgd1na2vs0mg"},{"bike_id":"37d8e1ef-d932-49d7-b893-49542cf44d13","system_id":"levelo_inurba_marseille","lat":43.32345,"lon":5.40629,"is_reserved":false,"is_disabled":true,"rental_uris":{"android":"levelo://app?vid=37d8e1ef-d932-49d7-b893-49542cf44d13","ios":"levelo://app?vid=37d8e1ef-d932-49d7-b893-49542cf44d13"},"vehicle_type_id":"4","last_reported":1736406520,"current_range_meters":0,"station_id":"ce4bhq92rcd13ifvqhjg","pricing_plan_id":"cebpf4jnsgd1na2vs0mg"},{"bike_id":"4904d0bc-e18b-4ac0-b1ee-44609e488324","system_id":"levelo_inurba_marseille","lat":43.28726,"lon":5.39977,"is_reserved":false,"is_disabled":false,"rental_uris":{"android":"levelo://app?vid=4904d0bc-e18b-4ac0-b1ee-44609e488324","ios":"levelo://app?vid=4904d0bc-e18b-4ac0-b1ee-44609e488324"},"vehicle_type_id":"4","last_reported":1736406520,"current_range_meters":36400,"station_id":"ce4bho92rcd13ifvqh3g","pricing_plan_id":"cebpf4jnsgd1na2vs0mg"},{"bike_id":"2f81e22d-0e56-46f9-83d0-f9bf7f3497c1","system_id":"levelo_inurba_marseille","lat":43.279578,"lon":5.387567,"is_reserved":false,"is_disabled":false,"rental_uris":{"android":"levelo://app?vid=2f81e22d-0e56-46f9-83d0-f9bf7f3497c1","ios":"levelo://app?vid=2f81e22d-0e56-46f9-83d0-f9bf7f3497c1"},"vehicle_type_id":"4","last_reported":1736406520,"current_range_meters":31200,"station_id":"ce4bhg12rcd13ifvqf80","pricing_plan_id":"cebpf4jnsgd1na2vs0mg"},{"bike_id":"4074752c-248e-472f-9cc8-f4a66852bbfc","system_id":"levelo_inurba_marseille","lat":43.28067,"lon":5.38702,"is_reserved":false,"is_disabled":false,"rental_uris":{"android":"levelo://app?vid=4074752c-248e-472f-9cc8-f4a66852bbfc","ios":"levelo://app?vid=4074752c-248e-472f-9cc8-f4a66852bbfc"},"vehicle_type_id":"4","last_reported":1736406520,"current_range_meters":30000,"station_id":"","pricing_plan_id":"cebpf4jnsgd1na2vs0mg"},{"bike_id":"63c817a8-7fe4-4bba-9c1c-70e578257f97","system_id":"levelo_inurba_marseille","lat":43.23964,"lon":5.36634,"is_reserved":false,"is_disabled":false,"rental_uris":{"android":"levelo://app?vid=63c817a8-7fe4-4bba-9c1c-70e578257f97","ios":"levelo://app?vid=63c817a8-7fe4-4bba-9c1c-70e578257f97"},"vehicle_type_id":"4","last_reported":1736406520,"current_range_meters":38400,"station_id":"ce4bhi12rcd13ifvqfp0","pricing_plan_id":"cebpf4jnsgd1na2vs0mg"},{"bike_id":"216b12e6-a63b-48f3-854d-b8d1c2435f3b","system_id":"levelo_inurba_marseille","lat":43.30476,"lon":5.37917,"is_reserved":false,"is_disabled":false,"rental_uris":{"android":"levelo://app?vid=216b12e6-a63b-48f3-854d-b8d1c2435f3b","ios":"levelo://app?vid=216b12e6-a63b-48f3-854d-b8d1c2435f3b"},"vehicle_type_id":"4","last_reported":1736406520,"current_range_meters":35600,"station_id":"ce4bgup2rcd13ifvqcn0","pricing_plan_id":"cebpf4jnsgd1na2vs0mg"},{"bike_id":"898fe005-787c-488c-9d2f-278306db1139","system_id":"levelo_inurba_marseille","lat":43.27206,"lon":5.39178,"is_reserved":false,"is_disabled":false,"rental_uris":{"android":"levelo://app?vid=898fe005-787c-488c-9d2f-278306db1139","ios":"levelo://app?vid=898fe005-787c-488c-9d2f-278306db1139"},"vehicle_type_id":"4","last_reported":1736406520,"current_range_meters":27600,"station_id":"ce4bhhp2rcd13ifvqfm0","pricing_plan_id":"cebpf4jnsgd1na2vs0mg"},{"bike_id":"3a77ca4d-f207-4f1c-958f-bb3e3a5a4d4b","system_id":"levelo_inurba_marseille","lat":43.25109,"lon":5.40336,"is_reserved":false,"is_disabled":false,"rental_uris":{"android":"levelo://app?vid=3a77ca4d-f207-4f1c-958f-bb3e3a5a4d4b","ios":"levelo://app?vid=3a77ca4d-f207-4f1c-958f-bb3e3a5a4d4b"},"vehicle_type_id":"4","last_reported":1736406520,"current_range_meters":32400,"station_id":"ce4bhlh2rcd13ifvqgig","pricing_plan_id":"cebpf4jnsgd1na2vs0mg"},{"bike_id":"3b513532-f64c-468d-866e-d5dbf85a9ed1","system_id":"levelo_inurba_marseille","lat":43.29301,"lon":5.37468,"is_reserved":false,"is_disabled":false,"rental_uris":{"android":"levelo://app?vid=3b513532-f64c-468d-866e-d5dbf85a9ed1","ios":"levelo://app?vid=3b513532-f64c-468d-866e-d5dbf85a9ed1"},"vehicle_type_id":"4","last_reported":1736406520,"current_range_meters":31200,"station_id":"ce4bgi12rcd13ifvqb70","pricing_plan_id":"cebpf4jnsgd1na2vs0mg"},{"bike_id":"770d93aa-0c23-4871-aa60-b8e9be50c50c","system_id":"levelo_inurba_marseille","lat":43.33117,"lon":5.38211,"is_reserved":false,"is_disabled":false,"rental_uris":{"android":"levelo://app?vid=770d93aa-0c23-4871-aa60-b8e9be50c50c","ios":"levelo://app?vid=770d93aa-0c23-4871-aa60-b8e9be50c50c"},"vehicle_type_id":"4","last_reported":1736406520,"current_range_meters":28000,"station_id":"","pricing_plan_id":"cebpf4jnsgd1na2vs0mg"},{"bike_id":"7cdfe5cb-2d56-48e1-be17-c9c1f3d2949e","system_id":"levelo_inurba_marseille","lat":43.2749,"lon":5.42433,"is_reserved":false,"is_disabled":false,"rental_uris":{"android":"levelo://app?vid=7cdfe5cb-2d56-48e1-be17-c9c1f3d2949e","ios":"levelo://app?vid=7cdfe5cb-2d56-48e1-be17-c9c1f3d2949e"},"vehicle_type_id":"4","last_reported":1736406520,"current_range_meters":27600,"station_id":"ce4bhn92rcd13ifvqgrg","pricing_plan_id":"cebpf4jnsgd1na2vs0mg"},{"bike_id":"f162e091-eaf8-40f8-b4ce-6d0b5a00bdb2","system_id":"levelo_inurba_marseille","lat":43.28036,"lon":5.36927,"is_reserved":false,"is_disabled":false,"rental_uris":{"android":"levelo://app?vid=f162e091-eaf8-40f8-b4ce-6d0b5a00bdb2","ios":"levelo://app?vid=f162e091-eaf8-40f8-b4ce-6d0b5a00bdb2"},"vehicle_type_id":"4","last_reported":1736406520,"current_range_meters":30800,"station_id":"ce4bha12rcd13ifvqef0","pricing_plan_id":"cebpf4jnsgd1na2vs0mg"},{"bike_id":"8e31379e-d2cf-485c-9315-17ecd57dce5b","system_id":"levelo_inurba_marseille","lat":43.27498,"lon":5.42451,"is_reserved":false,"is_disabled":false,"rental_uris":{"android":"levelo://app?vid=8e31379e-d2cf-485c-9315-17ecd57dce5b","ios":"levelo://app?vid=8e31379e-d2cf-485c-9315-17ecd57dce5b"},"vehicle_type_id":"4","last_reported":1736406520,"current_range_meters":36000,"station_id":"ce4bhn92rcd13ifvqgrg","pricing_plan_id":"cebpf4jnsgd1na2vs0mg"},{"bike_id":"7277abf6-1732-4723-9bef-c0330eccd972","system_id":"levelo_inurba_marseille","lat":43.27494,"lon":5.42449,"is_reserved":false,"is_disabled":false,"rental_uris":{"android":"levelo://app?vid=7277abf6-1732-4723-9bef-c0330eccd972","ios":"levelo://app?vid=7277abf6-1732-4723-9bef-c0330eccd972"},"vehicle_type_id":"4","last_reported":1736406520,"current_range_meters":35600,"station_id":"ce4bhn92rcd13ifvqgrg","pricing_plan_id":"cebpf4jnsgd1na2vs0mg"},{"bike_id":"36dc3b8f-35c2-4724-9be8-254949aa0f52","system_id":"levelo_inurba_marseille","lat":43.28695,"lon":5.37382,"is_reserved":false,"is_disabled":false,"rental_uris":{"android":"levelo://app?vid=36dc3b8f-35c2-4724-9be8-254949aa0f52","ios":"levelo://app?vid=36dc3b8f-35c2-4724-9be8-254949aa0f52"},"vehicle_type_id":"4","last_reported":1736406520,"current_range_meters":15200,"station_id":"ce4bhdp2rcd13ifvqf20","pricing_plan_id":"cebpf4jnsgd1na2vs0mg"},{"bike_id":"afef8454-25f1-45ab-bb05-70901f285be0","system_id":"levelo_inurba_marseille","lat":43.30152,"lon":5.38077,"is_reserved":false,"is_disabled":false,"rental_uris":{"android":"levelo://app?vid=afef8454-25f1-45ab-bb05-70901f285be0","ios":"levelo://app?vid=afef8454-25f1-45ab-bb05-70901f285be0"},"vehicle_type_id":"4","last_reported":1736406520,"current_range_meters":33600,"station_id":"ce4bgjp2rcd13ifvqbh0","pricing_plan_id":"cebpf4jnsgd1na2vs0mg"},{"bike_id":"60ce1b70-e47d-4caf-abee-52e7d5bfe299","system_id":"levelo_inurba_marseille","lat":43.24641,"lon":5.389,"is_reserved":false,"is_disabled":false,"rental_uris":{"android":"levelo://app?vid=60ce1b70-e47d-4caf-abee-52e7d5bfe299","ios":"levelo://app?vid=60ce1b70-e47d-4caf-abee-52e7d5bfe299"},"vehicle_type_id":"4","last_reported":1736406520,"current_range_meters":38800,"station_id":"ce4bhg12rcd13ifvqf60","pricing_plan_id":"cebpf4jnsgd1na2vs0mg"},{"bike_id":"5459b7d3-63f4-48c6-b477-8f2d1d2004c2","system_id":"levelo_inurba_marseille","lat":43.3067,"lon":5.40095,"is_reserved":false,"is_disabled":false,"rental_uris":{"android":"levelo://app?vid=5459b7d3-63f4-48c6-b477-8f2d1d2004c2","ios":"levelo://app?vid=5459b7d3-63f4-48c6-b477-8f2d1d2004c2"},"vehicle_type_id":"4","last_reported":1736406520,"current_range_meters":35200,"station_id":"ce4bh112rcd13ifvqda0","pricing_plan_id":"cebpf4jnsgd1na2vs0mg"},{"bike_id":"74a7c9cd-79b2-4a4d-a37f-7545b427bc64","system_id":"levelo_inurba_marseille","lat":43.33767,"lon":5.37431,"is_reserved":false,"is_disabled":false,"rental_uris":{"android":"levelo://app?vid=74a7c9cd-79b2-4a4d-a37f-7545b427bc64","ios":"levelo://app?vid=74a7c9cd-79b2-4a4d-a37f-7545b427bc64"},"vehicle_type_id":"4","last_reported":1736406520,"current_range_meters":29600,"station_id":"","pricing_plan_id":"cebpf4jnsgd1na2vs0mg"},{"bike_id":"22b674e4-ddb8-4af9-805f-1c0f8e6dbb2e","system_id":"levelo_inurba_marseille","lat":43.286204,"lon":5.351076,"is_reserved":false,"is_disabled":false,"rental_uris":{"android":"levelo://app?vid=22b674e4-ddb8-4af9-805f-1c0f8e6dbb2e","ios":"levelo://app?vid=22b674e4-ddb8-4af9-805f-1c0f8e6dbb2e"},"vehicle_type_id":"4","last_reported":1736406520,"current_range_meters":24800,"station_id":"ce4bhch2rcd13ifvqeug","pricing_plan_id":"cebpf4jnsgd1na2vs0mg"},{"bike_id":"01da78b9-bf8c-4af1-ac40-8283bd8b12b3","system_id":"levelo_inurba_marseille","lat":43.2984,"lon":5.43712,"is_reserved":false,"is_disabled":true,"rental_uris":{"android":"levelo://app?vid=01da78b9-bf8c-4af1-ac40-8283bd8b12b3","ios":"levelo://app?vid=01da78b9-bf8c-4af1-ac40-8283bd8b12b3"},"vehicle_type_id":"4","last_reported":1736406520,"current_range_meters":38800,"station_id":"","pricing_plan_id":"cebpf4jnsgd1na2vs0mg"},{"bike_id":"48ce03f6-f3a8-490e-8671-5ca1c760d650","system_id":"levelo_inurba_marseille","lat":43.28954,"lon":5.36643,"is_reserved":false,"is_disabled":true,"rental_uris":{"android":"levelo://app?vid=48ce03f6-f3a8-490e-8671-5ca1c760d650","ios":"levelo://app?vid=48ce03f6-f3a8-490e-8671-5ca1c760d650"},"vehicle_type_id":"4","last_reported":1736406520,"current_range_meters":36400,"station_id":"ce4bhap2rcd13ifvqek0","pricing_plan_id":"cebpf4jnsgd1na2vs0mg"},{"bike_id":"1d27be0d-961c-4e0d-8ce0-c23bf855f1df","system_id":"levelo_inurba_marseille","lat":43.28275,"lon":5.35069,"is_reserved":false,"is_disabled":false,"rental_uris":{"android":"levelo://app?vid=1d27be0d-961c-4e0d-8ce0-c23bf855f1df","ios":"levelo://app?vid=1d27be0d-961c-4e0d-8ce0-c23bf855f1df"},"vehicle_type_id":"4","last_reported":1736406520,"current_range_meters":38800,"station_id":"ce4bhbp2rcd13ifvqerg","pricing_plan_id":"cebpf4jnsgd1na2vs0mg"},{"bike_id":"894e3b75-49bb-43b3-b8d6-04abf8a326ba","system_id":"levelo_inurba_marseille","lat":43.24801,"lon":5.37452,"is_reserved":false,"is_disabled":false,"rental_uris":{"android":"levelo://app?vid=894e3b75-49bb-43b3-b8d6-04abf8a326ba","ios":"levelo://app?vid=894e3b75-49bb-43b3-b8d6-04abf8a326ba"},"vehicle_type_id":"4","last_reported":1736406520,"current_range_meters":38800,"station_id":"ce4bhgh2rcd13ifvqfb0","pricing_plan_id":"cebpf4jnsgd1na2vs0mg"},{"bike_id":"ed85b8d0-f318-47a1-b18d-2e0b9cd4c0ab","system_id":"levelo_inurba_marseille","lat":43.30602,"lon":5.39357,"is_reserved":false,"is_disabled":false,"rental_uris":{"android":"levelo://app?vid=ed85b8d0-f318-47a1-b18d-2e0b9cd4c0ab","ios":"levelo://app?vid=ed85b8d0-f318-47a1-b18d-2e0b9cd4c0ab"},"vehicle_type_id":"4","last_reported":1736406520,"current_range_meters":35200,"station_id":"ce4bh0p2rcd13ifvqd80","pricing_plan_id":"cebpf4jnsgd1na2vs0mg"},{"bike_id":"baed37d9-12de-44ee-9b42-4d103c2ba688","system_id":"levelo_inurba_marseille","lat":43.26908,"lon":5.40232,"is_reserved":false,"is_disabled":false,"rental_uris":{"android":"levelo://app?vid=baed37d9-12de-44ee-9b42-4d103c2ba688","ios":"levelo://app?vid=baed37d9-12de-44ee-9b42-4d103c2ba688"},"vehicle_type_id":"4","last_reported":1736406520,"current_range_meters":38800,"station_id":"cjm6bp8fraef2m0cb0m0","pricing_plan_id":"cebpf4jnsgd1na2vs0mg"},{"bike_id":"6c9daffc-e174-4a9a-8b3e-30a6cf4027c8","system_id":"levelo_inurba_marseille","lat":43.32108,"lon":5.368,"is_reserved":false,"is_disabled":false,"rental_uris":{"android":"levelo://app?vid=6c9daffc-e174-4a9a-8b3e-30a6cf4027c8","ios":"levelo://app?vid=6c9daffc-e174-4a9a-8b3e-30a6cf4027c8"},"vehicle_type_id":"4","last_reported":1736406520,"current_range_meters":16400,"station_id":"ce4bhrh2rcd13ifvqhug","pricing_plan_id":"cebpf4jnsgd1na2vs0mg"},{"bike_id":"93b7e7bc-917a-4253-af1e-71755c2c5a70","system_id":"levelo_inurba_marseille","lat":43.29609,"lon":5.37709,"is_reserved":false,"is_disabled":true,"rental_uris":{"android":"levelo://app?vid=93b7e7bc-917a-4253-af1e-71755c2c5a70","ios":"levelo://app?vid=93b7e7bc-917a-4253-af1e-71755c2c5a70"},"vehicle_type_id":"4","last_reported":1736406520,"current_range_meters":12000,"station_id":"ce4bgi92rcd13ifvqb90","pricing_plan_id":"cebpf4jnsgd1na2vs0mg"},{"bike_id":"5a601347-bd3e-4b1e-8ebd-18648b468b2e","system_id":"levelo_inurba_marseille","lat":43.28726,"lon":5.39985,"is_reserved":false,"is_disabled":false,"rental_uris":{"android":"levelo://app?vid=5a601347-bd3e-4b1e-8ebd-18648b468b2e","ios":"levelo://app?vid=5a601347-bd3e-4b1e-8ebd-18648b468b2e"},"vehicle_type_id":"4","last_reported":1736406520,"current_range_meters":23200,"station_id":"","pricing_plan_id":"cebpf4jnsgd1na2vs0mg"},{"bike_id":"0eb7659f-ca88-4600-85b9-5fc1232c8636","system_id":"levelo_inurba_marseille","lat":43.287096,"lon":5.379436,"is_reserved":false,"is_disabled":false,"rental_uris":{"android":"levelo://app?vid=0eb7659f-ca88-4600-85b9-5fc1232c8636","ios":"levelo://app?vid=0eb7659f-ca88-4600-85b9-5fc1232c8636"},"vehicle_type_id":"4","last_reported":1736406520,"current_range_meters":38400,"station_id":"ce4bh9p2rcd13ifvqec0","pricing_plan_id":"cebpf4jnsgd1na2vs0mg"},{"bike_id":"aa93e012-148e-4dfc-80c5-c18401d721dd","system_id":"levelo_inurba_marseille","lat":43.27973,"lon":5.38752,"is_reserved":false,"is_disabled":false,"rental_uris":{"android":"levelo://app?vid=aa93e012-148e-4dfc-80c5-c18401d721dd","ios":"levelo://app?vid=aa93e012-148e-4dfc-80c5-c18401d721dd"},"vehicle_type_id":"4","last_reported":1736406520,"current_range_meters":38400,"station_id":"ce4bhg12rcd13ifvqf80","pricing_plan_id":"cebpf4jnsgd1na2vs0mg"},{"bike_id":"4bffd4f7-21d9-4fbc-858f-50b206ef4fc5","system_id":"levelo_inurba_marseille","lat":43.29808,"lon":5.38081,"is_reserved":false,"is_disabled":false,"rental_uris":{"android":"levelo://app?vid=4bffd4f7-21d9-4fbc-858f-50b206ef4fc5","ios":"levelo://app?vid=4bffd4f7-21d9-4fbc-858f-50b206ef4fc5"},"vehicle_type_id":"4","last_reported":1736406520,"current_range_meters":33200,"station_id":"ce4bgip2rcd13ifvqbb0","pricing_plan_id":"cebpf4jnsgd1na2vs0mg"},{"bike_id":"49f71cfb-5f4f-4efd-8023-2c4eb676a391","system_id":"levelo_inurba_marseille","lat":43.24169,"lon":5.36392,"is_reserved":false,"is_disabled":false,"rental_uris":{"android":"levelo://app?vid=49f71cfb-5f4f-4efd-8023-2c4eb676a391","ios":"levelo://app?vid=49f71cfb-5f4f-4efd-8023-2c4eb676a391"},"vehicle_type_id":"4","last_reported":1736406520,"current_range_meters":34800,"station_id":"cpo36qri1sfpv3e86is0","pricing_plan_id":"cebpf4jnsgd1na2vs0mg"},{"bike_id":"546fbb96-800b-4f90-be23-b4f678471f8f","system_id":"levelo_inurba_marseille","lat":43.25574,"lon":5.38227,"is_reserved":false,"is_disabled":false,"rental_uris":{"android":"levelo://app?vid=546fbb96-800b-4f90-be23-b4f678471f8f","ios":"levelo://app?vid=546fbb96-800b-4f90-be23-b4f678471f8f"},"vehicle_type_id":"4","last_reported":1736406520,"current_range_meters":12000,"station_id":"ce4bhih2rcd13ifvqfs0","pricing_plan_id":"cebpf4jnsgd1na2vs0mg"},{"bike_id":"d4af3af2-c4a3-4e33-ae12-ec420c6e3ec1","system_id":"levelo_inurba_marseille","lat":43.32027,"lon":5.41486,"is_reserved":false,"is_disabled":false,"rental_uris":{"android":"levelo://app?vid=d4af3af2-c4a3-4e33-ae12-ec420c6e3ec1","ios":"levelo://app?vid=d4af3af2-c4a3-4e33-ae12-ec420c6e3ec1"},"vehicle_type_id":"4","last_reported":1736406520,"current_range_meters":33600,"station_id":"ce4bhq92rcd13ifvqhkg","pricing_plan_id":"cebpf4jnsgd1na2vs0mg"},{"bike_id":"95d3448a-591f-493e-a463-7ae24e6b0478","system_id":"levelo_inurba_marseille","lat":43.30144,"lon":5.38805,"is_reserved":false,"is_disabled":true,"rental_uris":{"android":"levelo://app?vid=95d3448a-591f-493e-a463-7ae24e6b0478","ios":"levelo://app?vid=95d3448a-591f-493e-a463-7ae24e6b0478"},"vehicle_type_id":"4","last_reported":1736406520,"current_range_meters":16000,"station_id":"ce4bghh2rcd13ifvqb60","pricing_plan_id":"cebpf4jnsgd1na2vs0mg"},{"bike_id":"ec50e564-50cf-4b9e-a679-3e9a416fa80f","system_id":"levelo_inurba_marseille","lat":43.30466,"lon":5.37905,"is_reserved":false,"is_disabled":false,"rental_uris":{"android":"levelo://app?vid=ec50e564-50cf-4b9e-a679-3e9a416fa80f","ios":"levelo://app?vid=ec50e564-50cf-4b9e-a679-3e9a416fa80f"},"vehicle_type_id":"4","last_reported":1736406520,"current_range_meters":20000,"station_id":"ce4bgup2rcd13ifvqcn0","pricing_plan_id":"cebpf4jnsgd1na2vs0mg"},{"bike_id":"5a65b83f-d577-4d9e-9266-b87c271925e6","system_id":"levelo_inurba_marseille","lat":43.28563,"lon":5.39503,"is_reserved":false,"is_disabled":false,"rental_uris":{"android":"levelo://app?vid=5a65b83f-d577-4d9e-9266-b87c271925e6","ios":"levelo://app?vid=5a65b83f-d577-4d9e-9266-b87c271925e6"},"vehicle_type_id":"4","last_reported":1736406520,"current_range_meters":38800,"station_id":"ce4bh292rcd13ifvqdg0","pricing_plan_id":"cebpf4jnsgd1na2vs0mg"},{"bike_id":"507309ad-2c5e-4442-b16a-0a701fe1fda0","system_id":"levelo_inurba_marseille","lat":43.3055,"lon":5.36564,"is_reserved":false,"is_disabled":true,"rental_uris":{"android":"levelo://app?vid=507309ad-2c5e-4442-b16a-0a701fe1fda0","ios":"levelo://app?vid=507309ad-2c5e-4442-b16a-0a701fe1fda0"},"vehicle_type_id":"4","last_reported":1736406520,"current_range_meters":0,"station_id":"ce4bgs12rcd13ifvqcag","pricing_plan_id":"cebpf4jnsgd1na2vs0mg"},{"bike_id":"dffac218-ec8c-423e-a7ee-c9f680375aa9","system_id":"levelo_inurba_marseille","lat":43.28829,"lon":5.35848,"is_reserved":false,"is_disabled":false,"rental_uris":{"android":"levelo://app?vid=dffac218-ec8c-423e-a7ee-c9f680375aa9","ios":"levelo://app?vid=dffac218-ec8c-423e-a7ee-c9f680375aa9"},"vehicle_type_id":"4","last_reported":1736406520,"current_range_meters":20400,"station_id":"ce4bhb12rcd13ifvqem0","pricing_plan_id":"cebpf4jnsgd1na2vs0mg"},{"bike_id":"c3fed3ff-6b92-4fcd-9518-3530a380cb58","system_id":"levelo_inurba_marseille","lat":43.28943,"lon":5.36423,"is_reserved":false,"is_disabled":true,"rental_uris":{"android":"levelo://app?vid=c3fed3ff-6b92-4fcd-9518-3530a380cb58","ios":"levelo://app?vid=c3fed3ff-6b92-4fcd-9518-3530a380cb58"},"vehicle_type_id":"4","last_reported":1736406520,"current_range_meters":38000,"station_id":"ce4bhc92rcd13ifvqetg","pricing_plan_id":"cebpf4jnsgd1na2vs0mg"},{"bike_id":"1e2223a2-c032-49e7-8dbf-982df86a0520","system_id":"levelo_inurba_marseille","lat":43.22932,"lon":5.35378,"is_reserved":false,"is_disabled":false,"rental_uris":{"android":"levelo://app?vid=1e2223a2-c032-49e7-8dbf-982df86a0520","ios":"levelo://app?vid=1e2223a2-c032-49e7-8dbf-982df86a0520"},"vehicle_type_id":"4","last_reported":1736406520,"current_range_meters":36800,"station_id":"cpo3532slgdg3j2ikp40","pricing_plan_id":"cebpf4jnsgd1na2vs0mg"},{"bike_id":"939e1ba9-60a9-437b-8a66-ad071922dd94","system_id":"levelo_inurba_marseille","lat":43.29098,"lon":5.38134,"is_reserved":false,"is_disabled":false,"rental_uris":{"android":"levelo://app?vid=939e1ba9-60a9-437b-8a66-ad071922dd94","ios":"levelo://app?vid=939e1ba9-60a9-437b-8a66-ad071922dd94"},"vehicle_type_id":"4","last_reported":1736406520,"current_range_meters":37600,"station_id":"ce4bh512rcd13ifvqe2g","pricing_plan_id":"cebpf4jnsgd1na2vs0mg"},{"bike_id":"c56b2502-6c9c-45cc-90bd-6a7bee2ed06a","system_id":"levelo_inurba_marseille","lat":43.31491,"lon":5.37304,"is_reserved":false,"is_disabled":false,"rental_uris":{"android":"levelo://app?vid=c56b2502-6c9c-45cc-90bd-6a7bee2ed06a","ios":"levelo://app?vid=c56b2502-6c9c-45cc-90bd-6a7bee2ed06a"},"vehicle_type_id":"4","last_reported":1736406520,"current_range_meters":36800,"station_id":"ce4bgt12rcd13ifvqcd0","pricing_plan_id":"cebpf4jnsgd1na2vs0mg"},{"bike_id":"3aefb9c1-3e4a-487c-b413-b90ef97c7063","system_id":"levelo_inurba_marseille","lat":43.24075,"lon":5.37746,"is_reserved":false,"is_disabled":false,"rental_uris":{"android":"levelo://app?vid=3aefb9c1-3e4a-487c-b413-b90ef97c7063","ios":"levelo://app?vid=3aefb9c1-3e4a-487c-b413-b90ef97c7063"},"vehicle_type_id":"4","last_reported":1736406520,"current_range_meters":16800,"station_id":"ce4bhnp2rcd13ifvqgvg","pricing_plan_id":"cebpf4jnsgd1na2vs0mg"},{"bike_id":"be8a233f-ad85-41b2-af03-bfa1e3033438","system_id":"levelo_inurba_marseille","lat":43.2321,"lon":5.3554,"is_reserved":false,"is_disabled":false,"rental_uris":{"android":"levelo://app?vid=be8a233f-ad85-41b2-af03-bfa1e3033438","ios":"levelo://app?vid=be8a233f-ad85-41b2-af03-bfa1e3033438"},"vehicle_type_id":"4","last_reported":1736406520,"current_range_meters":28800,"station_id":"ce4bhu92rcd13ifvqi70","pricing_plan_id":"cebpf4jnsgd1na2vs0mg"},{"bike_id":"047047ae-29eb-4e53-bcc6-b91acc7fed00","system_id":"levelo_inurba_marseille","lat":43.31695,"lon":5.40457,"is_reserved":false,"is_disabled":false,"rental_uris":{"android":"levelo://app?vid=047047ae-29eb-4e53-bcc6-b91acc7fed00","ios":"levelo://app?vid=047047ae-29eb-4e53-bcc6-b91acc7fed00"},"vehicle_type_id":"4","last_reported":1736406520,"current_range_meters":36000,"station_id":"ce4bh012rcd13ifvqd00","pricing_plan_id":"cebpf4jnsgd1na2vs0mg"},{"bike_id":"ce0d4b53-1587-493b-9be1-60a77a2c352b","system_id":"levelo_inurba_marseille","lat":43.27503,"lon":5.42451,"is_reserved":false,"is_disabled":false,"rental_uris":{"android":"levelo://app?vid=ce0d4b53-1587-493b-9be1-60a77a2c352b","ios":"levelo://app?vid=ce0d4b53-1587-493b-9be1-60a77a2c352b"},"vehicle_type_id":"4","last_reported":1736406520,"current_range_meters":18000,"station_id":"ce4bhn92rcd13ifvqgrg","pricing_plan_id":"cebpf4jnsgd1na2vs0mg"},{"bike_id":"cd307db6-26a0-4b26-9cd1-a83bb943510f","system_id":"levelo_inurba_marseille","lat":43.28707,"lon":5.3739,"is_reserved":false,"is_disabled":false,"rental_uris":{"android":"levelo://app?vid=cd307db6-26a0-4b26-9cd1-a83bb943510f","ios":"levelo://app?vid=cd307db6-26a0-4b26-9cd1-a83bb943510f"},"vehicle_type_id":"4","last_reported":1736406520,"current_range_meters":27200,"station_id":"ce4bh3p2rcd13ifvqdq0","pricing_plan_id":"cebpf4jnsgd1na2vs0mg"},{"bike_id":"be7fc417-ef72-43b0-9156-ea18f8112719","system_id":"levelo_inurba_marseille","lat":43.3043,"lon":5.38893,"is_reserved":false,"is_disabled":false,"rental_uris":{"android":"levelo://app?vid=be7fc417-ef72-43b0-9156-ea18f8112719","ios":"levelo://app?vid=be7fc417-ef72-43b0-9156-ea18f8112719"},"vehicle_type_id":"4","last_reported":1736406520,"current_range_meters":32800,"station_id":"ce4bgk12rcd13ifvqbi0","pricing_plan_id":"cebpf4jnsgd1na2vs0mg"},{"bike_id":"2555e9c2-41eb-42cc-8360-399e32805217","system_id":"levelo_inurba_marseille","lat":43.295991,"lon":5.377422,"is_reserved":false,"is_disabled":true,"rental_uris":{"android":"levelo://app?vid=2555e9c2-41eb-42cc-8360-399e32805217","ios":"levelo://app?vid=2555e9c2-41eb-42cc-8360-399e32805217"},"vehicle_type_id":"4","last_reported":1736406520,"current_range_meters":35600,"station_id":"ce4bgi92rcd13ifvqb90","pricing_plan_id":"cebpf4jnsgd1na2vs0mg"},{"bike_id":"b988bc75-6d65-43a5-871a-529ec8dbb208","system_id":"levelo_inurba_marseille","lat":43.28352,"lon":5.38085,"is_reserved":false,"is_disabled":false,"rental_uris":{"android":"levelo://app?vid=b988bc75-6d65-43a5-871a-529ec8dbb208","ios":"levelo://app?vid=b988bc75-6d65-43a5-871a-529ec8dbb208"},"vehicle_type_id":"4","last_reported":1736406520,"current_range_meters":7200,"station_id":"ce4bh412rcd13ifvqdr0","pricing_plan_id":"cebpf4jnsgd1na2vs0mg"},{"bike_id":"0e1d8d9f-b80c-4b3e-8311-0084f2592b83","system_id":"levelo_inurba_marseille","lat":43.26948,"lon":5.38635,"is_reserved":false,"is_disabled":false,"rental_uris":{"android":"levelo://app?vid=0e1d8d9f-b80c-4b3e-8311-0084f2592b83","ios":"levelo://app?vid=0e1d8d9f-b80c-4b3e-8311-0084f2592b83"},"vehicle_type_id":"4","last_reported":1736406520,"current_range_meters":6800,"station_id":"ce4bhh92rcd13ifvqfh0","pricing_plan_id":"cebpf4jnsgd1na2vs0mg"},{"bike_id":"0686a8cb-2b76-4424-87d1-4f58c91d61f2","system_id":"levelo_inurba_marseille","lat":43.25715,"lon":5.41111,"is_reserved":false,"is_disabled":false,"rental_uris":{"android":"levelo://app?vid=0686a8cb-2b76-4424-87d1-4f58c91d61f2","ios":"levelo://app?vid=0686a8cb-2b76-4424-87d1-4f58c91d61f2"},"vehicle_type_id":"4","last_reported":1736406520,"current_range_meters":38400,"station_id":"ce4bhkp2rcd13ifvqgd0","pricing_plan_id":"cebpf4jnsgd1na2vs0mg"},{"bike_id":"df159155-f494-4c3c-8f74-76a143a96205","system_id":"levelo_inurba_marseille","lat":43.2894,"lon":5.3963,"is_reserved":false,"is_disabled":false,"rental_uris":{"android":"levelo://app?vid=df159155-f494-4c3c-8f74-76a143a96205","ios":"levelo://app?vid=df159155-f494-4c3c-8f74-76a143a96205"},"vehicle_type_id":"4","last_reported":1736406520,"current_range_meters":11600,"station_id":"ce4bh3h2rcd13ifvqdn0","pricing_plan_id":"cebpf4jnsgd1na2vs0mg"},{"bike_id":"f56d8408-3442-4a11-8b09-dec941f0cc9b","system_id":"levelo_inurba_marseille","lat":43.30601,"lon":5.39369,"is_reserved":false,"is_disabled":false,"rental_uris":{"android":"levelo://app?vid=f56d8408-3442-4a11-8b09-dec941f0cc9b","ios":"levelo://app?vid=f56d8408-3442-4a11-8b09-dec941f0cc9b"},"vehicle_type_id":"4","last_reported":1736406520,"current_range_meters":38800,"station_id":"ce4bh0p2rcd13ifvqd80","pricing_plan_id":"cebpf4jnsgd1na2vs0mg"},{"bike_id":"1f13abda-0c2f-485b-b7d9-de8f3b464a21","system_id":"levelo_inurba_marseille","lat":43.2961,"lon":5.37726,"is_reserved":false,"is_disabled":true,"rental_uris":{"android":"levelo://app?vid=1f13abda-0c2f-485b-b7d9-de8f3b464a21","ios":"levelo://app?vid=1f13abda-0c2f-485b-b7d9-de8f3b464a21"},"vehicle_type_id":"4","last_reported":1736406520,"current_range_meters":36400,"station_id":"ce4bgi92rcd13ifvqb90","pricing_plan_id":"cebpf4jnsgd1na2vs0mg"},{"bike_id":"ca5b73b8-bbae-4af5-a5a9-ad3889f9d436","system_id":"levelo_inurba_marseille","lat":43.27372,"lon":5.36262,"is_reserved":false,"is_disabled":false,"rental_uris":{"android":"levelo://app?vid=ca5b73b8-bbae-4af5-a5a9-ad3889f9d436","ios":"levelo://app?vid=ca5b73b8-bbae-4af5-a5a9-ad3889f9d436"},"vehicle_type_id":"4","last_reported":1736406520,"current_range_meters":38000,"station_id":"ce4bhbh2rcd13ifvqeo0","pricing_plan_id":"cebpf4jnsgd1na2vs0mg"},{"bike_id":"ad28bd53-1c8c-44ea-9a1c-1e5a5b2498fe","system_id":"levelo_inurba_marseille","lat":43.24112,"lon":5.36397,"is_reserved":false,"is_disabled":false,"rental_uris":{"android":"levelo://app?vid=ad28bd53-1c8c-44ea-9a1c-1e5a5b2498fe","ios":"levelo://app?vid=ad28bd53-1c8c-44ea-9a1c-1e5a5b2498fe"},"vehicle_type_id":"4","last_reported":1736406520,"current_range_meters":16400,"station_id":"cpo36qri1sfpv3e86is0","pricing_plan_id":"cebpf4jnsgd1na2vs0mg"},{"bike_id":"d6054180-7e08-40b3-be75-7053335ecc80","system_id":"levelo_inurba_marseille","lat":43.24069,"lon":5.37761,"is_reserved":false,"is_disabled":false,"rental_uris":{"android":"levelo://app?vid=d6054180-7e08-40b3-be75-7053335ecc80","ios":"levelo://app?vid=d6054180-7e08-40b3-be75-7053335ecc80"},"vehicle_type_id":"4","last_reported":1736406520,"current_range_meters":17600,"station_id":"ce4bhnp2rcd13ifvqgvg","pricing_plan_id":"cebpf4jnsgd1na2vs0mg"},{"bike_id":"2d2fbc61-7484-43d8-82f1-4c77f4e113dc","system_id":"levelo_inurba_marseille","lat":43.24075,"lon":5.37756,"is_reserved":false,"is_disabled":false,"rental_uris":{"android":"levelo://app?vid=2d2fbc61-7484-43d8-82f1-4c77f4e113dc","ios":"levelo://app?vid=2d2fbc61-7484-43d8-82f1-4c77f4e113dc"},"vehicle_type_id":"4","last_reported":1736406520,"current_range_meters":22000,"station_id":"ce4bhnp2rcd13ifvqgvg","pricing_plan_id":"cebpf4jnsgd1na2vs0mg"},{"bike_id":"3b46a4ed-74ee-409d-9a0b-977e6a987106","system_id":"levelo_inurba_marseille","lat":43.31697,"lon":5.37758,"is_reserved":false,"is_disabled":true,"rental_uris":{"android":"levelo://app?vid=3b46a4ed-74ee-409d-9a0b-977e6a987106","ios":"levelo://app?vid=3b46a4ed-74ee-409d-9a0b-977e6a987106"},"vehicle_type_id":"4","last_reported":1736406520,"current_range_meters":35600,"station_id":"ce4bgth2rcd13ifvqch0","pricing_plan_id":"cebpf4jnsgd1na2vs0mg"},{"bike_id":"b607bbca-8b6a-46e8-9e3c-289828ffbe11","system_id":"levelo_inurba_marseille","lat":43.30244,"lon":5.40043,"is_reserved":false,"is_disabled":false,"rental_uris":{"android":"levelo://app?vid=b607bbca-8b6a-46e8-9e3c-289828ffbe11","ios":"levelo://app?vid=b607bbca-8b6a-46e8-9e3c-289828ffbe11"},"vehicle_type_id":"4","last_reported":1736406520,"current_range_meters":35600,"station_id":"ce4bgvh2rcd13ifvqcs0","pricing_plan_id":"cebpf4jnsgd1na2vs0mg"},{"bike_id":"46afa4bc-c930-44a2-adc9-94c8f932b324","system_id":"levelo_inurba_marseille","lat":43.28704,"lon":5.36444,"is_reserved":false,"is_disabled":false,"rental_uris":{"android":"levelo://app?vid=46afa4bc-c930-44a2-adc9-94c8f932b324","ios":"levelo://app?vid=46afa4bc-c930-44a2-adc9-94c8f932b324"},"vehicle_type_id":"4","last_reported":1736406520,"current_range_meters":8000,"station_id":"","pricing_plan_id":"cebpf4jnsgd1na2vs0mg"},{"bike_id":"84124f1a-469a-4379-8f7f-2c9524f70029","system_id":"levelo_inurba_marseille","lat":43.287014,"lon":5.374076,"is_reserved":false,"is_disabled":false,"rental_uris":{"android":"levelo://app?vid=84124f1a-469a-4379-8f7f-2c9524f70029","ios":"levelo://app?vid=84124f1a-469a-4379-8f7f-2c9524f70029"},"vehicle_type_id":"4","last_reported":1736406520,"current_range_meters":33600,"station_id":"ce4bh3p2rcd13ifvqdq0","pricing_plan_id":"cebpf4jnsgd1na2vs0mg"},{"bike_id":"50cd5673-6836-4309-a193-16e51cb2408d","system_id":"levelo_inurba_marseille","lat":43.26694,"lon":5.38273,"is_reserved":false,"is_disabled":false,"rental_uris":{"android":"levelo://app?vid=50cd5673-6836-4309-a193-16e51cb2408d","ios":"levelo://app?vid=50cd5673-6836-4309-a193-16e51cb2408d"},"vehicle_type_id":"4","last_reported":1736406520,"current_range_meters":38800,"station_id":"ce4bhg92rcd13ifvqf90","pricing_plan_id":"cebpf4jnsgd1na2vs0mg"},{"bike_id":"f538f6e8-8566-4a13-be86-be1d2921cb7a","system_id":"levelo_inurba_marseille","lat":43.30245,"lon":5.4006,"is_reserved":false,"is_disabled":false,"rental_uris":{"android":"levelo://app?vid=f538f6e8-8566-4a13-be86-be1d2921cb7a","ios":"levelo://app?vid=f538f6e8-8566-4a13-be86-be1d2921cb7a"},"vehicle_type_id":"4","last_reported":1736406520,"current_range_meters":38800,"station_id":"ce4bgvh2rcd13ifvqcs0","pricing_plan_id":"cebpf4jnsgd1na2vs0mg"},{"bike_id":"ea8cc297-7205-42be-a82e-9b9fed9bbdda","system_id":"levelo_inurba_marseille","lat":43.28479,"lon":5.38436,"is_reserved":false,"is_disabled":false,"rental_uris":{"android":"levelo://app?vid=ea8cc297-7205-42be-a82e-9b9fed9bbdda","ios":"levelo://app?vid=ea8cc297-7205-42be-a82e-9b9fed9bbdda"},"vehicle_type_id":"4","last_reported":1736406520,"current_range_meters":33600,"station_id":"ce4bh512rcd13ifvqe3g","pricing_plan_id":"cebpf4jnsgd1na2vs0mg"},{"bike_id":"b9dd0b83-ffce-4634-a05d-c9a7b89d1be4","system_id":"levelo_inurba_marseille","lat":43.32294,"lon":5.38284,"is_reserved":false,"is_disabled":false,"rental_uris":{"android":"levelo://app?vid=b9dd0b83-ffce-4634-a05d-c9a7b89d1be4","ios":"levelo://app?vid=b9dd0b83-ffce-4634-a05d-c9a7b89d1be4"},"vehicle_type_id":"4","last_reported":1736406520,"current_range_meters":38800,"station_id":"ce4bhr12rcd13ifvqhqg","pricing_plan_id":"cebpf4jnsgd1na2vs0mg"},{"bike_id":"47fce4f8-7718-407d-9dee-89ea3cf87e47","system_id":"levelo_inurba_marseille","lat":43.22919,"lon":5.35382,"is_reserved":false,"is_disabled":false,"rental_uris":{"android":"levelo://app?vid=47fce4f8-7718-407d-9dee-89ea3cf87e47","ios":"levelo://app?vid=47fce4f8-7718-407d-9dee-89ea3cf87e47"},"vehicle_type_id":"4","last_reported":1736406520,"current_range_meters":22400,"station_id":"cpo3532slgdg3j2ikp40","pricing_plan_id":"cebpf4jnsgd1na2vs0mg"},{"bike_id":"7602b9db-fede-47ee-bd0b-311a54641a45","system_id":"levelo_inurba_marseille","lat":43.31889,"lon":5.40726,"is_reserved":false,"is_disabled":false,"rental_uris":{"android":"levelo://app?vid=7602b9db-fede-47ee-bd0b-311a54641a45","ios":"levelo://app?vid=7602b9db-fede-47ee-bd0b-311a54641a45"},"vehicle_type_id":"4","last_reported":1736406520,"current_range_meters":38800,"station_id":"ce4bhq12rcd13ifvqhig","pricing_plan_id":"cebpf4jnsgd1na2vs0mg"},{"bike_id":"79bea3e0-c786-4845-8e89-381610ffb819","system_id":"levelo_inurba_marseille","lat":43.30432,"lon":5.39745,"is_reserved":false,"is_disabled":false,"rental_uris":{"android":"levelo://app?vid=79bea3e0-c786-4845-8e89-381610ffb819","ios":"levelo://app?vid=79bea3e0-c786-4845-8e89-381610ffb819"},"vehicle_type_id":"4","last_reported":1736406520,"current_range_meters":28000,"station_id":"ce4bh092rcd13ifvqd20","pricing_plan_id":"cebpf4jnsgd1na2vs0mg"},{"bike_id":"3ba70f3b-25ca-485b-b2c5-dcdf5a8e7e04","system_id":"levelo_inurba_marseille","lat":43.29526,"lon":5.38541,"is_reserved":false,"is_disabled":false,"rental_uris":{"android":"levelo://app?vid=3ba70f3b-25ca-485b-b2c5-dcdf5a8e7e04","ios":"levelo://app?vid=3ba70f3b-25ca-485b-b2c5-dcdf5a8e7e04"},"vehicle_type_id":"4","last_reported":1736406520,"current_range_meters":27200,"station_id":"ce4bgih2rcd13ifvqba0","pricing_plan_id":"cebpf4jnsgd1na2vs0mg"},{"bike_id":"17d709b8-759c-4f36-93d5-740b1b28dba8","system_id":"levelo_inurba_marseille","lat":43.27925,"lon":5.39164,"is_reserved":false,"is_disabled":false,"rental_uris":{"android":"levelo://app?vid=17d709b8-759c-4f36-93d5-740b1b28dba8","ios":"levelo://app?vid=17d709b8-759c-4f36-93d5-740b1b28dba8"},"vehicle_type_id":"4","last_reported":1736406520,"current_range_meters":32000,"station_id":"ce4bhjp2rcd13ifvqga0","pricing_plan_id":"cebpf4jnsgd1na2vs0mg"},{"bike_id":"a412c127-42d2-426f-8887-6e6167d789f2","system_id":"levelo_inurba_marseille","lat":43.32081,"lon":5.3675,"is_reserved":false,"is_disabled":false,"rental_uris":{"android":"levelo://app?vid=a412c127-42d2-426f-8887-6e6167d789f2","ios":"levelo://app?vid=a412c127-42d2-426f-8887-6e6167d789f2"},"vehicle_type_id":"4","last_reported":1736406520,"current_range_meters":36400,"station_id":"ce4bhrh2rcd13ifvqhug","pricing_plan_id":"cebpf4jnsgd1na2vs0mg"},{"bike_id":"9f45806b-0439-44e8-9147-35b59088d5f3","system_id":"levelo_inurba_marseille","lat":43.24169,"lon":5.36395,"is_reserved":false,"is_disabled":false,"rental_uris":{"android":"levelo://app?vid=9f45806b-0439-44e8-9147-35b59088d5f3","ios":"levelo://app?vid=9f45806b-0439-44e8-9147-35b59088d5f3"},"vehicle_type_id":"4","last_reported":1736406520,"current_range_meters":20000,"station_id":"cpo36qri1sfpv3e86is0","pricing_plan_id":"cebpf4jnsgd1na2vs0mg"},{"bike_id":"d54630ba-96f1-4a78-8d3d-2cf42949b72d","system_id":"levelo_inurba_marseille","lat":43.29263,"lon":5.40137,"is_reserved":false,"is_disabled":false,"rental_uris":{"android":"levelo://app?vid=d54630ba-96f1-4a78-8d3d-2cf42949b72d","ios":"levelo://app?vid=d54630ba-96f1-4a78-8d3d-2cf42949b72d"},"vehicle_type_id":"4","last_reported":1736406520,"current_range_meters":8400,"station_id":"ce4bh312rcd13ifvqdk0","pricing_plan_id":"cebpf4jnsgd1na2vs0mg"},