{"last_updated":1753312287,"ttl":60,"version":"2.2","data":{"bikes":[{"bike_id":"969b6dbc-7fc1-446c-b77f-a2b57a35b5dc","system_id":"levelo_inurba_marseille","lat":43.308768,"lon":5.371997,"is_reserved":false,"is_disabled":false,"rental_uris":{"android":"levelo://app?vid=969b6dbc-7fc1-446c-b77f-a2b57a35b5dc","ios":"levelo://app?vid=969b6dbc-7fc1-446c-b77f-a2b57a35b5dc"},"vehicle_type_id":"4","last_reported":1753312287,"current_range_meters":2800,"station_id":"ce4bguh2rcd13ifvqckg","pricing_plan_id":"cebpf4jnsgd1na2vs0mg"},{"bike_id":"77f0e1d1-4bb6-4906-9b7c-e9d4127a1d10","system_id":"levelo_inurba_marseille","lat":43.29498,"lon":5.3818,"is_reserved":false,"is_disabled":false,"rental_uris":{"android":"levelo://app?vid=77f0e1d1-4bb6-4906-9b7c-e9d4127a1d10","ios":"levelo://app?vid=77f0e1d1-4bb6-4906-9b7c-e9d4127a1d10"},"vehicle_type_id":"4","last_reported":1753312287,"current_range_meters":3200,"station_id":"","pricing_plan_id":"cebpf4jnsgd1na2vs0mg"},{"bike_id":"5cccb452-224d-486f-8f55-ab6f9fb0d289","system_id":"levelo_inurba_marseille","lat":43.3009,"lon":5.3977,"is_reserved":false,"is_disabled":false,"rental_uris":{"android":"levelo://app?vid=5cccb452-224d-486f-8f55-ab6f9fb0d289","ios":"levelo://app?vid=5cccb452-224d-486f-8f55-ab6f9fb0d289"},"vehicle_type_id":"4","last_reported":1753312287,"current_range_meters":3200,"station_id":"","pricing_plan_id":"cebpf4jnsgd1na2vs0mg"},{"bike_id":"94ea5195-f84c-4e70-a093-ba89e20634ee","system_id":"levelo_inurba_marseille","lat":43.30108,"lon":5.38798,"is_reserved":false,"is_disabled":false,"rental_uris":{"android":"levelo://app?vid=94ea5195-f84c-4e70-a093-ba89e20634ee","ios":"levelo://app?vid=94ea5195-f84c-4e70-a093-ba89e20634ee"},"vehicle_type_id":"4","last_reported":1753312287,"current_range_meters":3600,"station_id":"ce4bghh2rcd13ifvqb60","pricing_plan_id":"cebpf4jnsgd1na2vs0mg"},{"bike_id":"5093f5a0-a758-473b-9267-8959e9ef95b6","system_id":"levelo_inurba_marseille","lat":43.28571,"lon":5.39502,"is_reserved":false,"is_disabled":false,"rental_uris":{"android":"levelo://app?vid=5093f5a0-a758-473b-9267-8959e9ef95b6","ios":"levelo://app?vid=5093f5a0-a758-473b-9267-8959e9ef95b6"},"vehicle_type_id":"4","last_reported":1753312287,"current_range_meters":3600,"station_id":"ce4bh292rcd13ifvqdg0","pricing_plan_id":"cebpf4jnsgd1na2vs0mg"},{"bike_id":"69d5988a-95f5-4eba-a497-699b61bb4028","system_id":"levelo_inurba_marseille","lat":43.30139,"lon":5.37222,"is_reserved":false,"is_disabled":false,"rental_uris":{"android":"levelo://app?vid=69d5988a-95f5-4eba-a497-699b61bb4028","ios":"levelo://app?vid=69d5988a-95f5-4eba-a497-699b61bb4028"},"vehicle_type_id":"4","last_reported":1753312287,"current_range_meters":4000,"station_id":"","pricing_plan_id":"cebpf4jnsgd1na2vs0mg"},{"bike_id":"d2310ab3-0968-44e7-9d1a-a70cd8d6480d","system_id":"levelo_inurba_marseille","lat":43.29973,"lon":5.38503,"is_reserved":false,"is_disabled":false,"rental_uris":{"android":"levelo://app?vid=d2310ab3-0968-44e7-9d1a-a70cd8d6480d","ios":"levelo://app?vid=d2310ab3-0968-44e7-9d1a-a70cd8d6480d"},"vehicle_type_id":"4","last_reported":1753312287,"current_range_meters":4000,"station_id":"ce4bgj92rcd13ifvqbd0","pricing_plan_id":"cebpf4jnsgd1na2vs0mg"},{"bike_id":"3e672a12-a06c-421d-8d90-001874a4fd84","system_id":"levelo_inurba_marseille","lat":43.30214,"lon":5.39454,"is_reserved":false,"is_disabled":true,"rental_uris":{"android":"levelo://app?vid=3e672a12-a06c-421d-8d90-001874a4fd84","ios":"levelo://app?vid=3e672a12-a06c-421d-8d90-001874a4fd84"},"vehicle_type_id":"4","last_reported":1753312287,"current_range_meters":4400,"station_id":"ce4bh0p2rcd13ifvqd70","pricing_plan_id":"cebpf4jnsgd1na2vs0mg"},{"bike_id":"817577f9-a589-4fef-9634-83af92c4064a","system_id":"levelo_inurba_marseille","lat":43.304169,"lon":5.397499,"is_reserved":false,"is_disabled":false,"rental_uris":{"android":"levelo://app?vid=817577f9-a589-4fef-9634-83af92c4064a","ios":"levelo://app?vid=817577f9-a589-4fef-9634-83af92c4064a"},"vehicle_type_id":"4","last_reported":1753312287,"current_range_meters":4400,"station_id":"ce4bh092rcd13ifvqd20","pricing_plan_id":"cebpf4jnsgd1na2vs0mg"},{"bike_id":"83766871-d64f-4fc8-9d3b-2ceaf03b1036","system_id":"levelo_inurba_marseille","lat":43.21181,"lon":5.3509,"is_reserved":false,"is_disabled":false,"rental_uris":{"android":"levelo://app?vid=83766871-d64f-4fc8-9d3b-2ceaf03b1036","ios":"levelo://app?vid=83766871-d64f-4fc8-9d3b-2ceaf03b1036"},"vehicle_type_id":"4","last_reported":1753312287,"current_range_meters":4800,"station_id":"st_cvj6sg6p6f1abm77japg","pricing_plan_id":"cebpf4jnsgd1na2vs0mg"},{"bike_id":"a159a5ca-c9df-4ec8-bea9-8e6651449cb6","system_id":"levelo_inurba_marseille","lat":43.246647,"lon":5.381713,"is_reserved":false,"is_disabled":false,"rental_uris":{"android":"levelo://app?vid=a159a5ca-c9df-4ec8-bea9-8e6651449cb6","ios":"levelo://app?vid=a159a5ca-c9df-4ec8-bea9-8e6651449cb6"},"vehicle_type_id":"4","last_reported":1753312287,"current_range_meters":5600,"station_id":"ce4bhih2rcd13ifvqfr0","pricing_plan_id":"cebpf4jnsgd1na2vs0mg"},{"bike_id":"562938d1-4755-49a3-b8d1-d6f824158c23","system_id":"levelo_inurba_marseille","lat":43.284125,"lon":5.37523,"is_reserved":false,"is_disabled":false,"rental_uris":{"android":"levelo://app?vid=562938d1-4755-49a3-b8d1-d6f824158c23","ios":"levelo://app?vid=562938d1-4755-49a3-b8d1-d6f824158c23"},"vehicle_type_id":"4","last_reported":1753312287,"current_range_meters":5600,"station_id":"ce4bh412rcd13ifvqds0","pricing_plan_id":"cebpf4jnsgd1na2vs0mg"},{"bike_id":"4e0bdf78-8f60-4cd3-ba78-a095ec3096c0","system_id":"levelo_inurba_marseille","lat":43.29961,"lon":5.41322,"is_reserved":false,"is_disabled":false,"rental_uris":{"android":"levelo://app?vid=4e0bdf78-8f60-4cd3-ba78-a095ec3096c0","ios":"levelo://app?vid=4e0bdf78-8f60-4cd3-ba78-a095ec3096c0"},"vehicle_type_id":"4","last_reported":1753312287,"current_range_meters":5600,"station_id":"ce4bhp12rcd13ifvqh9g","pricing_plan_id":"cebpf4jnsgd1na2vs0mg"},{"bike_id":"305b0461-b5d4-4495-ac39-3f10df47af61","system_id":"levelo_inurba_marseille","lat":43.283495,"lon":5.38106,"is_reserved":false,"is_disabled":false,"rental_uris":{"android":"levelo://app?vid=305b0461-b5d4-4495-ac39-3f10df47af61","ios":"levelo://app?vid=305b0461-b5d4-4495-ac39-3f10df47af61"},"vehicle_type_id":"4","last_reported":1753312287,"current_range_meters":6000,"station_id":"ce4bh412rcd13ifvqdr0","pricing_plan_id":"cebpf4jnsgd1na2vs0mg"},{"bike_id":"ec0adf83-6184-4d63-a8bd-8a4c46331101","system_id":"levelo_inurba_marseille","lat":43.260611,"lon":5.393895,"is_reserved":false,"is_disabled":true,"rental_uris":{"android":"levelo://app?vid=ec0adf83-6184-4d63-a8bd-8a4c46331101","ios":"levelo://app?vid=ec0adf83-6184-4d63-a8bd-8a4c46331101"},"vehicle_type_id":"4","last_reported":1753312287,"current_range_meters":6000,"station_id":"ce4bhh92rcd13ifvqfj0","pricing_plan_id":"cebpf4jnsgd1na2vs0mg"},{"bike_id":"ad98429d-6f79-4a7d-b8ec-31305c2cacf2","system_id":"levelo_inurba_marseille","lat":43.29514,"lon":5.39403,"is_reserved":false,"is_disabled":false,"rental_uris":{"android":"levelo://app?vid=ad98429d-6f79-4a7d-b8ec-31305c2cacf2","ios":"levelo://app?vid=ad98429d-6f79-4a7d-b8ec-31305c2cacf2"},"vehicle_type_id":"4","last_reported":1753312287,"current_range_meters":6400,"station_id":"ce4bh292rcd13ifvqdf0","pricing_plan_id":"cebpf4jnsgd1na2vs0mg"},{"bike_id":"d07f0755-aca6-4050-807e-9c5aaf0dd619","system_id":"levelo_inurba_marseille","lat":43.296823,"lon":5.372723,"is_reserved":false,"is_disabled":true,"rental_uris":{"android":"levelo://app?vid=d07f0755-aca6-4050-807e-9c5aaf0dd619","ios":"levelo://app?vid=d07f0755-aca6-4050-807e-9c5aaf0dd619"},"vehicle_type_id":"4","last_reported":1753312287,"current_range_meters":6800,"station_id":"ce4bgk12rcd13ifvqbj0","pricing_plan_id":"cebpf4jnsgd1na2vs0mg"},{"bike_id":"6664b110-6024-4d10-904c-70f0e732d65e","system_id":"levelo_inurba_marseille","lat":43.26211,"lon":5.37465,"is_reserved":false,"is_disabled":true,"rental_uris":{"android":"levelo://app?vid=6664b110-6024-4d10-904c-70f0e732d65e","ios":"levelo://app?vid=6664b110-6024-4d10-904c-70f0e732d65e"},"vehicle_type_id":"4","last_reported":1753312287,"current_range_meters":6800,"station_id":"ce4bhgp2rcd13ifvqfc0","pricing_plan_id":"cebpf4jnsgd1na2vs0mg"},{"bike_id":"7a5f9784-7ee6-49ee-a01c-dcf95626e53d","system_id":"levelo_inurba_marseille","lat":43.2816,"lon":5.42651,"is_reserved":false,"is_disabled":false,"rental_uris":{"android":"levelo://app?vid=7a5f9784-7ee6-49ee-a01c-dcf95626e53d","ios":"levelo://app?vid=7a5f9784-7ee6-49ee-a01c-dcf95626e53d"},"vehicle_type_id":"4","last_reported":1753312287,"current_range_meters":6800,"station_id":"ce4bhnh2rcd13ifvqgug","pricing_plan_id":"cebpf4jnsgd1na2vs0mg"},{"bike_id":"9ae7d50c-a3ea-4136-8080-315c191e000a","system_id":"levelo_inurba_marseille","lat":43.2876,"lon":5.38415,"is_reserved":false,"is_disabled":false,"rental_uris":{"android":"levelo://app?vid=9ae7d50c-a3ea-4136-8080-315c191e000a","ios":"levelo://app?vid=9ae7d50c-a3ea-4136-8080-315c191e000a"},"vehicle_type_id":"4","last_reported":1753312287,"current_range_meters":6800,"station_id":"","pricing_plan_id":"cebpf4jnsgd1na2vs0mg"},{"bike_id":"adebf206-6cce-4bf4-b9e1-cecd55c92049","system_id":"levelo_inurba_marseille","lat":43.29538,"lon":5.39394,"is_reserved":false,"is_disabled":false,"rental_uris":{"android":"levelo://app?vid=adebf206-6cce-4bf4-b9e1-cecd55c92049","ios":"levelo://app?vid=adebf206-6cce-4bf4-b9e1-cecd55c92049"},"vehicle_type_id":"4","last_reported":1753312287,"current_range_meters":6800,"station_id":"ce4bh292rcd13ifvqdf0","pricing_plan_id":"cebpf4jnsgd1na2vs0mg"},{"bike_id":"68154b5b-0847-4926-b20a-1421e3d04487","system_id":"levelo_inurba_marseille","lat":43.28453,"lon":5.35894,"is_reserved":false,"is_disabled":false,"rental_uris":{"android":"levelo://app?vid=68154b5b-0847-4926-b20a-1421e3d04487","ios":"levelo://app?vid=68154b5b-0847-4926-b20a-1421e3d04487"},"vehicle_type_id":"4","last_reported":1753312287,"current_range_meters":7200,"station_id":"ce4bhah2rcd13ifvqei0","pricing_plan_id":"cebpf4jnsgd1na2vs0mg"},{"bike_id":"4361b381-371f-46aa-8973-9782051f3e79","system_id":"levelo_inurba_marseille","lat":43.31484,"lon":5.37313,"is_reserved":false,"is_disabled":false,"rental_uris":{"android":"levelo://app?vid=4361b381-371f-46aa-8973-9782051f3e79","ios":"levelo://app?vid=4361b381-371f-46aa-8973-9782051f3e79"},"vehicle_type_id":"4","last_reported":1753312287,"current_range_meters":7200,"station_id":"ce4bgt12rcd13ifvqcd0","pricing_plan_id":"cebpf4jnsgd1na2vs0mg"},{"bike_id":"cec54183-4175-4e4a-8f8a-f4fafb6e7dc0","system_id":"levelo_inurba_marseille","lat":43.279606,"lon":5.389949,"is_reserved":false,"is_disabled":false,"rental_uris":{"android":"levelo://app?vid=cec54183-4175-4e4a-8f8a-f4fafb6e7dc0","ios":"levelo://app?vid=cec54183-4175-4e4a-8f8a-f4fafb6e7dc0"},"vehicle_type_id":"4","last_reported":1753312287,"current_range_meters":7200,"station_id":"","pricing_plan_id":"cebpf4jnsgd1na2vs0mg"},{"bike_id":"d26a4141-f76e-4ed9-9c35-1e6a340df9c7","system_id":"levelo_inurba_marseille","lat":43.30431,"lon":5.38891,"is_reserved":false,"is_disabled":false,"rental_uris":{"android":"levelo://app?vid=d26a4141-f76e-4ed9-9c35-1e6a340df9c7","ios":"levelo://app?vid=d26a4141-f76e-4ed9-9c35-1e6a340df9c7"},"vehicle_type_id":"4","last_reported":1753312287,"current_range_meters":7200,"station_id":"","pricing_plan_id":"cebpf4jnsgd1na2vs0mg"},{"bike_id":"db008043-6789-42ff-aea6-cb37423e5260","system_id":"levelo_inurba_marseille","lat":43.28572,"lon":5.39499,"is_reserved":false,"is_disabled":false,"rental_uris":{"android":"levelo://app?vid=db008043-6789-42ff-aea6-cb37423e5260","ios":"levelo://app?vid=db008043-6789-42ff-aea6-cb37423e5260"},"vehicle_type_id":"4","last_reported":1753312287,"current_range_meters":7200,"station_id":"ce4bh292rcd13ifvqdg0","pricing_plan_id":"cebpf4jnsgd1na2vs0mg"},{"bike_id":"56d6580e-bce0-49f8-83c1-c1c86d82a0a6","system_id":"levelo_inurba_marseille","lat":43.308058,"lon":5.38151,"is_reserved":false,"is_disabled":true,"rental_uris":{"android":"levelo://app?vid=56d6580e-bce0-49f8-83c1-c1c86d82a0a6","ios":"levelo://app?vid=56d6580e-bce0-49f8-83c1-c1c86d82a0a6"},"vehicle_type_id":"4","last_reported":1753312287,"current_range_meters":8000,"station_id":"ce4bgt12rcd13ifvqce0","pricing_plan_id":"cebpf4jnsgd1na2vs0mg"},{"bike_id":"a5f1f0d6-c678-45f4-9b29-96eaa29a3e36","system_id":"levelo_inurba_marseille","lat":43.251617,"lon":5.373429,"is_reserved":false,"is_disabled":true,"rental_uris":{"android":"levelo://app?vid=a5f1f0d6-c678-45f4-9b29-96eaa29a3e36","ios":"levelo://app?vid=a5f1f0d6-c678-45f4-9b29-96eaa29a3e36"},"vehicle_type_id":"4","last_reported":1753312287,"current_range_meters":8000,"station_id":"","pricing_plan_id":"cebpf4jnsgd1na2vs0mg"},{"bike_id":"e4761578-ae86-4dfa-b146-0428e5d8cca7","system_id":"levelo_inurba_marseille","lat":43.241725,"lon":5.363939,"is_reserved":false,"is_disabled":true,"rental_uris":{"android":"levelo://app?vid=e4761578-ae86-4dfa-b146-0428e5d8cca7","ios":"levelo://app?vid=e4761578-ae86-4dfa-b146-0428e5d8cca7"},"vehicle_type_id":"4","last_reported":1753312287,"current_range_meters":8400,"station_id":"cpo36qri1sfpv3e86is0","pricing_plan_id":"cebpf4jnsgd1na2vs0mg"},{"bike_id":"0a473628-f9ec-4169-a0e6-59c04b109494","system_id":"levelo_inurba_marseille","lat":43.26065,"lon":5.39397,"is_reserved":false,"is_disabled":false,"rental_uris":{"android":"levelo://app?vid=0a473628-f9ec-4169-a0e6-59c04b109494","ios":"levelo://app?vid=0a473628-f9ec-4169-a0e6-59c04b109494"},"vehicle_type_id":"4","last_reported":1753312287,"current_range_meters":8400,"station_id":"ce4bhh92rcd13ifvqfj0","pricing_plan_id":"cebpf4jnsgd1na2vs0mg"},{"bike_id":"72cb83ce-ff48-425c-a461-e2ab8d6a3759","system_id":"levelo_inurba_marseille","lat":43.304181,"lon":5.387256,"is_reserved":false,"is_disabled":false,"rental_uris":{"android":"levelo://app?vid=72cb83ce-ff48-425c-a461-e2ab8d6a3759","ios":"levelo://app?vid=72cb83ce-ff48-425c-a461-e2ab8d6a3759"},"vehicle_type_id":"4","last_reported":1753312287,"current_range_meters":8400,"station_id":"ce4bgk12rcd13ifvqbi0","pricing_plan_id":"cebpf4jnsgd1na2vs0mg"},{"bike_id":"05b73202-7870-44c3-bfa6-3a2900e719bf","system_id":"levelo_inurba_marseille","lat":43.29435,"lon":5.39754,"is_reserved":false,"is_disabled":false,"rental_uris":{"android":"levelo://app?vid=05b73202-7870-44c3-bfa6-3a2900e719bf","ios":"levelo://app?vid=05b73202-7870-44c3-bfa6-3a2900e719bf"},"vehicle_type_id":"4","last_reported":1753312287,"current_range_meters":8800,"station_id":"ce4bh3h2rcd13ifvqdo0","pricing_plan_id":"cebpf4jnsgd1na2vs0mg"},{"bike_id":"7d09b13c-ebc2-4748-a807-033d4cb42b76","system_id":"levelo_inurba_marseille","lat":43.28706,"lon":5.37388,"is_reserved":false,"is_disabled":false,"rental_uris":{"android":"levelo://app?vid=7d09b13c-ebc2-4748-a807-033d4cb42b76","ios":"levelo://app?vid=7d09b13c-ebc2-4748-a807-033d4cb42b76"},"vehicle_type_id":"4","last_reported":1753312287,"current_range_meters":8800,"station_id":"ce4bh3p2rcd13ifvqdq0","pricing_plan_id":"cebpf4jnsgd1na2vs0mg"},{"bike_id":"c9dbd36b-479c-4a5c-b200-3aa7673340d9","system_id":"levelo_inurba_marseille","lat":43.241448,"lon":5.363743,"is_reserved":false,"is_disabled":true,"rental_uris":{"android":"levelo://app?vid=c9dbd36b-479c-4a5c-b200-3aa7673340d9","ios":"levelo://app?vid=c9dbd36b-479c-4a5c-b200-3aa7673340d9"},"vehicle_type_id":"4","last_reported":1753312287,"current_range_meters":8800,"station_id":"","pricing_plan_id":"cebpf4jnsgd1na2vs0mg"},{"bike_id":"a25f7a5a-af72-4ccf-a2cf-9eea3d23b8d9","system_id":"levelo_inurba_marseille","lat":43.29045,"lon":5.39959,"is_reserved":false,"is_disabled":false,"rental_uris":{"android":"levelo://app?vid=a25f7a5a-af72-4ccf-a2cf-9eea3d23b8d9","ios":"levelo://app?vid=a25f7a5a-af72-4ccf-a2cf-9eea3d23b8d9"},"vehicle_type_id":"4","last_reported":1753312287,"current_range_meters":8800,"station_id":"ce4bh392rcd13ifvqdm0","pricing_plan_id":"cebpf4jnsgd1na2vs0mg"},{"bike_id":"89b75cea-6f37-4bfb-8acc-21f73b4a5629","system_id":"levelo_inurba_marseille","lat":43.29579,"lon":5.36755,"is_reserved":false,"is_disabled":false,"rental_uris":{"android":"levelo://app?vid=89b75cea-6f37-4bfb-8acc-21f73b4a5629","ios":"levelo://app?vid=89b75cea-6f37-4bfb-8acc-21f73b4a5629"},"vehicle_type_id":"4","last_reported":1753312287,"current_range_meters":8800,"station_id":"ce4bgph2rcd13ifvqc2g","pricing_plan_id":"cebpf4jnsgd1na2vs0mg"},{"bike_id":"8e98eab0-66ab-41cb-865f-913b58891b39","system_id":"levelo_inurba_marseille","lat":43.22466,"lon":5.34783,"is_reserved":false,"is_disabled":false,"rental_uris":{"android":"levelo://app?vid=8e98eab0-66ab-41cb-865f-913b58891b39","ios":"levelo://app?vid=8e98eab0-66ab-41cb-865f-913b58891b39"},"vehicle_type_id":"4","last_reported":1753312287,"current_range_meters":8800,"station_id":"st_cvj5dfep6f1abm77gieg","pricing_plan_id":"cebpf4jnsgd1na2vs0mg"},{"bike_id":"aa5097b6-6968-4aec-b711-e7780938924b","system_id":"levelo_inurba_marseille","lat":43.32944,"lon":5.35914,"is_reserved":false,"is_disabled":false,"rental_uris":{"android":"levelo://app?vid=aa5097b6-6968-4aec-b711-e7780938924b","ios":"levelo://app?vid=aa5097b6-6968-4aec-b711-e7780938924b"},"vehicle_type_id":"4","last_reported":1753312287,"current_range_meters":8800,"station_id":"","pricing_plan_id":"cebpf4jnsgd1na2vs0mg"},{"bike_id":"ea6ebe19-3c26-4f29-a830-a88cc0e75573","system_id":"levelo_inurba_marseille","lat":43.30295,"lon":5.39206,"is_reserved":false,"is_disabled":false,"rental_uris":{"android":"levelo://app?vid=ea6ebe19-3c26-4f29-a830-a88cc0e75573","ios":"levelo://app?vid=ea6ebe19-3c26-4f29-a830-a88cc0e75573"},"vehicle_type_id":"4","last_reported":1753312287,"current_range_meters":9200,"station_id":"ce4bgkh2rcd13ifvqbk0","pricing_plan_id":"cebpf4jnsgd1na2vs0mg"},{"bike_id":"c8e1ac56-264c-43a1-b16d-4929d6ea2d92","system_id":"levelo_inurba_marseille","lat":43.30886,"lon":5.37201,"is_reserved":false,"is_disabled":false,"rental_uris":{"android":"levelo://app?vid=c8e1ac56-264c-43a1-b16d-4929d6ea2d92","ios":"levelo://app?vid=c8e1ac56-264c-43a1-b16d-4929d6ea2d92"},"vehicle_type_id":"4","last_reported":1753312287,"current_range_meters":9600,"station_id":"ce4bguh2rcd13ifvqckg","pricing_plan_id":"cebpf4jnsgd1na2vs0mg"},{"bike_id":"da053e6a-15f2-492e-8bc1-42b1d66cc329","system_id":"levelo_inurba_marseille","lat":43.2836,"lon":5.43259,"is_reserved":false,"is_disabled":false,"rental_uris":{"android":"levelo://app?vid=da053e6a-15f2-492e-8bc1-42b1d66cc329","ios":"levelo://app?vid=da053e6a-15f2-492e-8bc1-42b1d66cc329"},"vehicle_type_id":"4","last_reported":1753312287,"current_range_meters":9600,"station_id":"","pricing_plan_id":"cebpf4jnsgd1na2vs0mg"},{"bike_id":"8230911c-2ae7-4460-a7f0-e0f63dd9b4c9","system_id":"levelo_inurba_marseille","lat":43.28852,"lon":5.35868,"is_reserved":false,"is_disabled":false,"rental_uris":{"android":"levelo://app?vid=8230911c-2ae7-4460-a7f0-e0f63dd9b4c9","ios":"levelo://app?vid=8230911c-2ae7-4460-a7f0-e0f63dd9b4c9"},"vehicle_type_id":"4","last_reported":1753312287,"current_range_meters":9600,"station_id":"ce4bhb12rcd13ifvqem0","pricing_plan_id":"cebpf4jnsgd1na2vs0mg"},{"bike_id":"066673da-cfd3-455b-aed5-6563899a9400","system_id":"levelo_inurba_marseille","lat":43.29624,"lon":5.37179,"is_reserved":false,"is_disabled":false,"rental_uris":{"android":"levelo://app?vid=066673da-cfd3-455b-aed5-6563899a9400","ios":"levelo://app?vid=066673da-cfd3-455b-aed5-6563899a9400"},"vehicle_type_id":"4","last_reported":1753312287,"current_range_meters":10000,"station_id":"ce4bgnh2rcd13ifvqc0g","pricing_plan_id":"cebpf4jnsgd1na2vs0mg"},{"bike_id":"04290797-7d86-4283-ba1e-0fca975df7d1","system_id":"levelo_inurba_marseille","lat":43.3149,"lon":5.37311,"is_reserved":false,"is_disabled":false,"rental_uris":{"android":"levelo://app?vid=04290797-7d86-4283-ba1e-0fca975df7d1","ios":"levelo://app?vid=04290797-7d86-4283-ba1e-0fca975df7d1"},"vehicle_type_id":"4","last_reported":1753312287,"current_range_meters":14000,"station_id":"ce4bgt12rcd13ifvqcd0","pricing_plan_id":"cebpf4jnsgd1na2vs0mg"},{"bike_id":"932c14f6-0234-4115-8c5c-fa5c03fa007d","system_id":"levelo_inurba_marseille","lat":43.29023,"lon":5.38637,"is_reserved":false,"is_disabled":false,"rental_uris":{"android":"levelo://app?vid=932c14f6-0234-4115-8c5c-fa5c03fa007d","ios":"levelo://app?vid=932c14f6-0234-4115-8c5c-fa5c03fa007d"},"vehicle_type_id":"4","last_reported":1753312287,"current_range_meters":10000,"station_id":"ce4bh4p2rcd13ifvqe0g","pricing_plan_id":"cebpf4jnsgd1na2vs0mg"},{"bike_id":"3fcc2cd1-fb19-4c5e-9700-fed80376722b","system_id":"levelo_inurba_marseille","lat":43.23965,"lon":5.36636,"is_reserved":false,"is_disabled":false,"rental_uris":{"android":"levelo://app?vid=3fcc2cd1-fb19-4c5e-9700-fed80376722b","ios":"levelo://app?vid=3fcc2cd1-fb19-4c5e-9700-fed80376722b"},"vehicle_type_id":"4","last_reported":1753312287,"current_range_meters":13600,"station_id":"ce4bhi12rcd13ifvqfp0","pricing_plan_id":"cebpf4jnsgd1na2vs0mg"},{"bike_id":"c99b32ef-25d9-480e-99d0-ca980f77a836","system_id":"levelo_inurba_marseille","lat":43.32367,"lon":5.3677,"is_reserved":false,"is_disabled":false,"rental_uris":{"android":"levelo://app?vid=c99b32ef-25d9-480e-99d0-ca980f77a836","ios":"levelo://app?vid=c99b32ef-25d9-480e-99d0-ca980f77a836"},"vehicle_type_id":"4","last_reported":1753312287,"current_range_meters":10000,"station_id":"ce4bhsh2rcd13ifvqi2g","pricing_plan_id":"cebpf4jnsgd1na2vs0mg"},{"bike_id":"c3b4c842-89f1-49ff-abb9-fc4b30df4519","system_id":"levelo_inurba_marseille","lat":43.25566,"lon":5.38249,"is_reserved":false,"is_disabled":true,"rental_uris":{"android":"levelo://app?vid=c3b4c842-89f1-49ff-abb9-fc4b30df4519","ios":"levelo://app?vid=c3b4c842-89f1-49ff-abb9-fc4b30df4519"},"vehicle_type_id":"4","last_reported":1753312287,"current_range_meters":10000,"station_id":"ce4bhih2rcd13ifvqfs0","pricing_plan_id":"cebpf4jnsgd1na2vs0mg"},{"bike_id":"16f243f1-eb9d-4fb0-a2b3-61f785505996","system_id":"levelo_inurba_marseille","lat":43.32001,"lon":5.3817,"is_reserved":false,"is_disabled":false,"rental_uris":{"android":"levelo://app?vid=16f243f1-eb9d-4fb0-a2b3-61f785505996","ios":"levelo://app?vid=16f243f1-eb9d-4fb0-a2b3-61f785505996"},"vehicle_type_id":"4","last_reported":1753312287,"current_range_meters":10000,"station_id":"ce4bhr12rcd13ifvqhpg","pricing_plan_id":"cebpf4jnsgd1na2vs0mg"},{"bike_id":"3faf6c26-a82d-4ccc-bb56-f50b2f537733","system_id":"levelo_inurba_marseille","lat":43.28463,"lon":5.3589,"is_reserved":false,"is_disabled":false,"rental_uris":{"android":"levelo://app?vid=3faf6c26-a82d-4ccc-bb56-f50b2f537733","ios":"levelo://app?vid=3faf6c26-a82d-4ccc-bb56-f50b2f537733"},"vehicle_type_id":"4","last_reported":1753312287,"current_range_meters":10000,"station_id":"ce4bhah2rcd13ifvqei0","pricing_plan_id":"cebpf4jnsgd1na2vs0mg"},{"bike_id":"f9062784-0417-4840-bb15-81c56a64826f","system_id":"levelo_inurba_marseille","lat":43.22504,"lon":5.3478,"is_reserved":false,"is_disabled":false,"rental_uris":{"android":"levelo://app?vid=f9062784-0417-4840-bb15-81c56a64826f","ios":"levelo://app?vid=f9062784-0417-4840-bb15-81c56a64826f"},"vehicle_type_id":"4","last_reported":1753312287,"current_range_meters":10800,"station_id":"","pricing_plan_id":"cebpf4jnsgd1na2vs0mg"},{"bike_id":"c4ab8b6f-b9e7-4d47-91c0-82fcf9196b75","system_id":"levelo_inurba_marseille","lat":43.302314,"lon":5.400394,"is_reserved":false,"is_disabled":true,"rental_uris":{"android":"levelo://app?vid=c4ab8b6f-b9e7-4d47-91c0-82fcf9196b75","ios":"levelo://app?vid=c4ab8b6f-b9e7-4d47-91c0-82fcf9196b75"},"vehicle_type_id":"4","last_reported":1753312287,"current_range_meters":10800,"station_id":"ce4bgvh2rcd13ifvqcs0","pricing_plan_id":"cebpf4jnsgd1na2vs0mg"},{"bike_id":"e1a52017-1f37-4c7d-8517-1a94326b5e3a","system_id":"levelo_inurba_marseille","lat":43.29018,"lon":5.38642,"is_reserved":false,"is_disabled":false,"rental_uris":{"android":"levelo://app?vid=e1a52017-1f37-4c7d-8517-1a94326b5e3a","ios":"levelo://app?vid=e1a52017-1f37-4c7d-8517-1a94326b5e3a"},"vehicle_type_id":"4","last_reported":1753312287,"current_range_meters":10800,"station_id":"ce4bh4p2rcd13ifvqe0g","pricing_plan_id":"cebpf4jnsgd1na2vs0mg"},{"bike_id":"cc926983-7496-48df-9677-b8723ddc96b9","system_id":"levelo_inurba_marseille","lat":43.22928,"lon":5.35366,"is_reserved":false,"is_disabled":false,"rental_uris":{"android":"levelo://app?vid=cc926983-7496-48df-9677-b8723ddc96b9","ios":"levelo://app?vid=cc926983-7496-48df-9677-b8723ddc96b9"},"vehicle_type_id":"4","last_reported":1753312287,"current_range_meters":11200,"station_id":"cpo3532slgdg3j2ikp40","pricing_plan_id":"cebpf4jnsgd1na2vs0mg"},{"bike_id":"6cbd5bb8-ece6-4a6e-9708-07d298472fb3","system_id":"levelo_inurba_marseille","lat":43.28349,"lon":5.38096,"is_reserved":false,"is_disabled":false,"rental_uris":{"android":"levelo://app?vid=6cbd5bb8-ece6-4a6e-9708-07d298472fb3","ios":"levelo://app?vid=6cbd5bb8-ece6-4a6e-9708-07d298472fb3"},"vehicle_type_id":"4","last_reported":1753312287,"current_range_meters":11200,"station_id":"ce4bh412rcd13ifvqdr0","pricing_plan_id":"cebpf4jnsgd1na2vs0mg"},{"bike_id":"c06da9c3-e260-4fb6-8ca9-c271d4cc9e5f","system_id":"levelo_inurba_marseille","lat":43.28077,"lon":5.39664,"is_reserved":false,"is_disabled":false,"rental_uris":{"android":"levelo://app?vid=c06da9c3-e260-4fb6-8ca9-c271d4cc9e5f","ios":"levelo://app?vid=c06da9c3-e260-4fb6-8ca9-c271d4cc9e5f"},"vehicle_type_id":"4","last_reported":1753312287,"current_range_meters":11200,"station_id":"ce4bho12rcd13ifvqh2g","pricing_plan_id":"cebpf4jnsgd1na2vs0mg"},{"bike_id":"b982e5a3-88f5-4403-a53a-38d90073ed80","system_id":"levelo_inurba_marseille","lat":43.29447,"lon":5.43274,"is_reserved":false,"is_disabled":false,"rental_uris":{"android":"levelo://app?vid=b982e5a3-88f5-4403-a53a-38d90073ed80","ios":"levelo://app?vid=b982e5a3-88f5-4403-a53a-38d90073ed80"},"vehicle_type_id":"4","last_reported":1753312287,"current_range_meters":11200,"station_id":"","pricing_plan_id":"cebpf4jnsgd1na2vs0mg"},{"bike_id":"eb954183-4e28-47d1-a5c2-d40cd268372d","system_id":"levelo_inurba_marseille","lat":43.28847,"lon":5.35845,"is_reserved":false,"is_disabled":true,"rental_uris":{"android":"levelo://app?vid=eb954183-4e28-47d1-a5c2-d40cd268372d","ios":"levelo://app?vid=eb954183-4e28-47d1-a5c2-d40cd268372d"},"vehicle_type_id":"4","last_reported":1753312287,"current_range_meters":11200,"station_id":"ce4bhb12rcd13ifvqem0","pricing_plan_id":"cebpf4jnsgd1na2vs0mg"},{"bike_id":"d0b3daed-0d3b-458c-b8d4-01aacd7a2fa6","system_id":"levelo_inurba_marseille","lat":43.305634,"lon":5.384028,"is_reserved":false,"is_disabled":false,"rental_uris":{"android":"levelo://app?vid=d0b3daed-0d3b-458c-b8d4-01aacd7a2fa6","ios":"levelo://app?vid=d0b3daed-0d3b-458c-b8d4-01aacd7a2fa6"},"vehicle_type_id":"4","last_reported":1753312287,"current_range_meters":11200,"station_id":"ce4bgg92rcd13ifvqb30","pricing_plan_id":"cebpf4jnsgd1na2vs0mg"},{"bike_id":"f614a5fa-3e20-4276-97a0-7c5f2dfcabb0","system_id":"levelo_inurba_marseille","lat":43.26563,"lon":5.39049,"is_reserved":false,"is_disabled":false,"rental_uris":{"android":"levelo://app?vid=f614a5fa-3e20-4276-97a0-7c5f2dfcabb0","ios":"levelo://app?vid=f614a5fa-3e20-4276-97a0-7c5f2dfcabb0"},"vehicle_type_id":"4","last_reported":1753312287,"current_range_meters":11200,"station_id":"ce4bhe12rcd13ifvqf30","pricing_plan_id":"cebpf4jnsgd1na2vs0mg"},{"bike_id":"aa555d2c-c2c8-4d97-96c0-0e6202495b37","system_id":"levelo_inurba_marseille","lat":43.28109,"lon":5.37865,"is_reserved":false,"is_disabled":false,"rental_uris":{"android":"levelo://app?vid=aa555d2c-c2c8-4d97-96c0-0e6202495b37","ios":"levelo://app?vid=aa555d2c-c2c8-4d97-96c0-0e6202495b37"},"vehicle_type_id":"4","last_reported":1753312287,"current_range_meters":11600,"station_id":"ce4bha12rcd13ifvqee0","pricing_plan_id":"cebpf4jnsgd1na2vs0mg"},{"bike_id":"9414fea0-7c6e-4c39-95f1-457a63a631b4","system_id":"levelo_inurba_marseille","lat":43.22515,"lon":5.34785,"is_reserved":false,"is_disabled":true,"rental_uris":{"android":"levelo://app?vid=9414fea0-7c6e-4c39-95f1-457a63a631b4","ios":"levelo://app?vid=9414fea0-7c6e-4c39-95f1-457a63a631b4"},"vehicle_type_id":"4","last_reported":1753312287,"current_range_meters":11600,"station_id":"st_cvj5dfep6f1abm77gieg","pricing_plan_id":"cebpf4jnsgd1na2vs0mg"},{"bike_id":"9f3ed220-9e9e-4bc8-a5f6-aeb6066011ca","system_id":"levelo_inurba_marseille","lat":43.26235,"lon":5.37504,"is_reserved":false,"is_disabled":false,"rental_uris":{"android":"levelo://app?vid=9f3ed220-9e9e-4bc8-a5f6-aeb6066011ca","ios":"levelo://app?vid=9f3ed220-9e9e-4bc8-a5f6-aeb6066011ca"},"vehicle_type_id":"4","last_reported":1753312287,"current_range_meters":11600,"station_id":"","pricing_plan_id":"cebpf4jnsgd1na2vs0mg"},{"bike_id":"7b38bae9-e2f1-48e6-9283-61ad5cc91171","system_id":"levelo_inurba_marseille","lat":43.29261,"lon":5.40913,"is_reserved":false,"is_disabled":false,"rental_uris":{"android":"levelo://app?vid=7b38bae9-e2f1-48e6-9283-61ad5cc91171","ios":"levelo://app?vid=7b38bae9-e2f1-48e6-9283-61ad5cc91171"},"vehicle_type_id":"4","last_reported":1753312287,"current_range_meters":12000,"station_id":"ce4bh192rcd13ifvqdc0","pricing_plan_id":"cebpf4jnsgd1na2vs0mg"},{"bike_id":"d55aa035-104e-4b4d-89aa-92e1a1bc9ad6","system_id":"levelo_inurba_marseille","lat":43.30655,"lon":5.40075,"is_reserved":false,"is_disabled":false,"rental_uris":{"android":"levelo://app?vid=d55aa035-104e-4b4d-89aa-92e1a1bc9ad6","ios":"levelo://app?vid=d55aa035-104e-4b4d-89aa-92e1a1bc9ad6"},"vehicle_type_id":"4","last_reported":1753312287,"current_range_meters":12000,"station_id":"ce4bh112rcd13ifvqda0","pricing_plan_id":"cebpf4jnsgd1na2vs0mg"},{"bike_id":"bbc2b271-396f-4875-9f1d-0fcc163d87b6","system_id":"levelo_inurba_marseille","lat":43.29147,"lon":5.39872,"is_reserved":false,"is_disabled":false,"rental_uris":{"android":"levelo://app?vid=bbc2b271-396f-4875-9f1d-0fcc163d87b6","ios":"levelo://app?vid=bbc2b271-396f-4875-9f1d-0fcc163d87b6"},"vehicle_type_id":"4","last_reported":1753312287,"current_range_meters":12000,"station_id":"","pricing_plan_id":"cebpf4jnsgd1na2vs0mg"},{"bike_id":"26be4685-15bc-435c-b307-7febbc485157","system_id":"levelo_inurba_marseille","lat":43.29266,"lon":5.40915,"is_reserved":false,"is_disabled":false,"rental_uris":{"android":"levelo://app?vid=26be4685-15bc-435c-b307-7febbc485157","ios":"levelo://app?vid=26be4685-15bc-435c-b307-7febbc485157"},"vehicle_type_id":"4","last_reported":1753312287,"current_range_meters":12000,"station_id":"ce4bh192rcd13ifvqdc0","pricing_plan_id":"cebpf4jnsgd1na2vs0mg"},{"bike_id":"f1d097b0-c8a4-4367-9aff-51329a8098f3","system_id":"levelo_inurba_marseille","lat":43.30908,"lon":5.40136,"is_reserved":false,"is_disabled":false,"rental_uris":{"android":"levelo://app?vid=f1d097b0-c8a4-4367-9aff-51329a8098f3","ios":"levelo://app?vid=f1d097b0-c8a4-4367-9aff-51329a8098f3"},"vehicle_type_id":"4","last_reported":1753312287,"current_range_meters":12000,"station_id":"ce4bgvp2rcd13ifvqct0","pricing_plan_id":"cebpf4jnsgd1na2vs0mg"},{"bike_id":"2f61fd6c-d657-4c53-bdf7-4cb4dc022375","system_id":"levelo_inurba_marseille","lat":43.295943,"lon":5.36739,"is_reserved":false,"is_disabled":false,"rental_uris":{"android":"levelo://app?vid=2f61fd6c-d657-4c53-bdf7-4cb4dc022375","ios":"levelo://app?vid=2f61fd6c-d657-4c53-bdf7-4cb4dc022375"},"vehicle_type_id":"4","last_reported":1753312287,"current_range_meters":12000,"station_id":"ce4bgph2rcd13ifvqc2g","pricing_plan_id":"cebpf4jnsgd1na2vs0mg"},{"bike_id":"e74ce1d2-7467-44e9-8a64-d22833385217","system_id":"levelo_inurba_marseille","lat":43.281544,"lon":5.426457,"is_reserved":false,"is_disabled":false,"rental_uris":{"android":"levelo://app?vid=e74ce1d2-7467-44e9-8a64-d22833385217","ios":"levelo://app?vid=e74ce1d2-7467-44e9-8a64-d22833385217"},"vehicle_type_id":"4","last_reported":1753312287,"current_range_meters":12000,"station_id":"ce4bhnh2rcd13ifvqgug","pricing_plan_id":"cebpf4jnsgd1na2vs0mg"},{"bike_id":"a1030235-78f0-4cf4-bc24-4c2485eaed94","system_id":"levelo_inurba_marseille","lat":43.290238,"lon":5.386462,"is_reserved":false,"is_disabled":false,"rental_uris":{"android":"levelo://app?vid=a1030235-78f0-4cf4-bc24-4c2485eaed94","ios":"levelo://app?vid=a1030235-78f0-4cf4-bc24-4c2485eaed94"},"vehicle_type_id":"4","last_reported":1753312287,"current_range_meters":12000,"station_id":"ce4bh4p2rcd13ifvqe0g","pricing_plan_id":"cebpf4jnsgd1na2vs0mg"},{"bike_id":"3f5be56d-a126-4342-8f26-f6123fe68563","system_id":"levelo_inurba_marseille","lat":43.29522,"lon":5.394,"is_reserved":false,"is_disabled":false,"rental_uris":{"android":"levelo://app?vid=3f5be56d-a126-4342-8f26-f6123fe68563","ios":"levelo://app?vid=3f5be56d-a126-4342-8f26-f6123fe68563"},"vehicle_type_id":"4","last_reported":1753312287,"current_range_meters":12000,"station_id":"ce4bh292rcd13ifvqdf0","pricing_plan_id":"cebpf4jnsgd1na2vs0mg"},{"bike_id":"ca65c564-8afc-469a-bd7b-657c9d1dbfbe","system_id":"levelo_inurba_marseille","lat":43.29032,"lon":5.39978,"is_reserved":false,"is_disabled":false,"rental_uris":{"android":"levelo://app?vid=ca65c564-8afc-469a-bd7b-657c9d1dbfbe","ios":"levelo://app?vid=ca65c564-8afc-469a-bd7b-657c9d1dbfbe"},"vehicle_type_id":"4","last_reported":1753312287,"current_range_meters":12400,"station_id":"ce4bh392rcd13ifvqdm0","pricing_plan_id":"cebpf4jnsgd1na2vs0mg"},{"bike_id":"e469b930-7864-4a88-b245-b9f07a651c86","system_id":"levelo_inurba_marseille","lat":43.30737,"lon":5.42437,"is_reserved":false,"is_disabled":false,"rental_uris":{"android":"levelo://app?vid=e469b930-7864-4a88-b245-b9f07a651c86","ios":"levelo://app?vid=e469b930-7864-4a88-b245-b9f07a651c86"},"vehicle_type_id":"4","last_reported":1753312287,"current_range_meters":12400,"station_id":"st_cvj6ca6bvosntc0bfgr0","pricing_plan_id":"cebpf4jnsgd1na2vs0mg"},{"bike_id":"649a6524-8390-4653-8bcf-9537fff11e28","system_id":"levelo_inurba_marseille","lat":43.28466,"lon":5.35886,"is_reserved":false,"is_disabled":false,"rental_uris":{"android":"levelo://app?vid=649a6524-8390-4653-8bcf-9537fff11e28","ios":"levelo://app?vid=649a6524-8390-4653-8bcf-9537fff11e28"},"vehicle_type_id":"4","last_reported":1753312287,"current_range_meters":12400,"station_id":"ce4bhah2rcd13ifvqei0","pricing_plan_id":"cebpf4jnsgd1na2vs0mg"},{"bike_id":"a1d31347-75e8-4c0b-b7dc-f302ae441f22","system_id":"levelo_inurba_marseille","lat":43.27498,"lon":5.42459,"is_reserved":false,"is_disabled":false,"rental_uris":{"android":"levelo://app?vid=a1d31347-75e8-4c0b-b7dc-f302ae441f22","ios":"levelo://app?vid=a1d31347-75e8-4c0b-b7dc-f302ae441f22"},"vehicle_type_id":"4","last_reported":1753312287,"current_range_meters":12400,"station_id":"ce4bhn92rcd13ifvqgrg","pricing_plan_id":"cebpf4jnsgd1na2vs0mg"},{"bike_id":"396dbd6b-bd12-4fba-a413-85741f08daa2","system_id":"levelo_inurba_marseille","lat":43.23081,"lon":5.35476,"is_reserved":false,"is_disabled":false,"rental_uris":{"android":"levelo://app?vid=396dbd6b-bd12-4fba-a413-85741f08daa2","ios":"levelo://app?vid=396dbd6b-bd12-4fba-a413-85741f08daa2"},"vehicle_type_id":"4","last_reported":1753312287,"current_range_meters":12400,"station_id":"cpo3342slgdg3j2ifvpg","pricing_plan_id":"cebpf4jnsgd1na2vs0mg"},{"bike_id":"7851951d-7efd-4983-bcf8-36b084ea5f31","system_id":"levelo_inurba_marseille","lat":43.31699,"lon":5.40459,"is_reserved":false,"is_disabled":false,"rental_uris":{"android":"levelo://app?vid=7851951d-7efd-4983-bcf8-36b084ea5f31","ios":"levelo://app?vid=7851951d-7efd-4983-bcf8-36b084ea5f31"},"vehicle_type_id":"4","last_reported":1753312287,"current_range_meters":12400,"station_id":"ce4bh012rcd13ifvqd00","pricing_plan_id":"cebpf4jnsgd1na2vs0mg"},{"bike_id":"28f47f5e-20fb-4458-b7dc-e51ba52b9f79","system_id":"levelo_inurba_marseille","lat":43.30241,"lon":5.40057,"is_reserved":false,"is_disabled":false,"rental_uris":{"android":"levelo://app?vid=28f47f5e-20fb-4458-b7dc-e51ba52b9f79","ios":"levelo://app?vid=28f47f5e-20fb-4458-b7dc-e51ba52b9f79"},"vehicle_type_id":"4","last_reported":1753312287,"current_range_meters":12400,"station_id":"ce4bgvh2rcd13ifvqcs0","pricing_plan_id":"cebpf4jnsgd1na2vs0mg"},{"bike_id":"f9c9ff83-8548-4acb-a33b-495af4adeef4","system_id":"levelo_inurba_marseille","lat":43.323584,"lon":5.367582,"is_reserved":false,"is_disabled":false,"rental_uris":{"android":"levelo://app?vid=f9c9ff83-8548-4acb-a33b-495af4adeef4","ios":"levelo://app?vid=f9c9ff83-8548-4acb-a33b-495af4adeef4"},"vehicle_type_id":"4","last_reported":1753312287,"current_range_meters":12800,"station_id":"ce4bhsh2rcd13ifvqi2g","pricing_plan_id":"cebpf4jnsgd1na2vs0mg"},{"bike_id":"8006020a-6cfe-4131-82ca-a6c8f07671d2","system_id":"levelo_inurba_marseille","lat":43.311809,"lon":5.377116,"is_reserved":false,"is_disabled":false,"rental_uris":{"android":"levelo://app?vid=8006020a-6cfe-4131-82ca-a6c8f07671d2","ios":"levelo://app?vid=8006020a-6cfe-4131-82ca-a6c8f07671d2"},"vehicle_type_id":"4","last_reported":1753312287,"current_range_meters":12800,"station_id":"","pricing_plan_id":"cebpf4jnsgd1na2vs0mg"},{"bike_id":"fec3b07e-037a-4fea-a191-679ee2b99950","system_id":"levelo_inurba_marseille","lat":43.241683,"lon":5.363887,"is_reserved":false,"is_disabled":false,"rental_uris":{"android":"levelo://app?vid=fec3b07e-037a-4fea-a191-679ee2b99950","ios":"levelo://app?vid=fec3b07e-037a-4fea-a191-679ee2b99950"},"vehicle_type_id":"4","last_reported":1753312287,"current_range_meters":12800,"station_id":"cpo36qri1sfpv3e86is0","pricing_plan_id":"cebpf4jnsgd1na2vs0mg"},{"bike_id":"a23567dc-f3a0-4378-b496-90cd12ea77ac","system_id":"levelo_inurba_marseille","lat":43.27373,"lon":5.36264,"is_reserved":false,"is_disabled":false,"rental_uris":{"android":"levelo://app?vid=a23567dc-f3a0-4378-b496-90cd12ea77ac","ios":"levelo://app?vid=a23567dc-f3a0-4378-b496-90cd12ea77ac"},"vehicle_type_id":"4","last_reported":1753312287,"current_range_meters":12800,"station_id":"ce4bhbh2rcd13ifvqeo0","pricing_plan_id":"cebpf4jnsgd1na2vs0mg"},{"bike_id":"be73e0c3-1fcd-4852-b65a-d69995cb5cc9","system_id":"levelo_inurba_marseille","lat":43.32363,"lon":5.40627,"is_reserved":false,"is_disabled":true,"rental_uris":{"android":"levelo://app?vid=be73e0c3-1fcd-4852-b65a-d69995cb5cc9","ios":"levelo://app?vid=be73e0c3-1fcd-4852-b65a-d69995cb5cc9"},"vehicle_type_id":"4","last_reported":1753312287,"current_range_meters":12800,"station_id":"ce4bhq92rcd13ifvqhjg","pricing_plan_id":"cebpf4jnsgd1na2vs0mg"},{"bike_id":"88a9f625-7de7-4de5-aa62-8abe9be22433","system_id":"levelo_inurba_marseille","lat":43.29024,"lon":5.38625,"is_reserved":false,"is_disabled":false,"rental_uris":{"android":"levelo://app?vid=88a9f625-7de7-4de5-aa62-8abe9be22433","ios":"levelo://app?vid=88a9f625-7de7-4de5-aa62-8abe9be22433"},"vehicle_type_id":"4","last_reported":1753312287,"current_range_meters":12800,"station_id":"ce4bh4p2rcd13ifvqe0g","pricing_plan_id":"cebpf4jnsgd1na2vs0mg"},{"bike_id":"3a357f34-54ed-4080-9cc5-1e85dca7bbe1","system_id":"levelo_inurba_marseille","lat":43.30253,"lon":5.40077,"is_reserved":false,"is_disabled":false,"rental_uris":{"android":"levelo://app?vid=3a357f34-54ed-4080-9cc5-1e85dca7bbe1","ios":"levelo://app?vid=3a357f34-54ed-4080-9cc5-1e85dca7bbe1"},"vehicle_type_id":"4","last_reported":1753312287,"current_range_meters":13600,"station_id":"ce4bgvh2rcd13ifvqcs0","pricing_plan_id":"cebpf4jnsgd1na2vs0mg"},{"bike_id":"ba1f0b2a-bef0-4f49-a143-8e2b1ea235c7","system_id":"levelo_inurba_marseille","lat":43.31072,"lon":5.38351,"is_reserved":false,"is_disabled":false,"rental_uris":{"android":"levelo://app?vid=ba1f0b2a-bef0-4f49-a143-8e2b1ea235c7","ios":"levelo://app?vid=ba1f0b2a-bef0-4f49-a143-8e2b1ea235c7"},"vehicle_type_id":"4","last_reported":1753312287,"current_range_meters":13600,"station_id":"ce4bgv92rcd13ifvqcr0","pricing_plan_id":"cebpf4jnsgd1na2vs0mg"},{"bike_id":"bbd16db7-d82b-4de1-8c69-f183ff4f975d","system_id":"levelo_inurba_marseille","lat":43.295827,"lon":5.367377,"is_reserved":false,"is_disabled":false,"rental_uris":{"android":"levelo://app?vid=bbd16db7-d82b-4de1-8c69-f183ff4f975d","ios":"levelo://app?vid=bbd16db7-d82b-4de1-8c69-f183ff4f975d"},"vehicle_type_id":"4","last_reported":1753312287,"current_range_meters":13600,"station_id":"ce4bgph2rcd13ifvqc2g","pricing_plan_id":"cebpf4jnsgd1na2vs0mg"},{"bike_id":"f3217e35-0bb5-43ab-beb0-dd5e233a7114","system_id":"levelo_inurba_marseille","lat":43.255789,"lon":5.382356,"is_reserved":false,"is_disabled":false,"rental_uris":{"android":"levelo://app?vid=f3217e35-0bb5-43ab-beb0-dd5e233a7114","ios":"levelo://app?vid=f3217e35-0bb5-43ab-beb0-dd5e233a7114"},"vehicle_type_id":"4","last_reported":1753312287,"current_range_meters":13600,"station_id":"ce4bhih2rcd13ifvqfs0","pricing_plan_id":"cebpf4jnsgd1na2vs0mg"},{"bike_id":"b5ce8d93-17c0-45a5-b2b1-eefce45c2d79","system_id":"levelo_inurba_marseille","lat":43.3182,"lon":5.4353,"is_reserved":false,"is_disabled":false,"rental_uris":{"android":"levelo://app?vid=b5ce8d93-17c0-45a5-b2b1-eefce45c2d79","ios":"levelo://app?vid=b5ce8d93-17c0-45a5-b2b1-eefce45c2d79"},"vehicle_type_id":"4","last_reported":1753312287,"current_range_meters":13600,"station_id":"","pricing_plan_id":"cebpf4jnsgd1na2vs0mg"},{"bike_id":"ca2a6ecd-19d4-494d-9d4c-a252e4e96fb8","system_id":"levelo_inurba_marseille","lat":43.28944,"lon":5.39642,"is_reserved":false,"is_disabled":false,"rental_uris":{"android":"levelo://app?vid=ca2a6ecd-19d4-494d-9d4c-a252e4e96fb8","ios":"levelo://app?vid=ca2a6ecd-19d4-494d-9d4c-a252e4e96fb8"},"vehicle_type_id":"4","last_reported":1753312287,"current_range_meters":13600,"station_id":"ce4bh3h2rcd13ifvqdn0","pricing_plan_id":"cebpf4jnsgd1na2vs0mg"},{"bike_id":"1a419f8d-94c9-405c-8d28-4da5df3a6988","system_id":"levelo_inurba_marseille","lat":43.282654,"lon":5.350635,"is_reserved":false,"is_disabled":false,"rental_uris":{"android":"levelo://app?vid=1a419f8d-94c9-405c-8d28-4da5df3a6988","ios":"levelo://app?vid=1a419f8d-94c9-405c-8d28-4da5df3a6988"},"vehicle_type_id":"4","last_reported":1753312287,"current_range_meters":13600,"station_id":"ce4bhbp2rcd13ifvqerg","pricing_plan_id":"cebpf4jnsgd1na2vs0mg"},{"bike_id":"8c220623-3611-4c5a-827e-8c978d37ae14","system_id":"levelo_inurba_marseille","lat":43.306089,"lon":5.372268,"is_reserved":false,"is_disabled":false,"rental_uris":{"android":"levelo://app?vid=8c220623-3611-4c5a-827e-8c978d37ae14","ios":"levelo://app?vid=8c220623-3611-4c5a-827e-8c978d37ae14"},"vehicle_type_id":"4","last_reported":1753312287,"current_range_meters":13600,"station_id":"ce4bgqh2rcd13ifvqc4g","pricing_plan_id":"cebpf4jnsgd1na2vs0mg"},{"bike_id":"988a95a1-be28-4c92-ae5a-fa2c70b2d7e2","system_id":"levelo_inurba_marseille","lat":43.241794,"lon":5.397314,"is_reserved":false,"is_disabled":false,"rental_uris":{"android":"levelo://app?vid=988a95a1-be28-4c92-ae5a-fa2c70b2d7e2","ios":"levelo://app?vid=988a95a1-be28-4c92-ae5a-fa2c70b2d7e2"},"vehicle_type_id":"4","last_reported":1753312287,"current_range_meters":13600,"station_id":"ce4bhn12rcd13ifvqgpg","pricing_plan_id":"cebpf4jnsgd1na2vs0mg"},{"bike_id":"541e3f7a-640b-4d8c-977d-949ca2a087ab","system_id":"levelo_inurba_marseille","lat":43.30796,"lon":5.379577,"is_reserved":false,"is_disabled":true,"rental_uris":{"android":"levelo://app?vid=541e3f7a-640b-4d8c-977d-949ca2a087ab","ios":"levelo://app?vid=541e3f7a-640b-4d8c-977d-949ca2a087ab"},"vehicle_type_id":"4","last_reported":1753312287,"current_range_meters":13600,"station_id":"ce4bgt12rcd13ifvqce0","pricing_plan_id":"cebpf4jnsgd1na2vs0mg"},{"bike_id":"a0de01aa-cd68-4a4d-8bab-65fa167b8610","system_id":"levelo_inurba_marseille","lat":43.2319,"lon":5.35543,"is_reserved":false,"is_disabled":false,"rental_uris":{"android":"levelo://app?vid=a0de01aa-cd68-4a4d-8bab-65fa167b8610","ios":"levelo://app?vid=a0de01aa-cd68-4a4d-8bab-65fa167b8610"},"vehicle_type_id":"4","last_reported":1753312287,"current_range_meters":13600,"station_id":"ce4bhu92rcd13ifvqi70","pricing_plan_id":"cebpf4jnsgd1na2vs0mg"},{"bike_id":"7ca0bf5e-2993-45c9-866f-452888c9c143","system_id":"levelo_inurba_marseille","lat":43.28463,"lon":5.358873,"is_reserved":false,"is_disabled":false,"rental_uris":{"android":"levelo://app?vid=7ca0bf5e-2993-45c9-866f-452888c9c143","ios":"levelo://app?vid=7ca0bf5e-2993-45c9-866f-452888c9c143"},"vehicle_type_id":"4","last_reported":1753312287,"current_range_meters":13600,"station_id":"ce4bhah2rcd13ifvqei0","pricing_plan_id":"cebpf4jnsgd1na2vs0mg"},{"bike_id":"9ce312f1-cb07-4159-91d6-c11a68a5ee71","system_id":"levelo_inurba_marseille","lat":43.2117,"lon":5.35108,"is_reserved":false,"is_disabled":false,"rental_uris":{"android":"levelo://app?vid=9ce312f1-cb07-4159-91d6-c11a68a5ee71","ios":"levelo://app?vid=9ce312f1-cb07-4159-91d6-c11a68a5ee71"},"vehicle_type_id":"4","last_reported":1753312287,"current_range_meters":13600,"station_id":"st_cvj6sg6p6f1abm77japg","pricing_plan_id":"cebpf4jnsgd1na2vs0mg"},{"bike_id":"50acd264-642c-4a23-9b9d-a5df66a38e3f","system_id":"levelo_inurba_marseille","lat":43.296076,"lon":5.38114,"is_reserved":false,"is_disabled":false,"rental_uris":{"android":"levelo://app?vid=50acd264-642c-4a23-9b9d-a5df66a38e3f","ios":"levelo://app?vid=50acd264-642c-4a23-9b9d-a5df66a38e3f"},"vehicle_type_id":"4","last_reported":1753312287,"current_range_meters":14000,"station_id":"ce4bgl12rcd13ifvqbo0","pricing_plan_id":"cebpf4jnsgd1na2vs0mg"},{"bike_id":"de45d814-b95a-4759-9f6f-a86ee21f1cd5","system_id":"levelo_inurba_marseille","lat":43.28441,"lon":5.39187,"is_reserved":false,"is_disabled":false,"rental_uris":{"android":"levelo://app?vid=de45d814-b95a-4759-9f6f-a86ee21f1cd5","ios":"levelo://app?vid=de45d814-b95a-4759-9f6f-a86ee21f1cd5"},"vehicle_type_id":"4","last_reported":1753312287,"current_range_meters":14000,"station_id":"ce4bhoh2rcd13ifvqh5g","pricing_plan_id":"cebpf4jnsgd1na2vs0mg"},{"bike_id":"ec2dd678-6272-492e-bb52-9be4462f13ba","system_id":"levelo_inurba_marseille","lat":43.30428,"lon":5.39754,"is_reserved":false,"is_disabled":false,"rental_uris":{"android":"levelo://app?vid=ec2dd678-6272-492e-bb52-9be4462f13ba","ios":"levelo://app?vid=ec2dd678-6272-492e-bb52-9be4462f13ba"},"vehicle_type_id":"4","last_reported":1753312287,"current_range_meters":14000,"station_id":"ce4bh092rcd13ifvqd20","pricing_plan_id":"cebpf4jnsgd1na2vs0mg"},{"bike_id":"b8d738d9-a006-4f85-9da8-a7f3edbaa544","system_id":"levelo_inurba_marseille","lat":43.26193,"lon":5.404256,"is_reserved":false,"is_disabled":false,"rental_uris":{"android":"levelo://app?vid=b8d738d9-a006-4f85-9da8-a7f3edbaa544","ios":"levelo://app?vid=b8d738d9-a006-4f85-9da8-a7f3edbaa544"},"vehicle_type_id":"4","last_reported":1753312287,"current_range_meters":14000,"station_id":"ce4bhmh2rcd13ifvqgmg","pricing_plan_id":"cebpf4jnsgd1na2vs0mg"},{"bike_id":"960d25e5-ac27-47de-ad2a-b2dafcb819c7","system_id":"levelo_inurba_marseille","lat":43.290079,"lon":5.356176,"is_reserved":false,"is_disabled":true,"rental_uris":{"android":"levelo://app?vid=960d25e5-ac27-47de-ad2a-b2dafcb819c7","ios":"levelo://app?vid=960d25e5-ac27-47de-ad2a-b2dafcb819c7"},"vehicle_type_id":"4","last_reported":1753312287,"current_range_meters":14000,"station_id":"ce4bhb92rcd13ifvqen0","pricing_plan_id":"cebpf4jnsgd1na2vs0mg"},{"bike_id":"b398a12e-ddfb-4332-ab32-8ee2cacebdb8","system_id":"levelo_inurba_marseille","lat":43.30304,"lon":5.36878,"is_reserved":false,"is_disabled":false,"rental_uris":{"android":"levelo://app?vid=b398a12e-ddfb-4332-ab32-8ee2cacebdb8","ios":"levelo://app?vid=b398a12e-ddfb-4332-ab32-8ee2cacebdb8"},"vehicle_type_id":"4","last_reported":1753312287,"current_range_meters":14000,"station_id":"ce4bgqh2rcd13ifvqc5g","pricing_plan_id":"cebpf4jnsgd1na2vs0mg"},{"bike_id":"0044f8c1-5a70-4840-a7ed-db0b05f30513","system_id":"levelo_inurba_marseille","lat":43.28953,"lon":5.36643,"is_reserved":false,"is_disabled":false,"rental_uris":{"android":"levelo://app?vid=0044f8c1-5a70-4840-a7ed-db0b05f30513","ios":"levelo://app?vid=0044f8c1-5a70-4840-a7ed-db0b05f30513"},"vehicle_type_id":"4","last_reported":1753312287,"current_range_meters":14000,"station_id":"ce4bhap2rcd13ifvqek0","pricing_plan_id":"cebpf4jnsgd1na2vs0mg"},{"bike_id":"9d8794fb-4dc3-48df-ba3f-eb992b8693e1","system_id":"levelo_inurba_marseille","lat":43.30811,"lon":5.38159,"is_reserved":false,"is_disabled":false,"rental_uris":{"android":"levelo://app?vid=9d8794fb-4dc3-48df-ba3f-eb992b8693e1","ios":"levelo://app?vid=9d8794fb-4dc3-48df-ba3f-eb992b8693e1"},"vehicle_type_id":"4","last_reported":1753312287,"current_range_meters":14000,"station_id":"ce4bgt12rcd13ifvqce0","pricing_plan_id":"cebpf4jnsgd1na2vs0mg"},{"bike_id":"f8232130-db52-4ff5-b354-f78033a04c00","system_id":"levelo_inurba_marseille","lat":43.28011,"lon":5.41001,"is_reserved":false,"is_disabled":false,"rental_uris":{"android":"levelo://app?vid=f8232130-db52-4ff5-b354-f78033a04c00","ios":"levelo://app?vid=f8232130-db52-4ff5-b354-f78033a04c00"},"vehicle_type_id":"4","last_reported":1753312287,"current_range_meters":14000,"station_id":"","pricing_plan_id":"cebpf4jnsgd1na2vs0mg"},{"bike_id":"072249e0-6b31-4d65-814c-3886177b7a41","system_id":"levelo_inurba_marseille","lat":43.31762,"lon":5.39016,"is_reserved":false,"is_disabled":false,"rental_uris":{"android":"levelo://app?vid=072249e0-6b31-4d65-814c-3886177b7a41","ios":"levelo://app?vid=072249e0-6b31-4d65-814c-3886177b7a41"},"vehicle_type_id":"4","last_reported":1753312287,"current_range_meters":14000,"station_id":"ce4bhqp2rcd13ifvqhng","pricing_plan_id":"cebpf4jnsgd1na2vs0mg"},{"bike_id":"d8dc20bc-067a-4d02-b472-160a7f6f646b","system_id":"levelo_inurba_marseille","lat":43.24074,"lon":5.37762,"is_reserved":false,"is_disabled":false,"rental_uris":{"android":"levelo://app?vid=d8dc20bc-067a-4d02-b472-160a7f6f646b","ios":"levelo://app?vid=d8dc20bc-067a-4d02-b472-160a7f6f646b"},"vehicle_type_id":"4","last_reported":1753312287,"current_range_meters":14000,"station_id":"ce4bhnp2rcd13ifvqgvg","pricing_plan_id":"cebpf4jnsgd1na2vs0mg"},{"bike_id":"fa29f406-fd05-4d21-9272-145a2ef05e32","system_id":"levelo_inurba_marseille","lat":43.3189,"lon":5.40721,"is_reserved":false,"is_disabled":false,"rental_uris":{"android":"levelo://app?vid=fa29f406-fd05-4d21-9272-145a2ef05e32","ios":"levelo://app?vid=fa29f406-fd05-4d21-9272-145a2ef05e32"},"vehicle_type_id":"4","last_reported":1753312287,"current_range_meters":14400,"station_id":"ce4bhq12rcd13ifvqhig","pricing_plan_id":"cebpf4jnsgd1na2vs0mg"},{"bike_id":"28324e38-20b9-44d9-9f36-a048f64442cf","system_id":"levelo_inurba_marseille","lat":43.30933,"lon":5.40144,"is_reserved":false,"is_disabled":false,"rental_uris":{"android":"levelo://app?vid=28324e38-20b9-44d9-9f36-a048f64442cf","ios":"levelo://app?vid=28324e38-20b9-44d9-9f36-a048f64442cf"},"vehicle_type_id":"4","last_reported":1753312287,"current_range_meters":14400,"station_id":"ce4bgvp2rcd13ifvqct0","pricing_plan_id":"cebpf4jnsgd1na2vs0mg"},{"bike_id":"5621edd3-f3c6-4414-9b55-c8b8e61f60ba","system_id":"levelo_inurba_marseille","lat":43.28407,"lon":5.37518,"is_reserved":false,"is_disabled":false,"rental_uris":{"android":"levelo://app?vid=5621edd3-f3c6-4414-9b55-c8b8e61f60ba","ios":"levelo://app?vid=5621edd3-f3c6-4414-9b55-c8b8e61f60ba"},"vehicle_type_id":"4","last_reported":1753312287,"current_range_meters":14400,"station_id":"ce4bh412rcd13ifvqds0","pricing_plan_id":"cebpf4jnsgd1na2vs0mg"},{"bike_id":"1e7d27be-23af-4c7f-9a5e-514152b69086","system_id":"levelo_inurba_marseille","lat":43.29432,"lon":5.40963,"is_reserved":false,"is_disabled":false,"rental_uris":{"android":"levelo://app?vid=1e7d27be-23af-4c7f-9a5e-514152b69086","ios":"levelo://app?vid=1e7d27be-23af-4c7f-9a5e-514152b69086"},"vehicle_type_id":"4","last_reported":1753312287,"current_range_meters":14400,"station_id":"","pricing_plan_id":"cebpf4jnsgd1na2vs0mg"},{"bike_id":"f9322b84-4311-4472-9e01-0a942613dbdc","system_id":"levelo_inurba_marseille","lat":43.279954,"lon":5.416682,"is_reserved":false,"is_disabled":false,"rental_uris":{"android":"levelo://app?vid=f9322b84-4311-4472-9e01-0a942613dbdc","ios":"levelo://app?vid=f9322b84-4311-4472-9e01-0a942613dbdc"},"vehicle_type_id":"4","last_reported":1753312287,"current_range_meters":14800,"station_id":"ce4bho12rcd13ifvqh1g","pricing_plan_id":"cebpf4jnsgd1na2vs0mg"},{"bike_id":"eabde739-4a97-4978-bd9b-b2852f793189","system_id":"levelo_inurba_marseille","lat":43.31332,"lon":5.3969,"is_reserved":false,"is_disabled":false,"rental_uris":{"android":"levelo://app?vid=eabde739-4a97-4978-bd9b-b2852f793189","ios":"levelo://app?vid=eabde739-4a97-4978-bd9b-b2852f793189"},"vehicle_type_id":"4","last_reported":1753312287,"current_range_meters":14800,"station_id":"ce4bgvp2rcd13ifvqcu0","pricing_plan_id":"cebpf4jnsgd1na2vs0mg"},{"bike_id":"fd901e7d-3af9-4da3-ac78-a2aad624617f","system_id":"levelo_inurba_marseille","lat":43.28409,"lon":5.37513,"is_reserved":false,"is_disabled":false,"rental_uris":{"android":"levelo://app?vid=fd901e7d-3af9-4da3-ac78-a2aad624617f","ios":"levelo://app?vid=fd901e7d-3af9-4da3-ac78-a2aad624617f"},"vehicle_type_id":"4","last_reported":1753312287,"current_range_meters":14800,"station_id":"ce4bh412rcd13ifvqds0","pricing_plan_id":"cebpf4jnsgd1na2vs0mg"},{"bike_id":"74667481-5f03-4636-8b5a-495e4f40157d","system_id":"levelo_inurba_marseille","lat":43.30947,"lon":5.3736,"is_reserved":false,"is_disabled":false,"rental_uris":{"android":"levelo://app?vid=74667481-5f03-4636-8b5a-495e4f40157d","ios":"levelo://app?vid=74667481-5f03-4636-8b5a-495e4f40157d"},"vehicle_type_id":"4","last_reported":1753312287,"current_range_meters":14800,"station_id":"","pricing_plan_id":"cebpf4jnsgd1na2vs0mg"},{"bike_id":"0d989bd3-3a2a-48ca-a6d7-77c5e7fc1d2e","system_id":"levelo_inurba_marseille","lat":43.23192,"lon":5.39992,"is_reserved":false,"is_disabled":false,"rental_uris":{"android":"levelo://app?vid=0d989bd3-3a2a-48ca-a6d7-77c5e7fc1d2e","ios":"levelo://app?vid=0d989bd3-3a2a-48ca-a6d7-77c5e7fc1d2e"},"vehicle_type_id":"4","last_reported":1753312287,"current_range_meters":14800,"station_id":"ce4bhn12rcd13ifvqgqg","pricing_plan_id":"cebpf4jnsgd1na2vs0mg"},{"bike_id":"0b038d1a-2e18-49ed-bfd0-db9b0c826118","system_id":"levelo_inurba_marseille","lat":43.286978,"lon":5.39983,"is_reserved":false,"is_disabled":false,"rental_uris":{"android":"levelo://app?vid=0b038d1a-2e18-49ed-bfd0-db9b0c826118","ios":"levelo://app?vid=0b038d1a-2e18-49ed-bfd0-db9b0c826118"},"vehicle_type_id":"4","last_reported":1753312287,"current_range_meters":14800,"station_id":"ce4bho92rcd13ifvqh3g","pricing_plan_id":"cebpf4jnsgd1na2vs0mg"},{"bike_id":"b89d6267-55af-48a1-8887-3f0adc5ff195","system_id":"levelo_inurba_marseille","lat":43.301319,"lon":5.39874,"is_reserved":false,"is_disabled":false,"rental_uris":{"android":"levelo://app?vid=b89d6267-55af-48a1-8887-3f0adc5ff195","ios":"levelo://app?vid=b89d6267-55af-48a1-8887-3f0adc5ff195"},"vehicle_type_id":"4","last_reported":1753312287,"current_range_meters":14800,"station_id":"","pricing_plan_id":"cebpf4jnsgd1na2vs0mg"},{"bike_id":"6a454c54-bc92-4248-a7ae-643f6c211647","system_id":"levelo_inurba_marseille","lat":43.305908,"lon":5.393544,"is_reserved":false,"is_disabled":false,"rental_uris":{"android":"levelo://app?vid=6a454c54-bc92-4248-a7ae-643f6c211647","ios":"levelo://app?vid=6a454c54-bc92-4248-a7ae-643f6c211647"},"vehicle_type_id":"4","last_reported":1753312287,"current_range_meters":14800,"station_id":"ce4bh0p2rcd13ifvqd80","pricing_plan_id":"cebpf4jnsgd1na2vs0mg"},{"bike_id":"e480bd8b-ab3b-474e-85dc-cd917472d2ed","system_id":"levelo_inurba_marseille","lat":43.23959,"lon":5.36634,"is_reserved":false,"is_disabled":false,"rental_uris":{"android":"levelo://app?vid=e480bd8b-ab3b-474e-85dc-cd917472d2ed","ios":"levelo://app?vid=e480bd8b-ab3b-474e-85dc-cd917472d2ed"},"vehicle_type_id":"4","last_reported":1753312287,"current_range_meters":14800,"station_id":"ce4bhi12rcd13ifvqfp0","pricing_plan_id":"cebpf4jnsgd1na2vs0mg"},{"bike_id":"8da50daa-01e3-4f17-ab0c-8f1f061fcf2c","system_id":"levelo_inurba_marseille","lat":43.26211,"lon":5.37461,"is_reserved":false,"is_disabled":false,"rental_uris":{"android":"levelo://app?vid=8da50daa-01e3-4f17-ab0c-8f1f061fcf2c","ios":"levelo://app?vid=8da50daa-01e3-4f17-ab0c-8f1f061fcf2c"},"vehicle_type_id":"4","last_reported":1753312287,"current_range_meters":14800,"station_id":"ce4bhgp2rcd13ifvqfc0","pricing_plan_id":"cebpf4jnsgd1na2vs0mg"},{"bike_id":"75921511-23bf-408f-9470-1062209789d6","system_id":"levelo_inurba_marseille","lat":43.255836,"lon":5.382255,"is_reserved":false,"is_disabled":false,"rental_uris":{"android":"levelo://app?vid=75921511-23bf-408f-9470-1062209789d6","ios":"levelo://app?vid=75921511-23bf-408f-9470-1062209789d6"},"vehicle_type_id":"4","last_reported":1753312287,"current_range_meters":15200,"station_id":"ce4bhih2rcd13ifvqfs0","pricing_plan_id":"cebpf4jnsgd1na2vs0mg"},{"bike_id":"b1611388-74da-4bd8-aa35-2fd1ff7cb76e","system_id":"levelo_inurba_marseille","lat":43.2707,"lon":5.42299,"is_reserved":false,"is_disabled":false,"rental_uris":{"android":"levelo://app?vid=b1611388-74da-4bd8-aa35-2fd1ff7cb76e","ios":"levelo://app?vid=b1611388-74da-4bd8-aa35-2fd1ff7cb76e"},"vehicle_type_id":"4","last_reported":1753312287,"current_range_meters":15200,"station_id":"ce4bhk92rcd13ifvqgb0","pricing_plan_id":"cebpf4jnsgd1na2vs0mg"},{"bike_id":"ace255a1-6034-44ed-8006-5510d8b33881","system_id":"levelo_inurba_marseille","lat":43.27066,"lon":5.42287,"is_reserved":false,"is_disabled":false,"rental_uris":{"android":"levelo://app?vid=ace255a1-6034-44ed-8006-5510d8b33881","ios":"levelo://app?vid=ace255a1-6034-44ed-8006-5510d8b33881"},"vehicle_type_id":"4","last_reported":1753312287,"current_range_meters":15200,"station_id":"ce4bhk92rcd13ifvqgb0","pricing_plan_id":"cebpf4jnsgd1na2vs0mg"},{"bike_id":"60ca143a-d547-405d-9466-28b1c2e3cba9","system_id":"levelo_inurba_marseille","lat":43.304382,"lon":5.388925,"is_reserved":false,"is_disabled":false,"rental_uris":{"android":"levelo://app?vid=60ca143a-d547-405d-9466-28b1c2e3cba9","ios":"levelo://app?vid=60ca143a-d547-405d-9466-28b1c2e3cba9"},"vehicle_type_id":"4","last_reported":1753312287,"current_range_meters":15200,"station_id":"ce4bgk12rcd13ifvqbi0","pricing_plan_id":"cebpf4jnsgd1na2vs0mg"},{"bike_id":"496cac02-0e91-4f64-97b9-cb34cf0ab931","system_id":"levelo_inurba_marseille","lat":43.22542,"lon":5.34778,"is_reserved":false,"is_disabled":false,"rental_uris":{"android":"levelo://app?vid=496cac02-0e91-4f64-97b9-cb34cf0ab931","ios":"levelo://app?vid=496cac02-0e91-4f64-97b9-cb34cf0ab931"},"vehicle_type_id":"4","last_reported":1753312287,"current_range_meters":15200,"station_id":"","pricing_plan_id":"cebpf4jnsgd1na2vs0mg"},{"bike_id":"67e2c373-f05a-4330-9013-e652b53f2e41","system_id":"levelo_inurba_marseille","lat":43.29197,"lon":5.39319,"is_reserved":false,"is_disabled":false,"rental_uris":{"android":"levelo://app?vid=67e2c373-f05a-4330-9013-e652b53f2e41","ios":"levelo://app?vid=67e2c373-f05a-4330-9013-e652b53f2e41"},"vehicle_type_id":"4","last_reported":1753312287,"current_range_meters":15200,"station_id":"ce4bh192rcd13ifvqdd0","pricing_plan_id":"cebpf4jnsgd1na2vs0mg"},{"bike_id":"9dc41e90-f1ff-42ff-ba67-f9a0e13ce335","system_id":"levelo_inurba_marseille","lat":43.284,"lon":5.37512,"is_reserved":false,"is_disabled":false,"rental_uris":{"android":"levelo://app?vid=9dc41e90-f1ff-42ff-ba67-f9a0e13ce335","ios":"levelo://app?vid=9dc41e90-f1ff-42ff-ba67-f9a0e13ce335"},"vehicle_type_id":"4","last_reported":1753312287,"current_range_meters":15200,"station_id":"ce4bh412rcd13ifvqds0","pricing_plan_id":"cebpf4jnsgd1na2vs0mg"},{"bike_id":"3cd09fc8-9554-4236-8496-0931a7be09d1","system_id":"levelo_inurba_marseille","lat":43.21193,"lon":5.35079,"is_reserved":false,"is_disabled":false,"rental_uris":{"android":"levelo://app?vid=3cd09fc8-9554-4236-8496-0931a7be09d1","ios":"levelo://app?vid=3cd09fc8-9554-4236-8496-0931a7be09d1"},"vehicle_type_id":"4","last_reported":1753312287,"current_range_meters":15200,"station_id":"st_cvj6sg6p6f1abm77japg","pricing_plan_id":"cebpf4jnsgd1na2vs0mg"},{"bike_id":"02885542-76b0-4bcb-887d-d17198540bf4","system_id":"levelo_inurba_marseille","lat":43.30209,"lon":5.39468,"is_reserved":false,"is_disabled":false,"rental_uris":{"android":"levelo://app?vid=02885542-76b0-4bcb-887d-d17198540bf4","ios":"levelo://app?vid=02885542-76b0-4bcb-887d-d17198540bf4"},"vehicle_type_id":"4","last_reported":1753312287,"current_range_meters":15200,"station_id":"ce4bh0p2rcd13ifvqd70","pricing_plan_id":"cebpf4jnsgd1na2vs0mg"},{"bike_id":"e9e25d18-373e-4266-9b6b-bfa0bf8acd93","system_id":"levelo_inurba_marseille","lat":43.31892,"lon":5.40745,"is_reserved":false,"is_disabled":false,"rental_uris":{"android":"levelo://app?vid=e9e25d18-373e-4266-9b6b-bfa0bf8acd93","ios":"levelo://app?vid=e9e25d18-373e-4266-9b6b-bfa0bf8acd93"},"vehicle_type_id":"4","last_reported":1753312287,"current_range_meters":15200,"station_id":"ce4bhq12rcd13ifvqhig","pricing_plan_id":"cebpf4jnsgd1na2vs0mg"},{"bike_id":"da02e45a-a7af-4ba3-a013-1f386c6cc032","system_id":"levelo_inurba_marseille","lat":43.29599,"lon":5.3675,"is_reserved":false,"is_disabled":false,"rental_uris":{"android":"levelo://app?vid=da02e45a-a7af-4ba3-a013-1f386c6cc032","ios":"levelo://app?vid=da02e45a-a7af-4ba3-a013-1f386c6cc032"},"vehicle_type_id":"4","last_reported":1753312287,"current_range_meters":15200,"station_id":"ce4bgph2rcd13ifvqc2g","pricing_plan_id":"cebpf4jnsgd1na2vs0mg"},{"bike_id":"f9003d10-d9c2-4f36-aaab-0b06e5143ac9","system_id":"levelo_inurba_marseille","lat":43.299,"lon":5.37426,"is_reserved":false,"is_disabled":true,"rental_uris":{"android":"levelo://app?vid=f9003d10-d9c2-4f36-aaab-0b06e5143ac9","ios":"levelo://app?vid=f9003d10-d9c2-4f36-aaab-0b06e5143ac9"},"vehicle_type_id":"4","last_reported":1753312287,"current_range_meters":16000,"station_id":"","pricing_plan_id":"cebpf4jnsgd1na2vs0mg"},{"bike_id":"51c84cb8-e6eb-457b-a52e-6abf759b9d7e","system_id":"levelo_inurba_marseille","lat":43.29425,"lon":5.39764,"is_reserved":false,"is_disabled":false,"rental_uris":{"android":"levelo://app?vid=51c84cb8-e6eb-457b-a52e-6abf759b9d7e","ios":"levelo://app?vid=51c84cb8-e6eb-457b-a52e-6abf759b9d7e"},"vehicle_type_id":"4","last_reported":1753312287,"current_range_meters":16000,"station_id":"ce4bh3h2rcd13ifvqdo0","pricing_plan_id":"cebpf4jnsgd1na2vs0mg"},{"bike_id":"4bc04a89-7bff-4779-a2a4-ec38927e6256","system_id":"levelo_inurba_marseille","lat":43.29793,"lon":5.39354,"is_reserved":false,"is_disabled":false,"rental_uris":{"android":"levelo://app?vid=4bc04a89-7bff-4779-a2a4-ec38927e6256","ios":"levelo://app?vid=4bc04a89-7bff-4779-a2a4-ec38927e6256"},"vehicle_type_id":"4","last_reported":1753312287,"current_range_meters":16000,"station_id":"chh1huq6cuj3fo74tm60","pricing_plan_id":"cebpf4jnsgd1na2vs0mg"},{"bike_id":"5ac85406-65d0-4336-aa89-4b04b2e6689e","system_id":"levelo_inurba_marseille","lat":43.33257,"lon":5.41988,"is_reserved":false,"is_disabled":false,"rental_uris":{"android":"levelo://app?vid=5ac85406-65d0-4336-aa89-4b04b2e6689e","ios":"levelo://app?vid=5ac85406-65d0-4336-aa89-4b04b2e6689e"},"vehicle_type_id":"4","last_reported":1753312287,"current_range_meters":16000,"station_id":"","pricing_plan_id":"cebpf4jnsgd1na2vs0mg"},{"bike_id":"be5b0fec-6e3d-40e8-9297-686e7b5f9412","system_id":"levelo_inurba_marseille","lat":43.29262,"lon":5.40913,"is_reserved":false,"is_disabled":false,"rental_uris":{"android":"levelo://app?vid=be5b0fec-6e3d-40e8-9297-686e7b5f9412","ios":"levelo://app?vid=be5b0fec-6e3d-40e8-9297-686e7b5f9412"},"vehicle_type_id":"4","last_reported":1753312287,"current_range_meters":16000,"station_id":"ce4bh192rcd13ifvqdc0","pricing_plan_id":"cebpf4jnsgd1na2vs0mg"},{"bike_id":"68b23df6-72cc-481a-a09a-6413f815ff4e","system_id":"levelo_inurba_marseille","lat":43.254881,"lon":5.376491,"is_reserved":false,"is_disabled":true,"rental_uris":{"android":"levelo://app?vid=68b23df6-72cc-481a-a09a-6413f815ff4e","ios":"levelo://app?vid=68b23df6-72cc-481a-a09a-6413f815ff4e"},"vehicle_type_id":"4","last_reported":1753312287,"current_range_meters":16000,"station_id":"ce4bhh12rcd13ifvqff0","pricing_plan_id":"cebpf4jnsgd1na2vs0mg"},{"bike_id":"70737bad-8214-4681-8a7d-fa98042cf105","system_id":"levelo_inurba_marseille","lat":43.290629,"lon":5.399377,"is_reserved":false,"is_disabled":false,"rental_uris":{"android":"levelo://app?vid=70737bad-8214-4681-8a7d-fa98042cf105","ios":"levelo://app?vid=70737bad-8214-4681-8a7d-fa98042cf105"},"vehicle_type_id":"4","last_reported":1753312287,"current_range_meters":16000,"station_id":"ce4bh392rcd13ifvqdm0","pricing_plan_id":"cebpf4jnsgd1na2vs0mg"},{"bike_id":"ae131367-d818-44a0-9e1d-4aa65dcdb16a","system_id":"levelo_inurba_marseille","lat":43.27502,"lon":5.39646,"is_reserved":false,"is_disabled":false,"rental_uris":{"android":"levelo://app?vid=ae131367-d818-44a0-9e1d-4aa65dcdb16a","ios":"levelo://app?vid=ae131367-d818-44a0-9e1d-4aa65dcdb16a"},"vehicle_type_id":"4","last_reported":1753312287,"current_range_meters":16000,"station_id":"","pricing_plan_id":"cebpf4jnsgd1na2vs0mg"},{"bike_id":"0648eb3b-38dc-45ba-994e-ffad74a620d8","system_id":"levelo_inurba_marseille","lat":43.29014,"lon":5.38639,"is_reserved":false,"is_disabled":true,"rental_uris":{"android":"levelo://app?vid=0648eb3b-38dc-45ba-994e-ffad74a620d8","ios":"levelo://app?vid=0648eb3b-38dc-45ba-994e-ffad74a620d8"},"vehicle_type_id":"4","last_reported":1753312287,"current_range_meters":16000,"station_id":"ce4bh4p2rcd13ifvqe0g","pricing_plan_id":"cebpf4jnsgd1na2vs0mg"},{"bike_id":"6bb1f31c-9335-4f39-9585-31374a4775f9","system_id":"levelo_inurba_marseille","lat":43.325583,"lon":5.379059,"is_reserved":false,"is_disabled":false,"rental_uris":{"android":"levelo://app?vid=6bb1f31c-9335-4f39-9585-31374a4775f9","ios":"levelo://app?vid=6bb1f31c-9335-4f39-9585-31374a4775f9"},"vehicle_type_id":"4","last_reported":1753312287,"current_range_meters":16000,"station_id":"","pricing_plan_id":"cebpf4jnsgd1na2vs0mg"},{"bike_id":"fd806929-766b-4e70-9fda-08bb1966d1c7","system_id":"levelo_inurba_marseille","lat":43.28857,"lon":5.39319,"is_reserved":false,"is_disabled":false,"rental_uris":{"android":"levelo://app?vid=fd806929-766b-4e70-9fda-08bb1966d1c7","ios":"levelo://app?vid=fd806929-766b-4e70-9fda-08bb1966d1c7"},"vehicle_type_id":"4","last_reported":1753312287,"current_range_meters":16000,"station_id":"ce4bh2p2rcd13ifvqdi0","pricing_plan_id":"cebpf4jnsgd1na2vs0mg"},{"bike_id":"fd951b27-b2cb-4d84-9154-19e7396e99d8","system_id":"levelo_inurba_marseille","lat":43.29577,"lon":5.39969,"is_reserved":false,"is_disabled":false,"rental_uris":{"android":"levelo://app?vid=fd951b27-b2cb-4d84-9154-19e7396e99d8","ios":"levelo://app?vid=fd951b27-b2cb-4d84-9154-19e7396e99d8"},"vehicle_type_id":"4","last_reported":1753312287,"current_range_meters":16000,"station_id":"ce4bh312rcd13ifvqdj0","pricing_plan_id":"cebpf4jnsgd1na2vs0mg"},{"bike_id":"54943e91-61ee-496b-9667-a7c6c3a25bb5","system_id":"levelo_inurba_marseille","lat":43.26229,"lon":5.37448,"is_reserved":false,"is_disabled":false,"rental_uris":{"android":"levelo://app?vid=54943e91-61ee-496b-9667-a7c6c3a25bb5","ios":"levelo://app?vid=54943e91-61ee-496b-9667-a7c6c3a25bb5"},"vehicle_type_id":"4","last_reported":1753312287,"current_range_meters":16000,"station_id":"","pricing_plan_id":"cebpf4jnsgd1na2vs0mg"},{"bike_id":"c9760f11-9445-4b46-9d44-d8e35355f3a7","system_id":"levelo_inurba_marseille","lat":43.31691,"lon":5.40474,"is_reserved":false,"is_disabled":false,"rental_uris":{"android":"levelo://app?vid=c9760f11-9445-4b46-9d44-d8e35355f3a7","ios":"levelo://app?vid=c9760f11-9445-4b46-9d44-d8e35355f3a7"},"vehicle_type_id":"4","last_reported":1753312287,"current_range_meters":16400,"station_id":"ce4bh012rcd13ifvqd00","pricing_plan_id":"cebpf4jnsgd1na2vs0mg"},{"bike_id":"8653745e-84f9-4064-b6e8-6e4e8bfce0ff","system_id":"levelo_inurba_marseille","lat":43.23954,"lon":5.3666,"is_reserved":false,"is_disabled":false,"rental_uris":{"android":"levelo://app?vid=8653745e-84f9-4064-b6e8-6e4e8bfce0ff","ios":"levelo://app?vid=8653745e-84f9-4064-b6e8-6e4e8bfce0ff"},"vehicle_type_id":"4","last_reported":1753312287,"current_range_meters":16400,"station_id":"ce4bhi12rcd13ifvqfp0","pricing_plan_id":"cebpf4jnsgd1na2vs0mg"},{"bike_id":"efce9bd7-0f84-4c4c-8629-017c0e0428bd","system_id":"levelo_inurba_marseille","lat":43.25581,"lon":5.38236,"is_reserved":false,"is_disabled":false,"rental_uris":{"android":"levelo://app?vid=efce9bd7-0f84-4c4c-8629-017c0e0428bd","ios":"levelo://app?vid=efce9bd7-0f84-4c4c-8629-017c0e0428bd"},"vehicle_type_id":"4","last_reported":1753312287,"current_range_meters":16400,"station_id":"ce4bhih2rcd13ifvqfs0","pricing_plan_id":"cebpf4jnsgd1na2vs0mg"},{"bike_id":"17b6befd-1cc6-4c58-ba0e-8a9cc2a0bccb","system_id":"levelo_inurba_marseille","lat":43.22513,"lon":5.34785,"is_reserved":false,"is_disabled":false,"rental_uris":{"android":"levelo://app?vid=17b6befd-1cc6-4c58-ba0e-8a9cc2a0bccb","ios":"levelo://app?vid=17b6befd-1cc6-4c58-ba0e-8a9cc2a0bccb"},"vehicle_type_id":"4","last_reported":1753312287,"current_range_meters":16400,"station_id":"st_cvj5dfep6f1abm77gieg","pricing_plan_id":"cebpf4jnsgd1na2vs0mg"},{"bike_id":"87a2c4d2-5fd4-4dd7-a14d-b645ba283f05","system_id":"levelo_inurba_marseille","lat":43.29248,"lon":5.40919,"is_reserved":false,"is_disabled":false,"rental_uris":{"android":"levelo://app?vid=87a2c4d2-5fd4-4dd7-a14d-b645ba283f05","ios":"levelo://app?vid=87a2c4d2-5fd4-4dd7-a14d-b645ba283f05"},"vehicle_type_id":"4","last_reported":1753312287,"current_range_meters":16400,"station_id":"ce4bh192rcd13ifvqdc0","pricing_plan_id":"cebpf4jnsgd1na2vs0mg"},{"bike_id":"81f449f2-5073-474a-b6fe-58f17aa628eb","system_id":"levelo_inurba_marseille","lat":43.26188,"lon":5.37452,"is_reserved":false,"is_disabled":false,"rental_uris":{"android":"levelo://app?vid=81f449f2-5073-474a-b6fe-58f17aa628eb","ios":"levelo://app?vid=81f449f2-5073-474a-b6fe-58f17aa628eb"},"vehicle_type_id":"4","last_reported":1753312287,"current_range_meters":16400,"station_id":"ce4bhgp2rcd13ifvqfc0","pricing_plan_id":"cebpf4jnsgd1na2vs0mg"},{"bike_id":"c056311f-78c9-4e18-8685-91c659ddb125","system_id":"levelo_inurba_marseille","lat":43.316137,"lon":5.389728,"is_reserved":false,"is_disabled":false,"rental_uris":{"android":"levelo://app?vid=c056311f-78c9-4e18-8685-91c659ddb125","ios":"levelo://app?vid=c056311f-78c9-4e18-8685-91c659ddb125"},"vehicle_type_id":"4","last_reported":1753312287,"current_range_meters":16400,"station_id":"","pricing_plan_id":"cebpf4jnsgd1na2vs0mg"},{"bike_id":"1699da3b-157a-4d07-ba4d-8fe9df7d93c7","system_id":"levelo_inurba_marseille","lat":43.30375,"lon":5.41931,"is_reserved":false,"is_disabled":false,"rental_uris":{"android":"levelo://app?vid=1699da3b-157a-4d07-ba4d-8fe9df7d93c7","ios":"levelo://app?vid=1699da3b-157a-4d07-ba4d-8fe9df7d93c7"},"vehicle_type_id":"4","last_reported":1753312287,"current_range_meters":16400,"station_id":"","pricing_plan_id":"cebpf4jnsgd1na2vs0mg"},{"bike_id":"5e95e580-68ac-4eb0-be4a-a33622d8d2d9","system_id":"levelo_inurba_marseille","lat":43.24638,"lon":5.3888,"is_reserved":false,"is_disabled":false,"rental_uris":{"android":"levelo://app?vid=5e95e580-68ac-4eb0-be4a-a33622d8d2d9","ios":"levelo://app?vid=5e95e580-68ac-4eb0-be4a-a33622d8d2d9"},"vehicle_type_id":"4","last_reported":1753312287,"current_range_meters":16400,"station_id":"ce4bhg12rcd13ifvqf60","pricing_plan_id":"cebpf4jnsgd1na2vs0mg"},{"bike_id":"2de56c36-fc14-49a8-9ba0-5a35d4423f35","system_id":"levelo_inurba_marseille","lat":43.28699,"lon":5.39974,"is_reserved":false,"is_disabled":false,"rental_uris":{"android":"levelo://app?vid=2de56c36-fc14-49a8-9ba0-5a35d4423f35","ios":"levelo://app?vid=2de56c36-fc14-49a8-9ba0-5a35d4423f35"},"vehicle_type_id":"4","last_reported":1753312287,"current_range_meters":16400,"station_id":"ce4bho92rcd13ifvqh3g","pricing_plan_id":"cebpf4jnsgd1na2vs0mg"},{"bike_id":"260180e9-128c-4b83-94a9-7272eeb13455","system_id":"levelo_inurba_marseille","lat":43.29438,"lon":5.39763,"is_reserved":false,"is_disabled":false,"rental_uris":{"android":"levelo://app?vid=260180e9-128c-4b83-94a9-7272eeb13455","ios":"levelo://app?vid=260180e9-128c-4b83-94a9-7272eeb13455"},"vehicle_type_id":"4","last_reported":1753312287,"current_range_meters":16800,"station_id":"ce4bh3h2rcd13ifvqdo0","pricing_plan_id":"cebpf4jnsgd1na2vs0mg"},{"bike_id":"8c6d173f-0319-4b85-866e-8907cdab00f0","system_id":"levelo_inurba_marseille","lat":43.27626,"lon":5.36109,"is_reserved":false,"is_disabled":false,"rental_uris":{"android":"levelo://app?vid=8c6d173f-0319-4b85-866e-8907cdab00f0","ios":"levelo://app?vid=8c6d173f-0319-4b85-866e-8907cdab00f0"},"vehicle_type_id":"4","last_reported":1753312287,"current_range_meters":16400,"station_id":"ce4bgj92rcd13ifvqbe0","pricing_plan_id":"cebpf4jnsgd1na2vs0mg"},{"bike_id":"67911e6a-1ddb-4fb2-b0eb-b87b39e6fdd1","system_id":"levelo_inurba_marseille","lat":43.29578,"lon":5.3676,"is_reserved":false,"is_disabled":false,"rental_uris":{"android":"levelo://app?vid=67911e6a-1ddb-4fb2-b0eb-b87b39e6fdd1","ios":"levelo://app?vid=67911e6a-1ddb-4fb2-b0eb-b87b39e6fdd1"},"vehicle_type_id":"4","last_reported":1753312287,"current_range_meters":16400,"station_id":"ce4bgph2rcd13ifvqc2g","pricing_plan_id":"cebpf4jnsgd1na2vs0mg"},{"bike_id":"ce59a62d-17ec-416f-b54d-751bd3f6f3dd","system_id":"levelo_inurba_marseille","lat":43.27062,"lon":5.42294,"is_reserved":false,"is_disabled":false,"rental_uris":{"android":"levelo://app?vid=ce59a62d-17ec-416f-b54d-751bd3f6f3dd","ios":"levelo://app?vid=ce59a62d-17ec-416f-b54d-751bd3f6f3dd"},"vehicle_type_id":"4","last_reported":1753312287,"current_range_meters":16400,"station_id":"ce4bhk92rcd13ifvqgb0","pricing_plan_id":"cebpf4jnsgd1na2vs0mg"},{"bike_id":"18b86593-4f21-41ed-81b3-f3a5b378dc91","system_id":"levelo_inurba_marseille","lat":43.312339,"lon":5.381309,"is_reserved":false,"is_disabled":false,"rental_uris":{"android":"levelo://app?vid=18b86593-4f21-41ed-81b3-f3a5b378dc91","ios":"levelo://app?vid=18b86593-4f21-41ed-81b3-f3a5b378dc91"},"vehicle_type_id":"4","last_reported":1753312287,"current_range_meters":16400,"station_id":"","pricing_plan_id":"cebpf4jnsgd1na2vs0mg"},{"bike_id":"f6419716-c272-46b5-b908-d91a04b2b53d","system_id":"levelo_inurba_marseille","lat":43.28035,"lon":5.36953,"is_reserved":false,"is_disabled":false,"rental_uris":{"android":"levelo://app?vid=f6419716-c272-46b5-b908-d91a04b2b53d","ios":"levelo://app?vid=f6419716-c272-46b5-b908-d91a04b2b53d"},"vehicle_type_id":"4","last_reported":1753312287,"current_range_meters":16400,"station_id":"ce4bha12rcd13ifvqef0","pricing_plan_id":"cebpf4jnsgd1na2vs0mg"},{"bike_id":"6a79a396-2f47-4b1c-9dce-b0d5464f72e4","system_id":"levelo_inurba_marseille","lat":43.22929,"lon":5.35377,"is_reserved":false,"is_disabled":false,"rental_uris":{"android":"levelo://app?vid=6a79a396-2f47-4b1c-9dce-b0d5464f72e4","ios":"levelo://app?vid=6a79a396-2f47-4b1c-9dce-b0d5464f72e4"},"vehicle_type_id":"4","last_reported":1753312287,"current_range_meters":16400,"station_id":"cpo3532slgdg3j2ikp40","pricing_plan_id":"cebpf4jnsgd1na2vs0mg"},{"bike_id":"2ee732fb-16c6-4794-9a8e-0c60df4bd4d8","system_id":"levelo_inurba_marseille","lat":43.21746,"lon":5.34592,"is_reserved":false,"is_disabled":false,"rental_uris":{"android":"levelo://app?vid=2ee732fb-16c6-4794-9a8e-0c60df4bd4d8","ios":"levelo://app?vid=2ee732fb-16c6-4794-9a8e-0c60df4bd4d8"},"vehicle_type_id":"4","last_reported":1753312287,"current_range_meters":16400,"station_id":"","pricing_plan_id":"cebpf4jnsgd1na2vs0mg"},{"bike_id":"8782575e-be31-4874-aeb9-d980e926c599","system_id":"levelo_inurba_marseille","lat":43.30613,"lon":5.37223,"is_reserved":false,"is_disabled":false,"rental_uris":{"android":"levelo://app?vid=8782575e-be31-4874-aeb9-d980e926c599","ios":"levelo://app?vid=8782575e-be31-4874-aeb9-d980e926c599"},"vehicle_type_id":"4","last_reported":1753312287,"current_range_meters":16400,"station_id":"ce4bgqh2rcd13ifvqc4g","pricing_plan_id":"cebpf4jnsgd1na2vs0mg"},{"bike_id":"98bb8411-73df-4dcc-aa6a-7128fbd3da5e","system_id":"levelo_inurba_marseille","lat":43.31332,"lon":5.39693,"is_reserved":false,"is_disabled":false,"rental_uris":{"android":"levelo://app?vid=98bb8411-73df-4dcc-aa6a-7128fbd3da5e","ios":"levelo://app?vid=98bb8411-73df-4dcc-aa6a-7128fbd3da5e"},"vehicle_type_id":"4","last_reported":1753312287,"current_range_meters":16400,"station_id":"ce4bgvp2rcd13ifvqcu0","pricing_plan_id":"cebpf4jnsgd1na2vs0mg"},{"bike_id":"df1db0e5-bddc-476a-88ba-8e262697d768","system_id":"levelo_inurba_marseille","lat":43.27918,"lon":5.39581,"is_reserved":false,"is_disabled":false,"rental_uris":{"android":"levelo://app?vid=df1db0e5-bddc-476a-88ba-8e262697d768","ios":"levelo://app?vid=df1db0e5-bddc-476a-88ba-8e262697d768"},"vehicle_type_id":"4","last_reported":1753312287,"current_range_meters":16800,"station_id":"ce4bhf92rcd13ifvqf40","pricing_plan_id":"cebpf4jnsgd1na2vs0mg"},{"bike_id":"c3b7093a-c6fc-4872-a465-95918521be48","system_id":"levelo_inurba_marseille","lat":43.31455,"lon":5.37238,"is_reserved":false,"is_disabled":false,"rental_uris":{"android":"levelo://app?vid=c3b7093a-c6fc-4872-a465-95918521be48","ios":"levelo://app?vid=c3b7093a-c6fc-4872-a465-95918521be48"},"vehicle_type_id":"4","last_reported":1753312287,"current_range_meters":16800,"station_id":"","pricing_plan_id":"cebpf4jnsgd1na2vs0mg"},{"bike_id":"61cb5b9a-9cee-4d3f-8bba-365148ee2e42","system_id":"levelo_inurba_marseille","lat":43.25876,"lon":5.39897,"is_reserved":false,"is_disabled":false,"rental_uris":{"android":"levelo://app?vid=61cb5b9a-9cee-4d3f-8bba-365148ee2e42","ios":"levelo://app?vid=61cb5b9a-9cee-4d3f-8bba-365148ee2e42"},"vehicle_type_id":"4","last_reported":1753312287,"current_range_meters":16800,"station_id":"ce4bhl92rcd13ifvqghg","pricing_plan_id":"cebpf4jnsgd1na2vs0mg"},{"bike_id":"ff789295-f830-4ff6-8e7b-071bf748da40","system_id":"levelo_inurba_marseille","lat":43.30133,"lon":5.39872,"is_reserved":false,"is_disabled":false,"rental_uris":{"android":"levelo://app?vid=ff789295-f830-4ff6-8e7b-071bf748da40","ios":"levelo://app?vid=ff789295-f830-4ff6-8e7b-071bf748da40"},"vehicle_type_id":"4","last_reported":1753312287,"current_range_meters":16400,"station_id":"ce4bh0h2rcd13ifvqd40","pricing_plan_id":"cebpf4jnsgd1na2vs0mg"},{"bike_id":"2d0ef8e2-692b-42c0-83e2-e061190db759","system_id":"levelo_inurba_marseille","lat":43.30151,"lon":5.37429,"is_reserved":false,"is_disabled":false,"rental_uris":{"android":"levelo://app?vid=2d0ef8e2-692b-42c0-83e2-e061190db759","ios":"levelo://app?vid=2d0ef8e2-692b-42c0-83e2-e061190db759"},"vehicle_type_id":"4","last_reported":1753312287,"current_range_meters":16800,"station_id":"ce4bgs92rcd13ifvqcc0","pricing_plan_id":"cebpf4jnsgd1na2vs0mg"},{"bike_id":"875540a5-76de-4844-93f6-e9d5f549dced","system_id":"levelo_inurba_marseille","lat":43.295987,"lon":5.381056,"is_reserved":false,"is_disabled":false,"rental_uris":{"android":"levelo://app?vid=875540a5-76de-4844-93f6-e9d5f549dced","ios":"levelo://app?vid=875540a5-76de-4844-93f6-e9d5f549dced"},"vehicle_type_id":"4","last_reported":1753312287,"current_range_meters":16800,"station_id":"","pricing_plan_id":"cebpf4jnsgd1na2vs0mg"},{"bike_id":"f0f73c71-7331-4628-b623-754b73a8546a","system_id":"levelo_inurba_marseille","lat":43.30128,"lon":5.39873,"is_reserved":false,"is_disabled":true,"rental_uris":{"android":"levelo://app?vid=f0f73c71-7331-4628-b623-754b73a8546a","ios":"levelo://app?vid=f0f73c71-7331-4628-b623-754b73a8546a"},"vehicle_type_id":"4","last_reported":1753312287,"current_range_meters":16800,"station_id":"ce4bh0h2rcd13ifvqd40","pricing_plan_id":"cebpf4jnsgd1na2vs0mg"},{"bike_id":"5c00ff22-ed1d-4fb4-b0b2-d6647ac6fed7","system_id":"levelo_inurba_marseille","lat":43.31082,"lon":5.3835,"is_reserved":false,"is_disabled":false,"rental_uris":{"android":"levelo://app?vid=5c00ff22-ed1d-4fb4-b0b2-d6647ac6fed7","ios":"levelo://app?vid=5c00ff22-ed1d-4fb4-b0b2-d6647ac6fed7"},"vehicle_type_id":"4","last_reported":1753312287,"current_range_meters":16800,"station_id":"ce4bgv92rcd13ifvqcr0","pricing_plan_id":"cebpf4jnsgd1na2vs0mg"},{"bike_id":"1ad257b5-7f83-42c1-867f-92635ff1abbf","system_id":"levelo_inurba_marseille","lat":43.22936,"lon":5.35376,"is_reserved":false,"is_disabled":false,"rental_uris":{"android":"levelo://app?vid=1ad257b5-7f83-42c1-867f-92635ff1abbf","ios":"levelo://app?vid=1ad257b5-7f83-42c1-867f-92635ff1abbf"},"vehicle_type_id":"4","last_reported":1753312287,"current_range_meters":16800,"station_id":"cpo3532slgdg3j2ikp40","pricing_plan_id":"cebpf4jnsgd1na2vs0mg"},{"bike_id":"34d1cb52-60b0-4089-808d-45ef45686113","system_id":"levelo_inurba_marseille","lat":43.29528,"lon":5.3941,"is_reserved":false,"is_disabled":false,"rental_uris":{"android":"levelo://app?vid=34d1cb52-60b0-4089-808d-45ef45686113","ios":"levelo://app?vid=34d1cb52-60b0-4089-808d-45ef45686113"},"vehicle_type_id":"4","last_reported":1753312287,"current_range_meters":17200,"station_id":"ce4bh292rcd13ifvqdf0","pricing_plan_id":"cebpf4jnsgd1na2vs0mg"},{"bike_id":"5bf271e9-b85e-4ede-9d32-02d7c28374e7","system_id":"levelo_inurba_marseille","lat":43.32479,"lon":5.36573,"is_reserved":false,"is_disabled":false,"rental_uris":{"android":"levelo://app?vid=5bf271e9-b85e-4ede-9d32-02d7c28374e7","ios":"levelo://app?vid=5bf271e9-b85e-4ede-9d32-02d7c28374e7"},"vehicle_type_id":"4","last_reported":1753312287,"current_range_meters":17200,"station_id":"ce4bhs12rcd13ifvqhvg","pricing_plan_id":"cebpf4jnsgd1na2vs0mg"},{"bike_id":"b114f818-6034-4474-908b-ea4780f40b86","system_id":"levelo_inurba_marseille","lat":43.24056,"lon":5.376925,"is_reserved":false,"is_disabled":false,"rental_uris":{"android":"levelo://app?vid=b114f818-6034-4474-908b-ea4780f40b86","ios":"levelo://app?vid=b114f818-6034-4474-908b-ea4780f40b86"},"vehicle_type_id":"4","last_reported":1753312287,"current_range_meters":17200,"station_id":"","pricing_plan_id":"cebpf4jnsgd1na2vs0mg"},{"bike_id":"bc885ce8-095e-401b-9353-18892eaf8275","system_id":"levelo_inurba_marseille","lat":43.30798,"lon":5.38156,"is_reserved":false,"is_disabled":false,"rental_uris":{"android":"levelo://app?vid=bc885ce8-095e-401b-9353-18892eaf8275","ios":"levelo://app?vid=bc885ce8-095e-401b-9353-18892eaf8275"},"vehicle_type_id":"4","last_reported":1753312287,"current_range_meters":17200,"station_id":"ce4bgt12rcd13ifvqce0","pricing_plan_id":"cebpf4jnsgd1na2vs0mg"},{"bike_id":"324ce6d3-f95d-43f4-92cf-fd1b99454366","system_id":"levelo_inurba_marseille","lat":43.28631,"lon":5.35101,"is_reserved":false,"is_disabled":false,"rental_uris":{"android":"levelo://app?vid=324ce6d3-f95d-43f4-92cf-fd1b99454366","ios":"levelo://app?vid=324ce6d3-f95d-43f4-92cf-fd1b99454366"},"vehicle_type_id":"4","last_reported":1753312287,"current_range_meters":17200,"station_id":"ce4bhch2rcd13ifvqeug","pricing_plan_id":"cebpf4jnsgd1na2vs0mg"},{"bike_id":"6187391f-e643-40b5-a6a5-5c65e8a00966","system_id":"levelo_inurba_marseille","lat":43.24105,"lon":5.37786,"is_reserved":false,"is_disabled":false,"rental_uris":{"android":"levelo://app?vid=6187391f-e643-40b5-a6a5-5c65e8a00966","ios":"levelo://app?vid=6187391f-e643-40b5-a6a5-5c65e8a00966"},"vehicle_type_id":"4","last_reported":1753312287,"current_range_meters":17200,"station_id":"ce4bhnp2rcd13ifvqgvg","pricing_plan_id":"cebpf4jnsgd1na2vs0mg"},{"bike_id":"9e16506d-12fa-4e2d-afc9-f71bbc6e3793","system_id":"levelo_inurba_marseille","lat":43.28651,"lon":5.36365,"is_reserved":false,"is_disabled":false,"rental_uris":{"android":"levelo://app?vid=9e16506d-12fa-4e2d-afc9-f71bbc6e3793","ios":"levelo://app?vid=9e16506d-12fa-4e2d-afc9-f71bbc6e3793"},"vehicle_type_id":"4","last_reported":1753312287,"current_range_meters":17200,"station_id":"ce4bhah2rcd13ifvqej0","pricing_plan_id":"cebpf4jnsgd1na2vs0mg"},{"bike_id":"76c65f84-3b49-4269-890c-8259fe6ade74","system_id":"levelo_inurba_marseille","lat":43.32374,"lon":5.36752,"is_reserved":false,"is_disabled":false,"rental_uris":{"android":"levelo://app?vid=76c65f84-3b49-4269-890c-8259fe6ade74","ios":"levelo://app?vid=76c65f84-3b49-4269-890c-8259fe6ade74"},"vehicle_type_id":"4","last_reported":1753312287,"current_range_meters":17200,"station_id":"ce4bhsh2rcd13ifvqi2g","pricing_plan_id":"cebpf4jnsgd1na2vs0mg"},{"bike_id":"00594bd6-0db3-444c-a708-0ba97f8b2115","system_id":"levelo_inurba_marseille","lat":43.27183,"lon":5.40988,"is_reserved":false,"is_disabled":false,"rental_uris":{"android":"levelo://app?vid=00594bd6-0db3-444c-a708-0ba97f8b2115","ios":"levelo://app?vid=00594bd6-0db3-444c-a708-0ba97f8b2115"},"vehicle_type_id":"4","last_reported":1753312287,"current_range_meters":17200,"station_id":"ce4bhl12rcd13ifvqgf0","pricing_plan_id":"cebpf4jnsgd1na2vs0mg"},{"bike_id":"68b4de77-db1d-417a-bdd1-1e415b9a80b2","system_id":"levelo_inurba_marseille","lat":43.31052,"lon":5.38338,"is_reserved":false,"is_disabled":false,"rental_uris":{"android":"levelo://app?vid=68b4de77-db1d-417a-bdd1-1e415b9a80b2","ios":"levelo://app?vid=68b4de77-db1d-417a-bdd1-1e415b9a80b2"},"vehicle_type_id":"4","last_reported":1753312287,"current_range_meters":17200,"station_id":"ce4bgv92rcd13ifvqcr0","pricing_plan_id":"cebpf4jnsgd1na2vs0mg"},{"bike_id":"1de1991f-3a0e-439c-b5cd-e22ddb00b9c4","system_id":"levelo_inurba_marseille","lat":43.2953,"lon":5.39409,"is_reserved":false,"is_disabled":false,"rental_uris":{"android":"levelo://app?vid=1de1991f-3a0e-439c-b5cd-e22ddb00b9c4","ios":"levelo://app?vid=1de1991f-3a0e-439c-b5cd-e22ddb00b9c4"},"vehicle_type_id":"4","last_reported":1753312287,"current_range_meters":17600,"station_id":"ce4bh292rcd13ifvqdf0","pricing_plan_id":"cebpf4jnsgd1na2vs0mg"},{"bike_id":"63c5ca57-b2df-4b8b-ad7f-6f2df7343ee7","system_id":"levelo_inurba_marseille","lat":43.28483,"lon":5.38441,"is_reserved":false,"is_disabled":true,"rental_uris":{"android":"levelo://app?vid=63c5ca57-b2df-4b8b-ad7f-6f2df7343ee7","ios":"levelo://app?vid=63c5ca57-b2df-4b8b-ad7f-6f2df7343ee7"},"vehicle_type_id":"4","last_reported":1753312287,"current_range_meters":17600,"station_id":"ce4bh512rcd13ifvqe3g","pricing_plan_id":"cebpf4jnsgd1na2vs0mg"},{"bike_id":"ec170b1e-871a-423f-a35c-a5fb89392e96","system_id":"levelo_inurba_marseille","lat":43.27951,"lon":5.38688,"is_reserved":false,"is_disabled":false,"rental_uris":{"android":"levelo://app?vid=ec170b1e-871a-423f-a35c-a5fb89392e96","ios":"levelo://app?vid=ec170b1e-871a-423f-a35c-a5fb89392e96"},"vehicle_type_id":"4","last_reported":1753312287,"current_range_meters":17600,"station_id":"","pricing_plan_id":"cebpf4jnsgd1na2vs0mg"},{"bike_id":"d98e3715-0c12-4ccd-832d-b853d8cd194f","system_id":"levelo_inurba_marseille","lat":43.30121,"lon":5.39871,"is_reserved":false,"is_disabled":false,"rental_uris":{"android":"levelo://app?vid=d98e3715-0c12-4ccd-832d-b853d8cd194f","ios":"levelo://app?vid=d98e3715-0c12-4ccd-832d-b853d8cd194f"},"vehicle_type_id":"4","last_reported":1753312287,"current_range_meters":17600,"station_id":"ce4bh0h2rcd13ifvqd40","pricing_plan_id":"cebpf4jnsgd1na2vs0mg"},{"bike_id":"ef5ccae1-9193-443e-97a1-179b1a3f86d9","system_id":"levelo_inurba_marseille","lat":43.33017,"lon":5.39053,"is_reserved":false,"is_disabled":false,"rental_uris":{"android":"levelo://app?vid=ef5ccae1-9193-443e-97a1-179b1a3f86d9","ios":"levelo://app?vid=ef5ccae1-9193-443e-97a1-179b1a3f86d9"},"vehicle_type_id":"4","last_reported":1753312287,"current_range_meters":17600,"station_id":"ce4bhr92rcd13ifvqhrg","pricing_plan_id":"cebpf4jnsgd1na2vs0mg"},{"bike_id":"4b8efed3-9e53-47c8-bfa4-f1fb0beb03b1","system_id":"levelo_inurba_marseille","lat":43.29546,"lon":5.36755,"is_reserved":false,"is_disabled":true,"rental_uris":{"android":"levelo://app?vid=4b8efed3-9e53-47c8-bfa4-f1fb0beb03b1","ios":"levelo://app?vid=4b8efed3-9e53-47c8-bfa4-f1fb0beb03b1"},"vehicle_type_id":"4","last_reported":1753312287,"current_range_meters":17600,"station_id":"ce4bgph2rcd13ifvqc2g","pricing_plan_id":"cebpf4jnsgd1na2vs0mg"},{"bike_id":"3646cb9c-73c8-4a00-9931-d8ef8d8a19fa","system_id":"levelo_inurba_marseille","lat":43.27814,"lon":5.40712,"is_reserved":false,"is_disabled":false,"rental_uris":{"android":"levelo://app?vid=3646cb9c-73c8-4a00-9931-d8ef8d8a19fa","ios":"levelo://app?vid=3646cb9c-73c8-4a00-9931-d8ef8d8a19fa"},"vehicle_type_id":"4","last_reported":1753312287,"current_range_meters":17600,"station_id":"ce4bhnh2rcd13ifvqgtg","pricing_plan_id":"cebpf4jnsgd1na2vs0mg"},{"bike_id":"5f824980-27aa-4ef2-856d-b766bebead8a","system_id":"levelo_inurba_marseille","lat":43.225,"lon":5.34785,"is_reserved":false,"is_disabled":false,"rental_uris":{"android":"levelo://app?vid=5f824980-27aa-4ef2-856d-b766bebead8a","ios":"levelo://app?vid=5f824980-27aa-4ef2-856d-b766bebead8a"},"vehicle_type_id":"4","last_reported":1753312287,"current_range_meters":17600,"station_id":"st_cvj5dfep6f1abm77gieg","pricing_plan_id":"cebpf4jnsgd1na2vs0mg"},{"bike_id":"086308be-c55f-4b02-af58-dc610cb7c5af","system_id":"levelo_inurba_marseille","lat":43.282751,"lon":5.350759,"is_reserved":false,"is_disabled":false,"rental_uris":{"android":"levelo://app?vid=086308be-c55f-4b02-af58-dc610cb7c5af","ios":"levelo://app?vid=086308be-c55f-4b02-af58-dc610cb7c5af"},"vehicle_type_id":"4","last_reported":1753312287,"current_range_meters":17600,"station_id":"ce4bhbp2rcd13ifvqerg","pricing_plan_id":"cebpf4jnsgd1na2vs0mg"},{"bike_id":"253a269e-9944-4daf-a54c-679a93fe8e2e","system_id":"levelo_inurba_marseille","lat":43.29567,"lon":5.39971,"is_reserved":false,"is_disabled":false,"rental_uris":{"android":"levelo://app?vid=253a269e-9944-4daf-a54c-679a93fe8e2e","ios":"levelo://app?vid=253a269e-9944-4daf-a54c-679a93fe8e2e"},"vehicle_type_id":"4","last_reported":1753312287,"current_range_meters":17600,"station_id":"ce4bh312rcd13ifvqdj0","pricing_plan_id":"cebpf4jnsgd1na2vs0mg"},{"bike_id":"f7f07796-c7c9-4a74-80e9-fb85744448b8","system_id":"levelo_inurba_marseille","lat":43.22931,"lon":5.35367,"is_reserved":false,"is_disabled":false,"rental_uris":{"android":"levelo://app?vid=f7f07796-c7c9-4a74-80e9-fb85744448b8","ios":"levelo://app?vid=f7f07796-c7c9-4a74-80e9-fb85744448b8"},"vehicle_type_id":"4","last_reported":1753312287,"current_range_meters":17600,"station_id":"cpo3532slgdg3j2ikp40","pricing_plan_id":"cebpf4jnsgd1na2vs0mg"},{"bike_id":"e5098bec-9e28-4d47-ae75-8bf3a694a99a","system_id":"levelo_inurba_marseille","lat":43.30356,"lon":5.4188,"is_reserved":false,"is_disabled":false,"rental_uris":{"android":"levelo://app?vid=e5098bec-9e28-4d47-ae75-8bf3a694a99a","ios":"levelo://app?vid=e5098bec-9e28-4d47-ae75-8bf3a694a99a"},"vehicle_type_id":"4","last_reported":1753312287,"current_range_meters":17600,"station_id":"ce4bhop2rcd13ifvqh7g","pricing_plan_id":"cebpf4jnsgd1na2vs0mg"},{"bike_id":"35a86048-76dd-4de0-afb2-7da8772fad44","system_id":"levelo_inurba_marseille","lat":43.21539,"lon":5.34739,"is_reserved":false,"is_disabled":false,"rental_uris":{"android":"levelo://app?vid=35a86048-76dd-4de0-afb2-7da8772fad44","ios":"levelo://app?vid=35a86048-76dd-4de0-afb2-7da8772fad44"},"vehicle_type_id":"4","last_reported":1753312287,"current_range_meters":17600,"station_id":"","pricing_plan_id":"cebpf4jnsgd1na2vs0mg"},{"bike_id":"0901b411-e486-4e80-bf7a-ca02131c37b1","system_id":"levelo_inurba_marseille","lat":43.2925,"lon":5.40914,"is_reserved":false,"is_disabled":false,"rental_uris":{"android":"levelo://app?vid=0901b411-e486-4e80-bf7a-ca02131c37b1","ios":"levelo://app?vid=0901b411-e486-4e80-bf7a-ca02131c37b1"},"vehicle_type_id":"4","last_reported":1753312287,"current_range_meters":17600,"station_id":"ce4bh192rcd13ifvqdc0","pricing_plan_id":"cebpf4jnsgd1na2vs0mg"},{"bike_id":"c98f4f02-9cc3-4fd3-8fe3-64dd6e91194b","system_id":"levelo_inurba_marseille","lat":43.29313,"lon":5.37185,"is_reserved":false,"is_disabled":false,"rental_uris":{"android":"levelo://app?vid=c98f4f02-9cc3-4fd3-8fe3-64dd6e91194b","ios":"levelo://app?vid=c98f4f02-9cc3-4fd3-8fe3-64dd6e91194b"},"vehicle_type_id":"4","last_reported":1753312287,"current_range_meters":17600,"station_id":"ce4bgh92rcd13ifvqb40","pricing_plan_id":"cebpf4jnsgd1na2vs0mg"},{"bike_id":"88b9bb6d-a6fe-43c0-a78d-683e6cef8f73","system_id":"levelo_inurba_marseille","lat":43.27496,"lon":5.42452,"is_reserved":false,"is_disabled":false,"rental_uris":{"android":"levelo://app?vid=88b9bb6d-a6fe-43c0-a78d-683e6cef8f73","ios":"levelo://app?vid=88b9bb6d-a6fe-43c0-a78d-683e6cef8f73"},"vehicle_type_id":"4","last_reported":1753312287,"current_range_meters":17600,"station_id":"ce4bhn92rcd13ifvqgrg","pricing_plan_id":"cebpf4jnsgd1na2vs0mg"},{"bike_id":"76852127-fa61-40e5-a00f-973cc58ff418","system_id":"levelo_inurba_marseille","lat":43.26956,"lon":5.38635,"is_reserved":false,"is_disabled":false,"rental_uris":{"android":"levelo://app?vid=76852127-fa61-40e5-a00f-973cc58ff418","ios":"levelo://app?vid=76852127-fa61-40e5-a00f-973cc58ff418"},"vehicle_type_id":"4","last_reported":1753312287,"current_range_meters":17600,"station_id":"ce4bhh92rcd13ifvqfh0","pricing_plan_id":"cebpf4jnsgd1na2vs0mg"},{"bike_id":"9437277c-d886-4a0b-9535-11724bd91051","system_id":"levelo_inurba_marseille","lat":43.27081,"lon":5.42286,"is_reserved":false,"is_disabled":false,"rental_uris":{"android":"levelo://app?vid=9437277c-d886-4a0b-9535-11724bd91051","ios":"levelo://app?vid=9437277c-d886-4a0b-9535-11724bd91051"},"vehicle_type_id":"4","last_reported":1753312287,"current_range_meters":17600,"station_id":"ce4bhk92rcd13ifvqgb0","pricing_plan_id":"cebpf4jnsgd1na2vs0mg"},{"bike_id":"34088060-cf02-4865-be61-69b02660c8e6","system_id":"levelo_inurba_marseille","lat":43.29588,"lon":5.36794,"is_reserved":false,"is_disabled":false,"rental_uris":{"android":"levelo://app?vid=34088060-cf02-4865-be61-69b02660c8e6","ios":"levelo://app?vid=34088060-cf02-4865-be61-69b02660c8e6"},"vehicle_type_id":"4","last_reported":1753312287,"current_range_meters":17600,"station_id":"","pricing_plan_id":"cebpf4jnsgd1na2vs0mg"},{"bike_id":"81df7d6f-832b-40f6-ad7c-3d213cee8b09","system_id":"levelo_inurba_marseille","lat":43.24072,"lon":5.37776,"is_reserved":false,"is_disabled":false,"rental_uris":{"android":"levelo://app?vid=81df7d6f-832b-40f6-ad7c-3d213cee8b09","ios":"levelo://app?vid=81df7d6f-832b-40f6-ad7c-3d213cee8b09"},"vehicle_type_id":"4","last_reported":1753312287,"current_range_meters":18000,"station_id":"ce4bhnp2rcd13ifvqgvg","pricing_plan_id":"cebpf4jnsgd1na2vs0mg"},{"bike_id":"085cc398-265e-4402-bcb0-4ca5061b4738","system_id":"levelo_inurba_marseille","lat":43.22959,"lon":5.35394,"is_reserved":false,"is_disabled":false,"rental_uris":{"android":"levelo://app?vid=085cc398-265e-4402-bcb0-4ca5061b4738","ios":"levelo://app?vid=085cc398-265e-4402-bcb0-4ca5061b4738"},"vehicle_type_id":"4","last_reported":1753312287,"current_range_meters":18000,"station_id":"cpo3532slgdg3j2ikp40","pricing_plan_id":"cebpf4jnsgd1na2vs0mg"},{"bike_id":"b30e8afe-189e-4d95-85f3-17f3e204cb70","system_id":"levelo_inurba_marseille","lat":43.29572,"lon":5.36746,"is_reserved":false,"is_disabled":false,"rental_uris":{"android":"levelo://app?vid=b30e8afe-189e-4d95-85f3-17f3e204cb70","ios":"levelo://app?vid=b30e8afe-189e-4d95-85f3-17f3e204cb70"},"vehicle_type_id":"4","last_reported":1753312287,"current_range_meters":18000,"station_id":"ce4bgph2rcd13ifvqc2g","pricing_plan_id":"cebpf4jnsgd1na2vs0mg"},{"bike_id":"28c752dc-c0ff-42d7-8ff3-f57e831b854a","system_id":"levelo_inurba_marseille","lat":43.25105,"lon":5.40323,"is_reserved":false,"is_disabled":false,"rental_uris":{"android":"levelo://app?vid=28c752dc-c0ff-42d7-8ff3-f57e831b854a","ios":"levelo://app?vid=28c752dc-c0ff-42d7-8ff3-f57e831b854a"},"vehicle_type_id":"4","last_reported":1753312287,"current_range_meters":18000,"station_id":"ce4bhlh2rcd13ifvqgig","pricing_plan_id":"cebpf4jnsgd1na2vs0mg"},{"bike_id":"ba6c78a8-0600-4e98-928b-05532193ff7e","system_id":"levelo_inurba_marseille","lat":43.28711,"lon":5.39982,"is_reserved":false,"is_disabled":false,"rental_uris":{"android":"levelo://app?vid=ba6c78a8-0600-4e98-928b-05532193ff7e","ios":"levelo://app?vid=ba6c78a8-0600-4e98-928b-05532193ff7e"},"vehicle_type_id":"4","last_reported":1753312287,"current_range_meters":18000,"station_id":"ce4bho92rcd13ifvqh3g","pricing_plan_id":"cebpf4jnsgd1na2vs0mg"},{"bike_id":"451c8b55-6be2-42fe-a6f2-5298fefb419a","system_id":"levelo_inurba_marseille","lat":43.28152,"lon":5.42676,"is_reserved":false,"is_disabled":false,"rental_uris":{"android":"levelo://app?vid=451c8b55-6be2-42fe-a6f2-5298fefb419a","ios":"levelo://app?vid=451c8b55-6be2-42fe-a6f2-5298fefb419a"},"vehicle_type_id":"4","last_reported":1753312287,"current_range_meters":18000,"station_id":"ce4bhnh2rcd13ifvqgug","pricing_plan_id":"cebpf4jnsgd1na2vs0mg"},{"bike_id":"eaea15aa-98ae-4f78-b37a-80e2e4524837","system_id":"levelo_inurba_marseille","lat":43.297916,"lon":5.381026,"is_reserved":false,"is_disabled":false,"rental_uris":{"android":"levelo://app?vid=eaea15aa-98ae-4f78-b37a-80e2e4524837","ios":"levelo://app?vid=eaea15aa-98ae-4f78-b37a-80e2e4524837"},"vehicle_type_id":"4","last_reported":1753312287,"current_range_meters":18000,"station_id":"","pricing_plan_id":"cebpf4jnsgd1na2vs0mg"},{"bike_id":"3866594e-e142-482d-9490-c88e88d308f3","system_id":"levelo_inurba_marseille","lat":43.31892,"lon":5.40743,"is_reserved":false,"is_disabled":false,"rental_uris":{"android":"levelo://app?vid=3866594e-e142-482d-9490-c88e88d308f3","ios":"levelo://app?vid=3866594e-e142-482d-9490-c88e88d308f3"},"vehicle_type_id":"4","last_reported":1753312287,"current_range_meters":18000,"station_id":"ce4bhq12rcd13ifvqhig","pricing_plan_id":"cebpf4jnsgd1na2vs0mg"},{"bike_id":"36576376-75b8-4e4d-ac20-ff9d7feafb1d","system_id":"levelo_inurba_marseille","lat":43.26196,"lon":5.37443,"is_reserved":false,"is_disabled":false,"rental_uris":{"android":"levelo://app?vid=36576376-75b8-4e4d-ac20-ff9d7feafb1d","ios":"levelo://app?vid=36576376-75b8-4e4d-ac20-ff9d7feafb1d"},"vehicle_type_id":"4","last_reported":1753312287,"current_range_meters":18000,"station_id":"ce4bhgp2rcd13ifvqfc0","pricing_plan_id":"cebpf4jnsgd1na2vs0mg"},{"bike_id":"4a86d85a-7ea7-43ec-b760-9c57d698d744","system_id":"levelo_inurba_marseille","lat":43.27591,"lon":5.35798,"is_reserved":false,"is_disabled":false,"rental_uris":{"android":"levelo://app?vid=4a86d85a-7ea7-43ec-b760-9c57d698d744","ios":"levelo://app?vid=4a86d85a-7ea7-43ec-b760-9c57d698d744"},"vehicle_type_id":"4","last_reported":1753312287,"current_range_meters":18000,"station_id":"","pricing_plan_id":"cebpf4jnsgd1na2vs0mg"},{"bike_id":"803ebf00-f6f3-4b2e-870b-858bd87e0d3e","system_id":"levelo_inurba_marseille","lat":43.27192,"lon":5.40996,"is_reserved":false,"is_disabled":false,"rental_uris":{"android":"levelo://app?vid=803ebf00-f6f3-4b2e-870b-858bd87e0d3e","ios":"levelo://app?vid=803ebf00-f6f3-4b2e-870b-858bd87e0d3e"},"vehicle_type_id":"4","last_reported":1753312287,"current_range_meters":18000,"station_id":"ce4bhl12rcd13ifvqgf0","pricing_plan_id":"cebpf4jnsgd1na2vs0mg"},{"bike_id":"e401289a-83cf-4377-aa07-419b9b37079e","system_id":"levelo_inurba_marseille","lat":43.23064,"lon":5.35491,"is_reserved":false,"is_disabled":false,"rental_uris":{"android":"levelo://app?vid=e401289a-83cf-4377-aa07-419b9b37079e","ios":"levelo://app?vid=e401289a-83cf-4377-aa07-419b9b37079e"},"vehicle_type_id":"4","last_reported":1753312287,"current_range_meters":18000,"station_id":"cpo3342slgdg3j2ifvpg","pricing_plan_id":"cebpf4jnsgd1na2vs0mg"},{"bike_id":"0a7e2862-d8ec-4c77-89d9-cfcdd51f8d75","system_id":"levelo_inurba_marseille","lat":43.31202,"lon":5.37911,"is_reserved":false,"is_disabled":false,"rental_uris":{"android":"levelo://app?vid=0a7e2862-d8ec-4c77-89d9-cfcdd51f8d75","ios":"levelo://app?vid=0a7e2862-d8ec-4c77-89d9-cfcdd51f8d75"},"vehicle_type_id":"4","last_reported":1753312287,"current_range_meters":18000,"station_id":"","pricing_plan_id":"cebpf4jnsgd1na2vs0mg"},{"bike_id":"27b5acbc-b1fd-4385-9be5-bae49e9e4f6a","system_id":"levelo_inurba_marseille","lat":43.248035,"lon":5.374575,"is_reserved":false,"is_disabled":false,"rental_uris":{"android":"levelo://app?vid=27b5acbc-b1fd-4385-9be5-bae49e9e4f6a","ios":"levelo://app?vid=27b5acbc-b1fd-4385-9be5-bae49e9e4f6a"},"vehicle_type_id":"4","last_reported":1753312287,"current_range_meters":18000,"station_id":"ce4bhgh2rcd13ifvqfb0","pricing_plan_id":"cebpf4jnsgd1na2vs0mg"},{"bike_id":"fbda76a5-068e-4d90-b9ba-25721acd9298","system_id":"levelo_inurba_marseille","lat":43.29032,"lon":5.43988,"is_reserved":false,"is_disabled":false,"rental_uris":{"android":"levelo://app?vid=fbda76a5-068e-4d90-b9ba-25721acd9298","ios":"levelo://app?vid=fbda76a5-068e-4d90-b9ba-25721acd9298"},"vehicle_type_id":"4","last_reported":1753312287,"current_range_meters":18800,"station_id":"","pricing_plan_id":"cebpf4jnsgd1na2vs0mg"},