{"last_updated":1748718428,"ttl":60,"version":"2.2","data":{"bikes":[{"bike_id":"3ac07f5e-7063-4806-95dc-abbb4c9f9e33","system_id":"levelo_inurba_marseille","lat":43.31526,"lon":5.38038,"is_reserved":false,"is_disabled":false,"rental_uris":{"android":"levelo://app?vid=3ac07f5e-7063-4806-95dc-abbb4c9f9e33","ios":"levelo://app?vid=3ac07f5e-7063-4806-95dc-abbb4c9f9e33"},"vehicle_type_id":"4","last_reported":1748718428,"current_range_meters":2800,"station_id":"ce4bhsp2rcd13ifvqi50","pricing_plan_id":"cebpf4jnsgd1na2vs0mg"},{"bike_id":"b9aa0089-e67e-421c-911b-5f7e1e70b905","system_id":"levelo_inurba_marseille","lat":43.24819,"lon":5.37454,"is_reserved":false,"is_disabled":false,"rental_uris":{"android":"levelo://app?vid=b9aa0089-e67e-421c-911b-5f7e1e70b905","ios":"levelo://app?vid=b9aa0089-e67e-421c-911b-5f7e1e70b905"},"vehicle_type_id":"4","last_reported":1748718428,"current_range_meters":2800,"station_id":"ce4bhgh2rcd13ifvqfb0","pricing_plan_id":"cebpf4jnsgd1na2vs0mg"},{"bike_id":"8efd7e30-2c98-46d1-b2f5-94c184c563f4","system_id":"levelo_inurba_marseille","lat":43.3133,"lon":5.39691,"is_reserved":false,"is_disabled":false,"rental_uris":{"android":"levelo://app?vid=8efd7e30-2c98-46d1-b2f5-94c184c563f4","ios":"levelo://app?vid=8efd7e30-2c98-46d1-b2f5-94c184c563f4"},"vehicle_type_id":"4","last_reported":1748718428,"current_range_meters":3200,"station_id":"ce4bgvp2rcd13ifvqcu0","pricing_plan_id":"cebpf4jnsgd1na2vs0mg"},{"bike_id":"c3404f15-d32e-4e59-b7f4-bcbe4958363b","system_id":"levelo_inurba_marseille","lat":43.29509,"lon":5.38678,"is_reserved":false,"is_disabled":false,"rental_uris":{"android":"levelo://app?vid=c3404f15-d32e-4e59-b7f4-bcbe4958363b","ios":"levelo://app?vid=c3404f15-d32e-4e59-b7f4-bcbe4958363b"},"vehicle_type_id":"4","last_reported":1748718428,"current_range_meters":3600,"station_id":"","pricing_plan_id":"cebpf4jnsgd1na2vs0mg"},{"bike_id":"d28aeaad-f5f2-4c4f-a0cd-6b7231965959","system_id":"levelo_inurba_marseille","lat":43.32995,"lon":5.3927,"is_reserved":false,"is_disabled":false,"rental_uris":{"android":"levelo://app?vid=d28aeaad-f5f2-4c4f-a0cd-6b7231965959","ios":"levelo://app?vid=d28aeaad-f5f2-4c4f-a0cd-6b7231965959"},"vehicle_type_id":"4","last_reported":1748718428,"current_range_meters":3600,"station_id":"","pricing_plan_id":"cebpf4jnsgd1na2vs0mg"},{"bike_id":"25b05eaf-ff32-4406-b663-fa24626486d5","system_id":"levelo_inurba_marseille","lat":43.29722,"lon":5.37678,"is_reserved":false,"is_disabled":false,"rental_uris":{"android":"levelo://app?vid=25b05eaf-ff32-4406-b663-fa24626486d5","ios":"levelo://app?vid=25b05eaf-ff32-4406-b663-fa24626486d5"},"vehicle_type_id":"4","last_reported":1748718428,"current_range_meters":3600,"station_id":"ce4bgkh2rcd13ifvqbl0","pricing_plan_id":"cebpf4jnsgd1na2vs0mg"},{"bike_id":"6b23e5f9-6a91-425e-81c9-858aa7b24343","system_id":"levelo_inurba_marseille","lat":43.30424,"lon":5.39742,"is_reserved":false,"is_disabled":false,"rental_uris":{"android":"levelo://app?vid=6b23e5f9-6a91-425e-81c9-858aa7b24343","ios":"levelo://app?vid=6b23e5f9-6a91-425e-81c9-858aa7b24343"},"vehicle_type_id":"4","last_reported":1748718428,"current_range_meters":3600,"station_id":"ce4bh092rcd13ifvqd20","pricing_plan_id":"cebpf4jnsgd1na2vs0mg"},{"bike_id":"80bab748-24fc-46a7-8fb7-5679584c1dc0","system_id":"levelo_inurba_marseille","lat":43.2928,"lon":5.36842,"is_reserved":false,"is_disabled":false,"rental_uris":{"android":"levelo://app?vid=80bab748-24fc-46a7-8fb7-5679584c1dc0","ios":"levelo://app?vid=80bab748-24fc-46a7-8fb7-5679584c1dc0"},"vehicle_type_id":"4","last_reported":1748718428,"current_range_meters":3600,"station_id":"ce4bhbp2rcd13ifvqesg","pricing_plan_id":"cebpf4jnsgd1na2vs0mg"},{"bike_id":"f7984701-ba42-467b-a4e4-ac86d486cfad","system_id":"levelo_inurba_marseille","lat":43.29973,"lon":5.385107,"is_reserved":false,"is_disabled":false,"rental_uris":{"android":"levelo://app?vid=f7984701-ba42-467b-a4e4-ac86d486cfad","ios":"levelo://app?vid=f7984701-ba42-467b-a4e4-ac86d486cfad"},"vehicle_type_id":"4","last_reported":1748718428,"current_range_meters":3600,"station_id":"ce4bgj92rcd13ifvqbd0","pricing_plan_id":"cebpf4jnsgd1na2vs0mg"},{"bike_id":"5c8b715b-9891-4f9c-b4a4-3419974df6c5","system_id":"levelo_inurba_marseille","lat":43.3124,"lon":5.36863,"is_reserved":false,"is_disabled":false,"rental_uris":{"android":"levelo://app?vid=5c8b715b-9891-4f9c-b4a4-3419974df6c5","ios":"levelo://app?vid=5c8b715b-9891-4f9c-b4a4-3419974df6c5"},"vehicle_type_id":"4","last_reported":1748718428,"current_range_meters":4000,"station_id":"ce4bgl92rcd13ifvqbq0","pricing_plan_id":"cebpf4jnsgd1na2vs0mg"},{"bike_id":"03048995-361a-49ac-9a1c-5c92da4f00c4","system_id":"levelo_inurba_marseille","lat":43.26568,"lon":5.39002,"is_reserved":false,"is_disabled":false,"rental_uris":{"android":"levelo://app?vid=03048995-361a-49ac-9a1c-5c92da4f00c4","ios":"levelo://app?vid=03048995-361a-49ac-9a1c-5c92da4f00c4"},"vehicle_type_id":"4","last_reported":1748718428,"current_range_meters":4000,"station_id":"ce4bhe12rcd13ifvqf30","pricing_plan_id":"cebpf4jnsgd1na2vs0mg"},{"bike_id":"4ea9999a-521a-421b-8382-43785c8666dd","system_id":"levelo_inurba_marseille","lat":43.265622,"lon":5.40322,"is_reserved":false,"is_disabled":false,"rental_uris":{"android":"levelo://app?vid=4ea9999a-521a-421b-8382-43785c8666dd","ios":"levelo://app?vid=4ea9999a-521a-421b-8382-43785c8666dd"},"vehicle_type_id":"4","last_reported":1748718428,"current_range_meters":4000,"station_id":"","pricing_plan_id":"cebpf4jnsgd1na2vs0mg"},{"bike_id":"93cdcee8-9549-4595-b087-31d2b45d51f2","system_id":"levelo_inurba_marseille","lat":43.2762,"lon":5.36103,"is_reserved":false,"is_disabled":false,"rental_uris":{"android":"levelo://app?vid=93cdcee8-9549-4595-b087-31d2b45d51f2","ios":"levelo://app?vid=93cdcee8-9549-4595-b087-31d2b45d51f2"},"vehicle_type_id":"4","last_reported":1748718428,"current_range_meters":4400,"station_id":"ce4bgj92rcd13ifvqbe0","pricing_plan_id":"cebpf4jnsgd1na2vs0mg"},{"bike_id":"efb1e126-2091-47ee-bbba-78f4fd26b8be","system_id":"levelo_inurba_marseille","lat":43.29302,"lon":5.37462,"is_reserved":false,"is_disabled":false,"rental_uris":{"android":"levelo://app?vid=efb1e126-2091-47ee-bbba-78f4fd26b8be","ios":"levelo://app?vid=efb1e126-2091-47ee-bbba-78f4fd26b8be"},"vehicle_type_id":"4","last_reported":1748718428,"current_range_meters":4400,"station_id":"ce4bgi12rcd13ifvqb70","pricing_plan_id":"cebpf4jnsgd1na2vs0mg"},{"bike_id":"e38b268f-8dc8-4446-b65f-a77e299f349e","system_id":"levelo_inurba_marseille","lat":43.29308,"lon":5.37177,"is_reserved":false,"is_disabled":false,"rental_uris":{"android":"levelo://app?vid=e38b268f-8dc8-4446-b65f-a77e299f349e","ios":"levelo://app?vid=e38b268f-8dc8-4446-b65f-a77e299f349e"},"vehicle_type_id":"4","last_reported":1748718428,"current_range_meters":4400,"station_id":"ce4bgh92rcd13ifvqb40","pricing_plan_id":"cebpf4jnsgd1na2vs0mg"},{"bike_id":"b4e37ba1-6d68-4b26-95f1-da182f892736","system_id":"levelo_inurba_marseille","lat":43.292786,"lon":5.368385,"is_reserved":false,"is_disabled":false,"rental_uris":{"android":"levelo://app?vid=b4e37ba1-6d68-4b26-95f1-da182f892736","ios":"levelo://app?vid=b4e37ba1-6d68-4b26-95f1-da182f892736"},"vehicle_type_id":"4","last_reported":1748718428,"current_range_meters":4400,"station_id":"","pricing_plan_id":"cebpf4jnsgd1na2vs0mg"},{"bike_id":"dc1b77bb-0c5c-438e-b937-ebd825529e8d","system_id":"levelo_inurba_marseille","lat":43.25119,"lon":5.4032,"is_reserved":false,"is_disabled":false,"rental_uris":{"android":"levelo://app?vid=dc1b77bb-0c5c-438e-b937-ebd825529e8d","ios":"levelo://app?vid=dc1b77bb-0c5c-438e-b937-ebd825529e8d"},"vehicle_type_id":"4","last_reported":1748718428,"current_range_meters":4400,"station_id":"ce4bhlh2rcd13ifvqgig","pricing_plan_id":"cebpf4jnsgd1na2vs0mg"},{"bike_id":"29ec9a06-16f8-47b4-ae79-5cad08509c12","system_id":"levelo_inurba_marseille","lat":43.29625,"lon":5.37722,"is_reserved":false,"is_disabled":false,"rental_uris":{"android":"levelo://app?vid=29ec9a06-16f8-47b4-ae79-5cad08509c12","ios":"levelo://app?vid=29ec9a06-16f8-47b4-ae79-5cad08509c12"},"vehicle_type_id":"4","last_reported":1748718428,"current_range_meters":4400,"station_id":"ce4bgi92rcd13ifvqb90","pricing_plan_id":"cebpf4jnsgd1na2vs0mg"},{"bike_id":"261a04dc-5d31-42c6-aae5-be68423983a9","system_id":"levelo_inurba_marseille","lat":43.26496,"lon":5.3954,"is_reserved":false,"is_disabled":false,"rental_uris":{"android":"levelo://app?vid=261a04dc-5d31-42c6-aae5-be68423983a9","ios":"levelo://app?vid=261a04dc-5d31-42c6-aae5-be68423983a9"},"vehicle_type_id":"4","last_reported":1748718428,"current_range_meters":4800,"station_id":"ce4bhi12rcd13ifvqfq0","pricing_plan_id":"cebpf4jnsgd1na2vs0mg"},{"bike_id":"80400175-2bda-4aba-aa05-0524e09e1402","system_id":"levelo_inurba_marseille","lat":43.31223,"lon":5.36863,"is_reserved":false,"is_disabled":false,"rental_uris":{"android":"levelo://app?vid=80400175-2bda-4aba-aa05-0524e09e1402","ios":"levelo://app?vid=80400175-2bda-4aba-aa05-0524e09e1402"},"vehicle_type_id":"4","last_reported":1748718428,"current_range_meters":4800,"station_id":"ce4bgl92rcd13ifvqbq0","pricing_plan_id":"cebpf4jnsgd1na2vs0mg"},{"bike_id":"4a5d53a3-683a-4bf5-87f3-fe640df149ba","system_id":"levelo_inurba_marseille","lat":43.31126,"lon":5.37775,"is_reserved":false,"is_disabled":false,"rental_uris":{"android":"levelo://app?vid=4a5d53a3-683a-4bf5-87f3-fe640df149ba","ios":"levelo://app?vid=4a5d53a3-683a-4bf5-87f3-fe640df149ba"},"vehicle_type_id":"4","last_reported":1748718428,"current_range_meters":4800,"station_id":"ce4bgt92rcd13ifvqcg0","pricing_plan_id":"cebpf4jnsgd1na2vs0mg"},{"bike_id":"1a0b61f9-797d-4706-bd68-ff5aa7403891","system_id":"levelo_inurba_marseille","lat":43.28951,"lon":5.36403,"is_reserved":false,"is_disabled":false,"rental_uris":{"android":"levelo://app?vid=1a0b61f9-797d-4706-bd68-ff5aa7403891","ios":"levelo://app?vid=1a0b61f9-797d-4706-bd68-ff5aa7403891"},"vehicle_type_id":"4","last_reported":1748718428,"current_range_meters":4800,"station_id":"ce4bhc92rcd13ifvqetg","pricing_plan_id":"cebpf4jnsgd1na2vs0mg"},{"bike_id":"33fe8c32-4b15-472a-9bf7-124687146537","system_id":"levelo_inurba_marseille","lat":43.32853,"lon":5.40572,"is_reserved":false,"is_disabled":false,"rental_uris":{"android":"levelo://app?vid=33fe8c32-4b15-472a-9bf7-124687146537","ios":"levelo://app?vid=33fe8c32-4b15-472a-9bf7-124687146537"},"vehicle_type_id":"4","last_reported":1748718428,"current_range_meters":5600,"station_id":"","pricing_plan_id":"cebpf4jnsgd1na2vs0mg"},{"bike_id":"37649302-940a-4b77-b12b-6b544f7b156d","system_id":"levelo_inurba_marseille","lat":43.2985,"lon":5.36286,"is_reserved":false,"is_disabled":false,"rental_uris":{"android":"levelo://app?vid=37649302-940a-4b77-b12b-6b544f7b156d","ios":"levelo://app?vid=37649302-940a-4b77-b12b-6b544f7b156d"},"vehicle_type_id":"4","last_reported":1748718428,"current_range_meters":5600,"station_id":"ce4bgpp2rcd13ifvqc3g","pricing_plan_id":"cebpf4jnsgd1na2vs0mg"},{"bike_id":"766f618a-71c8-400f-a4b8-a6c30c368d33","system_id":"levelo_inurba_marseille","lat":43.28937,"lon":5.38399,"is_reserved":false,"is_disabled":false,"rental_uris":{"android":"levelo://app?vid=766f618a-71c8-400f-a4b8-a6c30c368d33","ios":"levelo://app?vid=766f618a-71c8-400f-a4b8-a6c30c368d33"},"vehicle_type_id":"4","last_reported":1748718428,"current_range_meters":5600,"station_id":"ce4bh612rcd13ifvqe6g","pricing_plan_id":"cebpf4jnsgd1na2vs0mg"},{"bike_id":"39fd6789-efbc-42e4-8c28-ca5825399105","system_id":"levelo_inurba_marseille","lat":43.2926,"lon":5.38429,"is_reserved":false,"is_disabled":false,"rental_uris":{"android":"levelo://app?vid=39fd6789-efbc-42e4-8c28-ca5825399105","ios":"levelo://app?vid=39fd6789-efbc-42e4-8c28-ca5825399105"},"vehicle_type_id":"4","last_reported":1748718428,"current_range_meters":5600,"station_id":"ce4bh692rcd13ifvqea0","pricing_plan_id":"cebpf4jnsgd1na2vs0mg"},{"bike_id":"90eabc96-6d02-4941-a788-42acc2211b5e","system_id":"levelo_inurba_marseille","lat":43.30232,"lon":5.39458,"is_reserved":false,"is_disabled":false,"rental_uris":{"android":"levelo://app?vid=90eabc96-6d02-4941-a788-42acc2211b5e","ios":"levelo://app?vid=90eabc96-6d02-4941-a788-42acc2211b5e"},"vehicle_type_id":"4","last_reported":1748718428,"current_range_meters":5600,"station_id":"ce4bh0p2rcd13ifvqd70","pricing_plan_id":"cebpf4jnsgd1na2vs0mg"},{"bike_id":"7fe5c62b-668a-40c5-8fcb-e8b3aacd7725","system_id":"levelo_inurba_marseille","lat":43.28937,"lon":5.36637,"is_reserved":false,"is_disabled":false,"rental_uris":{"android":"levelo://app?vid=7fe5c62b-668a-40c5-8fcb-e8b3aacd7725","ios":"levelo://app?vid=7fe5c62b-668a-40c5-8fcb-e8b3aacd7725"},"vehicle_type_id":"4","last_reported":1748718428,"current_range_meters":6000,"station_id":"ce4bhap2rcd13ifvqek0","pricing_plan_id":"cebpf4jnsgd1na2vs0mg"},{"bike_id":"c285d9b4-ea52-40e4-b58c-5b14f7910b11","system_id":"levelo_inurba_marseille","lat":43.26225,"lon":5.40448,"is_reserved":false,"is_disabled":false,"rental_uris":{"android":"levelo://app?vid=c285d9b4-ea52-40e4-b58c-5b14f7910b11","ios":"levelo://app?vid=c285d9b4-ea52-40e4-b58c-5b14f7910b11"},"vehicle_type_id":"4","last_reported":1748718428,"current_range_meters":6000,"station_id":"ce4bhmh2rcd13ifvqgmg","pricing_plan_id":"cebpf4jnsgd1na2vs0mg"},{"bike_id":"66dba4c2-4f5d-4ba7-9acc-98535d5b8784","system_id":"levelo_inurba_marseille","lat":43.27838,"lon":5.39207,"is_reserved":false,"is_disabled":false,"rental_uris":{"android":"levelo://app?vid=66dba4c2-4f5d-4ba7-9acc-98535d5b8784","ios":"levelo://app?vid=66dba4c2-4f5d-4ba7-9acc-98535d5b8784"},"vehicle_type_id":"4","last_reported":1748718428,"current_range_meters":5600,"station_id":"ce4bhjp2rcd13ifvqga0","pricing_plan_id":"cebpf4jnsgd1na2vs0mg"},{"bike_id":"95bf8122-70e2-405e-aa68-28bd59752235","system_id":"levelo_inurba_marseille","lat":43.29435,"lon":5.38611,"is_reserved":false,"is_disabled":false,"rental_uris":{"android":"levelo://app?vid=95bf8122-70e2-405e-aa68-28bd59752235","ios":"levelo://app?vid=95bf8122-70e2-405e-aa68-28bd59752235"},"vehicle_type_id":"4","last_reported":1748718428,"current_range_meters":6000,"station_id":"ce4bh2h2rcd13ifvqdh0","pricing_plan_id":"cebpf4jnsgd1na2vs0mg"},{"bike_id":"e5ffb01b-c4ef-4465-829b-1583b7df6b82","system_id":"levelo_inurba_marseille","lat":43.29718,"lon":5.36607,"is_reserved":false,"is_disabled":false,"rental_uris":{"android":"levelo://app?vid=e5ffb01b-c4ef-4465-829b-1583b7df6b82","ios":"levelo://app?vid=e5ffb01b-c4ef-4465-829b-1583b7df6b82"},"vehicle_type_id":"4","last_reported":1748718428,"current_range_meters":6400,"station_id":"ce4bgn12rcd13ifvqbt0","pricing_plan_id":"cebpf4jnsgd1na2vs0mg"},{"bike_id":"49d202c6-e854-4b5b-9d36-bc4e608fe319","system_id":"levelo_inurba_marseille","lat":43.30929,"lon":5.40136,"is_reserved":false,"is_disabled":false,"rental_uris":{"android":"levelo://app?vid=49d202c6-e854-4b5b-9d36-bc4e608fe319","ios":"levelo://app?vid=49d202c6-e854-4b5b-9d36-bc4e608fe319"},"vehicle_type_id":"4","last_reported":1748718428,"current_range_meters":6400,"station_id":"ce4bgvp2rcd13ifvqct0","pricing_plan_id":"cebpf4jnsgd1na2vs0mg"},{"bike_id":"7243d7c8-02f5-4392-89cf-8c360e846d55","system_id":"levelo_inurba_marseille","lat":43.25279,"lon":5.37828,"is_reserved":false,"is_disabled":false,"rental_uris":{"android":"levelo://app?vid=7243d7c8-02f5-4392-89cf-8c360e846d55","ios":"levelo://app?vid=7243d7c8-02f5-4392-89cf-8c360e846d55"},"vehicle_type_id":"4","last_reported":1748718428,"current_range_meters":6400,"station_id":"","pricing_plan_id":"cebpf4jnsgd1na2vs0mg"},{"bike_id":"9e63397e-f1ec-49cb-a165-4d2b1de8c630","system_id":"levelo_inurba_marseille","lat":43.30788,"lon":5.38169,"is_reserved":false,"is_disabled":false,"rental_uris":{"android":"levelo://app?vid=9e63397e-f1ec-49cb-a165-4d2b1de8c630","ios":"levelo://app?vid=9e63397e-f1ec-49cb-a165-4d2b1de8c630"},"vehicle_type_id":"4","last_reported":1748718428,"current_range_meters":6400,"station_id":"ce4bgt12rcd13ifvqce0","pricing_plan_id":"cebpf4jnsgd1na2vs0mg"},{"bike_id":"fcce821d-932a-443b-b700-dd62f4fdeae2","system_id":"levelo_inurba_marseille","lat":43.2316,"lon":5.4373,"is_reserved":false,"is_disabled":false,"rental_uris":{"android":"levelo://app?vid=fcce821d-932a-443b-b700-dd62f4fdeae2","ios":"levelo://app?vid=fcce821d-932a-443b-b700-dd62f4fdeae2"},"vehicle_type_id":"4","last_reported":1748718428,"current_range_meters":6400,"station_id":"ce4bhmp2rcd13ifvqgog","pricing_plan_id":"cebpf4jnsgd1na2vs0mg"},{"bike_id":"c4af4e9e-9cd9-4e5a-9b8b-c3dd72b17274","system_id":"levelo_inurba_marseille","lat":43.24806,"lon":5.37451,"is_reserved":false,"is_disabled":false,"rental_uris":{"android":"levelo://app?vid=c4af4e9e-9cd9-4e5a-9b8b-c3dd72b17274","ios":"levelo://app?vid=c4af4e9e-9cd9-4e5a-9b8b-c3dd72b17274"},"vehicle_type_id":"4","last_reported":1748718428,"current_range_meters":6400,"station_id":"ce4bhgh2rcd13ifvqfb0","pricing_plan_id":"cebpf4jnsgd1na2vs0mg"},{"bike_id":"dddf88cd-a72d-402c-9e8d-62f196f0fea7","system_id":"levelo_inurba_marseille","lat":43.25026,"lon":5.38888,"is_reserved":false,"is_disabled":false,"rental_uris":{"android":"levelo://app?vid=dddf88cd-a72d-402c-9e8d-62f196f0fea7","ios":"levelo://app?vid=dddf88cd-a72d-402c-9e8d-62f196f0fea7"},"vehicle_type_id":"4","last_reported":1748718428,"current_range_meters":6400,"station_id":"ce4bhgp2rcd13ifvqfd0","pricing_plan_id":"cebpf4jnsgd1na2vs0mg"},{"bike_id":"580b247b-0b4e-4fb5-85eb-f3940c3567a4","system_id":"levelo_inurba_marseille","lat":43.29093,"lon":5.38153,"is_reserved":false,"is_disabled":false,"rental_uris":{"android":"levelo://app?vid=580b247b-0b4e-4fb5-85eb-f3940c3567a4","ios":"levelo://app?vid=580b247b-0b4e-4fb5-85eb-f3940c3567a4"},"vehicle_type_id":"4","last_reported":1748718428,"current_range_meters":6400,"station_id":"ce4bh512rcd13ifvqe2g","pricing_plan_id":"cebpf4jnsgd1na2vs0mg"},{"bike_id":"3feffd94-b1f8-4904-a4cf-e5629abe4092","system_id":"levelo_inurba_marseille","lat":43.259338,"lon":5.409109,"is_reserved":false,"is_disabled":false,"rental_uris":{"android":"levelo://app?vid=3feffd94-b1f8-4904-a4cf-e5629abe4092","ios":"levelo://app?vid=3feffd94-b1f8-4904-a4cf-e5629abe4092"},"vehicle_type_id":"4","last_reported":1748718428,"current_range_meters":6400,"station_id":"ce4bhm92rcd13ifvqglg","pricing_plan_id":"cebpf4jnsgd1na2vs0mg"},{"bike_id":"f114cddd-b530-4e18-bffd-fbee3bac4dac","system_id":"levelo_inurba_marseille","lat":43.322843,"lon":5.382784,"is_reserved":false,"is_disabled":false,"rental_uris":{"android":"levelo://app?vid=f114cddd-b530-4e18-bffd-fbee3bac4dac","ios":"levelo://app?vid=f114cddd-b530-4e18-bffd-fbee3bac4dac"},"vehicle_type_id":"4","last_reported":1748718428,"current_range_meters":6800,"station_id":"ce4bhr12rcd13ifvqhqg","pricing_plan_id":"cebpf4jnsgd1na2vs0mg"},{"bike_id":"6e732bca-9e80-4539-8286-d1b6800f59b4","system_id":"levelo_inurba_marseille","lat":43.30958,"lon":5.39026,"is_reserved":false,"is_disabled":false,"rental_uris":{"android":"levelo://app?vid=6e732bca-9e80-4539-8286-d1b6800f59b4","ios":"levelo://app?vid=6e732bca-9e80-4539-8286-d1b6800f59b4"},"vehicle_type_id":"4","last_reported":1748718428,"current_range_meters":6800,"station_id":"ce4bgup2rcd13ifvqco0","pricing_plan_id":"cebpf4jnsgd1na2vs0mg"},{"bike_id":"017587c6-3f7c-4edd-9bbd-21f377eb64d1","system_id":"levelo_inurba_marseille","lat":43.22933,"lon":5.35375,"is_reserved":false,"is_disabled":false,"rental_uris":{"android":"levelo://app?vid=017587c6-3f7c-4edd-9bbd-21f377eb64d1","ios":"levelo://app?vid=017587c6-3f7c-4edd-9bbd-21f377eb64d1"},"vehicle_type_id":"4","last_reported":1748718428,"current_range_meters":6800,"station_id":"cpo3532slgdg3j2ikp40","pricing_plan_id":"cebpf4jnsgd1na2vs0mg"},{"bike_id":"7744b0bc-9255-402e-8dd0-6b3090927fb9","system_id":"levelo_inurba_marseille","lat":43.26949,"lon":5.40277,"is_reserved":false,"is_disabled":true,"rental_uris":{"android":"levelo://app?vid=7744b0bc-9255-402e-8dd0-6b3090927fb9","ios":"levelo://app?vid=7744b0bc-9255-402e-8dd0-6b3090927fb9"},"vehicle_type_id":"4","last_reported":1748718428,"current_range_meters":7200,"station_id":"cjm6bp8fraef2m0cb0m0","pricing_plan_id":"cebpf4jnsgd1na2vs0mg"},{"bike_id":"414f50f9-4176-475f-adf2-0466f70c8059","system_id":"levelo_inurba_marseille","lat":43.25952,"lon":5.40912,"is_reserved":false,"is_disabled":false,"rental_uris":{"android":"levelo://app?vid=414f50f9-4176-475f-adf2-0466f70c8059","ios":"levelo://app?vid=414f50f9-4176-475f-adf2-0466f70c8059"},"vehicle_type_id":"4","last_reported":1748718428,"current_range_meters":7200,"station_id":"ce4bhm92rcd13ifvqglg","pricing_plan_id":"cebpf4jnsgd1na2vs0mg"},{"bike_id":"b61713ab-b699-44b9-8f26-f293b7c54b08","system_id":"levelo_inurba_marseille","lat":43.2942,"lon":5.38611,"is_reserved":false,"is_disabled":false,"rental_uris":{"android":"levelo://app?vid=b61713ab-b699-44b9-8f26-f293b7c54b08","ios":"levelo://app?vid=b61713ab-b699-44b9-8f26-f293b7c54b08"},"vehicle_type_id":"4","last_reported":1748718428,"current_range_meters":7200,"station_id":"ce4bh2h2rcd13ifvqdh0","pricing_plan_id":"cebpf4jnsgd1na2vs0mg"},{"bike_id":"5f4d66b3-1843-4afa-a9e4-716510d4befe","system_id":"levelo_inurba_marseille","lat":43.2997,"lon":5.3848,"is_reserved":false,"is_disabled":false,"rental_uris":{"android":"levelo://app?vid=5f4d66b3-1843-4afa-a9e4-716510d4befe","ios":"levelo://app?vid=5f4d66b3-1843-4afa-a9e4-716510d4befe"},"vehicle_type_id":"4","last_reported":1748718428,"current_range_meters":7200,"station_id":"ce4bgj92rcd13ifvqbd0","pricing_plan_id":"cebpf4jnsgd1na2vs0mg"},{"bike_id":"e372cd62-3f54-4399-8b54-ee30195f8351","system_id":"levelo_inurba_marseille","lat":43.26229,"lon":5.40454,"is_reserved":false,"is_disabled":false,"rental_uris":{"android":"levelo://app?vid=e372cd62-3f54-4399-8b54-ee30195f8351","ios":"levelo://app?vid=e372cd62-3f54-4399-8b54-ee30195f8351"},"vehicle_type_id":"4","last_reported":1748718428,"current_range_meters":7200,"station_id":"ce4bhmh2rcd13ifvqgmg","pricing_plan_id":"cebpf4jnsgd1na2vs0mg"},{"bike_id":"364bdcd7-2344-466e-94bc-e3b5ade3752c","system_id":"levelo_inurba_marseille","lat":43.29305,"lon":5.37169,"is_reserved":false,"is_disabled":false,"rental_uris":{"android":"levelo://app?vid=364bdcd7-2344-466e-94bc-e3b5ade3752c","ios":"levelo://app?vid=364bdcd7-2344-466e-94bc-e3b5ade3752c"},"vehicle_type_id":"4","last_reported":1748718428,"current_range_meters":7200,"station_id":"ce4bgh92rcd13ifvqb40","pricing_plan_id":"cebpf4jnsgd1na2vs0mg"},{"bike_id":"b26b711a-c5ab-4453-8510-087b45cc186a","system_id":"levelo_inurba_marseille","lat":43.22933,"lon":5.35379,"is_reserved":false,"is_disabled":false,"rental_uris":{"android":"levelo://app?vid=b26b711a-c5ab-4453-8510-087b45cc186a","ios":"levelo://app?vid=b26b711a-c5ab-4453-8510-087b45cc186a"},"vehicle_type_id":"4","last_reported":1748718428,"current_range_meters":7200,"station_id":"cpo3532slgdg3j2ikp40","pricing_plan_id":"cebpf4jnsgd1na2vs0mg"},{"bike_id":"7b4d5e6a-e900-4f88-8b8e-60b2cb83a21f","system_id":"levelo_inurba_marseille","lat":43.3031,"lon":5.36891,"is_reserved":false,"is_disabled":false,"rental_uris":{"android":"levelo://app?vid=7b4d5e6a-e900-4f88-8b8e-60b2cb83a21f","ios":"levelo://app?vid=7b4d5e6a-e900-4f88-8b8e-60b2cb83a21f"},"vehicle_type_id":"4","last_reported":1748718428,"current_range_meters":7200,"station_id":"ce4bgqh2rcd13ifvqc5g","pricing_plan_id":"cebpf4jnsgd1na2vs0mg"},{"bike_id":"12b5b790-e3b7-4ead-9496-f7fa516e9813","system_id":"levelo_inurba_marseille","lat":43.3092,"lon":5.40152,"is_reserved":false,"is_disabled":false,"rental_uris":{"android":"levelo://app?vid=12b5b790-e3b7-4ead-9496-f7fa516e9813","ios":"levelo://app?vid=12b5b790-e3b7-4ead-9496-f7fa516e9813"},"vehicle_type_id":"4","last_reported":1748718428,"current_range_meters":7200,"station_id":"ce4bgvp2rcd13ifvqct0","pricing_plan_id":"cebpf4jnsgd1na2vs0mg"},{"bike_id":"e635c8dc-081a-4ca6-8c2f-0b57f9db2ffc","system_id":"levelo_inurba_marseille","lat":43.292999,"lon":5.374608,"is_reserved":false,"is_disabled":false,"rental_uris":{"android":"levelo://app?vid=e635c8dc-081a-4ca6-8c2f-0b57f9db2ffc","ios":"levelo://app?vid=e635c8dc-081a-4ca6-8c2f-0b57f9db2ffc"},"vehicle_type_id":"4","last_reported":1748718428,"current_range_meters":7200,"station_id":"ce4bgi12rcd13ifvqb70","pricing_plan_id":"cebpf4jnsgd1na2vs0mg"},{"bike_id":"4587c898-1014-4728-ba58-926f5211c4f4","system_id":"levelo_inurba_marseille","lat":43.27943,"lon":5.41045,"is_reserved":false,"is_disabled":false,"rental_uris":{"android":"levelo://app?vid=4587c898-1014-4728-ba58-926f5211c4f4","ios":"levelo://app?vid=4587c898-1014-4728-ba58-926f5211c4f4"},"vehicle_type_id":"4","last_reported":1748718428,"current_range_meters":7200,"station_id":"ce4bhnp2rcd13ifvqh0g","pricing_plan_id":"cebpf4jnsgd1na2vs0mg"},{"bike_id":"11176c54-cf82-4ffe-99d7-0c0dc7d771ba","system_id":"levelo_inurba_marseille","lat":43.29443,"lon":5.3862,"is_reserved":false,"is_disabled":false,"rental_uris":{"android":"levelo://app?vid=11176c54-cf82-4ffe-99d7-0c0dc7d771ba","ios":"levelo://app?vid=11176c54-cf82-4ffe-99d7-0c0dc7d771ba"},"vehicle_type_id":"4","last_reported":1748718428,"current_range_meters":7200,"station_id":"ce4bh2h2rcd13ifvqdh0","pricing_plan_id":"cebpf4jnsgd1na2vs0mg"},{"bike_id":"82ce820a-c4c6-4ac7-9b7f-30fa70c9c3f3","system_id":"levelo_inurba_marseille","lat":43.27826,"lon":5.40705,"is_reserved":false,"is_disabled":false,"rental_uris":{"android":"levelo://app?vid=82ce820a-c4c6-4ac7-9b7f-30fa70c9c3f3","ios":"levelo://app?vid=82ce820a-c4c6-4ac7-9b7f-30fa70c9c3f3"},"vehicle_type_id":"4","last_reported":1748718428,"current_range_meters":7200,"station_id":"ce4bhnh2rcd13ifvqgtg","pricing_plan_id":"cebpf4jnsgd1na2vs0mg"},{"bike_id":"20b0e752-7b4c-4af1-a6ce-fa666a602281","system_id":"levelo_inurba_marseille","lat":43.29032,"lon":5.38637,"is_reserved":false,"is_disabled":false,"rental_uris":{"android":"levelo://app?vid=20b0e752-7b4c-4af1-a6ce-fa666a602281","ios":"levelo://app?vid=20b0e752-7b4c-4af1-a6ce-fa666a602281"},"vehicle_type_id":"4","last_reported":1748718428,"current_range_meters":8000,"station_id":"ce4bh4p2rcd13ifvqe0g","pricing_plan_id":"cebpf4jnsgd1na2vs0mg"},{"bike_id":"4065c83d-f32e-4c00-a608-26258339ed88","system_id":"levelo_inurba_marseille","lat":43.268,"lon":5.40261,"is_reserved":false,"is_disabled":false,"rental_uris":{"android":"levelo://app?vid=4065c83d-f32e-4c00-a608-26258339ed88","ios":"levelo://app?vid=4065c83d-f32e-4c00-a608-26258339ed88"},"vehicle_type_id":"4","last_reported":1748718428,"current_range_meters":8000,"station_id":"ce501612rcd8frsf0b60","pricing_plan_id":"cebpf4jnsgd1na2vs0mg"},{"bike_id":"f6c18757-42cd-40e6-82c2-99bf51f27297","system_id":"levelo_inurba_marseille","lat":43.21746,"lon":5.34594,"is_reserved":false,"is_disabled":true,"rental_uris":{"android":"levelo://app?vid=f6c18757-42cd-40e6-82c2-99bf51f27297","ios":"levelo://app?vid=f6c18757-42cd-40e6-82c2-99bf51f27297"},"vehicle_type_id":"4","last_reported":1748718428,"current_range_meters":8000,"station_id":"st_cvj6r9ubvosntc0bgbag","pricing_plan_id":"cebpf4jnsgd1na2vs0mg"},{"bike_id":"ddd3f91d-96bf-4226-a7b9-8ec377705c4a","system_id":"levelo_inurba_marseille","lat":43.30932,"lon":5.4014,"is_reserved":false,"is_disabled":false,"rental_uris":{"android":"levelo://app?vid=ddd3f91d-96bf-4226-a7b9-8ec377705c4a","ios":"levelo://app?vid=ddd3f91d-96bf-4226-a7b9-8ec377705c4a"},"vehicle_type_id":"4","last_reported":1748718428,"current_range_meters":7200,"station_id":"ce4bgvp2rcd13ifvqct0","pricing_plan_id":"cebpf4jnsgd1na2vs0mg"},{"bike_id":"01e4ed6b-e9a5-4944-8ecd-6edf8a5120d9","system_id":"levelo_inurba_marseille","lat":43.31067,"lon":5.38347,"is_reserved":false,"is_disabled":false,"rental_uris":{"android":"levelo://app?vid=01e4ed6b-e9a5-4944-8ecd-6edf8a5120d9","ios":"levelo://app?vid=01e4ed6b-e9a5-4944-8ecd-6edf8a5120d9"},"vehicle_type_id":"4","last_reported":1748718428,"current_range_meters":8400,"station_id":"ce4bgv92rcd13ifvqcr0","pricing_plan_id":"cebpf4jnsgd1na2vs0mg"},{"bike_id":"2384db72-6a61-45d7-9e90-e9e02a1b57a7","system_id":"levelo_inurba_marseille","lat":43.29256,"lon":5.3844,"is_reserved":false,"is_disabled":false,"rental_uris":{"android":"levelo://app?vid=2384db72-6a61-45d7-9e90-e9e02a1b57a7","ios":"levelo://app?vid=2384db72-6a61-45d7-9e90-e9e02a1b57a7"},"vehicle_type_id":"4","last_reported":1748718428,"current_range_meters":8400,"station_id":"ce4bh692rcd13ifvqea0","pricing_plan_id":"cebpf4jnsgd1na2vs0mg"},{"bike_id":"b3d3327c-bc79-4ae9-9e3d-342d722fe218","system_id":"levelo_inurba_marseille","lat":43.309593,"lon":5.390283,"is_reserved":false,"is_disabled":false,"rental_uris":{"android":"levelo://app?vid=b3d3327c-bc79-4ae9-9e3d-342d722fe218","ios":"levelo://app?vid=b3d3327c-bc79-4ae9-9e3d-342d722fe218"},"vehicle_type_id":"4","last_reported":1748718428,"current_range_meters":8400,"station_id":"ce4bgup2rcd13ifvqco0","pricing_plan_id":"cebpf4jnsgd1na2vs0mg"},{"bike_id":"5ef067e7-b281-4ef9-ad2a-1c6b02a54c04","system_id":"levelo_inurba_marseille","lat":43.31905,"lon":5.44038,"is_reserved":false,"is_disabled":false,"rental_uris":{"android":"levelo://app?vid=5ef067e7-b281-4ef9-ad2a-1c6b02a54c04","ios":"levelo://app?vid=5ef067e7-b281-4ef9-ad2a-1c6b02a54c04"},"vehicle_type_id":"4","last_reported":1748718428,"current_range_meters":8400,"station_id":"","pricing_plan_id":"cebpf4jnsgd1na2vs0mg"},{"bike_id":"5bed34b1-0fab-4aa6-8c7d-b44e1061d2cf","system_id":"levelo_inurba_marseille","lat":43.29267,"lon":5.3685,"is_reserved":false,"is_disabled":false,"rental_uris":{"android":"levelo://app?vid=5bed34b1-0fab-4aa6-8c7d-b44e1061d2cf","ios":"levelo://app?vid=5bed34b1-0fab-4aa6-8c7d-b44e1061d2cf"},"vehicle_type_id":"4","last_reported":1748718428,"current_range_meters":8400,"station_id":"ce4bhbp2rcd13ifvqesg","pricing_plan_id":"cebpf4jnsgd1na2vs0mg"},{"bike_id":"cfa9cbe6-8e97-4447-a6f4-ae58fde17456","system_id":"levelo_inurba_marseille","lat":43.29906,"lon":5.385326,"is_reserved":false,"is_disabled":false,"rental_uris":{"android":"levelo://app?vid=cfa9cbe6-8e97-4447-a6f4-ae58fde17456","ios":"levelo://app?vid=cfa9cbe6-8e97-4447-a6f4-ae58fde17456"},"vehicle_type_id":"4","last_reported":1748718428,"current_range_meters":8400,"station_id":"ce4bh0h2rcd13ifvqd40","pricing_plan_id":"cebpf4jnsgd1na2vs0mg"},{"bike_id":"a672e2ce-ff65-491a-baf8-b5fcce4f4059","system_id":"levelo_inurba_marseille","lat":43.317238,"lon":5.39012,"is_reserved":false,"is_disabled":false,"rental_uris":{"android":"levelo://app?vid=a672e2ce-ff65-491a-baf8-b5fcce4f4059","ios":"levelo://app?vid=a672e2ce-ff65-491a-baf8-b5fcce4f4059"},"vehicle_type_id":"4","last_reported":1748718428,"current_range_meters":8800,"station_id":"ce4bhqp2rcd13ifvqhng","pricing_plan_id":"cebpf4jnsgd1na2vs0mg"},{"bike_id":"742ea022-7ec3-403b-ab76-b027020c7592","system_id":"levelo_inurba_marseille","lat":43.32234,"lon":5.38347,"is_reserved":false,"is_disabled":false,"rental_uris":{"android":"levelo://app?vid=742ea022-7ec3-403b-ab76-b027020c7592","ios":"levelo://app?vid=742ea022-7ec3-403b-ab76-b027020c7592"},"vehicle_type_id":"4","last_reported":1748718428,"current_range_meters":8800,"station_id":"","pricing_plan_id":"cebpf4jnsgd1na2vs0mg"},{"bike_id":"e0cf0889-eda7-4223-9c13-7d105640bd06","system_id":"levelo_inurba_marseille","lat":43.29271,"lon":5.38439,"is_reserved":false,"is_disabled":false,"rental_uris":{"android":"levelo://app?vid=e0cf0889-eda7-4223-9c13-7d105640bd06","ios":"levelo://app?vid=e0cf0889-eda7-4223-9c13-7d105640bd06"},"vehicle_type_id":"4","last_reported":1748718428,"current_range_meters":8800,"station_id":"ce4bh692rcd13ifvqea0","pricing_plan_id":"cebpf4jnsgd1na2vs0mg"},{"bike_id":"a2260012-59cc-4859-a8f8-ee3fea616a8b","system_id":"levelo_inurba_marseille","lat":43.30801,"lon":5.38147,"is_reserved":false,"is_disabled":false,"rental_uris":{"android":"levelo://app?vid=a2260012-59cc-4859-a8f8-ee3fea616a8b","ios":"levelo://app?vid=a2260012-59cc-4859-a8f8-ee3fea616a8b"},"vehicle_type_id":"4","last_reported":1748718428,"current_range_meters":8800,"station_id":"ce4bgt12rcd13ifvqce0","pricing_plan_id":"cebpf4jnsgd1na2vs0mg"},{"bike_id":"e62a208c-23d3-4f22-bdab-aa660ac5353a","system_id":"levelo_inurba_marseille","lat":43.26214,"lon":5.37919,"is_reserved":false,"is_disabled":false,"rental_uris":{"android":"levelo://app?vid=e62a208c-23d3-4f22-bdab-aa660ac5353a","ios":"levelo://app?vid=e62a208c-23d3-4f22-bdab-aa660ac5353a"},"vehicle_type_id":"4","last_reported":1748718428,"current_range_meters":8800,"station_id":"ce4bhjp2rcd13ifvqg90","pricing_plan_id":"cebpf4jnsgd1na2vs0mg"},{"bike_id":"a14d8e40-c994-4f1c-b643-8a3b58a2eb79","system_id":"levelo_inurba_marseille","lat":43.29266,"lon":5.38202,"is_reserved":false,"is_disabled":false,"rental_uris":{"android":"levelo://app?vid=a14d8e40-c994-4f1c-b643-8a3b58a2eb79","ios":"levelo://app?vid=a14d8e40-c994-4f1c-b643-8a3b58a2eb79"},"vehicle_type_id":"4","last_reported":1748718428,"current_range_meters":8800,"station_id":"","pricing_plan_id":"cebpf4jnsgd1na2vs0mg"},{"bike_id":"49be7336-be2c-43ca-98e2-fea580b53299","system_id":"levelo_inurba_marseille","lat":43.25117,"lon":5.4032,"is_reserved":false,"is_disabled":false,"rental_uris":{"android":"levelo://app?vid=49be7336-be2c-43ca-98e2-fea580b53299","ios":"levelo://app?vid=49be7336-be2c-43ca-98e2-fea580b53299"},"vehicle_type_id":"4","last_reported":1748718428,"current_range_meters":8800,"station_id":"ce4bhlh2rcd13ifvqgig","pricing_plan_id":"cebpf4jnsgd1na2vs0mg"},{"bike_id":"b03c2fa9-6bf1-48c7-a747-6dffe84678c2","system_id":"levelo_inurba_marseille","lat":43.23963,"lon":5.36628,"is_reserved":false,"is_disabled":false,"rental_uris":{"android":"levelo://app?vid=b03c2fa9-6bf1-48c7-a747-6dffe84678c2","ios":"levelo://app?vid=b03c2fa9-6bf1-48c7-a747-6dffe84678c2"},"vehicle_type_id":"4","last_reported":1748718428,"current_range_meters":8800,"station_id":"ce4bhi12rcd13ifvqfp0","pricing_plan_id":"cebpf4jnsgd1na2vs0mg"},{"bike_id":"5f3bda68-84fc-4d7e-bc5f-1436594c8068","system_id":"levelo_inurba_marseille","lat":43.24076,"lon":5.37758,"is_reserved":false,"is_disabled":false,"rental_uris":{"android":"levelo://app?vid=5f3bda68-84fc-4d7e-bc5f-1436594c8068","ios":"levelo://app?vid=5f3bda68-84fc-4d7e-bc5f-1436594c8068"},"vehicle_type_id":"4","last_reported":1748718428,"current_range_meters":9200,"station_id":"ce4bhnp2rcd13ifvqgvg","pricing_plan_id":"cebpf4jnsgd1na2vs0mg"},{"bike_id":"54ae2c20-01ce-4b95-b4da-ba2da3e69fb6","system_id":"levelo_inurba_marseille","lat":43.293133,"lon":5.371758,"is_reserved":false,"is_disabled":false,"rental_uris":{"android":"levelo://app?vid=54ae2c20-01ce-4b95-b4da-ba2da3e69fb6","ios":"levelo://app?vid=54ae2c20-01ce-4b95-b4da-ba2da3e69fb6"},"vehicle_type_id":"4","last_reported":1748718428,"current_range_meters":9200,"station_id":"ce4bgh92rcd13ifvqb40","pricing_plan_id":"cebpf4jnsgd1na2vs0mg"},{"bike_id":"8d48119e-760e-4c00-b401-59af0a322afa","system_id":"levelo_inurba_marseille","lat":43.256626,"lon":5.408616,"is_reserved":false,"is_disabled":false,"rental_uris":{"android":"levelo://app?vid=8d48119e-760e-4c00-b401-59af0a322afa","ios":"levelo://app?vid=8d48119e-760e-4c00-b401-59af0a322afa"},"vehicle_type_id":"4","last_reported":1748718428,"current_range_meters":9200,"station_id":"","pricing_plan_id":"cebpf4jnsgd1na2vs0mg"},{"bike_id":"2603af20-4f3f-4c95-b173-51c0a9b5eb7b","system_id":"levelo_inurba_marseille","lat":43.29983,"lon":5.37166,"is_reserved":false,"is_disabled":false,"rental_uris":{"android":"levelo://app?vid=2603af20-4f3f-4c95-b173-51c0a9b5eb7b","ios":"levelo://app?vid=2603af20-4f3f-4c95-b173-51c0a9b5eb7b"},"vehicle_type_id":"4","last_reported":1748718428,"current_range_meters":9200,"station_id":"ce4bgr92rcd13ifvqc7g","pricing_plan_id":"cebpf4jnsgd1na2vs0mg"},{"bike_id":"2b201de7-06ee-44b6-9c85-dda11376754f","system_id":"levelo_inurba_marseille","lat":43.24344,"lon":5.38026,"is_reserved":false,"is_disabled":false,"rental_uris":{"android":"levelo://app?vid=2b201de7-06ee-44b6-9c85-dda11376754f","ios":"levelo://app?vid=2b201de7-06ee-44b6-9c85-dda11376754f"},"vehicle_type_id":"4","last_reported":1748718428,"current_range_meters":9200,"station_id":"","pricing_plan_id":"cebpf4jnsgd1na2vs0mg"},{"bike_id":"c3eafc8a-e92a-4041-883e-6ae81451ec71","system_id":"levelo_inurba_marseille","lat":43.278145,"lon":5.407137,"is_reserved":false,"is_disabled":false,"rental_uris":{"android":"levelo://app?vid=c3eafc8a-e92a-4041-883e-6ae81451ec71","ios":"levelo://app?vid=c3eafc8a-e92a-4041-883e-6ae81451ec71"},"vehicle_type_id":"4","last_reported":1748718428,"current_range_meters":9200,"station_id":"ce4bhnh2rcd13ifvqgtg","pricing_plan_id":"cebpf4jnsgd1na2vs0mg"},{"bike_id":"cfdf4abe-492a-4bc8-b7af-8e3438047c97","system_id":"levelo_inurba_marseille","lat":43.24667,"lon":5.3816,"is_reserved":false,"is_disabled":false,"rental_uris":{"android":"levelo://app?vid=cfdf4abe-492a-4bc8-b7af-8e3438047c97","ios":"levelo://app?vid=cfdf4abe-492a-4bc8-b7af-8e3438047c97"},"vehicle_type_id":"4","last_reported":1748718428,"current_range_meters":9200,"station_id":"ce4bhih2rcd13ifvqfr0","pricing_plan_id":"cebpf4jnsgd1na2vs0mg"},{"bike_id":"a6bd1440-b2a6-4792-acab-7e1c7d380525","system_id":"levelo_inurba_marseille","lat":43.265245,"lon":5.373438,"is_reserved":false,"is_disabled":false,"rental_uris":{"android":"levelo://app?vid=a6bd1440-b2a6-4792-acab-7e1c7d380525","ios":"levelo://app?vid=a6bd1440-b2a6-4792-acab-7e1c7d380525"},"vehicle_type_id":"4","last_reported":1748718428,"current_range_meters":9200,"station_id":"ce4bhg12rcd13ifvqf70","pricing_plan_id":"cebpf4jnsgd1na2vs0mg"},{"bike_id":"b6b1cdc7-f536-4a18-b4e9-1489003244e1","system_id":"levelo_inurba_marseille","lat":43.30083,"lon":5.39073,"is_reserved":false,"is_disabled":false,"rental_uris":{"android":"levelo://app?vid=b6b1cdc7-f536-4a18-b4e9-1489003244e1","ios":"levelo://app?vid=b6b1cdc7-f536-4a18-b4e9-1489003244e1"},"vehicle_type_id":"4","last_reported":1748718428,"current_range_meters":9600,"station_id":"ce4bh192rcd13ifvqdb0","pricing_plan_id":"cebpf4jnsgd1na2vs0mg"},{"bike_id":"0124daaf-983d-4db1-a25d-60e2257d9a9e","system_id":"levelo_inurba_marseille","lat":43.29713,"lon":5.3661,"is_reserved":false,"is_disabled":false,"rental_uris":{"android":"levelo://app?vid=0124daaf-983d-4db1-a25d-60e2257d9a9e","ios":"levelo://app?vid=0124daaf-983d-4db1-a25d-60e2257d9a9e"},"vehicle_type_id":"4","last_reported":1748718428,"current_range_meters":9600,"station_id":"ce4bgn12rcd13ifvqbt0","pricing_plan_id":"cebpf4jnsgd1na2vs0mg"},{"bike_id":"3f689449-a047-41da-949a-7fb5850fe0c7","system_id":"levelo_inurba_marseille","lat":43.30466,"lon":5.37901,"is_reserved":false,"is_disabled":false,"rental_uris":{"android":"levelo://app?vid=3f689449-a047-41da-949a-7fb5850fe0c7","ios":"levelo://app?vid=3f689449-a047-41da-949a-7fb5850fe0c7"},"vehicle_type_id":"4","last_reported":1748718428,"current_range_meters":9600,"station_id":"ce4bgup2rcd13ifvqcn0","pricing_plan_id":"cebpf4jnsgd1na2vs0mg"},{"bike_id":"f3b23171-c38f-42f8-9b70-851944fb6f6f","system_id":"levelo_inurba_marseille","lat":43.2951,"lon":5.39397,"is_reserved":false,"is_disabled":false,"rental_uris":{"android":"levelo://app?vid=f3b23171-c38f-42f8-9b70-851944fb6f6f","ios":"levelo://app?vid=f3b23171-c38f-42f8-9b70-851944fb6f6f"},"vehicle_type_id":"4","last_reported":1748718428,"current_range_meters":9600,"station_id":"ce4bh292rcd13ifvqdf0","pricing_plan_id":"cebpf4jnsgd1na2vs0mg"},{"bike_id":"6d7c16a6-7340-444a-951d-e56443909105","system_id":"levelo_inurba_marseille","lat":43.21194,"lon":5.35074,"is_reserved":false,"is_disabled":false,"rental_uris":{"android":"levelo://app?vid=6d7c16a6-7340-444a-951d-e56443909105","ios":"levelo://app?vid=6d7c16a6-7340-444a-951d-e56443909105"},"vehicle_type_id":"4","last_reported":1748718428,"current_range_meters":9600,"station_id":"st_cvj6sg6p6f1abm77japg","pricing_plan_id":"cebpf4jnsgd1na2vs0mg"},{"bike_id":"395725b1-48e3-44c2-879e-2f9d260a4d1a","system_id":"levelo_inurba_marseille","lat":43.31226,"lon":5.3686,"is_reserved":false,"is_disabled":false,"rental_uris":{"android":"levelo://app?vid=395725b1-48e3-44c2-879e-2f9d260a4d1a","ios":"levelo://app?vid=395725b1-48e3-44c2-879e-2f9d260a4d1a"},"vehicle_type_id":"4","last_reported":1748718428,"current_range_meters":9600,"station_id":"ce4bgl92rcd13ifvqbq0","pricing_plan_id":"cebpf4jnsgd1na2vs0mg"},{"bike_id":"ec864dde-b65e-4158-bd35-75127cf90271","system_id":"levelo_inurba_marseille","lat":43.21747,"lon":5.34602,"is_reserved":false,"is_disabled":true,"rental_uris":{"android":"levelo://app?vid=ec864dde-b65e-4158-bd35-75127cf90271","ios":"levelo://app?vid=ec864dde-b65e-4158-bd35-75127cf90271"},"vehicle_type_id":"4","last_reported":1748718428,"current_range_meters":9600,"station_id":"","pricing_plan_id":"cebpf4jnsgd1na2vs0mg"},{"bike_id":"23a8f3c4-21a6-46df-a7da-136674bed0a1","system_id":"levelo_inurba_marseille","lat":43.27808,"lon":5.40716,"is_reserved":false,"is_disabled":false,"rental_uris":{"android":"levelo://app?vid=23a8f3c4-21a6-46df-a7da-136674bed0a1","ios":"levelo://app?vid=23a8f3c4-21a6-46df-a7da-136674bed0a1"},"vehicle_type_id":"4","last_reported":1748718428,"current_range_meters":9600,"station_id":"ce4bhnh2rcd13ifvqgtg","pricing_plan_id":"cebpf4jnsgd1na2vs0mg"},{"bike_id":"63c9de02-e7e2-4389-913f-d4fb455361cd","system_id":"levelo_inurba_marseille","lat":43.273249,"lon":5.390684,"is_reserved":false,"is_disabled":false,"rental_uris":{"android":"levelo://app?vid=63c9de02-e7e2-4389-913f-d4fb455361cd","ios":"levelo://app?vid=63c9de02-e7e2-4389-913f-d4fb455361cd"},"vehicle_type_id":"4","last_reported":1748718428,"current_range_meters":9600,"station_id":"ce4bhgp2rcd13ifvqfe0","pricing_plan_id":"cebpf4jnsgd1na2vs0mg"},{"bike_id":"0d3bab2f-26cf-41f1-82dd-bb5db963b288","system_id":"levelo_inurba_marseille","lat":43.32542,"lon":5.36483,"is_reserved":false,"is_disabled":true,"rental_uris":{"android":"levelo://app?vid=0d3bab2f-26cf-41f1-82dd-bb5db963b288","ios":"levelo://app?vid=0d3bab2f-26cf-41f1-82dd-bb5db963b288"},"vehicle_type_id":"4","last_reported":1748718428,"current_range_meters":9600,"station_id":"","pricing_plan_id":"cebpf4jnsgd1na2vs0mg"},{"bike_id":"cdfe7084-954a-44fe-ab3e-19ab80148445","system_id":"levelo_inurba_marseille","lat":43.30953,"lon":5.39038,"is_reserved":false,"is_disabled":false,"rental_uris":{"android":"levelo://app?vid=cdfe7084-954a-44fe-ab3e-19ab80148445","ios":"levelo://app?vid=cdfe7084-954a-44fe-ab3e-19ab80148445"},"vehicle_type_id":"4","last_reported":1748718428,"current_range_meters":9600,"station_id":"ce4bgup2rcd13ifvqco0","pricing_plan_id":"cebpf4jnsgd1na2vs0mg"},{"bike_id":"e8aa9d7b-30f3-4049-8c5f-62b74a6c992b","system_id":"levelo_inurba_marseille","lat":43.32112,"lon":5.36768,"is_reserved":false,"is_disabled":false,"rental_uris":{"android":"levelo://app?vid=e8aa9d7b-30f3-4049-8c5f-62b74a6c992b","ios":"levelo://app?vid=e8aa9d7b-30f3-4049-8c5f-62b74a6c992b"},"vehicle_type_id":"4","last_reported":1748718428,"current_range_meters":9600,"station_id":"ce4bhrh2rcd13ifvqhug","pricing_plan_id":"cebpf4jnsgd1na2vs0mg"},{"bike_id":"c6edadbb-ce75-49f3-947c-84f86659aae4","system_id":"levelo_inurba_marseille","lat":43.29258,"lon":5.38439,"is_reserved":false,"is_disabled":false,"rental_uris":{"android":"levelo://app?vid=c6edadbb-ce75-49f3-947c-84f86659aae4","ios":"levelo://app?vid=c6edadbb-ce75-49f3-947c-84f86659aae4"},"vehicle_type_id":"4","last_reported":1748718428,"current_range_meters":10000,"station_id":"ce4bh692rcd13ifvqea0","pricing_plan_id":"cebpf4jnsgd1na2vs0mg"},{"bike_id":"f4e49996-ce0c-42e7-9a15-35b5f4497b3e","system_id":"levelo_inurba_marseille","lat":43.322868,"lon":5.382746,"is_reserved":false,"is_disabled":false,"rental_uris":{"android":"levelo://app?vid=f4e49996-ce0c-42e7-9a15-35b5f4497b3e","ios":"levelo://app?vid=f4e49996-ce0c-42e7-9a15-35b5f4497b3e"},"vehicle_type_id":"4","last_reported":1748718428,"current_range_meters":10000,"station_id":"ce4bhr12rcd13ifvqhqg","pricing_plan_id":"cebpf4jnsgd1na2vs0mg"},{"bike_id":"6dbec55b-fee0-4a3a-9ed2-723f9ae1c783","system_id":"levelo_inurba_marseille","lat":43.29906,"lon":5.43647,"is_reserved":false,"is_disabled":true,"rental_uris":{"android":"levelo://app?vid=6dbec55b-fee0-4a3a-9ed2-723f9ae1c783","ios":"levelo://app?vid=6dbec55b-fee0-4a3a-9ed2-723f9ae1c783"},"vehicle_type_id":"4","last_reported":1748718428,"current_range_meters":10000,"station_id":"ce4bhpp2rcd13ifvqhfg","pricing_plan_id":"cebpf4jnsgd1na2vs0mg"},{"bike_id":"4a855630-ee06-44b7-bf56-e0a8ebb30ac3","system_id":"levelo_inurba_marseille","lat":43.29306,"lon":5.37467,"is_reserved":false,"is_disabled":false,"rental_uris":{"android":"levelo://app?vid=4a855630-ee06-44b7-bf56-e0a8ebb30ac3","ios":"levelo://app?vid=4a855630-ee06-44b7-bf56-e0a8ebb30ac3"},"vehicle_type_id":"4","last_reported":1748718428,"current_range_meters":9600,"station_id":"ce4bgi12rcd13ifvqb70","pricing_plan_id":"cebpf4jnsgd1na2vs0mg"},{"bike_id":"93647444-7181-4bef-965a-d44b23f4326b","system_id":"levelo_inurba_marseille","lat":43.29714,"lon":5.36611,"is_reserved":false,"is_disabled":false,"rental_uris":{"android":"levelo://app?vid=93647444-7181-4bef-965a-d44b23f4326b","ios":"levelo://app?vid=93647444-7181-4bef-965a-d44b23f4326b"},"vehicle_type_id":"4","last_reported":1748718428,"current_range_meters":10000,"station_id":"ce4bgn12rcd13ifvqbt0","pricing_plan_id":"cebpf4jnsgd1na2vs0mg"},{"bike_id":"c839899d-8cb2-4156-a368-dcb8539b3b42","system_id":"levelo_inurba_marseille","lat":43.29252,"lon":5.40905,"is_reserved":false,"is_disabled":false,"rental_uris":{"android":"levelo://app?vid=c839899d-8cb2-4156-a368-dcb8539b3b42","ios":"levelo://app?vid=c839899d-8cb2-4156-a368-dcb8539b3b42"},"vehicle_type_id":"4","last_reported":1748718428,"current_range_meters":10000,"station_id":"ce4bh192rcd13ifvqdc0","pricing_plan_id":"cebpf4jnsgd1na2vs0mg"},{"bike_id":"a714ead2-b445-4fbc-8a47-949daa73dde9","system_id":"levelo_inurba_marseille","lat":43.27314,"lon":5.391,"is_reserved":false,"is_disabled":false,"rental_uris":{"android":"levelo://app?vid=a714ead2-b445-4fbc-8a47-949daa73dde9","ios":"levelo://app?vid=a714ead2-b445-4fbc-8a47-949daa73dde9"},"vehicle_type_id":"4","last_reported":1748718428,"current_range_meters":10000,"station_id":"ce4bhgp2rcd13ifvqfe0","pricing_plan_id":"cebpf4jnsgd1na2vs0mg"},{"bike_id":"b9dbee2c-5ddf-4684-981c-617fd4b5d81b","system_id":"levelo_inurba_marseille","lat":43.31285,"lon":5.3852,"is_reserved":false,"is_disabled":false,"rental_uris":{"android":"levelo://app?vid=b9dbee2c-5ddf-4684-981c-617fd4b5d81b","ios":"levelo://app?vid=b9dbee2c-5ddf-4684-981c-617fd4b5d81b"},"vehicle_type_id":"4","last_reported":1748718428,"current_range_meters":10000,"station_id":"","pricing_plan_id":"cebpf4jnsgd1na2vs0mg"},{"bike_id":"79a5f6b8-3eb7-4888-b9a1-76e848c5f305","system_id":"levelo_inurba_marseille","lat":43.29526,"lon":5.39393,"is_reserved":false,"is_disabled":true,"rental_uris":{"android":"levelo://app?vid=79a5f6b8-3eb7-4888-b9a1-76e848c5f305","ios":"levelo://app?vid=79a5f6b8-3eb7-4888-b9a1-76e848c5f305"},"vehicle_type_id":"4","last_reported":1748718428,"current_range_meters":10000,"station_id":"ce4bh292rcd13ifvqdf0","pricing_plan_id":"cebpf4jnsgd1na2vs0mg"},{"bike_id":"16956ecc-ed47-44a5-bf64-7ac7c0de85fa","system_id":"levelo_inurba_marseille","lat":43.315688,"lon":5.369041,"is_reserved":false,"is_disabled":false,"rental_uris":{"android":"levelo://app?vid=16956ecc-ed47-44a5-bf64-7ac7c0de85fa","ios":"levelo://app?vid=16956ecc-ed47-44a5-bf64-7ac7c0de85fa"},"vehicle_type_id":"4","last_reported":1748718428,"current_range_meters":10000,"station_id":"","pricing_plan_id":"cebpf4jnsgd1na2vs0mg"},{"bike_id":"c4b16742-26db-435c-b78f-19a9b477ae78","system_id":"levelo_inurba_marseille","lat":43.25721,"lon":5.41114,"is_reserved":false,"is_disabled":false,"rental_uris":{"android":"levelo://app?vid=c4b16742-26db-435c-b78f-19a9b477ae78","ios":"levelo://app?vid=c4b16742-26db-435c-b78f-19a9b477ae78"},"vehicle_type_id":"4","last_reported":1748718428,"current_range_meters":10000,"station_id":"ce4bhkp2rcd13ifvqgd0","pricing_plan_id":"cebpf4jnsgd1na2vs0mg"},{"bike_id":"ad6f47cd-8c88-4407-9927-40e17b78d68e","system_id":"levelo_inurba_marseille","lat":43.25112,"lon":5.40323,"is_reserved":false,"is_disabled":false,"rental_uris":{"android":"levelo://app?vid=ad6f47cd-8c88-4407-9927-40e17b78d68e","ios":"levelo://app?vid=ad6f47cd-8c88-4407-9927-40e17b78d68e"},"vehicle_type_id":"4","last_reported":1748718428,"current_range_meters":10800,"station_id":"ce4bhlh2rcd13ifvqgig","pricing_plan_id":"cebpf4jnsgd1na2vs0mg"},{"bike_id":"de9ef9f7-970f-4522-bbf1-82e38daacf67","system_id":"levelo_inurba_marseille","lat":43.29538,"lon":5.38542,"is_reserved":false,"is_disabled":false,"rental_uris":{"android":"levelo://app?vid=de9ef9f7-970f-4522-bbf1-82e38daacf67","ios":"levelo://app?vid=de9ef9f7-970f-4522-bbf1-82e38daacf67"},"vehicle_type_id":"4","last_reported":1748718428,"current_range_meters":10800,"station_id":"ce4bgih2rcd13ifvqba0","pricing_plan_id":"cebpf4jnsgd1na2vs0mg"},{"bike_id":"88156d05-def4-4b36-a01c-bf5f823d7052","system_id":"levelo_inurba_marseille","lat":43.26967,"lon":5.40247,"is_reserved":false,"is_disabled":false,"rental_uris":{"android":"levelo://app?vid=88156d05-def4-4b36-a01c-bf5f823d7052","ios":"levelo://app?vid=88156d05-def4-4b36-a01c-bf5f823d7052"},"vehicle_type_id":"4","last_reported":1748718428,"current_range_meters":10800,"station_id":"cjm6bp8fraef2m0cb0m0","pricing_plan_id":"cebpf4jnsgd1na2vs0mg"},{"bike_id":"9854e2a4-f9c6-4c61-9386-aa9bad1e97ae","system_id":"levelo_inurba_marseille","lat":43.24624,"lon":5.38916,"is_reserved":false,"is_disabled":false,"rental_uris":{"android":"levelo://app?vid=9854e2a4-f9c6-4c61-9386-aa9bad1e97ae","ios":"levelo://app?vid=9854e2a4-f9c6-4c61-9386-aa9bad1e97ae"},"vehicle_type_id":"4","last_reported":1748718428,"current_range_meters":10800,"station_id":"ce4bhg12rcd13ifvqf60","pricing_plan_id":"cebpf4jnsgd1na2vs0mg"},{"bike_id":"1aad0f36-2854-495a-9a40-5e22bd05e0e9","system_id":"levelo_inurba_marseille","lat":43.29312,"lon":5.37161,"is_reserved":false,"is_disabled":false,"rental_uris":{"android":"levelo://app?vid=1aad0f36-2854-495a-9a40-5e22bd05e0e9","ios":"levelo://app?vid=1aad0f36-2854-495a-9a40-5e22bd05e0e9"},"vehicle_type_id":"4","last_reported":1748718428,"current_range_meters":10800,"station_id":"ce4bgh92rcd13ifvqb40","pricing_plan_id":"cebpf4jnsgd1na2vs0mg"},{"bike_id":"8d8d14cc-5e07-4fcc-abb2-eac1689af1eb","system_id":"levelo_inurba_marseille","lat":43.29616,"lon":5.3773,"is_reserved":false,"is_disabled":false,"rental_uris":{"android":"levelo://app?vid=8d8d14cc-5e07-4fcc-abb2-eac1689af1eb","ios":"levelo://app?vid=8d8d14cc-5e07-4fcc-abb2-eac1689af1eb"},"vehicle_type_id":"4","last_reported":1748718428,"current_range_meters":10800,"station_id":"ce4bgi92rcd13ifvqb90","pricing_plan_id":"cebpf4jnsgd1na2vs0mg"},{"bike_id":"76a945ba-9ba8-414f-963a-73e1a106e0fc","system_id":"levelo_inurba_marseille","lat":43.26253,"lon":5.40458,"is_reserved":false,"is_disabled":false,"rental_uris":{"android":"levelo://app?vid=76a945ba-9ba8-414f-963a-73e1a106e0fc","ios":"levelo://app?vid=76a945ba-9ba8-414f-963a-73e1a106e0fc"},"vehicle_type_id":"4","last_reported":1748718428,"current_range_meters":10800,"station_id":"ce4bhmh2rcd13ifvqgmg","pricing_plan_id":"cebpf4jnsgd1na2vs0mg"},{"bike_id":"6d1a2567-5643-4658-91ef-80a899810151","system_id":"levelo_inurba_marseille","lat":43.29261,"lon":5.38451,"is_reserved":false,"is_disabled":false,"rental_uris":{"android":"levelo://app?vid=6d1a2567-5643-4658-91ef-80a899810151","ios":"levelo://app?vid=6d1a2567-5643-4658-91ef-80a899810151"},"vehicle_type_id":"4","last_reported":1748718428,"current_range_meters":10800,"station_id":"ce4bh692rcd13ifvqea0","pricing_plan_id":"cebpf4jnsgd1na2vs0mg"},{"bike_id":"da213bf2-f099-4aff-84aa-2b2c9219bf56","system_id":"levelo_inurba_marseille","lat":43.28368,"lon":5.38641,"is_reserved":false,"is_disabled":false,"rental_uris":{"android":"levelo://app?vid=da213bf2-f099-4aff-84aa-2b2c9219bf56","ios":"levelo://app?vid=da213bf2-f099-4aff-84aa-2b2c9219bf56"},"vehicle_type_id":"4","last_reported":1748718428,"current_range_meters":10800,"station_id":"ce4bh492rcd13ifvqdvg","pricing_plan_id":"cebpf4jnsgd1na2vs0mg"},{"bike_id":"ca45ae50-8fdf-43fd-8443-30c134198d86","system_id":"levelo_inurba_marseille","lat":43.2657,"lon":5.40264,"is_reserved":false,"is_disabled":false,"rental_uris":{"android":"levelo://app?vid=ca45ae50-8fdf-43fd-8443-30c134198d86","ios":"levelo://app?vid=ca45ae50-8fdf-43fd-8443-30c134198d86"},"vehicle_type_id":"4","last_reported":1748718428,"current_range_meters":10800,"station_id":"","pricing_plan_id":"cebpf4jnsgd1na2vs0mg"},{"bike_id":"b4014f9a-a6f2-43ba-a1ed-26282f46a45e","system_id":"levelo_inurba_marseille","lat":43.296219,"lon":5.377169,"is_reserved":false,"is_disabled":false,"rental_uris":{"android":"levelo://app?vid=b4014f9a-a6f2-43ba-a1ed-26282f46a45e","ios":"levelo://app?vid=b4014f9a-a6f2-43ba-a1ed-26282f46a45e"},"vehicle_type_id":"4","last_reported":1748718428,"current_range_meters":10800,"station_id":"ce4bgi92rcd13ifvqb90","pricing_plan_id":"cebpf4jnsgd1na2vs0mg"},{"bike_id":"62b39feb-f952-4188-9d63-259013b84905","system_id":"levelo_inurba_marseille","lat":43.29855,"lon":5.36274,"is_reserved":false,"is_disabled":false,"rental_uris":{"android":"levelo://app?vid=62b39feb-f952-4188-9d63-259013b84905","ios":"levelo://app?vid=62b39feb-f952-4188-9d63-259013b84905"},"vehicle_type_id":"4","last_reported":1748718428,"current_range_meters":11200,"station_id":"ce4bgpp2rcd13ifvqc3g","pricing_plan_id":"cebpf4jnsgd1na2vs0mg"},{"bike_id":"8c39f8dd-97cf-4ae4-be77-a7e36c729a56","system_id":"levelo_inurba_marseille","lat":43.29309,"lon":5.37182,"is_reserved":false,"is_disabled":false,"rental_uris":{"android":"levelo://app?vid=8c39f8dd-97cf-4ae4-be77-a7e36c729a56","ios":"levelo://app?vid=8c39f8dd-97cf-4ae4-be77-a7e36c729a56"},"vehicle_type_id":"4","last_reported":1748718428,"current_range_meters":11200,"station_id":"ce4bgh92rcd13ifvqb40","pricing_plan_id":"cebpf4jnsgd1na2vs0mg"},{"bike_id":"95f88e0d-612e-4282-a05e-87f67498f47d","system_id":"levelo_inurba_marseille","lat":43.295507,"lon":5.380451,"is_reserved":false,"is_disabled":false,"rental_uris":{"android":"levelo://app?vid=95f88e0d-612e-4282-a05e-87f67498f47d","ios":"levelo://app?vid=95f88e0d-612e-4282-a05e-87f67498f47d"},"vehicle_type_id":"4","last_reported":1748718428,"current_range_meters":11200,"station_id":"","pricing_plan_id":"cebpf4jnsgd1na2vs0mg"},{"bike_id":"d458faca-fd2c-4bbb-96d0-b286936a05b2","system_id":"levelo_inurba_marseille","lat":43.29782,"lon":5.39345,"is_reserved":false,"is_disabled":false,"rental_uris":{"android":"levelo://app?vid=d458faca-fd2c-4bbb-96d0-b286936a05b2","ios":"levelo://app?vid=d458faca-fd2c-4bbb-96d0-b286936a05b2"},"vehicle_type_id":"4","last_reported":1748718428,"current_range_meters":10800,"station_id":"chh1huq6cuj3fo74tm60","pricing_plan_id":"cebpf4jnsgd1na2vs0mg"},{"bike_id":"98508d72-da58-48a4-836b-e0570a3c41fa","system_id":"levelo_inurba_marseille","lat":43.29312,"lon":5.37459,"is_reserved":false,"is_disabled":false,"rental_uris":{"android":"levelo://app?vid=98508d72-da58-48a4-836b-e0570a3c41fa","ios":"levelo://app?vid=98508d72-da58-48a4-836b-e0570a3c41fa"},"vehicle_type_id":"4","last_reported":1748718428,"current_range_meters":11200,"station_id":"ce4bgi12rcd13ifvqb70","pricing_plan_id":"cebpf4jnsgd1na2vs0mg"},{"bike_id":"289348b1-f496-48d7-9095-5593c941cd7a","system_id":"levelo_inurba_marseille","lat":43.29534,"lon":5.37505,"is_reserved":false,"is_disabled":true,"rental_uris":{"android":"levelo://app?vid=289348b1-f496-48d7-9095-5593c941cd7a","ios":"levelo://app?vid=289348b1-f496-48d7-9095-5593c941cd7a"},"vehicle_type_id":"4","last_reported":1748718428,"current_range_meters":11200,"station_id":"ce4bgkp2rcd13ifvqbmg","pricing_plan_id":"cebpf4jnsgd1na2vs0mg"},{"bike_id":"9cba573e-fb9a-45e0-8c64-6d4fa672fc07","system_id":"levelo_inurba_marseille","lat":43.27995,"lon":5.41662,"is_reserved":false,"is_disabled":false,"rental_uris":{"android":"levelo://app?vid=9cba573e-fb9a-45e0-8c64-6d4fa672fc07","ios":"levelo://app?vid=9cba573e-fb9a-45e0-8c64-6d4fa672fc07"},"vehicle_type_id":"4","last_reported":1748718428,"current_range_meters":10800,"station_id":"ce4bho12rcd13ifvqh1g","pricing_plan_id":"cebpf4jnsgd1na2vs0mg"},{"bike_id":"a6442a1e-1398-48cd-bceb-a149b5f95120","system_id":"levelo_inurba_marseille","lat":43.29685,"lon":5.37286,"is_reserved":false,"is_disabled":false,"rental_uris":{"android":"levelo://app?vid=a6442a1e-1398-48cd-bceb-a149b5f95120","ios":"levelo://app?vid=a6442a1e-1398-48cd-bceb-a149b5f95120"},"vehicle_type_id":"4","last_reported":1748718428,"current_range_meters":11200,"station_id":"ce4bgk12rcd13ifvqbj0","pricing_plan_id":"cebpf4jnsgd1na2vs0mg"},{"bike_id":"22949bde-52c0-42f8-aed6-0536d4296339","system_id":"levelo_inurba_marseille","lat":43.29583,"lon":5.37501,"is_reserved":false,"is_disabled":true,"rental_uris":{"android":"levelo://app?vid=22949bde-52c0-42f8-aed6-0536d4296339","ios":"levelo://app?vid=22949bde-52c0-42f8-aed6-0536d4296339"},"vehicle_type_id":"4","last_reported":1748718428,"current_range_meters":11200,"station_id":"ce4bgh92rcd13ifvqb50","pricing_plan_id":"cebpf4jnsgd1na2vs0mg"},{"bike_id":"424abc49-7098-476e-9563-b7acdbab96ad","system_id":"levelo_inurba_marseille","lat":43.25112,"lon":5.40337,"is_reserved":false,"is_disabled":false,"rental_uris":{"android":"levelo://app?vid=424abc49-7098-476e-9563-b7acdbab96ad","ios":"levelo://app?vid=424abc49-7098-476e-9563-b7acdbab96ad"},"vehicle_type_id":"4","last_reported":1748718428,"current_range_meters":11600,"station_id":"ce4bhlh2rcd13ifvqgig","pricing_plan_id":"cebpf4jnsgd1na2vs0mg"},{"bike_id":"e6bf0c37-d2a0-4cf7-bda5-bdec7e2a1f23","system_id":"levelo_inurba_marseille","lat":43.32299,"lon":5.38273,"is_reserved":false,"is_disabled":false,"rental_uris":{"android":"levelo://app?vid=e6bf0c37-d2a0-4cf7-bda5-bdec7e2a1f23","ios":"levelo://app?vid=e6bf0c37-d2a0-4cf7-bda5-bdec7e2a1f23"},"vehicle_type_id":"4","last_reported":1748718428,"current_range_meters":11600,"station_id":"ce4bhr12rcd13ifvqhqg","pricing_plan_id":"cebpf4jnsgd1na2vs0mg"},{"bike_id":"2ad0113a-a4be-420b-9dc2-ed425d06cf2c","system_id":"levelo_inurba_marseille","lat":43.29616,"lon":5.37733,"is_reserved":false,"is_disabled":false,"rental_uris":{"android":"levelo://app?vid=2ad0113a-a4be-420b-9dc2-ed425d06cf2c","ios":"levelo://app?vid=2ad0113a-a4be-420b-9dc2-ed425d06cf2c"},"vehicle_type_id":"4","last_reported":1748718428,"current_range_meters":11600,"station_id":"ce4bgi92rcd13ifvqb90","pricing_plan_id":"cebpf4jnsgd1na2vs0mg"},{"bike_id":"ee4f9eb0-06be-4be1-b28c-08f72a7d7a73","system_id":"levelo_inurba_marseille","lat":43.31282,"lon":5.36801,"is_reserved":false,"is_disabled":false,"rental_uris":{"android":"levelo://app?vid=ee4f9eb0-06be-4be1-b28c-08f72a7d7a73","ios":"levelo://app?vid=ee4f9eb0-06be-4be1-b28c-08f72a7d7a73"},"vehicle_type_id":"4","last_reported":1748718428,"current_range_meters":12000,"station_id":"","pricing_plan_id":"cebpf4jnsgd1na2vs0mg"},{"bike_id":"7f08a69a-2d5b-48e6-8e97-32333e7c1f12","system_id":"levelo_inurba_marseille","lat":43.25455,"lon":5.37543,"is_reserved":false,"is_disabled":false,"rental_uris":{"android":"levelo://app?vid=7f08a69a-2d5b-48e6-8e97-32333e7c1f12","ios":"levelo://app?vid=7f08a69a-2d5b-48e6-8e97-32333e7c1f12"},"vehicle_type_id":"4","last_reported":1748718428,"current_range_meters":12000,"station_id":"","pricing_plan_id":"cebpf4jnsgd1na2vs0mg"},{"bike_id":"f06639ac-675a-4995-81c1-45941fc79e16","system_id":"levelo_inurba_marseille","lat":43.31234,"lon":5.36891,"is_reserved":false,"is_disabled":false,"rental_uris":{"android":"levelo://app?vid=f06639ac-675a-4995-81c1-45941fc79e16","ios":"levelo://app?vid=f06639ac-675a-4995-81c1-45941fc79e16"},"vehicle_type_id":"4","last_reported":1748718428,"current_range_meters":12000,"station_id":"ce4bgl92rcd13ifvqbq0","pricing_plan_id":"cebpf4jnsgd1na2vs0mg"},{"bike_id":"b4a389d7-474d-4a9d-8dec-223a88612b5c","system_id":"levelo_inurba_marseille","lat":43.249923,"lon":5.379479,"is_reserved":false,"is_disabled":false,"rental_uris":{"android":"levelo://app?vid=b4a389d7-474d-4a9d-8dec-223a88612b5c","ios":"levelo://app?vid=b4a389d7-474d-4a9d-8dec-223a88612b5c"},"vehicle_type_id":"4","last_reported":1748718428,"current_range_meters":12000,"station_id":"","pricing_plan_id":"cebpf4jnsgd1na2vs0mg"},{"bike_id":"8c86cc91-4f0f-4e49-80b2-f259b6f6d4f7","system_id":"levelo_inurba_marseille","lat":43.29379,"lon":5.37843,"is_reserved":false,"is_disabled":false,"rental_uris":{"android":"levelo://app?vid=8c86cc91-4f0f-4e49-80b2-f259b6f6d4f7","ios":"levelo://app?vid=8c86cc91-4f0f-4e49-80b2-f259b6f6d4f7"},"vehicle_type_id":"4","last_reported":1748718428,"current_range_meters":12000,"station_id":"ce4bgjh2rcd13ifvqbf0","pricing_plan_id":"cebpf4jnsgd1na2vs0mg"},{"bike_id":"9515be88-66db-492e-b43e-02feb729ae33","system_id":"levelo_inurba_marseille","lat":43.293,"lon":5.37437,"is_reserved":false,"is_disabled":false,"rental_uris":{"android":"levelo://app?vid=9515be88-66db-492e-b43e-02feb729ae33","ios":"levelo://app?vid=9515be88-66db-492e-b43e-02feb729ae33"},"vehicle_type_id":"4","last_reported":1748718428,"current_range_meters":12000,"station_id":"ce4bgi12rcd13ifvqb70","pricing_plan_id":"cebpf4jnsgd1na2vs0mg"},{"bike_id":"9661cf5c-50f5-42b2-9e85-122933661bff","system_id":"levelo_inurba_marseille","lat":43.29266,"lon":5.38438,"is_reserved":false,"is_disabled":false,"rental_uris":{"android":"levelo://app?vid=9661cf5c-50f5-42b2-9e85-122933661bff","ios":"levelo://app?vid=9661cf5c-50f5-42b2-9e85-122933661bff"},"vehicle_type_id":"4","last_reported":1748718428,"current_range_meters":12000,"station_id":"ce4bh692rcd13ifvqea0","pricing_plan_id":"cebpf4jnsgd1na2vs0mg"},{"bike_id":"1ae0955c-29eb-4da7-9e7e-82019bfbf88c","system_id":"levelo_inurba_marseille","lat":43.292694,"lon":5.384356,"is_reserved":false,"is_disabled":false,"rental_uris":{"android":"levelo://app?vid=1ae0955c-29eb-4da7-9e7e-82019bfbf88c","ios":"levelo://app?vid=1ae0955c-29eb-4da7-9e7e-82019bfbf88c"},"vehicle_type_id":"4","last_reported":1748718428,"current_range_meters":12000,"station_id":"ce4bh692rcd13ifvqea0","pricing_plan_id":"cebpf4jnsgd1na2vs0mg"},{"bike_id":"97c2bc50-b253-470d-bf7a-d78dda94dee2","system_id":"levelo_inurba_marseille","lat":43.292582,"lon":5.384404,"is_reserved":false,"is_disabled":false,"rental_uris":{"android":"levelo://app?vid=97c2bc50-b253-470d-bf7a-d78dda94dee2","ios":"levelo://app?vid=97c2bc50-b253-470d-bf7a-d78dda94dee2"},"vehicle_type_id":"4","last_reported":1748718428,"current_range_meters":12000,"station_id":"ce4bh692rcd13ifvqea0","pricing_plan_id":"cebpf4jnsgd1na2vs0mg"},{"bike_id":"fdb3e5b0-ffac-4b71-8111-aee3af965790","system_id":"levelo_inurba_marseille","lat":43.29586,"lon":5.38098,"is_reserved":false,"is_disabled":false,"rental_uris":{"android":"levelo://app?vid=fdb3e5b0-ffac-4b71-8111-aee3af965790","ios":"levelo://app?vid=fdb3e5b0-ffac-4b71-8111-aee3af965790"},"vehicle_type_id":"4","last_reported":1748718428,"current_range_meters":12400,"station_id":"ce4bgl12rcd13ifvqbo0","pricing_plan_id":"cebpf4jnsgd1na2vs0mg"},{"bike_id":"e8b459a9-cf60-4cd0-b955-e61dd5100542","system_id":"levelo_inurba_marseille","lat":43.30114,"lon":5.39853,"is_reserved":false,"is_disabled":false,"rental_uris":{"android":"levelo://app?vid=e8b459a9-cf60-4cd0-b955-e61dd5100542","ios":"levelo://app?vid=e8b459a9-cf60-4cd0-b955-e61dd5100542"},"vehicle_type_id":"4","last_reported":1748718428,"current_range_meters":12400,"station_id":"ce4bh0h2rcd13ifvqd40","pricing_plan_id":"cebpf4jnsgd1na2vs0mg"},{"bike_id":"5e4e2cef-3bba-4cda-9da2-794c60c6d357","system_id":"levelo_inurba_marseille","lat":43.30243,"lon":5.40063,"is_reserved":false,"is_disabled":false,"rental_uris":{"android":"levelo://app?vid=5e4e2cef-3bba-4cda-9da2-794c60c6d357","ios":"levelo://app?vid=5e4e2cef-3bba-4cda-9da2-794c60c6d357"},"vehicle_type_id":"4","last_reported":1748718428,"current_range_meters":12400,"station_id":"ce4bgvh2rcd13ifvqcs0","pricing_plan_id":"cebpf4jnsgd1na2vs0mg"},{"bike_id":"8f0300e4-899f-4e13-b8a7-90f137ab1640","system_id":"levelo_inurba_marseille","lat":43.27084,"lon":5.39234,"is_reserved":false,"is_disabled":false,"rental_uris":{"android":"levelo://app?vid=8f0300e4-899f-4e13-b8a7-90f137ab1640","ios":"levelo://app?vid=8f0300e4-899f-4e13-b8a7-90f137ab1640"},"vehicle_type_id":"4","last_reported":1748718428,"current_range_meters":12400,"station_id":"","pricing_plan_id":"cebpf4jnsgd1na2vs0mg"},{"bike_id":"18fb8a94-3cb4-425a-a080-93a31dbf6320","system_id":"levelo_inurba_marseille","lat":43.30139,"lon":5.38786,"is_reserved":false,"is_disabled":false,"rental_uris":{"android":"levelo://app?vid=18fb8a94-3cb4-425a-a080-93a31dbf6320","ios":"levelo://app?vid=18fb8a94-3cb4-425a-a080-93a31dbf6320"},"vehicle_type_id":"4","last_reported":1748718428,"current_range_meters":12000,"station_id":"ce4bghh2rcd13ifvqb60","pricing_plan_id":"cebpf4jnsgd1na2vs0mg"},{"bike_id":"1cbc3454-ff5d-4ea4-b25c-b28e2bf616a9","system_id":"levelo_inurba_marseille","lat":43.25111,"lon":5.403195,"is_reserved":false,"is_disabled":false,"rental_uris":{"android":"levelo://app?vid=1cbc3454-ff5d-4ea4-b25c-b28e2bf616a9","ios":"levelo://app?vid=1cbc3454-ff5d-4ea4-b25c-b28e2bf616a9"},"vehicle_type_id":"4","last_reported":1748718428,"current_range_meters":12400,"station_id":"ce4bhlh2rcd13ifvqgig","pricing_plan_id":"cebpf4jnsgd1na2vs0mg"},{"bike_id":"14036455-f919-44f7-8d5e-0b2e84f48674","system_id":"levelo_inurba_marseille","lat":43.30957,"lon":5.40391,"is_reserved":false,"is_disabled":false,"rental_uris":{"android":"levelo://app?vid=14036455-f919-44f7-8d5e-0b2e84f48674","ios":"levelo://app?vid=14036455-f919-44f7-8d5e-0b2e84f48674"},"vehicle_type_id":"4","last_reported":1748718428,"current_range_meters":12400,"station_id":"","pricing_plan_id":"cebpf4jnsgd1na2vs0mg"},{"bike_id":"154d2a21-050a-4979-b034-4c2af7807095","system_id":"levelo_inurba_marseille","lat":43.2583,"lon":5.39435,"is_reserved":false,"is_disabled":false,"rental_uris":{"android":"levelo://app?vid=154d2a21-050a-4979-b034-4c2af7807095","ios":"levelo://app?vid=154d2a21-050a-4979-b034-4c2af7807095"},"vehicle_type_id":"4","last_reported":1748718428,"current_range_meters":12400,"station_id":"ce4bhip2rcd13ifvqft0","pricing_plan_id":"cebpf4jnsgd1na2vs0mg"},{"bike_id":"9b03c3f1-a97d-4170-ab8e-5b6ce67f019f","system_id":"levelo_inurba_marseille","lat":43.3153,"lon":5.38032,"is_reserved":false,"is_disabled":false,"rental_uris":{"android":"levelo://app?vid=9b03c3f1-a97d-4170-ab8e-5b6ce67f019f","ios":"levelo://app?vid=9b03c3f1-a97d-4170-ab8e-5b6ce67f019f"},"vehicle_type_id":"4","last_reported":1748718428,"current_range_meters":12800,"station_id":"ce4bhsp2rcd13ifvqi50","pricing_plan_id":"cebpf4jnsgd1na2vs0mg"},{"bike_id":"90661731-e0ab-494e-b197-0ad194ea14f4","system_id":"levelo_inurba_marseille","lat":43.26956,"lon":5.40258,"is_reserved":false,"is_disabled":false,"rental_uris":{"android":"levelo://app?vid=90661731-e0ab-494e-b197-0ad194ea14f4","ios":"levelo://app?vid=90661731-e0ab-494e-b197-0ad194ea14f4"},"vehicle_type_id":"4","last_reported":1748718428,"current_range_meters":12800,"station_id":"cjm6bp8fraef2m0cb0m0","pricing_plan_id":"cebpf4jnsgd1na2vs0mg"},{"bike_id":"3b56a76a-b0e9-4fdd-956d-9e50e7fa3ccf","system_id":"levelo_inurba_marseille","lat":43.29326,"lon":5.37184,"is_reserved":false,"is_disabled":false,"rental_uris":{"android":"levelo://app?vid=3b56a76a-b0e9-4fdd-956d-9e50e7fa3ccf","ios":"levelo://app?vid=3b56a76a-b0e9-4fdd-956d-9e50e7fa3ccf"},"vehicle_type_id":"4","last_reported":1748718428,"current_range_meters":12800,"station_id":"ce4bgh92rcd13ifvqb40","pricing_plan_id":"cebpf4jnsgd1na2vs0mg"},{"bike_id":"9ad0de0a-3e96-4789-98a7-79fce64489b7","system_id":"levelo_inurba_marseille","lat":43.269281,"lon":5.402623,"is_reserved":false,"is_disabled":false,"rental_uris":{"android":"levelo://app?vid=9ad0de0a-3e96-4789-98a7-79fce64489b7","ios":"levelo://app?vid=9ad0de0a-3e96-4789-98a7-79fce64489b7"},"vehicle_type_id":"4","last_reported":1748718428,"current_range_meters":12800,"station_id":"cjm6bp8fraef2m0cb0m0","pricing_plan_id":"cebpf4jnsgd1na2vs0mg"},{"bike_id":"63226803-31c6-4bba-8fb5-6056cb981b44","system_id":"levelo_inurba_marseille","lat":43.21775,"lon":5.34588,"is_reserved":false,"is_disabled":true,"rental_uris":{"android":"levelo://app?vid=63226803-31c6-4bba-8fb5-6056cb981b44","ios":"levelo://app?vid=63226803-31c6-4bba-8fb5-6056cb981b44"},"vehicle_type_id":"4","last_reported":1748718428,"current_range_meters":12800,"station_id":"st_cvj6r9ubvosntc0bgbag","pricing_plan_id":"cebpf4jnsgd1na2vs0mg"},{"bike_id":"0a8a3a8e-e790-4dd4-85b2-3292af590401","system_id":"levelo_inurba_marseille","lat":43.32365,"lon":5.38882,"is_reserved":false,"is_disabled":false,"rental_uris":{"android":"levelo://app?vid=0a8a3a8e-e790-4dd4-85b2-3292af590401","ios":"levelo://app?vid=0a8a3a8e-e790-4dd4-85b2-3292af590401"},"vehicle_type_id":"4","last_reported":1748718428,"current_range_meters":12800,"station_id":"ce4bhqp2rcd13ifvqhog","pricing_plan_id":"cebpf4jnsgd1na2vs0mg"},{"bike_id":"c924ea03-4ce9-4dbd-9009-317eec657797","system_id":"levelo_inurba_marseille","lat":43.29275,"lon":5.36842,"is_reserved":false,"is_disabled":false,"rental_uris":{"android":"levelo://app?vid=c924ea03-4ce9-4dbd-9009-317eec657797","ios":"levelo://app?vid=c924ea03-4ce9-4dbd-9009-317eec657797"},"vehicle_type_id":"4","last_reported":1748718428,"current_range_meters":12800,"station_id":"ce4bhbp2rcd13ifvqesg","pricing_plan_id":"cebpf4jnsgd1na2vs0mg"},{"bike_id":"472d2fd7-b3b2-4344-bb45-f256d4cc6bb7","system_id":"levelo_inurba_marseille","lat":43.265003,"lon":5.395376,"is_reserved":false,"is_disabled":false,"rental_uris":{"android":"levelo://app?vid=472d2fd7-b3b2-4344-bb45-f256d4cc6bb7","ios":"levelo://app?vid=472d2fd7-b3b2-4344-bb45-f256d4cc6bb7"},"vehicle_type_id":"4","last_reported":1748718428,"current_range_meters":12800,"station_id":"ce4bhi12rcd13ifvqfq0","pricing_plan_id":"cebpf4jnsgd1na2vs0mg"},{"bike_id":"69bef51a-2195-4a5b-be03-a5773a39ec7e","system_id":"levelo_inurba_marseille","lat":43.22984,"lon":5.35357,"is_reserved":false,"is_disabled":false,"rental_uris":{"android":"levelo://app?vid=69bef51a-2195-4a5b-be03-a5773a39ec7e","ios":"levelo://app?vid=69bef51a-2195-4a5b-be03-a5773a39ec7e"},"vehicle_type_id":"4","last_reported":1748718428,"current_range_meters":12800,"station_id":"cpo3532slgdg3j2ikp40","pricing_plan_id":"cebpf4jnsgd1na2vs0mg"},{"bike_id":"f54d1107-e273-4f88-9930-7ded5099e450","system_id":"levelo_inurba_marseille","lat":43.29308,"lon":5.37175,"is_reserved":false,"is_disabled":false,"rental_uris":{"android":"levelo://app?vid=f54d1107-e273-4f88-9930-7ded5099e450","ios":"levelo://app?vid=f54d1107-e273-4f88-9930-7ded5099e450"},"vehicle_type_id":"4","last_reported":1748718428,"current_range_meters":13600,"station_id":"ce4bgh92rcd13ifvqb40","pricing_plan_id":"cebpf4jnsgd1na2vs0mg"},{"bike_id":"f9b6111d-297f-42b0-b622-4a4d069f2689","system_id":"levelo_inurba_marseille","lat":43.29422,"lon":5.38628,"is_reserved":false,"is_disabled":false,"rental_uris":{"android":"levelo://app?vid=f9b6111d-297f-42b0-b622-4a4d069f2689","ios":"levelo://app?vid=f9b6111d-297f-42b0-b622-4a4d069f2689"},"vehicle_type_id":"4","last_reported":1748718428,"current_range_meters":13600,"station_id":"ce4bh2h2rcd13ifvqdh0","pricing_plan_id":"cebpf4jnsgd1na2vs0mg"},{"bike_id":"c213034b-f9a3-48e8-9a07-6d97a3c51b73","system_id":"levelo_inurba_marseille","lat":43.25117,"lon":5.40319,"is_reserved":false,"is_disabled":false,"rental_uris":{"android":"levelo://app?vid=c213034b-f9a3-48e8-9a07-6d97a3c51b73","ios":"levelo://app?vid=c213034b-f9a3-48e8-9a07-6d97a3c51b73"},"vehicle_type_id":"4","last_reported":1748718428,"current_range_meters":13600,"station_id":"ce4bhlh2rcd13ifvqgig","pricing_plan_id":"cebpf4jnsgd1na2vs0mg"},{"bike_id":"bac7235f-d44b-4e43-a3e5-710e5194bcdc","system_id":"levelo_inurba_marseille","lat":43.30602,"lon":5.39352,"is_reserved":false,"is_disabled":false,"rental_uris":{"android":"levelo://app?vid=bac7235f-d44b-4e43-a3e5-710e5194bcdc","ios":"levelo://app?vid=bac7235f-d44b-4e43-a3e5-710e5194bcdc"},"vehicle_type_id":"4","last_reported":1748718428,"current_range_meters":13600,"station_id":"ce4bh0p2rcd13ifvqd80","pricing_plan_id":"cebpf4jnsgd1na2vs0mg"},{"bike_id":"8af429e3-8c87-4410-a2c2-6fc666cd167e","system_id":"levelo_inurba_marseille","lat":43.29422,"lon":5.3863,"is_reserved":false,"is_disabled":false,"rental_uris":{"android":"levelo://app?vid=8af429e3-8c87-4410-a2c2-6fc666cd167e","ios":"levelo://app?vid=8af429e3-8c87-4410-a2c2-6fc666cd167e"},"vehicle_type_id":"4","last_reported":1748718428,"current_range_meters":13600,"station_id":"ce4bh2h2rcd13ifvqdh0","pricing_plan_id":"cebpf4jnsgd1na2vs0mg"},{"bike_id":"04d76e44-d08c-497e-ba5b-726166f787fe","system_id":"levelo_inurba_marseille","lat":43.29268,"lon":5.36849,"is_reserved":false,"is_disabled":false,"rental_uris":{"android":"levelo://app?vid=04d76e44-d08c-497e-ba5b-726166f787fe","ios":"levelo://app?vid=04d76e44-d08c-497e-ba5b-726166f787fe"},"vehicle_type_id":"4","last_reported":1748718428,"current_range_meters":13600,"station_id":"ce4bhbp2rcd13ifvqesg","pricing_plan_id":"cebpf4jnsgd1na2vs0mg"},{"bike_id":"1d898dc2-a740-498c-8066-2a48555fa7b8","system_id":"levelo_inurba_marseille","lat":43.28608,"lon":5.37066,"is_reserved":false,"is_disabled":false,"rental_uris":{"android":"levelo://app?vid=1d898dc2-a740-498c-8066-2a48555fa7b8","ios":"levelo://app?vid=1d898dc2-a740-498c-8066-2a48555fa7b8"},"vehicle_type_id":"4","last_reported":1748718428,"current_range_meters":13600,"station_id":"ce4bht12rcd13ifvqi60","pricing_plan_id":"cebpf4jnsgd1na2vs0mg"},{"bike_id":"46950156-2911-4ef2-8225-00a2c367410a","system_id":"levelo_inurba_marseille","lat":43.282623,"lon":5.350542,"is_reserved":false,"is_disabled":false,"rental_uris":{"android":"levelo://app?vid=46950156-2911-4ef2-8225-00a2c367410a","ios":"levelo://app?vid=46950156-2911-4ef2-8225-00a2c367410a"},"vehicle_type_id":"4","last_reported":1748718428,"current_range_meters":14000,"station_id":"ce4bhbp2rcd13ifvqerg","pricing_plan_id":"cebpf4jnsgd1na2vs0mg"},{"bike_id":"b451ed1e-9a4c-46a1-9a2c-bd388918fed7","system_id":"levelo_inurba_marseille","lat":43.23148,"lon":5.43722,"is_reserved":false,"is_disabled":false,"rental_uris":{"android":"levelo://app?vid=b451ed1e-9a4c-46a1-9a2c-bd388918fed7","ios":"levelo://app?vid=b451ed1e-9a4c-46a1-9a2c-bd388918fed7"},"vehicle_type_id":"4","last_reported":1748718428,"current_range_meters":14000,"station_id":"ce4bhmp2rcd13ifvqgog","pricing_plan_id":"cebpf4jnsgd1na2vs0mg"},{"bike_id":"adea266a-1798-4cf0-b023-54bff17111a1","system_id":"levelo_inurba_marseille","lat":43.292713,"lon":5.384268,"is_reserved":false,"is_disabled":false,"rental_uris":{"android":"levelo://app?vid=adea266a-1798-4cf0-b023-54bff17111a1","ios":"levelo://app?vid=adea266a-1798-4cf0-b023-54bff17111a1"},"vehicle_type_id":"4","last_reported":1748718428,"current_range_meters":14000,"station_id":"ce4bh692rcd13ifvqea0","pricing_plan_id":"cebpf4jnsgd1na2vs0mg"},{"bike_id":"1cb9f135-813b-40b6-9287-8af65f672368","system_id":"levelo_inurba_marseille","lat":43.29033,"lon":5.38646,"is_reserved":false,"is_disabled":false,"rental_uris":{"android":"levelo://app?vid=1cb9f135-813b-40b6-9287-8af65f672368","ios":"levelo://app?vid=1cb9f135-813b-40b6-9287-8af65f672368"},"vehicle_type_id":"4","last_reported":1748718428,"current_range_meters":14000,"station_id":"ce4bh4p2rcd13ifvqe0g","pricing_plan_id":"cebpf4jnsgd1na2vs0mg"},{"bike_id":"823a2611-9e4e-4938-83e1-63bacff8634d","system_id":"levelo_inurba_marseille","lat":43.314508,"lon":5.388245,"is_reserved":false,"is_disabled":false,"rental_uris":{"android":"levelo://app?vid=823a2611-9e4e-4938-83e1-63bacff8634d","ios":"levelo://app?vid=823a2611-9e4e-4938-83e1-63bacff8634d"},"vehicle_type_id":"4","last_reported":1748718428,"current_range_meters":14000,"station_id":"ce4bhqp2rcd13ifvqhog","pricing_plan_id":"cebpf4jnsgd1na2vs0mg"},{"bike_id":"5e442864-4d13-4fec-aa91-1a10b07f4d47","system_id":"levelo_inurba_marseille","lat":43.31915,"lon":5.44135,"is_reserved":false,"is_disabled":false,"rental_uris":{"android":"levelo://app?vid=5e442864-4d13-4fec-aa91-1a10b07f4d47","ios":"levelo://app?vid=5e442864-4d13-4fec-aa91-1a10b07f4d47"},"vehicle_type_id":"4","last_reported":1748718428,"current_range_meters":14000,"station_id":"","pricing_plan_id":"cebpf4jnsgd1na2vs0mg"},{"bike_id":"f35e87e7-d90b-4c25-a1d3-accd83e6690f","system_id":"levelo_inurba_marseille","lat":43.276111,"lon":5.36113,"is_reserved":false,"is_disabled":false,"rental_uris":{"android":"levelo://app?vid=f35e87e7-d90b-4c25-a1d3-accd83e6690f","ios":"levelo://app?vid=f35e87e7-d90b-4c25-a1d3-accd83e6690f"},"vehicle_type_id":"4","last_reported":1748718428,"current_range_meters":14000,"station_id":"","pricing_plan_id":"cebpf4jnsgd1na2vs0mg"},{"bike_id":"d3f3a0b6-5c84-491d-94db-4e192165f8cf","system_id":"levelo_inurba_marseille","lat":43.29034,"lon":5.37561,"is_reserved":false,"is_disabled":false,"rental_uris":{"android":"levelo://app?vid=d3f3a0b6-5c84-491d-94db-4e192165f8cf","ios":"levelo://app?vid=d3f3a0b6-5c84-491d-94db-4e192165f8cf"},"vehicle_type_id":"4","last_reported":1748718428,"current_range_meters":14000,"station_id":"ce4bh692rcd13ifvqe90","pricing_plan_id":"cebpf4jnsgd1na2vs0mg"},{"bike_id":"5542403e-a18a-4f92-9d8a-0a656fa37580","system_id":"levelo_inurba_marseille","lat":43.293041,"lon":5.374595,"is_reserved":false,"is_disabled":false,"rental_uris":{"android":"levelo://app?vid=5542403e-a18a-4f92-9d8a-0a656fa37580","ios":"levelo://app?vid=5542403e-a18a-4f92-9d8a-0a656fa37580"},"vehicle_type_id":"4","last_reported":1748718428,"current_range_meters":14000,"station_id":"ce4bgi12rcd13ifvqb70","pricing_plan_id":"cebpf4jnsgd1na2vs0mg"},{"bike_id":"4288e3ca-4482-4519-948e-f61b3bb514a2","system_id":"levelo_inurba_marseille","lat":43.26192,"lon":5.37449,"is_reserved":false,"is_disabled":false,"rental_uris":{"android":"levelo://app?vid=4288e3ca-4482-4519-948e-f61b3bb514a2","ios":"levelo://app?vid=4288e3ca-4482-4519-948e-f61b3bb514a2"},"vehicle_type_id":"4","last_reported":1748718428,"current_range_meters":14000,"station_id":"ce4bhgp2rcd13ifvqfc0","pricing_plan_id":"cebpf4jnsgd1na2vs0mg"},{"bike_id":"7f4a867f-3d78-4b9e-9602-1fb3d949c60b","system_id":"levelo_inurba_marseille","lat":43.29424,"lon":5.38607,"is_reserved":false,"is_disabled":false,"rental_uris":{"android":"levelo://app?vid=7f4a867f-3d78-4b9e-9602-1fb3d949c60b","ios":"levelo://app?vid=7f4a867f-3d78-4b9e-9602-1fb3d949c60b"},"vehicle_type_id":"4","last_reported":1748718428,"current_range_meters":14400,"station_id":"ce4bh2h2rcd13ifvqdh0","pricing_plan_id":"cebpf4jnsgd1na2vs0mg"},{"bike_id":"62b9fb40-b3b6-4001-a515-0c87ced39043","system_id":"levelo_inurba_marseille","lat":43.23959,"lon":5.36635,"is_reserved":false,"is_disabled":true,"rental_uris":{"android":"levelo://app?vid=62b9fb40-b3b6-4001-a515-0c87ced39043","ios":"levelo://app?vid=62b9fb40-b3b6-4001-a515-0c87ced39043"},"vehicle_type_id":"4","last_reported":1748718428,"current_range_meters":14400,"station_id":"ce4bhi12rcd13ifvqfp0","pricing_plan_id":"cebpf4jnsgd1na2vs0mg"},{"bike_id":"ff941e69-8cee-4130-9154-37ec9c999c26","system_id":"levelo_inurba_marseille","lat":43.282265,"lon":5.3907,"is_reserved":false,"is_disabled":false,"rental_uris":{"android":"levelo://app?vid=ff941e69-8cee-4130-9154-37ec9c999c26","ios":"levelo://app?vid=ff941e69-8cee-4130-9154-37ec9c999c26"},"vehicle_type_id":"4","last_reported":1748718428,"current_range_meters":14400,"station_id":"ce4bhh92rcd13ifvqfh0","pricing_plan_id":"cebpf4jnsgd1na2vs0mg"},{"bike_id":"fbdff89c-6eb2-4bb4-adff-92e23d969f91","system_id":"levelo_inurba_marseille","lat":43.29045,"lon":5.38659,"is_reserved":false,"is_disabled":false,"rental_uris":{"android":"levelo://app?vid=fbdff89c-6eb2-4bb4-adff-92e23d969f91","ios":"levelo://app?vid=fbdff89c-6eb2-4bb4-adff-92e23d969f91"},"vehicle_type_id":"4","last_reported":1748718428,"current_range_meters":14400,"station_id":"ce4bh4p2rcd13ifvqe0g","pricing_plan_id":"cebpf4jnsgd1na2vs0mg"},{"bike_id":"e210be7e-07b8-44d3-ae09-6702f28e2ae8","system_id":"levelo_inurba_marseille","lat":43.25129,"lon":5.39341,"is_reserved":false,"is_disabled":false,"rental_uris":{"android":"levelo://app?vid=e210be7e-07b8-44d3-ae09-6702f28e2ae8","ios":"levelo://app?vid=e210be7e-07b8-44d3-ae09-6702f28e2ae8"},"vehicle_type_id":"4","last_reported":1748718428,"current_range_meters":14400,"station_id":"","pricing_plan_id":"cebpf4jnsgd1na2vs0mg"},{"bike_id":"792b8862-e581-44be-8ddc-645d1733b829","system_id":"levelo_inurba_marseille","lat":43.28621,"lon":5.37063,"is_reserved":false,"is_disabled":false,"rental_uris":{"android":"levelo://app?vid=792b8862-e581-44be-8ddc-645d1733b829","ios":"levelo://app?vid=792b8862-e581-44be-8ddc-645d1733b829"},"vehicle_type_id":"4","last_reported":1748718428,"current_range_meters":14400,"station_id":"ce4bht12rcd13ifvqi60","pricing_plan_id":"cebpf4jnsgd1na2vs0mg"},{"bike_id":"435f712e-8e5b-494a-9ab4-36835f10e96d","system_id":"levelo_inurba_marseille","lat":43.29414,"lon":5.3863,"is_reserved":false,"is_disabled":false,"rental_uris":{"android":"levelo://app?vid=435f712e-8e5b-494a-9ab4-36835f10e96d","ios":"levelo://app?vid=435f712e-8e5b-494a-9ab4-36835f10e96d"},"vehicle_type_id":"4","last_reported":1748718428,"current_range_meters":14400,"station_id":"ce4bh2h2rcd13ifvqdh0","pricing_plan_id":"cebpf4jnsgd1na2vs0mg"},{"bike_id":"0a9b504a-5f98-4ecf-a12f-1fcda659d650","system_id":"levelo_inurba_marseille","lat":43.26194,"lon":5.37456,"is_reserved":false,"is_disabled":false,"rental_uris":{"android":"levelo://app?vid=0a9b504a-5f98-4ecf-a12f-1fcda659d650","ios":"levelo://app?vid=0a9b504a-5f98-4ecf-a12f-1fcda659d650"},"vehicle_type_id":"4","last_reported":1748718428,"current_range_meters":14400,"station_id":"ce4bhgp2rcd13ifvqfc0","pricing_plan_id":"cebpf4jnsgd1na2vs0mg"},{"bike_id":"82521507-d8b0-4207-9cf5-7103bde79ed7","system_id":"levelo_inurba_marseille","lat":43.24553,"lon":5.39528,"is_reserved":false,"is_disabled":false,"rental_uris":{"android":"levelo://app?vid=82521507-d8b0-4207-9cf5-7103bde79ed7","ios":"levelo://app?vid=82521507-d8b0-4207-9cf5-7103bde79ed7"},"vehicle_type_id":"4","last_reported":1748718428,"current_range_meters":14400,"station_id":"ce4bhlp2rcd13ifvqgjg","pricing_plan_id":"cebpf4jnsgd1na2vs0mg"},{"bike_id":"4634b1a0-27fb-4f28-89df-b2b50c9cbade","system_id":"levelo_inurba_marseille","lat":43.28604,"lon":5.37064,"is_reserved":false,"is_disabled":false,"rental_uris":{"android":"levelo://app?vid=4634b1a0-27fb-4f28-89df-b2b50c9cbade","ios":"levelo://app?vid=4634b1a0-27fb-4f28-89df-b2b50c9cbade"},"vehicle_type_id":"4","last_reported":1748718428,"current_range_meters":14800,"station_id":"ce4bht12rcd13ifvqi60","pricing_plan_id":"cebpf4jnsgd1na2vs0mg"},{"bike_id":"d95a8927-9413-4ee6-b8dd-9b96d5af8d5e","system_id":"levelo_inurba_marseille","lat":43.28354,"lon":5.35025,"is_reserved":false,"is_disabled":false,"rental_uris":{"android":"levelo://app?vid=d95a8927-9413-4ee6-b8dd-9b96d5af8d5e","ios":"levelo://app?vid=d95a8927-9413-4ee6-b8dd-9b96d5af8d5e"},"vehicle_type_id":"4","last_reported":1748718428,"current_range_meters":14800,"station_id":"","pricing_plan_id":"cebpf4jnsgd1na2vs0mg"},{"bike_id":"9a189ee8-27ed-444b-b171-f705371af28f","system_id":"levelo_inurba_marseille","lat":43.28255,"lon":5.34897,"is_reserved":false,"is_disabled":false,"rental_uris":{"android":"levelo://app?vid=9a189ee8-27ed-444b-b171-f705371af28f","ios":"levelo://app?vid=9a189ee8-27ed-444b-b171-f705371af28f"},"vehicle_type_id":"4","last_reported":1748718428,"current_range_meters":15200,"station_id":"","pricing_plan_id":"cebpf4jnsgd1na2vs0mg"},{"bike_id":"ae3155dd-6b02-4a17-9583-86b8ffb8a8ed","system_id":"levelo_inurba_marseille","lat":43.29312,"lon":5.37175,"is_reserved":false,"is_disabled":false,"rental_uris":{"android":"levelo://app?vid=ae3155dd-6b02-4a17-9583-86b8ffb8a8ed","ios":"levelo://app?vid=ae3155dd-6b02-4a17-9583-86b8ffb8a8ed"},"vehicle_type_id":"4","last_reported":1748718428,"current_range_meters":15200,"station_id":"ce4bgh92rcd13ifvqb40","pricing_plan_id":"cebpf4jnsgd1na2vs0mg"},{"bike_id":"be234a0f-15c6-48f7-93ea-3f7971a622f2","system_id":"levelo_inurba_marseille","lat":43.30252,"lon":5.40056,"is_reserved":false,"is_disabled":false,"rental_uris":{"android":"levelo://app?vid=be234a0f-15c6-48f7-93ea-3f7971a622f2","ios":"levelo://app?vid=be234a0f-15c6-48f7-93ea-3f7971a622f2"},"vehicle_type_id":"4","last_reported":1748718428,"current_range_meters":15200,"station_id":"ce4bgvh2rcd13ifvqcs0","pricing_plan_id":"cebpf4jnsgd1na2vs0mg"},{"bike_id":"5344a6f7-f2b1-43fb-956c-32a014cd9682","system_id":"levelo_inurba_marseille","lat":43.2941,"lon":5.38611,"is_reserved":false,"is_disabled":true,"rental_uris":{"android":"levelo://app?vid=5344a6f7-f2b1-43fb-956c-32a014cd9682","ios":"levelo://app?vid=5344a6f7-f2b1-43fb-956c-32a014cd9682"},"vehicle_type_id":"4","last_reported":1748718428,"current_range_meters":15200,"station_id":"ce4bh2h2rcd13ifvqdh0","pricing_plan_id":"cebpf4jnsgd1na2vs0mg"},{"bike_id":"963d29eb-d822-4ec7-9b1e-98b225a7b066","system_id":"levelo_inurba_marseille","lat":43.28975,"lon":5.37846,"is_reserved":false,"is_disabled":false,"rental_uris":{"android":"levelo://app?vid=963d29eb-d822-4ec7-9b1e-98b225a7b066","ios":"levelo://app?vid=963d29eb-d822-4ec7-9b1e-98b225a7b066"},"vehicle_type_id":"4","last_reported":1748718428,"current_range_meters":15200,"station_id":"ce4bh9p2rcd13ifvqed0","pricing_plan_id":"cebpf4jnsgd1na2vs0mg"},{"bike_id":"32503fa7-7208-4269-b40f-34ba3dae0f9e","system_id":"levelo_inurba_marseille","lat":43.308629,"lon":5.403699,"is_reserved":false,"is_disabled":false,"rental_uris":{"android":"levelo://app?vid=32503fa7-7208-4269-b40f-34ba3dae0f9e","ios":"levelo://app?vid=32503fa7-7208-4269-b40f-34ba3dae0f9e"},"vehicle_type_id":"4","last_reported":1748718428,"current_range_meters":16000,"station_id":"","pricing_plan_id":"cebpf4jnsgd1na2vs0mg"},{"bike_id":"468f9e4f-beb3-4071-8c5c-51e1df27df6c","system_id":"levelo_inurba_marseille","lat":43.28679,"lon":5.38674,"is_reserved":false,"is_disabled":false,"rental_uris":{"android":"levelo://app?vid=468f9e4f-beb3-4071-8c5c-51e1df27df6c","ios":"levelo://app?vid=468f9e4f-beb3-4071-8c5c-51e1df27df6c"},"vehicle_type_id":"4","last_reported":1748718428,"current_range_meters":16000,"station_id":"ce4bh492rcd13ifvqdug","pricing_plan_id":"cebpf4jnsgd1na2vs0mg"},{"bike_id":"e74ebf15-3f21-436b-8539-5c3607ed04fb","system_id":"levelo_inurba_marseille","lat":43.29266,"lon":5.38436,"is_reserved":false,"is_disabled":false,"rental_uris":{"android":"levelo://app?vid=e74ebf15-3f21-436b-8539-5c3607ed04fb","ios":"levelo://app?vid=e74ebf15-3f21-436b-8539-5c3607ed04fb"},"vehicle_type_id":"4","last_reported":1748718428,"current_range_meters":16000,"station_id":"ce4bh692rcd13ifvqea0","pricing_plan_id":"cebpf4jnsgd1na2vs0mg"},{"bike_id":"dd4dc5bb-4c97-472a-82f8-3947b3d67433","system_id":"levelo_inurba_marseille","lat":43.30328,"lon":5.36899,"is_reserved":false,"is_disabled":false,"rental_uris":{"android":"levelo://app?vid=dd4dc5bb-4c97-472a-82f8-3947b3d67433","ios":"levelo://app?vid=dd4dc5bb-4c97-472a-82f8-3947b3d67433"},"vehicle_type_id":"4","last_reported":1748718428,"current_range_meters":16000,"station_id":"ce4bgqh2rcd13ifvqc5g","pricing_plan_id":"cebpf4jnsgd1na2vs0mg"},{"bike_id":"d0adb92a-e89a-46d9-831f-e62500290c27","system_id":"levelo_inurba_marseille","lat":43.3153,"lon":5.38035,"is_reserved":false,"is_disabled":false,"rental_uris":{"android":"levelo://app?vid=d0adb92a-e89a-46d9-831f-e62500290c27","ios":"levelo://app?vid=d0adb92a-e89a-46d9-831f-e62500290c27"},"vehicle_type_id":"4","last_reported":1748718428,"current_range_meters":16000,"station_id":"ce4bhsp2rcd13ifvqi50","pricing_plan_id":"cebpf4jnsgd1na2vs0mg"},{"bike_id":"e415559f-79e9-475e-a4a0-ac33212dbf2d","system_id":"levelo_inurba_marseille","lat":43.26792,"lon":5.39415,"is_reserved":false,"is_disabled":false,"rental_uris":{"android":"levelo://app?vid=e415559f-79e9-475e-a4a0-ac33212dbf2d","ios":"levelo://app?vid=e415559f-79e9-475e-a4a0-ac33212dbf2d"},"vehicle_type_id":"4","last_reported":1748718428,"current_range_meters":16000,"station_id":"ce4bhh12rcd13ifvqfg0","pricing_plan_id":"cebpf4jnsgd1na2vs0mg"},{"bike_id":"19ace3e6-e869-4cc6-aa94-422cd748ad42","system_id":"levelo_inurba_marseille","lat":43.29889,"lon":5.3891,"is_reserved":false,"is_disabled":false,"rental_uris":{"android":"levelo://app?vid=19ace3e6-e869-4cc6-aa94-422cd748ad42","ios":"levelo://app?vid=19ace3e6-e869-4cc6-aa94-422cd748ad42"},"vehicle_type_id":"4","last_reported":1748718428,"current_range_meters":16000,"station_id":"ce4bh392rcd13ifvqdl0","pricing_plan_id":"cebpf4jnsgd1na2vs0mg"},{"bike_id":"8672d1d1-8bac-4f2a-9617-2a7643cc3a5c","system_id":"levelo_inurba_marseille","lat":43.29034,"lon":5.38635,"is_reserved":false,"is_disabled":false,"rental_uris":{"android":"levelo://app?vid=8672d1d1-8bac-4f2a-9617-2a7643cc3a5c","ios":"levelo://app?vid=8672d1d1-8bac-4f2a-9617-2a7643cc3a5c"},"vehicle_type_id":"4","last_reported":1748718428,"current_range_meters":16000,"station_id":"ce4bh4p2rcd13ifvqe0g","pricing_plan_id":"cebpf4jnsgd1na2vs0mg"},{"bike_id":"4501ed9c-aff3-48ba-8f2e-a075a0f013ef","system_id":"levelo_inurba_marseille","lat":43.26685,"lon":5.38267,"is_reserved":false,"is_disabled":false,"rental_uris":{"android":"levelo://app?vid=4501ed9c-aff3-48ba-8f2e-a075a0f013ef","ios":"levelo://app?vid=4501ed9c-aff3-48ba-8f2e-a075a0f013ef"},"vehicle_type_id":"4","last_reported":1748718428,"current_range_meters":16000,"station_id":"ce4bhg92rcd13ifvqf90","pricing_plan_id":"cebpf4jnsgd1na2vs0mg"},{"bike_id":"46e9e1e7-2fa7-40d1-a64b-c59e31c5c036","system_id":"levelo_inurba_marseille","lat":43.29264,"lon":5.38438,"is_reserved":false,"is_disabled":false,"rental_uris":{"android":"levelo://app?vid=46e9e1e7-2fa7-40d1-a64b-c59e31c5c036","ios":"levelo://app?vid=46e9e1e7-2fa7-40d1-a64b-c59e31c5c036"},"vehicle_type_id":"4","last_reported":1748718428,"current_range_meters":16000,"station_id":"ce4bh692rcd13ifvqea0","pricing_plan_id":"cebpf4jnsgd1na2vs0mg"},{"bike_id":"19acb86c-d41f-4c99-95c0-a1f69c0413f6","system_id":"levelo_inurba_marseille","lat":43.25144,"lon":5.40325,"is_reserved":false,"is_disabled":false,"rental_uris":{"android":"levelo://app?vid=19acb86c-d41f-4c99-95c0-a1f69c0413f6","ios":"levelo://app?vid=19acb86c-d41f-4c99-95c0-a1f69c0413f6"},"vehicle_type_id":"4","last_reported":1748718428,"current_range_meters":16000,"station_id":"ce4bhlh2rcd13ifvqgig","pricing_plan_id":"cebpf4jnsgd1na2vs0mg"},{"bike_id":"6cccbaeb-2c1e-4759-aca3-f2dd368559e3","system_id":"levelo_inurba_marseille","lat":43.29549,"lon":5.37489,"is_reserved":false,"is_disabled":false,"rental_uris":{"android":"levelo://app?vid=6cccbaeb-2c1e-4759-aca3-f2dd368559e3","ios":"levelo://app?vid=6cccbaeb-2c1e-4759-aca3-f2dd368559e3"},"vehicle_type_id":"4","last_reported":1748718428,"current_range_meters":16000,"station_id":"ce4bgkp2rcd13ifvqbmg","pricing_plan_id":"cebpf4jnsgd1na2vs0mg"},{"bike_id":"f5a90625-b7e8-48a8-90c6-777efe255a32","system_id":"levelo_inurba_marseille","lat":43.25105,"lon":5.40977,"is_reserved":false,"is_disabled":false,"rental_uris":{"android":"levelo://app?vid=f5a90625-b7e8-48a8-90c6-777efe255a32","ios":"levelo://app?vid=f5a90625-b7e8-48a8-90c6-777efe255a32"},"vehicle_type_id":"4","last_reported":1748718428,"current_range_meters":16400,"station_id":"","pricing_plan_id":"cebpf4jnsgd1na2vs0mg"},{"bike_id":"04520571-e8fa-4d12-9462-78bd6c1eff07","system_id":"levelo_inurba_marseille","lat":43.29571,"lon":5.39979,"is_reserved":false,"is_disabled":false,"rental_uris":{"android":"levelo://app?vid=04520571-e8fa-4d12-9462-78bd6c1eff07","ios":"levelo://app?vid=04520571-e8fa-4d12-9462-78bd6c1eff07"},"vehicle_type_id":"4","last_reported":1748718428,"current_range_meters":16400,"station_id":"ce4bh312rcd13ifvqdj0","pricing_plan_id":"cebpf4jnsgd1na2vs0mg"},{"bike_id":"9fb00861-544e-4e9c-bcb5-de1088713eeb","system_id":"levelo_inurba_marseille","lat":43.299164,"lon":5.375314,"is_reserved":false,"is_disabled":false,"rental_uris":{"android":"levelo://app?vid=9fb00861-544e-4e9c-bcb5-de1088713eeb","ios":"levelo://app?vid=9fb00861-544e-4e9c-bcb5-de1088713eeb"},"vehicle_type_id":"4","last_reported":1748718428,"current_range_meters":16400,"station_id":"ce4bgjh2rcd13ifvqbg0","pricing_plan_id":"cebpf4jnsgd1na2vs0mg"},{"bike_id":"68894236-7bd9-4073-91e1-152beaa06d42","system_id":"levelo_inurba_marseille","lat":43.29266,"lon":5.38436,"is_reserved":false,"is_disabled":false,"rental_uris":{"android":"levelo://app?vid=68894236-7bd9-4073-91e1-152beaa06d42","ios":"levelo://app?vid=68894236-7bd9-4073-91e1-152beaa06d42"},"vehicle_type_id":"4","last_reported":1748718428,"current_range_meters":16400,"station_id":"ce4bh692rcd13ifvqea0","pricing_plan_id":"cebpf4jnsgd1na2vs0mg"},{"bike_id":"2914b3fa-2c94-4229-96a8-a2315fb10d95","system_id":"levelo_inurba_marseille","lat":43.29315,"lon":5.37176,"is_reserved":false,"is_disabled":false,"rental_uris":{"android":"levelo://app?vid=2914b3fa-2c94-4229-96a8-a2315fb10d95","ios":"levelo://app?vid=2914b3fa-2c94-4229-96a8-a2315fb10d95"},"vehicle_type_id":"4","last_reported":1748718428,"current_range_meters":16400,"station_id":"ce4bgh92rcd13ifvqb40","pricing_plan_id":"cebpf4jnsgd1na2vs0mg"},{"bike_id":"521b0a7f-a35b-4001-a7ae-ec459254d412","system_id":"levelo_inurba_marseille","lat":43.31326,"lon":5.39691,"is_reserved":false,"is_disabled":false,"rental_uris":{"android":"levelo://app?vid=521b0a7f-a35b-4001-a7ae-ec459254d412","ios":"levelo://app?vid=521b0a7f-a35b-4001-a7ae-ec459254d412"},"vehicle_type_id":"4","last_reported":1748718428,"current_range_meters":16400,"station_id":"ce4bgvp2rcd13ifvqcu0","pricing_plan_id":"cebpf4jnsgd1na2vs0mg"},{"bike_id":"e5125a75-6225-4186-b496-b2776e97957c","system_id":"levelo_inurba_marseille","lat":43.29265,"lon":5.3845,"is_reserved":false,"is_disabled":false,"rental_uris":{"android":"levelo://app?vid=e5125a75-6225-4186-b496-b2776e97957c","ios":"levelo://app?vid=e5125a75-6225-4186-b496-b2776e97957c"},"vehicle_type_id":"4","last_reported":1748718428,"current_range_meters":16400,"station_id":"ce4bh692rcd13ifvqea0","pricing_plan_id":"cebpf4jnsgd1na2vs0mg"},{"bike_id":"76f771a0-d27e-462d-a1fe-7bd311768559","system_id":"levelo_inurba_marseille","lat":43.28423,"lon":5.34992,"is_reserved":false,"is_disabled":true,"rental_uris":{"android":"levelo://app?vid=76f771a0-d27e-462d-a1fe-7bd311768559","ios":"levelo://app?vid=76f771a0-d27e-462d-a1fe-7bd311768559"},"vehicle_type_id":"4","last_reported":1748718428,"current_range_meters":16400,"station_id":"ce4bhbh2rcd13ifvqepg","pricing_plan_id":"cebpf4jnsgd1na2vs0mg"},{"bike_id":"bfc6dce9-77ca-4235-96b6-63b5fbc4d6e2","system_id":"levelo_inurba_marseille","lat":43.336663,"lon":5.38574,"is_reserved":false,"is_disabled":false,"rental_uris":{"android":"levelo://app?vid=bfc6dce9-77ca-4235-96b6-63b5fbc4d6e2","ios":"levelo://app?vid=bfc6dce9-77ca-4235-96b6-63b5fbc4d6e2"},"vehicle_type_id":"4","last_reported":1748718428,"current_range_meters":16800,"station_id":"","pricing_plan_id":"cebpf4jnsgd1na2vs0mg"},{"bike_id":"63b6aa33-651a-404a-a312-1e118682d790","system_id":"levelo_inurba_marseille","lat":43.2917,"lon":5.37159,"is_reserved":false,"is_disabled":false,"rental_uris":{"android":"levelo://app?vid=63b6aa33-651a-404a-a312-1e118682d790","ios":"levelo://app?vid=63b6aa33-651a-404a-a312-1e118682d790"},"vehicle_type_id":"4","last_reported":1748718428,"current_range_meters":16800,"station_id":"ce4bha92rcd13ifvqeh0","pricing_plan_id":"cebpf4jnsgd1na2vs0mg"},{"bike_id":"77520d45-03bf-4b26-9f9b-8ac6c162ce6b","system_id":"levelo_inurba_marseille","lat":43.24367,"lon":5.411654,"is_reserved":false,"is_disabled":false,"rental_uris":{"android":"levelo://app?vid=77520d45-03bf-4b26-9f9b-8ac6c162ce6b","ios":"levelo://app?vid=77520d45-03bf-4b26-9f9b-8ac6c162ce6b"},"vehicle_type_id":"4","last_reported":1748718428,"current_range_meters":16800,"station_id":"","pricing_plan_id":"cebpf4jnsgd1na2vs0mg"},{"bike_id":"e55d85af-ae47-4eeb-b197-d8c65f415032","system_id":"levelo_inurba_marseille","lat":43.29549,"lon":5.38538,"is_reserved":false,"is_disabled":false,"rental_uris":{"android":"levelo://app?vid=e55d85af-ae47-4eeb-b197-d8c65f415032","ios":"levelo://app?vid=e55d85af-ae47-4eeb-b197-d8c65f415032"},"vehicle_type_id":"4","last_reported":1748718428,"current_range_meters":16800,"station_id":"ce4bgih2rcd13ifvqba0","pricing_plan_id":"cebpf4jnsgd1na2vs0mg"},{"bike_id":"db879adc-4363-4dcf-b0dd-f613d1da791a","system_id":"levelo_inurba_marseille","lat":43.2861,"lon":5.37065,"is_reserved":false,"is_disabled":false,"rental_uris":{"android":"levelo://app?vid=db879adc-4363-4dcf-b0dd-f613d1da791a","ios":"levelo://app?vid=db879adc-4363-4dcf-b0dd-f613d1da791a"},"vehicle_type_id":"4","last_reported":1748718428,"current_range_meters":16800,"station_id":"ce4bht12rcd13ifvqi60","pricing_plan_id":"cebpf4jnsgd1na2vs0mg"},{"bike_id":"52138315-f13b-4871-ab78-9e5155a1008c","system_id":"levelo_inurba_marseille","lat":43.32277,"lon":5.38268,"is_reserved":false,"is_disabled":false,"rental_uris":{"android":"levelo://app?vid=52138315-f13b-4871-ab78-9e5155a1008c","ios":"levelo://app?vid=52138315-f13b-4871-ab78-9e5155a1008c"},"vehicle_type_id":"4","last_reported":1748718428,"current_range_meters":16800,"station_id":"ce4bhr12rcd13ifvqhqg","pricing_plan_id":"cebpf4jnsgd1na2vs0mg"},{"bike_id":"5f17820e-1c5a-4614-b58a-6f8b9a92a842","system_id":"levelo_inurba_marseille","lat":43.31366,"lon":5.38492,"is_reserved":false,"is_disabled":false,"rental_uris":{"android":"levelo://app?vid=5f17820e-1c5a-4614-b58a-6f8b9a92a842","ios":"levelo://app?vid=5f17820e-1c5a-4614-b58a-6f8b9a92a842"},"vehicle_type_id":"4","last_reported":1748718428,"current_range_meters":16800,"station_id":"ce4bgt92rcd13ifvqcf0","pricing_plan_id":"cebpf4jnsgd1na2vs0mg"},{"bike_id":"2689eeec-9534-4eeb-a892-1266a671c7a0","system_id":"levelo_inurba_marseille","lat":43.26567,"lon":5.372817,"is_reserved":false,"is_disabled":false,"rental_uris":{"android":"levelo://app?vid=2689eeec-9534-4eeb-a892-1266a671c7a0","ios":"levelo://app?vid=2689eeec-9534-4eeb-a892-1266a671c7a0"},"vehicle_type_id":"4","last_reported":1748718428,"current_range_meters":16800,"station_id":"ce4bhg12rcd13ifvqf70","pricing_plan_id":"cebpf4jnsgd1na2vs0mg"},{"bike_id":"d787cfdb-50c2-451d-8448-0eff07939f1e","system_id":"levelo_inurba_marseille","lat":43.23117,"lon":5.43703,"is_reserved":false,"is_disabled":true,"rental_uris":{"android":"levelo://app?vid=d787cfdb-50c2-451d-8448-0eff07939f1e","ios":"levelo://app?vid=d787cfdb-50c2-451d-8448-0eff07939f1e"},"vehicle_type_id":"4","last_reported":1748718428,"current_range_meters":17200,"station_id":"ce4bhmp2rcd13ifvqgog","pricing_plan_id":"cebpf4jnsgd1na2vs0mg"},{"bike_id":"2d0bdb08-2477-400c-89b6-3ed8aea96045","system_id":"levelo_inurba_marseille","lat":43.30956,"lon":5.3903,"is_reserved":false,"is_disabled":false,"rental_uris":{"android":"levelo://app?vid=2d0bdb08-2477-400c-89b6-3ed8aea96045","ios":"levelo://app?vid=2d0bdb08-2477-400c-89b6-3ed8aea96045"},"vehicle_type_id":"4","last_reported":1748718428,"current_range_meters":17200,"station_id":"ce4bgup2rcd13ifvqco0","pricing_plan_id":"cebpf4jnsgd1na2vs0mg"},{"bike_id":"572ca9ea-62ad-4979-8159-25e0c87fae3c","system_id":"levelo_inurba_marseille","lat":43.27578,"lon":5.37781,"is_reserved":false,"is_disabled":false,"rental_uris":{"android":"levelo://app?vid=572ca9ea-62ad-4979-8159-25e0c87fae3c","ios":"levelo://app?vid=572ca9ea-62ad-4979-8159-25e0c87fae3c"},"vehicle_type_id":"4","last_reported":1748718428,"current_range_meters":17200,"station_id":"","pricing_plan_id":"cebpf4jnsgd1na2vs0mg"},{"bike_id":"5235f953-dd85-4cff-a974-1bb0a1f88a2d","system_id":"levelo_inurba_marseille","lat":43.2927,"lon":5.38425,"is_reserved":false,"is_disabled":false,"rental_uris":{"android":"levelo://app?vid=5235f953-dd85-4cff-a974-1bb0a1f88a2d","ios":"levelo://app?vid=5235f953-dd85-4cff-a974-1bb0a1f88a2d"},"vehicle_type_id":"4","last_reported":1748718428,"current_range_meters":17200,"station_id":"ce4bh692rcd13ifvqea0","pricing_plan_id":"cebpf4jnsgd1na2vs0mg"},{"bike_id":"78d2b072-f536-41dc-aa30-e7b3b76b3515","system_id":"levelo_inurba_marseille","lat":43.30596,"lon":5.37232,"is_reserved":false,"is_disabled":false,"rental_uris":{"android":"levelo://app?vid=78d2b072-f536-41dc-aa30-e7b3b76b3515","ios":"levelo://app?vid=78d2b072-f536-41dc-aa30-e7b3b76b3515"},"vehicle_type_id":"4","last_reported":1748718428,"current_range_meters":17200,"station_id":"ce4bgqh2rcd13ifvqc4g","pricing_plan_id":"cebpf4jnsgd1na2vs0mg"},