{"last_updated":1731121942,"ttl":60,"version":"2.2","data":{"bikes":[{"bike_id":"059dfedc-a94c-409c-b213-35a738d8da32","system_id":"levelo_inurba_marseille","lat":43.2991,"lon":5.37478,"is_reserved":false,"is_disabled":false,"rental_uris":{"android":"levelo://app?vid=059dfedc-a94c-409c-b213-35a738d8da32","ios":"levelo://app?vid=059dfedc-a94c-409c-b213-35a738d8da32"},"vehicle_type_id":"4","last_reported":1731121942,"current_range_meters":38400,"station_id":"ce4bgjh2rcd13ifvqbg0","pricing_plan_id":"cebpf4jnsgd1na2vs0mg"},{"bike_id":"f2daddec-00b3-40b4-82ae-7193824f2492","system_id":"levelo_inurba_marseille","lat":43.30421,"lon":5.39752,"is_reserved":false,"is_disabled":false,"rental_uris":{"android":"levelo://app?vid=f2daddec-00b3-40b4-82ae-7193824f2492","ios":"levelo://app?vid=f2daddec-00b3-40b4-82ae-7193824f2492"},"vehicle_type_id":"4","last_reported":1731121942,"current_range_meters":29600,"station_id":"ce4bh092rcd13ifvqd20","pricing_plan_id":"cebpf4jnsgd1na2vs0mg"},{"bike_id":"37b18ebd-4aa0-4ca2-bfbb-ac9479701cc7","system_id":"levelo_inurba_marseille","lat":43.28074,"lon":5.39651,"is_reserved":false,"is_disabled":false,"rental_uris":{"android":"levelo://app?vid=37b18ebd-4aa0-4ca2-bfbb-ac9479701cc7","ios":"levelo://app?vid=37b18ebd-4aa0-4ca2-bfbb-ac9479701cc7"},"vehicle_type_id":"4","last_reported":1731121942,"current_range_meters":39200,"station_id":"ce4bho12rcd13ifvqh2g","pricing_plan_id":"cebpf4jnsgd1na2vs0mg"},{"bike_id":"6e9bc842-52b3-4518-a547-c69960136416","system_id":"levelo_inurba_marseille","lat":43.29931,"lon":5.36531,"is_reserved":false,"is_disabled":false,"rental_uris":{"android":"levelo://app?vid=6e9bc842-52b3-4518-a547-c69960136416","ios":"levelo://app?vid=6e9bc842-52b3-4518-a547-c69960136416"},"vehicle_type_id":"4","last_reported":1731121942,"current_range_meters":21600,"station_id":"ce4bhoh2rcd13ifvqh5g","pricing_plan_id":"cebpf4jnsgd1na2vs0mg"},{"bike_id":"89b8a685-fac9-450e-a70e-342515d21cbe","system_id":"levelo_inurba_marseille","lat":43.27635,"lon":5.42642,"is_reserved":false,"is_disabled":false,"rental_uris":{"android":"levelo://app?vid=89b8a685-fac9-450e-a70e-342515d21cbe","ios":"levelo://app?vid=89b8a685-fac9-450e-a70e-342515d21cbe"},"vehicle_type_id":"4","last_reported":1731121942,"current_range_meters":9600,"station_id":"","pricing_plan_id":"cebpf4jnsgd1na2vs0mg"},{"bike_id":"06bb3e06-6dfc-4c7a-bbfb-aaacb082969f","system_id":"levelo_inurba_marseille","lat":43.25107,"lon":5.40333,"is_reserved":false,"is_disabled":false,"rental_uris":{"android":"levelo://app?vid=06bb3e06-6dfc-4c7a-bbfb-aaacb082969f","ios":"levelo://app?vid=06bb3e06-6dfc-4c7a-bbfb-aaacb082969f"},"vehicle_type_id":"4","last_reported":1731121942,"current_range_meters":36000,"station_id":"ce4bhlh2rcd13ifvqgig","pricing_plan_id":"cebpf4jnsgd1na2vs0mg"},{"bike_id":"68bb9078-c705-4e4c-81de-7ae7c7d86c43","system_id":"levelo_inurba_marseille","lat":43.31686,"lon":5.37825,"is_reserved":false,"is_disabled":false,"rental_uris":{"android":"levelo://app?vid=68bb9078-c705-4e4c-81de-7ae7c7d86c43","ios":"levelo://app?vid=68bb9078-c705-4e4c-81de-7ae7c7d86c43"},"vehicle_type_id":"4","last_reported":1731121942,"current_range_meters":30800,"station_id":"ce4bgth2rcd13ifvqch0","pricing_plan_id":"cebpf4jnsgd1na2vs0mg"},{"bike_id":"5c3f0ab4-03c5-44aa-aa38-19366cca3227","system_id":"levelo_inurba_marseille","lat":43.288543,"lon":5.393,"is_reserved":false,"is_disabled":false,"rental_uris":{"android":"levelo://app?vid=5c3f0ab4-03c5-44aa-aa38-19366cca3227","ios":"levelo://app?vid=5c3f0ab4-03c5-44aa-aa38-19366cca3227"},"vehicle_type_id":"4","last_reported":1731121942,"current_range_meters":29600,"station_id":"ce4bh2p2rcd13ifvqdi0","pricing_plan_id":"cebpf4jnsgd1na2vs0mg"},{"bike_id":"0ff4e3e5-5144-4fdb-9afd-d988e88ae58e","system_id":"levelo_inurba_marseille","lat":43.337444,"lon":5.374475,"is_reserved":false,"is_disabled":false,"rental_uris":{"android":"levelo://app?vid=0ff4e3e5-5144-4fdb-9afd-d988e88ae58e","ios":"levelo://app?vid=0ff4e3e5-5144-4fdb-9afd-d988e88ae58e"},"vehicle_type_id":"4","last_reported":1731121942,"current_range_meters":18800,"station_id":"","pricing_plan_id":"cebpf4jnsgd1na2vs0mg"},{"bike_id":"f71092d4-38f3-4962-831d-db8d47051567","system_id":"levelo_inurba_marseille","lat":43.24071,"lon":5.37723,"is_reserved":false,"is_disabled":false,"rental_uris":{"android":"levelo://app?vid=f71092d4-38f3-4962-831d-db8d47051567","ios":"levelo://app?vid=f71092d4-38f3-4962-831d-db8d47051567"},"vehicle_type_id":"4","last_reported":1731121942,"current_range_meters":8800,"station_id":"ce4bhnp2rcd13ifvqgvg","pricing_plan_id":"cebpf4jnsgd1na2vs0mg"},{"bike_id":"a993ba37-019f-4224-a655-01737fe76220","system_id":"levelo_inurba_marseille","lat":43.29027,"lon":5.38121,"is_reserved":false,"is_disabled":false,"rental_uris":{"android":"levelo://app?vid=a993ba37-019f-4224-a655-01737fe76220","ios":"levelo://app?vid=a993ba37-019f-4224-a655-01737fe76220"},"vehicle_type_id":"4","last_reported":1731121942,"current_range_meters":22000,"station_id":"ce4bh4p2rcd13ifvqe1g","pricing_plan_id":"cebpf4jnsgd1na2vs0mg"},{"bike_id":"b5ebdb16-bb62-4216-95a5-9133d9c41403","system_id":"levelo_inurba_marseille","lat":43.29811,"lon":5.40427,"is_reserved":false,"is_disabled":false,"rental_uris":{"android":"levelo://app?vid=b5ebdb16-bb62-4216-95a5-9133d9c41403","ios":"levelo://app?vid=b5ebdb16-bb62-4216-95a5-9133d9c41403"},"vehicle_type_id":"4","last_reported":1731121942,"current_range_meters":21600,"station_id":"ce4bh112rcd13ifvqd90","pricing_plan_id":"cebpf4jnsgd1na2vs0mg"},{"bike_id":"7a636c65-a00f-4211-8190-f94784703ffa","system_id":"levelo_inurba_marseille","lat":43.30589,"lon":5.39349,"is_reserved":false,"is_disabled":false,"rental_uris":{"android":"levelo://app?vid=7a636c65-a00f-4211-8190-f94784703ffa","ios":"levelo://app?vid=7a636c65-a00f-4211-8190-f94784703ffa"},"vehicle_type_id":"4","last_reported":1731121942,"current_range_meters":26000,"station_id":"ce4bh0p2rcd13ifvqd80","pricing_plan_id":"cebpf4jnsgd1na2vs0mg"},{"bike_id":"e899eac6-4691-43b6-92e8-21ecece2b174","system_id":"levelo_inurba_marseille","lat":43.3107,"lon":5.38339,"is_reserved":false,"is_disabled":false,"rental_uris":{"android":"levelo://app?vid=e899eac6-4691-43b6-92e8-21ecece2b174","ios":"levelo://app?vid=e899eac6-4691-43b6-92e8-21ecece2b174"},"vehicle_type_id":"4","last_reported":1731121942,"current_range_meters":25600,"station_id":"ce4bgv92rcd13ifvqcr0","pricing_plan_id":"cebpf4jnsgd1na2vs0mg"},{"bike_id":"d5dcc0a1-8c32-4a4e-9764-6e9a045ad10c","system_id":"levelo_inurba_marseille","lat":43.320303,"lon":5.41562,"is_reserved":false,"is_disabled":false,"rental_uris":{"android":"levelo://app?vid=d5dcc0a1-8c32-4a4e-9764-6e9a045ad10c","ios":"levelo://app?vid=d5dcc0a1-8c32-4a4e-9764-6e9a045ad10c"},"vehicle_type_id":"4","last_reported":1731121942,"current_range_meters":38800,"station_id":"ce4bhq92rcd13ifvqhkg","pricing_plan_id":"cebpf4jnsgd1na2vs0mg"},{"bike_id":"c06d1949-aba5-4f23-959b-3c05a40c3614","system_id":"levelo_inurba_marseille","lat":43.23194,"lon":5.39959,"is_reserved":false,"is_disabled":false,"rental_uris":{"android":"levelo://app?vid=c06d1949-aba5-4f23-959b-3c05a40c3614","ios":"levelo://app?vid=c06d1949-aba5-4f23-959b-3c05a40c3614"},"vehicle_type_id":"4","last_reported":1731121942,"current_range_meters":29600,"station_id":"ce4bhn12rcd13ifvqgqg","pricing_plan_id":"cebpf4jnsgd1na2vs0mg"},{"bike_id":"7a61aa54-4124-4dcd-858b-db846d80c8c4","system_id":"levelo_inurba_marseille","lat":43.27622,"lon":5.36102,"is_reserved":false,"is_disabled":false,"rental_uris":{"android":"levelo://app?vid=7a61aa54-4124-4dcd-858b-db846d80c8c4","ios":"levelo://app?vid=7a61aa54-4124-4dcd-858b-db846d80c8c4"},"vehicle_type_id":"4","last_reported":1731121942,"current_range_meters":22000,"station_id":"ce4bgj92rcd13ifvqbe0","pricing_plan_id":"cebpf4jnsgd1na2vs0mg"},{"bike_id":"702dc037-3c0a-4b1c-8e72-d61256d25f59","system_id":"levelo_inurba_marseille","lat":43.31123,"lon":5.37773,"is_reserved":false,"is_disabled":false,"rental_uris":{"android":"levelo://app?vid=702dc037-3c0a-4b1c-8e72-d61256d25f59","ios":"levelo://app?vid=702dc037-3c0a-4b1c-8e72-d61256d25f59"},"vehicle_type_id":"4","last_reported":1731121942,"current_range_meters":23200,"station_id":"ce4bgt92rcd13ifvqcg0","pricing_plan_id":"cebpf4jnsgd1na2vs0mg"},{"bike_id":"ba1c9f38-f669-486e-a9b0-c17e8b452755","system_id":"levelo_inurba_marseille","lat":43.32289,"lon":5.38281,"is_reserved":false,"is_disabled":false,"rental_uris":{"android":"levelo://app?vid=ba1c9f38-f669-486e-a9b0-c17e8b452755","ios":"levelo://app?vid=ba1c9f38-f669-486e-a9b0-c17e8b452755"},"vehicle_type_id":"4","last_reported":1731121942,"current_range_meters":38400,"station_id":"ce4bhr12rcd13ifvqhqg","pricing_plan_id":"cebpf4jnsgd1na2vs0mg"},{"bike_id":"83abb7ab-2714-420b-bea8-2448ad0249f3","system_id":"levelo_inurba_marseille","lat":43.31126,"lon":5.37766,"is_reserved":false,"is_disabled":false,"rental_uris":{"android":"levelo://app?vid=83abb7ab-2714-420b-bea8-2448ad0249f3","ios":"levelo://app?vid=83abb7ab-2714-420b-bea8-2448ad0249f3"},"vehicle_type_id":"4","last_reported":1731121942,"current_range_meters":36400,"station_id":"ce4bgt92rcd13ifvqcg0","pricing_plan_id":"cebpf4jnsgd1na2vs0mg"},{"bike_id":"8633134c-958c-4f7d-b9db-bd51e61b5e12","system_id":"levelo_inurba_marseille","lat":43.30961,"lon":5.39037,"is_reserved":false,"is_disabled":false,"rental_uris":{"android":"levelo://app?vid=8633134c-958c-4f7d-b9db-bd51e61b5e12","ios":"levelo://app?vid=8633134c-958c-4f7d-b9db-bd51e61b5e12"},"vehicle_type_id":"4","last_reported":1731121942,"current_range_meters":35200,"station_id":"ce4bgup2rcd13ifvqco0","pricing_plan_id":"cebpf4jnsgd1na2vs0mg"},{"bike_id":"da6f561c-ca5f-4a49-b08f-ff4f3e8e4c5a","system_id":"levelo_inurba_marseille","lat":43.30601,"lon":5.37212,"is_reserved":false,"is_disabled":false,"rental_uris":{"android":"levelo://app?vid=da6f561c-ca5f-4a49-b08f-ff4f3e8e4c5a","ios":"levelo://app?vid=da6f561c-ca5f-4a49-b08f-ff4f3e8e4c5a"},"vehicle_type_id":"4","last_reported":1731121942,"current_range_meters":35200,"station_id":"ce4bgqh2rcd13ifvqc4g","pricing_plan_id":"cebpf4jnsgd1na2vs0mg"},{"bike_id":"2fd6dc22-dc4f-436f-8f09-ea747d8c2aa2","system_id":"levelo_inurba_marseille","lat":43.23964,"lon":5.36626,"is_reserved":false,"is_disabled":false,"rental_uris":{"android":"levelo://app?vid=2fd6dc22-dc4f-436f-8f09-ea747d8c2aa2","ios":"levelo://app?vid=2fd6dc22-dc4f-436f-8f09-ea747d8c2aa2"},"vehicle_type_id":"4","last_reported":1731121942,"current_range_meters":38800,"station_id":"ce4bhi12rcd13ifvqfp0","pricing_plan_id":"cebpf4jnsgd1na2vs0mg"},{"bike_id":"33a29131-b6cf-4df3-9895-321466b2d2ed","system_id":"levelo_inurba_marseille","lat":43.29717,"lon":5.36608,"is_reserved":false,"is_disabled":false,"rental_uris":{"android":"levelo://app?vid=33a29131-b6cf-4df3-9895-321466b2d2ed","ios":"levelo://app?vid=33a29131-b6cf-4df3-9895-321466b2d2ed"},"vehicle_type_id":"4","last_reported":1731121942,"current_range_meters":40000,"station_id":"ce4bgn12rcd13ifvqbt0","pricing_plan_id":"cebpf4jnsgd1na2vs0mg"},{"bike_id":"a910c771-4dc4-40f5-82c0-74c71fe80f29","system_id":"levelo_inurba_marseille","lat":43.3107,"lon":5.38352,"is_reserved":false,"is_disabled":false,"rental_uris":{"android":"levelo://app?vid=a910c771-4dc4-40f5-82c0-74c71fe80f29","ios":"levelo://app?vid=a910c771-4dc4-40f5-82c0-74c71fe80f29"},"vehicle_type_id":"4","last_reported":1731121942,"current_range_meters":38400,"station_id":"ce4bgv92rcd13ifvqcr0","pricing_plan_id":"cebpf4jnsgd1na2vs0mg"},{"bike_id":"c42a69fe-20ee-45a7-9f50-2554fa199afb","system_id":"levelo_inurba_marseille","lat":43.29259,"lon":5.40907,"is_reserved":false,"is_disabled":false,"rental_uris":{"android":"levelo://app?vid=c42a69fe-20ee-45a7-9f50-2554fa199afb","ios":"levelo://app?vid=c42a69fe-20ee-45a7-9f50-2554fa199afb"},"vehicle_type_id":"4","last_reported":1731121942,"current_range_meters":24800,"station_id":"ce4bh192rcd13ifvqdc0","pricing_plan_id":"cebpf4jnsgd1na2vs0mg"},{"bike_id":"41a3c5f1-221a-4b57-8e6a-888d541e1a20","system_id":"levelo_inurba_marseille","lat":43.24072,"lon":5.3776,"is_reserved":false,"is_disabled":false,"rental_uris":{"android":"levelo://app?vid=41a3c5f1-221a-4b57-8e6a-888d541e1a20","ios":"levelo://app?vid=41a3c5f1-221a-4b57-8e6a-888d541e1a20"},"vehicle_type_id":"4","last_reported":1731121942,"current_range_meters":12400,"station_id":"ce4bhnp2rcd13ifvqgvg","pricing_plan_id":"cebpf4jnsgd1na2vs0mg"},{"bike_id":"b9059161-bc2a-4853-8231-de961bd5f1e7","system_id":"levelo_inurba_marseille","lat":43.337218,"lon":5.391829,"is_reserved":false,"is_disabled":false,"rental_uris":{"android":"levelo://app?vid=b9059161-bc2a-4853-8231-de961bd5f1e7","ios":"levelo://app?vid=b9059161-bc2a-4853-8231-de961bd5f1e7"},"vehicle_type_id":"4","last_reported":1731121942,"current_range_meters":24400,"station_id":"ce4bhr92rcd13ifvqhsg","pricing_plan_id":"cebpf4jnsgd1na2vs0mg"},{"bike_id":"d2763854-cb26-443b-a45b-c72ed6e5657c","system_id":"levelo_inurba_marseille","lat":43.28413,"lon":5.37516,"is_reserved":false,"is_disabled":false,"rental_uris":{"android":"levelo://app?vid=d2763854-cb26-443b-a45b-c72ed6e5657c","ios":"levelo://app?vid=d2763854-cb26-443b-a45b-c72ed6e5657c"},"vehicle_type_id":"4","last_reported":1731121942,"current_range_meters":38800,"station_id":"ce4bh412rcd13ifvqds0","pricing_plan_id":"cebpf4jnsgd1na2vs0mg"},{"bike_id":"b92b2145-74d4-429c-ae35-ace41084fe31","system_id":"levelo_inurba_marseille","lat":43.297777,"lon":5.370903,"is_reserved":false,"is_disabled":false,"rental_uris":{"android":"levelo://app?vid=b92b2145-74d4-429c-ae35-ace41084fe31","ios":"levelo://app?vid=b92b2145-74d4-429c-ae35-ace41084fe31"},"vehicle_type_id":"4","last_reported":1731121942,"current_range_meters":38400,"station_id":"ce4bgop2rcd13ifvqc1g","pricing_plan_id":"cebpf4jnsgd1na2vs0mg"},{"bike_id":"1f43d9a3-fc36-4881-af25-2c38a14b4533","system_id":"levelo_inurba_marseille","lat":43.28575,"lon":5.39494,"is_reserved":false,"is_disabled":false,"rental_uris":{"android":"levelo://app?vid=1f43d9a3-fc36-4881-af25-2c38a14b4533","ios":"levelo://app?vid=1f43d9a3-fc36-4881-af25-2c38a14b4533"},"vehicle_type_id":"4","last_reported":1731121942,"current_range_meters":16400,"station_id":"ce4bh292rcd13ifvqdg0","pricing_plan_id":"cebpf4jnsgd1na2vs0mg"},{"bike_id":"3702cf73-3983-4d19-ad47-06b4ccda60b7","system_id":"levelo_inurba_marseille","lat":43.29872,"lon":5.39734,"is_reserved":false,"is_disabled":false,"rental_uris":{"android":"levelo://app?vid=3702cf73-3983-4d19-ad47-06b4ccda60b7","ios":"levelo://app?vid=3702cf73-3983-4d19-ad47-06b4ccda60b7"},"vehicle_type_id":"4","last_reported":1731121942,"current_range_meters":39200,"station_id":"ce4bh0h2rcd13ifvqd50","pricing_plan_id":"cebpf4jnsgd1na2vs0mg"},{"bike_id":"ad97f328-01a3-4ebf-95e7-0cbaf2811fa2","system_id":"levelo_inurba_marseille","lat":43.288,"lon":5.37331,"is_reserved":false,"is_disabled":false,"rental_uris":{"android":"levelo://app?vid=ad97f328-01a3-4ebf-95e7-0cbaf2811fa2","ios":"levelo://app?vid=ad97f328-01a3-4ebf-95e7-0cbaf2811fa2"},"vehicle_type_id":"4","last_reported":1731121942,"current_range_meters":17200,"station_id":"","pricing_plan_id":"cebpf4jnsgd1na2vs0mg"},{"bike_id":"57fe26b5-ad7a-49c6-92b5-a51d7d925e90","system_id":"levelo_inurba_marseille","lat":43.305354,"lon":5.365434,"is_reserved":false,"is_disabled":false,"rental_uris":{"android":"levelo://app?vid=57fe26b5-ad7a-49c6-92b5-a51d7d925e90","ios":"levelo://app?vid=57fe26b5-ad7a-49c6-92b5-a51d7d925e90"},"vehicle_type_id":"4","last_reported":1731121942,"current_range_meters":24000,"station_id":"ce4bgs12rcd13ifvqcag","pricing_plan_id":"cebpf4jnsgd1na2vs0mg"},{"bike_id":"08c41f7d-2e28-482b-9605-355983efbf39","system_id":"levelo_inurba_marseille","lat":43.32366,"lon":5.38882,"is_reserved":false,"is_disabled":false,"rental_uris":{"android":"levelo://app?vid=08c41f7d-2e28-482b-9605-355983efbf39","ios":"levelo://app?vid=08c41f7d-2e28-482b-9605-355983efbf39"},"vehicle_type_id":"4","last_reported":1731121942,"current_range_meters":31200,"station_id":"ce4bhqp2rcd13ifvqhog","pricing_plan_id":"cebpf4jnsgd1na2vs0mg"},{"bike_id":"d0548986-c389-4527-9d88-0be922484fbf","system_id":"levelo_inurba_marseille","lat":43.30639,"lon":5.40071,"is_reserved":false,"is_disabled":false,"rental_uris":{"android":"levelo://app?vid=d0548986-c389-4527-9d88-0be922484fbf","ios":"levelo://app?vid=d0548986-c389-4527-9d88-0be922484fbf"},"vehicle_type_id":"4","last_reported":1731121942,"current_range_meters":14000,"station_id":"ce4bh112rcd13ifvqda0","pricing_plan_id":"cebpf4jnsgd1na2vs0mg"},{"bike_id":"91628a43-65ab-40f6-86ee-9ed6104d49d8","system_id":"levelo_inurba_marseille","lat":43.25104,"lon":5.40333,"is_reserved":false,"is_disabled":false,"rental_uris":{"android":"levelo://app?vid=91628a43-65ab-40f6-86ee-9ed6104d49d8","ios":"levelo://app?vid=91628a43-65ab-40f6-86ee-9ed6104d49d8"},"vehicle_type_id":"4","last_reported":1731121942,"current_range_meters":25600,"station_id":"ce4bhlh2rcd13ifvqgig","pricing_plan_id":"cebpf4jnsgd1na2vs0mg"},{"bike_id":"57b2c5ea-aefb-4caa-81dd-58a201e82514","system_id":"levelo_inurba_marseille","lat":43.24667,"lon":5.38158,"is_reserved":false,"is_disabled":false,"rental_uris":{"android":"levelo://app?vid=57b2c5ea-aefb-4caa-81dd-58a201e82514","ios":"levelo://app?vid=57b2c5ea-aefb-4caa-81dd-58a201e82514"},"vehicle_type_id":"4","last_reported":1731121942,"current_range_meters":8800,"station_id":"ce4bhih2rcd13ifvqfr0","pricing_plan_id":"cebpf4jnsgd1na2vs0mg"},{"bike_id":"846e8e3e-afde-43fe-b51d-5e0e0db57b83","system_id":"levelo_inurba_marseille","lat":43.265282,"lon":5.395009,"is_reserved":false,"is_disabled":false,"rental_uris":{"android":"levelo://app?vid=846e8e3e-afde-43fe-b51d-5e0e0db57b83","ios":"levelo://app?vid=846e8e3e-afde-43fe-b51d-5e0e0db57b83"},"vehicle_type_id":"4","last_reported":1731121942,"current_range_meters":28800,"station_id":"","pricing_plan_id":"cebpf4jnsgd1na2vs0mg"},{"bike_id":"f4ef053d-e709-4411-bdd9-de1d0f41e46f","system_id":"levelo_inurba_marseille","lat":43.2293,"lon":5.35374,"is_reserved":false,"is_disabled":false,"rental_uris":{"android":"levelo://app?vid=f4ef053d-e709-4411-bdd9-de1d0f41e46f","ios":"levelo://app?vid=f4ef053d-e709-4411-bdd9-de1d0f41e46f"},"vehicle_type_id":"4","last_reported":1731121942,"current_range_meters":39200,"station_id":"cpo3532slgdg3j2ikp40","pricing_plan_id":"cebpf4jnsgd1na2vs0mg"},{"bike_id":"ec9689df-8e91-41d0-84ae-cc0402da5065","system_id":"levelo_inurba_marseille","lat":43.29627,"lon":5.40597,"is_reserved":false,"is_disabled":false,"rental_uris":{"android":"levelo://app?vid=ec9689df-8e91-41d0-84ae-cc0402da5065","ios":"levelo://app?vid=ec9689df-8e91-41d0-84ae-cc0402da5065"},"vehicle_type_id":"4","last_reported":1731121942,"current_range_meters":38400,"station_id":"ce4bh0h2rcd13ifvqd60","pricing_plan_id":"cebpf4jnsgd1na2vs0mg"},{"bike_id":"ee0833dd-48fa-4d78-acec-e17df35dd4ca","system_id":"levelo_inurba_marseille","lat":43.29711,"lon":5.36618,"is_reserved":false,"is_disabled":false,"rental_uris":{"android":"levelo://app?vid=ee0833dd-48fa-4d78-acec-e17df35dd4ca","ios":"levelo://app?vid=ee0833dd-48fa-4d78-acec-e17df35dd4ca"},"vehicle_type_id":"4","last_reported":1731121942,"current_range_meters":30400,"station_id":"ce4bgn12rcd13ifvqbt0","pricing_plan_id":"cebpf4jnsgd1na2vs0mg"},{"bike_id":"f11f278c-ab75-4d6f-8917-8325d960a358","system_id":"levelo_inurba_marseille","lat":43.28006,"lon":5.40012,"is_reserved":false,"is_disabled":false,"rental_uris":{"android":"levelo://app?vid=f11f278c-ab75-4d6f-8917-8325d960a358","ios":"levelo://app?vid=f11f278c-ab75-4d6f-8917-8325d960a358"},"vehicle_type_id":"4","last_reported":1731121942,"current_range_meters":37600,"station_id":"ce4bho92rcd13ifvqh4g","pricing_plan_id":"cebpf4jnsgd1na2vs0mg"},{"bike_id":"02c732dc-ef4d-456f-901f-be9168ef42be","system_id":"levelo_inurba_marseille","lat":43.24807,"lon":5.37454,"is_reserved":false,"is_disabled":false,"rental_uris":{"android":"levelo://app?vid=02c732dc-ef4d-456f-901f-be9168ef42be","ios":"levelo://app?vid=02c732dc-ef4d-456f-901f-be9168ef42be"},"vehicle_type_id":"4","last_reported":1731121942,"current_range_meters":33200,"station_id":"ce4bhgh2rcd13ifvqfb0","pricing_plan_id":"cebpf4jnsgd1na2vs0mg"},{"bike_id":"4e0bce32-7432-4c5e-b651-7a4c54f77f75","system_id":"levelo_inurba_marseille","lat":43.3133,"lon":5.39697,"is_reserved":false,"is_disabled":false,"rental_uris":{"android":"levelo://app?vid=4e0bce32-7432-4c5e-b651-7a4c54f77f75","ios":"levelo://app?vid=4e0bce32-7432-4c5e-b651-7a4c54f77f75"},"vehicle_type_id":"4","last_reported":1731121942,"current_range_meters":38800,"station_id":"ce4bgvp2rcd13ifvqcu0","pricing_plan_id":"cebpf4jnsgd1na2vs0mg"},{"bike_id":"87400346-7dad-4540-98eb-d38a31c15ad0","system_id":"levelo_inurba_marseille","lat":43.25875,"lon":5.39899,"is_reserved":false,"is_disabled":false,"rental_uris":{"android":"levelo://app?vid=87400346-7dad-4540-98eb-d38a31c15ad0","ios":"levelo://app?vid=87400346-7dad-4540-98eb-d38a31c15ad0"},"vehicle_type_id":"4","last_reported":1731121942,"current_range_meters":38800,"station_id":"ce4bhl92rcd13ifvqghg","pricing_plan_id":"cebpf4jnsgd1na2vs0mg"},{"bike_id":"82f750ef-4c11-46df-bf3f-eb1ee954f51e","system_id":"levelo_inurba_marseille","lat":43.30888,"lon":5.39626,"is_reserved":false,"is_disabled":false,"rental_uris":{"android":"levelo://app?vid=82f750ef-4c11-46df-bf3f-eb1ee954f51e","ios":"levelo://app?vid=82f750ef-4c11-46df-bf3f-eb1ee954f51e"},"vehicle_type_id":"4","last_reported":1731121942,"current_range_meters":27200,"station_id":"ce4bh012rcd13ifvqcv0","pricing_plan_id":"cebpf4jnsgd1na2vs0mg"},{"bike_id":"ac59b398-a03f-4409-8d13-c4e12f526cfa","system_id":"levelo_inurba_marseille","lat":43.284558,"lon":5.358879,"is_reserved":false,"is_disabled":false,"rental_uris":{"android":"levelo://app?vid=ac59b398-a03f-4409-8d13-c4e12f526cfa","ios":"levelo://app?vid=ac59b398-a03f-4409-8d13-c4e12f526cfa"},"vehicle_type_id":"4","last_reported":1731121942,"current_range_meters":20400,"station_id":"ce4bhah2rcd13ifvqei0","pricing_plan_id":"cebpf4jnsgd1na2vs0mg"},{"bike_id":"1ed0057e-34ff-43b0-a5d5-59551d0bd293","system_id":"levelo_inurba_marseille","lat":43.32661,"lon":5.40991,"is_reserved":false,"is_disabled":false,"rental_uris":{"android":"levelo://app?vid=1ed0057e-34ff-43b0-a5d5-59551d0bd293","ios":"levelo://app?vid=1ed0057e-34ff-43b0-a5d5-59551d0bd293"},"vehicle_type_id":"4","last_reported":1731121942,"current_range_meters":10000,"station_id":"ce4bhpp2rcd13ifvqhgg","pricing_plan_id":"cebpf4jnsgd1na2vs0mg"},{"bike_id":"7074fed1-606e-4226-b17d-209974e7b717","system_id":"levelo_inurba_marseille","lat":43.29258,"lon":5.40895,"is_reserved":false,"is_disabled":false,"rental_uris":{"android":"levelo://app?vid=7074fed1-606e-4226-b17d-209974e7b717","ios":"levelo://app?vid=7074fed1-606e-4226-b17d-209974e7b717"},"vehicle_type_id":"4","last_reported":1731121942,"current_range_meters":35600,"station_id":"ce4bh192rcd13ifvqdc0","pricing_plan_id":"cebpf4jnsgd1na2vs0mg"},{"bike_id":"7243fcc8-e91d-49aa-a78b-3d82c9cf3c65","system_id":"levelo_inurba_marseille","lat":43.28572,"lon":5.35102,"is_reserved":false,"is_disabled":false,"rental_uris":{"android":"levelo://app?vid=7243fcc8-e91d-49aa-a78b-3d82c9cf3c65","ios":"levelo://app?vid=7243fcc8-e91d-49aa-a78b-3d82c9cf3c65"},"vehicle_type_id":"4","last_reported":1731121942,"current_range_meters":36400,"station_id":"","pricing_plan_id":"cebpf4jnsgd1na2vs0mg"},{"bike_id":"fe968521-02e8-4a58-8cea-ea8883a148ca","system_id":"levelo_inurba_marseille","lat":43.27975,"lon":5.38739,"is_reserved":false,"is_disabled":false,"rental_uris":{"android":"levelo://app?vid=fe968521-02e8-4a58-8cea-ea8883a148ca","ios":"levelo://app?vid=fe968521-02e8-4a58-8cea-ea8883a148ca"},"vehicle_type_id":"4","last_reported":1731121942,"current_range_meters":16800,"station_id":"ce4bhg12rcd13ifvqf80","pricing_plan_id":"cebpf4jnsgd1na2vs0mg"},{"bike_id":"b4d6962c-48f0-4bf0-8d16-4194c14b4356","system_id":"levelo_inurba_marseille","lat":43.26208,"lon":5.37437,"is_reserved":false,"is_disabled":false,"rental_uris":{"android":"levelo://app?vid=b4d6962c-48f0-4bf0-8d16-4194c14b4356","ios":"levelo://app?vid=b4d6962c-48f0-4bf0-8d16-4194c14b4356"},"vehicle_type_id":"4","last_reported":1731121942,"current_range_meters":20000,"station_id":"ce4bhgp2rcd13ifvqfc0","pricing_plan_id":"cebpf4jnsgd1na2vs0mg"},{"bike_id":"71bb50a1-6cdb-4a6f-b24c-1cbd7c603ad3","system_id":"levelo_inurba_marseille","lat":43.31426,"lon":5.37393,"is_reserved":false,"is_disabled":false,"rental_uris":{"android":"levelo://app?vid=71bb50a1-6cdb-4a6f-b24c-1cbd7c603ad3","ios":"levelo://app?vid=71bb50a1-6cdb-4a6f-b24c-1cbd7c603ad3"},"vehicle_type_id":"4","last_reported":1731121942,"current_range_meters":30000,"station_id":"","pricing_plan_id":"cebpf4jnsgd1na2vs0mg"},{"bike_id":"895c1bd2-e384-4f22-a95e-ca5003f9b176","system_id":"levelo_inurba_marseille","lat":43.29256,"lon":5.40907,"is_reserved":false,"is_disabled":false,"rental_uris":{"android":"levelo://app?vid=895c1bd2-e384-4f22-a95e-ca5003f9b176","ios":"levelo://app?vid=895c1bd2-e384-4f22-a95e-ca5003f9b176"},"vehicle_type_id":"4","last_reported":1731121942,"current_range_meters":32400,"station_id":"ce4bh192rcd13ifvqdc0","pricing_plan_id":"cebpf4jnsgd1na2vs0mg"},{"bike_id":"c50d863f-ac88-48d7-aaf9-ac94fab87630","system_id":"levelo_inurba_marseille","lat":43.24662,"lon":5.38154,"is_reserved":false,"is_disabled":false,"rental_uris":{"android":"levelo://app?vid=c50d863f-ac88-48d7-aaf9-ac94fab87630","ios":"levelo://app?vid=c50d863f-ac88-48d7-aaf9-ac94fab87630"},"vehicle_type_id":"4","last_reported":1731121942,"current_range_meters":26000,"station_id":"ce4bhih2rcd13ifvqfr0","pricing_plan_id":"cebpf4jnsgd1na2vs0mg"},{"bike_id":"b8fdd341-0697-41ca-82c9-e4253415f4e6","system_id":"levelo_inurba_marseille","lat":43.23058,"lon":5.35491,"is_reserved":false,"is_disabled":false,"rental_uris":{"android":"levelo://app?vid=b8fdd341-0697-41ca-82c9-e4253415f4e6","ios":"levelo://app?vid=b8fdd341-0697-41ca-82c9-e4253415f4e6"},"vehicle_type_id":"4","last_reported":1731121942,"current_range_meters":34800,"station_id":"cpo3342slgdg3j2ifvpg","pricing_plan_id":"cebpf4jnsgd1na2vs0mg"},{"bike_id":"58b5400f-f02f-4ec5-ba77-de98796ccf23","system_id":"levelo_inurba_marseille","lat":43.29255,"lon":5.40903,"is_reserved":false,"is_disabled":false,"rental_uris":{"android":"levelo://app?vid=58b5400f-f02f-4ec5-ba77-de98796ccf23","ios":"levelo://app?vid=58b5400f-f02f-4ec5-ba77-de98796ccf23"},"vehicle_type_id":"4","last_reported":1731121942,"current_range_meters":38800,"station_id":"ce4bh192rcd13ifvqdc0","pricing_plan_id":"cebpf4jnsgd1na2vs0mg"},{"bike_id":"32de3e3d-abee-4e70-b60a-941560de9b93","system_id":"levelo_inurba_marseille","lat":43.28271,"lon":5.35068,"is_reserved":false,"is_disabled":false,"rental_uris":{"android":"levelo://app?vid=32de3e3d-abee-4e70-b60a-941560de9b93","ios":"levelo://app?vid=32de3e3d-abee-4e70-b60a-941560de9b93"},"vehicle_type_id":"4","last_reported":1731121942,"current_range_meters":38800,"station_id":"ce4bhbp2rcd13ifvqerg","pricing_plan_id":"cebpf4jnsgd1na2vs0mg"},{"bike_id":"926e5658-bbc8-42ae-8145-6443e99af1b7","system_id":"levelo_inurba_marseille","lat":43.27831,"lon":5.39205,"is_reserved":false,"is_disabled":false,"rental_uris":{"android":"levelo://app?vid=926e5658-bbc8-42ae-8145-6443e99af1b7","ios":"levelo://app?vid=926e5658-bbc8-42ae-8145-6443e99af1b7"},"vehicle_type_id":"4","last_reported":1731121942,"current_range_meters":29600,"station_id":"ce4bhjp2rcd13ifvqga0","pricing_plan_id":"cebpf4jnsgd1na2vs0mg"},{"bike_id":"f2b5f9e9-1d9f-497a-867e-8fbb12956e3b","system_id":"levelo_inurba_marseille","lat":43.28705,"lon":5.37374,"is_reserved":false,"is_disabled":false,"rental_uris":{"android":"levelo://app?vid=f2b5f9e9-1d9f-497a-867e-8fbb12956e3b","ios":"levelo://app?vid=f2b5f9e9-1d9f-497a-867e-8fbb12956e3b"},"vehicle_type_id":"4","last_reported":1731121942,"current_range_meters":32800,"station_id":"ce4bh3p2rcd13ifvqdq0","pricing_plan_id":"cebpf4jnsgd1na2vs0mg"},{"bike_id":"f5d2b441-54fd-4ea8-9ee3-1ca1bc0387aa","system_id":"levelo_inurba_marseille","lat":43.30468,"lon":5.378994,"is_reserved":false,"is_disabled":false,"rental_uris":{"android":"levelo://app?vid=f5d2b441-54fd-4ea8-9ee3-1ca1bc0387aa","ios":"levelo://app?vid=f5d2b441-54fd-4ea8-9ee3-1ca1bc0387aa"},"vehicle_type_id":"4","last_reported":1731121942,"current_range_meters":38800,"station_id":"ce4bgup2rcd13ifvqcn0","pricing_plan_id":"cebpf4jnsgd1na2vs0mg"},{"bike_id":"1679b2bf-cb4a-436a-a7bb-b17506385ede","system_id":"levelo_inurba_marseille","lat":43.30215,"lon":5.39464,"is_reserved":false,"is_disabled":false,"rental_uris":{"android":"levelo://app?vid=1679b2bf-cb4a-436a-a7bb-b17506385ede","ios":"levelo://app?vid=1679b2bf-cb4a-436a-a7bb-b17506385ede"},"vehicle_type_id":"4","last_reported":1731121942,"current_range_meters":28800,"station_id":"ce4bh0p2rcd13ifvqd70","pricing_plan_id":"cebpf4jnsgd1na2vs0mg"},{"bike_id":"e2a5e296-45f3-49c6-8566-635a21ef7917","system_id":"levelo_inurba_marseille","lat":43.31183,"lon":5.38709,"is_reserved":false,"is_disabled":false,"rental_uris":{"android":"levelo://app?vid=e2a5e296-45f3-49c6-8566-635a21ef7917","ios":"levelo://app?vid=e2a5e296-45f3-49c6-8566-635a21ef7917"},"vehicle_type_id":"4","last_reported":1731121942,"current_range_meters":36800,"station_id":"ce4bgv12rcd13ifvqcp0","pricing_plan_id":"cebpf4jnsgd1na2vs0mg"},{"bike_id":"27dfd9be-7ef0-4ba2-940f-b5f29bc4f3ad","system_id":"levelo_inurba_marseille","lat":43.2782,"lon":5.40699,"is_reserved":false,"is_disabled":false,"rental_uris":{"android":"levelo://app?vid=27dfd9be-7ef0-4ba2-940f-b5f29bc4f3ad","ios":"levelo://app?vid=27dfd9be-7ef0-4ba2-940f-b5f29bc4f3ad"},"vehicle_type_id":"4","last_reported":1731121942,"current_range_meters":34000,"station_id":"ce4bhnh2rcd13ifvqgtg","pricing_plan_id":"cebpf4jnsgd1na2vs0mg"},{"bike_id":"588ae2e7-ceb1-4b50-897b-b0e068e930a7","system_id":"levelo_inurba_marseille","lat":43.24668,"lon":5.38164,"is_reserved":false,"is_disabled":false,"rental_uris":{"android":"levelo://app?vid=588ae2e7-ceb1-4b50-897b-b0e068e930a7","ios":"levelo://app?vid=588ae2e7-ceb1-4b50-897b-b0e068e930a7"},"vehicle_type_id":"4","last_reported":1731121942,"current_range_meters":17600,"station_id":"ce4bhih2rcd13ifvqfr0","pricing_plan_id":"cebpf4jnsgd1na2vs0mg"},{"bike_id":"8137f581-2393-41d8-a932-f12bb5e1d13d","system_id":"levelo_inurba_marseille","lat":43.29224,"lon":5.36072,"is_reserved":false,"is_disabled":false,"rental_uris":{"android":"levelo://app?vid=8137f581-2393-41d8-a932-f12bb5e1d13d","ios":"levelo://app?vid=8137f581-2393-41d8-a932-f12bb5e1d13d"},"vehicle_type_id":"4","last_reported":1731121942,"current_range_meters":36400,"station_id":"ce4bhbh2rcd13ifvqeqg","pricing_plan_id":"cebpf4jnsgd1na2vs0mg"},{"bike_id":"bc9e5d4d-ed87-459e-9d6b-75e21cc6343f","system_id":"levelo_inurba_marseille","lat":43.30419,"lon":5.41282,"is_reserved":false,"is_disabled":false,"rental_uris":{"android":"levelo://app?vid=bc9e5d4d-ed87-459e-9d6b-75e21cc6343f","ios":"levelo://app?vid=bc9e5d4d-ed87-459e-9d6b-75e21cc6343f"},"vehicle_type_id":"4","last_reported":1731121942,"current_range_meters":39200,"station_id":"ce4bhop2rcd13ifvqh8g","pricing_plan_id":"cebpf4jnsgd1na2vs0mg"},{"bike_id":"ca066bf9-c1cf-41c8-ad68-6c7236949b25","system_id":"levelo_inurba_marseille","lat":43.31266,"lon":5.40169,"is_reserved":false,"is_disabled":false,"rental_uris":{"android":"levelo://app?vid=ca066bf9-c1cf-41c8-ad68-6c7236949b25","ios":"levelo://app?vid=ca066bf9-c1cf-41c8-ad68-6c7236949b25"},"vehicle_type_id":"4","last_reported":1731121942,"current_range_meters":24400,"station_id":"ce4bh092rcd13ifvqd30","pricing_plan_id":"cebpf4jnsgd1na2vs0mg"},{"bike_id":"818293fa-7bab-4548-8e6d-ceefdd2acfe4","system_id":"levelo_inurba_marseille","lat":43.30642,"lon":5.40072,"is_reserved":false,"is_disabled":false,"rental_uris":{"android":"levelo://app?vid=818293fa-7bab-4548-8e6d-ceefdd2acfe4","ios":"levelo://app?vid=818293fa-7bab-4548-8e6d-ceefdd2acfe4"},"vehicle_type_id":"4","last_reported":1731121942,"current_range_meters":19600,"station_id":"ce4bh112rcd13ifvqda0","pricing_plan_id":"cebpf4jnsgd1na2vs0mg"},{"bike_id":"83e58c9a-13a0-474f-9072-9b7376165a15","system_id":"levelo_inurba_marseille","lat":43.3042,"lon":5.41283,"is_reserved":false,"is_disabled":false,"rental_uris":{"android":"levelo://app?vid=83e58c9a-13a0-474f-9072-9b7376165a15","ios":"levelo://app?vid=83e58c9a-13a0-474f-9072-9b7376165a15"},"vehicle_type_id":"4","last_reported":1731121942,"current_range_meters":28800,"station_id":"ce4bhop2rcd13ifvqh8g","pricing_plan_id":"cebpf4jnsgd1na2vs0mg"},{"bike_id":"dbe1ee58-77eb-4a4b-b965-2fa3fdb48b3f","system_id":"levelo_inurba_marseille","lat":43.312722,"lon":5.401679,"is_reserved":false,"is_disabled":false,"rental_uris":{"android":"levelo://app?vid=dbe1ee58-77eb-4a4b-b965-2fa3fdb48b3f","ios":"levelo://app?vid=dbe1ee58-77eb-4a4b-b965-2fa3fdb48b3f"},"vehicle_type_id":"4","last_reported":1731121942,"current_range_meters":25600,"station_id":"ce4bh092rcd13ifvqd30","pricing_plan_id":"cebpf4jnsgd1na2vs0mg"},{"bike_id":"bd917059-dc71-4ade-bd5a-40f56dfbb8db","system_id":"levelo_inurba_marseille","lat":43.28666,"lon":5.36348,"is_reserved":false,"is_disabled":false,"rental_uris":{"android":"levelo://app?vid=bd917059-dc71-4ade-bd5a-40f56dfbb8db","ios":"levelo://app?vid=bd917059-dc71-4ade-bd5a-40f56dfbb8db"},"vehicle_type_id":"4","last_reported":1731121942,"current_range_meters":22800,"station_id":"ce4bhah2rcd13ifvqej0","pricing_plan_id":"cebpf4jnsgd1na2vs0mg"},{"bike_id":"5bbe67cc-464e-403d-bfc0-7c13f544516d","system_id":"levelo_inurba_marseille","lat":43.26941,"lon":5.4025,"is_reserved":false,"is_disabled":false,"rental_uris":{"android":"levelo://app?vid=5bbe67cc-464e-403d-bfc0-7c13f544516d","ios":"levelo://app?vid=5bbe67cc-464e-403d-bfc0-7c13f544516d"},"vehicle_type_id":"4","last_reported":1731121942,"current_range_meters":16000,"station_id":"cjm6bp8fraef2m0cb0m0","pricing_plan_id":"cebpf4jnsgd1na2vs0mg"},{"bike_id":"98d30041-2fb8-418c-8ec9-535a413eb322","system_id":"levelo_inurba_marseille","lat":43.27502,"lon":5.42443,"is_reserved":false,"is_disabled":false,"rental_uris":{"android":"levelo://app?vid=98d30041-2fb8-418c-8ec9-535a413eb322","ios":"levelo://app?vid=98d30041-2fb8-418c-8ec9-535a413eb322"},"vehicle_type_id":"4","last_reported":1731121942,"current_range_meters":19200,"station_id":"ce4bhn92rcd13ifvqgrg","pricing_plan_id":"cebpf4jnsgd1na2vs0mg"},{"bike_id":"33e8e856-7f81-40f7-a392-a9fedce07fce","system_id":"levelo_inurba_marseille","lat":43.30883,"lon":5.39628,"is_reserved":false,"is_disabled":false,"rental_uris":{"android":"levelo://app?vid=33e8e856-7f81-40f7-a392-a9fedce07fce","ios":"levelo://app?vid=33e8e856-7f81-40f7-a392-a9fedce07fce"},"vehicle_type_id":"4","last_reported":1731121942,"current_range_meters":38800,"station_id":"ce4bh012rcd13ifvqcv0","pricing_plan_id":"cebpf4jnsgd1na2vs0mg"},{"bike_id":"7f11ba46-2bea-4ad5-9bd6-5a8d133d1bb2","system_id":"levelo_inurba_marseille","lat":43.30879,"lon":5.39646,"is_reserved":false,"is_disabled":false,"rental_uris":{"android":"levelo://app?vid=7f11ba46-2bea-4ad5-9bd6-5a8d133d1bb2","ios":"levelo://app?vid=7f11ba46-2bea-4ad5-9bd6-5a8d133d1bb2"},"vehicle_type_id":"4","last_reported":1731121942,"current_range_meters":26000,"station_id":"ce4bh012rcd13ifvqcv0","pricing_plan_id":"cebpf4jnsgd1na2vs0mg"},{"bike_id":"cb3e8083-1a52-4c3a-8ce1-d539167291a9","system_id":"levelo_inurba_marseille","lat":43.25122,"lon":5.40323,"is_reserved":false,"is_disabled":false,"rental_uris":{"android":"levelo://app?vid=cb3e8083-1a52-4c3a-8ce1-d539167291a9","ios":"levelo://app?vid=cb3e8083-1a52-4c3a-8ce1-d539167291a9"},"vehicle_type_id":"4","last_reported":1731121942,"current_range_meters":22400,"station_id":"ce4bhlh2rcd13ifvqgig","pricing_plan_id":"cebpf4jnsgd1na2vs0mg"},{"bike_id":"5dbb37bb-4723-4842-8c76-989d5392f416","system_id":"levelo_inurba_marseille","lat":43.29258,"lon":5.38437,"is_reserved":false,"is_disabled":false,"rental_uris":{"android":"levelo://app?vid=5dbb37bb-4723-4842-8c76-989d5392f416","ios":"levelo://app?vid=5dbb37bb-4723-4842-8c76-989d5392f416"},"vehicle_type_id":"4","last_reported":1731121942,"current_range_meters":31200,"station_id":"ce4bh692rcd13ifvqea0","pricing_plan_id":"cebpf4jnsgd1na2vs0mg"},{"bike_id":"1f1becf7-322b-43ac-89ad-1780eea48740","system_id":"levelo_inurba_marseille","lat":43.25826,"lon":5.39419,"is_reserved":false,"is_disabled":false,"rental_uris":{"android":"levelo://app?vid=1f1becf7-322b-43ac-89ad-1780eea48740","ios":"levelo://app?vid=1f1becf7-322b-43ac-89ad-1780eea48740"},"vehicle_type_id":"4","last_reported":1731121942,"current_range_meters":7200,"station_id":"ce4bhip2rcd13ifvqft0","pricing_plan_id":"cebpf4jnsgd1na2vs0mg"},{"bike_id":"a43a2873-0eab-4410-a7ec-10187ae188cc","system_id":"levelo_inurba_marseille","lat":43.28457,"lon":5.35887,"is_reserved":false,"is_disabled":false,"rental_uris":{"android":"levelo://app?vid=a43a2873-0eab-4410-a7ec-10187ae188cc","ios":"levelo://app?vid=a43a2873-0eab-4410-a7ec-10187ae188cc"},"vehicle_type_id":"4","last_reported":1731121942,"current_range_meters":28800,"station_id":"ce4bhah2rcd13ifvqei0","pricing_plan_id":"cebpf4jnsgd1na2vs0mg"},{"bike_id":"5f46771b-d401-423e-a39f-4c02dc84927d","system_id":"levelo_inurba_marseille","lat":43.28266,"lon":5.3507,"is_reserved":false,"is_disabled":false,"rental_uris":{"android":"levelo://app?vid=5f46771b-d401-423e-a39f-4c02dc84927d","ios":"levelo://app?vid=5f46771b-d401-423e-a39f-4c02dc84927d"},"vehicle_type_id":"4","last_reported":1731121942,"current_range_meters":38000,"station_id":"ce4bhbp2rcd13ifvqerg","pricing_plan_id":"cebpf4jnsgd1na2vs0mg"},{"bike_id":"d39c8278-f1e4-41c6-b2c6-0323b764da94","system_id":"levelo_inurba_marseille","lat":43.29804,"lon":5.40406,"is_reserved":false,"is_disabled":false,"rental_uris":{"android":"levelo://app?vid=d39c8278-f1e4-41c6-b2c6-0323b764da94","ios":"levelo://app?vid=d39c8278-f1e4-41c6-b2c6-0323b764da94"},"vehicle_type_id":"4","last_reported":1731121942,"current_range_meters":39200,"station_id":"ce4bh112rcd13ifvqd90","pricing_plan_id":"cebpf4jnsgd1na2vs0mg"},{"bike_id":"7b17c7e2-e1a6-4a1c-8685-fec4587aebcd","system_id":"levelo_inurba_marseille","lat":43.30892,"lon":5.37184,"is_reserved":false,"is_disabled":false,"rental_uris":{"android":"levelo://app?vid=7b17c7e2-e1a6-4a1c-8685-fec4587aebcd","ios":"levelo://app?vid=7b17c7e2-e1a6-4a1c-8685-fec4587aebcd"},"vehicle_type_id":"4","last_reported":1731121942,"current_range_meters":37600,"station_id":"ce4bguh2rcd13ifvqckg","pricing_plan_id":"cebpf4jnsgd1na2vs0mg"},{"bike_id":"2015a957-ead6-4c85-93f3-8e74dc7d21da","system_id":"levelo_inurba_marseille","lat":43.32063,"lon":5.41538,"is_reserved":false,"is_disabled":false,"rental_uris":{"android":"levelo://app?vid=2015a957-ead6-4c85-93f3-8e74dc7d21da","ios":"levelo://app?vid=2015a957-ead6-4c85-93f3-8e74dc7d21da"},"vehicle_type_id":"4","last_reported":1731121942,"current_range_meters":38000,"station_id":"ce4bhq92rcd13ifvqhkg","pricing_plan_id":"cebpf4jnsgd1na2vs0mg"},{"bike_id":"1ff114fe-1175-49f4-a8f1-df7024e3305d","system_id":"levelo_inurba_marseille","lat":43.23152,"lon":5.43718,"is_reserved":false,"is_disabled":false,"rental_uris":{"android":"levelo://app?vid=1ff114fe-1175-49f4-a8f1-df7024e3305d","ios":"levelo://app?vid=1ff114fe-1175-49f4-a8f1-df7024e3305d"},"vehicle_type_id":"4","last_reported":1731121942,"current_range_meters":19600,"station_id":"ce4bhmp2rcd13ifvqgog","pricing_plan_id":"cebpf4jnsgd1na2vs0mg"},{"bike_id":"0f263d54-092a-4721-b68e-bffe8b305afb","system_id":"levelo_inurba_marseille","lat":43.30805,"lon":5.38155,"is_reserved":false,"is_disabled":false,"rental_uris":{"android":"levelo://app?vid=0f263d54-092a-4721-b68e-bffe8b305afb","ios":"levelo://app?vid=0f263d54-092a-4721-b68e-bffe8b305afb"},"vehicle_type_id":"4","last_reported":1731121942,"current_range_meters":38000,"station_id":"ce4bgt12rcd13ifvqce0","pricing_plan_id":"cebpf4jnsgd1na2vs0mg"},{"bike_id":"f2b88fdd-2e0b-4b5e-888c-35155555732c","system_id":"levelo_inurba_marseille","lat":43.31997,"lon":5.38142,"is_reserved":false,"is_disabled":false,"rental_uris":{"android":"levelo://app?vid=f2b88fdd-2e0b-4b5e-888c-35155555732c","ios":"levelo://app?vid=f2b88fdd-2e0b-4b5e-888c-35155555732c"},"vehicle_type_id":"4","last_reported":1731121942,"current_range_meters":39200,"station_id":"ce4bhr12rcd13ifvqhpg","pricing_plan_id":"cebpf4jnsgd1na2vs0mg"},{"bike_id":"04eefbe1-65bb-49a8-b99d-d11409a13d66","system_id":"levelo_inurba_marseille","lat":43.27935,"lon":5.41047,"is_reserved":false,"is_disabled":false,"rental_uris":{"android":"levelo://app?vid=04eefbe1-65bb-49a8-b99d-d11409a13d66","ios":"levelo://app?vid=04eefbe1-65bb-49a8-b99d-d11409a13d66"},"vehicle_type_id":"4","last_reported":1731121942,"current_range_meters":19200,"station_id":"ce4bhnp2rcd13ifvqh0g","pricing_plan_id":"cebpf4jnsgd1na2vs0mg"},{"bike_id":"b9478b1d-79e3-44c9-ae60-496dd5151f62","system_id":"levelo_inurba_marseille","lat":43.29167,"lon":5.37145,"is_reserved":false,"is_disabled":false,"rental_uris":{"android":"levelo://app?vid=b9478b1d-79e3-44c9-ae60-496dd5151f62","ios":"levelo://app?vid=b9478b1d-79e3-44c9-ae60-496dd5151f62"},"vehicle_type_id":"4","last_reported":1731121942,"current_range_meters":38400,"station_id":"ce4bha92rcd13ifvqeh0","pricing_plan_id":"cebpf4jnsgd1na2vs0mg"},{"bike_id":"adb13a41-e996-4b47-a2f6-e5e80d27b4e6","system_id":"levelo_inurba_marseille","lat":43.32337,"lon":5.40616,"is_reserved":false,"is_disabled":false,"rental_uris":{"android":"levelo://app?vid=adb13a41-e996-4b47-a2f6-e5e80d27b4e6","ios":"levelo://app?vid=adb13a41-e996-4b47-a2f6-e5e80d27b4e6"},"vehicle_type_id":"4","last_reported":1731121942,"current_range_meters":38800,"station_id":"ce4bhq92rcd13ifvqhjg","pricing_plan_id":"cebpf4jnsgd1na2vs0mg"},{"bike_id":"1e25f627-e559-4c90-8e40-cc02cc85ba7e","system_id":"levelo_inurba_marseille","lat":43.30546,"lon":5.36698,"is_reserved":false,"is_disabled":false,"rental_uris":{"android":"levelo://app?vid=1e25f627-e559-4c90-8e40-cc02cc85ba7e","ios":"levelo://app?vid=1e25f627-e559-4c90-8e40-cc02cc85ba7e"},"vehicle_type_id":"4","last_reported":1731121942,"current_range_meters":37600,"station_id":"ce4bgrp2rcd13ifvqc9g","pricing_plan_id":"cebpf4jnsgd1na2vs0mg"},{"bike_id":"de15f00a-25b1-4b9b-a102-3b4e4c3a83ba","system_id":"levelo_inurba_marseille","lat":43.30152,"lon":5.3807,"is_reserved":false,"is_disabled":false,"rental_uris":{"android":"levelo://app?vid=de15f00a-25b1-4b9b-a102-3b4e4c3a83ba","ios":"levelo://app?vid=de15f00a-25b1-4b9b-a102-3b4e4c3a83ba"},"vehicle_type_id":"4","last_reported":1731121942,"current_range_meters":38400,"station_id":"ce4bgjp2rcd13ifvqbh0","pricing_plan_id":"cebpf4jnsgd1na2vs0mg"},{"bike_id":"2d57f628-619f-420a-b65c-8f44a7ace640","system_id":"levelo_inurba_marseille","lat":43.28406,"lon":5.37516,"is_reserved":false,"is_disabled":false,"rental_uris":{"android":"levelo://app?vid=2d57f628-619f-420a-b65c-8f44a7ace640","ios":"levelo://app?vid=2d57f628-619f-420a-b65c-8f44a7ace640"},"vehicle_type_id":"4","last_reported":1731121942,"current_range_meters":33200,"station_id":"ce4bh412rcd13ifvqds0","pricing_plan_id":"cebpf4jnsgd1na2vs0mg"},{"bike_id":"4cd24ee8-666e-4ce7-8f48-946488c6487e","system_id":"levelo_inurba_marseille","lat":43.2319,"lon":5.39973,"is_reserved":false,"is_disabled":false,"rental_uris":{"android":"levelo://app?vid=4cd24ee8-666e-4ce7-8f48-946488c6487e","ios":"levelo://app?vid=4cd24ee8-666e-4ce7-8f48-946488c6487e"},"vehicle_type_id":"4","last_reported":1731121942,"current_range_meters":17600,"station_id":"ce4bhn12rcd13ifvqgqg","pricing_plan_id":"cebpf4jnsgd1na2vs0mg"},{"bike_id":"1f7ea6ab-6e3d-4109-9c83-36eadc7f2aeb","system_id":"levelo_inurba_marseille","lat":43.31328,"lon":5.39687,"is_reserved":false,"is_disabled":false,"rental_uris":{"android":"levelo://app?vid=1f7ea6ab-6e3d-4109-9c83-36eadc7f2aeb","ios":"levelo://app?vid=1f7ea6ab-6e3d-4109-9c83-36eadc7f2aeb"},"vehicle_type_id":"4","last_reported":1731121942,"current_range_meters":39200,"station_id":"ce4bgvp2rcd13ifvqcu0","pricing_plan_id":"cebpf4jnsgd1na2vs0mg"},{"bike_id":"d070148f-8ecc-4c75-8cb1-c8bc85f50390","system_id":"levelo_inurba_marseille","lat":43.33025,"lon":5.39044,"is_reserved":false,"is_disabled":false,"rental_uris":{"android":"levelo://app?vid=d070148f-8ecc-4c75-8cb1-c8bc85f50390","ios":"levelo://app?vid=d070148f-8ecc-4c75-8cb1-c8bc85f50390"},"vehicle_type_id":"4","last_reported":1731121942,"current_range_meters":11600,"station_id":"ce4bhr92rcd13ifvqhrg","pricing_plan_id":"cebpf4jnsgd1na2vs0mg"},{"bike_id":"49802e5d-6e7d-4d65-ade0-af9d690a65b9","system_id":"levelo_inurba_marseille","lat":43.27819,"lon":5.40709,"is_reserved":false,"is_disabled":false,"rental_uris":{"android":"levelo://app?vid=49802e5d-6e7d-4d65-ade0-af9d690a65b9","ios":"levelo://app?vid=49802e5d-6e7d-4d65-ade0-af9d690a65b9"},"vehicle_type_id":"4","last_reported":1731121942,"current_range_meters":19600,"station_id":"ce4bhnh2rcd13ifvqgtg","pricing_plan_id":"cebpf4jnsgd1na2vs0mg"},{"bike_id":"29824cde-4cdc-4355-9b22-a5922a403deb","system_id":"levelo_inurba_marseille","lat":43.337444,"lon":5.374475,"is_reserved":false,"is_disabled":false,"rental_uris":{"android":"levelo://app?vid=29824cde-4cdc-4355-9b22-a5922a403deb","ios":"levelo://app?vid=29824cde-4cdc-4355-9b22-a5922a403deb"},"vehicle_type_id":"4","last_reported":1731121942,"current_range_meters":35600,"station_id":"","pricing_plan_id":"cebpf4jnsgd1na2vs0mg"},{"bike_id":"d8e526d2-cabd-4260-b3f3-381a19f33459","system_id":"levelo_inurba_marseille","lat":43.30885,"lon":5.39638,"is_reserved":false,"is_disabled":false,"rental_uris":{"android":"levelo://app?vid=d8e526d2-cabd-4260-b3f3-381a19f33459","ios":"levelo://app?vid=d8e526d2-cabd-4260-b3f3-381a19f33459"},"vehicle_type_id":"4","last_reported":1731121942,"current_range_meters":8400,"station_id":"ce4bh012rcd13ifvqcv0","pricing_plan_id":"cebpf4jnsgd1na2vs0mg"},{"bike_id":"2f646251-1fc7-4d7c-84fd-6f5172a65148","system_id":"levelo_inurba_marseille","lat":43.28461,"lon":5.35884,"is_reserved":false,"is_disabled":false,"rental_uris":{"android":"levelo://app?vid=2f646251-1fc7-4d7c-84fd-6f5172a65148","ios":"levelo://app?vid=2f646251-1fc7-4d7c-84fd-6f5172a65148"},"vehicle_type_id":"4","last_reported":1731121942,"current_range_meters":36400,"station_id":"ce4bhah2rcd13ifvqei0","pricing_plan_id":"cebpf4jnsgd1na2vs0mg"},{"bike_id":"67e17654-368e-4b56-a0c7-552a55a43533","system_id":"levelo_inurba_marseille","lat":43.27563,"lon":5.3842,"is_reserved":false,"is_disabled":false,"rental_uris":{"android":"levelo://app?vid=67e17654-368e-4b56-a0c7-552a55a43533","ios":"levelo://app?vid=67e17654-368e-4b56-a0c7-552a55a43533"},"vehicle_type_id":"4","last_reported":1731121942,"current_range_meters":28800,"station_id":"ce4bhh92rcd13ifvqfi0","pricing_plan_id":"cebpf4jnsgd1na2vs0mg"},{"bike_id":"eccb9bf1-4a0c-4df5-8229-bf46f21c4329","system_id":"levelo_inurba_marseille","lat":43.31717,"lon":5.42398,"is_reserved":false,"is_disabled":false,"rental_uris":{"android":"levelo://app?vid=eccb9bf1-4a0c-4df5-8229-bf46f21c4329","ios":"levelo://app?vid=eccb9bf1-4a0c-4df5-8229-bf46f21c4329"},"vehicle_type_id":"4","last_reported":1731121942,"current_range_meters":36000,"station_id":"ce4bhp92rcd13ifvqhbg","pricing_plan_id":"cebpf4jnsgd1na2vs0mg"},{"bike_id":"ef288286-229d-4b9a-a189-8d61840dcffb","system_id":"levelo_inurba_marseille","lat":43.23192,"lon":5.35557,"is_reserved":false,"is_disabled":false,"rental_uris":{"android":"levelo://app?vid=ef288286-229d-4b9a-a189-8d61840dcffb","ios":"levelo://app?vid=ef288286-229d-4b9a-a189-8d61840dcffb"},"vehicle_type_id":"4","last_reported":1731121942,"current_range_meters":36400,"station_id":"ce4bhu92rcd13ifvqi70","pricing_plan_id":"cebpf4jnsgd1na2vs0mg"},{"bike_id":"aba30376-3325-4424-8e51-cfe3da497d72","system_id":"levelo_inurba_marseille","lat":43.30967,"lon":5.39042,"is_reserved":false,"is_disabled":false,"rental_uris":{"android":"levelo://app?vid=aba30376-3325-4424-8e51-cfe3da497d72","ios":"levelo://app?vid=aba30376-3325-4424-8e51-cfe3da497d72"},"vehicle_type_id":"4","last_reported":1731121942,"current_range_meters":39200,"station_id":"ce4bgup2rcd13ifvqco0","pricing_plan_id":"cebpf4jnsgd1na2vs0mg"},{"bike_id":"06fe70f1-1c7e-436c-824f-93f4a759022c","system_id":"levelo_inurba_marseille","lat":43.33611,"lon":5.41013,"is_reserved":false,"is_disabled":false,"rental_uris":{"android":"levelo://app?vid=06fe70f1-1c7e-436c-824f-93f4a759022c","ios":"levelo://app?vid=06fe70f1-1c7e-436c-824f-93f4a759022c"},"vehicle_type_id":"4","last_reported":1731121942,"current_range_meters":12400,"station_id":"ce4bhqh2rcd13ifvqhmg","pricing_plan_id":"cebpf4jnsgd1na2vs0mg"},{"bike_id":"9ff3a2bc-2d09-4f82-92c7-15589532de81","system_id":"levelo_inurba_marseille","lat":43.33608,"lon":5.41024,"is_reserved":false,"is_disabled":false,"rental_uris":{"android":"levelo://app?vid=9ff3a2bc-2d09-4f82-92c7-15589532de81","ios":"levelo://app?vid=9ff3a2bc-2d09-4f82-92c7-15589532de81"},"vehicle_type_id":"4","last_reported":1731121942,"current_range_meters":18800,"station_id":"ce4bhqh2rcd13ifvqhmg","pricing_plan_id":"cebpf4jnsgd1na2vs0mg"},{"bike_id":"43dbcf2e-3b20-4e0f-ac09-64b0f1ef49b7","system_id":"levelo_inurba_marseille","lat":43.257281,"lon":5.411065,"is_reserved":false,"is_disabled":false,"rental_uris":{"android":"levelo://app?vid=43dbcf2e-3b20-4e0f-ac09-64b0f1ef49b7","ios":"levelo://app?vid=43dbcf2e-3b20-4e0f-ac09-64b0f1ef49b7"},"vehicle_type_id":"4","last_reported":1731121942,"current_range_meters":38800,"station_id":"ce4bhkp2rcd13ifvqgd0","pricing_plan_id":"cebpf4jnsgd1na2vs0mg"},{"bike_id":"5e278857-ff25-429b-a53d-03827cae2638","system_id":"levelo_inurba_marseille","lat":43.24813,"lon":5.37452,"is_reserved":false,"is_disabled":false,"rental_uris":{"android":"levelo://app?vid=5e278857-ff25-429b-a53d-03827cae2638","ios":"levelo://app?vid=5e278857-ff25-429b-a53d-03827cae2638"},"vehicle_type_id":"4","last_reported":1731121942,"current_range_meters":22000,"station_id":"ce4bhgh2rcd13ifvqfb0","pricing_plan_id":"cebpf4jnsgd1na2vs0mg"},{"bike_id":"5c2e91b0-db21-4162-85e8-dbe374504ee6","system_id":"levelo_inurba_marseille","lat":43.27815,"lon":5.40706,"is_reserved":false,"is_disabled":false,"rental_uris":{"android":"levelo://app?vid=5c2e91b0-db21-4162-85e8-dbe374504ee6","ios":"levelo://app?vid=5c2e91b0-db21-4162-85e8-dbe374504ee6"},"vehicle_type_id":"4","last_reported":1731121942,"current_range_meters":38000,"station_id":"ce4bhnh2rcd13ifvqgtg","pricing_plan_id":"cebpf4jnsgd1na2vs0mg"},{"bike_id":"10ee6f64-d75c-4e2f-8ed0-6ee62c2a4643","system_id":"levelo_inurba_marseille","lat":43.24653,"lon":5.38894,"is_reserved":false,"is_disabled":false,"rental_uris":{"android":"levelo://app?vid=10ee6f64-d75c-4e2f-8ed0-6ee62c2a4643","ios":"levelo://app?vid=10ee6f64-d75c-4e2f-8ed0-6ee62c2a4643"},"vehicle_type_id":"4","last_reported":1731121942,"current_range_meters":17600,"station_id":"ce4bhg12rcd13ifvqf60","pricing_plan_id":"cebpf4jnsgd1na2vs0mg"},{"bike_id":"c4ceb15a-5c5b-4500-b281-24d33897ea9b","system_id":"levelo_inurba_marseille","lat":43.29809,"lon":5.40406,"is_reserved":false,"is_disabled":false,"rental_uris":{"android":"levelo://app?vid=c4ceb15a-5c5b-4500-b281-24d33897ea9b","ios":"levelo://app?vid=c4ceb15a-5c5b-4500-b281-24d33897ea9b"},"vehicle_type_id":"4","last_reported":1731121942,"current_range_meters":34000,"station_id":"ce4bh112rcd13ifvqd90","pricing_plan_id":"cebpf4jnsgd1na2vs0mg"},{"bike_id":"17af4bea-b3de-4c83-bdca-1950a356db9a","system_id":"levelo_inurba_marseille","lat":43.31272,"lon":5.40169,"is_reserved":false,"is_disabled":false,"rental_uris":{"android":"levelo://app?vid=17af4bea-b3de-4c83-bdca-1950a356db9a","ios":"levelo://app?vid=17af4bea-b3de-4c83-bdca-1950a356db9a"},"vehicle_type_id":"4","last_reported":1731121942,"current_range_meters":38000,"station_id":"ce4bh092rcd13ifvqd30","pricing_plan_id":"cebpf4jnsgd1na2vs0mg"},{"bike_id":"27647bcf-c132-4bcf-a5f5-82ad5aeb2175","system_id":"levelo_inurba_marseille","lat":43.31127,"lon":5.3776,"is_reserved":false,"is_disabled":false,"rental_uris":{"android":"levelo://app?vid=27647bcf-c132-4bcf-a5f5-82ad5aeb2175","ios":"levelo://app?vid=27647bcf-c132-4bcf-a5f5-82ad5aeb2175"},"vehicle_type_id":"4","last_reported":1731121942,"current_range_meters":39200,"station_id":"ce4bgt92rcd13ifvqcg0","pricing_plan_id":"cebpf4jnsgd1na2vs0mg"},{"bike_id":"ac963c09-022d-4dbd-82ec-d4fdab6c93b8","system_id":"levelo_inurba_marseille","lat":43.30927,"lon":5.40151,"is_reserved":false,"is_disabled":false,"rental_uris":{"android":"levelo://app?vid=ac963c09-022d-4dbd-82ec-d4fdab6c93b8","ios":"levelo://app?vid=ac963c09-022d-4dbd-82ec-d4fdab6c93b8"},"vehicle_type_id":"4","last_reported":1731121942,"current_range_meters":38800,"station_id":"ce4bgvp2rcd13ifvqct0","pricing_plan_id":"cebpf4jnsgd1na2vs0mg"},{"bike_id":"860b2cf0-4aed-4b29-846c-c972dd8f24a5","system_id":"levelo_inurba_marseille","lat":43.28733,"lon":5.36088,"is_reserved":false,"is_disabled":false,"rental_uris":{"android":"levelo://app?vid=860b2cf0-4aed-4b29-846c-c972dd8f24a5","ios":"levelo://app?vid=860b2cf0-4aed-4b29-846c-c972dd8f24a5"},"vehicle_type_id":"4","last_reported":1731121942,"current_range_meters":29600,"station_id":"cki0cbj6b192h4jlfktg","pricing_plan_id":"cebpf4jnsgd1na2vs0mg"},{"bike_id":"183998b6-17d7-4eea-bdb6-b39e58a7063e","system_id":"levelo_inurba_marseille","lat":43.31715,"lon":5.43698,"is_reserved":false,"is_disabled":false,"rental_uris":{"android":"levelo://app?vid=183998b6-17d7-4eea-bdb6-b39e58a7063e","ios":"levelo://app?vid=183998b6-17d7-4eea-bdb6-b39e58a7063e"},"vehicle_type_id":"4","last_reported":1731121942,"current_range_meters":18800,"station_id":"ce4bhp92rcd13ifvqhcg","pricing_plan_id":"cebpf4jnsgd1na2vs0mg"},{"bike_id":"8faa22dc-5f3c-4af6-b84b-f554e09d6313","system_id":"levelo_inurba_marseille","lat":43.337444,"lon":5.374475,"is_reserved":false,"is_disabled":false,"rental_uris":{"android":"levelo://app?vid=8faa22dc-5f3c-4af6-b84b-f554e09d6313","ios":"levelo://app?vid=8faa22dc-5f3c-4af6-b84b-f554e09d6313"},"vehicle_type_id":"4","last_reported":1731121942,"current_range_meters":35200,"station_id":"","pricing_plan_id":"cebpf4jnsgd1na2vs0mg"},{"bike_id":"e08ac53e-9755-45cd-87e7-911eb4600467","system_id":"levelo_inurba_marseille","lat":43.28402,"lon":5.37519,"is_reserved":false,"is_disabled":false,"rental_uris":{"android":"levelo://app?vid=e08ac53e-9755-45cd-87e7-911eb4600467","ios":"levelo://app?vid=e08ac53e-9755-45cd-87e7-911eb4600467"},"vehicle_type_id":"4","last_reported":1731121942,"current_range_meters":36000,"station_id":"ce4bh412rcd13ifvqds0","pricing_plan_id":"cebpf4jnsgd1na2vs0mg"},{"bike_id":"8a3bb193-e44a-4dda-9ac1-86b1ecd75412","system_id":"levelo_inurba_marseille","lat":43.31894,"lon":5.40732,"is_reserved":false,"is_disabled":false,"rental_uris":{"android":"levelo://app?vid=8a3bb193-e44a-4dda-9ac1-86b1ecd75412","ios":"levelo://app?vid=8a3bb193-e44a-4dda-9ac1-86b1ecd75412"},"vehicle_type_id":"4","last_reported":1731121942,"current_range_meters":38800,"station_id":"ce4bhq12rcd13ifvqhig","pricing_plan_id":"cebpf4jnsgd1na2vs0mg"},{"bike_id":"da56df38-eab2-459f-8f90-922696119db1","system_id":"levelo_inurba_marseille","lat":43.30319,"lon":5.4044,"is_reserved":false,"is_disabled":false,"rental_uris":{"android":"levelo://app?vid=da56df38-eab2-459f-8f90-922696119db1","ios":"levelo://app?vid=da56df38-eab2-459f-8f90-922696119db1"},"vehicle_type_id":"4","last_reported":1731121942,"current_range_meters":38800,"station_id":"ce4bh012rcd13ifvqd10","pricing_plan_id":"cebpf4jnsgd1na2vs0mg"},{"bike_id":"9cf54a58-2c37-48cf-a40d-e37e14d46ee5","system_id":"levelo_inurba_marseille","lat":43.30329,"lon":5.4043,"is_reserved":false,"is_disabled":false,"rental_uris":{"android":"levelo://app?vid=9cf54a58-2c37-48cf-a40d-e37e14d46ee5","ios":"levelo://app?vid=9cf54a58-2c37-48cf-a40d-e37e14d46ee5"},"vehicle_type_id":"4","last_reported":1731121942,"current_range_meters":22400,"station_id":"ce4bh012rcd13ifvqd10","pricing_plan_id":"cebpf4jnsgd1na2vs0mg"},{"bike_id":"c7a601e3-837f-43df-885f-82aca8c8aba7","system_id":"levelo_inurba_marseille","lat":43.29445,"lon":5.38456,"is_reserved":false,"is_disabled":false,"rental_uris":{"android":"levelo://app?vid=c7a601e3-837f-43df-885f-82aca8c8aba7","ios":"levelo://app?vid=c7a601e3-837f-43df-885f-82aca8c8aba7"},"vehicle_type_id":"4","last_reported":1731121942,"current_range_meters":16000,"station_id":"","pricing_plan_id":"cebpf4jnsgd1na2vs0mg"},{"bike_id":"34e88b95-8ebf-45cd-ba93-72e13ad50ff3","system_id":"levelo_inurba_marseille","lat":43.29718,"lon":5.36612,"is_reserved":false,"is_disabled":false,"rental_uris":{"android":"levelo://app?vid=34e88b95-8ebf-45cd-ba93-72e13ad50ff3","ios":"levelo://app?vid=34e88b95-8ebf-45cd-ba93-72e13ad50ff3"},"vehicle_type_id":"4","last_reported":1731121942,"current_range_meters":40000,"station_id":"ce4bgn12rcd13ifvqbt0","pricing_plan_id":"cebpf4jnsgd1na2vs0mg"},{"bike_id":"53e176ca-3a96-45e2-b9c1-f258ec8a7a25","system_id":"levelo_inurba_marseille","lat":43.2315,"lon":5.4372,"is_reserved":false,"is_disabled":false,"rental_uris":{"android":"levelo://app?vid=53e176ca-3a96-45e2-b9c1-f258ec8a7a25","ios":"levelo://app?vid=53e176ca-3a96-45e2-b9c1-f258ec8a7a25"},"vehicle_type_id":"4","last_reported":1731121942,"current_range_meters":16400,"station_id":"ce4bhmp2rcd13ifvqgog","pricing_plan_id":"cebpf4jnsgd1na2vs0mg"},{"bike_id":"8ee7b9d5-9f1d-49f2-870d-69c8b74d6a1f","system_id":"levelo_inurba_marseille","lat":43.24661,"lon":5.38168,"is_reserved":false,"is_disabled":false,"rental_uris":{"android":"levelo://app?vid=8ee7b9d5-9f1d-49f2-870d-69c8b74d6a1f","ios":"levelo://app?vid=8ee7b9d5-9f1d-49f2-870d-69c8b74d6a1f"},"vehicle_type_id":"4","last_reported":1731121942,"current_range_meters":12400,"station_id":"ce4bhih2rcd13ifvqfr0","pricing_plan_id":"cebpf4jnsgd1na2vs0mg"},{"bike_id":"5fcac8d1-3460-4de9-8166-83a29fe1bc75","system_id":"levelo_inurba_marseille","lat":43.30938,"lon":5.40139,"is_reserved":false,"is_disabled":false,"rental_uris":{"android":"levelo://app?vid=5fcac8d1-3460-4de9-8166-83a29fe1bc75","ios":"levelo://app?vid=5fcac8d1-3460-4de9-8166-83a29fe1bc75"},"vehicle_type_id":"4","last_reported":1731121942,"current_range_meters":25600,"station_id":"ce4bgvp2rcd13ifvqct0","pricing_plan_id":"cebpf4jnsgd1na2vs0mg"},{"bike_id":"df1343a1-745d-42d9-a439-b7e1d8aba950","system_id":"levelo_inurba_marseille","lat":43.33605,"lon":5.41023,"is_reserved":false,"is_disabled":false,"rental_uris":{"android":"levelo://app?vid=df1343a1-745d-42d9-a439-b7e1d8aba950","ios":"levelo://app?vid=df1343a1-745d-42d9-a439-b7e1d8aba950"},"vehicle_type_id":"4","last_reported":1731121942,"current_range_meters":18800,"station_id":"ce4bhqh2rcd13ifvqhmg","pricing_plan_id":"cebpf4jnsgd1na2vs0mg"},{"bike_id":"f71f3d24-e3fa-489a-bd82-3a7b3caecc0b","system_id":"levelo_inurba_marseille","lat":43.3122,"lon":5.36898,"is_reserved":false,"is_disabled":false,"rental_uris":{"android":"levelo://app?vid=f71f3d24-e3fa-489a-bd82-3a7b3caecc0b","ios":"levelo://app?vid=f71f3d24-e3fa-489a-bd82-3a7b3caecc0b"},"vehicle_type_id":"4","last_reported":1731121942,"current_range_meters":36800,"station_id":"ce4bgl92rcd13ifvqbq0","pricing_plan_id":"cebpf4jnsgd1na2vs0mg"},{"bike_id":"4de16669-81af-4d13-ab5a-fb82eb47fa93","system_id":"levelo_inurba_marseille","lat":43.30807,"lon":5.38151,"is_reserved":false,"is_disabled":false,"rental_uris":{"android":"levelo://app?vid=4de16669-81af-4d13-ab5a-fb82eb47fa93","ios":"levelo://app?vid=4de16669-81af-4d13-ab5a-fb82eb47fa93"},"vehicle_type_id":"4","last_reported":1731121942,"current_range_meters":30800,"station_id":"ce4bgt12rcd13ifvqce0","pricing_plan_id":"cebpf4jnsgd1na2vs0mg"},{"bike_id":"86e57927-5763-4994-8fd0-6df5d6d70f25","system_id":"levelo_inurba_marseille","lat":43.281145,"lon":5.40151,"is_reserved":false,"is_disabled":false,"rental_uris":{"android":"levelo://app?vid=86e57927-5763-4994-8fd0-6df5d6d70f25","ios":"levelo://app?vid=86e57927-5763-4994-8fd0-6df5d6d70f25"},"vehicle_type_id":"4","last_reported":1731121942,"current_range_meters":35600,"station_id":"ce4bho92rcd13ifvqh4g","pricing_plan_id":"cebpf4jnsgd1na2vs0mg"},{"bike_id":"96216fca-520a-43f8-97bd-ea3488829150","system_id":"levelo_inurba_marseille","lat":43.28573,"lon":5.39489,"is_reserved":false,"is_disabled":false,"rental_uris":{"android":"levelo://app?vid=96216fca-520a-43f8-97bd-ea3488829150","ios":"levelo://app?vid=96216fca-520a-43f8-97bd-ea3488829150"},"vehicle_type_id":"4","last_reported":1731121942,"current_range_meters":33600,"station_id":"ce4bh292rcd13ifvqdg0","pricing_plan_id":"cebpf4jnsgd1na2vs0mg"},{"bike_id":"b2cf47e7-e7b3-4554-bd94-55ed8ee90da9","system_id":"levelo_inurba_marseille","lat":43.30936,"lon":5.40141,"is_reserved":false,"is_disabled":false,"rental_uris":{"android":"levelo://app?vid=b2cf47e7-e7b3-4554-bd94-55ed8ee90da9","ios":"levelo://app?vid=b2cf47e7-e7b3-4554-bd94-55ed8ee90da9"},"vehicle_type_id":"4","last_reported":1731121942,"current_range_meters":36400,"station_id":"ce4bgvp2rcd13ifvqct0","pricing_plan_id":"cebpf4jnsgd1na2vs0mg"},{"bike_id":"174b8d7c-6848-4016-b24b-870b68ed4eb7","system_id":"levelo_inurba_marseille","lat":43.285698,"lon":5.394976,"is_reserved":false,"is_disabled":false,"rental_uris":{"android":"levelo://app?vid=174b8d7c-6848-4016-b24b-870b68ed4eb7","ios":"levelo://app?vid=174b8d7c-6848-4016-b24b-870b68ed4eb7"},"vehicle_type_id":"4","last_reported":1731121942,"current_range_meters":38800,"station_id":"ce4bh292rcd13ifvqdg0","pricing_plan_id":"cebpf4jnsgd1na2vs0mg"},{"bike_id":"8335c52d-8bfd-4675-b97c-32bb688c20ed","system_id":"levelo_inurba_marseille","lat":43.29262,"lon":5.40904,"is_reserved":false,"is_disabled":false,"rental_uris":{"android":"levelo://app?vid=8335c52d-8bfd-4675-b97c-32bb688c20ed","ios":"levelo://app?vid=8335c52d-8bfd-4675-b97c-32bb688c20ed"},"vehicle_type_id":"4","last_reported":1731121942,"current_range_meters":38000,"station_id":"ce4bh192rcd13ifvqdc0","pricing_plan_id":"cebpf4jnsgd1na2vs0mg"},{"bike_id":"4c23aa4c-424f-4eb7-8027-50b92db4b055","system_id":"levelo_inurba_marseille","lat":43.27817,"lon":5.40712,"is_reserved":false,"is_disabled":false,"rental_uris":{"android":"levelo://app?vid=4c23aa4c-424f-4eb7-8027-50b92db4b055","ios":"levelo://app?vid=4c23aa4c-424f-4eb7-8027-50b92db4b055"},"vehicle_type_id":"4","last_reported":1731121942,"current_range_meters":23200,"station_id":"ce4bhnh2rcd13ifvqgtg","pricing_plan_id":"cebpf4jnsgd1na2vs0mg"},{"bike_id":"eb8ae82e-b5af-4e43-8b69-b135e11d1ed6","system_id":"levelo_inurba_marseille","lat":43.29901,"lon":5.43653,"is_reserved":false,"is_disabled":false,"rental_uris":{"android":"levelo://app?vid=eb8ae82e-b5af-4e43-8b69-b135e11d1ed6","ios":"levelo://app?vid=eb8ae82e-b5af-4e43-8b69-b135e11d1ed6"},"vehicle_type_id":"4","last_reported":1731121942,"current_range_meters":9200,"station_id":"ce4bhpp2rcd13ifvqhfg","pricing_plan_id":"cebpf4jnsgd1na2vs0mg"},{"bike_id":"9c276022-10a6-41c4-88a1-027e02835a1f","system_id":"levelo_inurba_marseille","lat":43.2782,"lon":5.40705,"is_reserved":false,"is_disabled":false,"rental_uris":{"android":"levelo://app?vid=9c276022-10a6-41c4-88a1-027e02835a1f","ios":"levelo://app?vid=9c276022-10a6-41c4-88a1-027e02835a1f"},"vehicle_type_id":"4","last_reported":1731121942,"current_range_meters":27200,"station_id":"ce4bhnh2rcd13ifvqgtg","pricing_plan_id":"cebpf4jnsgd1na2vs0mg"},{"bike_id":"d6fdae69-642e-4d84-a8fd-edeb75ed0ef4","system_id":"levelo_inurba_marseille","lat":43.22932,"lon":5.35378,"is_reserved":false,"is_disabled":false,"rental_uris":{"android":"levelo://app?vid=d6fdae69-642e-4d84-a8fd-edeb75ed0ef4","ios":"levelo://app?vid=d6fdae69-642e-4d84-a8fd-edeb75ed0ef4"},"vehicle_type_id":"4","last_reported":1731121942,"current_range_meters":38800,"station_id":"cpo3532slgdg3j2ikp40","pricing_plan_id":"cebpf4jnsgd1na2vs0mg"},{"bike_id":"5cc66348-f056-4771-be0a-d998fca017be","system_id":"levelo_inurba_marseille","lat":43.250848,"lon":5.3952,"is_reserved":false,"is_disabled":false,"rental_uris":{"android":"levelo://app?vid=5cc66348-f056-4771-be0a-d998fca017be","ios":"levelo://app?vid=5cc66348-f056-4771-be0a-d998fca017be"},"vehicle_type_id":"4","last_reported":1731121942,"current_range_meters":20400,"station_id":"ce4bhm12rcd13ifvqgkg","pricing_plan_id":"cebpf4jnsgd1na2vs0mg"},{"bike_id":"f197336e-c908-4dad-86da-60febe6fb5b2","system_id":"levelo_inurba_marseille","lat":43.27615,"lon":5.36108,"is_reserved":false,"is_disabled":false,"rental_uris":{"android":"levelo://app?vid=f197336e-c908-4dad-86da-60febe6fb5b2","ios":"levelo://app?vid=f197336e-c908-4dad-86da-60febe6fb5b2"},"vehicle_type_id":"4","last_reported":1731121942,"current_range_meters":25600,"station_id":"ce4bgj92rcd13ifvqbe0","pricing_plan_id":"cebpf4jnsgd1na2vs0mg"},{"bike_id":"e1f0feec-c9e1-4322-9a21-d4cfff11939d","system_id":"levelo_inurba_marseille","lat":43.31893,"lon":5.40729,"is_reserved":false,"is_disabled":false,"rental_uris":{"android":"levelo://app?vid=e1f0feec-c9e1-4322-9a21-d4cfff11939d","ios":"levelo://app?vid=e1f0feec-c9e1-4322-9a21-d4cfff11939d"},"vehicle_type_id":"4","last_reported":1731121942,"current_range_meters":39200,"station_id":"ce4bhq12rcd13ifvqhig","pricing_plan_id":"cebpf4jnsgd1na2vs0mg"},{"bike_id":"ae54d96d-70f5-4347-8dd4-86d634a169dd","system_id":"levelo_inurba_marseille","lat":43.25111,"lon":5.40331,"is_reserved":false,"is_disabled":false,"rental_uris":{"android":"levelo://app?vid=ae54d96d-70f5-4347-8dd4-86d634a169dd","ios":"levelo://app?vid=ae54d96d-70f5-4347-8dd4-86d634a169dd"},"vehicle_type_id":"4","last_reported":1731121942,"current_range_meters":35600,"station_id":"ce4bhlh2rcd13ifvqgig","pricing_plan_id":"cebpf4jnsgd1na2vs0mg"},{"bike_id":"86d64521-d332-4842-b4fb-5fa4820d8c81","system_id":"levelo_inurba_marseille","lat":43.337444,"lon":5.374475,"is_reserved":false,"is_disabled":false,"rental_uris":{"android":"levelo://app?vid=86d64521-d332-4842-b4fb-5fa4820d8c81","ios":"levelo://app?vid=86d64521-d332-4842-b4fb-5fa4820d8c81"},"vehicle_type_id":"4","last_reported":1731121942,"current_range_meters":35200,"station_id":"","pricing_plan_id":"cebpf4jnsgd1na2vs0mg"},{"bike_id":"f8cd690e-418b-4302-a25c-e9231a81bf44","system_id":"levelo_inurba_marseille","lat":43.28266,"lon":5.3506,"is_reserved":false,"is_disabled":false,"rental_uris":{"android":"levelo://app?vid=f8cd690e-418b-4302-a25c-e9231a81bf44","ios":"levelo://app?vid=f8cd690e-418b-4302-a25c-e9231a81bf44"},"vehicle_type_id":"4","last_reported":1731121942,"current_range_meters":17200,"station_id":"ce4bhbp2rcd13ifvqerg","pricing_plan_id":"cebpf4jnsgd1na2vs0mg"},{"bike_id":"e99d247a-1ce0-4c71-944b-d68cc3c2ab92","system_id":"levelo_inurba_marseille","lat":43.3065,"lon":5.40093,"is_reserved":false,"is_disabled":false,"rental_uris":{"android":"levelo://app?vid=e99d247a-1ce0-4c71-944b-d68cc3c2ab92","ios":"levelo://app?vid=e99d247a-1ce0-4c71-944b-d68cc3c2ab92"},"vehicle_type_id":"4","last_reported":1731121942,"current_range_meters":30800,"station_id":"ce4bh112rcd13ifvqda0","pricing_plan_id":"cebpf4jnsgd1na2vs0mg"},{"bike_id":"0522b4fd-8208-4f31-b677-a208dee7d00d","system_id":"levelo_inurba_marseille","lat":43.28679,"lon":5.38649,"is_reserved":false,"is_disabled":false,"rental_uris":{"android":"levelo://app?vid=0522b4fd-8208-4f31-b677-a208dee7d00d","ios":"levelo://app?vid=0522b4fd-8208-4f31-b677-a208dee7d00d"},"vehicle_type_id":"4","last_reported":1731121942,"current_range_meters":6400,"station_id":"ce4bh492rcd13ifvqdug","pricing_plan_id":"cebpf4jnsgd1na2vs0mg"},{"bike_id":"448d3bf9-78cb-439a-a23b-0e48f1b89013","system_id":"levelo_inurba_marseille","lat":43.323681,"lon":5.388852,"is_reserved":false,"is_disabled":false,"rental_uris":{"android":"levelo://app?vid=448d3bf9-78cb-439a-a23b-0e48f1b89013","ios":"levelo://app?vid=448d3bf9-78cb-439a-a23b-0e48f1b89013"},"vehicle_type_id":"4","last_reported":1731121942,"current_range_meters":13600,"station_id":"ce4bhqp2rcd13ifvqhog","pricing_plan_id":"cebpf4jnsgd1na2vs0mg"},{"bike_id":"08c87c74-8ce5-4912-ab68-fb06a199a47b","system_id":"levelo_inurba_marseille","lat":43.23189,"lon":5.39984,"is_reserved":false,"is_disabled":false,"rental_uris":{"android":"levelo://app?vid=08c87c74-8ce5-4912-ab68-fb06a199a47b","ios":"levelo://app?vid=08c87c74-8ce5-4912-ab68-fb06a199a47b"},"vehicle_type_id":"4","last_reported":1731121942,"current_range_meters":39200,"station_id":"ce4bhn12rcd13ifvqgqg","pricing_plan_id":"cebpf4jnsgd1na2vs0mg"},{"bike_id":"0b53fb54-f6fa-45c1-b912-5bc81e2b4ac7","system_id":"levelo_inurba_marseille","lat":43.30471,"lon":5.37904,"is_reserved":false,"is_disabled":false,"rental_uris":{"android":"levelo://app?vid=0b53fb54-f6fa-45c1-b912-5bc81e2b4ac7","ios":"levelo://app?vid=0b53fb54-f6fa-45c1-b912-5bc81e2b4ac7"},"vehicle_type_id":"4","last_reported":1731121942,"current_range_meters":9200,"station_id":"ce4bgup2rcd13ifvqcn0","pricing_plan_id":"cebpf4jnsgd1na2vs0mg"},{"bike_id":"1dfd26b6-6ae9-4d29-8c2c-fd7385bb843a","system_id":"levelo_inurba_marseille","lat":43.30641,"lon":5.40072,"is_reserved":false,"is_disabled":false,"rental_uris":{"android":"levelo://app?vid=1dfd26b6-6ae9-4d29-8c2c-fd7385bb843a","ios":"levelo://app?vid=1dfd26b6-6ae9-4d29-8c2c-fd7385bb843a"},"vehicle_type_id":"4","last_reported":1731121942,"current_range_meters":36800,"station_id":"ce4bh112rcd13ifvqda0","pricing_plan_id":"cebpf4jnsgd1na2vs0mg"},{"bike_id":"3a1b2dee-3aac-4d59-8987-200b89692033","system_id":"levelo_inurba_marseille","lat":43.28406,"lon":5.37515,"is_reserved":false,"is_disabled":false,"rental_uris":{"android":"levelo://app?vid=3a1b2dee-3aac-4d59-8987-200b89692033","ios":"levelo://app?vid=3a1b2dee-3aac-4d59-8987-200b89692033"},"vehicle_type_id":"4","last_reported":1731121942,"current_range_meters":34800,"station_id":"ce4bh412rcd13ifvqds0","pricing_plan_id":"cebpf4jnsgd1na2vs0mg"},{"bike_id":"d4e2615a-83f7-44f4-94b2-ee4cf6b17fb3","system_id":"levelo_inurba_marseille","lat":43.25093,"lon":5.39521,"is_reserved":false,"is_disabled":false,"rental_uris":{"android":"levelo://app?vid=d4e2615a-83f7-44f4-94b2-ee4cf6b17fb3","ios":"levelo://app?vid=d4e2615a-83f7-44f4-94b2-ee4cf6b17fb3"},"vehicle_type_id":"4","last_reported":1731121942,"current_range_meters":20400,"station_id":"ce4bhm12rcd13ifvqgkg","pricing_plan_id":"cebpf4jnsgd1na2vs0mg"},{"bike_id":"bb357536-e9fc-453b-9696-acb893fcc304","system_id":"levelo_inurba_marseille","lat":43.276186,"lon":5.361126,"is_reserved":false,"is_disabled":false,"rental_uris":{"android":"levelo://app?vid=bb357536-e9fc-453b-9696-acb893fcc304","ios":"levelo://app?vid=bb357536-e9fc-453b-9696-acb893fcc304"},"vehicle_type_id":"4","last_reported":1731121942,"current_range_meters":30000,"station_id":"ce4bgj92rcd13ifvqbe0","pricing_plan_id":"cebpf4jnsgd1na2vs0mg"},{"bike_id":"1e3dea22-7fac-4f4b-b600-c929631fbbdf","system_id":"levelo_inurba_marseille","lat":43.3172,"lon":5.42389,"is_reserved":false,"is_disabled":false,"rental_uris":{"android":"levelo://app?vid=1e3dea22-7fac-4f4b-b600-c929631fbbdf","ios":"levelo://app?vid=1e3dea22-7fac-4f4b-b600-c929631fbbdf"},"vehicle_type_id":"4","last_reported":1731121942,"current_range_meters":38800,"station_id":"ce4bhp92rcd13ifvqhbg","pricing_plan_id":"cebpf4jnsgd1na2vs0mg"},{"bike_id":"73f1ea5e-61a3-470f-a393-df09eabadcf2","system_id":"levelo_inurba_marseille","lat":43.307806,"lon":5.376545,"is_reserved":false,"is_disabled":false,"rental_uris":{"android":"levelo://app?vid=73f1ea5e-61a3-470f-a393-df09eabadcf2","ios":"levelo://app?vid=73f1ea5e-61a3-470f-a393-df09eabadcf2"},"vehicle_type_id":"4","last_reported":1731121942,"current_range_meters":14800,"station_id":"ce4bgv92rcd13ifvqcq0","pricing_plan_id":"cebpf4jnsgd1na2vs0mg"},{"bike_id":"8f870f83-fd9e-42de-8cdb-a421eef47b08","system_id":"levelo_inurba_marseille","lat":43.26945,"lon":5.40244,"is_reserved":false,"is_disabled":false,"rental_uris":{"android":"levelo://app?vid=8f870f83-fd9e-42de-8cdb-a421eef47b08","ios":"levelo://app?vid=8f870f83-fd9e-42de-8cdb-a421eef47b08"},"vehicle_type_id":"4","last_reported":1731121942,"current_range_meters":24400,"station_id":"cjm6bp8fraef2m0cb0m0","pricing_plan_id":"cebpf4jnsgd1na2vs0mg"},{"bike_id":"8864522f-df38-4b28-8ef8-dd87d89715ec","system_id":"levelo_inurba_marseille","lat":43.30427,"lon":5.39748,"is_reserved":false,"is_disabled":false,"rental_uris":{"android":"levelo://app?vid=8864522f-df38-4b28-8ef8-dd87d89715ec","ios":"levelo://app?vid=8864522f-df38-4b28-8ef8-dd87d89715ec"},"vehicle_type_id":"4","last_reported":1731121942,"current_range_meters":39200,"station_id":"ce4bh092rcd13ifvqd20","pricing_plan_id":"cebpf4jnsgd1na2vs0mg"},{"bike_id":"842e7854-f33a-43ee-9363-9f48b0cce9a2","system_id":"levelo_inurba_marseille","lat":43.30952,"lon":5.39034,"is_reserved":false,"is_disabled":false,"rental_uris":{"android":"levelo://app?vid=842e7854-f33a-43ee-9363-9f48b0cce9a2","ios":"levelo://app?vid=842e7854-f33a-43ee-9363-9f48b0cce9a2"},"vehicle_type_id":"4","last_reported":1731121942,"current_range_meters":38000,"station_id":"ce4bgup2rcd13ifvqco0","pricing_plan_id":"cebpf4jnsgd1na2vs0mg"},{"bike_id":"bbc4f13b-cc27-45c8-9657-03eb08fa0f07","system_id":"levelo_inurba_marseille","lat":43.25113,"lon":5.40321,"is_reserved":false,"is_disabled":false,"rental_uris":{"android":"levelo://app?vid=bbc4f13b-cc27-45c8-9657-03eb08fa0f07","ios":"levelo://app?vid=bbc4f13b-cc27-45c8-9657-03eb08fa0f07"},"vehicle_type_id":"4","last_reported":1731121942,"current_range_meters":25600,"station_id":"ce4bhlh2rcd13ifvqgig","pricing_plan_id":"cebpf4jnsgd1na2vs0mg"},{"bike_id":"a0d9d5ae-de17-4341-bed9-edfa4e4e8139","system_id":"levelo_inurba_marseille","lat":43.304445,"lon":5.366323,"is_reserved":false,"is_disabled":false,"rental_uris":{"android":"levelo://app?vid=a0d9d5ae-de17-4341-bed9-edfa4e4e8139","ios":"levelo://app?vid=a0d9d5ae-de17-4341-bed9-edfa4e4e8139"},"vehicle_type_id":"4","last_reported":1731121942,"current_range_meters":4000,"station_id":"","pricing_plan_id":"cebpf4jnsgd1na2vs0mg"},{"bike_id":"240fac95-469b-4ec1-a905-bc2e3ab6eab7","system_id":"levelo_inurba_marseille","lat":43.2481,"lon":5.37455,"is_reserved":false,"is_disabled":false,"rental_uris":{"android":"levelo://app?vid=240fac95-469b-4ec1-a905-bc2e3ab6eab7","ios":"levelo://app?vid=240fac95-469b-4ec1-a905-bc2e3ab6eab7"},"vehicle_type_id":"4","last_reported":1731121942,"current_range_meters":38800,"station_id":"ce4bhgh2rcd13ifvqfb0","pricing_plan_id":"cebpf4jnsgd1na2vs0mg"},{"bike_id":"7ee5e9c9-c9de-4184-be15-04dcbb3ea74c","system_id":"levelo_inurba_marseille","lat":43.32291,"lon":5.38281,"is_reserved":false,"is_disabled":false,"rental_uris":{"android":"levelo://app?vid=7ee5e9c9-c9de-4184-be15-04dcbb3ea74c","ios":"levelo://app?vid=7ee5e9c9-c9de-4184-be15-04dcbb3ea74c"},"vehicle_type_id":"4","last_reported":1731121942,"current_range_meters":25200,"station_id":"ce4bhr12rcd13ifvqhqg","pricing_plan_id":"cebpf4jnsgd1na2vs0mg"},{"bike_id":"daa40397-b935-43a1-8b04-4eb5a237eb7f","system_id":"levelo_inurba_marseille","lat":43.308001,"lon":5.381648,"is_reserved":false,"is_disabled":false,"rental_uris":{"android":"levelo://app?vid=daa40397-b935-43a1-8b04-4eb5a237eb7f","ios":"levelo://app?vid=daa40397-b935-43a1-8b04-4eb5a237eb7f"},"vehicle_type_id":"4","last_reported":1731121942,"current_range_meters":38000,"station_id":"ce4bgt12rcd13ifvqce0","pricing_plan_id":"cebpf4jnsgd1na2vs0mg"},{"bike_id":"cfbc5f4a-02d5-44b0-b064-243db6db2988","system_id":"levelo_inurba_marseille","lat":43.2512,"lon":5.40322,"is_reserved":false,"is_disabled":false,"rental_uris":{"android":"levelo://app?vid=cfbc5f4a-02d5-44b0-b064-243db6db2988","ios":"levelo://app?vid=cfbc5f4a-02d5-44b0-b064-243db6db2988"},"vehicle_type_id":"4","last_reported":1731121942,"current_range_meters":22800,"station_id":"ce4bhlh2rcd13ifvqgig","pricing_plan_id":"cebpf4jnsgd1na2vs0mg"},{"bike_id":"c7bbeaf1-9143-4605-9dd2-31eea73940ee","system_id":"levelo_inurba_marseille","lat":43.2987,"lon":5.39757,"is_reserved":false,"is_disabled":false,"rental_uris":{"android":"levelo://app?vid=c7bbeaf1-9143-4605-9dd2-31eea73940ee","ios":"levelo://app?vid=c7bbeaf1-9143-4605-9dd2-31eea73940ee"},"vehicle_type_id":"4","last_reported":1731121942,"current_range_meters":13600,"station_id":"ce4bh0h2rcd13ifvqd50","pricing_plan_id":"cebpf4jnsgd1na2vs0mg"},{"bike_id":"92d70b13-e3e5-4474-a1bf-7bc985d7b097","system_id":"levelo_inurba_marseille","lat":43.2582,"lon":5.39432,"is_reserved":false,"is_disabled":false,"rental_uris":{"android":"levelo://app?vid=92d70b13-e3e5-4474-a1bf-7bc985d7b097","ios":"levelo://app?vid=92d70b13-e3e5-4474-a1bf-7bc985d7b097"},"vehicle_type_id":"4","last_reported":1731121942,"current_range_meters":28000,"station_id":"ce4bhip2rcd13ifvqft0","pricing_plan_id":"cebpf4jnsgd1na2vs0mg"},{"bike_id":"e0352fab-c635-4c7a-87d9-f615c078509d","system_id":"levelo_inurba_marseille","lat":43.32485,"lon":5.36571,"is_reserved":false,"is_disabled":false,"rental_uris":{"android":"levelo://app?vid=e0352fab-c635-4c7a-87d9-f615c078509d","ios":"levelo://app?vid=e0352fab-c635-4c7a-87d9-f615c078509d"},"vehicle_type_id":"4","last_reported":1731121942,"current_range_meters":38000,"station_id":"ce4bhs12rcd13ifvqhvg","pricing_plan_id":"cebpf4jnsgd1na2vs0mg"},{"bike_id":"232fae3b-00c1-49f4-85c4-567ead6faa03","system_id":"levelo_inurba_marseille","lat":43.24814,"lon":5.37458,"is_reserved":false,"is_disabled":false,"rental_uris":{"android":"levelo://app?vid=232fae3b-00c1-49f4-85c4-567ead6faa03","ios":"levelo://app?vid=232fae3b-00c1-49f4-85c4-567ead6faa03"},"vehicle_type_id":"4","last_reported":1731121942,"current_range_meters":25600,"station_id":"ce4bhgh2rcd13ifvqfb0","pricing_plan_id":"cebpf4jnsgd1na2vs0mg"},{"bike_id":"e927137b-b561-43dc-8682-c3e2f40d1308","system_id":"levelo_inurba_marseille","lat":43.29252,"lon":5.4091,"is_reserved":false,"is_disabled":false,"rental_uris":{"android":"levelo://app?vid=e927137b-b561-43dc-8682-c3e2f40d1308","ios":"levelo://app?vid=e927137b-b561-43dc-8682-c3e2f40d1308"},"vehicle_type_id":"4","last_reported":1731121942,"current_range_meters":10000,"station_id":"ce4bh192rcd13ifvqdc0","pricing_plan_id":"cebpf4jnsgd1na2vs0mg"},{"bike_id":"c07f4fd7-44c8-4ca9-8cdd-edc38807fe9c","system_id":"levelo_inurba_marseille","lat":43.26559,"lon":5.37294,"is_reserved":false,"is_disabled":false,"rental_uris":{"android":"levelo://app?vid=c07f4fd7-44c8-4ca9-8cdd-edc38807fe9c","ios":"levelo://app?vid=c07f4fd7-44c8-4ca9-8cdd-edc38807fe9c"},"vehicle_type_id":"4","last_reported":1731121942,"current_range_meters":22400,"station_id":"ce4bhg12rcd13ifvqf70","pricing_plan_id":"cebpf4jnsgd1na2vs0mg"},{"bike_id":"a83d7f20-58d7-4bb1-9968-7dfc2f34eae0","system_id":"levelo_inurba_marseille","lat":43.29035,"lon":5.39959,"is_reserved":false,"is_disabled":false,"rental_uris":{"android":"levelo://app?vid=a83d7f20-58d7-4bb1-9968-7dfc2f34eae0","ios":"levelo://app?vid=a83d7f20-58d7-4bb1-9968-7dfc2f34eae0"},"vehicle_type_id":"4","last_reported":1731121942,"current_range_meters":27600,"station_id":"ce4bh392rcd13ifvqdm0","pricing_plan_id":"cebpf4jnsgd1na2vs0mg"},{"bike_id":"83aa1b31-0fcf-4067-8a65-66bea7449e24","system_id":"levelo_inurba_marseille","lat":43.28702,"lon":5.399957,"is_reserved":false,"is_disabled":false,"rental_uris":{"android":"levelo://app?vid=83aa1b31-0fcf-4067-8a65-66bea7449e24","ios":"levelo://app?vid=83aa1b31-0fcf-4067-8a65-66bea7449e24"},"vehicle_type_id":"4","last_reported":1731121942,"current_range_meters":8800,"station_id":"ce4bho92rcd13ifvqh3g","pricing_plan_id":"cebpf4jnsgd1na2vs0mg"},{"bike_id":"774649b8-3eb5-4e5a-bdc0-8cf43dfb86a6","system_id":"levelo_inurba_marseille","lat":43.24656,"lon":5.38896,"is_reserved":false,"is_disabled":false,"rental_uris":{"android":"levelo://app?vid=774649b8-3eb5-4e5a-bdc0-8cf43dfb86a6","ios":"levelo://app?vid=774649b8-3eb5-4e5a-bdc0-8cf43dfb86a6"},"vehicle_type_id":"4","last_reported":1731121942,"current_range_meters":30000,"station_id":"ce4bhg12rcd13ifvqf60","pricing_plan_id":"cebpf4jnsgd1na2vs0mg"},{"bike_id":"9d291c5d-07c9-471b-b1f2-df5c113ecdb3","system_id":"levelo_inurba_marseille","lat":43.30652,"lon":5.4008,"is_reserved":false,"is_disabled":false,"rental_uris":{"android":"levelo://app?vid=9d291c5d-07c9-471b-b1f2-df5c113ecdb3","ios":"levelo://app?vid=9d291c5d-07c9-471b-b1f2-df5c113ecdb3"},"vehicle_type_id":"4","last_reported":1731121942,"current_range_meters":38800,"station_id":"ce4bh112rcd13ifvqda0","pricing_plan_id":"cebpf4jnsgd1na2vs0mg"},{"bike_id":"52b5aef7-0d3f-44ee-a8d4-353a76f724ac","system_id":"levelo_inurba_marseille","lat":43.28939,"lon":5.36629,"is_reserved":false,"is_disabled":false,"rental_uris":{"android":"levelo://app?vid=52b5aef7-0d3f-44ee-a8d4-353a76f724ac","ios":"levelo://app?vid=52b5aef7-0d3f-44ee-a8d4-353a76f724ac"},"vehicle_type_id":"4","last_reported":1731121942,"current_range_meters":38000,"station_id":"ce4bhap2rcd13ifvqek0","pricing_plan_id":"cebpf4jnsgd1na2vs0mg"},{"bike_id":"71729ca1-f787-41f5-bfe3-f732b80dfddc","system_id":"levelo_inurba_marseille","lat":43.23155,"lon":5.43708,"is_reserved":false,"is_disabled":false,"rental_uris":{"android":"levelo://app?vid=71729ca1-f787-41f5-bfe3-f732b80dfddc","ios":"levelo://app?vid=71729ca1-f787-41f5-bfe3-f732b80dfddc"},"vehicle_type_id":"4","last_reported":1731121942,"current_range_meters":20000,"station_id":"ce4bhmp2rcd13ifvqgog","pricing_plan_id":"cebpf4jnsgd1na2vs0mg"},{"bike_id":"b0aea497-88ab-43ef-a893-9e1635af4d71","system_id":"levelo_inurba_marseille","lat":43.2396,"lon":5.36627,"is_reserved":false,"is_disabled":false,"rental_uris":{"android":"levelo://app?vid=b0aea497-88ab-43ef-a893-9e1635af4d71","ios":"levelo://app?vid=b0aea497-88ab-43ef-a893-9e1635af4d71"},"vehicle_type_id":"4","last_reported":1731121942,"current_range_meters":37600,"station_id":"ce4bhi12rcd13ifvqfp0","pricing_plan_id":"cebpf4jnsgd1na2vs0mg"},{"bike_id":"5cb403b7-6bf8-4f37-a57f-47fe40c64a5e","system_id":"levelo_inurba_marseille","lat":43.297972,"lon":5.404075,"is_reserved":false,"is_disabled":false,"rental_uris":{"android":"levelo://app?vid=5cb403b7-6bf8-4f37-a57f-47fe40c64a5e","ios":"levelo://app?vid=5cb403b7-6bf8-4f37-a57f-47fe40c64a5e"},"vehicle_type_id":"4","last_reported":1731121942,"current_range_meters":38800,"station_id":"ce4bh112rcd13ifvqd90","pricing_plan_id":"cebpf4jnsgd1na2vs0mg"},{"bike_id":"8560bbe5-5ef4-4b4f-830f-100947a3e442","system_id":"levelo_inurba_marseille","lat":43.2988,"lon":5.39731,"is_reserved":false,"is_disabled":false,"rental_uris":{"android":"levelo://app?vid=8560bbe5-5ef4-4b4f-830f-100947a3e442","ios":"levelo://app?vid=8560bbe5-5ef4-4b4f-830f-100947a3e442"},"vehicle_type_id":"4","last_reported":1731121942,"current_range_meters":33200,"station_id":"ce4bh0h2rcd13ifvqd50","pricing_plan_id":"cebpf4jnsgd1na2vs0mg"},{"bike_id":"6e78cb08-701e-4a2d-92da-e4e68218e433","system_id":"levelo_inurba_marseille","lat":43.29581,"lon":5.39959,"is_reserved":false,"is_disabled":false,"rental_uris":{"android":"levelo://app?vid=6e78cb08-701e-4a2d-92da-e4e68218e433","ios":"levelo://app?vid=6e78cb08-701e-4a2d-92da-e4e68218e433"},"vehicle_type_id":"4","last_reported":1731121942,"current_range_meters":17600,"station_id":"ce4bh312rcd13ifvqdj0","pricing_plan_id":"cebpf4jnsgd1na2vs0mg"},{"bike_id":"b2cbe124-e9e9-4203-8080-c24b9a55d574","system_id":"levelo_inurba_marseille","lat":43.24076,"lon":5.37759,"is_reserved":false,"is_disabled":false,"rental_uris":{"android":"levelo://app?vid=b2cbe124-e9e9-4203-8080-c24b9a55d574","ios":"levelo://app?vid=b2cbe124-e9e9-4203-8080-c24b9a55d574"},"vehicle_type_id":"4","last_reported":1731121942,"current_range_meters":36800,"station_id":"ce4bhnp2rcd13ifvqgvg","pricing_plan_id":"cebpf4jnsgd1na2vs0mg"},{"bike_id":"4adc051b-cab2-444f-a4c6-933d4708baf0","system_id":"levelo_inurba_marseille","lat":43.31721,"lon":5.42387,"is_reserved":false,"is_disabled":false,"rental_uris":{"android":"levelo://app?vid=4adc051b-cab2-444f-a4c6-933d4708baf0","ios":"levelo://app?vid=4adc051b-cab2-444f-a4c6-933d4708baf0"},"vehicle_type_id":"4","last_reported":1731121942,"current_range_meters":10000,"station_id":"ce4bhp92rcd13ifvqhbg","pricing_plan_id":"cebpf4jnsgd1na2vs0mg"},{"bike_id":"bc14f84f-871d-4faa-a3e8-565342d8fc32","system_id":"levelo_inurba_marseille","lat":43.33607,"lon":5.4104,"is_reserved":false,"is_disabled":false,"rental_uris":{"android":"levelo://app?vid=bc14f84f-871d-4faa-a3e8-565342d8fc32","ios":"levelo://app?vid=bc14f84f-871d-4faa-a3e8-565342d8fc32"},"vehicle_type_id":"4","last_reported":1731121942,"current_range_meters":20000,"station_id":"ce4bhqh2rcd13ifvqhmg","pricing_plan_id":"cebpf4jnsgd1na2vs0mg"},{"bike_id":"a61dfdc8-8032-4e2b-8bea-d0f6a2b05b1f","system_id":"levelo_inurba_marseille","lat":43.23963,"lon":5.36629,"is_reserved":false,"is_disabled":false,"rental_uris":{"android":"levelo://app?vid=a61dfdc8-8032-4e2b-8bea-d0f6a2b05b1f","ios":"levelo://app?vid=a61dfdc8-8032-4e2b-8bea-d0f6a2b05b1f"},"vehicle_type_id":"4","last_reported":1731121942,"current_range_meters":20800,"station_id":"ce4bhi12rcd13ifvqfp0","pricing_plan_id":"cebpf4jnsgd1na2vs0mg"},{"bike_id":"9ea02c74-0e7b-4b3a-9a70-2bd3db7e5bc4","system_id":"levelo_inurba_marseille","lat":43.27991,"lon":5.40016,"is_reserved":false,"is_disabled":false,"rental_uris":{"android":"levelo://app?vid=9ea02c74-0e7b-4b3a-9a70-2bd3db7e5bc4","ios":"levelo://app?vid=9ea02c74-0e7b-4b3a-9a70-2bd3db7e5bc4"},"vehicle_type_id":"4","last_reported":1731121942,"current_range_meters":14000,"station_id":"ce4bho92rcd13ifvqh4g","pricing_plan_id":"cebpf4jnsgd1na2vs0mg"},{"bike_id":"26a444b4-50a5-485a-afd3-f28f60030918","system_id":"levelo_inurba_marseille","lat":43.28469,"lon":5.35872,"is_reserved":false,"is_disabled":false,"rental_uris":{"android":"levelo://app?vid=26a444b4-50a5-485a-afd3-f28f60030918","ios":"levelo://app?vid=26a444b4-50a5-485a-afd3-f28f60030918"},"vehicle_type_id":"4","last_reported":1731121942,"current_range_meters":27200,"station_id":"ce4bhah2rcd13ifvqei0","pricing_plan_id":"cebpf4jnsgd1na2vs0mg"},{"bike_id":"610c2ed4-7ebd-4e84-9e47-c51c9aca3591","system_id":"levelo_inurba_marseille","lat":43.28405,"lon":5.37514,"is_reserved":false,"is_disabled":false,"rental_uris":{"android":"levelo://app?vid=610c2ed4-7ebd-4e84-9e47-c51c9aca3591","ios":"levelo://app?vid=610c2ed4-7ebd-4e84-9e47-c51c9aca3591"},"vehicle_type_id":"4","last_reported":1731121942,"current_range_meters":38800,"station_id":"ce4bh412rcd13ifvqds0","pricing_plan_id":"cebpf4jnsgd1na2vs0mg"},{"bike_id":"6bf91cee-36bc-4259-a139-82597856edff","system_id":"levelo_inurba_marseille","lat":43.31708,"lon":5.37766,"is_reserved":false,"is_disabled":false,"rental_uris":{"android":"levelo://app?vid=6bf91cee-36bc-4259-a139-82597856edff","ios":"levelo://app?vid=6bf91cee-36bc-4259-a139-82597856edff"},"vehicle_type_id":"4","last_reported":1731121942,"current_range_meters":38800,"station_id":"ce4bgth2rcd13ifvqch0","pricing_plan_id":"cebpf4jnsgd1na2vs0mg"},{"bike_id":"e16313ca-ae55-4b80-8745-24b32c35bd33","system_id":"levelo_inurba_marseille","lat":43.2886,"lon":5.39305,"is_reserved":false,"is_disabled":false,"rental_uris":{"android":"levelo://app?vid=e16313ca-ae55-4b80-8745-24b32c35bd33","ios":"levelo://app?vid=e16313ca-ae55-4b80-8745-24b32c35bd33"},"vehicle_type_id":"4","last_reported":1731121942,"current_range_meters":28000,"station_id":"ce4bh2p2rcd13ifvqdi0","pricing_plan_id":"cebpf4jnsgd1na2vs0mg"},{"bike_id":"ebd313ff-00e1-44f2-b2be-f0d356160fd2","system_id":"levelo_inurba_marseille","lat":43.31368,"lon":5.38498,"is_reserved":false,"is_disabled":false,"rental_uris":{"android":"levelo://app?vid=ebd313ff-00e1-44f2-b2be-f0d356160fd2","ios":"levelo://app?vid=ebd313ff-00e1-44f2-b2be-f0d356160fd2"},"vehicle_type_id":"4","last_reported":1731121942,"current_range_meters":37600,"station_id":"ce4bgt92rcd13ifvqcf0","pricing_plan_id":"cebpf4jnsgd1na2vs0mg"},{"bike_id":"2ac22f94-2156-4d86-9178-897393a16283","system_id":"levelo_inurba_marseille","lat":43.28443,"lon":5.39182,"is_reserved":false,"is_disabled":false,"rental_uris":{"android":"levelo://app?vid=2ac22f94-2156-4d86-9178-897393a16283","ios":"levelo://app?vid=2ac22f94-2156-4d86-9178-897393a16283"},"vehicle_type_id":"4","last_reported":1731121942,"current_range_meters":23200,"station_id":"ce4bhoh2rcd13ifvqh5g","pricing_plan_id":"cebpf4jnsgd1na2vs0mg"},{"bike_id":"b7c7f930-0b3a-45ca-affb-92f424666226","system_id":"levelo_inurba_marseille","lat":43.303264,"lon":5.404465,"is_reserved":false,"is_disabled":false,"rental_uris":{"android":"levelo://app?vid=b7c7f930-0b3a-45ca-affb-92f424666226","ios":"levelo://app?vid=b7c7f930-0b3a-45ca-affb-92f424666226"},"vehicle_type_id":"4","last_reported":1731121942,"current_range_meters":36800,"station_id":"ce4bh012rcd13ifvqd10","pricing_plan_id":"cebpf4jnsgd1na2vs0mg"},{"bike_id":"0b74ce83-e6b1-4485-8ca6-3897f29a426e","system_id":"levelo_inurba_marseille","lat":43.23958,"lon":5.36625,"is_reserved":false,"is_disabled":false,"rental_uris":{"android":"levelo://app?vid=0b74ce83-e6b1-4485-8ca6-3897f29a426e","ios":"levelo://app?vid=0b74ce83-e6b1-4485-8ca6-3897f29a426e"},"vehicle_type_id":"4","last_reported":1731121942,"current_range_meters":18800,"station_id":"ce4bhi12rcd13ifvqfp0","pricing_plan_id":"cebpf4jnsgd1na2vs0mg"},{"bike_id":"a2a9a46e-b652-452f-95c5-2d0638f3da28","system_id":"levelo_inurba_marseille","lat":43.31328,"lon":5.39702,"is_reserved":false,"is_disabled":false,"rental_uris":{"android":"levelo://app?vid=a2a9a46e-b652-452f-95c5-2d0638f3da28","ios":"levelo://app?vid=a2a9a46e-b652-452f-95c5-2d0638f3da28"},"vehicle_type_id":"4","last_reported":1731121942,"current_range_meters":39200,"station_id":"ce4bgvp2rcd13ifvqcu0","pricing_plan_id":"cebpf4jnsgd1na2vs0mg"},{"bike_id":"3da2d712-f08e-4ffd-bb31-2a715410fa95","system_id":"levelo_inurba_marseille","lat":43.30257,"lon":5.40055,"is_reserved":false,"is_disabled":false,"rental_uris":{"android":"levelo://app?vid=3da2d712-f08e-4ffd-bb31-2a715410fa95","ios":"levelo://app?vid=3da2d712-f08e-4ffd-bb31-2a715410fa95"},"vehicle_type_id":"4","last_reported":1731121942,"current_range_meters":28400,"station_id":"ce4bgvh2rcd13ifvqcs0","pricing_plan_id":"cebpf4jnsgd1na2vs0mg"},{"bike_id":"e0704ba6-fe68-4478-8f6e-45164c3ba0f5","system_id":"levelo_inurba_marseille","lat":43.30938,"lon":5.40141,"is_reserved":false,"is_disabled":false,"rental_uris":{"android":"levelo://app?vid=e0704ba6-fe68-4478-8f6e-45164c3ba0f5","ios":"levelo://app?vid=e0704ba6-fe68-4478-8f6e-45164c3ba0f5"},"vehicle_type_id":"4","last_reported":1731121942,"current_range_meters":19200,"station_id":"ce4bgvp2rcd13ifvqct0","pricing_plan_id":"cebpf4jnsgd1na2vs0mg"},{"bike_id":"cc238fb2-c71c-48f9-95c0-1c3b4840db1f","system_id":"levelo_inurba_marseille","lat":43.25821,"lon":5.39432,"is_reserved":false,"is_disabled":false,"rental_uris":{"android":"levelo://app?vid=cc238fb2-c71c-48f9-95c0-1c3b4840db1f","ios":"levelo://app?vid=cc238fb2-c71c-48f9-95c0-1c3b4840db1f"},"vehicle_type_id":"4","last_reported":1731121942,"current_range_meters":18000,"station_id":"ce4bhip2rcd13ifvqft0","pricing_plan_id":"cebpf4jnsgd1na2vs0mg"},{"bike_id":"f94bdcbe-9a46-4c5f-879c-d5fc8c43084c","system_id":"levelo_inurba_marseille","lat":43.33027,"lon":5.39035,"is_reserved":false,"is_disabled":false,"rental_uris":{"android":"levelo://app?vid=f94bdcbe-9a46-4c5f-879c-d5fc8c43084c","ios":"levelo://app?vid=f94bdcbe-9a46-4c5f-879c-d5fc8c43084c"},"vehicle_type_id":"4","last_reported":1731121942,"current_range_meters":38000,"station_id":"ce4bhr92rcd13ifvqhrg","pricing_plan_id":"cebpf4jnsgd1na2vs0mg"},{"bike_id":"61a5848e-8f88-40fa-9847-787c5c2c0b1c","system_id":"levelo_inurba_marseille","lat":43.30149,"lon":5.39878,"is_reserved":false,"is_disabled":false,"rental_uris":{"android":"levelo://app?vid=61a5848e-8f88-40fa-9847-787c5c2c0b1c","ios":"levelo://app?vid=61a5848e-8f88-40fa-9847-787c5c2c0b1c"},"vehicle_type_id":"4","last_reported":1731121942,"current_range_meters":38800,"station_id":"ce4bh0h2rcd13ifvqd40","pricing_plan_id":"cebpf4jnsgd1na2vs0mg"},{"bike_id":"ae0c29bf-c7f0-480e-9829-9eff05ac2f9b","system_id":"levelo_inurba_marseille","lat":43.25113,"lon":5.40328,"is_reserved":false,"is_disabled":false,"rental_uris":{"android":"levelo://app?vid=ae0c29bf-c7f0-480e-9829-9eff05ac2f9b","ios":"levelo://app?vid=ae0c29bf-c7f0-480e-9829-9eff05ac2f9b"},"vehicle_type_id":"4","last_reported":1731121942,"current_range_meters":31200,"station_id":"ce4bhlh2rcd13ifvqgig","pricing_plan_id":"cebpf4jnsgd1na2vs0mg"},{"bike_id":"d25711f1-63b8-44c2-b28d-f6b1fc0e37f5","system_id":"levelo_inurba_marseille","lat":43.28611,"lon":5.37066,"is_reserved":false,"is_disabled":false,"rental_uris":{"android":"levelo://app?vid=d25711f1-63b8-44c2-b28d-f6b1fc0e37f5","ios":"levelo://app?vid=d25711f1-63b8-44c2-b28d-f6b1fc0e37f5"},"vehicle_type_id":"4","last_reported":1731121942,"current_range_meters":38800,"station_id":"ce4bht12rcd13ifvqi60","pricing_plan_id":"cebpf4jnsgd1na2vs0mg"},{"bike_id":"340ae725-6f84-48a7-ab25-ad128cac57c2","system_id":"levelo_inurba_marseille","lat":43.31501,"lon":5.37299,"is_reserved":false,"is_disabled":false,"rental_uris":{"android":"levelo://app?vid=340ae725-6f84-48a7-ab25-ad128cac57c2","ios":"levelo://app?vid=340ae725-6f84-48a7-ab25-ad128cac57c2"},"vehicle_type_id":"4","last_reported":1731121942,"current_range_meters":38800,"station_id":"ce4bgt12rcd13ifvqcd0","pricing_plan_id":"cebpf4jnsgd1na2vs0mg"},{"bike_id":"a5281f76-05ba-4514-a0b1-45f67845510f","system_id":"levelo_inurba_marseille","lat":43.31324,"lon":5.39699,"is_reserved":false,"is_disabled":false,"rental_uris":{"android":"levelo://app?vid=a5281f76-05ba-4514-a0b1-45f67845510f","ios":"levelo://app?vid=a5281f76-05ba-4514-a0b1-45f67845510f"},"vehicle_type_id":"4","last_reported":1731121942,"current_range_meters":34800,"station_id":"ce4bgvp2rcd13ifvqcu0","pricing_plan_id":"cebpf4jnsgd1na2vs0mg"},{"bike_id":"71684031-bf95-4fd4-bc38-0f4a696a2564","system_id":"levelo_inurba_marseille","lat":43.28457,"lon":5.35878,"is_reserved":false,"is_disabled":false,"rental_uris":{"android":"levelo://app?vid=71684031-bf95-4fd4-bc38-0f4a696a2564","ios":"levelo://app?vid=71684031-bf95-4fd4-bc38-0f4a696a2564"},"vehicle_type_id":"4","last_reported":1731121942,"current_range_meters":38400,"station_id":"ce4bhah2rcd13ifvqei0","pricing_plan_id":"cebpf4jnsgd1na2vs0mg"},{"bike_id":"2a6caaf6-34f1-4e12-8c9d-153fd774cf91","system_id":"levelo_inurba_marseille","lat":43.24806,"lon":5.37453,"is_reserved":false,"is_disabled":false,"rental_uris":{"android":"levelo://app?vid=2a6caaf6-34f1-4e12-8c9d-153fd774cf91","ios":"levelo://app?vid=2a6caaf6-34f1-4e12-8c9d-153fd774cf91"},"vehicle_type_id":"4","last_reported":1731121942,"current_range_meters":28400,"station_id":"ce4bhgh2rcd13ifvqfb0","pricing_plan_id":"cebpf4jnsgd1na2vs0mg"},{"bike_id":"3275280f-1547-4f01-8f57-070777919301","system_id":"levelo_inurba_marseille","lat":43.29898,"lon":5.39759,"is_reserved":false,"is_disabled":false,"rental_uris":{"android":"levelo://app?vid=3275280f-1547-4f01-8f57-070777919301","ios":"levelo://app?vid=3275280f-1547-4f01-8f57-070777919301"},"vehicle_type_id":"4","last_reported":1731121942,"current_range_meters":32400,"station_id":"ce4bh0h2rcd13ifvqd50","pricing_plan_id":"cebpf4jnsgd1na2vs0mg"},{"bike_id":"ba7b1b74-58fc-4a34-b006-140ab320be7e","system_id":"levelo_inurba_marseille","lat":43.28109,"lon":5.37837,"is_reserved":false,"is_disabled":false,"rental_uris":{"android":"levelo://app?vid=ba7b1b74-58fc-4a34-b006-140ab320be7e","ios":"levelo://app?vid=ba7b1b74-58fc-4a34-b006-140ab320be7e"},"vehicle_type_id":"4","last_reported":1731121942,"current_range_meters":37600,"station_id":"ce4bha12rcd13ifvqee0","pricing_plan_id":"cebpf4jnsgd1na2vs0mg"},{"bike_id":"ddebbaf7-8826-40a9-9daf-5ad4d44a3428","system_id":"levelo_inurba_marseille","lat":43.28485,"lon":5.38558,"is_reserved":false,"is_disabled":false,"rental_uris":{"android":"levelo://app?vid=ddebbaf7-8826-40a9-9daf-5ad4d44a3428","ios":"levelo://app?vid=ddebbaf7-8826-40a9-9daf-5ad4d44a3428"},"vehicle_type_id":"4","last_reported":1731121942,"current_range_meters":34000,"station_id":"ce4bh8p2rcd13ifvqeb0","pricing_plan_id":"cebpf4jnsgd1na2vs0mg"},{"bike_id":"81d1e180-d523-4ef7-ae98-f9077f858825","system_id":"levelo_inurba_marseille","lat":43.24673,"lon":5.38147,"is_reserved":false,"is_disabled":false,"rental_uris":{"android":"levelo://app?vid=81d1e180-d523-4ef7-ae98-f9077f858825","ios":"levelo://app?vid=81d1e180-d523-4ef7-ae98-f9077f858825"},"vehicle_type_id":"4","last_reported":1731121942,"current_range_meters":8400,"station_id":"ce4bhih2rcd13ifvqfr0","pricing_plan_id":"cebpf4jnsgd1na2vs0mg"},{"bike_id":"69031755-3dc6-4e5b-815f-bde22843852a","system_id":"levelo_inurba_marseille","lat":43.30788,"lon":5.3765,"is_reserved":false,"is_disabled":false,"rental_uris":{"android":"levelo://app?vid=69031755-3dc6-4e5b-815f-bde22843852a","ios":"levelo://app?vid=69031755-3dc6-4e5b-815f-bde22843852a"},"vehicle_type_id":"4","last_reported":1731121942,"current_range_meters":39200,"station_id":"ce4bgv92rcd13ifvqcq0","pricing_plan_id":"cebpf4jnsgd1na2vs0mg"},{"bike_id":"35dde5e6-86e4-4508-8edb-ab7330bb801c","system_id":"levelo_inurba_marseille","lat":43.25078,"lon":5.39502,"is_reserved":false,"is_disabled":false,"rental_uris":{"android":"levelo://app?vid=35dde5e6-86e4-4508-8edb-ab7330bb801c","ios":"levelo://app?vid=35dde5e6-86e4-4508-8edb-ab7330bb801c"},"vehicle_type_id":"4","last_reported":1731121942,"current_range_meters":39200,"station_id":"ce4bhm12rcd13ifvqgkg","pricing_plan_id":"cebpf4jnsgd1na2vs0mg"},{"bike_id":"ff989801-f59b-46d1-867b-7c2b6eab1cca","system_id":"levelo_inurba_marseille","lat":43.337444,"lon":5.374475,"is_reserved":false,"is_disabled":false,"rental_uris":{"android":"levelo://app?vid=ff989801-f59b-46d1-867b-7c2b6eab1cca","ios":"levelo://app?vid=ff989801-f59b-46d1-867b-7c2b6eab1cca"},"vehicle_type_id":"4","last_reported":1731121942,"current_range_meters":35600,"station_id":"","pricing_plan_id":"cebpf4jnsgd1na2vs0mg"},{"bike_id":"09744509-3cc6-40b0-ae0d-dfe064ebadda","system_id":"levelo_inurba_marseille","lat":43.24671,"lon":5.38156,"is_reserved":false,"is_disabled":false,"rental_uris":{"android":"levelo://app?vid=09744509-3cc6-40b0-ae0d-dfe064ebadda","ios":"levelo://app?vid=09744509-3cc6-40b0-ae0d-dfe064ebadda"},"vehicle_type_id":"4","last_reported":1731121942,"current_range_meters":24800,"station_id":"ce4bhih2rcd13ifvqfr0","pricing_plan_id":"cebpf4jnsgd1na2vs0mg"},{"bike_id":"5c19d456-298c-4a20-9f50-0620b9fcbeb9","system_id":"levelo_inurba_marseille","lat":43.31357,"lon":5.38488,"is_reserved":false,"is_disabled":false,"rental_uris":{"android":"levelo://app?vid=5c19d456-298c-4a20-9f50-0620b9fcbeb9","ios":"levelo://app?vid=5c19d456-298c-4a20-9f50-0620b9fcbeb9"},"vehicle_type_id":"4","last_reported":1731121942,"current_range_meters":9600,"station_id":"ce4bgt92rcd13ifvqcf0","pricing_plan_id":"cebpf4jnsgd1na2vs0mg"},{"bike_id":"7a028137-2c10-4b28-a4b7-39b6416508f0","system_id":"levelo_inurba_marseille","lat":43.23153,"lon":5.43707,"is_reserved":false,"is_disabled":false,"rental_uris":{"android":"levelo://app?vid=7a028137-2c10-4b28-a4b7-39b6416508f0","ios":"levelo://app?vid=7a028137-2c10-4b28-a4b7-39b6416508f0"},"vehicle_type_id":"4","last_reported":1731121942,"current_range_meters":39200,"station_id":"ce4bhmp2rcd13ifvqgog","pricing_plan_id":"cebpf4jnsgd1na2vs0mg"},{"bike_id":"885b5824-667c-46f8-a1ab-93e379bbf186","system_id":"levelo_inurba_marseille","lat":43.2737,"lon":5.36259,"is_reserved":false,"is_disabled":false,"rental_uris":{"android":"levelo://app?vid=885b5824-667c-46f8-a1ab-93e379bbf186","ios":"levelo://app?vid=885b5824-667c-46f8-a1ab-93e379bbf186"},"vehicle_type_id":"4","last_reported":1731121942,"current_range_meters":25200,"station_id":"ce4bhbh2rcd13ifvqeo0","pricing_plan_id":"cebpf4jnsgd1na2vs0mg"},{"bike_id":"e26b838c-15be-4b82-8d62-590850e3fe40","system_id":"levelo_inurba_marseille","lat":43.28709,"lon":5.39996,"is_reserved":false,"is_disabled":false,"rental_uris":{"android":"levelo://app?vid=e26b838c-15be-4b82-8d62-590850e3fe40","ios":"levelo://app?vid=e26b838c-15be-4b82-8d62-590850e3fe40"},"vehicle_type_id":"4","last_reported":1731121942,"current_range_meters":35600,"station_id":"ce4bho92rcd13ifvqh3g","pricing_plan_id":"cebpf4jnsgd1na2vs0mg"},{"bike_id":"d02b68f3-b750-4589-b9b1-f3bc7cf6b1d6","system_id":"levelo_inurba_marseille","lat":43.3249,"lon":5.36559,"is_reserved":false,"is_disabled":false,"rental_uris":{"android":"levelo://app?vid=d02b68f3-b750-4589-b9b1-f3bc7cf6b1d6","ios":"levelo://app?vid=d02b68f3-b750-4589-b9b1-f3bc7cf6b1d6"},"vehicle_type_id":"4","last_reported":1731121942,"current_range_meters":39200,"station_id":"ce4bhs12rcd13ifvqhvg","pricing_plan_id":"cebpf4jnsgd1na2vs0mg"},