{"last_updated":1730117881,"ttl":60,"version":"2.2","data":{"bikes":[{"bike_id":"64b2fe0a-46c0-49d1-8a1e-d4e9dc8d3af7","system_id":"levelo_inurba_marseille","lat":43.28041,"lon":5.36939,"is_reserved":false,"is_disabled":false,"rental_uris":{"android":"levelo://app?vid=64b2fe0a-46c0-49d1-8a1e-d4e9dc8d3af7","ios":"levelo://app?vid=64b2fe0a-46c0-49d1-8a1e-d4e9dc8d3af7"},"vehicle_type_id":"4","last_reported":1730117881,"current_range_meters":18800,"station_id":"ce4bha12rcd13ifvqef0","pricing_plan_id":"cebpf4jnsgd1na2vs0mg"},{"bike_id":"a04bca64-d22b-48c2-9916-d59d3a3544f6","system_id":"levelo_inurba_marseille","lat":43.31165,"lon":5.3871,"is_reserved":false,"is_disabled":false,"rental_uris":{"android":"levelo://app?vid=a04bca64-d22b-48c2-9916-d59d3a3544f6","ios":"levelo://app?vid=a04bca64-d22b-48c2-9916-d59d3a3544f6"},"vehicle_type_id":"4","last_reported":1730117881,"current_range_meters":31200,"station_id":"ce4bgv12rcd13ifvqcp0","pricing_plan_id":"cebpf4jnsgd1na2vs0mg"},{"bike_id":"14bf96ff-44a0-42e8-b6c8-5f83f6be61bb","system_id":"levelo_inurba_marseille","lat":43.29168,"lon":5.37154,"is_reserved":false,"is_disabled":false,"rental_uris":{"android":"levelo://app?vid=14bf96ff-44a0-42e8-b6c8-5f83f6be61bb","ios":"levelo://app?vid=14bf96ff-44a0-42e8-b6c8-5f83f6be61bb"},"vehicle_type_id":"4","last_reported":1730117881,"current_range_meters":34800,"station_id":"ce4bha92rcd13ifvqeh0","pricing_plan_id":"cebpf4jnsgd1na2vs0mg"},{"bike_id":"6cd46184-ccd4-41a7-92e5-9f321ea4dee8","system_id":"levelo_inurba_marseille","lat":43.24072,"lon":5.37743,"is_reserved":false,"is_disabled":false,"rental_uris":{"android":"levelo://app?vid=6cd46184-ccd4-41a7-92e5-9f321ea4dee8","ios":"levelo://app?vid=6cd46184-ccd4-41a7-92e5-9f321ea4dee8"},"vehicle_type_id":"4","last_reported":1730117881,"current_range_meters":37600,"station_id":"ce4bhnp2rcd13ifvqgvg","pricing_plan_id":"cebpf4jnsgd1na2vs0mg"},{"bike_id":"c1ac75a9-9e75-40e8-830b-a685c6bfffb3","system_id":"levelo_inurba_marseille","lat":43.2984,"lon":5.36273,"is_reserved":false,"is_disabled":false,"rental_uris":{"android":"levelo://app?vid=c1ac75a9-9e75-40e8-830b-a685c6bfffb3","ios":"levelo://app?vid=c1ac75a9-9e75-40e8-830b-a685c6bfffb3"},"vehicle_type_id":"4","last_reported":1730117881,"current_range_meters":38000,"station_id":"ce4bgpp2rcd13ifvqc3g","pricing_plan_id":"cebpf4jnsgd1na2vs0mg"},{"bike_id":"90b09f7c-4665-4372-8e70-8220f506b4de","system_id":"levelo_inurba_marseille","lat":43.25728,"lon":5.41106,"is_reserved":false,"is_disabled":false,"rental_uris":{"android":"levelo://app?vid=90b09f7c-4665-4372-8e70-8220f506b4de","ios":"levelo://app?vid=90b09f7c-4665-4372-8e70-8220f506b4de"},"vehicle_type_id":"4","last_reported":1730117881,"current_range_meters":8400,"station_id":"ce4bhkp2rcd13ifvqgd0","pricing_plan_id":"cebpf4jnsgd1na2vs0mg"},{"bike_id":"7501dbaf-a35e-4bd2-9151-59352e5a8638","system_id":"levelo_inurba_marseille","lat":43.23152,"lon":5.43701,"is_reserved":false,"is_disabled":false,"rental_uris":{"android":"levelo://app?vid=7501dbaf-a35e-4bd2-9151-59352e5a8638","ios":"levelo://app?vid=7501dbaf-a35e-4bd2-9151-59352e5a8638"},"vehicle_type_id":"4","last_reported":1730117881,"current_range_meters":9600,"station_id":"ce4bhmp2rcd13ifvqgog","pricing_plan_id":"cebpf4jnsgd1na2vs0mg"},{"bike_id":"a8652586-bac3-4066-8349-87b461f05426","system_id":"levelo_inurba_marseille","lat":43.30296,"lon":5.36898,"is_reserved":false,"is_disabled":false,"rental_uris":{"android":"levelo://app?vid=a8652586-bac3-4066-8349-87b461f05426","ios":"levelo://app?vid=a8652586-bac3-4066-8349-87b461f05426"},"vehicle_type_id":"4","last_reported":1730117881,"current_range_meters":33600,"station_id":"ce4bgqh2rcd13ifvqc5g","pricing_plan_id":"cebpf4jnsgd1na2vs0mg"},{"bike_id":"69d81539-d361-44b7-8480-52b5528a930e","system_id":"levelo_inurba_marseille","lat":43.29037,"lon":5.37561,"is_reserved":false,"is_disabled":false,"rental_uris":{"android":"levelo://app?vid=69d81539-d361-44b7-8480-52b5528a930e","ios":"levelo://app?vid=69d81539-d361-44b7-8480-52b5528a930e"},"vehicle_type_id":"4","last_reported":1730117881,"current_range_meters":34000,"station_id":"ce4bh692rcd13ifvqe90","pricing_plan_id":"cebpf4jnsgd1na2vs0mg"},{"bike_id":"a9baa0c0-5cf2-4ea6-83ef-70fd4819b4f5","system_id":"levelo_inurba_marseille","lat":43.30146,"lon":5.38075,"is_reserved":false,"is_disabled":false,"rental_uris":{"android":"levelo://app?vid=a9baa0c0-5cf2-4ea6-83ef-70fd4819b4f5","ios":"levelo://app?vid=a9baa0c0-5cf2-4ea6-83ef-70fd4819b4f5"},"vehicle_type_id":"4","last_reported":1730117881,"current_range_meters":32400,"station_id":"ce4bgjp2rcd13ifvqbh0","pricing_plan_id":"cebpf4jnsgd1na2vs0mg"},{"bike_id":"9eef64ae-bd55-449d-9b27-c1845deac22c","system_id":"levelo_inurba_marseille","lat":43.28934,"lon":5.39636,"is_reserved":false,"is_disabled":false,"rental_uris":{"android":"levelo://app?vid=9eef64ae-bd55-449d-9b27-c1845deac22c","ios":"levelo://app?vid=9eef64ae-bd55-449d-9b27-c1845deac22c"},"vehicle_type_id":"4","last_reported":1730117881,"current_range_meters":15200,"station_id":"ce4bh3h2rcd13ifvqdn0","pricing_plan_id":"cebpf4jnsgd1na2vs0mg"},{"bike_id":"5e711337-835d-4074-8388-4b991a161973","system_id":"levelo_inurba_marseille","lat":43.3361,"lon":5.41009,"is_reserved":false,"is_disabled":false,"rental_uris":{"android":"levelo://app?vid=5e711337-835d-4074-8388-4b991a161973","ios":"levelo://app?vid=5e711337-835d-4074-8388-4b991a161973"},"vehicle_type_id":"4","last_reported":1730117881,"current_range_meters":39200,"station_id":"ce4bhqh2rcd13ifvqhmg","pricing_plan_id":"cebpf4jnsgd1na2vs0mg"},{"bike_id":"c8fdd4fd-9773-4891-9caf-90f82e9deaa9","system_id":"levelo_inurba_marseille","lat":43.32462,"lon":5.36532,"is_reserved":false,"is_disabled":false,"rental_uris":{"android":"levelo://app?vid=c8fdd4fd-9773-4891-9caf-90f82e9deaa9","ios":"levelo://app?vid=c8fdd4fd-9773-4891-9caf-90f82e9deaa9"},"vehicle_type_id":"4","last_reported":1730117881,"current_range_meters":20000,"station_id":"ce4bhs12rcd13ifvqhvg","pricing_plan_id":"cebpf4jnsgd1na2vs0mg"},{"bike_id":"76a28f5b-ab00-4d04-a1f7-c957914a592c","system_id":"levelo_inurba_marseille","lat":43.27206,"lon":5.39189,"is_reserved":false,"is_disabled":false,"rental_uris":{"android":"levelo://app?vid=76a28f5b-ab00-4d04-a1f7-c957914a592c","ios":"levelo://app?vid=76a28f5b-ab00-4d04-a1f7-c957914a592c"},"vehicle_type_id":"4","last_reported":1730117881,"current_range_meters":38800,"station_id":"ce4bhhp2rcd13ifvqfm0","pricing_plan_id":"cebpf4jnsgd1na2vs0mg"},{"bike_id":"78f164ef-1e49-41b9-a4fd-92b2feb18648","system_id":"levelo_inurba_marseille","lat":43.29898,"lon":5.43667,"is_reserved":false,"is_disabled":false,"rental_uris":{"android":"levelo://app?vid=78f164ef-1e49-41b9-a4fd-92b2feb18648","ios":"levelo://app?vid=78f164ef-1e49-41b9-a4fd-92b2feb18648"},"vehicle_type_id":"4","last_reported":1730117881,"current_range_meters":8800,"station_id":"ce4bhpp2rcd13ifvqhfg","pricing_plan_id":"cebpf4jnsgd1na2vs0mg"},{"bike_id":"6932c530-201c-4220-8821-2b76deed5b19","system_id":"levelo_inurba_marseille","lat":43.27801,"lon":5.4073,"is_reserved":false,"is_disabled":false,"rental_uris":{"android":"levelo://app?vid=6932c530-201c-4220-8821-2b76deed5b19","ios":"levelo://app?vid=6932c530-201c-4220-8821-2b76deed5b19"},"vehicle_type_id":"4","last_reported":1730117881,"current_range_meters":38000,"station_id":"ce4bhnh2rcd13ifvqgtg","pricing_plan_id":"cebpf4jnsgd1na2vs0mg"},{"bike_id":"07692ffb-a2b9-4673-a035-6d9ea0c576b5","system_id":"levelo_inurba_marseille","lat":43.30197,"lon":5.3661,"is_reserved":false,"is_disabled":false,"rental_uris":{"android":"levelo://app?vid=07692ffb-a2b9-4673-a035-6d9ea0c576b5","ios":"levelo://app?vid=07692ffb-a2b9-4673-a035-6d9ea0c576b5"},"vehicle_type_id":"4","last_reported":1730117881,"current_range_meters":36800,"station_id":"ce4bgrh2rcd13ifvqc8g","pricing_plan_id":"cebpf4jnsgd1na2vs0mg"},{"bike_id":"2d912821-b294-46b7-a7d7-3149396c78a8","system_id":"levelo_inurba_marseille","lat":43.25864,"lon":5.39893,"is_reserved":false,"is_disabled":false,"rental_uris":{"android":"levelo://app?vid=2d912821-b294-46b7-a7d7-3149396c78a8","ios":"levelo://app?vid=2d912821-b294-46b7-a7d7-3149396c78a8"},"vehicle_type_id":"4","last_reported":1730117881,"current_range_meters":30000,"station_id":"ce4bhl92rcd13ifvqghg","pricing_plan_id":"cebpf4jnsgd1na2vs0mg"},{"bike_id":"de400e18-7742-46e2-bb01-6d371e310f1e","system_id":"levelo_inurba_marseille","lat":43.26213,"lon":5.3744,"is_reserved":false,"is_disabled":false,"rental_uris":{"android":"levelo://app?vid=de400e18-7742-46e2-bb01-6d371e310f1e","ios":"levelo://app?vid=de400e18-7742-46e2-bb01-6d371e310f1e"},"vehicle_type_id":"4","last_reported":1730117881,"current_range_meters":9200,"station_id":"ce4bhgp2rcd13ifvqfc0","pricing_plan_id":"cebpf4jnsgd1na2vs0mg"},{"bike_id":"d5a7f095-a887-4678-9bb0-78c39a987a18","system_id":"levelo_inurba_marseille","lat":43.31487,"lon":5.37308,"is_reserved":false,"is_disabled":false,"rental_uris":{"android":"levelo://app?vid=d5a7f095-a887-4678-9bb0-78c39a987a18","ios":"levelo://app?vid=d5a7f095-a887-4678-9bb0-78c39a987a18"},"vehicle_type_id":"4","last_reported":1730117881,"current_range_meters":32800,"station_id":"ce4bgt12rcd13ifvqcd0","pricing_plan_id":"cebpf4jnsgd1na2vs0mg"},{"bike_id":"84e374c4-fc62-498f-bc8b-cb0b8a3e0a0c","system_id":"levelo_inurba_marseille","lat":43.25726,"lon":5.41103,"is_reserved":false,"is_disabled":false,"rental_uris":{"android":"levelo://app?vid=84e374c4-fc62-498f-bc8b-cb0b8a3e0a0c","ios":"levelo://app?vid=84e374c4-fc62-498f-bc8b-cb0b8a3e0a0c"},"vehicle_type_id":"4","last_reported":1730117881,"current_range_meters":38000,"station_id":"ce4bhkp2rcd13ifvqgd0","pricing_plan_id":"cebpf4jnsgd1na2vs0mg"},{"bike_id":"fca4de4b-4cc2-4fad-9ba2-58c0350dc750","system_id":"levelo_inurba_marseille","lat":43.30284,"lon":5.37699,"is_reserved":false,"is_disabled":false,"rental_uris":{"android":"levelo://app?vid=fca4de4b-4cc2-4fad-9ba2-58c0350dc750","ios":"levelo://app?vid=fca4de4b-4cc2-4fad-9ba2-58c0350dc750"},"vehicle_type_id":"4","last_reported":1730117881,"current_range_meters":38400,"station_id":"ce4bguh2rcd13ifvqcj0","pricing_plan_id":"cebpf4jnsgd1na2vs0mg"},{"bike_id":"aa1a1363-75e0-4182-98c8-cc9078e29595","system_id":"levelo_inurba_marseille","lat":43.26561,"lon":5.39003,"is_reserved":false,"is_disabled":false,"rental_uris":{"android":"levelo://app?vid=aa1a1363-75e0-4182-98c8-cc9078e29595","ios":"levelo://app?vid=aa1a1363-75e0-4182-98c8-cc9078e29595"},"vehicle_type_id":"4","last_reported":1730117881,"current_range_meters":30400,"station_id":"ce4bhe12rcd13ifvqf30","pricing_plan_id":"cebpf4jnsgd1na2vs0mg"},{"bike_id":"3d54babd-579a-4340-a7a8-49cd9404389a","system_id":"levelo_inurba_marseille","lat":43.28265,"lon":5.35077,"is_reserved":false,"is_disabled":false,"rental_uris":{"android":"levelo://app?vid=3d54babd-579a-4340-a7a8-49cd9404389a","ios":"levelo://app?vid=3d54babd-579a-4340-a7a8-49cd9404389a"},"vehicle_type_id":"4","last_reported":1730117881,"current_range_meters":24000,"station_id":"ce4bhbp2rcd13ifvqerg","pricing_plan_id":"cebpf4jnsgd1na2vs0mg"},{"bike_id":"2ab6a876-b383-42be-8174-3b09d00c2764","system_id":"levelo_inurba_marseille","lat":43.22929,"lon":5.35373,"is_reserved":false,"is_disabled":false,"rental_uris":{"android":"levelo://app?vid=2ab6a876-b383-42be-8174-3b09d00c2764","ios":"levelo://app?vid=2ab6a876-b383-42be-8174-3b09d00c2764"},"vehicle_type_id":"4","last_reported":1730117881,"current_range_meters":36800,"station_id":"cpo3532slgdg3j2ikp40","pricing_plan_id":"cebpf4jnsgd1na2vs0mg"},{"bike_id":"61da5b52-ac74-461a-95d5-143a6b50af3a","system_id":"levelo_inurba_marseille","lat":43.28422,"lon":5.34984,"is_reserved":false,"is_disabled":false,"rental_uris":{"android":"levelo://app?vid=61da5b52-ac74-461a-95d5-143a6b50af3a","ios":"levelo://app?vid=61da5b52-ac74-461a-95d5-143a6b50af3a"},"vehicle_type_id":"4","last_reported":1730117881,"current_range_meters":38800,"station_id":"ce4bhbh2rcd13ifvqepg","pricing_plan_id":"cebpf4jnsgd1na2vs0mg"},{"bike_id":"e9d2627b-0323-4f6a-bb61-f8fed2e2d6e2","system_id":"levelo_inurba_marseille","lat":43.24181,"lon":5.39719,"is_reserved":false,"is_disabled":false,"rental_uris":{"android":"levelo://app?vid=e9d2627b-0323-4f6a-bb61-f8fed2e2d6e2","ios":"levelo://app?vid=e9d2627b-0323-4f6a-bb61-f8fed2e2d6e2"},"vehicle_type_id":"4","last_reported":1730117881,"current_range_meters":9200,"station_id":"ce4bhn12rcd13ifvqgpg","pricing_plan_id":"cebpf4jnsgd1na2vs0mg"},{"bike_id":"74fa9a35-f25f-4514-99bb-79d58e39b732","system_id":"levelo_inurba_marseille","lat":43.29273,"lon":5.36846,"is_reserved":false,"is_disabled":false,"rental_uris":{"android":"levelo://app?vid=74fa9a35-f25f-4514-99bb-79d58e39b732","ios":"levelo://app?vid=74fa9a35-f25f-4514-99bb-79d58e39b732"},"vehicle_type_id":"4","last_reported":1730117881,"current_range_meters":28000,"station_id":"ce4bhbp2rcd13ifvqesg","pricing_plan_id":"cebpf4jnsgd1na2vs0mg"},{"bike_id":"7cc8438e-f09e-44f1-8c46-b2f059ecb12d","system_id":"levelo_inurba_marseille","lat":43.28612,"lon":5.35103,"is_reserved":false,"is_disabled":false,"rental_uris":{"android":"levelo://app?vid=7cc8438e-f09e-44f1-8c46-b2f059ecb12d","ios":"levelo://app?vid=7cc8438e-f09e-44f1-8c46-b2f059ecb12d"},"vehicle_type_id":"4","last_reported":1730117881,"current_range_meters":6800,"station_id":"ce4bhch2rcd13ifvqeug","pricing_plan_id":"cebpf4jnsgd1na2vs0mg"},{"bike_id":"47a58251-31f2-4478-a2c1-5cde79ae9fca","system_id":"levelo_inurba_marseille","lat":43.28035,"lon":5.36935,"is_reserved":false,"is_disabled":false,"rental_uris":{"android":"levelo://app?vid=47a58251-31f2-4478-a2c1-5cde79ae9fca","ios":"levelo://app?vid=47a58251-31f2-4478-a2c1-5cde79ae9fca"},"vehicle_type_id":"4","last_reported":1730117881,"current_range_meters":30800,"station_id":"ce4bha12rcd13ifvqef0","pricing_plan_id":"cebpf4jnsgd1na2vs0mg"},{"bike_id":"d1dacee6-8f47-4ca5-823b-a2ea6c3413e8","system_id":"levelo_inurba_marseille","lat":43.23187,"lon":5.35553,"is_reserved":false,"is_disabled":false,"rental_uris":{"android":"levelo://app?vid=d1dacee6-8f47-4ca5-823b-a2ea6c3413e8","ios":"levelo://app?vid=d1dacee6-8f47-4ca5-823b-a2ea6c3413e8"},"vehicle_type_id":"4","last_reported":1730117881,"current_range_meters":39200,"station_id":"ce4bhu92rcd13ifvqi70","pricing_plan_id":"cebpf4jnsgd1na2vs0mg"},{"bike_id":"dcfc41fe-2aff-4169-9978-0e0cfac74507","system_id":"levelo_inurba_marseille","lat":43.29775,"lon":5.37116,"is_reserved":false,"is_disabled":false,"rental_uris":{"android":"levelo://app?vid=dcfc41fe-2aff-4169-9978-0e0cfac74507","ios":"levelo://app?vid=dcfc41fe-2aff-4169-9978-0e0cfac74507"},"vehicle_type_id":"4","last_reported":1730117881,"current_range_meters":36800,"station_id":"ce4bgop2rcd13ifvqc1g","pricing_plan_id":"cebpf4jnsgd1na2vs0mg"},{"bike_id":"bd63ee99-9a8a-4b60-bd2c-32327a585ac3","system_id":"levelo_inurba_marseille","lat":43.28105,"lon":5.37842,"is_reserved":false,"is_disabled":false,"rental_uris":{"android":"levelo://app?vid=bd63ee99-9a8a-4b60-bd2c-32327a585ac3","ios":"levelo://app?vid=bd63ee99-9a8a-4b60-bd2c-32327a585ac3"},"vehicle_type_id":"4","last_reported":1730117881,"current_range_meters":19600,"station_id":"ce4bha12rcd13ifvqee0","pricing_plan_id":"cebpf4jnsgd1na2vs0mg"},{"bike_id":"c098f11d-d79d-4077-ac98-74d9579435b8","system_id":"levelo_inurba_marseille","lat":43.2315,"lon":5.43714,"is_reserved":false,"is_disabled":false,"rental_uris":{"android":"levelo://app?vid=c098f11d-d79d-4077-ac98-74d9579435b8","ios":"levelo://app?vid=c098f11d-d79d-4077-ac98-74d9579435b8"},"vehicle_type_id":"4","last_reported":1730117881,"current_range_meters":4400,"station_id":"ce4bhmp2rcd13ifvqgog","pricing_plan_id":"cebpf4jnsgd1na2vs0mg"},{"bike_id":"198f7b84-08ca-4301-9c51-ad5c9d01dc4c","system_id":"levelo_inurba_marseille","lat":43.23365,"lon":5.43599,"is_reserved":false,"is_disabled":false,"rental_uris":{"android":"levelo://app?vid=198f7b84-08ca-4301-9c51-ad5c9d01dc4c","ios":"levelo://app?vid=198f7b84-08ca-4301-9c51-ad5c9d01dc4c"},"vehicle_type_id":"4","last_reported":1730117881,"current_range_meters":38000,"station_id":"ce4bhmp2rcd13ifvqgog","pricing_plan_id":"cebpf4jnsgd1na2vs0mg"},{"bike_id":"062c37a5-8c98-4262-a368-0baffa13b81a","system_id":"levelo_inurba_marseille","lat":43.29545,"lon":5.42279,"is_reserved":false,"is_disabled":false,"rental_uris":{"android":"levelo://app?vid=062c37a5-8c98-4262-a368-0baffa13b81a","ios":"levelo://app?vid=062c37a5-8c98-4262-a368-0baffa13b81a"},"vehicle_type_id":"4","last_reported":1730117881,"current_range_meters":17600,"station_id":"ce4bhph2rcd13ifvqhdg","pricing_plan_id":"cebpf4jnsgd1na2vs0mg"},{"bike_id":"8328abd2-4383-4c04-bac5-7bab365b6db9","system_id":"levelo_inurba_marseille","lat":43.29526,"lon":5.39031,"is_reserved":false,"is_disabled":false,"rental_uris":{"android":"levelo://app?vid=8328abd2-4383-4c04-bac5-7bab365b6db9","ios":"levelo://app?vid=8328abd2-4383-4c04-bac5-7bab365b6db9"},"vehicle_type_id":"4","last_reported":1730117881,"current_range_meters":38800,"station_id":"ce4bh3p2rcd13ifvqdp0","pricing_plan_id":"cebpf4jnsgd1na2vs0mg"},{"bike_id":"af5db991-9eda-4a3b-8073-673671384abf","system_id":"levelo_inurba_marseille","lat":43.30961,"lon":5.39041,"is_reserved":false,"is_disabled":false,"rental_uris":{"android":"levelo://app?vid=af5db991-9eda-4a3b-8073-673671384abf","ios":"levelo://app?vid=af5db991-9eda-4a3b-8073-673671384abf"},"vehicle_type_id":"4","last_reported":1730117881,"current_range_meters":14000,"station_id":"ce4bgup2rcd13ifvqco0","pricing_plan_id":"cebpf4jnsgd1na2vs0mg"},{"bike_id":"f166fcae-cd80-4a8e-9519-64e16d8dd52c","system_id":"levelo_inurba_marseille","lat":43.30915,"lon":5.36852,"is_reserved":false,"is_disabled":false,"rental_uris":{"android":"levelo://app?vid=f166fcae-cd80-4a8e-9519-64e16d8dd52c","ios":"levelo://app?vid=f166fcae-cd80-4a8e-9519-64e16d8dd52c"},"vehicle_type_id":"4","last_reported":1730117881,"current_range_meters":28000,"station_id":"ce4bgn92rcd13ifvqbvg","pricing_plan_id":"cebpf4jnsgd1na2vs0mg"},{"bike_id":"b953eceb-3ed9-4394-8d28-9bc7a648a5cb","system_id":"levelo_inurba_marseille","lat":43.23153,"lon":5.43709,"is_reserved":false,"is_disabled":false,"rental_uris":{"android":"levelo://app?vid=b953eceb-3ed9-4394-8d28-9bc7a648a5cb","ios":"levelo://app?vid=b953eceb-3ed9-4394-8d28-9bc7a648a5cb"},"vehicle_type_id":"4","last_reported":1730117881,"current_range_meters":14000,"station_id":"ce4bhmp2rcd13ifvqgog","pricing_plan_id":"cebpf4jnsgd1na2vs0mg"},{"bike_id":"a1bce33d-5de0-4413-9dcf-904d34427281","system_id":"levelo_inurba_marseille","lat":43.29226,"lon":5.36066,"is_reserved":false,"is_disabled":false,"rental_uris":{"android":"levelo://app?vid=a1bce33d-5de0-4413-9dcf-904d34427281","ios":"levelo://app?vid=a1bce33d-5de0-4413-9dcf-904d34427281"},"vehicle_type_id":"4","last_reported":1730117881,"current_range_meters":28800,"station_id":"ce4bhbh2rcd13ifvqeqg","pricing_plan_id":"cebpf4jnsgd1na2vs0mg"},{"bike_id":"60ed52ed-6012-42af-862a-c8670371b03f","system_id":"levelo_inurba_marseille","lat":43.29217,"lon":5.36046,"is_reserved":false,"is_disabled":false,"rental_uris":{"android":"levelo://app?vid=60ed52ed-6012-42af-862a-c8670371b03f","ios":"levelo://app?vid=60ed52ed-6012-42af-862a-c8670371b03f"},"vehicle_type_id":"4","last_reported":1730117881,"current_range_meters":24000,"station_id":"ce4bhbh2rcd13ifvqeqg","pricing_plan_id":"cebpf4jnsgd1na2vs0mg"},{"bike_id":"77ef65bb-5618-4402-a3a4-6f60847104e0","system_id":"levelo_inurba_marseille","lat":43.29792,"lon":5.38099,"is_reserved":false,"is_disabled":false,"rental_uris":{"android":"levelo://app?vid=77ef65bb-5618-4402-a3a4-6f60847104e0","ios":"levelo://app?vid=77ef65bb-5618-4402-a3a4-6f60847104e0"},"vehicle_type_id":"4","last_reported":1730117881,"current_range_meters":36800,"station_id":"ce4bgip2rcd13ifvqbb0","pricing_plan_id":"cebpf4jnsgd1na2vs0mg"},{"bike_id":"91f9512b-4d67-472d-a104-9847ff5039f1","system_id":"levelo_inurba_marseille","lat":43.29804,"lon":5.38109,"is_reserved":false,"is_disabled":false,"rental_uris":{"android":"levelo://app?vid=91f9512b-4d67-472d-a104-9847ff5039f1","ios":"levelo://app?vid=91f9512b-4d67-472d-a104-9847ff5039f1"},"vehicle_type_id":"4","last_reported":1730117881,"current_range_meters":39200,"station_id":"ce4bgip2rcd13ifvqbb0","pricing_plan_id":"cebpf4jnsgd1na2vs0mg"},{"bike_id":"6875a1a6-32b9-4783-93f5-84a3a0c85f67","system_id":"levelo_inurba_marseille","lat":43.23066,"lon":5.35491,"is_reserved":false,"is_disabled":false,"rental_uris":{"android":"levelo://app?vid=6875a1a6-32b9-4783-93f5-84a3a0c85f67","ios":"levelo://app?vid=6875a1a6-32b9-4783-93f5-84a3a0c85f67"},"vehicle_type_id":"4","last_reported":1730117881,"current_range_meters":20000,"station_id":"cpo3342slgdg3j2ifvpg","pricing_plan_id":"cebpf4jnsgd1na2vs0mg"},{"bike_id":"e94bbbff-704f-4ece-8879-0d04b80e1d69","system_id":"levelo_inurba_marseille","lat":43.24805,"lon":5.37451,"is_reserved":false,"is_disabled":false,"rental_uris":{"android":"levelo://app?vid=e94bbbff-704f-4ece-8879-0d04b80e1d69","ios":"levelo://app?vid=e94bbbff-704f-4ece-8879-0d04b80e1d69"},"vehicle_type_id":"4","last_reported":1730117881,"current_range_meters":32400,"station_id":"ce4bhgh2rcd13ifvqfb0","pricing_plan_id":"cebpf4jnsgd1na2vs0mg"},{"bike_id":"15bf6ef2-db20-4b8c-b4f1-a27b7201bc4e","system_id":"levelo_inurba_marseille","lat":43.28922,"lon":5.3839,"is_reserved":false,"is_disabled":false,"rental_uris":{"android":"levelo://app?vid=15bf6ef2-db20-4b8c-b4f1-a27b7201bc4e","ios":"levelo://app?vid=15bf6ef2-db20-4b8c-b4f1-a27b7201bc4e"},"vehicle_type_id":"4","last_reported":1730117881,"current_range_meters":38400,"station_id":"ce4bh612rcd13ifvqe6g","pricing_plan_id":"cebpf4jnsgd1na2vs0mg"},{"bike_id":"e89036ab-06cb-459b-91f1-830ff3435de6","system_id":"levelo_inurba_marseille","lat":43.23189,"lon":5.35542,"is_reserved":false,"is_disabled":false,"rental_uris":{"android":"levelo://app?vid=e89036ab-06cb-459b-91f1-830ff3435de6","ios":"levelo://app?vid=e89036ab-06cb-459b-91f1-830ff3435de6"},"vehicle_type_id":"4","last_reported":1730117881,"current_range_meters":36800,"station_id":"ce4bhu92rcd13ifvqi70","pricing_plan_id":"cebpf4jnsgd1na2vs0mg"},{"bike_id":"b1d55027-2f8a-47e1-9245-9ac2ee1613ea","system_id":"levelo_inurba_marseille","lat":43.30883,"lon":5.37192,"is_reserved":false,"is_disabled":false,"rental_uris":{"android":"levelo://app?vid=b1d55027-2f8a-47e1-9245-9ac2ee1613ea","ios":"levelo://app?vid=b1d55027-2f8a-47e1-9245-9ac2ee1613ea"},"vehicle_type_id":"4","last_reported":1730117881,"current_range_meters":19200,"station_id":"ce4bguh2rcd13ifvqckg","pricing_plan_id":"cebpf4jnsgd1na2vs0mg"},{"bike_id":"746347bb-ae09-41d3-9035-46e3e234800f","system_id":"levelo_inurba_marseille","lat":43.28849,"lon":5.39299,"is_reserved":false,"is_disabled":false,"rental_uris":{"android":"levelo://app?vid=746347bb-ae09-41d3-9035-46e3e234800f","ios":"levelo://app?vid=746347bb-ae09-41d3-9035-46e3e234800f"},"vehicle_type_id":"4","last_reported":1730117881,"current_range_meters":38000,"station_id":"ce4bh2p2rcd13ifvqdi0","pricing_plan_id":"cebpf4jnsgd1na2vs0mg"},{"bike_id":"7fe76d9c-88a1-4c85-8e5f-9f86d7557849","system_id":"levelo_inurba_marseille","lat":43.23145,"lon":5.43713,"is_reserved":false,"is_disabled":false,"rental_uris":{"android":"levelo://app?vid=7fe76d9c-88a1-4c85-8e5f-9f86d7557849","ios":"levelo://app?vid=7fe76d9c-88a1-4c85-8e5f-9f86d7557849"},"vehicle_type_id":"4","last_reported":1730117881,"current_range_meters":20800,"station_id":"ce4bhmp2rcd13ifvqgog","pricing_plan_id":"cebpf4jnsgd1na2vs0mg"},{"bike_id":"5d013205-968f-46f0-8cb2-f55d13ad5ff4","system_id":"levelo_inurba_marseille","lat":43.32483,"lon":5.36568,"is_reserved":false,"is_disabled":false,"rental_uris":{"android":"levelo://app?vid=5d013205-968f-46f0-8cb2-f55d13ad5ff4","ios":"levelo://app?vid=5d013205-968f-46f0-8cb2-f55d13ad5ff4"},"vehicle_type_id":"4","last_reported":1730117881,"current_range_meters":36800,"station_id":"ce4bhs12rcd13ifvqhvg","pricing_plan_id":"cebpf4jnsgd1na2vs0mg"},{"bike_id":"d27b705b-74d8-4d3a-8224-09965c117aa2","system_id":"levelo_inurba_marseille","lat":43.33725,"lon":5.39177,"is_reserved":false,"is_disabled":false,"rental_uris":{"android":"levelo://app?vid=d27b705b-74d8-4d3a-8224-09965c117aa2","ios":"levelo://app?vid=d27b705b-74d8-4d3a-8224-09965c117aa2"},"vehicle_type_id":"4","last_reported":1730117881,"current_range_meters":38800,"station_id":"ce4bhr92rcd13ifvqhsg","pricing_plan_id":"cebpf4jnsgd1na2vs0mg"},{"bike_id":"4aee1b18-b4c8-4ec8-a58f-6833accd77f8","system_id":"levelo_inurba_marseille","lat":43.2418,"lon":5.39717,"is_reserved":false,"is_disabled":false,"rental_uris":{"android":"levelo://app?vid=4aee1b18-b4c8-4ec8-a58f-6833accd77f8","ios":"levelo://app?vid=4aee1b18-b4c8-4ec8-a58f-6833accd77f8"},"vehicle_type_id":"4","last_reported":1730117881,"current_range_meters":17600,"station_id":"ce4bhn12rcd13ifvqgpg","pricing_plan_id":"cebpf4jnsgd1na2vs0mg"},{"bike_id":"6f833cc7-77f3-4a00-885e-8b7148dc9fbc","system_id":"levelo_inurba_marseille","lat":43.29257,"lon":5.40906,"is_reserved":false,"is_disabled":false,"rental_uris":{"android":"levelo://app?vid=6f833cc7-77f3-4a00-885e-8b7148dc9fbc","ios":"levelo://app?vid=6f833cc7-77f3-4a00-885e-8b7148dc9fbc"},"vehicle_type_id":"4","last_reported":1730117881,"current_range_meters":28000,"station_id":"ce4bh192rcd13ifvqdc0","pricing_plan_id":"cebpf4jnsgd1na2vs0mg"},{"bike_id":"2f921f60-1890-404a-898c-6dae28d2ff64","system_id":"levelo_inurba_marseille","lat":43.32091,"lon":5.36787,"is_reserved":false,"is_disabled":false,"rental_uris":{"android":"levelo://app?vid=2f921f60-1890-404a-898c-6dae28d2ff64","ios":"levelo://app?vid=2f921f60-1890-404a-898c-6dae28d2ff64"},"vehicle_type_id":"4","last_reported":1730117881,"current_range_meters":38800,"station_id":"ce4bhrh2rcd13ifvqhug","pricing_plan_id":"cebpf4jnsgd1na2vs0mg"},{"bike_id":"3eb32f4b-1595-4496-b15b-76d4a0e5daf3","system_id":"levelo_inurba_marseille","lat":43.25504,"lon":5.37648,"is_reserved":false,"is_disabled":false,"rental_uris":{"android":"levelo://app?vid=3eb32f4b-1595-4496-b15b-76d4a0e5daf3","ios":"levelo://app?vid=3eb32f4b-1595-4496-b15b-76d4a0e5daf3"},"vehicle_type_id":"4","last_reported":1730117881,"current_range_meters":18000,"station_id":"ce4bhh12rcd13ifvqff0","pricing_plan_id":"cebpf4jnsgd1na2vs0mg"},{"bike_id":"c9f299e7-44b3-4adc-a93d-769d4eadb8bd","system_id":"levelo_inurba_marseille","lat":43.231504,"lon":5.437257,"is_reserved":false,"is_disabled":false,"rental_uris":{"android":"levelo://app?vid=c9f299e7-44b3-4adc-a93d-769d4eadb8bd","ios":"levelo://app?vid=c9f299e7-44b3-4adc-a93d-769d4eadb8bd"},"vehicle_type_id":"4","last_reported":1730117881,"current_range_meters":34000,"station_id":"ce4bhmp2rcd13ifvqgog","pricing_plan_id":"cebpf4jnsgd1na2vs0mg"},{"bike_id":"8b1435f2-e9dd-44c1-a5f6-f4cfccf31c9f","system_id":"levelo_inurba_marseille","lat":43.33109,"lon":5.38215,"is_reserved":false,"is_disabled":false,"rental_uris":{"android":"levelo://app?vid=8b1435f2-e9dd-44c1-a5f6-f4cfccf31c9f","ios":"levelo://app?vid=8b1435f2-e9dd-44c1-a5f6-f4cfccf31c9f"},"vehicle_type_id":"4","last_reported":1730117881,"current_range_meters":29600,"station_id":"","pricing_plan_id":"cebpf4jnsgd1na2vs0mg"},{"bike_id":"1959dbd9-0ee0-478d-a3dc-b3a0dfb37df2","system_id":"levelo_inurba_marseille","lat":43.30538,"lon":5.36529,"is_reserved":false,"is_disabled":false,"rental_uris":{"android":"levelo://app?vid=1959dbd9-0ee0-478d-a3dc-b3a0dfb37df2","ios":"levelo://app?vid=1959dbd9-0ee0-478d-a3dc-b3a0dfb37df2"},"vehicle_type_id":"4","last_reported":1730117881,"current_range_meters":35600,"station_id":"ce4bgs12rcd13ifvqcag","pricing_plan_id":"cebpf4jnsgd1na2vs0mg"},{"bike_id":"ac54c711-9c7f-4346-b1bd-7b0862fab3bb","system_id":"levelo_inurba_marseille","lat":43.30948,"lon":5.39037,"is_reserved":false,"is_disabled":false,"rental_uris":{"android":"levelo://app?vid=ac54c711-9c7f-4346-b1bd-7b0862fab3bb","ios":"levelo://app?vid=ac54c711-9c7f-4346-b1bd-7b0862fab3bb"},"vehicle_type_id":"4","last_reported":1730117881,"current_range_meters":5600,"station_id":"ce4bgup2rcd13ifvqco0","pricing_plan_id":"cebpf4jnsgd1na2vs0mg"},{"bike_id":"4c59ee98-4d15-4af7-80ab-178e9eac8fae","system_id":"levelo_inurba_marseille","lat":43.23154,"lon":5.43702,"is_reserved":false,"is_disabled":false,"rental_uris":{"android":"levelo://app?vid=4c59ee98-4d15-4af7-80ab-178e9eac8fae","ios":"levelo://app?vid=4c59ee98-4d15-4af7-80ab-178e9eac8fae"},"vehicle_type_id":"4","last_reported":1730117881,"current_range_meters":3600,"station_id":"ce4bhmp2rcd13ifvqgog","pricing_plan_id":"cebpf4jnsgd1na2vs0mg"},{"bike_id":"0861afe1-2d48-4d81-81b7-9ded0da72e3f","system_id":"levelo_inurba_marseille","lat":43.28931,"lon":5.38381,"is_reserved":false,"is_disabled":false,"rental_uris":{"android":"levelo://app?vid=0861afe1-2d48-4d81-81b7-9ded0da72e3f","ios":"levelo://app?vid=0861afe1-2d48-4d81-81b7-9ded0da72e3f"},"vehicle_type_id":"4","last_reported":1730117881,"current_range_meters":18800,"station_id":"ce4bh612rcd13ifvqe6g","pricing_plan_id":"cebpf4jnsgd1na2vs0mg"},{"bike_id":"f4ce7b8d-0e49-4af4-916d-866d4982fea1","system_id":"levelo_inurba_marseille","lat":43.28932,"lon":5.366471,"is_reserved":false,"is_disabled":false,"rental_uris":{"android":"levelo://app?vid=f4ce7b8d-0e49-4af4-916d-866d4982fea1","ios":"levelo://app?vid=f4ce7b8d-0e49-4af4-916d-866d4982fea1"},"vehicle_type_id":"4","last_reported":1730117881,"current_range_meters":14000,"station_id":"ce4bhap2rcd13ifvqek0","pricing_plan_id":"cebpf4jnsgd1na2vs0mg"},{"bike_id":"ef915c69-a746-473b-bdc6-ca2cdbe5bac9","system_id":"levelo_inurba_marseille","lat":43.32283,"lon":5.3827,"is_reserved":false,"is_disabled":false,"rental_uris":{"android":"levelo://app?vid=ef915c69-a746-473b-bdc6-ca2cdbe5bac9","ios":"levelo://app?vid=ef915c69-a746-473b-bdc6-ca2cdbe5bac9"},"vehicle_type_id":"4","last_reported":1730117881,"current_range_meters":39200,"station_id":"ce4bhr12rcd13ifvqhqg","pricing_plan_id":"cebpf4jnsgd1na2vs0mg"},{"bike_id":"6e4158cd-dbb8-468e-827a-350a592e6481","system_id":"levelo_inurba_marseille","lat":43.30131,"lon":5.37422,"is_reserved":false,"is_disabled":false,"rental_uris":{"android":"levelo://app?vid=6e4158cd-dbb8-468e-827a-350a592e6481","ios":"levelo://app?vid=6e4158cd-dbb8-468e-827a-350a592e6481"},"vehicle_type_id":"4","last_reported":1730117881,"current_range_meters":24000,"station_id":"ce4bgs92rcd13ifvqcc0","pricing_plan_id":"cebpf4jnsgd1na2vs0mg"},{"bike_id":"cd8988cf-34e0-4cd8-92c1-67d3cd8c964e","system_id":"levelo_inurba_marseille","lat":43.23961,"lon":5.36628,"is_reserved":false,"is_disabled":false,"rental_uris":{"android":"levelo://app?vid=cd8988cf-34e0-4cd8-92c1-67d3cd8c964e","ios":"levelo://app?vid=cd8988cf-34e0-4cd8-92c1-67d3cd8c964e"},"vehicle_type_id":"4","last_reported":1730117881,"current_range_meters":10800,"station_id":"ce4bhi12rcd13ifvqfp0","pricing_plan_id":"cebpf4jnsgd1na2vs0mg"},{"bike_id":"eddeac4f-e623-438d-9cc0-6f5c23813c94","system_id":"levelo_inurba_marseille","lat":43.30547,"lon":5.36524,"is_reserved":false,"is_disabled":false,"rental_uris":{"android":"levelo://app?vid=eddeac4f-e623-438d-9cc0-6f5c23813c94","ios":"levelo://app?vid=eddeac4f-e623-438d-9cc0-6f5c23813c94"},"vehicle_type_id":"4","last_reported":1730117881,"current_range_meters":28800,"station_id":"ce4bgs12rcd13ifvqcag","pricing_plan_id":"cebpf4jnsgd1na2vs0mg"},{"bike_id":"a9bd02b4-904d-4c92-8736-007a298b71fe","system_id":"levelo_inurba_marseille","lat":43.32478,"lon":5.36558,"is_reserved":false,"is_disabled":false,"rental_uris":{"android":"levelo://app?vid=a9bd02b4-904d-4c92-8736-007a298b71fe","ios":"levelo://app?vid=a9bd02b4-904d-4c92-8736-007a298b71fe"},"vehicle_type_id":"4","last_reported":1730117881,"current_range_meters":37600,"station_id":"ce4bhs12rcd13ifvqhvg","pricing_plan_id":"cebpf4jnsgd1na2vs0mg"},{"bike_id":"beedd073-4cf3-453d-b215-0a922cffa6f4","system_id":"levelo_inurba_marseille","lat":43.29708,"lon":5.36604,"is_reserved":false,"is_disabled":false,"rental_uris":{"android":"levelo://app?vid=beedd073-4cf3-453d-b215-0a922cffa6f4","ios":"levelo://app?vid=beedd073-4cf3-453d-b215-0a922cffa6f4"},"vehicle_type_id":"4","last_reported":1730117881,"current_range_meters":29600,"station_id":"ce4bgn12rcd13ifvqbt0","pricing_plan_id":"cebpf4jnsgd1na2vs0mg"},{"bike_id":"bea43885-0856-455e-ac3f-50e3c52f4d9e","system_id":"levelo_inurba_marseille","lat":43.25106,"lon":5.40318,"is_reserved":false,"is_disabled":false,"rental_uris":{"android":"levelo://app?vid=bea43885-0856-455e-ac3f-50e3c52f4d9e","ios":"levelo://app?vid=bea43885-0856-455e-ac3f-50e3c52f4d9e"},"vehicle_type_id":"4","last_reported":1730117881,"current_range_meters":36800,"station_id":"ce4bhlh2rcd13ifvqgig","pricing_plan_id":"cebpf4jnsgd1na2vs0mg"},{"bike_id":"b863e791-dd48-46a4-b638-14ddd3ae6e32","system_id":"levelo_inurba_marseille","lat":43.32333,"lon":5.40618,"is_reserved":false,"is_disabled":false,"rental_uris":{"android":"levelo://app?vid=b863e791-dd48-46a4-b638-14ddd3ae6e32","ios":"levelo://app?vid=b863e791-dd48-46a4-b638-14ddd3ae6e32"},"vehicle_type_id":"4","last_reported":1730117881,"current_range_meters":10800,"station_id":"ce4bhq92rcd13ifvqhjg","pricing_plan_id":"cebpf4jnsgd1na2vs0mg"},{"bike_id":"aacb3cb6-ebb2-4c9a-9d59-1efc9a1b694e","system_id":"levelo_inurba_marseille","lat":43.25103,"lon":5.40323,"is_reserved":false,"is_disabled":false,"rental_uris":{"android":"levelo://app?vid=aacb3cb6-ebb2-4c9a-9d59-1efc9a1b694e","ios":"levelo://app?vid=aacb3cb6-ebb2-4c9a-9d59-1efc9a1b694e"},"vehicle_type_id":"4","last_reported":1730117881,"current_range_meters":8800,"station_id":"ce4bhlh2rcd13ifvqgig","pricing_plan_id":"cebpf4jnsgd1na2vs0mg"},{"bike_id":"fe0f4ad9-8221-48ed-be5d-c64547a2f47a","system_id":"levelo_inurba_marseille","lat":43.28627,"lon":5.38346,"is_reserved":false,"is_disabled":false,"rental_uris":{"android":"levelo://app?vid=fe0f4ad9-8221-48ed-be5d-c64547a2f47a","ios":"levelo://app?vid=fe0f4ad9-8221-48ed-be5d-c64547a2f47a"},"vehicle_type_id":"4","last_reported":1730117881,"current_range_meters":22400,"station_id":"ce4bh4p2rcd13ifvqe1g","pricing_plan_id":"cebpf4jnsgd1na2vs0mg"},{"bike_id":"8d66ba2e-e771-4c67-99ad-ef2d113002e3","system_id":"levelo_inurba_marseille","lat":43.25091,"lon":5.39521,"is_reserved":false,"is_disabled":false,"rental_uris":{"android":"levelo://app?vid=8d66ba2e-e771-4c67-99ad-ef2d113002e3","ios":"levelo://app?vid=8d66ba2e-e771-4c67-99ad-ef2d113002e3"},"vehicle_type_id":"4","last_reported":1730117881,"current_range_meters":39200,"station_id":"ce4bhm12rcd13ifvqgkg","pricing_plan_id":"cebpf4jnsgd1na2vs0mg"},{"bike_id":"8d2ef424-a5a8-454f-8a85-bd382fed8ac4","system_id":"levelo_inurba_marseille","lat":43.3055,"lon":5.36527,"is_reserved":false,"is_disabled":false,"rental_uris":{"android":"levelo://app?vid=8d2ef424-a5a8-454f-8a85-bd382fed8ac4","ios":"levelo://app?vid=8d2ef424-a5a8-454f-8a85-bd382fed8ac4"},"vehicle_type_id":"4","last_reported":1730117881,"current_range_meters":38800,"station_id":"ce4bgs12rcd13ifvqcag","pricing_plan_id":"cebpf4jnsgd1na2vs0mg"},{"bike_id":"b8e13f61-7a01-4802-ab99-1fc57e8e466f","system_id":"levelo_inurba_marseille","lat":43.25577,"lon":5.38236,"is_reserved":false,"is_disabled":false,"rental_uris":{"android":"levelo://app?vid=b8e13f61-7a01-4802-ab99-1fc57e8e466f","ios":"levelo://app?vid=b8e13f61-7a01-4802-ab99-1fc57e8e466f"},"vehicle_type_id":"4","last_reported":1730117881,"current_range_meters":35600,"station_id":"ce4bhih2rcd13ifvqfs0","pricing_plan_id":"cebpf4jnsgd1na2vs0mg"},{"bike_id":"c8713419-a835-43b9-ac75-b05adb95bea9","system_id":"levelo_inurba_marseille","lat":43.29553,"lon":5.42286,"is_reserved":false,"is_disabled":false,"rental_uris":{"android":"levelo://app?vid=c8713419-a835-43b9-ac75-b05adb95bea9","ios":"levelo://app?vid=c8713419-a835-43b9-ac75-b05adb95bea9"},"vehicle_type_id":"4","last_reported":1730117881,"current_range_meters":38800,"station_id":"ce4bhph2rcd13ifvqhdg","pricing_plan_id":"cebpf4jnsgd1na2vs0mg"},{"bike_id":"2187d057-0598-4b59-91d0-195d0a9512fb","system_id":"levelo_inurba_marseille","lat":43.28261,"lon":5.35065,"is_reserved":false,"is_disabled":false,"rental_uris":{"android":"levelo://app?vid=2187d057-0598-4b59-91d0-195d0a9512fb","ios":"levelo://app?vid=2187d057-0598-4b59-91d0-195d0a9512fb"},"vehicle_type_id":"4","last_reported":1730117881,"current_range_meters":38000,"station_id":"ce4bhbp2rcd13ifvqerg","pricing_plan_id":"cebpf4jnsgd1na2vs0mg"},{"bike_id":"a7de5b6a-6f3a-4631-8dc1-72611798f303","system_id":"levelo_inurba_marseille","lat":43.30299,"lon":5.39207,"is_reserved":false,"is_disabled":false,"rental_uris":{"android":"levelo://app?vid=a7de5b6a-6f3a-4631-8dc1-72611798f303","ios":"levelo://app?vid=a7de5b6a-6f3a-4631-8dc1-72611798f303"},"vehicle_type_id":"4","last_reported":1730117881,"current_range_meters":16000,"station_id":"ce4bgkh2rcd13ifvqbk0","pricing_plan_id":"cebpf4jnsgd1na2vs0mg"},{"bike_id":"147ea370-eac6-4c21-8cab-06d6755fd87a","system_id":"levelo_inurba_marseille","lat":43.27945,"lon":5.41042,"is_reserved":false,"is_disabled":false,"rental_uris":{"android":"levelo://app?vid=147ea370-eac6-4c21-8cab-06d6755fd87a","ios":"levelo://app?vid=147ea370-eac6-4c21-8cab-06d6755fd87a"},"vehicle_type_id":"4","last_reported":1730117881,"current_range_meters":36400,"station_id":"ce4bhnp2rcd13ifvqh0g","pricing_plan_id":"cebpf4jnsgd1na2vs0mg"},{"bike_id":"6b6a994b-dd1b-4c47-bb79-285b7ce84777","system_id":"levelo_inurba_marseille","lat":43.32105,"lon":5.36761,"is_reserved":false,"is_disabled":false,"rental_uris":{"android":"levelo://app?vid=6b6a994b-dd1b-4c47-bb79-285b7ce84777","ios":"levelo://app?vid=6b6a994b-dd1b-4c47-bb79-285b7ce84777"},"vehicle_type_id":"4","last_reported":1730117881,"current_range_meters":38800,"station_id":"ce4bhrh2rcd13ifvqhug","pricing_plan_id":"cebpf4jnsgd1na2vs0mg"},{"bike_id":"e3ef4fc4-32ee-4fb8-971a-531faf8c1968","system_id":"levelo_inurba_marseille","lat":43.3149,"lon":5.3731,"is_reserved":false,"is_disabled":false,"rental_uris":{"android":"levelo://app?vid=e3ef4fc4-32ee-4fb8-971a-531faf8c1968","ios":"levelo://app?vid=e3ef4fc4-32ee-4fb8-971a-531faf8c1968"},"vehicle_type_id":"4","last_reported":1730117881,"current_range_meters":39200,"station_id":"ce4bgt12rcd13ifvqcd0","pricing_plan_id":"cebpf4jnsgd1na2vs0mg"},{"bike_id":"f491d4b7-6dc0-4aa9-9c8a-6aed47dd36bc","system_id":"levelo_inurba_marseille","lat":43.28701,"lon":5.39984,"is_reserved":false,"is_disabled":false,"rental_uris":{"android":"levelo://app?vid=f491d4b7-6dc0-4aa9-9c8a-6aed47dd36bc","ios":"levelo://app?vid=f491d4b7-6dc0-4aa9-9c8a-6aed47dd36bc"},"vehicle_type_id":"4","last_reported":1730117881,"current_range_meters":26800,"station_id":"ce4bho92rcd13ifvqh3g","pricing_plan_id":"cebpf4jnsgd1na2vs0mg"},{"bike_id":"9edb394a-fee9-4963-8b62-f67c36633c84","system_id":"levelo_inurba_marseille","lat":43.27997,"lon":5.40021,"is_reserved":false,"is_disabled":false,"rental_uris":{"android":"levelo://app?vid=9edb394a-fee9-4963-8b62-f67c36633c84","ios":"levelo://app?vid=9edb394a-fee9-4963-8b62-f67c36633c84"},"vehicle_type_id":"4","last_reported":1730117881,"current_range_meters":24800,"station_id":"ce4bho92rcd13ifvqh4g","pricing_plan_id":"cebpf4jnsgd1na2vs0mg"},{"bike_id":"e113f747-4daa-44f7-a218-9e030daa2565","system_id":"levelo_inurba_marseille","lat":43.32105,"lon":5.36769,"is_reserved":false,"is_disabled":false,"rental_uris":{"android":"levelo://app?vid=e113f747-4daa-44f7-a218-9e030daa2565","ios":"levelo://app?vid=e113f747-4daa-44f7-a218-9e030daa2565"},"vehicle_type_id":"4","last_reported":1730117881,"current_range_meters":21600,"station_id":"ce4bhrh2rcd13ifvqhug","pricing_plan_id":"cebpf4jnsgd1na2vs0mg"},{"bike_id":"c83bf92a-895e-4031-90cc-0a4806604b3f","system_id":"levelo_inurba_marseille","lat":43.23054,"lon":5.35491,"is_reserved":false,"is_disabled":false,"rental_uris":{"android":"levelo://app?vid=c83bf92a-895e-4031-90cc-0a4806604b3f","ios":"levelo://app?vid=c83bf92a-895e-4031-90cc-0a4806604b3f"},"vehicle_type_id":"4","last_reported":1730117881,"current_range_meters":36800,"station_id":"cpo3342slgdg3j2ifvpg","pricing_plan_id":"cebpf4jnsgd1na2vs0mg"},{"bike_id":"90a5c9e3-99ab-4b6d-ac56-19270b9e9f97","system_id":"levelo_inurba_marseille","lat":43.29284,"lon":5.4012,"is_reserved":false,"is_disabled":false,"rental_uris":{"android":"levelo://app?vid=90a5c9e3-99ab-4b6d-ac56-19270b9e9f97","ios":"levelo://app?vid=90a5c9e3-99ab-4b6d-ac56-19270b9e9f97"},"vehicle_type_id":"4","last_reported":1730117881,"current_range_meters":35600,"station_id":"ce4bh312rcd13ifvqdk0","pricing_plan_id":"cebpf4jnsgd1na2vs0mg"},{"bike_id":"1ac2f97e-1640-45de-b046-1ec09bdc92c1","system_id":"levelo_inurba_marseille","lat":43.30537,"lon":5.367,"is_reserved":false,"is_disabled":false,"rental_uris":{"android":"levelo://app?vid=1ac2f97e-1640-45de-b046-1ec09bdc92c1","ios":"levelo://app?vid=1ac2f97e-1640-45de-b046-1ec09bdc92c1"},"vehicle_type_id":"4","last_reported":1730117881,"current_range_meters":28000,"station_id":"ce4bgrp2rcd13ifvqc9g","pricing_plan_id":"cebpf4jnsgd1na2vs0mg"},{"bike_id":"9fd56fad-5f3d-42b4-b491-7b57b76bc0cf","system_id":"levelo_inurba_marseille","lat":43.278149,"lon":5.407127,"is_reserved":false,"is_disabled":false,"rental_uris":{"android":"levelo://app?vid=9fd56fad-5f3d-42b4-b491-7b57b76bc0cf","ios":"levelo://app?vid=9fd56fad-5f3d-42b4-b491-7b57b76bc0cf"},"vehicle_type_id":"4","last_reported":1730117881,"current_range_meters":17200,"station_id":"ce4bhnh2rcd13ifvqgtg","pricing_plan_id":"cebpf4jnsgd1na2vs0mg"},{"bike_id":"4a60a4b3-3d7b-4747-ae32-7ad4aff1372b","system_id":"levelo_inurba_marseille","lat":43.28405,"lon":5.34969,"is_reserved":false,"is_disabled":false,"rental_uris":{"android":"levelo://app?vid=4a60a4b3-3d7b-4747-ae32-7ad4aff1372b","ios":"levelo://app?vid=4a60a4b3-3d7b-4747-ae32-7ad4aff1372b"},"vehicle_type_id":"4","last_reported":1730117881,"current_range_meters":36800,"station_id":"ce4bhbh2rcd13ifvqepg","pricing_plan_id":"cebpf4jnsgd1na2vs0mg"},{"bike_id":"e93f42e4-ca27-4ae1-ade5-80b77e2287bc","system_id":"levelo_inurba_marseille","lat":43.26207,"lon":5.37925,"is_reserved":false,"is_disabled":false,"rental_uris":{"android":"levelo://app?vid=e93f42e4-ca27-4ae1-ade5-80b77e2287bc","ios":"levelo://app?vid=e93f42e4-ca27-4ae1-ade5-80b77e2287bc"},"vehicle_type_id":"4","last_reported":1730117881,"current_range_meters":33200,"station_id":"ce4bhjp2rcd13ifvqg90","pricing_plan_id":"cebpf4jnsgd1na2vs0mg"},{"bike_id":"01a2d95e-4f3e-4a42-84b4-1a4ffd101ced","system_id":"levelo_inurba_marseille","lat":43.270778,"lon":5.363112,"is_reserved":false,"is_disabled":false,"rental_uris":{"android":"levelo://app?vid=01a2d95e-4f3e-4a42-84b4-1a4ffd101ced","ios":"levelo://app?vid=01a2d95e-4f3e-4a42-84b4-1a4ffd101ced"},"vehicle_type_id":"4","last_reported":1730117881,"current_range_meters":7200,"station_id":"ce4bhnh2rcd13ifvqgug","pricing_plan_id":"cebpf4jnsgd1na2vs0mg"},{"bike_id":"db30c5f9-7712-4f13-90cb-a212d56d6b93","system_id":"levelo_inurba_marseille","lat":43.30141,"lon":5.38051,"is_reserved":false,"is_disabled":false,"rental_uris":{"android":"levelo://app?vid=db30c5f9-7712-4f13-90cb-a212d56d6b93","ios":"levelo://app?vid=db30c5f9-7712-4f13-90cb-a212d56d6b93"},"vehicle_type_id":"4","last_reported":1730117881,"current_range_meters":38000,"station_id":"ce4bgjp2rcd13ifvqbh0","pricing_plan_id":"cebpf4jnsgd1na2vs0mg"},{"bike_id":"89ff8af6-8647-416b-860e-06a3a9145f76","system_id":"levelo_inurba_marseille","lat":43.248069,"lon":5.374569,"is_reserved":false,"is_disabled":false,"rental_uris":{"android":"levelo://app?vid=89ff8af6-8647-416b-860e-06a3a9145f76","ios":"levelo://app?vid=89ff8af6-8647-416b-860e-06a3a9145f76"},"vehicle_type_id":"4","last_reported":1730117881,"current_range_meters":26800,"station_id":"ce4bgk12rcd13ifvqbj0","pricing_plan_id":"cebpf4jnsgd1na2vs0mg"},{"bike_id":"939ef23a-8e9f-47e0-ba95-784e8e1c14b8","system_id":"levelo_inurba_marseille","lat":43.23067,"lon":5.35489,"is_reserved":false,"is_disabled":false,"rental_uris":{"android":"levelo://app?vid=939ef23a-8e9f-47e0-ba95-784e8e1c14b8","ios":"levelo://app?vid=939ef23a-8e9f-47e0-ba95-784e8e1c14b8"},"vehicle_type_id":"4","last_reported":1730117881,"current_range_meters":16800,"station_id":"cpo3342slgdg3j2ifvpg","pricing_plan_id":"cebpf4jnsgd1na2vs0mg"},{"bike_id":"c114e600-5c42-40fd-8b3f-b6c47c8be69a","system_id":"levelo_inurba_marseille","lat":43.23148,"lon":5.43716,"is_reserved":false,"is_disabled":false,"rental_uris":{"android":"levelo://app?vid=c114e600-5c42-40fd-8b3f-b6c47c8be69a","ios":"levelo://app?vid=c114e600-5c42-40fd-8b3f-b6c47c8be69a"},"vehicle_type_id":"4","last_reported":1730117881,"current_range_meters":38800,"station_id":"ce4bhmp2rcd13ifvqgog","pricing_plan_id":"cebpf4jnsgd1na2vs0mg"},{"bike_id":"66a08783-0456-4724-be4f-201153d4e0a1","system_id":"levelo_inurba_marseille","lat":43.24383,"lon":5.37058,"is_reserved":false,"is_disabled":false,"rental_uris":{"android":"levelo://app?vid=66a08783-0456-4724-be4f-201153d4e0a1","ios":"levelo://app?vid=66a08783-0456-4724-be4f-201153d4e0a1"},"vehicle_type_id":"4","last_reported":1730117881,"current_range_meters":28000,"station_id":"ce4bhhh2rcd13ifvqfk0","pricing_plan_id":"cebpf4jnsgd1na2vs0mg"},{"bike_id":"a1713c42-9e57-4acb-9d0d-bb5f2ccfd709","system_id":"levelo_inurba_marseille","lat":43.29904,"lon":5.374673,"is_reserved":false,"is_disabled":false,"rental_uris":{"android":"levelo://app?vid=a1713c42-9e57-4acb-9d0d-bb5f2ccfd709","ios":"levelo://app?vid=a1713c42-9e57-4acb-9d0d-bb5f2ccfd709"},"vehicle_type_id":"4","last_reported":1730117881,"current_range_meters":38800,"station_id":"ce4bgjh2rcd13ifvqbg0","pricing_plan_id":"cebpf4jnsgd1na2vs0mg"},{"bike_id":"96fc888f-3924-4bcb-8e8c-eb647cb566ab","system_id":"levelo_inurba_marseille","lat":43.33768,"lon":5.37426,"is_reserved":false,"is_disabled":false,"rental_uris":{"android":"levelo://app?vid=96fc888f-3924-4bcb-8e8c-eb647cb566ab","ios":"levelo://app?vid=96fc888f-3924-4bcb-8e8c-eb647cb566ab"},"vehicle_type_id":"4","last_reported":1730117881,"current_range_meters":38800,"station_id":"","pricing_plan_id":"cebpf4jnsgd1na2vs0mg"},{"bike_id":"ba7ff12b-4fb3-47ea-b304-85ab8fca1364","system_id":"levelo_inurba_marseille","lat":43.32294,"lon":5.38276,"is_reserved":false,"is_disabled":false,"rental_uris":{"android":"levelo://app?vid=ba7ff12b-4fb3-47ea-b304-85ab8fca1364","ios":"levelo://app?vid=ba7ff12b-4fb3-47ea-b304-85ab8fca1364"},"vehicle_type_id":"4","last_reported":1730117881,"current_range_meters":39200,"station_id":"ce4bhr12rcd13ifvqhqg","pricing_plan_id":"cebpf4jnsgd1na2vs0mg"},{"bike_id":"29268ae0-7016-4d78-af79-c09936a4f0d4","system_id":"levelo_inurba_marseille","lat":43.27946,"lon":5.41036,"is_reserved":false,"is_disabled":false,"rental_uris":{"android":"levelo://app?vid=29268ae0-7016-4d78-af79-c09936a4f0d4","ios":"levelo://app?vid=29268ae0-7016-4d78-af79-c09936a4f0d4"},"vehicle_type_id":"4","last_reported":1730117881,"current_range_meters":12400,"station_id":"ce4bhnp2rcd13ifvqh0g","pricing_plan_id":"cebpf4jnsgd1na2vs0mg"},{"bike_id":"6760aa4b-596b-46f5-be1e-6e80794bef9d","system_id":"levelo_inurba_marseille","lat":43.30542,"lon":5.36707,"is_reserved":false,"is_disabled":false,"rental_uris":{"android":"levelo://app?vid=6760aa4b-596b-46f5-be1e-6e80794bef9d","ios":"levelo://app?vid=6760aa4b-596b-46f5-be1e-6e80794bef9d"},"vehicle_type_id":"4","last_reported":1730117881,"current_range_meters":24800,"station_id":"ce4bgrp2rcd13ifvqc9g","pricing_plan_id":"cebpf4jnsgd1na2vs0mg"},{"bike_id":"4f923052-2cbb-4434-9a29-a0cf103f6d55","system_id":"levelo_inurba_marseille","lat":43.2893,"lon":5.38414,"is_reserved":false,"is_disabled":false,"rental_uris":{"android":"levelo://app?vid=4f923052-2cbb-4434-9a29-a0cf103f6d55","ios":"levelo://app?vid=4f923052-2cbb-4434-9a29-a0cf103f6d55"},"vehicle_type_id":"4","last_reported":1730117881,"current_range_meters":17200,"station_id":"ce4bh612rcd13ifvqe6g","pricing_plan_id":"cebpf4jnsgd1na2vs0mg"},{"bike_id":"146d946d-c365-487d-8f20-9bc92af9617a","system_id":"levelo_inurba_marseille","lat":43.295868,"lon":5.368199,"is_reserved":false,"is_disabled":false,"rental_uris":{"android":"levelo://app?vid=146d946d-c365-487d-8f20-9bc92af9617a","ios":"levelo://app?vid=146d946d-c365-487d-8f20-9bc92af9617a"},"vehicle_type_id":"4","last_reported":1730117881,"current_range_meters":30400,"station_id":"ce4bgph2rcd13ifvqc2g","pricing_plan_id":"cebpf4jnsgd1na2vs0mg"},{"bike_id":"f7a50275-88a4-4be4-ac33-5cce1242cfaa","system_id":"levelo_inurba_marseille","lat":43.31711,"lon":5.37751,"is_reserved":false,"is_disabled":false,"rental_uris":{"android":"levelo://app?vid=f7a50275-88a4-4be4-ac33-5cce1242cfaa","ios":"levelo://app?vid=f7a50275-88a4-4be4-ac33-5cce1242cfaa"},"vehicle_type_id":"4","last_reported":1730117881,"current_range_meters":39200,"station_id":"ce4bgth2rcd13ifvqch0","pricing_plan_id":"cebpf4jnsgd1na2vs0mg"},{"bike_id":"f78042fc-8505-4e93-85d8-1f5a46133171","system_id":"levelo_inurba_marseille","lat":43.24167,"lon":5.36388,"is_reserved":false,"is_disabled":false,"rental_uris":{"android":"levelo://app?vid=f78042fc-8505-4e93-85d8-1f5a46133171","ios":"levelo://app?vid=f78042fc-8505-4e93-85d8-1f5a46133171"},"vehicle_type_id":"4","last_reported":1730117881,"current_range_meters":28800,"station_id":"cpo36qri1sfpv3e86is0","pricing_plan_id":"cebpf4jnsgd1na2vs0mg"},{"bike_id":"2fa840a4-c474-490f-ad60-4fac3deda4c7","system_id":"levelo_inurba_marseille","lat":43.29274,"lon":5.36837,"is_reserved":false,"is_disabled":false,"rental_uris":{"android":"levelo://app?vid=2fa840a4-c474-490f-ad60-4fac3deda4c7","ios":"levelo://app?vid=2fa840a4-c474-490f-ad60-4fac3deda4c7"},"vehicle_type_id":"4","last_reported":1730117881,"current_range_meters":28400,"station_id":"ce4bhbp2rcd13ifvqesg","pricing_plan_id":"cebpf4jnsgd1na2vs0mg"},{"bike_id":"9a5bde99-e0e5-41db-97e1-42e11328fcff","system_id":"levelo_inurba_marseille","lat":43.30488,"lon":5.37907,"is_reserved":false,"is_disabled":false,"rental_uris":{"android":"levelo://app?vid=9a5bde99-e0e5-41db-97e1-42e11328fcff","ios":"levelo://app?vid=9a5bde99-e0e5-41db-97e1-42e11328fcff"},"vehicle_type_id":"4","last_reported":1730117881,"current_range_meters":39200,"station_id":"ce4bgup2rcd13ifvqcn0","pricing_plan_id":"cebpf4jnsgd1na2vs0mg"},{"bike_id":"86de51d7-7689-4b34-9eeb-07ffaec36dca","system_id":"levelo_inurba_marseille","lat":43.27415,"lon":5.39403,"is_reserved":false,"is_disabled":false,"rental_uris":{"android":"levelo://app?vid=86de51d7-7689-4b34-9eeb-07ffaec36dca","ios":"levelo://app?vid=86de51d7-7689-4b34-9eeb-07ffaec36dca"},"vehicle_type_id":"4","last_reported":1730117881,"current_range_meters":39200,"station_id":"ce4bhdp2rcd13ifvqf20","pricing_plan_id":"cebpf4jnsgd1na2vs0mg"},{"bike_id":"7ca56edd-ab0f-42b5-b290-aff4cb25cb72","system_id":"levelo_inurba_marseille","lat":43.24386,"lon":5.37053,"is_reserved":false,"is_disabled":false,"rental_uris":{"android":"levelo://app?vid=7ca56edd-ab0f-42b5-b290-aff4cb25cb72","ios":"levelo://app?vid=7ca56edd-ab0f-42b5-b290-aff4cb25cb72"},"vehicle_type_id":"4","last_reported":1730117881,"current_range_meters":30000,"station_id":"ce4bhhh2rcd13ifvqfk0","pricing_plan_id":"cebpf4jnsgd1na2vs0mg"},{"bike_id":"67a7be2b-5797-47b0-879b-47d67859d4e8","system_id":"levelo_inurba_marseille","lat":43.30307,"lon":5.3921,"is_reserved":false,"is_disabled":false,"rental_uris":{"android":"levelo://app?vid=67a7be2b-5797-47b0-879b-47d67859d4e8","ios":"levelo://app?vid=67a7be2b-5797-47b0-879b-47d67859d4e8"},"vehicle_type_id":"4","last_reported":1730117881,"current_range_meters":24000,"station_id":"ce4bgkh2rcd13ifvqbk0","pricing_plan_id":"cebpf4jnsgd1na2vs0mg"},{"bike_id":"24c3453c-534c-45c3-af57-87b77df17206","system_id":"levelo_inurba_marseille","lat":43.337688,"lon":5.374612,"is_reserved":false,"is_disabled":false,"rental_uris":{"android":"levelo://app?vid=24c3453c-534c-45c3-af57-87b77df17206","ios":"levelo://app?vid=24c3453c-534c-45c3-af57-87b77df17206"},"vehicle_type_id":"4","last_reported":1730117881,"current_range_meters":38800,"station_id":"","pricing_plan_id":"cebpf4jnsgd1na2vs0mg"},{"bike_id":"4cf016cf-222a-4af0-b71c-5001d7c7e17d","system_id":"levelo_inurba_marseille","lat":43.25085,"lon":5.39518,"is_reserved":false,"is_disabled":false,"rental_uris":{"android":"levelo://app?vid=4cf016cf-222a-4af0-b71c-5001d7c7e17d","ios":"levelo://app?vid=4cf016cf-222a-4af0-b71c-5001d7c7e17d"},"vehicle_type_id":"4","last_reported":1730117881,"current_range_meters":38800,"station_id":"ce4bhm12rcd13ifvqgkg","pricing_plan_id":"cebpf4jnsgd1na2vs0mg"},{"bike_id":"a0de6f4e-066b-4e53-a658-022acbe171b3","system_id":"levelo_inurba_marseille","lat":43.29911,"lon":5.37469,"is_reserved":false,"is_disabled":false,"rental_uris":{"android":"levelo://app?vid=a0de6f4e-066b-4e53-a658-022acbe171b3","ios":"levelo://app?vid=a0de6f4e-066b-4e53-a658-022acbe171b3"},"vehicle_type_id":"4","last_reported":1730117881,"current_range_meters":16000,"station_id":"ce4bgjh2rcd13ifvqbg0","pricing_plan_id":"cebpf4jnsgd1na2vs0mg"},{"bike_id":"a25b6a83-2d57-4dc8-94af-f08d4dbf848d","system_id":"levelo_inurba_marseille","lat":43.25932,"lon":5.40896,"is_reserved":false,"is_disabled":false,"rental_uris":{"android":"levelo://app?vid=a25b6a83-2d57-4dc8-94af-f08d4dbf848d","ios":"levelo://app?vid=a25b6a83-2d57-4dc8-94af-f08d4dbf848d"},"vehicle_type_id":"4","last_reported":1730117881,"current_range_meters":30000,"station_id":"ce4bhm92rcd13ifvqglg","pricing_plan_id":"cebpf4jnsgd1na2vs0mg"},{"bike_id":"9befed88-9f8c-464c-b07b-093bd97066bb","system_id":"levelo_inurba_marseille","lat":43.29805,"lon":5.37136,"is_reserved":false,"is_disabled":false,"rental_uris":{"android":"levelo://app?vid=9befed88-9f8c-464c-b07b-093bd97066bb","ios":"levelo://app?vid=9befed88-9f8c-464c-b07b-093bd97066bb"},"vehicle_type_id":"4","last_reported":1730117881,"current_range_meters":15200,"station_id":"","pricing_plan_id":"cebpf4jnsgd1na2vs0mg"},{"bike_id":"f37e3b02-a49c-4c4e-b112-f9c8c24edf90","system_id":"levelo_inurba_marseille","lat":43.23188,"lon":5.35554,"is_reserved":false,"is_disabled":false,"rental_uris":{"android":"levelo://app?vid=f37e3b02-a49c-4c4e-b112-f9c8c24edf90","ios":"levelo://app?vid=f37e3b02-a49c-4c4e-b112-f9c8c24edf90"},"vehicle_type_id":"4","last_reported":1730117881,"current_range_meters":9600,"station_id":"ce4bhu92rcd13ifvqi70","pricing_plan_id":"cebpf4jnsgd1na2vs0mg"},{"bike_id":"09a34d85-6117-4f89-b9ce-a87c0e98b1ae","system_id":"levelo_inurba_marseille","lat":43.2885,"lon":5.39309,"is_reserved":false,"is_disabled":false,"rental_uris":{"android":"levelo://app?vid=09a34d85-6117-4f89-b9ce-a87c0e98b1ae","ios":"levelo://app?vid=09a34d85-6117-4f89-b9ce-a87c0e98b1ae"},"vehicle_type_id":"4","last_reported":1730117881,"current_range_meters":22000,"station_id":"ce4bh2p2rcd13ifvqdi0","pricing_plan_id":"cebpf4jnsgd1na2vs0mg"},{"bike_id":"98ccba86-a02d-4bfd-9cb4-d849d3f9f575","system_id":"levelo_inurba_marseille","lat":43.25082,"lon":5.39515,"is_reserved":false,"is_disabled":false,"rental_uris":{"android":"levelo://app?vid=98ccba86-a02d-4bfd-9cb4-d849d3f9f575","ios":"levelo://app?vid=98ccba86-a02d-4bfd-9cb4-d849d3f9f575"},"vehicle_type_id":"4","last_reported":1730117881,"current_range_meters":38000,"station_id":"ce4bhm12rcd13ifvqgkg","pricing_plan_id":"cebpf4jnsgd1na2vs0mg"},{"bike_id":"feb0645e-7f53-48eb-b6d1-63e4d0d5a080","system_id":"levelo_inurba_marseille","lat":43.32048,"lon":5.41545,"is_reserved":false,"is_disabled":false,"rental_uris":{"android":"levelo://app?vid=feb0645e-7f53-48eb-b6d1-63e4d0d5a080","ios":"levelo://app?vid=feb0645e-7f53-48eb-b6d1-63e4d0d5a080"},"vehicle_type_id":"4","last_reported":1730117881,"current_range_meters":38800,"station_id":"ce4bhq92rcd13ifvqhkg","pricing_plan_id":"cebpf4jnsgd1na2vs0mg"},{"bike_id":"696e5472-be89-4637-a207-fb06c37b3229","system_id":"levelo_inurba_marseille","lat":43.28262,"lon":5.3507,"is_reserved":false,"is_disabled":false,"rental_uris":{"android":"levelo://app?vid=696e5472-be89-4637-a207-fb06c37b3229","ios":"levelo://app?vid=696e5472-be89-4637-a207-fb06c37b3229"},"vehicle_type_id":"4","last_reported":1730117881,"current_range_meters":22400,"station_id":"ce4bhbp2rcd13ifvqerg","pricing_plan_id":"cebpf4jnsgd1na2vs0mg"},{"bike_id":"45fd3cf8-8ef7-4153-9f92-719140053506","system_id":"levelo_inurba_marseille","lat":43.32292,"lon":5.38267,"is_reserved":false,"is_disabled":false,"rental_uris":{"android":"levelo://app?vid=45fd3cf8-8ef7-4153-9f92-719140053506","ios":"levelo://app?vid=45fd3cf8-8ef7-4153-9f92-719140053506"},"vehicle_type_id":"4","last_reported":1730117881,"current_range_meters":24400,"station_id":"ce4bhr12rcd13ifvqhqg","pricing_plan_id":"cebpf4jnsgd1na2vs0mg"},{"bike_id":"0fc35ec4-d69e-455a-854d-9256f0d5a7e6","system_id":"levelo_inurba_marseille","lat":43.24067,"lon":5.37758,"is_reserved":false,"is_disabled":false,"rental_uris":{"android":"levelo://app?vid=0fc35ec4-d69e-455a-854d-9256f0d5a7e6","ios":"levelo://app?vid=0fc35ec4-d69e-455a-854d-9256f0d5a7e6"},"vehicle_type_id":"4","last_reported":1730117881,"current_range_meters":23200,"station_id":"ce4bhnp2rcd13ifvqgvg","pricing_plan_id":"cebpf4jnsgd1na2vs0mg"},{"bike_id":"1d514d7d-1d50-42e5-8fde-77f6e41cc28b","system_id":"levelo_inurba_marseille","lat":43.30545,"lon":5.36559,"is_reserved":false,"is_disabled":false,"rental_uris":{"android":"levelo://app?vid=1d514d7d-1d50-42e5-8fde-77f6e41cc28b","ios":"levelo://app?vid=1d514d7d-1d50-42e5-8fde-77f6e41cc28b"},"vehicle_type_id":"4","last_reported":1730117881,"current_range_meters":27200,"station_id":"ce4bgs12rcd13ifvqcag","pricing_plan_id":"cebpf4jnsgd1na2vs0mg"},{"bike_id":"9f501856-31bd-489e-8c68-79174caf584a","system_id":"levelo_inurba_marseille","lat":43.27499,"lon":5.42457,"is_reserved":false,"is_disabled":false,"rental_uris":{"android":"levelo://app?vid=9f501856-31bd-489e-8c68-79174caf584a","ios":"levelo://app?vid=9f501856-31bd-489e-8c68-79174caf584a"},"vehicle_type_id":"4","last_reported":1730117881,"current_range_meters":37600,"station_id":"ce4bhn92rcd13ifvqgrg","pricing_plan_id":"cebpf4jnsgd1na2vs0mg"},{"bike_id":"bb8e7d17-0c92-493c-b404-117c89baf87d","system_id":"levelo_inurba_marseille","lat":43.30553,"lon":5.3653,"is_reserved":false,"is_disabled":false,"rental_uris":{"android":"levelo://app?vid=bb8e7d17-0c92-493c-b404-117c89baf87d","ios":"levelo://app?vid=bb8e7d17-0c92-493c-b404-117c89baf87d"},"vehicle_type_id":"4","last_reported":1730117881,"current_range_meters":28000,"station_id":"ce4bgs12rcd13ifvqcag","pricing_plan_id":"cebpf4jnsgd1na2vs0mg"},{"bike_id":"e39645c5-87ac-4e87-90ca-e4c6f3ff67ce","system_id":"levelo_inurba_marseille","lat":43.2993,"lon":5.36542,"is_reserved":false,"is_disabled":false,"rental_uris":{"android":"levelo://app?vid=e39645c5-87ac-4e87-90ca-e4c6f3ff67ce","ios":"levelo://app?vid=e39645c5-87ac-4e87-90ca-e4c6f3ff67ce"},"vehicle_type_id":"4","last_reported":1730117881,"current_range_meters":30400,"station_id":"ce4bgm92rcd13ifvqbr0","pricing_plan_id":"cebpf4jnsgd1na2vs0mg"},{"bike_id":"02b0d9ea-356a-4031-b8df-9e42eb2aee32","system_id":"levelo_inurba_marseille","lat":43.26206,"lon":5.3744,"is_reserved":false,"is_disabled":false,"rental_uris":{"android":"levelo://app?vid=02b0d9ea-356a-4031-b8df-9e42eb2aee32","ios":"levelo://app?vid=02b0d9ea-356a-4031-b8df-9e42eb2aee32"},"vehicle_type_id":"4","last_reported":1730117881,"current_range_meters":29600,"station_id":"ce4bhgp2rcd13ifvqfc0","pricing_plan_id":"cebpf4jnsgd1na2vs0mg"},{"bike_id":"32fccdc4-99de-4661-8b0d-2252307063d4","system_id":"levelo_inurba_marseille","lat":43.26679,"lon":5.38272,"is_reserved":false,"is_disabled":false,"rental_uris":{"android":"levelo://app?vid=32fccdc4-99de-4661-8b0d-2252307063d4","ios":"levelo://app?vid=32fccdc4-99de-4661-8b0d-2252307063d4"},"vehicle_type_id":"4","last_reported":1730117881,"current_range_meters":38000,"station_id":"ce4bhg92rcd13ifvqf90","pricing_plan_id":"cebpf4jnsgd1na2vs0mg"},{"bike_id":"def66fbe-9129-4b94-9aa6-f0a9941a832b","system_id":"levelo_inurba_marseille","lat":43.29171,"lon":5.36901,"is_reserved":false,"is_disabled":false,"rental_uris":{"android":"levelo://app?vid=def66fbe-9129-4b94-9aa6-f0a9941a832b","ios":"levelo://app?vid=def66fbe-9129-4b94-9aa6-f0a9941a832b"},"vehicle_type_id":"4","last_reported":1730117881,"current_range_meters":11600,"station_id":"","pricing_plan_id":"cebpf4jnsgd1na2vs0mg"},{"bike_id":"f3ceeb8f-42c4-458f-a4d0-0ac814d6e04b","system_id":"levelo_inurba_marseille","lat":43.29841,"lon":5.36268,"is_reserved":false,"is_disabled":false,"rental_uris":{"android":"levelo://app?vid=f3ceeb8f-42c4-458f-a4d0-0ac814d6e04b","ios":"levelo://app?vid=f3ceeb8f-42c4-458f-a4d0-0ac814d6e04b"},"vehicle_type_id":"4","last_reported":1730117881,"current_range_meters":17200,"station_id":"ce4bgpp2rcd13ifvqc3g","pricing_plan_id":"cebpf4jnsgd1na2vs0mg"},{"bike_id":"96f7627e-df29-4eca-b4de-102ae1467817","system_id":"levelo_inurba_marseille","lat":43.33755,"lon":5.37447,"is_reserved":false,"is_disabled":false,"rental_uris":{"android":"levelo://app?vid=96f7627e-df29-4eca-b4de-102ae1467817","ios":"levelo://app?vid=96f7627e-df29-4eca-b4de-102ae1467817"},"vehicle_type_id":"4","last_reported":1730117881,"current_range_meters":32800,"station_id":"","pricing_plan_id":"cebpf4jnsgd1na2vs0mg"},{"bike_id":"2f0c82e8-19d8-46ea-ad31-0a68dd7d090c","system_id":"levelo_inurba_marseille","lat":43.29229,"lon":5.36061,"is_reserved":false,"is_disabled":false,"rental_uris":{"android":"levelo://app?vid=2f0c82e8-19d8-46ea-ad31-0a68dd7d090c","ios":"levelo://app?vid=2f0c82e8-19d8-46ea-ad31-0a68dd7d090c"},"vehicle_type_id":"4","last_reported":1730117881,"current_range_meters":19600,"station_id":"ce4bhbh2rcd13ifvqeqg","pricing_plan_id":"cebpf4jnsgd1na2vs0mg"},{"bike_id":"e5630466-0af0-4d76-a58b-254eeaf8085b","system_id":"levelo_inurba_marseille","lat":43.29582,"lon":5.36733,"is_reserved":false,"is_disabled":false,"rental_uris":{"android":"levelo://app?vid=e5630466-0af0-4d76-a58b-254eeaf8085b","ios":"levelo://app?vid=e5630466-0af0-4d76-a58b-254eeaf8085b"},"vehicle_type_id":"4","last_reported":1730117881,"current_range_meters":38800,"station_id":"ce4bgph2rcd13ifvqc2g","pricing_plan_id":"cebpf4jnsgd1na2vs0mg"},{"bike_id":"ea7c1c50-8b65-4a2b-b727-99e69c318cee","system_id":"levelo_inurba_marseille","lat":43.30134,"lon":5.3986,"is_reserved":false,"is_disabled":false,"rental_uris":{"android":"levelo://app?vid=ea7c1c50-8b65-4a2b-b727-99e69c318cee","ios":"levelo://app?vid=ea7c1c50-8b65-4a2b-b727-99e69c318cee"},"vehicle_type_id":"4","last_reported":1730117881,"current_range_meters":36400,"station_id":"ce4bh0h2rcd13ifvqd40","pricing_plan_id":"cebpf4jnsgd1na2vs0mg"},{"bike_id":"a08296db-b3f4-4d7c-b368-674ac3a21b1e","system_id":"levelo_inurba_marseille","lat":43.23058,"lon":5.35493,"is_reserved":false,"is_disabled":false,"rental_uris":{"android":"levelo://app?vid=a08296db-b3f4-4d7c-b368-674ac3a21b1e","ios":"levelo://app?vid=a08296db-b3f4-4d7c-b368-674ac3a21b1e"},"vehicle_type_id":"4","last_reported":1730117881,"current_range_meters":36800,"station_id":"cpo3342slgdg3j2ifvpg","pricing_plan_id":"cebpf4jnsgd1na2vs0mg"},{"bike_id":"973f754c-ca27-4080-b2bd-0b5a4f1a0d62","system_id":"levelo_inurba_marseille","lat":43.33743,"lon":5.37456,"is_reserved":false,"is_disabled":false,"rental_uris":{"android":"levelo://app?vid=973f754c-ca27-4080-b2bd-0b5a4f1a0d62","ios":"levelo://app?vid=973f754c-ca27-4080-b2bd-0b5a4f1a0d62"},"vehicle_type_id":"4","last_reported":1730117881,"current_range_meters":38000,"station_id":"","pricing_plan_id":"cebpf4jnsgd1na2vs0mg"},{"bike_id":"e8b1d499-1fb8-48d9-9f2a-60b4b9923777","system_id":"levelo_inurba_marseille","lat":43.30538,"lon":5.36694,"is_reserved":false,"is_disabled":false,"rental_uris":{"android":"levelo://app?vid=e8b1d499-1fb8-48d9-9f2a-60b4b9923777","ios":"levelo://app?vid=e8b1d499-1fb8-48d9-9f2a-60b4b9923777"},"vehicle_type_id":"4","last_reported":1730117881,"current_range_meters":39200,"station_id":"ce4bgrp2rcd13ifvqc9g","pricing_plan_id":"cebpf4jnsgd1na2vs0mg"},{"bike_id":"d57263a5-4b65-46d2-b092-6772a0841114","system_id":"levelo_inurba_marseille","lat":43.25722,"lon":5.411,"is_reserved":false,"is_disabled":false,"rental_uris":{"android":"levelo://app?vid=d57263a5-4b65-46d2-b092-6772a0841114","ios":"levelo://app?vid=d57263a5-4b65-46d2-b092-6772a0841114"},"vehicle_type_id":"4","last_reported":1730117881,"current_range_meters":4400,"station_id":"ce4bhkp2rcd13ifvqgd0","pricing_plan_id":"cebpf4jnsgd1na2vs0mg"},{"bike_id":"0e01ac24-2784-4039-a876-30b14394ea65","system_id":"levelo_inurba_marseille","lat":43.28261,"lon":5.35057,"is_reserved":false,"is_disabled":false,"rental_uris":{"android":"levelo://app?vid=0e01ac24-2784-4039-a876-30b14394ea65","ios":"levelo://app?vid=0e01ac24-2784-4039-a876-30b14394ea65"},"vehicle_type_id":"4","last_reported":1730117881,"current_range_meters":12800,"station_id":"ce4bhbp2rcd13ifvqerg","pricing_plan_id":"cebpf4jnsgd1na2vs0mg"},{"bike_id":"dc2123ce-9f02-4479-8f3e-e22ac1321d52","system_id":"levelo_inurba_marseille","lat":43.26211,"lon":5.37439,"is_reserved":false,"is_disabled":false,"rental_uris":{"android":"levelo://app?vid=dc2123ce-9f02-4479-8f3e-e22ac1321d52","ios":"levelo://app?vid=dc2123ce-9f02-4479-8f3e-e22ac1321d52"},"vehicle_type_id":"4","last_reported":1730117881,"current_range_meters":33200,"station_id":"ce4bhgp2rcd13ifvqfc0","pricing_plan_id":"cebpf4jnsgd1na2vs0mg"},{"bike_id":"485c0ca2-2ddc-4f58-9ca3-4f8b7c939ba9","system_id":"levelo_inurba_marseille","lat":43.24385,"lon":5.37059,"is_reserved":false,"is_disabled":false,"rental_uris":{"android":"levelo://app?vid=485c0ca2-2ddc-4f58-9ca3-4f8b7c939ba9","ios":"levelo://app?vid=485c0ca2-2ddc-4f58-9ca3-4f8b7c939ba9"},"vehicle_type_id":"4","last_reported":1730117881,"current_range_meters":25600,"station_id":"ce4bhhh2rcd13ifvqfk0","pricing_plan_id":"cebpf4jnsgd1na2vs0mg"},{"bike_id":"88e952d6-f8c2-479f-9c0b-024d5ffb801c","system_id":"levelo_inurba_marseille","lat":43.28149,"lon":5.42636,"is_reserved":false,"is_disabled":false,"rental_uris":{"android":"levelo://app?vid=88e952d6-f8c2-479f-9c0b-024d5ffb801c","ios":"levelo://app?vid=88e952d6-f8c2-479f-9c0b-024d5ffb801c"},"vehicle_type_id":"4","last_reported":1730117881,"current_range_meters":24800,"station_id":"ce4bhnh2rcd13ifvqgug","pricing_plan_id":"cebpf4jnsgd1na2vs0mg"},{"bike_id":"55a34d0b-49c6-455e-a524-0076015a4753","system_id":"levelo_inurba_marseille","lat":43.26554,"lon":5.39005,"is_reserved":false,"is_disabled":false,"rental_uris":{"android":"levelo://app?vid=55a34d0b-49c6-455e-a524-0076015a4753","ios":"levelo://app?vid=55a34d0b-49c6-455e-a524-0076015a4753"},"vehicle_type_id":"4","last_reported":1730117881,"current_range_meters":32800,"station_id":"ce4bhe12rcd13ifvqf30","pricing_plan_id":"cebpf4jnsgd1na2vs0mg"},{"bike_id":"2a6848c1-d22b-44f2-a324-89f4967e1c2c","system_id":"levelo_inurba_marseille","lat":43.30133,"lon":5.37415,"is_reserved":false,"is_disabled":false,"rental_uris":{"android":"levelo://app?vid=2a6848c1-d22b-44f2-a324-89f4967e1c2c","ios":"levelo://app?vid=2a6848c1-d22b-44f2-a324-89f4967e1c2c"},"vehicle_type_id":"4","last_reported":1730117881,"current_range_meters":27600,"station_id":"ce4bgs92rcd13ifvqcc0","pricing_plan_id":"cebpf4jnsgd1na2vs0mg"},{"bike_id":"3da2b441-84ba-4dd2-867a-0bc4320d98b3","system_id":"levelo_inurba_marseille","lat":43.32294,"lon":5.38276,"is_reserved":false,"is_disabled":false,"rental_uris":{"android":"levelo://app?vid=3da2b441-84ba-4dd2-867a-0bc4320d98b3","ios":"levelo://app?vid=3da2b441-84ba-4dd2-867a-0bc4320d98b3"},"vehicle_type_id":"4","last_reported":1730117881,"current_range_meters":39200,"station_id":"ce4bhr12rcd13ifvqhqg","pricing_plan_id":"cebpf4jnsgd1na2vs0mg"},{"bike_id":"ac561582-77ed-4254-8e25-b0160febc4db","system_id":"levelo_inurba_marseille","lat":43.27375,"lon":5.3626,"is_reserved":false,"is_disabled":false,"rental_uris":{"android":"levelo://app?vid=ac561582-77ed-4254-8e25-b0160febc4db","ios":"levelo://app?vid=ac561582-77ed-4254-8e25-b0160febc4db"},"vehicle_type_id":"4","last_reported":1730117881,"current_range_meters":37600,"station_id":"ce4bhbh2rcd13ifvqeo0","pricing_plan_id":"cebpf4jnsgd1na2vs0mg"},{"bike_id":"d42cd8f1-be9f-4587-96dc-fd9d11f4d1a0","system_id":"levelo_inurba_marseille","lat":43.2511,"lon":5.40313,"is_reserved":false,"is_disabled":false,"rental_uris":{"android":"levelo://app?vid=d42cd8f1-be9f-4587-96dc-fd9d11f4d1a0","ios":"levelo://app?vid=d42cd8f1-be9f-4587-96dc-fd9d11f4d1a0"},"vehicle_type_id":"4","last_reported":1730117881,"current_range_meters":21600,"station_id":"ce4bhlh2rcd13ifvqgig","pricing_plan_id":"cebpf4jnsgd1na2vs0mg"},{"bike_id":"2e10531e-9386-411b-ab90-247ac4a58043","system_id":"levelo_inurba_marseille","lat":43.23961,"lon":5.36636,"is_reserved":false,"is_disabled":false,"rental_uris":{"android":"levelo://app?vid=2e10531e-9386-411b-ab90-247ac4a58043","ios":"levelo://app?vid=2e10531e-9386-411b-ab90-247ac4a58043"},"vehicle_type_id":"4","last_reported":1730117881,"current_range_meters":39200,"station_id":"ce4bhi12rcd13ifvqfp0","pricing_plan_id":"cebpf4jnsgd1na2vs0mg"},{"bike_id":"2b4bfc9a-6cf9-4fc2-9d32-3a543571383c","system_id":"levelo_inurba_marseille","lat":43.29575,"lon":5.36744,"is_reserved":false,"is_disabled":false,"rental_uris":{"android":"levelo://app?vid=2b4bfc9a-6cf9-4fc2-9d32-3a543571383c","ios":"levelo://app?vid=2b4bfc9a-6cf9-4fc2-9d32-3a543571383c"},"vehicle_type_id":"4","last_reported":1730117881,"current_range_meters":24000,"station_id":"ce4bgph2rcd13ifvqc2g","pricing_plan_id":"cebpf4jnsgd1na2vs0mg"},{"bike_id":"6ffc72a5-95ed-4b97-8d3d-ffec63c4e48b","system_id":"levelo_inurba_marseille","lat":43.24808,"lon":5.37452,"is_reserved":false,"is_disabled":false,"rental_uris":{"android":"levelo://app?vid=6ffc72a5-95ed-4b97-8d3d-ffec63c4e48b","ios":"levelo://app?vid=6ffc72a5-95ed-4b97-8d3d-ffec63c4e48b"},"vehicle_type_id":"4","last_reported":1730117881,"current_range_meters":28000,"station_id":"ce4bhgh2rcd13ifvqfb0","pricing_plan_id":"cebpf4jnsgd1na2vs0mg"},{"bike_id":"182b6bcf-4cb0-4a0a-b043-3cb94628b8a5","system_id":"levelo_inurba_marseille","lat":43.28154,"lon":5.42641,"is_reserved":false,"is_disabled":false,"rental_uris":{"android":"levelo://app?vid=182b6bcf-4cb0-4a0a-b043-3cb94628b8a5","ios":"levelo://app?vid=182b6bcf-4cb0-4a0a-b043-3cb94628b8a5"},"vehicle_type_id":"4","last_reported":1730117881,"current_range_meters":25600,"station_id":"ce4bhnh2rcd13ifvqgug","pricing_plan_id":"cebpf4jnsgd1na2vs0mg"},{"bike_id":"46b8b804-1c15-4d62-ba52-cfb64553c788","system_id":"levelo_inurba_marseille","lat":43.23152,"lon":5.43751,"is_reserved":false,"is_disabled":false,"rental_uris":{"android":"levelo://app?vid=46b8b804-1c15-4d62-ba52-cfb64553c788","ios":"levelo://app?vid=46b8b804-1c15-4d62-ba52-cfb64553c788"},"vehicle_type_id":"4","last_reported":1730117881,"current_range_meters":16000,"station_id":"ce4bhmp2rcd13ifvqgog","pricing_plan_id":"cebpf4jnsgd1na2vs0mg"},{"bike_id":"9403ad19-9050-4623-81ae-08b1b66bb37c","system_id":"levelo_inurba_marseille","lat":43.23186,"lon":5.39976,"is_reserved":false,"is_disabled":false,"rental_uris":{"android":"levelo://app?vid=9403ad19-9050-4623-81ae-08b1b66bb37c","ios":"levelo://app?vid=9403ad19-9050-4623-81ae-08b1b66bb37c"},"vehicle_type_id":"4","last_reported":1730117881,"current_range_meters":36800,"station_id":"ce4bhn12rcd13ifvqgqg","pricing_plan_id":"cebpf4jnsgd1na2vs0mg"},{"bike_id":"a2ea2797-ae2a-4d35-8b0b-0c47931da0c1","system_id":"levelo_inurba_marseille","lat":43.26502,"lon":5.3954,"is_reserved":false,"is_disabled":false,"rental_uris":{"android":"levelo://app?vid=a2ea2797-ae2a-4d35-8b0b-0c47931da0c1","ios":"levelo://app?vid=a2ea2797-ae2a-4d35-8b0b-0c47931da0c1"},"vehicle_type_id":"4","last_reported":1730117881,"current_range_meters":33600,"station_id":"ce4bhi12rcd13ifvqfq0","pricing_plan_id":"cebpf4jnsgd1na2vs0mg"},{"bike_id":"aefdff7a-66d7-4bf5-a165-74b73d6ea2d6","system_id":"levelo_inurba_marseille","lat":43.302648,"lon":5.400855,"is_reserved":false,"is_disabled":false,"rental_uris":{"android":"levelo://app?vid=aefdff7a-66d7-4bf5-a165-74b73d6ea2d6","ios":"levelo://app?vid=aefdff7a-66d7-4bf5-a165-74b73d6ea2d6"},"vehicle_type_id":"4","last_reported":1730117881,"current_range_meters":39200,"station_id":"ce4bgvh2rcd13ifvqcs0","pricing_plan_id":"cebpf4jnsgd1na2vs0mg"},{"bike_id":"df4b6202-3676-4e03-ba2e-792a34189c5a","system_id":"levelo_inurba_marseille","lat":43.28262,"lon":5.35055,"is_reserved":false,"is_disabled":false,"rental_uris":{"android":"levelo://app?vid=df4b6202-3676-4e03-ba2e-792a34189c5a","ios":"levelo://app?vid=df4b6202-3676-4e03-ba2e-792a34189c5a"},"vehicle_type_id":"4","last_reported":1730117881,"current_range_meters":32800,"station_id":"ce4bhbp2rcd13ifvqerg","pricing_plan_id":"cebpf4jnsgd1na2vs0mg"},{"bike_id":"a764cfb4-3e3d-4080-9b40-c76c6f394b50","system_id":"levelo_inurba_marseille","lat":43.29553,"lon":5.42277,"is_reserved":false,"is_disabled":false,"rental_uris":{"android":"levelo://app?vid=a764cfb4-3e3d-4080-9b40-c76c6f394b50","ios":"levelo://app?vid=a764cfb4-3e3d-4080-9b40-c76c6f394b50"},"vehicle_type_id":"4","last_reported":1730117881,"current_range_meters":38800,"station_id":"ce4bhph2rcd13ifvqhdg","pricing_plan_id":"cebpf4jnsgd1na2vs0mg"},{"bike_id":"9765da81-e5b2-4b38-aac7-8a13dcd95345","system_id":"levelo_inurba_marseille","lat":43.27432,"lon":5.39412,"is_reserved":false,"is_disabled":false,"rental_uris":{"android":"levelo://app?vid=9765da81-e5b2-4b38-aac7-8a13dcd95345","ios":"levelo://app?vid=9765da81-e5b2-4b38-aac7-8a13dcd95345"},"vehicle_type_id":"4","last_reported":1730117881,"current_range_meters":20800,"station_id":"ce4bhdp2rcd13ifvqf20","pricing_plan_id":"cebpf4jnsgd1na2vs0mg"},{"bike_id":"cd68f1dc-3134-4c22-9fa5-8490da02f071","system_id":"levelo_inurba_marseille","lat":43.23151,"lon":5.43717,"is_reserved":false,"is_disabled":false,"rental_uris":{"android":"levelo://app?vid=cd68f1dc-3134-4c22-9fa5-8490da02f071","ios":"levelo://app?vid=cd68f1dc-3134-4c22-9fa5-8490da02f071"},"vehicle_type_id":"4","last_reported":1730117881,"current_range_meters":10000,"station_id":"ce4bhmp2rcd13ifvqgog","pricing_plan_id":"cebpf4jnsgd1na2vs0mg"},{"bike_id":"59c7fa64-e71e-4850-85b0-84a8ba6e2161","system_id":"levelo_inurba_marseille","lat":43.28616,"lon":5.35099,"is_reserved":false,"is_disabled":false,"rental_uris":{"android":"levelo://app?vid=59c7fa64-e71e-4850-85b0-84a8ba6e2161","ios":"levelo://app?vid=59c7fa64-e71e-4850-85b0-84a8ba6e2161"},"vehicle_type_id":"4","last_reported":1730117881,"current_range_meters":36000,"station_id":"ce4bhch2rcd13ifvqeug","pricing_plan_id":"cebpf4jnsgd1na2vs0mg"},{"bike_id":"83951415-bd72-4fd4-82c4-ca875a9c879e","system_id":"levelo_inurba_marseille","lat":43.30537,"lon":5.36523,"is_reserved":false,"is_disabled":false,"rental_uris":{"android":"levelo://app?vid=83951415-bd72-4fd4-82c4-ca875a9c879e","ios":"levelo://app?vid=83951415-bd72-4fd4-82c4-ca875a9c879e"},"vehicle_type_id":"4","last_reported":1730117881,"current_range_meters":36400,"station_id":"ce4bgs12rcd13ifvqcag","pricing_plan_id":"cebpf4jnsgd1na2vs0mg"},{"bike_id":"c9905e8d-af86-448a-a01c-a1a93cba75c5","system_id":"levelo_inurba_marseille","lat":43.30138,"lon":5.38079,"is_reserved":false,"is_disabled":false,"rental_uris":{"android":"levelo://app?vid=c9905e8d-af86-448a-a01c-a1a93cba75c5","ios":"levelo://app?vid=c9905e8d-af86-448a-a01c-a1a93cba75c5"},"vehicle_type_id":"4","last_reported":1730117881,"current_range_meters":36400,"station_id":"ce4bgjp2rcd13ifvqbh0","pricing_plan_id":"cebpf4jnsgd1na2vs0mg"},{"bike_id":"331eb8c7-c184-477a-b11a-e59895dac383","system_id":"levelo_inurba_marseille","lat":43.29002,"lon":5.35611,"is_reserved":false,"is_disabled":false,"rental_uris":{"android":"levelo://app?vid=331eb8c7-c184-477a-b11a-e59895dac383","ios":"levelo://app?vid=331eb8c7-c184-477a-b11a-e59895dac383"},"vehicle_type_id":"4","last_reported":1730117881,"current_range_meters":5600,"station_id":"ce4bhb92rcd13ifvqen0","pricing_plan_id":"cebpf4jnsgd1na2vs0mg"},{"bike_id":"a8b23155-2836-4790-800f-c3a0a114d0d3","system_id":"levelo_inurba_marseille","lat":43.229279,"lon":5.353741,"is_reserved":false,"is_disabled":false,"rental_uris":{"android":"levelo://app?vid=a8b23155-2836-4790-800f-c3a0a114d0d3","ios":"levelo://app?vid=a8b23155-2836-4790-800f-c3a0a114d0d3"},"vehicle_type_id":"4","last_reported":1730117881,"current_range_meters":36800,"station_id":"cpo3532slgdg3j2ikp40","pricing_plan_id":"cebpf4jnsgd1na2vs0mg"},{"bike_id":"4cd62867-fcb2-4724-b8c6-ec9bc5fd6603","system_id":"levelo_inurba_marseille","lat":43.23192,"lon":5.35547,"is_reserved":false,"is_disabled":false,"rental_uris":{"android":"levelo://app?vid=4cd62867-fcb2-4724-b8c6-ec9bc5fd6603","ios":"levelo://app?vid=4cd62867-fcb2-4724-b8c6-ec9bc5fd6603"},"vehicle_type_id":"4","last_reported":1730117881,"current_range_meters":30000,"station_id":"ce4bhu92rcd13ifvqi70","pricing_plan_id":"cebpf4jnsgd1na2vs0mg"},{"bike_id":"df7dc6f4-3090-4431-9197-bf20ffff4ae5","system_id":"levelo_inurba_marseille","lat":43.257116,"lon":5.410976,"is_reserved":false,"is_disabled":false,"rental_uris":{"android":"levelo://app?vid=df7dc6f4-3090-4431-9197-bf20ffff4ae5","ios":"levelo://app?vid=df7dc6f4-3090-4431-9197-bf20ffff4ae5"},"vehicle_type_id":"4","last_reported":1730117881,"current_range_meters":33200,"station_id":"ce4bhkp2rcd13ifvqgd0","pricing_plan_id":"cebpf4jnsgd1na2vs0mg"},{"bike_id":"685f6244-dc30-4a60-8968-17091508ae93","system_id":"levelo_inurba_marseille","lat":43.27807,"lon":5.4071,"is_reserved":false,"is_disabled":false,"rental_uris":{"android":"levelo://app?vid=685f6244-dc30-4a60-8968-17091508ae93","ios":"levelo://app?vid=685f6244-dc30-4a60-8968-17091508ae93"},"vehicle_type_id":"4","last_reported":1730117881,"current_range_meters":14000,"station_id":"ce4bhnh2rcd13ifvqgtg","pricing_plan_id":"cebpf4jnsgd1na2vs0mg"},{"bike_id":"5d820ce0-2d55-46e5-b74d-cc75a18e2e27","system_id":"levelo_inurba_marseille","lat":43.26994,"lon":5.3925,"is_reserved":false,"is_disabled":false,"rental_uris":{"android":"levelo://app?vid=5d820ce0-2d55-46e5-b74d-cc75a18e2e27","ios":"levelo://app?vid=5d820ce0-2d55-46e5-b74d-cc75a18e2e27"},"vehicle_type_id":"4","last_reported":1730117881,"current_range_meters":32000,"station_id":"ce4bgh92rcd13ifvqb40","pricing_plan_id":"cebpf4jnsgd1na2vs0mg"},{"bike_id":"40b039ad-0769-4a0e-8ad8-e16a05aa5fd5","system_id":"levelo_inurba_marseille","lat":43.27942,"lon":5.41055,"is_reserved":false,"is_disabled":false,"rental_uris":{"android":"levelo://app?vid=40b039ad-0769-4a0e-8ad8-e16a05aa5fd5","ios":"levelo://app?vid=40b039ad-0769-4a0e-8ad8-e16a05aa5fd5"},"vehicle_type_id":"4","last_reported":1730117881,"current_range_meters":36800,"station_id":"ce4bhnp2rcd13ifvqh0g","pricing_plan_id":"cebpf4jnsgd1na2vs0mg"},{"bike_id":"55433e48-d44e-4b78-92c7-ee7cf1d8fd02","system_id":"levelo_inurba_marseille","lat":43.30886,"lon":5.37186,"is_reserved":false,"is_disabled":false,"rental_uris":{"android":"levelo://app?vid=55433e48-d44e-4b78-92c7-ee7cf1d8fd02","ios":"levelo://app?vid=55433e48-d44e-4b78-92c7-ee7cf1d8fd02"},"vehicle_type_id":"4","last_reported":1730117881,"current_range_meters":18800,"station_id":"ce4bguh2rcd13ifvqckg","pricing_plan_id":"cebpf4jnsgd1na2vs0mg"},{"bike_id":"e3f47b80-4d77-4b5e-837f-43a3c11bfd44","system_id":"levelo_inurba_marseille","lat":43.31217,"lon":5.36844,"is_reserved":false,"is_disabled":false,"rental_uris":{"android":"levelo://app?vid=e3f47b80-4d77-4b5e-837f-43a3c11bfd44","ios":"levelo://app?vid=e3f47b80-4d77-4b5e-837f-43a3c11bfd44"},"vehicle_type_id":"4","last_reported":1730117881,"current_range_meters":38800,"station_id":"ce4bgl92rcd13ifvqbq0","pricing_plan_id":"cebpf4jnsgd1na2vs0mg"},{"bike_id":"df18a4d4-051a-4a60-ad8e-e275c817d3a2","system_id":"levelo_inurba_marseille","lat":43.30531,"lon":5.36526,"is_reserved":false,"is_disabled":false,"rental_uris":{"android":"levelo://app?vid=df18a4d4-051a-4a60-ad8e-e275c817d3a2","ios":"levelo://app?vid=df18a4d4-051a-4a60-ad8e-e275c817d3a2"},"vehicle_type_id":"4","last_reported":1730117881,"current_range_meters":34000,"station_id":"ce4bgs12rcd13ifvqcag","pricing_plan_id":"cebpf4jnsgd1na2vs0mg"},{"bike_id":"b4580a69-cb44-40d7-8a91-f44b99b7d404","system_id":"levelo_inurba_marseille","lat":43.26218,"lon":5.37437,"is_reserved":false,"is_disabled":false,"rental_uris":{"android":"levelo://app?vid=b4580a69-cb44-40d7-8a91-f44b99b7d404","ios":"levelo://app?vid=b4580a69-cb44-40d7-8a91-f44b99b7d404"},"vehicle_type_id":"4","last_reported":1730117881,"current_range_meters":36800,"station_id":"ce4bhgp2rcd13ifvqfc0","pricing_plan_id":"cebpf4jnsgd1na2vs0mg"},{"bike_id":"7cc4f271-f154-424b-b28f-d26c711f8f66","system_id":"levelo_inurba_marseille","lat":43.29709,"lon":5.36602,"is_reserved":false,"is_disabled":false,"rental_uris":{"android":"levelo://app?vid=7cc4f271-f154-424b-b28f-d26c711f8f66","ios":"levelo://app?vid=7cc4f271-f154-424b-b28f-d26c711f8f66"},"vehicle_type_id":"4","last_reported":1730117881,"current_range_meters":18000,"station_id":"ce4bgn12rcd13ifvqbt0","pricing_plan_id":"cebpf4jnsgd1na2vs0mg"},{"bike_id":"adadb5c5-f7d3-4b8a-81d5-3df3051cde40","system_id":"levelo_inurba_marseille","lat":43.30953,"lon":5.39045,"is_reserved":false,"is_disabled":false,"rental_uris":{"android":"levelo://app?vid=adadb5c5-f7d3-4b8a-81d5-3df3051cde40","ios":"levelo://app?vid=adadb5c5-f7d3-4b8a-81d5-3df3051cde40"},"vehicle_type_id":"4","last_reported":1730117881,"current_range_meters":33600,"station_id":"ce4bgup2rcd13ifvqco0","pricing_plan_id":"cebpf4jnsgd1na2vs0mg"},{"bike_id":"569b6460-275b-415b-ae0b-ebb06638b848","system_id":"levelo_inurba_marseille","lat":43.29575,"lon":5.37512,"is_reserved":false,"is_disabled":false,"rental_uris":{"android":"levelo://app?vid=569b6460-275b-415b-ae0b-ebb06638b848","ios":"levelo://app?vid=569b6460-275b-415b-ae0b-ebb06638b848"},"vehicle_type_id":"4","last_reported":1730117881,"current_range_meters":27600,"station_id":"ce4bgh92rcd13ifvqb50","pricing_plan_id":"cebpf4jnsgd1na2vs0mg"},{"bike_id":"5e8add12-0a2f-4ee0-a948-b3005ed38fe3","system_id":"levelo_inurba_marseille","lat":43.324821,"lon":5.365602,"is_reserved":false,"is_disabled":false,"rental_uris":{"android":"levelo://app?vid=5e8add12-0a2f-4ee0-a948-b3005ed38fe3","ios":"levelo://app?vid=5e8add12-0a2f-4ee0-a948-b3005ed38fe3"},"vehicle_type_id":"4","last_reported":1730117881,"current_range_meters":38800,"station_id":"ce4bhs12rcd13ifvqhvg","pricing_plan_id":"cebpf4jnsgd1na2vs0mg"},{"bike_id":"03f1c2cf-3283-4d4a-8af5-87f7e216c788","system_id":"levelo_inurba_marseille","lat":43.32338,"lon":5.40622,"is_reserved":false,"is_disabled":false,"rental_uris":{"android":"levelo://app?vid=03f1c2cf-3283-4d4a-8af5-87f7e216c788","ios":"levelo://app?vid=03f1c2cf-3283-4d4a-8af5-87f7e216c788"},"vehicle_type_id":"4","last_reported":1730117881,"current_range_meters":22000,"station_id":"ce4bhq92rcd13ifvqhjg","pricing_plan_id":"cebpf4jnsgd1na2vs0mg"},{"bike_id":"c34ba213-5b7b-49a2-8ff5-f4c97988f2b8","system_id":"levelo_inurba_marseille","lat":43.2893,"lon":5.384,"is_reserved":false,"is_disabled":false,"rental_uris":{"android":"levelo://app?vid=c34ba213-5b7b-49a2-8ff5-f4c97988f2b8","ios":"levelo://app?vid=c34ba213-5b7b-49a2-8ff5-f4c97988f2b8"},"vehicle_type_id":"4","last_reported":1730117881,"current_range_meters":30000,"station_id":"ce4bh612rcd13ifvqe6g","pricing_plan_id":"cebpf4jnsgd1na2vs0mg"},{"bike_id":"58c29938-9a66-4cb0-80d8-96474a8212ec","system_id":"levelo_inurba_marseille","lat":43.23145,"lon":5.43715,"is_reserved":false,"is_disabled":false,"rental_uris":{"android":"levelo://app?vid=58c29938-9a66-4cb0-80d8-96474a8212ec","ios":"levelo://app?vid=58c29938-9a66-4cb0-80d8-96474a8212ec"},"vehicle_type_id":"4","last_reported":1730117881,"current_range_meters":22400,"station_id":"ce4bhmp2rcd13ifvqgog","pricing_plan_id":"cebpf4jnsgd1na2vs0mg"},{"bike_id":"4ef20da9-2cc7-422a-92f0-787ae5a784ab","system_id":"levelo_inurba_marseille","lat":43.25582,"lon":5.38231,"is_reserved":false,"is_disabled":false,"rental_uris":{"android":"levelo://app?vid=4ef20da9-2cc7-422a-92f0-787ae5a784ab","ios":"levelo://app?vid=4ef20da9-2cc7-422a-92f0-787ae5a784ab"},"vehicle_type_id":"4","last_reported":1730117881,"current_range_meters":18800,"station_id":"ce4bhih2rcd13ifvqfs0","pricing_plan_id":"cebpf4jnsgd1na2vs0mg"},{"bike_id":"0141f0d1-65a5-4e92-9e2d-fbb84ffeab51","system_id":"levelo_inurba_marseille","lat":43.29174,"lon":5.37142,"is_reserved":false,"is_disabled":false,"rental_uris":{"android":"levelo://app?vid=0141f0d1-65a5-4e92-9e2d-fbb84ffeab51","ios":"levelo://app?vid=0141f0d1-65a5-4e92-9e2d-fbb84ffeab51"},"vehicle_type_id":"4","last_reported":1730117881,"current_range_meters":11200,"station_id":"ce4bha92rcd13ifvqeh0","pricing_plan_id":"cebpf4jnsgd1na2vs0mg"},{"bike_id":"86e4f3bf-364f-4a4b-a90a-4779569d04df","system_id":"levelo_inurba_marseille","lat":43.29276,"lon":5.36841,"is_reserved":false,"is_disabled":false,"rental_uris":{"android":"levelo://app?vid=86e4f3bf-364f-4a4b-a90a-4779569d04df","ios":"levelo://app?vid=86e4f3bf-364f-4a4b-a90a-4779569d04df"},"vehicle_type_id":"4","last_reported":1730117881,"current_range_meters":36000,"station_id":"ce4bhbp2rcd13ifvqesg","pricing_plan_id":"cebpf4jnsgd1na2vs0mg"},{"bike_id":"a792347a-d158-4403-9c48-1b4e0c6fc790","system_id":"levelo_inurba_marseille","lat":43.27072,"lon":5.42275,"is_reserved":false,"is_disabled":false,"rental_uris":{"android":"levelo://app?vid=a792347a-d158-4403-9c48-1b4e0c6fc790","ios":"levelo://app?vid=a792347a-d158-4403-9c48-1b4e0c6fc790"},"vehicle_type_id":"4","last_reported":1730117881,"current_range_meters":39200,"station_id":"ce4bhk92rcd13ifvqgb0","pricing_plan_id":"cebpf4jnsgd1na2vs0mg"},{"bike_id":"dd424056-4138-42ed-91c1-45a10c18dbc5","system_id":"levelo_inurba_marseille","lat":43.29792,"lon":5.38118,"is_reserved":false,"is_disabled":false,"rental_uris":{"android":"levelo://app?vid=dd424056-4138-42ed-91c1-45a10c18dbc5","ios":"levelo://app?vid=dd424056-4138-42ed-91c1-45a10c18dbc5"},"vehicle_type_id":"4","last_reported":1730117881,"current_range_meters":31200,"station_id":"ce4bgip2rcd13ifvqbb0","pricing_plan_id":"cebpf4jnsgd1na2vs0mg"},{"bike_id":"050c0c20-964b-484a-929f-60394f3b7e2a","system_id":"levelo_inurba_marseille","lat":43.28418,"lon":5.34973,"is_reserved":false,"is_disabled":false,"rental_uris":{"android":"levelo://app?vid=050c0c20-964b-484a-929f-60394f3b7e2a","ios":"levelo://app?vid=050c0c20-964b-484a-929f-60394f3b7e2a"},"vehicle_type_id":"4","last_reported":1730117881,"current_range_meters":24000,"station_id":"ce4bhbh2rcd13ifvqepg","pricing_plan_id":"cebpf4jnsgd1na2vs0mg"},{"bike_id":"676c1e6b-8b0b-4e87-ab39-73b0ea34db80","system_id":"levelo_inurba_marseille","lat":43.30542,"lon":5.367012,"is_reserved":false,"is_disabled":false,"rental_uris":{"android":"levelo://app?vid=676c1e6b-8b0b-4e87-ab39-73b0ea34db80","ios":"levelo://app?vid=676c1e6b-8b0b-4e87-ab39-73b0ea34db80"},"vehicle_type_id":"4","last_reported":1730117881,"current_range_meters":30000,"station_id":"ce4bgn92rcd13ifvqbvg","pricing_plan_id":"cebpf4jnsgd1na2vs0mg"},{"bike_id":"74efa595-38a8-46e9-bc36-2ab66a07dbfd","system_id":"levelo_inurba_marseille","lat":43.2847,"lon":5.38542,"is_reserved":false,"is_disabled":false,"rental_uris":{"android":"levelo://app?vid=74efa595-38a8-46e9-bc36-2ab66a07dbfd","ios":"levelo://app?vid=74efa595-38a8-46e9-bc36-2ab66a07dbfd"},"vehicle_type_id":"4","last_reported":1730117881,"current_range_meters":22800,"station_id":"ce4bh8p2rcd13ifvqeb0","pricing_plan_id":"cebpf4jnsgd1na2vs0mg"},{"bike_id":"b497d91c-1f87-4508-b462-50136e06ba9f","system_id":"levelo_inurba_marseille","lat":43.24179,"lon":5.39733,"is_reserved":false,"is_disabled":false,"rental_uris":{"android":"levelo://app?vid=b497d91c-1f87-4508-b462-50136e06ba9f","ios":"levelo://app?vid=b497d91c-1f87-4508-b462-50136e06ba9f"},"vehicle_type_id":"4","last_reported":1730117881,"current_range_meters":32000,"station_id":"ce4bhn12rcd13ifvqgpg","pricing_plan_id":"cebpf4jnsgd1na2vs0mg"},{"bike_id":"e0bf05b6-3eb6-4872-8e8d-82b38f035f72","system_id":"levelo_inurba_marseille","lat":43.23185,"lon":5.39981,"is_reserved":false,"is_disabled":false,"rental_uris":{"android":"levelo://app?vid=e0bf05b6-3eb6-4872-8e8d-82b38f035f72","ios":"levelo://app?vid=e0bf05b6-3eb6-4872-8e8d-82b38f035f72"},"vehicle_type_id":"4","last_reported":1730117881,"current_range_meters":38800,"station_id":"ce4bhn12rcd13ifvqgqg","pricing_plan_id":"cebpf4jnsgd1na2vs0mg"},{"bike_id":"c92e7895-b876-4364-9de0-39b8df282d5c","system_id":"levelo_inurba_marseille","lat":43.3148,"lon":5.3731,"is_reserved":false,"is_disabled":false,"rental_uris":{"android":"levelo://app?vid=c92e7895-b876-4364-9de0-39b8df282d5c","ios":"levelo://app?vid=c92e7895-b876-4364-9de0-39b8df282d5c"},"vehicle_type_id":"4","last_reported":1730117881,"current_range_meters":15200,"station_id":"ce4bgt12rcd13ifvqcd0","pricing_plan_id":"cebpf4jnsgd1na2vs0mg"},{"bike_id":"870759aa-b4f1-410f-8dd7-8cce75f5dcfb","system_id":"levelo_inurba_marseille","lat":43.23149,"lon":5.4372,"is_reserved":false,"is_disabled":false,"rental_uris":{"android":"levelo://app?vid=870759aa-b4f1-410f-8dd7-8cce75f5dcfb","ios":"levelo://app?vid=870759aa-b4f1-410f-8dd7-8cce75f5dcfb"},"vehicle_type_id":"4","last_reported":1730117881,"current_range_meters":38800,"station_id":"ce4bhmp2rcd13ifvqgog","pricing_plan_id":"cebpf4jnsgd1na2vs0mg"},{"bike_id":"826eb7f4-7b2c-4960-b8f0-1ad2d382103e","system_id":"levelo_inurba_marseille","lat":43.27496,"lon":5.42446,"is_reserved":false,"is_disabled":false,"rental_uris":{"android":"levelo://app?vid=826eb7f4-7b2c-4960-b8f0-1ad2d382103e","ios":"levelo://app?vid=826eb7f4-7b2c-4960-b8f0-1ad2d382103e"},"vehicle_type_id":"4","last_reported":1730117881,"current_range_meters":38000,"station_id":"ce4bhn92rcd13ifvqgrg","pricing_plan_id":"cebpf4jnsgd1na2vs0mg"},{"bike_id":"5790618d-de32-4a58-898a-bfa124a2426f","system_id":"levelo_inurba_marseille","lat":43.24178,"lon":5.39725,"is_reserved":false,"is_disabled":false,"rental_uris":{"android":"levelo://app?vid=5790618d-de32-4a58-898a-bfa124a2426f","ios":"levelo://app?vid=5790618d-de32-4a58-898a-bfa124a2426f"},"vehicle_type_id":"4","last_reported":1730117881,"current_range_meters":28800,"station_id":"ce4bhn12rcd13ifvqgpg","pricing_plan_id":"cebpf4jnsgd1na2vs0mg"},{"bike_id":"089c37ba-3c44-437d-be3a-8dcc8e4e5629","system_id":"levelo_inurba_marseille","lat":43.30542,"lon":5.36528,"is_reserved":false,"is_disabled":false,"rental_uris":{"android":"levelo://app?vid=089c37ba-3c44-437d-be3a-8dcc8e4e5629","ios":"levelo://app?vid=089c37ba-3c44-437d-be3a-8dcc8e4e5629"},"vehicle_type_id":"4","last_reported":1730117881,"current_range_meters":39200,"station_id":"ce4bgs12rcd13ifvqcag","pricing_plan_id":"cebpf4jnsgd1na2vs0mg"},{"bike_id":"b8cd8883-543c-48c2-af0e-34edc1e85713","system_id":"levelo_inurba_marseille","lat":43.31338,"lon":5.36702,"is_reserved":false,"is_disabled":false,"rental_uris":{"android":"levelo://app?vid=b8cd8883-543c-48c2-af0e-34edc1e85713","ios":"levelo://app?vid=b8cd8883-543c-48c2-af0e-34edc1e85713"},"vehicle_type_id":"4","last_reported":1730117881,"current_range_meters":3600,"station_id":"ce4bgr92rcd13ifvqc6g","pricing_plan_id":"cebpf4jnsgd1na2vs0mg"},{"bike_id":"caaf8e7b-08f6-41c6-8959-56f531bbb892","system_id":"levelo_inurba_marseille","lat":43.25088,"lon":5.3952,"is_reserved":false,"is_disabled":false,"rental_uris":{"android":"levelo://app?vid=caaf8e7b-08f6-41c6-8959-56f531bbb892","ios":"levelo://app?vid=caaf8e7b-08f6-41c6-8959-56f531bbb892"},"vehicle_type_id":"4","last_reported":1730117881,"current_range_meters":25600,"station_id":"ce4bhm12rcd13ifvqgkg","pricing_plan_id":"cebpf4jnsgd1na2vs0mg"},{"bike_id":"c06cd744-be96-4311-ac22-8ad8274c24b7","system_id":"levelo_inurba_marseille","lat":43.3078,"lon":5.37647,"is_reserved":false,"is_disabled":false,"rental_uris":{"android":"levelo://app?vid=c06cd744-be96-4311-ac22-8ad8274c24b7","ios":"levelo://app?vid=c06cd744-be96-4311-ac22-8ad8274c24b7"},"vehicle_type_id":"4","last_reported":1730117881,"current_range_meters":22400,"station_id":"ce4bgv92rcd13ifvqcq0","pricing_plan_id":"cebpf4jnsgd1na2vs0mg"},{"bike_id":"91870cc2-668f-4717-93d3-5f58465d5cdd","system_id":"levelo_inurba_marseille","lat":43.23184,"lon":5.39993,"is_reserved":false,"is_disabled":false,"rental_uris":{"android":"levelo://app?vid=91870cc2-668f-4717-93d3-5f58465d5cdd","ios":"levelo://app?vid=91870cc2-668f-4717-93d3-5f58465d5cdd"},"vehicle_type_id":"4","last_reported":1730117881,"current_range_meters":27200,"station_id":"ce4bhn12rcd13ifvqgqg","pricing_plan_id":"cebpf4jnsgd1na2vs0mg"},{"bike_id":"cd5289ce-9e66-4976-9552-3aa1b0da909c","system_id":"levelo_inurba_marseille","lat":43.32483,"lon":5.3656,"is_reserved":false,"is_disabled":false,"rental_uris":{"android":"levelo://app?vid=cd5289ce-9e66-4976-9552-3aa1b0da909c","ios":"levelo://app?vid=cd5289ce-9e66-4976-9552-3aa1b0da909c"},"vehicle_type_id":"4","last_reported":1730117881,"current_range_meters":38800,"station_id":"ce4bhs12rcd13ifvqhvg","pricing_plan_id":"cebpf4jnsgd1na2vs0mg"},{"bike_id":"8eb18b6f-75a4-49e9-80e8-b6420631b398","system_id":"levelo_inurba_marseille","lat":43.2815,"lon":5.42642,"is_reserved":false,"is_disabled":false,"rental_uris":{"android":"levelo://app?vid=8eb18b6f-75a4-49e9-80e8-b6420631b398","ios":"levelo://app?vid=8eb18b6f-75a4-49e9-80e8-b6420631b398"},"vehicle_type_id":"4","last_reported":1730117881,"current_range_meters":25200,"station_id":"ce4bhnh2rcd13ifvqgug","pricing_plan_id":"cebpf4jnsgd1na2vs0mg"},{"bike_id":"b2bae84c-5f5d-414b-b0eb-acf22fb164aa","system_id":"levelo_inurba_marseille","lat":43.31995,"lon":5.38162,"is_reserved":false,"is_disabled":false,"rental_uris":{"android":"levelo://app?vid=b2bae84c-5f5d-414b-b0eb-acf22fb164aa","ios":"levelo://app?vid=b2bae84c-5f5d-414b-b0eb-acf22fb164aa"},"vehicle_type_id":"4","last_reported":1730117881,"current_range_meters":17200,"station_id":"ce4bhr12rcd13ifvqhpg","pricing_plan_id":"cebpf4jnsgd1na2vs0mg"},{"bike_id":"d2cfb8e2-b4f5-493e-9190-4fd91f5e908d","system_id":"levelo_inurba_marseille","lat":43.33767,"lon":5.3747,"is_reserved":false,"is_disabled":false,"rental_uris":{"android":"levelo://app?vid=d2cfb8e2-b4f5-493e-9190-4fd91f5e908d","ios":"levelo://app?vid=d2cfb8e2-b4f5-493e-9190-4fd91f5e908d"},"vehicle_type_id":"4","last_reported":1730117881,"current_range_meters":38400,"station_id":"","pricing_plan_id":"cebpf4jnsgd1na2vs0mg"},{"bike_id":"3688481a-3da7-47f5-860e-b3189825b689","system_id":"levelo_inurba_marseille","lat":43.33022,"lon":5.39045,"is_reserved":false,"is_disabled":false,"rental_uris":{"android":"levelo://app?vid=3688481a-3da7-47f5-860e-b3189825b689","ios":"levelo://app?vid=3688481a-3da7-47f5-860e-b3189825b689"},"vehicle_type_id":"4","last_reported":1730117881,"current_range_meters":27200,"station_id":"ce4bhr92rcd13ifvqhrg","pricing_plan_id":"cebpf4jnsgd1na2vs0mg"},{"bike_id":"2c9cd697-74f8-4a74-a83b-515ce4f148d8","system_id":"levelo_inurba_marseille","lat":43.3014,"lon":5.37422,"is_reserved":false,"is_disabled":false,"rental_uris":{"android":"levelo://app?vid=2c9cd697-74f8-4a74-a83b-515ce4f148d8","ios":"levelo://app?vid=2c9cd697-74f8-4a74-a83b-515ce4f148d8"},"vehicle_type_id":"4","last_reported":1730117881,"current_range_meters":38000,"station_id":"ce4bgs92rcd13ifvqcc0","pricing_plan_id":"cebpf4jnsgd1na2vs0mg"},{"bike_id":"a5f33ff1-2874-42b4-add2-46efd3bc0977","system_id":"levelo_inurba_marseille","lat":43.29719,"lon":5.38082,"is_reserved":false,"is_disabled":false,"rental_uris":{"android":"levelo://app?vid=a5f33ff1-2874-42b4-add2-46efd3bc0977","ios":"levelo://app?vid=a5f33ff1-2874-42b4-add2-46efd3bc0977"},"vehicle_type_id":"4","last_reported":1730117881,"current_range_meters":25200,"station_id":"ce4bh192rcd13ifvqdd0","pricing_plan_id":"cebpf4jnsgd1na2vs0mg"},{"bike_id":"c1f61dd8-17d5-43eb-8731-e9b3ee9ed0fe","system_id":"levelo_inurba_marseille","lat":43.30882,"lon":5.37196,"is_reserved":false,"is_disabled":false,"rental_uris":{"android":"levelo://app?vid=c1f61dd8-17d5-43eb-8731-e9b3ee9ed0fe","ios":"levelo://app?vid=c1f61dd8-17d5-43eb-8731-e9b3ee9ed0fe"},"vehicle_type_id":"4","last_reported":1730117881,"current_range_meters":38800,"station_id":"ce4bguh2rcd13ifvqckg","pricing_plan_id":"cebpf4jnsgd1na2vs0mg"},{"bike_id":"c374f64f-9afa-4a41-86e3-541699c21d24","system_id":"levelo_inurba_marseille","lat":43.30135,"lon":5.37413,"is_reserved":false,"is_disabled":false,"rental_uris":{"android":"levelo://app?vid=c374f64f-9afa-4a41-86e3-541699c21d24","ios":"levelo://app?vid=c374f64f-9afa-4a41-86e3-541699c21d24"},"vehicle_type_id":"4","last_reported":1730117881,"current_range_meters":24800,"station_id":"ce4bgs92rcd13ifvqcc0","pricing_plan_id":"cebpf4jnsgd1na2vs0mg"},{"bike_id":"27b25d53-0d43-45f7-b36c-a08ae52b240c","system_id":"levelo_inurba_marseille","lat":43.23189,"lon":5.39976,"is_reserved":false,"is_disabled":false,"rental_uris":{"android":"levelo://app?vid=27b25d53-0d43-45f7-b36c-a08ae52b240c","ios":"levelo://app?vid=27b25d53-0d43-45f7-b36c-a08ae52b240c"},"vehicle_type_id":"4","last_reported":1730117881,"current_range_meters":38800,"station_id":"ce4bhn12rcd13ifvqgqg","pricing_plan_id":"cebpf4jnsgd1na2vs0mg"},{"bike_id":"cd5ac976-a627-4311-878d-a5e529de3f63","system_id":"levelo_inurba_marseille","lat":43.27994,"lon":5.4,"is_reserved":false,"is_disabled":false,"rental_uris":{"android":"levelo://app?vid=cd5ac976-a627-4311-878d-a5e529de3f63","ios":"levelo://app?vid=cd5ac976-a627-4311-878d-a5e529de3f63"},"vehicle_type_id":"4","last_reported":1730117881,"current_range_meters":22000,"station_id":"ce4bho92rcd13ifvqh4g","pricing_plan_id":"cebpf4jnsgd1na2vs0mg"},{"bike_id":"83678569-752d-4466-8bb5-f229e79aab79","system_id":"levelo_inurba_marseille","lat":43.28261,"lon":5.35058,"is_reserved":false,"is_disabled":false,"rental_uris":{"android":"levelo://app?vid=83678569-752d-4466-8bb5-f229e79aab79","ios":"levelo://app?vid=83678569-752d-4466-8bb5-f229e79aab79"},"vehicle_type_id":"4","last_reported":1730117881,"current_range_meters":22800,"station_id":"ce4bhbp2rcd13ifvqerg","pricing_plan_id":"cebpf4jnsgd1na2vs0mg"},{"bike_id":"55c356b9-01fd-4cdf-8695-c80eb66dded9","system_id":"levelo_inurba_marseille","lat":43.29265,"lon":5.38444,"is_reserved":false,"is_disabled":false,"rental_uris":{"android":"levelo://app?vid=55c356b9-01fd-4cdf-8695-c80eb66dded9","ios":"levelo://app?vid=55c356b9-01fd-4cdf-8695-c80eb66dded9"},"vehicle_type_id":"4","last_reported":1730117881,"current_range_meters":36800,"station_id":"ce4bh692rcd13ifvqea0","pricing_plan_id":"cebpf4jnsgd1na2vs0mg"},{"bike_id":"5682c879-c24d-479e-a018-68e12d59b970","system_id":"levelo_inurba_marseille","lat":43.30309,"lon":5.36887,"is_reserved":false,"is_disabled":false,"rental_uris":{"android":"levelo://app?vid=5682c879-c24d-479e-a018-68e12d59b970","ios":"levelo://app?vid=5682c879-c24d-479e-a018-68e12d59b970"},"vehicle_type_id":"4","last_reported":1730117881,"current_range_meters":36800,"station_id":"ce4bgqh2rcd13ifvqc5g","pricing_plan_id":"cebpf4jnsgd1na2vs0mg"},{"bike_id":"65d34050-1c18-4611-afa7-c2c037b3b82c","system_id":"levelo_inurba_marseille","lat":43.30138,"lon":5.37424,"is_reserved":false,"is_disabled":false,"rental_uris":{"android":"levelo://app?vid=65d34050-1c18-4611-afa7-c2c037b3b82c","ios":"levelo://app?vid=65d34050-1c18-4611-afa7-c2c037b3b82c"},"vehicle_type_id":"4","last_reported":1730117881,"current_range_meters":39200,"station_id":"ce4bgs92rcd13ifvqcc0","pricing_plan_id":"cebpf4jnsgd1na2vs0mg"},{"bike_id":"1a25245e-a900-4441-b8a1-aa8f8cb7be3a","system_id":"levelo_inurba_marseille","lat":43.24549,"lon":5.39525,"is_reserved":false,"is_disabled":false,"rental_uris":{"android":"levelo://app?vid=1a25245e-a900-4441-b8a1-aa8f8cb7be3a","ios":"levelo://app?vid=1a25245e-a900-4441-b8a1-aa8f8cb7be3a"},"vehicle_type_id":"4","last_reported":1730117881,"current_range_meters":36800,"station_id":"ce4bhm12rcd13ifvqgkg","pricing_plan_id":"cebpf4jnsgd1na2vs0mg"},{"bike_id":"e358f79a-782b-44b7-bd5d-dc33eec59e4c","system_id":"levelo_inurba_marseille","lat":43.26058,"lon":5.39397,"is_reserved":false,"is_disabled":false,"rental_uris":{"android":"levelo://app?vid=e358f79a-782b-44b7-bd5d-dc33eec59e4c","ios":"levelo://app?vid=e358f79a-782b-44b7-bd5d-dc33eec59e4c"},"vehicle_type_id":"4","last_reported":1730117881,"current_range_meters":37600,"station_id":"ce4bhh92rcd13ifvqfj0","pricing_plan_id":"cebpf4jnsgd1na2vs0mg"},{"bike_id":"63bff262-96c7-481f-a4bf-e1bea35bdeab","system_id":"levelo_inurba_marseille","lat":43.27994,"lon":5.4002,"is_reserved":false,"is_disabled":false,"rental_uris":{"android":"levelo://app?vid=63bff262-96c7-481f-a4bf-e1bea35bdeab","ios":"levelo://app?vid=63bff262-96c7-481f-a4bf-e1bea35bdeab"},"vehicle_type_id":"4","last_reported":1730117881,"current_range_meters":30800,"station_id":"ce4bho92rcd13ifvqh4g","pricing_plan_id":"cebpf4jnsgd1na2vs0mg"},