{"last_updated":1705774095,"ttl":30,"version":"2.2","data":{"bikes":[{"bike_id":"e761e074-0603-4948-b5bc-3b0b7ce0e544","system_id":"levelo_inurba_marseille","lat":43.31341,"lon":5.367098,"is_reserved":false,"is_disabled":false,"rental_uris":{"android":"levelo://app?vid=e761e074-0603-4948-b5bc-3b0b7ce0e544","ios":"levelo://app?vid=e761e074-0603-4948-b5bc-3b0b7ce0e544"},"vehicle_type_id":"4","last_reported":1705774095,"current_range_meters":10000,"station_id":"ce4bgr92rcd13ifvqc6g","pricing_plan_id":"free"},{"bike_id":"173c07e5-8508-415e-8f5f-ed33807c7621","system_id":"levelo_inurba_marseille","lat":43.312239,"lon":5.368562,"is_reserved":false,"is_disabled":false,"rental_uris":{"android":"levelo://app?vid=173c07e5-8508-415e-8f5f-ed33807c7621","ios":"levelo://app?vid=173c07e5-8508-415e-8f5f-ed33807c7621"},"vehicle_type_id":"4","last_reported":1705774095,"current_range_meters":29200,"station_id":"ce4bgl92rcd13ifvqbq0","pricing_plan_id":"free"},{"bike_id":"f901d5bb-3e2e-4424-9258-6e4493a6b9cd","system_id":"levelo_inurba_marseille","lat":43.312239,"lon":5.368562,"is_reserved":false,"is_disabled":false,"rental_uris":{"android":"levelo://app?vid=f901d5bb-3e2e-4424-9258-6e4493a6b9cd","ios":"levelo://app?vid=f901d5bb-3e2e-4424-9258-6e4493a6b9cd"},"vehicle_type_id":"4","last_reported":1705774095,"current_range_meters":9200,"station_id":"ce4bgl92rcd13ifvqbq0","pricing_plan_id":"free"},{"bike_id":"dd4f008f-9d97-4306-af31-f7d9c999c7a3","system_id":"levelo_inurba_marseille","lat":43.31216,"lon":5.36866,"is_reserved":false,"is_disabled":false,"rental_uris":{"android":"levelo://app?vid=dd4f008f-9d97-4306-af31-f7d9c999c7a3","ios":"levelo://app?vid=dd4f008f-9d97-4306-af31-f7d9c999c7a3"},"vehicle_type_id":"4","last_reported":1705774095,"current_range_meters":2400,"station_id":"ce4bgl92rcd13ifvqbq0","pricing_plan_id":"free"},{"bike_id":"68ce9576-2dba-47f5-a97d-7c3897ff0890","system_id":"levelo_inurba_marseille","lat":43.312239,"lon":5.368562,"is_reserved":false,"is_disabled":false,"rental_uris":{"android":"levelo://app?vid=68ce9576-2dba-47f5-a97d-7c3897ff0890","ios":"levelo://app?vid=68ce9576-2dba-47f5-a97d-7c3897ff0890"},"vehicle_type_id":"4","last_reported":1705774095,"current_range_meters":31600,"station_id":"ce4bgl92rcd13ifvqbq0","pricing_plan_id":"free"},{"bike_id":"34a6a011-aa73-46d6-a314-8fd58010ba98","system_id":"levelo_inurba_marseille","lat":43.312239,"lon":5.368562,"is_reserved":false,"is_disabled":false,"rental_uris":{"android":"levelo://app?vid=34a6a011-aa73-46d6-a314-8fd58010ba98","ios":"levelo://app?vid=34a6a011-aa73-46d6-a314-8fd58010ba98"},"vehicle_type_id":"4","last_reported":1705774095,"current_range_meters":0,"station_id":"ce4bgl92rcd13ifvqbq0","pricing_plan_id":"free"},{"bike_id":"960e2057-412f-4e20-a975-1e9c6d457912","system_id":"levelo_inurba_marseille","lat":43.314811,"lon":5.373103,"is_reserved":false,"is_disabled":false,"rental_uris":{"android":"levelo://app?vid=960e2057-412f-4e20-a975-1e9c6d457912","ios":"levelo://app?vid=960e2057-412f-4e20-a975-1e9c6d457912"},"vehicle_type_id":"4","last_reported":1705774095,"current_range_meters":6000,"station_id":"ce4bgt12rcd13ifvqcd0","pricing_plan_id":"free"},{"bike_id":"1295d287-16bc-493e-bc17-eae8f5caec35","system_id":"levelo_inurba_marseille","lat":43.314811,"lon":5.373104,"is_reserved":false,"is_disabled":false,"rental_uris":{"android":"levelo://app?vid=1295d287-16bc-493e-bc17-eae8f5caec35","ios":"levelo://app?vid=1295d287-16bc-493e-bc17-eae8f5caec35"},"vehicle_type_id":"4","last_reported":1705774095,"current_range_meters":14000,"station_id":"ce4bgt12rcd13ifvqcd0","pricing_plan_id":"free"},{"bike_id":"d55d6a57-e375-438b-9b73-ee8ac1ae621c","system_id":"levelo_inurba_marseille","lat":43.314811,"lon":5.373103,"is_reserved":false,"is_disabled":false,"rental_uris":{"android":"levelo://app?vid=d55d6a57-e375-438b-9b73-ee8ac1ae621c","ios":"levelo://app?vid=d55d6a57-e375-438b-9b73-ee8ac1ae621c"},"vehicle_type_id":"4","last_reported":1705774095,"current_range_meters":12800,"station_id":"ce4bgt12rcd13ifvqcd0","pricing_plan_id":"free"},{"bike_id":"9a126776-6c68-4b84-b684-4457bf2e3399","system_id":"levelo_inurba_marseille","lat":43.305368,"lon":5.367343,"is_reserved":false,"is_disabled":false,"rental_uris":{"android":"levelo://app?vid=9a126776-6c68-4b84-b684-4457bf2e3399","ios":"levelo://app?vid=9a126776-6c68-4b84-b684-4457bf2e3399"},"vehicle_type_id":"4","last_reported":1705774095,"current_range_meters":4000,"station_id":"ce4bgrp2rcd13ifvqc9g","pricing_plan_id":"free"},{"bike_id":"3bb45c0e-dc53-4905-afd5-8888ea2a719d","system_id":"levelo_inurba_marseille","lat":43.305706,"lon":5.365654,"is_reserved":false,"is_disabled":false,"rental_uris":{"android":"levelo://app?vid=3bb45c0e-dc53-4905-afd5-8888ea2a719d","ios":"levelo://app?vid=3bb45c0e-dc53-4905-afd5-8888ea2a719d"},"vehicle_type_id":"4","last_reported":1705774095,"current_range_meters":10000,"station_id":"ce4bgs12rcd13ifvqcag","pricing_plan_id":"free"},{"bike_id":"626f665e-a9fc-4dd3-b357-6ff42c40832c","system_id":"levelo_inurba_marseille","lat":43.305706,"lon":5.365654,"is_reserved":false,"is_disabled":false,"rental_uris":{"android":"levelo://app?vid=626f665e-a9fc-4dd3-b357-6ff42c40832c","ios":"levelo://app?vid=626f665e-a9fc-4dd3-b357-6ff42c40832c"},"vehicle_type_id":"4","last_reported":1705774095,"current_range_meters":24800,"station_id":"ce4bgs12rcd13ifvqcag","pricing_plan_id":"free"},{"bike_id":"189e47f0-20bc-4133-a29d-a9067d55684c","system_id":"levelo_inurba_marseille","lat":43.305989,"lon":5.37225,"is_reserved":false,"is_disabled":false,"rental_uris":{"android":"levelo://app?vid=189e47f0-20bc-4133-a29d-a9067d55684c","ios":"levelo://app?vid=189e47f0-20bc-4133-a29d-a9067d55684c"},"vehicle_type_id":"4","last_reported":1705774095,"current_range_meters":26800,"station_id":"ce4bgqh2rcd13ifvqc4g","pricing_plan_id":"free"},{"bike_id":"8f001598-093b-4c87-8db6-205b384f930a","system_id":"levelo_inurba_marseille","lat":43.305989,"lon":5.37225,"is_reserved":false,"is_disabled":false,"rental_uris":{"android":"levelo://app?vid=8f001598-093b-4c87-8db6-205b384f930a","ios":"levelo://app?vid=8f001598-093b-4c87-8db6-205b384f930a"},"vehicle_type_id":"4","last_reported":1705774095,"current_range_meters":15200,"station_id":"ce4bgqh2rcd13ifvqc4g","pricing_plan_id":"free"},{"bike_id":"cca4e97d-e174-48bd-b209-21bd60891244","system_id":"levelo_inurba_marseille","lat":43.305989,"lon":5.37225,"is_reserved":false,"is_disabled":false,"rental_uris":{"android":"levelo://app?vid=cca4e97d-e174-48bd-b209-21bd60891244","ios":"levelo://app?vid=cca4e97d-e174-48bd-b209-21bd60891244"},"vehicle_type_id":"4","last_reported":1705774095,"current_range_meters":20400,"station_id":"ce4bgqh2rcd13ifvqc4g","pricing_plan_id":"free"},{"bike_id":"cce03bbf-0179-422a-88af-bb97da850391","system_id":"levelo_inurba_marseille","lat":43.305368,"lon":5.367343,"is_reserved":false,"is_disabled":false,"rental_uris":{"android":"levelo://app?vid=cce03bbf-0179-422a-88af-bb97da850391","ios":"levelo://app?vid=cce03bbf-0179-422a-88af-bb97da850391"},"vehicle_type_id":"4","last_reported":1705774095,"current_range_meters":24000,"station_id":"ce4bgrp2rcd13ifvqc9g","pricing_plan_id":"free"},{"bike_id":"8aad6280-00a0-4062-b25d-94f48e9c7156","system_id":"levelo_inurba_marseille","lat":43.305989,"lon":5.37225,"is_reserved":false,"is_disabled":false,"rental_uris":{"android":"levelo://app?vid=8aad6280-00a0-4062-b25d-94f48e9c7156","ios":"levelo://app?vid=8aad6280-00a0-4062-b25d-94f48e9c7156"},"vehicle_type_id":"4","last_reported":1705774095,"current_range_meters":6000,"station_id":"ce4bgqh2rcd13ifvqc4g","pricing_plan_id":"free"},{"bike_id":"469952cc-0ea0-4edd-b543-3c45f541fb60","system_id":"levelo_inurba_marseille","lat":43.311125,"lon":5.377624,"is_reserved":false,"is_disabled":false,"rental_uris":{"android":"levelo://app?vid=469952cc-0ea0-4edd-b543-3c45f541fb60","ios":"levelo://app?vid=469952cc-0ea0-4edd-b543-3c45f541fb60"},"vehicle_type_id":"4","last_reported":1705774095,"current_range_meters":4000,"station_id":"ce4bgt92rcd13ifvqcg0","pricing_plan_id":"free"},{"bike_id":"5b534fc0-e042-4d2f-ae53-990c14116317","system_id":"levelo_inurba_marseille","lat":43.307945,"lon":5.376487,"is_reserved":false,"is_disabled":false,"rental_uris":{"android":"levelo://app?vid=5b534fc0-e042-4d2f-ae53-990c14116317","ios":"levelo://app?vid=5b534fc0-e042-4d2f-ae53-990c14116317"},"vehicle_type_id":"4","last_reported":1705774095,"current_range_meters":22800,"station_id":"ce4bgv92rcd13ifvqcq0","pricing_plan_id":"free"},{"bike_id":"dd1fb8e2-e824-4f5d-9945-21e415f827bf","system_id":"levelo_inurba_marseille","lat":43.3078,"lon":5.37662,"is_reserved":false,"is_disabled":false,"rental_uris":{"android":"levelo://app?vid=dd1fb8e2-e824-4f5d-9945-21e415f827bf","ios":"levelo://app?vid=dd1fb8e2-e824-4f5d-9945-21e415f827bf"},"vehicle_type_id":"4","last_reported":1705774095,"current_range_meters":13600,"station_id":"","pricing_plan_id":"free"},{"bike_id":"bc5fa535-88b3-406b-bd14-afa0bf9eb036","system_id":"levelo_inurba_marseille","lat":43.316987,"lon":5.377479,"is_reserved":false,"is_disabled":false,"rental_uris":{"android":"levelo://app?vid=bc5fa535-88b3-406b-bd14-afa0bf9eb036","ios":"levelo://app?vid=bc5fa535-88b3-406b-bd14-afa0bf9eb036"},"vehicle_type_id":"4","last_reported":1705774095,"current_range_meters":8800,"station_id":"ce4bgth2rcd13ifvqch0","pricing_plan_id":"free"},{"bike_id":"38017872-20fd-4de6-8eea-87b42d829d05","system_id":"levelo_inurba_marseille","lat":43.317075,"lon":5.377367,"is_reserved":false,"is_disabled":false,"rental_uris":{"android":"levelo://app?vid=38017872-20fd-4de6-8eea-87b42d829d05","ios":"levelo://app?vid=38017872-20fd-4de6-8eea-87b42d829d05"},"vehicle_type_id":"4","last_reported":1705774095,"current_range_meters":26800,"station_id":"ce4bgth2rcd13ifvqch0","pricing_plan_id":"free"},{"bike_id":"c5e37bd6-6f81-4cf3-b74b-87c0ce98b56a","system_id":"levelo_inurba_marseille","lat":43.317028,"lon":5.377571,"is_reserved":false,"is_disabled":false,"rental_uris":{"android":"levelo://app?vid=c5e37bd6-6f81-4cf3-b74b-87c0ce98b56a","ios":"levelo://app?vid=c5e37bd6-6f81-4cf3-b74b-87c0ce98b56a"},"vehicle_type_id":"4","last_reported":1705774095,"current_range_meters":14800,"station_id":"ce4bgth2rcd13ifvqch0","pricing_plan_id":"free"},{"bike_id":"66560373-2471-45d6-8dc4-41527f5c79c5","system_id":"levelo_inurba_marseille","lat":43.317102,"lon":5.377596,"is_reserved":false,"is_disabled":false,"rental_uris":{"android":"levelo://app?vid=66560373-2471-45d6-8dc4-41527f5c79c5","ios":"levelo://app?vid=66560373-2471-45d6-8dc4-41527f5c79c5"},"vehicle_type_id":"4","last_reported":1705774095,"current_range_meters":28400,"station_id":"ce4bgth2rcd13ifvqch0","pricing_plan_id":"free"},{"bike_id":"12c26ea7-bf34-4d48-af42-41fcadc8a32d","system_id":"levelo_inurba_marseille","lat":43.317075,"lon":5.377367,"is_reserved":false,"is_disabled":false,"rental_uris":{"android":"levelo://app?vid=12c26ea7-bf34-4d48-af42-41fcadc8a32d","ios":"levelo://app?vid=12c26ea7-bf34-4d48-af42-41fcadc8a32d"},"vehicle_type_id":"4","last_reported":1705774095,"current_range_meters":28800,"station_id":"ce4bgth2rcd13ifvqch0","pricing_plan_id":"free"},{"bike_id":"f9563f24-5482-40ca-9e39-abccc42f4328","system_id":"levelo_inurba_marseille","lat":43.299243,"lon":5.374807,"is_reserved":false,"is_disabled":false,"rental_uris":{"android":"levelo://app?vid=f9563f24-5482-40ca-9e39-abccc42f4328","ios":"levelo://app?vid=f9563f24-5482-40ca-9e39-abccc42f4328"},"vehicle_type_id":"4","last_reported":1705774095,"current_range_meters":24000,"station_id":"ce4bgjh2rcd13ifvqbg0","pricing_plan_id":"free"},{"bike_id":"b61c2d80-d421-475a-8833-1ea720606d93","system_id":"levelo_inurba_marseille","lat":43.303046,"lon":5.368981,"is_reserved":false,"is_disabled":false,"rental_uris":{"android":"levelo://app?vid=b61c2d80-d421-475a-8833-1ea720606d93","ios":"levelo://app?vid=b61c2d80-d421-475a-8833-1ea720606d93"},"vehicle_type_id":"4","last_reported":1705774095,"current_range_meters":18800,"station_id":"ce4bgqh2rcd13ifvqc5g","pricing_plan_id":"free"},{"bike_id":"0ff434e2-0892-4f52-816c-996e8261f43a","system_id":"levelo_inurba_marseille","lat":43.30304,"lon":5.368987,"is_reserved":false,"is_disabled":false,"rental_uris":{"android":"levelo://app?vid=0ff434e2-0892-4f52-816c-996e8261f43a","ios":"levelo://app?vid=0ff434e2-0892-4f52-816c-996e8261f43a"},"vehicle_type_id":"4","last_reported":1705774095,"current_range_meters":26000,"station_id":"ce4bgqh2rcd13ifvqc5g","pricing_plan_id":"free"},{"bike_id":"7bb68c96-b65f-4ef2-b7b0-7b75c6c324cf","system_id":"levelo_inurba_marseille","lat":43.303046,"lon":5.368981,"is_reserved":false,"is_disabled":false,"rental_uris":{"android":"levelo://app?vid=7bb68c96-b65f-4ef2-b7b0-7b75c6c324cf","ios":"levelo://app?vid=7bb68c96-b65f-4ef2-b7b0-7b75c6c324cf"},"vehicle_type_id":"4","last_reported":1705774095,"current_range_meters":24000,"station_id":"ce4bgqh2rcd13ifvqc5g","pricing_plan_id":"free"},{"bike_id":"6450d974-5194-4d11-93b9-650c99cb9bda","system_id":"levelo_inurba_marseille","lat":43.303046,"lon":5.368981,"is_reserved":false,"is_disabled":false,"rental_uris":{"android":"levelo://app?vid=6450d974-5194-4d11-93b9-650c99cb9bda","ios":"levelo://app?vid=6450d974-5194-4d11-93b9-650c99cb9bda"},"vehicle_type_id":"4","last_reported":1705774095,"current_range_meters":20400,"station_id":"ce4bgqh2rcd13ifvqc5g","pricing_plan_id":"free"},{"bike_id":"968996fa-d454-48a4-bdab-f49135132d52","system_id":"levelo_inurba_marseille","lat":43.301939,"lon":5.366286,"is_reserved":false,"is_disabled":false,"rental_uris":{"android":"levelo://app?vid=968996fa-d454-48a4-bdab-f49135132d52","ios":"levelo://app?vid=968996fa-d454-48a4-bdab-f49135132d52"},"vehicle_type_id":"4","last_reported":1705774095,"current_range_meters":21200,"station_id":"ce4bgrh2rcd13ifvqc8g","pricing_plan_id":"free"},{"bike_id":"3f57b13d-ac12-4e4b-b271-8a51dd6694b6","system_id":"levelo_inurba_marseille","lat":43.308012,"lon":5.381511,"is_reserved":false,"is_disabled":false,"rental_uris":{"android":"levelo://app?vid=3f57b13d-ac12-4e4b-b271-8a51dd6694b6","ios":"levelo://app?vid=3f57b13d-ac12-4e4b-b271-8a51dd6694b6"},"vehicle_type_id":"4","last_reported":1705774095,"current_range_meters":32000,"station_id":"ce4bgt12rcd13ifvqce0","pricing_plan_id":"free"},{"bike_id":"7ef48f80-96f8-4e97-a93d-dbb75a27b8d5","system_id":"levelo_inurba_marseille","lat":43.308012,"lon":5.381511,"is_reserved":false,"is_disabled":false,"rental_uris":{"android":"levelo://app?vid=7ef48f80-96f8-4e97-a93d-dbb75a27b8d5","ios":"levelo://app?vid=7ef48f80-96f8-4e97-a93d-dbb75a27b8d5"},"vehicle_type_id":"4","last_reported":1705774095,"current_range_meters":22400,"station_id":"ce4bgt12rcd13ifvqce0","pricing_plan_id":"free"},{"bike_id":"72f39bdd-a486-461c-bb48-60fa0715001f","system_id":"levelo_inurba_marseille","lat":43.308012,"lon":5.381511,"is_reserved":false,"is_disabled":false,"rental_uris":{"android":"levelo://app?vid=72f39bdd-a486-461c-bb48-60fa0715001f","ios":"levelo://app?vid=72f39bdd-a486-461c-bb48-60fa0715001f"},"vehicle_type_id":"4","last_reported":1705774095,"current_range_meters":9200,"station_id":"ce4bgt12rcd13ifvqce0","pricing_plan_id":"free"},{"bike_id":"ab4f2e22-61c9-45e6-8f16-2491195dc9af","system_id":"levelo_inurba_marseille","lat":43.308012,"lon":5.381511,"is_reserved":false,"is_disabled":false,"rental_uris":{"android":"levelo://app?vid=ab4f2e22-61c9-45e6-8f16-2491195dc9af","ios":"levelo://app?vid=ab4f2e22-61c9-45e6-8f16-2491195dc9af"},"vehicle_type_id":"4","last_reported":1705774095,"current_range_meters":7600,"station_id":"ce4bgt12rcd13ifvqce0","pricing_plan_id":"free"},{"bike_id":"728985b8-067e-4210-9dee-c4d1fd50f52b","system_id":"levelo_inurba_marseille","lat":43.304606,"lon":5.379026,"is_reserved":false,"is_disabled":false,"rental_uris":{"android":"levelo://app?vid=728985b8-067e-4210-9dee-c4d1fd50f52b","ios":"levelo://app?vid=728985b8-067e-4210-9dee-c4d1fd50f52b"},"vehicle_type_id":"4","last_reported":1705774095,"current_range_meters":13600,"station_id":"ce4bgup2rcd13ifvqcn0","pricing_plan_id":"free"},{"bike_id":"636e364b-b1be-4217-a8ce-ea937db6caad","system_id":"levelo_inurba_marseille","lat":43.30458,"lon":5.37899,"is_reserved":false,"is_disabled":false,"rental_uris":{"android":"levelo://app?vid=636e364b-b1be-4217-a8ce-ea937db6caad","ios":"levelo://app?vid=636e364b-b1be-4217-a8ce-ea937db6caad"},"vehicle_type_id":"4","last_reported":1705774095,"current_range_meters":16800,"station_id":"ce4bgup2rcd13ifvqcn0","pricing_plan_id":"free"},{"bike_id":"7e194c48-7ca3-4895-ac7a-ad4cd29935fa","system_id":"levelo_inurba_marseille","lat":43.30456,"lon":5.37899,"is_reserved":false,"is_disabled":false,"rental_uris":{"android":"levelo://app?vid=7e194c48-7ca3-4895-ac7a-ad4cd29935fa","ios":"levelo://app?vid=7e194c48-7ca3-4895-ac7a-ad4cd29935fa"},"vehicle_type_id":"4","last_reported":1705774095,"current_range_meters":3200,"station_id":"ce4bgup2rcd13ifvqcn0","pricing_plan_id":"free"},{"bike_id":"260330a5-3935-4f18-a3a9-35692c2bd43a","system_id":"levelo_inurba_marseille","lat":43.30458,"lon":5.37902,"is_reserved":false,"is_disabled":false,"rental_uris":{"android":"levelo://app?vid=260330a5-3935-4f18-a3a9-35692c2bd43a","ios":"levelo://app?vid=260330a5-3935-4f18-a3a9-35692c2bd43a"},"vehicle_type_id":"4","last_reported":1705774095,"current_range_meters":22800,"station_id":"ce4bgup2rcd13ifvqcn0","pricing_plan_id":"free"},{"bike_id":"71a126c7-b719-426c-b069-4af1d4a5ba47","system_id":"levelo_inurba_marseille","lat":43.324769,"lon":5.365705,"is_reserved":false,"is_disabled":false,"rental_uris":{"android":"levelo://app?vid=71a126c7-b719-426c-b069-4af1d4a5ba47","ios":"levelo://app?vid=71a126c7-b719-426c-b069-4af1d4a5ba47"},"vehicle_type_id":"4","last_reported":1705774095,"current_range_meters":30000,"station_id":"ce4bhs12rcd13ifvqhvg","pricing_plan_id":"free"},{"bike_id":"d655f5bb-ed30-48d1-8fea-b10c22e797ad","system_id":"levelo_inurba_marseille","lat":43.324771,"lon":5.36557,"is_reserved":false,"is_disabled":false,"rental_uris":{"android":"levelo://app?vid=d655f5bb-ed30-48d1-8fea-b10c22e797ad","ios":"levelo://app?vid=d655f5bb-ed30-48d1-8fea-b10c22e797ad"},"vehicle_type_id":"4","last_reported":1705774095,"current_range_meters":14800,"station_id":"ce4bhs12rcd13ifvqhvg","pricing_plan_id":"free"},{"bike_id":"6cbaa73a-5f5e-4107-89bb-de878da68fc1","system_id":"levelo_inurba_marseille","lat":43.304631,"lon":5.379223,"is_reserved":false,"is_disabled":false,"rental_uris":{"android":"levelo://app?vid=6cbaa73a-5f5e-4107-89bb-de878da68fc1","ios":"levelo://app?vid=6cbaa73a-5f5e-4107-89bb-de878da68fc1"},"vehicle_type_id":"4","last_reported":1705774095,"current_range_meters":24000,"station_id":"","pricing_plan_id":"free"},{"bike_id":"2179bf7d-2ef3-478f-ab07-0d1474ed1fd2","system_id":"levelo_inurba_marseille","lat":43.324797,"lon":5.365745,"is_reserved":false,"is_disabled":false,"rental_uris":{"android":"levelo://app?vid=2179bf7d-2ef3-478f-ab07-0d1474ed1fd2","ios":"levelo://app?vid=2179bf7d-2ef3-478f-ab07-0d1474ed1fd2"},"vehicle_type_id":"4","last_reported":1705774095,"current_range_meters":26000,"station_id":"ce4bhs12rcd13ifvqhvg","pricing_plan_id":"free"},{"bike_id":"3cb5ad2b-e743-4194-9d67-007686b421e8","system_id":"levelo_inurba_marseille","lat":43.324771,"lon":5.36557,"is_reserved":false,"is_disabled":false,"rental_uris":{"android":"levelo://app?vid=3cb5ad2b-e743-4194-9d67-007686b421e8","ios":"levelo://app?vid=3cb5ad2b-e743-4194-9d67-007686b421e8"},"vehicle_type_id":"4","last_reported":1705774095,"current_range_meters":16000,"station_id":"ce4bhs12rcd13ifvqhvg","pricing_plan_id":"free"},{"bike_id":"473641ac-6aae-4372-b0d6-cad5571f515f","system_id":"levelo_inurba_marseille","lat":43.324771,"lon":5.36557,"is_reserved":false,"is_disabled":false,"rental_uris":{"android":"levelo://app?vid=473641ac-6aae-4372-b0d6-cad5571f515f","ios":"levelo://app?vid=473641ac-6aae-4372-b0d6-cad5571f515f"},"vehicle_type_id":"4","last_reported":1705774095,"current_range_meters":28800,"station_id":"ce4bhs12rcd13ifvqhvg","pricing_plan_id":"free"},{"bike_id":"e84949e8-ecc8-4c62-b9c7-ea4d6dec9773","system_id":"levelo_inurba_marseille","lat":43.324843,"lon":5.365657,"is_reserved":false,"is_disabled":false,"rental_uris":{"android":"levelo://app?vid=e84949e8-ecc8-4c62-b9c7-ea4d6dec9773","ios":"levelo://app?vid=e84949e8-ecc8-4c62-b9c7-ea4d6dec9773"},"vehicle_type_id":"4","last_reported":1705774095,"current_range_meters":5200,"station_id":"ce4bhs12rcd13ifvqhvg","pricing_plan_id":"free"},{"bike_id":"c7d678ca-5190-4aab-9b8d-cdb0cac2118f","system_id":"levelo_inurba_marseille","lat":43.324771,"lon":5.36557,"is_reserved":false,"is_disabled":false,"rental_uris":{"android":"levelo://app?vid=c7d678ca-5190-4aab-9b8d-cdb0cac2118f","ios":"levelo://app?vid=c7d678ca-5190-4aab-9b8d-cdb0cac2118f"},"vehicle_type_id":"4","last_reported":1705774095,"current_range_meters":12400,"station_id":"ce4bhs12rcd13ifvqhvg","pricing_plan_id":"free"},{"bike_id":"b1af1efe-7d5e-4f56-a360-352e525328e4","system_id":"levelo_inurba_marseille","lat":43.324771,"lon":5.36557,"is_reserved":false,"is_disabled":false,"rental_uris":{"android":"levelo://app?vid=b1af1efe-7d5e-4f56-a360-352e525328e4","ios":"levelo://app?vid=b1af1efe-7d5e-4f56-a360-352e525328e4"},"vehicle_type_id":"4","last_reported":1705774095,"current_range_meters":26000,"station_id":"ce4bhs12rcd13ifvqhvg","pricing_plan_id":"free"},{"bike_id":"67ffb58c-c084-429e-8c36-537a62daa7bf","system_id":"levelo_inurba_marseille","lat":43.304606,"lon":5.379026,"is_reserved":false,"is_disabled":false,"rental_uris":{"android":"levelo://app?vid=67ffb58c-c084-429e-8c36-537a62daa7bf","ios":"levelo://app?vid=67ffb58c-c084-429e-8c36-537a62daa7bf"},"vehicle_type_id":"4","last_reported":1705774095,"current_range_meters":14000,"station_id":"ce4bgup2rcd13ifvqcn0","pricing_plan_id":"free"},{"bike_id":"e0e67bdf-320d-49b0-a854-3c618a175f30","system_id":"levelo_inurba_marseille","lat":43.30282,"lon":5.37705,"is_reserved":false,"is_disabled":false,"rental_uris":{"android":"levelo://app?vid=e0e67bdf-320d-49b0-a854-3c618a175f30","ios":"levelo://app?vid=e0e67bdf-320d-49b0-a854-3c618a175f30"},"vehicle_type_id":"4","last_reported":1705774095,"current_range_meters":18000,"station_id":"","pricing_plan_id":"free"},{"bike_id":"cd02703d-0dd5-48ab-a375-a371b123d53d","system_id":"levelo_inurba_marseille","lat":43.30268,"lon":5.37719,"is_reserved":false,"is_disabled":false,"rental_uris":{"android":"levelo://app?vid=cd02703d-0dd5-48ab-a375-a371b123d53d","ios":"levelo://app?vid=cd02703d-0dd5-48ab-a375-a371b123d53d"},"vehicle_type_id":"4","last_reported":1705774095,"current_range_meters":26400,"station_id":"","pricing_plan_id":"free"},{"bike_id":"b56b44a8-4957-45a0-ab05-24598deb6b43","system_id":"levelo_inurba_marseille","lat":43.319903,"lon":5.381383,"is_reserved":false,"is_disabled":false,"rental_uris":{"android":"levelo://app?vid=b56b44a8-4957-45a0-ab05-24598deb6b43","ios":"levelo://app?vid=b56b44a8-4957-45a0-ab05-24598deb6b43"},"vehicle_type_id":"4","last_reported":1705774095,"current_range_meters":30800,"station_id":"ce4bhr12rcd13ifvqhpg","pricing_plan_id":"free"},{"bike_id":"cc24f19f-3914-474c-8fd9-6bbb87405512","system_id":"levelo_inurba_marseille","lat":43.31991,"lon":5.38138,"is_reserved":false,"is_disabled":false,"rental_uris":{"android":"levelo://app?vid=cc24f19f-3914-474c-8fd9-6bbb87405512","ios":"levelo://app?vid=cc24f19f-3914-474c-8fd9-6bbb87405512"},"vehicle_type_id":"4","last_reported":1705774095,"current_range_meters":6800,"station_id":"ce4bhr12rcd13ifvqhpg","pricing_plan_id":"free"},{"bike_id":"f0e6f343-5d11-4ccd-b521-fba2ec1496b9","system_id":"levelo_inurba_marseille","lat":43.319969,"lon":5.381425,"is_reserved":false,"is_disabled":false,"rental_uris":{"android":"levelo://app?vid=f0e6f343-5d11-4ccd-b521-fba2ec1496b9","ios":"levelo://app?vid=f0e6f343-5d11-4ccd-b521-fba2ec1496b9"},"vehicle_type_id":"4","last_reported":1705774095,"current_range_meters":9200,"station_id":"ce4bhr12rcd13ifvqhpg","pricing_plan_id":"free"},{"bike_id":"a5605478-720f-48fe-b19d-580b9c358f06","system_id":"levelo_inurba_marseille","lat":43.31995,"lon":5.38156,"is_reserved":false,"is_disabled":false,"rental_uris":{"android":"levelo://app?vid=a5605478-720f-48fe-b19d-580b9c358f06","ios":"levelo://app?vid=a5605478-720f-48fe-b19d-580b9c358f06"},"vehicle_type_id":"4","last_reported":1705774095,"current_range_meters":26400,"station_id":"ce4bhr12rcd13ifvqhpg","pricing_plan_id":"free"},{"bike_id":"0cc6fa33-c74b-4329-9c6b-687b5f16df41","system_id":"levelo_inurba_marseille","lat":43.31995,"lon":5.38158,"is_reserved":false,"is_disabled":false,"rental_uris":{"android":"levelo://app?vid=0cc6fa33-c74b-4329-9c6b-687b5f16df41","ios":"levelo://app?vid=0cc6fa33-c74b-4329-9c6b-687b5f16df41"},"vehicle_type_id":"4","last_reported":1705774095,"current_range_meters":0,"station_id":"ce4bhr12rcd13ifvqhpg","pricing_plan_id":"free"},{"bike_id":"ad2042ad-335a-4b55-a707-efb55c3b360c","system_id":"levelo_inurba_marseille","lat":43.299222,"lon":5.365554,"is_reserved":false,"is_disabled":false,"rental_uris":{"android":"levelo://app?vid=ad2042ad-335a-4b55-a707-efb55c3b360c","ios":"levelo://app?vid=ad2042ad-335a-4b55-a707-efb55c3b360c"},"vehicle_type_id":"4","last_reported":1705774095,"current_range_meters":20800,"station_id":"ce4bgm92rcd13ifvqbr0","pricing_plan_id":"free"},{"bike_id":"7c96bd3b-2b2c-46bc-9efc-665828e5b56a","system_id":"levelo_inurba_marseille","lat":43.29852,"lon":5.36282,"is_reserved":false,"is_disabled":false,"rental_uris":{"android":"levelo://app?vid=7c96bd3b-2b2c-46bc-9efc-665828e5b56a","ios":"levelo://app?vid=7c96bd3b-2b2c-46bc-9efc-665828e5b56a"},"vehicle_type_id":"4","last_reported":1705774095,"current_range_meters":16400,"station_id":"ce4bgpp2rcd13ifvqc3g","pricing_plan_id":"free"},{"bike_id":"2623460b-1d9e-448c-8df2-28523dcfe99b","system_id":"levelo_inurba_marseille","lat":43.29851,"lon":5.36283,"is_reserved":false,"is_disabled":false,"rental_uris":{"android":"levelo://app?vid=2623460b-1d9e-448c-8df2-28523dcfe99b","ios":"levelo://app?vid=2623460b-1d9e-448c-8df2-28523dcfe99b"},"vehicle_type_id":"4","last_reported":1705774095,"current_range_meters":31200,"station_id":"ce4bgpp2rcd13ifvqc3g","pricing_plan_id":"free"},{"bike_id":"0c1a2154-171d-458c-9272-203913d001db","system_id":"levelo_inurba_marseille","lat":43.305364,"lon":5.384119,"is_reserved":false,"is_disabled":false,"rental_uris":{"android":"levelo://app?vid=0c1a2154-171d-458c-9272-203913d001db","ios":"levelo://app?vid=0c1a2154-171d-458c-9272-203913d001db"},"vehicle_type_id":"4","last_reported":1705774095,"current_range_meters":6000,"station_id":"ce4bgg92rcd13ifvqb30","pricing_plan_id":"free"},{"bike_id":"e0bb52e4-fdaf-4168-a697-b6a9cee3ea42","system_id":"levelo_inurba_marseille","lat":43.311722,"lon":5.387247,"is_reserved":false,"is_disabled":false,"rental_uris":{"android":"levelo://app?vid=e0bb52e4-fdaf-4168-a697-b6a9cee3ea42","ios":"levelo://app?vid=e0bb52e4-fdaf-4168-a697-b6a9cee3ea42"},"vehicle_type_id":"4","last_reported":1705774095,"current_range_meters":2800,"station_id":"ce4bgv12rcd13ifvqcp0","pricing_plan_id":"free"},{"bike_id":"34c8b400-5074-46e3-aa02-f5d274dfaa4f","system_id":"levelo_inurba_marseille","lat":43.322872,"lon":5.382756,"is_reserved":false,"is_disabled":false,"rental_uris":{"android":"levelo://app?vid=34c8b400-5074-46e3-aa02-f5d274dfaa4f","ios":"levelo://app?vid=34c8b400-5074-46e3-aa02-f5d274dfaa4f"},"vehicle_type_id":"4","last_reported":1705774095,"current_range_meters":24800,"station_id":"ce4bhr12rcd13ifvqhqg","pricing_plan_id":"free"},{"bike_id":"583c6f1a-e64f-4c9e-ac8b-28623b01e801","system_id":"levelo_inurba_marseille","lat":43.322872,"lon":5.382756,"is_reserved":false,"is_disabled":false,"rental_uris":{"android":"levelo://app?vid=583c6f1a-e64f-4c9e-ac8b-28623b01e801","ios":"levelo://app?vid=583c6f1a-e64f-4c9e-ac8b-28623b01e801"},"vehicle_type_id":"4","last_reported":1705774095,"current_range_meters":29200,"station_id":"ce4bhr12rcd13ifvqhqg","pricing_plan_id":"free"},{"bike_id":"d1da8d70-f4c2-4064-bac5-ba3f328c4021","system_id":"levelo_inurba_marseille","lat":43.322872,"lon":5.382756,"is_reserved":false,"is_disabled":false,"rental_uris":{"android":"levelo://app?vid=d1da8d70-f4c2-4064-bac5-ba3f328c4021","ios":"levelo://app?vid=d1da8d70-f4c2-4064-bac5-ba3f328c4021"},"vehicle_type_id":"4","last_reported":1705774095,"current_range_meters":18000,"station_id":"ce4bhr12rcd13ifvqhqg","pricing_plan_id":"free"},{"bike_id":"c3ab95e9-b05f-4b19-b4ee-7abea1f52c27","system_id":"levelo_inurba_marseille","lat":43.322872,"lon":5.382756,"is_reserved":false,"is_disabled":false,"rental_uris":{"android":"levelo://app?vid=c3ab95e9-b05f-4b19-b4ee-7abea1f52c27","ios":"levelo://app?vid=c3ab95e9-b05f-4b19-b4ee-7abea1f52c27"},"vehicle_type_id":"4","last_reported":1705774095,"current_range_meters":32000,"station_id":"ce4bhr12rcd13ifvqhqg","pricing_plan_id":"free"},{"bike_id":"afe2d6ba-ebda-4981-9104-c77037901f05","system_id":"levelo_inurba_marseille","lat":43.322872,"lon":5.382756,"is_reserved":false,"is_disabled":false,"rental_uris":{"android":"levelo://app?vid=afe2d6ba-ebda-4981-9104-c77037901f05","ios":"levelo://app?vid=afe2d6ba-ebda-4981-9104-c77037901f05"},"vehicle_type_id":"4","last_reported":1705774095,"current_range_meters":24800,"station_id":"ce4bhr12rcd13ifvqhqg","pricing_plan_id":"free"},{"bike_id":"510e4003-ad50-4182-a4bb-6da1b111fff5","system_id":"levelo_inurba_marseille","lat":43.322872,"lon":5.382756,"is_reserved":false,"is_disabled":false,"rental_uris":{"android":"levelo://app?vid=510e4003-ad50-4182-a4bb-6da1b111fff5","ios":"levelo://app?vid=510e4003-ad50-4182-a4bb-6da1b111fff5"},"vehicle_type_id":"4","last_reported":1705774095,"current_range_meters":18400,"station_id":"ce4bhr12rcd13ifvqhqg","pricing_plan_id":"free"},{"bike_id":"ea0178f3-2c6b-4af6-b062-91b0b8dde1df","system_id":"levelo_inurba_marseille","lat":43.328246,"lon":5.366788,"is_reserved":false,"is_disabled":false,"rental_uris":{"android":"levelo://app?vid=ea0178f3-2c6b-4af6-b062-91b0b8dde1df","ios":"levelo://app?vid=ea0178f3-2c6b-4af6-b062-91b0b8dde1df"},"vehicle_type_id":"4","last_reported":1705774095,"current_range_meters":23200,"station_id":"ce4bhs92rcd13ifvqi0g","pricing_plan_id":"free"},{"bike_id":"8c76cce8-dc76-403d-a9b8-0a976afb5aaf","system_id":"levelo_inurba_marseille","lat":43.32825,"lon":5.36676,"is_reserved":false,"is_disabled":false,"rental_uris":{"android":"levelo://app?vid=8c76cce8-dc76-403d-a9b8-0a976afb5aaf","ios":"levelo://app?vid=8c76cce8-dc76-403d-a9b8-0a976afb5aaf"},"vehicle_type_id":"4","last_reported":1705774095,"current_range_meters":4400,"station_id":"ce4bhs92rcd13ifvqi0g","pricing_plan_id":"free"},{"bike_id":"33a5b9b9-aec4-4925-974d-72730cfc5f44","system_id":"levelo_inurba_marseille","lat":43.32826,"lon":5.36675,"is_reserved":false,"is_disabled":false,"rental_uris":{"android":"levelo://app?vid=33a5b9b9-aec4-4925-974d-72730cfc5f44","ios":"levelo://app?vid=33a5b9b9-aec4-4925-974d-72730cfc5f44"},"vehicle_type_id":"4","last_reported":1705774095,"current_range_meters":13600,"station_id":"ce4bhs92rcd13ifvqi0g","pricing_plan_id":"free"},{"bike_id":"85cedcff-9e9a-415d-8415-195178ea3cb7","system_id":"levelo_inurba_marseille","lat":43.328263,"lon":5.366848,"is_reserved":false,"is_disabled":false,"rental_uris":{"android":"levelo://app?vid=85cedcff-9e9a-415d-8415-195178ea3cb7","ios":"levelo://app?vid=85cedcff-9e9a-415d-8415-195178ea3cb7"},"vehicle_type_id":"4","last_reported":1705774095,"current_range_meters":6000,"station_id":"ce4bhs92rcd13ifvqi0g","pricing_plan_id":"free"},{"bike_id":"6da9db5a-42ba-4fa8-afc9-4fdbb45498c1","system_id":"levelo_inurba_marseille","lat":43.32827,"lon":5.36682,"is_reserved":false,"is_disabled":false,"rental_uris":{"android":"levelo://app?vid=6da9db5a-42ba-4fa8-afc9-4fdbb45498c1","ios":"levelo://app?vid=6da9db5a-42ba-4fa8-afc9-4fdbb45498c1"},"vehicle_type_id":"4","last_reported":1705774095,"current_range_meters":15600,"station_id":"ce4bhs92rcd13ifvqi0g","pricing_plan_id":"free"},{"bike_id":"02f97db8-1e1e-4f38-89f3-11868234f7c3","system_id":"levelo_inurba_marseille","lat":43.328274,"lon":5.366801,"is_reserved":false,"is_disabled":false,"rental_uris":{"android":"levelo://app?vid=02f97db8-1e1e-4f38-89f3-11868234f7c3","ios":"levelo://app?vid=02f97db8-1e1e-4f38-89f3-11868234f7c3"},"vehicle_type_id":"4","last_reported":1705774095,"current_range_meters":30400,"station_id":"ce4bhs92rcd13ifvqi0g","pricing_plan_id":"free"},{"bike_id":"2849c95b-f1a6-402d-aac7-80ea81f2feb2","system_id":"levelo_inurba_marseille","lat":43.328275,"lon":5.366796,"is_reserved":false,"is_disabled":false,"rental_uris":{"android":"levelo://app?vid=2849c95b-f1a6-402d-aac7-80ea81f2feb2","ios":"levelo://app?vid=2849c95b-f1a6-402d-aac7-80ea81f2feb2"},"vehicle_type_id":"4","last_reported":1705774095,"current_range_meters":20800,"station_id":"ce4bhs92rcd13ifvqi0g","pricing_plan_id":"free"},{"bike_id":"6b4ea496-3016-42db-af64-ba8beb6e73fc","system_id":"levelo_inurba_marseille","lat":43.328371,"lon":5.366909,"is_reserved":false,"is_disabled":false,"rental_uris":{"android":"levelo://app?vid=6b4ea496-3016-42db-af64-ba8beb6e73fc","ios":"levelo://app?vid=6b4ea496-3016-42db-af64-ba8beb6e73fc"},"vehicle_type_id":"4","last_reported":1705774095,"current_range_meters":8400,"station_id":"ce4bhs92rcd13ifvqi0g","pricing_plan_id":"free"},{"bike_id":"6cebbd79-b1a6-4319-a439-893d8762e220","system_id":"levelo_inurba_marseille","lat":43.328371,"lon":5.366909,"is_reserved":false,"is_disabled":false,"rental_uris":{"android":"levelo://app?vid=6cebbd79-b1a6-4319-a439-893d8762e220","ios":"levelo://app?vid=6cebbd79-b1a6-4319-a439-893d8762e220"},"vehicle_type_id":"4","last_reported":1705774095,"current_range_meters":4800,"station_id":"ce4bhs92rcd13ifvqi0g","pricing_plan_id":"free"},{"bike_id":"2aea99ef-6604-41e9-be87-22fe40b61b9c","system_id":"levelo_inurba_marseille","lat":43.328371,"lon":5.366909,"is_reserved":false,"is_disabled":false,"rental_uris":{"android":"levelo://app?vid=2aea99ef-6604-41e9-be87-22fe40b61b9c","ios":"levelo://app?vid=2aea99ef-6604-41e9-be87-22fe40b61b9c"},"vehicle_type_id":"4","last_reported":1705774095,"current_range_meters":14000,"station_id":"ce4bhs92rcd13ifvqi0g","pricing_plan_id":"free"},{"bike_id":"289d6ba1-3edf-4a84-8210-90b472d195a5","system_id":"levelo_inurba_marseille","lat":43.328371,"lon":5.366909,"is_reserved":false,"is_disabled":false,"rental_uris":{"android":"levelo://app?vid=289d6ba1-3edf-4a84-8210-90b472d195a5","ios":"levelo://app?vid=289d6ba1-3edf-4a84-8210-90b472d195a5"},"vehicle_type_id":"4","last_reported":1705774095,"current_range_meters":30000,"station_id":"ce4bhs92rcd13ifvqi0g","pricing_plan_id":"free"},{"bike_id":"38082c03-fac1-44d3-a79f-5142b4a113a9","system_id":"levelo_inurba_marseille","lat":43.328373,"lon":5.366902,"is_reserved":false,"is_disabled":false,"rental_uris":{"android":"levelo://app?vid=38082c03-fac1-44d3-a79f-5142b4a113a9","ios":"levelo://app?vid=38082c03-fac1-44d3-a79f-5142b4a113a9"},"vehicle_type_id":"4","last_reported":1705774095,"current_range_meters":8800,"station_id":"ce4bhs92rcd13ifvqi0g","pricing_plan_id":"free"},{"bike_id":"a4ee1b65-9fed-4296-92bc-3eb622e4958f","system_id":"levelo_inurba_marseille","lat":43.31486,"lon":5.38867,"is_reserved":false,"is_disabled":false,"rental_uris":{"android":"levelo://app?vid=a4ee1b65-9fed-4296-92bc-3eb622e4958f","ios":"levelo://app?vid=a4ee1b65-9fed-4296-92bc-3eb622e4958f"},"vehicle_type_id":"4","last_reported":1705774095,"current_range_meters":13200,"station_id":"","pricing_plan_id":"free"},{"bike_id":"23f5f298-f75e-483f-8df4-e1d766b5be73","system_id":"levelo_inurba_marseille","lat":43.311722,"lon":5.387247,"is_reserved":false,"is_disabled":false,"rental_uris":{"android":"levelo://app?vid=23f5f298-f75e-483f-8df4-e1d766b5be73","ios":"levelo://app?vid=23f5f298-f75e-483f-8df4-e1d766b5be73"},"vehicle_type_id":"4","last_reported":1705774095,"current_range_meters":19600,"station_id":"ce4bgv12rcd13ifvqcp0","pricing_plan_id":"free"},{"bike_id":"60ac6f7a-a1b7-4f15-92a7-4bf5a59ec130","system_id":"levelo_inurba_marseille","lat":43.2968,"lon":5.37291,"is_reserved":false,"is_disabled":false,"rental_uris":{"android":"levelo://app?vid=60ac6f7a-a1b7-4f15-92a7-4bf5a59ec130","ios":"levelo://app?vid=60ac6f7a-a1b7-4f15-92a7-4bf5a59ec130"},"vehicle_type_id":"4","last_reported":1705774095,"current_range_meters":15200,"station_id":"ce4bgk12rcd13ifvqbj0","pricing_plan_id":"free"},{"bike_id":"cb2ed3e4-b9ef-43b9-96ab-49120161f3aa","system_id":"levelo_inurba_marseille","lat":43.2968,"lon":5.37291,"is_reserved":false,"is_disabled":false,"rental_uris":{"android":"levelo://app?vid=cb2ed3e4-b9ef-43b9-96ab-49120161f3aa","ios":"levelo://app?vid=cb2ed3e4-b9ef-43b9-96ab-49120161f3aa"},"vehicle_type_id":"4","last_reported":1705774095,"current_range_meters":28000,"station_id":"ce4bgk12rcd13ifvqbj0","pricing_plan_id":"free"},{"bike_id":"5840efa9-f56c-472f-a4ef-7573861b6e5c","system_id":"levelo_inurba_marseille","lat":43.29625,"lon":5.37152,"is_reserved":false,"is_disabled":false,"rental_uris":{"android":"levelo://app?vid=5840efa9-f56c-472f-a4ef-7573861b6e5c","ios":"levelo://app?vid=5840efa9-f56c-472f-a4ef-7573861b6e5c"},"vehicle_type_id":"4","last_reported":1705774095,"current_range_meters":0,"station_id":"ce4bgnh2rcd13ifvqc0g","pricing_plan_id":"free"},{"bike_id":"49ff5852-c05d-4919-98b5-803d6d8b4966","system_id":"levelo_inurba_marseille","lat":43.296129,"lon":5.370777,"is_reserved":false,"is_disabled":false,"rental_uris":{"android":"levelo://app?vid=49ff5852-c05d-4919-98b5-803d6d8b4966","ios":"levelo://app?vid=49ff5852-c05d-4919-98b5-803d6d8b4966"},"vehicle_type_id":"4","last_reported":1705774095,"current_range_meters":25600,"station_id":"ce4bgnh2rcd13ifvqc0g","pricing_plan_id":"free"},{"bike_id":"3ee55207-f503-45bf-9944-d9a387f2335c","system_id":"levelo_inurba_marseille","lat":43.296921,"lon":5.376579,"is_reserved":false,"is_disabled":false,"rental_uris":{"android":"levelo://app?vid=3ee55207-f503-45bf-9944-d9a387f2335c","ios":"levelo://app?vid=3ee55207-f503-45bf-9944-d9a387f2335c"},"vehicle_type_id":"4","last_reported":1705774095,"current_range_meters":3600,"station_id":"ce4bgkh2rcd13ifvqbl0","pricing_plan_id":"free"},{"bike_id":"38b41e7c-cd18-4c8e-85cf-689bba1bd859","system_id":"levelo_inurba_marseille","lat":43.309589,"lon":5.390258,"is_reserved":false,"is_disabled":false,"rental_uris":{"android":"levelo://app?vid=38b41e7c-cd18-4c8e-85cf-689bba1bd859","ios":"levelo://app?vid=38b41e7c-cd18-4c8e-85cf-689bba1bd859"},"vehicle_type_id":"4","last_reported":1705774095,"current_range_meters":1200,"station_id":"ce4bgup2rcd13ifvqco0","pricing_plan_id":"free"},{"bike_id":"eeef3d9d-2a4b-441a-b5bd-3c138f8abd9c","system_id":"levelo_inurba_marseille","lat":43.309589,"lon":5.390258,"is_reserved":false,"is_disabled":false,"rental_uris":{"android":"levelo://app?vid=eeef3d9d-2a4b-441a-b5bd-3c138f8abd9c","ios":"levelo://app?vid=eeef3d9d-2a4b-441a-b5bd-3c138f8abd9c"},"vehicle_type_id":"4","last_reported":1705774095,"current_range_meters":6400,"station_id":"ce4bgup2rcd13ifvqco0","pricing_plan_id":"free"},{"bike_id":"1747a2df-9fdd-4485-8c0a-008d957b61d7","system_id":"levelo_inurba_marseille","lat":43.317557,"lon":5.390173,"is_reserved":false,"is_disabled":false,"rental_uris":{"android":"levelo://app?vid=1747a2df-9fdd-4485-8c0a-008d957b61d7","ios":"levelo://app?vid=1747a2df-9fdd-4485-8c0a-008d957b61d7"},"vehicle_type_id":"4","last_reported":1705774095,"current_range_meters":30400,"station_id":"ce4bhqp2rcd13ifvqhng","pricing_plan_id":"free"},{"bike_id":"ed046c53-0016-4081-b5cf-dd0c5ffef192","system_id":"levelo_inurba_marseille","lat":43.298037,"lon":5.381066,"is_reserved":false,"is_disabled":false,"rental_uris":{"android":"levelo://app?vid=ed046c53-0016-4081-b5cf-dd0c5ffef192","ios":"levelo://app?vid=ed046c53-0016-4081-b5cf-dd0c5ffef192"},"vehicle_type_id":"4","last_reported":1705774095,"current_range_meters":10800,"station_id":"ce4bgip2rcd13ifvqbb0","pricing_plan_id":"free"},{"bike_id":"abc75d93-921f-4466-8f3f-be7b3ac102e3","system_id":"levelo_inurba_marseille","lat":43.295748,"lon":5.37522,"is_reserved":false,"is_disabled":false,"rental_uris":{"android":"levelo://app?vid=abc75d93-921f-4466-8f3f-be7b3ac102e3","ios":"levelo://app?vid=abc75d93-921f-4466-8f3f-be7b3ac102e3"},"vehicle_type_id":"4","last_reported":1705774095,"current_range_meters":5200,"station_id":"ce4bgh92rcd13ifvqb50","pricing_plan_id":"free"},{"bike_id":"8fd6d93a-66e8-4ef7-a92b-84c159cd39cc","system_id":"levelo_inurba_marseille","lat":43.298037,"lon":5.381066,"is_reserved":false,"is_disabled":false,"rental_uris":{"android":"levelo://app?vid=8fd6d93a-66e8-4ef7-a92b-84c159cd39cc","ios":"levelo://app?vid=8fd6d93a-66e8-4ef7-a92b-84c159cd39cc"},"vehicle_type_id":"4","last_reported":1705774095,"current_range_meters":3600,"station_id":"ce4bgip2rcd13ifvqbb0","pricing_plan_id":"free"},{"bike_id":"9894907a-bf25-4401-befc-06036e08ba7a","system_id":"levelo_inurba_marseille","lat":43.298037,"lon":5.381066,"is_reserved":false,"is_disabled":false,"rental_uris":{"android":"levelo://app?vid=9894907a-bf25-4401-befc-06036e08ba7a","ios":"levelo://app?vid=9894907a-bf25-4401-befc-06036e08ba7a"},"vehicle_type_id":"4","last_reported":1705774095,"current_range_meters":24800,"station_id":"ce4bgip2rcd13ifvqbb0","pricing_plan_id":"free"},{"bike_id":"16d6adf6-cab1-46c4-a999-2582dfabbe4e","system_id":"levelo_inurba_marseille","lat":43.298037,"lon":5.381066,"is_reserved":false,"is_disabled":false,"rental_uris":{"android":"levelo://app?vid=16d6adf6-cab1-46c4-a999-2582dfabbe4e","ios":"levelo://app?vid=16d6adf6-cab1-46c4-a999-2582dfabbe4e"},"vehicle_type_id":"4","last_reported":1705774095,"current_range_meters":8800,"station_id":"ce4bgip2rcd13ifvqbb0","pricing_plan_id":"free"},{"bike_id":"a1e97ed0-40dc-44bf-acba-33177dd486c3","system_id":"levelo_inurba_marseille","lat":43.298037,"lon":5.381066,"is_reserved":false,"is_disabled":false,"rental_uris":{"android":"levelo://app?vid=a1e97ed0-40dc-44bf-acba-33177dd486c3","ios":"levelo://app?vid=a1e97ed0-40dc-44bf-acba-33177dd486c3"},"vehicle_type_id":"4","last_reported":1705774095,"current_range_meters":10000,"station_id":"ce4bgip2rcd13ifvqbb0","pricing_plan_id":"free"},{"bike_id":"d8830dba-199d-47b1-bb42-a523c57cd358","system_id":"levelo_inurba_marseille","lat":43.298037,"lon":5.381066,"is_reserved":false,"is_disabled":false,"rental_uris":{"android":"levelo://app?vid=d8830dba-199d-47b1-bb42-a523c57cd358","ios":"levelo://app?vid=d8830dba-199d-47b1-bb42-a523c57cd358"},"vehicle_type_id":"4","last_reported":1705774095,"current_range_meters":7600,"station_id":"ce4bgip2rcd13ifvqbb0","pricing_plan_id":"free"},{"bike_id":"934f6395-5575-45e0-84ac-5ce22e1ffbc7","system_id":"levelo_inurba_marseille","lat":43.304274,"lon":5.388873,"is_reserved":false,"is_disabled":false,"rental_uris":{"android":"levelo://app?vid=934f6395-5575-45e0-84ac-5ce22e1ffbc7","ios":"levelo://app?vid=934f6395-5575-45e0-84ac-5ce22e1ffbc7"},"vehicle_type_id":"4","last_reported":1705774095,"current_range_meters":2000,"station_id":"ce4bgk12rcd13ifvqbi0","pricing_plan_id":"free"},{"bike_id":"18ef5aba-872d-481e-8948-4ddf1b60714d","system_id":"levelo_inurba_marseille","lat":43.304278,"lon":5.388868,"is_reserved":false,"is_disabled":false,"rental_uris":{"android":"levelo://app?vid=18ef5aba-872d-481e-8948-4ddf1b60714d","ios":"levelo://app?vid=18ef5aba-872d-481e-8948-4ddf1b60714d"},"vehicle_type_id":"4","last_reported":1705774095,"current_range_meters":19600,"station_id":"ce4bgk12rcd13ifvqbi0","pricing_plan_id":"free"},{"bike_id":"f6c04f9c-4053-4791-8708-1635a5251f75","system_id":"levelo_inurba_marseille","lat":43.296961,"lon":5.379071,"is_reserved":false,"is_disabled":false,"rental_uris":{"android":"levelo://app?vid=f6c04f9c-4053-4791-8708-1635a5251f75","ios":"levelo://app?vid=f6c04f9c-4053-4791-8708-1635a5251f75"},"vehicle_type_id":"4","last_reported":1705774095,"current_range_meters":6800,"station_id":"","pricing_plan_id":"free"},{"bike_id":"0281667d-33df-47ac-9292-4a4f63732c08","system_id":"levelo_inurba_marseille","lat":43.295748,"lon":5.37522,"is_reserved":false,"is_disabled":false,"rental_uris":{"android":"levelo://app?vid=0281667d-33df-47ac-9292-4a4f63732c08","ios":"levelo://app?vid=0281667d-33df-47ac-9292-4a4f63732c08"},"vehicle_type_id":"4","last_reported":1705774095,"current_range_meters":27200,"station_id":"ce4bgh92rcd13ifvqb50","pricing_plan_id":"free"},{"bike_id":"00123b23-56e6-4b1c-9f2a-4878bb23e166","system_id":"levelo_inurba_marseille","lat":43.30441,"lon":5.38901,"is_reserved":false,"is_disabled":false,"rental_uris":{"android":"levelo://app?vid=00123b23-56e6-4b1c-9f2a-4878bb23e166","ios":"levelo://app?vid=00123b23-56e6-4b1c-9f2a-4878bb23e166"},"vehicle_type_id":"4","last_reported":1705774095,"current_range_meters":0,"station_id":"ce4bgk12rcd13ifvqbi0","pricing_plan_id":"free"},{"bike_id":"aa21b014-b643-45f0-acdc-c97e7935d156","system_id":"levelo_inurba_marseille","lat":43.29981,"lon":5.38477,"is_reserved":false,"is_disabled":false,"rental_uris":{"android":"levelo://app?vid=aa21b014-b643-45f0-acdc-c97e7935d156","ios":"levelo://app?vid=aa21b014-b643-45f0-acdc-c97e7935d156"},"vehicle_type_id":"4","last_reported":1705774095,"current_range_meters":24800,"station_id":"ce4bgj92rcd13ifvqbd0","pricing_plan_id":"free"},{"bike_id":"a3c0f289-80ce-41e4-a2fc-06853fcbd2ea","system_id":"levelo_inurba_marseille","lat":43.295279,"lon":5.375048,"is_reserved":false,"is_disabled":false,"rental_uris":{"android":"levelo://app?vid=a3c0f289-80ce-41e4-a2fc-06853fcbd2ea","ios":"levelo://app?vid=a3c0f289-80ce-41e4-a2fc-06853fcbd2ea"},"vehicle_type_id":"4","last_reported":1705774095,"current_range_meters":10800,"station_id":"ce4bgkp2rcd13ifvqbmg","pricing_plan_id":"free"},{"bike_id":"96a2bda4-14b4-470a-a018-8a77bd8e4acc","system_id":"levelo_inurba_marseille","lat":43.29979,"lon":5.38491,"is_reserved":false,"is_disabled":false,"rental_uris":{"android":"levelo://app?vid=96a2bda4-14b4-470a-a018-8a77bd8e4acc","ios":"levelo://app?vid=96a2bda4-14b4-470a-a018-8a77bd8e4acc"},"vehicle_type_id":"4","last_reported":1705774095,"current_range_meters":28000,"station_id":"ce4bgj92rcd13ifvqbd0","pricing_plan_id":"free"},{"bike_id":"5fedf25f-471e-4011-90fe-af0fc9240b3a","system_id":"levelo_inurba_marseille","lat":43.295279,"lon":5.375048,"is_reserved":false,"is_disabled":false,"rental_uris":{"android":"levelo://app?vid=5fedf25f-471e-4011-90fe-af0fc9240b3a","ios":"levelo://app?vid=5fedf25f-471e-4011-90fe-af0fc9240b3a"},"vehicle_type_id":"4","last_reported":1705774095,"current_range_meters":0,"station_id":"ce4bgkp2rcd13ifvqbmg","pricing_plan_id":"free"},{"bike_id":"2fd9e08b-75ee-4350-8879-4f876657f21a","system_id":"levelo_inurba_marseille","lat":43.299707,"lon":5.384859,"is_reserved":false,"is_disabled":false,"rental_uris":{"android":"levelo://app?vid=2fd9e08b-75ee-4350-8879-4f876657f21a","ios":"levelo://app?vid=2fd9e08b-75ee-4350-8879-4f876657f21a"},"vehicle_type_id":"4","last_reported":1705774095,"current_range_meters":2000,"station_id":"ce4bgj92rcd13ifvqbd0","pricing_plan_id":"free"},{"bike_id":"0ab0eb43-6977-4ae4-ad5a-816a3c0661a4","system_id":"levelo_inurba_marseille","lat":43.295279,"lon":5.375048,"is_reserved":false,"is_disabled":false,"rental_uris":{"android":"levelo://app?vid=0ab0eb43-6977-4ae4-ad5a-816a3c0661a4","ios":"levelo://app?vid=0ab0eb43-6977-4ae4-ad5a-816a3c0661a4"},"vehicle_type_id":"4","last_reported":1705774095,"current_range_meters":400,"station_id":"ce4bgkp2rcd13ifvqbmg","pricing_plan_id":"free"},{"bike_id":"8ccb9a93-a7d5-4978-9834-694cd6b2df6a","system_id":"levelo_inurba_marseille","lat":43.299707,"lon":5.384859,"is_reserved":false,"is_disabled":false,"rental_uris":{"android":"levelo://app?vid=8ccb9a93-a7d5-4978-9834-694cd6b2df6a","ios":"levelo://app?vid=8ccb9a93-a7d5-4978-9834-694cd6b2df6a"},"vehicle_type_id":"4","last_reported":1705774095,"current_range_meters":14400,"station_id":"ce4bgj92rcd13ifvqbd0","pricing_plan_id":"free"},{"bike_id":"e091adf6-669a-4cd3-9c66-af16db9a4f76","system_id":"levelo_inurba_marseille","lat":43.299707,"lon":5.384859,"is_reserved":false,"is_disabled":false,"rental_uris":{"android":"levelo://app?vid=e091adf6-669a-4cd3-9c66-af16db9a4f76","ios":"levelo://app?vid=e091adf6-669a-4cd3-9c66-af16db9a4f76"},"vehicle_type_id":"4","last_reported":1705774095,"current_range_meters":14400,"station_id":"ce4bgj92rcd13ifvqbd0","pricing_plan_id":"free"},{"bike_id":"35b0c689-abdc-4395-abdb-e04a0d54153a","system_id":"levelo_inurba_marseille","lat":43.29973,"lon":5.38494,"is_reserved":false,"is_disabled":false,"rental_uris":{"android":"levelo://app?vid=35b0c689-abdc-4395-abdb-e04a0d54153a","ios":"levelo://app?vid=35b0c689-abdc-4395-abdb-e04a0d54153a"},"vehicle_type_id":"4","last_reported":1705774095,"current_range_meters":19200,"station_id":"ce4bgj92rcd13ifvqbd0","pricing_plan_id":"free"},{"bike_id":"4941334a-01d2-4f1a-9874-a7de8e074079","system_id":"levelo_inurba_marseille","lat":43.299697,"lon":5.384899,"is_reserved":false,"is_disabled":false,"rental_uris":{"android":"levelo://app?vid=4941334a-01d2-4f1a-9874-a7de8e074079","ios":"levelo://app?vid=4941334a-01d2-4f1a-9874-a7de8e074079"},"vehicle_type_id":"4","last_reported":1705774095,"current_range_meters":16000,"station_id":"ce4bgj92rcd13ifvqbd0","pricing_plan_id":"free"},{"bike_id":"a3a1b12d-7f15-44d7-b5bd-f6ae5c912964","system_id":"levelo_inurba_marseille","lat":43.29967,"lon":5.38495,"is_reserved":false,"is_disabled":false,"rental_uris":{"android":"levelo://app?vid=a3a1b12d-7f15-44d7-b5bd-f6ae5c912964","ios":"levelo://app?vid=a3a1b12d-7f15-44d7-b5bd-f6ae5c912964"},"vehicle_type_id":"4","last_reported":1705774095,"current_range_meters":12400,"station_id":"ce4bgj92rcd13ifvqbd0","pricing_plan_id":"free"},{"bike_id":"c76bc443-fb85-457d-a215-a6c9eceed3c8","system_id":"levelo_inurba_marseille","lat":43.299724,"lon":5.384848,"is_reserved":false,"is_disabled":false,"rental_uris":{"android":"levelo://app?vid=c76bc443-fb85-457d-a215-a6c9eceed3c8","ios":"levelo://app?vid=c76bc443-fb85-457d-a215-a6c9eceed3c8"},"vehicle_type_id":"4","last_reported":1705774095,"current_range_meters":1200,"station_id":"ce4bgj92rcd13ifvqbd0","pricing_plan_id":"free"},{"bike_id":"2d4db3e0-fbc7-464e-82f2-43aaa917b58e","system_id":"levelo_inurba_marseille","lat":43.29968,"lon":5.38498,"is_reserved":false,"is_disabled":false,"rental_uris":{"android":"levelo://app?vid=2d4db3e0-fbc7-464e-82f2-43aaa917b58e","ios":"levelo://app?vid=2d4db3e0-fbc7-464e-82f2-43aaa917b58e"},"vehicle_type_id":"4","last_reported":1705774095,"current_range_meters":7200,"station_id":"ce4bgj92rcd13ifvqbd0","pricing_plan_id":"free"},{"bike_id":"e62d67ca-1511-42e0-9c1c-b11991ffbd8b","system_id":"levelo_inurba_marseille","lat":43.299724,"lon":5.384848,"is_reserved":false,"is_disabled":false,"rental_uris":{"android":"levelo://app?vid=e62d67ca-1511-42e0-9c1c-b11991ffbd8b","ios":"levelo://app?vid=e62d67ca-1511-42e0-9c1c-b11991ffbd8b"},"vehicle_type_id":"4","last_reported":1705774095,"current_range_meters":13200,"station_id":"ce4bgj92rcd13ifvqbd0","pricing_plan_id":"free"},{"bike_id":"108f7943-348b-4267-a9f8-1bf0c58b4cfd","system_id":"levelo_inurba_marseille","lat":43.29962,"lon":5.38492,"is_reserved":false,"is_disabled":false,"rental_uris":{"android":"levelo://app?vid=108f7943-348b-4267-a9f8-1bf0c58b4cfd","ios":"levelo://app?vid=108f7943-348b-4267-a9f8-1bf0c58b4cfd"},"vehicle_type_id":"4","last_reported":1705774095,"current_range_meters":12000,"station_id":"ce4bgj92rcd13ifvqbd0","pricing_plan_id":"free"},{"bike_id":"126dc080-b62a-45e1-832b-dbb3a5ad73e8","system_id":"levelo_inurba_marseille","lat":43.299724,"lon":5.384848,"is_reserved":false,"is_disabled":false,"rental_uris":{"android":"levelo://app?vid=126dc080-b62a-45e1-832b-dbb3a5ad73e8","ios":"levelo://app?vid=126dc080-b62a-45e1-832b-dbb3a5ad73e8"},"vehicle_type_id":"4","last_reported":1705774095,"current_range_meters":10800,"station_id":"ce4bgj92rcd13ifvqbd0","pricing_plan_id":"free"},{"bike_id":"1d821130-0ce2-40a7-82b5-f2f9b8f1a87f","system_id":"levelo_inurba_marseille","lat":43.2951,"lon":5.37506,"is_reserved":false,"is_disabled":false,"rental_uris":{"android":"levelo://app?vid=1d821130-0ce2-40a7-82b5-f2f9b8f1a87f","ios":"levelo://app?vid=1d821130-0ce2-40a7-82b5-f2f9b8f1a87f"},"vehicle_type_id":"4","last_reported":1705774095,"current_range_meters":0,"station_id":"ce4bgkp2rcd13ifvqbmg","pricing_plan_id":"free"},{"bike_id":"e40a1ee4-2e68-4ad5-9ba6-a85dfafcd6c5","system_id":"levelo_inurba_marseille","lat":43.3237,"lon":5.38874,"is_reserved":false,"is_disabled":false,"rental_uris":{"android":"levelo://app?vid=e40a1ee4-2e68-4ad5-9ba6-a85dfafcd6c5","ios":"levelo://app?vid=e40a1ee4-2e68-4ad5-9ba6-a85dfafcd6c5"},"vehicle_type_id":"4","last_reported":1705774095,"current_range_meters":21600,"station_id":"ce4bhqp2rcd13ifvqhog","pricing_plan_id":"free"},{"bike_id":"2197b8c9-4cdb-4518-9b69-1b27d9704930","system_id":"levelo_inurba_marseille","lat":43.29602,"lon":5.381084,"is_reserved":false,"is_disabled":false,"rental_uris":{"android":"levelo://app?vid=2197b8c9-4cdb-4518-9b69-1b27d9704930","ios":"levelo://app?vid=2197b8c9-4cdb-4518-9b69-1b27d9704930"},"vehicle_type_id":"4","last_reported":1705774095,"current_range_meters":18400,"station_id":"ce4bgl12rcd13ifvqbo0","pricing_plan_id":"free"},{"bike_id":"92c418c4-d06f-4ed3-bbbc-0c1a3ed92598","system_id":"levelo_inurba_marseille","lat":43.293249,"lon":5.371578,"is_reserved":false,"is_disabled":false,"rental_uris":{"android":"levelo://app?vid=92c418c4-d06f-4ed3-bbbc-0c1a3ed92598","ios":"levelo://app?vid=92c418c4-d06f-4ed3-bbbc-0c1a3ed92598"},"vehicle_type_id":"4","last_reported":1705774095,"current_range_meters":14000,"station_id":"ce4bgh92rcd13ifvqb40","pricing_plan_id":"free"},{"bike_id":"2092e63b-3cfc-4400-bcac-2fedcb16d5a8","system_id":"levelo_inurba_marseille","lat":43.292749,"lon":5.368402,"is_reserved":false,"is_disabled":false,"rental_uris":{"android":"levelo://app?vid=2092e63b-3cfc-4400-bcac-2fedcb16d5a8","ios":"levelo://app?vid=2092e63b-3cfc-4400-bcac-2fedcb16d5a8"},"vehicle_type_id":"4","last_reported":1705774095,"current_range_meters":19200,"station_id":"ce4bhbp2rcd13ifvqesg","pricing_plan_id":"free"},{"bike_id":"001acc72-fded-47ea-ab3f-4d9742b029b1","system_id":"levelo_inurba_marseille","lat":43.293259,"lon":5.371586,"is_reserved":false,"is_disabled":false,"rental_uris":{"android":"levelo://app?vid=001acc72-fded-47ea-ab3f-4d9742b029b1","ios":"levelo://app?vid=001acc72-fded-47ea-ab3f-4d9742b029b1"},"vehicle_type_id":"4","last_reported":1705774095,"current_range_meters":5600,"station_id":"ce4bgh92rcd13ifvqb40","pricing_plan_id":"free"},{"bike_id":"a9cc878c-59bb-4d50-a5dc-a7faa01c65f8","system_id":"levelo_inurba_marseille","lat":43.293259,"lon":5.371586,"is_reserved":false,"is_disabled":false,"rental_uris":{"android":"levelo://app?vid=a9cc878c-59bb-4d50-a5dc-a7faa01c65f8","ios":"levelo://app?vid=a9cc878c-59bb-4d50-a5dc-a7faa01c65f8"},"vehicle_type_id":"4","last_reported":1705774095,"current_range_meters":3200,"station_id":"ce4bgh92rcd13ifvqb40","pricing_plan_id":"free"},{"bike_id":"e0aee33b-f3f5-4183-bb2d-387eb45372ea","system_id":"levelo_inurba_marseille","lat":43.292749,"lon":5.368402,"is_reserved":false,"is_disabled":false,"rental_uris":{"android":"levelo://app?vid=e0aee33b-f3f5-4183-bb2d-387eb45372ea","ios":"levelo://app?vid=e0aee33b-f3f5-4183-bb2d-387eb45372ea"},"vehicle_type_id":"4","last_reported":1705774095,"current_range_meters":29200,"station_id":"ce4bhbp2rcd13ifvqesg","pricing_plan_id":"free"},{"bike_id":"0b96234c-2701-4cfd-abb2-7bc9754e9885","system_id":"levelo_inurba_marseille","lat":43.293259,"lon":5.371586,"is_reserved":false,"is_disabled":false,"rental_uris":{"android":"levelo://app?vid=0b96234c-2701-4cfd-abb2-7bc9754e9885","ios":"levelo://app?vid=0b96234c-2701-4cfd-abb2-7bc9754e9885"},"vehicle_type_id":"4","last_reported":1705774095,"current_range_meters":8000,"station_id":"ce4bgh92rcd13ifvqb40","pricing_plan_id":"free"},{"bike_id":"b20b59a5-f175-4d97-a0d7-b7471b7d74a4","system_id":"levelo_inurba_marseille","lat":43.292749,"lon":5.368402,"is_reserved":false,"is_disabled":false,"rental_uris":{"android":"levelo://app?vid=b20b59a5-f175-4d97-a0d7-b7471b7d74a4","ios":"levelo://app?vid=b20b59a5-f175-4d97-a0d7-b7471b7d74a4"},"vehicle_type_id":"4","last_reported":1705774095,"current_range_meters":0,"station_id":"ce4bhbp2rcd13ifvqesg","pricing_plan_id":"free"},{"bike_id":"eb1b401e-4a79-48e2-8b32-319792d307bc","system_id":"levelo_inurba_marseille","lat":43.293259,"lon":5.371586,"is_reserved":false,"is_disabled":false,"rental_uris":{"android":"levelo://app?vid=eb1b401e-4a79-48e2-8b32-319792d307bc","ios":"levelo://app?vid=eb1b401e-4a79-48e2-8b32-319792d307bc"},"vehicle_type_id":"4","last_reported":1705774095,"current_range_meters":1200,"station_id":"ce4bgh92rcd13ifvqb40","pricing_plan_id":"free"},{"bike_id":"629b18a7-c4f3-4e53-9e14-3e91367e1b14","system_id":"levelo_inurba_marseille","lat":43.292749,"lon":5.368402,"is_reserved":false,"is_disabled":false,"rental_uris":{"android":"levelo://app?vid=629b18a7-c4f3-4e53-9e14-3e91367e1b14","ios":"levelo://app?vid=629b18a7-c4f3-4e53-9e14-3e91367e1b14"},"vehicle_type_id":"4","last_reported":1705774095,"current_range_meters":18800,"station_id":"ce4bhbp2rcd13ifvqesg","pricing_plan_id":"free"},{"bike_id":"cb06ac7d-1091-4b7d-bf2c-3e034624b59f","system_id":"levelo_inurba_marseille","lat":43.292749,"lon":5.368402,"is_reserved":false,"is_disabled":false,"rental_uris":{"android":"levelo://app?vid=cb06ac7d-1091-4b7d-bf2c-3e034624b59f","ios":"levelo://app?vid=cb06ac7d-1091-4b7d-bf2c-3e034624b59f"},"vehicle_type_id":"4","last_reported":1705774095,"current_range_meters":17600,"station_id":"ce4bhbp2rcd13ifvqesg","pricing_plan_id":"free"},{"bike_id":"781362a4-01a3-4ad9-aee3-af2540eea8f5","system_id":"levelo_inurba_marseille","lat":43.293009,"lon":5.374584,"is_reserved":false,"is_disabled":false,"rental_uris":{"android":"levelo://app?vid=781362a4-01a3-4ad9-aee3-af2540eea8f5","ios":"levelo://app?vid=781362a4-01a3-4ad9-aee3-af2540eea8f5"},"vehicle_type_id":"4","last_reported":1705774095,"current_range_meters":0,"station_id":"ce4bgi12rcd13ifvqb70","pricing_plan_id":"free"},{"bike_id":"2a0ef769-857a-41c8-8c54-3594259dd169","system_id":"levelo_inurba_marseille","lat":43.292311,"lon":5.360731,"is_reserved":false,"is_disabled":false,"rental_uris":{"android":"levelo://app?vid=2a0ef769-857a-41c8-8c54-3594259dd169","ios":"levelo://app?vid=2a0ef769-857a-41c8-8c54-3594259dd169"},"vehicle_type_id":"4","last_reported":1705774095,"current_range_meters":10000,"station_id":"ce4bhbh2rcd13ifvqeqg","pricing_plan_id":"free"},{"bike_id":"9df15039-a26d-4bd4-ba4f-9b95bc199097","system_id":"levelo_inurba_marseille","lat":43.298764,"lon":5.388973,"is_reserved":false,"is_disabled":false,"rental_uris":{"android":"levelo://app?vid=9df15039-a26d-4bd4-ba4f-9b95bc199097","ios":"levelo://app?vid=9df15039-a26d-4bd4-ba4f-9b95bc199097"},"vehicle_type_id":"4","last_reported":1705774095,"current_range_meters":19200,"station_id":"ce4bh392rcd13ifvqdl0","pricing_plan_id":"free"},{"bike_id":"f882662b-9cd4-40e6-8a3a-de092f6f27fb","system_id":"levelo_inurba_marseille","lat":43.298764,"lon":5.388973,"is_reserved":false,"is_disabled":false,"rental_uris":{"android":"levelo://app?vid=f882662b-9cd4-40e6-8a3a-de092f6f27fb","ios":"levelo://app?vid=f882662b-9cd4-40e6-8a3a-de092f6f27fb"},"vehicle_type_id":"4","last_reported":1705774095,"current_range_meters":12800,"station_id":"ce4bh392rcd13ifvqdl0","pricing_plan_id":"free"},{"bike_id":"2d209362-4b49-4b5d-b06f-c08c3c59e92f","system_id":"levelo_inurba_marseille","lat":43.291675,"lon":5.371583,"is_reserved":false,"is_disabled":false,"rental_uris":{"android":"levelo://app?vid=2d209362-4b49-4b5d-b06f-c08c3c59e92f","ios":"levelo://app?vid=2d209362-4b49-4b5d-b06f-c08c3c59e92f"},"vehicle_type_id":"4","last_reported":1705774095,"current_range_meters":24000,"station_id":"ce4bha92rcd13ifvqeh0","pricing_plan_id":"free"},{"bike_id":"ac484f2d-5d6a-4e50-aa19-0ffd0043ca49","system_id":"levelo_inurba_marseille","lat":43.291675,"lon":5.371583,"is_reserved":false,"is_disabled":false,"rental_uris":{"android":"levelo://app?vid=ac484f2d-5d6a-4e50-aa19-0ffd0043ca49","ios":"levelo://app?vid=ac484f2d-5d6a-4e50-aa19-0ffd0043ca49"},"vehicle_type_id":"4","last_reported":1705774095,"current_range_meters":22400,"station_id":"ce4bha92rcd13ifvqeh0","pricing_plan_id":"free"},{"bike_id":"01d89346-56a3-45c5-a071-98543870c2fc","system_id":"levelo_inurba_marseille","lat":43.28727,"lon":5.36078,"is_reserved":false,"is_disabled":false,"rental_uris":{"android":"levelo://app?vid=01d89346-56a3-45c5-a071-98543870c2fc","ios":"levelo://app?vid=01d89346-56a3-45c5-a071-98543870c2fc"},"vehicle_type_id":"4","last_reported":1705774095,"current_range_meters":25600,"station_id":"cki0cbj6b192h4jlfktg","pricing_plan_id":"free"},{"bike_id":"718f4a7b-d2ba-4cbc-b148-98159f6a5e68","system_id":"levelo_inurba_marseille","lat":43.313291,"lon":5.396838,"is_reserved":false,"is_disabled":false,"rental_uris":{"android":"levelo://app?vid=718f4a7b-d2ba-4cbc-b148-98159f6a5e68","ios":"levelo://app?vid=718f4a7b-d2ba-4cbc-b148-98159f6a5e68"},"vehicle_type_id":"4","last_reported":1705774095,"current_range_meters":9200,"station_id":"ce4bgvp2rcd13ifvqcu0","pricing_plan_id":"free"},{"bike_id":"6af2b360-c9fe-4640-8b6e-2bdcb133d086","system_id":"levelo_inurba_marseille","lat":43.30885,"lon":5.39641,"is_reserved":false,"is_disabled":false,"rental_uris":{"android":"levelo://app?vid=6af2b360-c9fe-4640-8b6e-2bdcb133d086","ios":"levelo://app?vid=6af2b360-c9fe-4640-8b6e-2bdcb133d086"},"vehicle_type_id":"4","last_reported":1705774095,"current_range_meters":21200,"station_id":"ce4bh012rcd13ifvqcv0","pricing_plan_id":"free"},{"bike_id":"9161f138-e6c0-4c7b-b034-f57363e80083","system_id":"levelo_inurba_marseille","lat":43.313291,"lon":5.396838,"is_reserved":false,"is_disabled":false,"rental_uris":{"android":"levelo://app?vid=9161f138-e6c0-4c7b-b034-f57363e80083","ios":"levelo://app?vid=9161f138-e6c0-4c7b-b034-f57363e80083"},"vehicle_type_id":"4","last_reported":1705774095,"current_range_meters":20400,"station_id":"ce4bgvp2rcd13ifvqcu0","pricing_plan_id":"free"},{"bike_id":"ca17ef3e-8aa0-4260-92dd-1bbb34465967","system_id":"levelo_inurba_marseille","lat":43.313291,"lon":5.396838,"is_reserved":false,"is_disabled":false,"rental_uris":{"android":"levelo://app?vid=ca17ef3e-8aa0-4260-92dd-1bbb34465967","ios":"levelo://app?vid=ca17ef3e-8aa0-4260-92dd-1bbb34465967"},"vehicle_type_id":"4","last_reported":1705774095,"current_range_meters":7600,"station_id":"ce4bgvp2rcd13ifvqcu0","pricing_plan_id":"free"},{"bike_id":"350f22fb-31fb-4ace-8823-db00af11b493","system_id":"levelo_inurba_marseille","lat":43.313291,"lon":5.396838,"is_reserved":false,"is_disabled":false,"rental_uris":{"android":"levelo://app?vid=350f22fb-31fb-4ace-8823-db00af11b493","ios":"levelo://app?vid=350f22fb-31fb-4ace-8823-db00af11b493"},"vehicle_type_id":"4","last_reported":1705774095,"current_range_meters":24000,"station_id":"ce4bgvp2rcd13ifvqcu0","pricing_plan_id":"free"},{"bike_id":"264699ed-0d7a-4c68-bf9b-da34121270bf","system_id":"levelo_inurba_marseille","lat":43.30881,"lon":5.39655,"is_reserved":false,"is_disabled":false,"rental_uris":{"android":"levelo://app?vid=264699ed-0d7a-4c68-bf9b-da34121270bf","ios":"levelo://app?vid=264699ed-0d7a-4c68-bf9b-da34121270bf"},"vehicle_type_id":"4","last_reported":1705774095,"current_range_meters":0,"station_id":"ce4bh012rcd13ifvqcv0","pricing_plan_id":"free"},{"bike_id":"3ab84d34-070f-4978-9085-85371e314ace","system_id":"levelo_inurba_marseille","lat":43.29529,"lon":5.385581,"is_reserved":false,"is_disabled":false,"rental_uris":{"android":"levelo://app?vid=3ab84d34-070f-4978-9085-85371e314ace","ios":"levelo://app?vid=3ab84d34-070f-4978-9085-85371e314ace"},"vehicle_type_id":"4","last_reported":1705774095,"current_range_meters":6800,"station_id":"ce4bgih2rcd13ifvqba0","pricing_plan_id":"free"},{"bike_id":"d447e559-c129-4df8-bce6-a631556945a6","system_id":"levelo_inurba_marseille","lat":43.29529,"lon":5.385581,"is_reserved":false,"is_disabled":false,"rental_uris":{"android":"levelo://app?vid=d447e559-c129-4df8-bce6-a631556945a6","ios":"levelo://app?vid=d447e559-c129-4df8-bce6-a631556945a6"},"vehicle_type_id":"4","last_reported":1705774095,"current_range_meters":12400,"station_id":"ce4bgih2rcd13ifvqba0","pricing_plan_id":"free"},{"bike_id":"100d4291-0183-4ba1-8b92-81259cc85ddc","system_id":"levelo_inurba_marseille","lat":43.29529,"lon":5.385581,"is_reserved":false,"is_disabled":false,"rental_uris":{"android":"levelo://app?vid=100d4291-0183-4ba1-8b92-81259cc85ddc","ios":"levelo://app?vid=100d4291-0183-4ba1-8b92-81259cc85ddc"},"vehicle_type_id":"4","last_reported":1705774095,"current_range_meters":24000,"station_id":"ce4bgih2rcd13ifvqba0","pricing_plan_id":"free"},{"bike_id":"ff9e52f9-d436-4d13-a634-3c6c04c4f1e4","system_id":"levelo_inurba_marseille","lat":43.29529,"lon":5.385581,"is_reserved":false,"is_disabled":false,"rental_uris":{"android":"levelo://app?vid=ff9e52f9-d436-4d13-a634-3c6c04c4f1e4","ios":"levelo://app?vid=ff9e52f9-d436-4d13-a634-3c6c04c4f1e4"},"vehicle_type_id":"4","last_reported":1705774095,"current_range_meters":4000,"station_id":"ce4bgih2rcd13ifvqba0","pricing_plan_id":"free"},{"bike_id":"45318ff3-7044-49ff-95a2-4f822a26333c","system_id":"levelo_inurba_marseille","lat":43.29529,"lon":5.385581,"is_reserved":false,"is_disabled":false,"rental_uris":{"android":"levelo://app?vid=45318ff3-7044-49ff-95a2-4f822a26333c","ios":"levelo://app?vid=45318ff3-7044-49ff-95a2-4f822a26333c"},"vehicle_type_id":"4","last_reported":1705774095,"current_range_meters":2000,"station_id":"ce4bgih2rcd13ifvqba0","pricing_plan_id":"free"},{"bike_id":"23f0ecee-792f-4630-8428-e4ff043d23f6","system_id":"levelo_inurba_marseille","lat":43.29529,"lon":5.385581,"is_reserved":false,"is_disabled":false,"rental_uris":{"android":"levelo://app?vid=23f0ecee-792f-4630-8428-e4ff043d23f6","ios":"levelo://app?vid=23f0ecee-792f-4630-8428-e4ff043d23f6"},"vehicle_type_id":"4","last_reported":1705774095,"current_range_meters":15200,"station_id":"ce4bgih2rcd13ifvqba0","pricing_plan_id":"free"},{"bike_id":"3163d038-d44f-452f-b53b-f68cb7bc8c17","system_id":"levelo_inurba_marseille","lat":43.29529,"lon":5.385581,"is_reserved":false,"is_disabled":false,"rental_uris":{"android":"levelo://app?vid=3163d038-d44f-452f-b53b-f68cb7bc8c17","ios":"levelo://app?vid=3163d038-d44f-452f-b53b-f68cb7bc8c17"},"vehicle_type_id":"4","last_reported":1705774095,"current_range_meters":26800,"station_id":"ce4bgih2rcd13ifvqba0","pricing_plan_id":"free"},{"bike_id":"776b876a-e072-4c5e-bd65-4b5e11553d96","system_id":"levelo_inurba_marseille","lat":43.29529,"lon":5.385581,"is_reserved":false,"is_disabled":false,"rental_uris":{"android":"levelo://app?vid=776b876a-e072-4c5e-bd65-4b5e11553d96","ios":"levelo://app?vid=776b876a-e072-4c5e-bd65-4b5e11553d96"},"vehicle_type_id":"4","last_reported":1705774095,"current_range_meters":10400,"station_id":"ce4bgih2rcd13ifvqba0","pricing_plan_id":"free"},{"bike_id":"ced8ce17-d598-4eb2-86f5-d82a7b9ddf3a","system_id":"levelo_inurba_marseille","lat":43.290779,"lon":5.371482,"is_reserved":false,"is_disabled":false,"rental_uris":{"android":"levelo://app?vid=ced8ce17-d598-4eb2-86f5-d82a7b9ddf3a","ios":"levelo://app?vid=ced8ce17-d598-4eb2-86f5-d82a7b9ddf3a"},"vehicle_type_id":"4","last_reported":1705774095,"current_range_meters":10800,"station_id":"ce4bh5p2rcd13ifvqe4g","pricing_plan_id":"free"},{"bike_id":"55e3031c-d5ce-4d6f-9149-0b41d20a46c7","system_id":"levelo_inurba_marseille","lat":43.290779,"lon":5.371482,"is_reserved":false,"is_disabled":false,"rental_uris":{"android":"levelo://app?vid=55e3031c-d5ce-4d6f-9149-0b41d20a46c7","ios":"levelo://app?vid=55e3031c-d5ce-4d6f-9149-0b41d20a46c7"},"vehicle_type_id":"4","last_reported":1705774095,"current_range_meters":16000,"station_id":"ce4bh5p2rcd13ifvqe4g","pricing_plan_id":"free"},{"bike_id":"676fd86d-7b45-4349-96a0-28b909d20859","system_id":"levelo_inurba_marseille","lat":43.290779,"lon":5.371482,"is_reserved":false,"is_disabled":false,"rental_uris":{"android":"levelo://app?vid=676fd86d-7b45-4349-96a0-28b909d20859","ios":"levelo://app?vid=676fd86d-7b45-4349-96a0-28b909d20859"},"vehicle_type_id":"4","last_reported":1705774095,"current_range_meters":32000,"station_id":"ce4bh5p2rcd13ifvqe4g","pricing_plan_id":"free"},{"bike_id":"cea6baab-bcae-4cc7-b20c-9d1bee8897c4","system_id":"levelo_inurba_marseille","lat":43.290779,"lon":5.371482,"is_reserved":false,"is_disabled":false,"rental_uris":{"android":"levelo://app?vid=cea6baab-bcae-4cc7-b20c-9d1bee8897c4","ios":"levelo://app?vid=cea6baab-bcae-4cc7-b20c-9d1bee8897c4"},"vehicle_type_id":"4","last_reported":1705774095,"current_range_meters":14800,"station_id":"ce4bh5p2rcd13ifvqe4g","pricing_plan_id":"free"},{"bike_id":"804a39a0-5e60-4ec1-859f-d360dfbb0ce0","system_id":"levelo_inurba_marseille","lat":43.290779,"lon":5.371482,"is_reserved":false,"is_disabled":false,"rental_uris":{"android":"levelo://app?vid=804a39a0-5e60-4ec1-859f-d360dfbb0ce0","ios":"levelo://app?vid=804a39a0-5e60-4ec1-859f-d360dfbb0ce0"},"vehicle_type_id":"4","last_reported":1705774095,"current_range_meters":20400,"station_id":"ce4bh5p2rcd13ifvqe4g","pricing_plan_id":"free"},{"bike_id":"b908267d-8fe7-40a7-92b4-2345cd2f8552","system_id":"levelo_inurba_marseille","lat":43.302008,"lon":5.394694,"is_reserved":false,"is_disabled":false,"rental_uris":{"android":"levelo://app?vid=b908267d-8fe7-40a7-92b4-2345cd2f8552","ios":"levelo://app?vid=b908267d-8fe7-40a7-92b4-2345cd2f8552"},"vehicle_type_id":"4","last_reported":1705774095,"current_range_meters":16400,"station_id":"ce4bh0p2rcd13ifvqd70","pricing_plan_id":"free"},{"bike_id":"09e64051-61f9-4985-91ca-d2972abe7cae","system_id":"levelo_inurba_marseille","lat":43.302008,"lon":5.394694,"is_reserved":false,"is_disabled":false,"rental_uris":{"android":"levelo://app?vid=09e64051-61f9-4985-91ca-d2972abe7cae","ios":"levelo://app?vid=09e64051-61f9-4985-91ca-d2972abe7cae"},"vehicle_type_id":"4","last_reported":1705774095,"current_range_meters":22400,"station_id":"ce4bh0p2rcd13ifvqd70","pricing_plan_id":"free"},{"bike_id":"ab4f4945-dd3a-4c46-ab27-b6b8863e0ded","system_id":"levelo_inurba_marseille","lat":43.302008,"lon":5.394694,"is_reserved":false,"is_disabled":false,"rental_uris":{"android":"levelo://app?vid=ab4f4945-dd3a-4c46-ab27-b6b8863e0ded","ios":"levelo://app?vid=ab4f4945-dd3a-4c46-ab27-b6b8863e0ded"},"vehicle_type_id":"4","last_reported":1705774095,"current_range_meters":24800,"station_id":"ce4bh0p2rcd13ifvqd70","pricing_plan_id":"free"},{"bike_id":"a1b633b9-fd45-493b-82ae-38c85a5ac1ee","system_id":"levelo_inurba_marseille","lat":43.290624,"lon":5.359245,"is_reserved":false,"is_disabled":false,"rental_uris":{"android":"levelo://app?vid=a1b633b9-fd45-493b-82ae-38c85a5ac1ee","ios":"levelo://app?vid=a1b633b9-fd45-493b-82ae-38c85a5ac1ee"},"vehicle_type_id":"4","last_reported":1705774095,"current_range_meters":14000,"station_id":"ce4bha92rcd13ifvqeg0","pricing_plan_id":"free"},{"bike_id":"f3b6ccab-979d-47a1-a0bb-016d203725bb","system_id":"levelo_inurba_marseille","lat":43.290631,"lon":5.359244,"is_reserved":false,"is_disabled":false,"rental_uris":{"android":"levelo://app?vid=f3b6ccab-979d-47a1-a0bb-016d203725bb","ios":"levelo://app?vid=f3b6ccab-979d-47a1-a0bb-016d203725bb"},"vehicle_type_id":"4","last_reported":1705774095,"current_range_meters":2400,"station_id":"ce4bha92rcd13ifvqeg0","pricing_plan_id":"free"},{"bike_id":"06a567c5-a375-40b9-b251-b24038f61365","system_id":"levelo_inurba_marseille","lat":43.29431,"lon":5.3863,"is_reserved":false,"is_disabled":false,"rental_uris":{"android":"levelo://app?vid=06a567c5-a375-40b9-b251-b24038f61365","ios":"levelo://app?vid=06a567c5-a375-40b9-b251-b24038f61365"},"vehicle_type_id":"4","last_reported":1705774095,"current_range_meters":0,"station_id":"ce4bh2h2rcd13ifvqdh0","pricing_plan_id":"free"},{"bike_id":"eb34e74f-d237-4830-831b-87a0c643cfec","system_id":"levelo_inurba_marseille","lat":43.294153,"lon":5.386305,"is_reserved":false,"is_disabled":false,"rental_uris":{"android":"levelo://app?vid=eb34e74f-d237-4830-831b-87a0c643cfec","ios":"levelo://app?vid=eb34e74f-d237-4830-831b-87a0c643cfec"},"vehicle_type_id":"4","last_reported":1705774095,"current_range_meters":11200,"station_id":"ce4bh2h2rcd13ifvqdh0","pricing_plan_id":"free"},{"bike_id":"71a2eed9-ca85-4bf7-adc0-9016dbb76473","system_id":"levelo_inurba_marseille","lat":43.294153,"lon":5.386305,"is_reserved":false,"is_disabled":false,"rental_uris":{"android":"levelo://app?vid=71a2eed9-ca85-4bf7-adc0-9016dbb76473","ios":"levelo://app?vid=71a2eed9-ca85-4bf7-adc0-9016dbb76473"},"vehicle_type_id":"4","last_reported":1705774095,"current_range_meters":10000,"station_id":"ce4bh2h2rcd13ifvqdh0","pricing_plan_id":"free"},{"bike_id":"0439bd8e-ead1-445d-ab47-1a0c42cb8060","system_id":"levelo_inurba_marseille","lat":43.294153,"lon":5.386305,"is_reserved":false,"is_disabled":false,"rental_uris":{"android":"levelo://app?vid=0439bd8e-ead1-445d-ab47-1a0c42cb8060","ios":"levelo://app?vid=0439bd8e-ead1-445d-ab47-1a0c42cb8060"},"vehicle_type_id":"4","last_reported":1705774095,"current_range_meters":18000,"station_id":"ce4bh2h2rcd13ifvqdh0","pricing_plan_id":"free"},{"bike_id":"40061d23-e485-4ee8-954f-f0b6102cf859","system_id":"levelo_inurba_marseille","lat":43.294153,"lon":5.386305,"is_reserved":false,"is_disabled":false,"rental_uris":{"android":"levelo://app?vid=40061d23-e485-4ee8-954f-f0b6102cf859","ios":"levelo://app?vid=40061d23-e485-4ee8-954f-f0b6102cf859"},"vehicle_type_id":"4","last_reported":1705774095,"current_range_meters":2400,"station_id":"ce4bh2h2rcd13ifvqdh0","pricing_plan_id":"free"},{"bike_id":"dc43ca22-f294-44f1-be3c-1781ddae2a7c","system_id":"levelo_inurba_marseille","lat":43.29416,"lon":5.38622,"is_reserved":false,"is_disabled":false,"rental_uris":{"android":"levelo://app?vid=dc43ca22-f294-44f1-be3c-1781ddae2a7c","ios":"levelo://app?vid=dc43ca22-f294-44f1-be3c-1781ddae2a7c"},"vehicle_type_id":"4","last_reported":1705774095,"current_range_meters":13600,"station_id":"ce4bh2h2rcd13ifvqdh0","pricing_plan_id":"free"},{"bike_id":"99616dff-460b-4b2e-98c3-a3427ae12ba5","system_id":"levelo_inurba_marseille","lat":43.294153,"lon":5.386305,"is_reserved":false,"is_disabled":false,"rental_uris":{"android":"levelo://app?vid=99616dff-460b-4b2e-98c3-a3427ae12ba5","ios":"levelo://app?vid=99616dff-460b-4b2e-98c3-a3427ae12ba5"},"vehicle_type_id":"4","last_reported":1705774095,"current_range_meters":18800,"station_id":"ce4bh2h2rcd13ifvqdh0","pricing_plan_id":"free"},{"bike_id":"5cbc1c31-19c0-4eea-ba5e-c969c4f5ae37","system_id":"levelo_inurba_marseille","lat":43.29416,"lon":5.38624,"is_reserved":false,"is_disabled":false,"rental_uris":{"android":"levelo://app?vid=5cbc1c31-19c0-4eea-ba5e-c969c4f5ae37","ios":"levelo://app?vid=5cbc1c31-19c0-4eea-ba5e-c969c4f5ae37"},"vehicle_type_id":"4","last_reported":1705774095,"current_range_meters":7200,"station_id":"ce4bh2h2rcd13ifvqdh0","pricing_plan_id":"free"},{"bike_id":"6773d709-dbb1-461e-9b78-00775d1a74c9","system_id":"levelo_inurba_marseille","lat":43.29414,"lon":5.3863,"is_reserved":false,"is_disabled":false,"rental_uris":{"android":"levelo://app?vid=6773d709-dbb1-461e-9b78-00775d1a74c9","ios":"levelo://app?vid=6773d709-dbb1-461e-9b78-00775d1a74c9"},"vehicle_type_id":"4","last_reported":1705774095,"current_range_meters":14800,"station_id":"ce4bh2h2rcd13ifvqdh0","pricing_plan_id":"free"},{"bike_id":"a6debc0c-5466-479d-92af-082cc9973698","system_id":"levelo_inurba_marseille","lat":43.289184,"lon":5.366408,"is_reserved":false,"is_disabled":false,"rental_uris":{"android":"levelo://app?vid=a6debc0c-5466-479d-92af-082cc9973698","ios":"levelo://app?vid=a6debc0c-5466-479d-92af-082cc9973698"},"vehicle_type_id":"4","last_reported":1705774095,"current_range_meters":8000,"station_id":"ce4bhap2rcd13ifvqek0","pricing_plan_id":"free"},{"bike_id":"67e4cde1-4cee-41e8-a0f0-3a9ee8b59d5d","system_id":"levelo_inurba_marseille","lat":43.294153,"lon":5.386305,"is_reserved":false,"is_disabled":false,"rental_uris":{"android":"levelo://app?vid=67e4cde1-4cee-41e8-a0f0-3a9ee8b59d5d","ios":"levelo://app?vid=67e4cde1-4cee-41e8-a0f0-3a9ee8b59d5d"},"vehicle_type_id":"4","last_reported":1705774095,"current_range_meters":14000,"station_id":"ce4bh2h2rcd13ifvqdh0","pricing_plan_id":"free"},{"bike_id":"a0811e8b-051b-4397-b56a-440189a5dbdf","system_id":"levelo_inurba_marseille","lat":43.29413,"lon":5.3863,"is_reserved":false,"is_disabled":false,"rental_uris":{"android":"levelo://app?vid=a0811e8b-051b-4397-b56a-440189a5dbdf","ios":"levelo://app?vid=a0811e8b-051b-4397-b56a-440189a5dbdf"},"vehicle_type_id":"4","last_reported":1705774095,"current_range_meters":21200,"station_id":"ce4bh2h2rcd13ifvqdh0","pricing_plan_id":"free"},{"bike_id":"0d26860d-9a96-400f-afa7-651fd9dbe70b","system_id":"levelo_inurba_marseille","lat":43.304296,"lon":5.397513,"is_reserved":false,"is_disabled":false,"rental_uris":{"android":"levelo://app?vid=0d26860d-9a96-400f-afa7-651fd9dbe70b","ios":"levelo://app?vid=0d26860d-9a96-400f-afa7-651fd9dbe70b"},"vehicle_type_id":"4","last_reported":1705774095,"current_range_meters":8400,"station_id":"ce4bh092rcd13ifvqd20","pricing_plan_id":"free"},{"bike_id":"7b5a115c-c3a3-4ceb-bfee-96d889d95199","system_id":"levelo_inurba_marseille","lat":43.292644,"lon":5.384257,"is_reserved":false,"is_disabled":false,"rental_uris":{"android":"levelo://app?vid=7b5a115c-c3a3-4ceb-bfee-96d889d95199","ios":"levelo://app?vid=7b5a115c-c3a3-4ceb-bfee-96d889d95199"},"vehicle_type_id":"4","last_reported":1705774095,"current_range_meters":5600,"station_id":"ce4bh692rcd13ifvqea0","pricing_plan_id":"free"},{"bike_id":"35ad87a2-ec55-401f-ad84-52d2cd9f5c49","system_id":"levelo_inurba_marseille","lat":43.292644,"lon":5.384257,"is_reserved":false,"is_disabled":false,"rental_uris":{"android":"levelo://app?vid=35ad87a2-ec55-401f-ad84-52d2cd9f5c49","ios":"levelo://app?vid=35ad87a2-ec55-401f-ad84-52d2cd9f5c49"},"vehicle_type_id":"4","last_reported":1705774095,"current_range_meters":12000,"station_id":"ce4bh692rcd13ifvqea0","pricing_plan_id":"free"},{"bike_id":"b4d7ffb1-c921-44da-bae7-91b28d2b717b","system_id":"levelo_inurba_marseille","lat":43.292644,"lon":5.384257,"is_reserved":false,"is_disabled":false,"rental_uris":{"android":"levelo://app?vid=b4d7ffb1-c921-44da-bae7-91b28d2b717b","ios":"levelo://app?vid=b4d7ffb1-c921-44da-bae7-91b28d2b717b"},"vehicle_type_id":"4","last_reported":1705774095,"current_range_meters":13200,"station_id":"ce4bh692rcd13ifvqea0","pricing_plan_id":"free"},{"bike_id":"8e478361-8555-4807-b564-f5d5357a20f6","system_id":"levelo_inurba_marseille","lat":43.292644,"lon":5.384257,"is_reserved":false,"is_disabled":false,"rental_uris":{"android":"levelo://app?vid=8e478361-8555-4807-b564-f5d5357a20f6","ios":"levelo://app?vid=8e478361-8555-4807-b564-f5d5357a20f6"},"vehicle_type_id":"4","last_reported":1705774095,"current_range_meters":16800,"station_id":"ce4bh692rcd13ifvqea0","pricing_plan_id":"free"},{"bike_id":"64da1cf2-c33b-4eec-8c4c-6533fad64ad1","system_id":"levelo_inurba_marseille","lat":43.29265,"lon":5.38451,"is_reserved":false,"is_disabled":false,"rental_uris":{"android":"levelo://app?vid=64da1cf2-c33b-4eec-8c4c-6533fad64ad1","ios":"levelo://app?vid=64da1cf2-c33b-4eec-8c4c-6533fad64ad1"},"vehicle_type_id":"4","last_reported":1705774095,"current_range_meters":0,"station_id":"ce4bh692rcd13ifvqea0","pricing_plan_id":"free"},{"bike_id":"5704607a-d303-48a5-b07f-526a9e510885","system_id":"levelo_inurba_marseille","lat":43.292642,"lon":5.384254,"is_reserved":false,"is_disabled":false,"rental_uris":{"android":"levelo://app?vid=5704607a-d303-48a5-b07f-526a9e510885","ios":"levelo://app?vid=5704607a-d303-48a5-b07f-526a9e510885"},"vehicle_type_id":"4","last_reported":1705774095,"current_range_meters":18000,"station_id":"ce4bh692rcd13ifvqea0","pricing_plan_id":"free"},{"bike_id":"c7941bcd-dfd6-43f3-9c55-496e019d5750","system_id":"levelo_inurba_marseille","lat":43.292642,"lon":5.384254,"is_reserved":false,"is_disabled":false,"rental_uris":{"android":"levelo://app?vid=c7941bcd-dfd6-43f3-9c55-496e019d5750","ios":"levelo://app?vid=c7941bcd-dfd6-43f3-9c55-496e019d5750"},"vehicle_type_id":"4","last_reported":1705774095,"current_range_meters":14800,"station_id":"ce4bh692rcd13ifvqea0","pricing_plan_id":"free"},{"bike_id":"8fe0d050-22d8-406a-af28-fd2eca073649","system_id":"levelo_inurba_marseille","lat":43.292644,"lon":5.384257,"is_reserved":false,"is_disabled":false,"rental_uris":{"android":"levelo://app?vid=8fe0d050-22d8-406a-af28-fd2eca073649","ios":"levelo://app?vid=8fe0d050-22d8-406a-af28-fd2eca073649"},"vehicle_type_id":"4","last_reported":1705774095,"current_range_meters":400,"station_id":"ce4bh692rcd13ifvqea0","pricing_plan_id":"free"},{"bike_id":"b59e42f0-0574-47d9-a572-c4d5b0b8aa3e","system_id":"levelo_inurba_marseille","lat":43.292642,"lon":5.384254,"is_reserved":false,"is_disabled":false,"rental_uris":{"android":"levelo://app?vid=b59e42f0-0574-47d9-a572-c4d5b0b8aa3e","ios":"levelo://app?vid=b59e42f0-0574-47d9-a572-c4d5b0b8aa3e"},"vehicle_type_id":"4","last_reported":1705774095,"current_range_meters":6400,"station_id":"ce4bh692rcd13ifvqea0","pricing_plan_id":"free"},{"bike_id":"91fab5ef-a35c-4615-bd68-d012ded2ac76","system_id":"levelo_inurba_marseille","lat":43.292644,"lon":5.384257,"is_reserved":false,"is_disabled":false,"rental_uris":{"android":"levelo://app?vid=91fab5ef-a35c-4615-bd68-d012ded2ac76","ios":"levelo://app?vid=91fab5ef-a35c-4615-bd68-d012ded2ac76"},"vehicle_type_id":"4","last_reported":1705774095,"current_range_meters":1200,"station_id":"ce4bh692rcd13ifvqea0","pricing_plan_id":"free"},{"bike_id":"0088ee8a-da9c-4939-8ad0-b8e15cc8c240","system_id":"levelo_inurba_marseille","lat":43.292642,"lon":5.384254,"is_reserved":false,"is_disabled":false,"rental_uris":{"android":"levelo://app?vid=0088ee8a-da9c-4939-8ad0-b8e15cc8c240","ios":"levelo://app?vid=0088ee8a-da9c-4939-8ad0-b8e15cc8c240"},"vehicle_type_id":"4","last_reported":1705774095,"current_range_meters":6000,"station_id":"ce4bh692rcd13ifvqea0","pricing_plan_id":"free"},{"bike_id":"3d1379db-275e-4989-9389-6a0e032c3d47","system_id":"levelo_inurba_marseille","lat":43.292644,"lon":5.384257,"is_reserved":false,"is_disabled":false,"rental_uris":{"android":"levelo://app?vid=3d1379db-275e-4989-9389-6a0e032c3d47","ios":"levelo://app?vid=3d1379db-275e-4989-9389-6a0e032c3d47"},"vehicle_type_id":"4","last_reported":1705774095,"current_range_meters":14800,"station_id":"ce4bh692rcd13ifvqea0","pricing_plan_id":"free"},{"bike_id":"68bff31e-aff3-418d-b1e9-f86e4e166d5c","system_id":"levelo_inurba_marseille","lat":43.292642,"lon":5.384254,"is_reserved":false,"is_disabled":false,"rental_uris":{"android":"levelo://app?vid=68bff31e-aff3-418d-b1e9-f86e4e166d5c","ios":"levelo://app?vid=68bff31e-aff3-418d-b1e9-f86e4e166d5c"},"vehicle_type_id":"4","last_reported":1705774095,"current_range_meters":400,"station_id":"ce4bh692rcd13ifvqea0","pricing_plan_id":"free"},{"bike_id":"e6018c42-b9c2-40fc-910f-77eacf140224","system_id":"levelo_inurba_marseille","lat":43.29256,"lon":5.38451,"is_reserved":false,"is_disabled":false,"rental_uris":{"android":"levelo://app?vid=e6018c42-b9c2-40fc-910f-77eacf140224","ios":"levelo://app?vid=e6018c42-b9c2-40fc-910f-77eacf140224"},"vehicle_type_id":"4","last_reported":1705774095,"current_range_meters":5200,"station_id":"ce4bh692rcd13ifvqea0","pricing_plan_id":"free"},{"bike_id":"d4e1df69-acc5-4ff0-ab2b-7459ce873419","system_id":"levelo_inurba_marseille","lat":43.29106,"lon":5.381293,"is_reserved":false,"is_disabled":false,"rental_uris":{"android":"levelo://app?vid=d4e1df69-acc5-4ff0-ab2b-7459ce873419","ios":"levelo://app?vid=d4e1df69-acc5-4ff0-ab2b-7459ce873419"},"vehicle_type_id":"4","last_reported":1705774095,"current_range_meters":12000,"station_id":"ce4bh512rcd13ifvqe2g","pricing_plan_id":"free"},{"bike_id":"925eaff5-3e49-4fa2-bc92-9f7181735632","system_id":"levelo_inurba_marseille","lat":43.329734,"lon":5.390652,"is_reserved":false,"is_disabled":false,"rental_uris":{"android":"levelo://app?vid=925eaff5-3e49-4fa2-bc92-9f7181735632","ios":"levelo://app?vid=925eaff5-3e49-4fa2-bc92-9f7181735632"},"vehicle_type_id":"4","last_reported":1705774095,"current_range_meters":21200,"station_id":"","pricing_plan_id":"free"},{"bike_id":"b31758c6-2ead-43fc-afb6-3dc67b4c5c2b","system_id":"levelo_inurba_marseille","lat":43.2979,"lon":5.39334,"is_reserved":false,"is_disabled":false,"rental_uris":{"android":"levelo://app?vid=b31758c6-2ead-43fc-afb6-3dc67b4c5c2b","ios":"levelo://app?vid=b31758c6-2ead-43fc-afb6-3dc67b4c5c2b"},"vehicle_type_id":"4","last_reported":1705774095,"current_range_meters":2000,"station_id":"chh1huq6cuj3fo74tm60","pricing_plan_id":"free"},{"bike_id":"a9151ad6-2d74-4948-803a-27e85b3073c7","system_id":"levelo_inurba_marseille","lat":43.31359,"lon":5.40028,"is_reserved":false,"is_disabled":false,"rental_uris":{"android":"levelo://app?vid=a9151ad6-2d74-4948-803a-27e85b3073c7","ios":"levelo://app?vid=a9151ad6-2d74-4948-803a-27e85b3073c7"},"vehicle_type_id":"4","last_reported":1705774095,"current_range_meters":0,"station_id":"","pricing_plan_id":"free"},{"bike_id":"4d8db3c0-e06e-4652-be8a-5aa5df7b55b2","system_id":"levelo_inurba_marseille","lat":43.29789,"lon":5.39335,"is_reserved":false,"is_disabled":false,"rental_uris":{"android":"levelo://app?vid=4d8db3c0-e06e-4652-be8a-5aa5df7b55b2","ios":"levelo://app?vid=4d8db3c0-e06e-4652-be8a-5aa5df7b55b2"},"vehicle_type_id":"4","last_reported":1705774095,"current_range_meters":24000,"station_id":"chh1huq6cuj3fo74tm60","pricing_plan_id":"free"},{"bike_id":"36982360-a48b-45d7-8fd3-f734820aca11","system_id":"levelo_inurba_marseille","lat":43.297815,"lon":5.393548,"is_reserved":false,"is_disabled":false,"rental_uris":{"android":"levelo://app?vid=36982360-a48b-45d7-8fd3-f734820aca11","ios":"levelo://app?vid=36982360-a48b-45d7-8fd3-f734820aca11"},"vehicle_type_id":"4","last_reported":1705774095,"current_range_meters":4800,"station_id":"chh1huq6cuj3fo74tm60","pricing_plan_id":"free"},{"bike_id":"28474677-f31e-4cab-acc2-fd4cb333beaa","system_id":"levelo_inurba_marseille","lat":43.29791,"lon":5.39342,"is_reserved":false,"is_disabled":false,"rental_uris":{"android":"levelo://app?vid=28474677-f31e-4cab-acc2-fd4cb333beaa","ios":"levelo://app?vid=28474677-f31e-4cab-acc2-fd4cb333beaa"},"vehicle_type_id":"4","last_reported":1705774095,"current_range_meters":7600,"station_id":"chh1huq6cuj3fo74tm60","pricing_plan_id":"free"},{"bike_id":"f2b8e640-b68c-4ac6-abd6-b14a33428f3d","system_id":"levelo_inurba_marseille","lat":43.295169,"lon":5.390426,"is_reserved":false,"is_disabled":false,"rental_uris":{"android":"levelo://app?vid=f2b8e640-b68c-4ac6-abd6-b14a33428f3d","ios":"levelo://app?vid=f2b8e640-b68c-4ac6-abd6-b14a33428f3d"},"vehicle_type_id":"4","last_reported":1705774095,"current_range_meters":11200,"station_id":"ce4bh3p2rcd13ifvqdp0","pricing_plan_id":"free"},{"bike_id":"df364703-d7e3-42fc-baf1-8c371d424e77","system_id":"levelo_inurba_marseille","lat":43.295169,"lon":5.390426,"is_reserved":false,"is_disabled":false,"rental_uris":{"android":"levelo://app?vid=df364703-d7e3-42fc-baf1-8c371d424e77","ios":"levelo://app?vid=df364703-d7e3-42fc-baf1-8c371d424e77"},"vehicle_type_id":"4","last_reported":1705774095,"current_range_meters":16400,"station_id":"ce4bh3p2rcd13ifvqdp0","pricing_plan_id":"free"},{"bike_id":"a13e5a71-3da5-4aa9-b18a-29dedfa998b7","system_id":"levelo_inurba_marseille","lat":43.29787,"lon":5.39346,"is_reserved":false,"is_disabled":false,"rental_uris":{"android":"levelo://app?vid=a13e5a71-3da5-4aa9-b18a-29dedfa998b7","ios":"levelo://app?vid=a13e5a71-3da5-4aa9-b18a-29dedfa998b7"},"vehicle_type_id":"4","last_reported":1705774095,"current_range_meters":6400,"station_id":"chh1huq6cuj3fo74tm60","pricing_plan_id":"free"},{"bike_id":"6d33691c-abfc-4f1d-ad41-d474d5c6d99e","system_id":"levelo_inurba_marseille","lat":43.297815,"lon":5.393548,"is_reserved":false,"is_disabled":false,"rental_uris":{"android":"levelo://app?vid=6d33691c-abfc-4f1d-ad41-d474d5c6d99e","ios":"levelo://app?vid=6d33691c-abfc-4f1d-ad41-d474d5c6d99e"},"vehicle_type_id":"4","last_reported":1705774095,"current_range_meters":18000,"station_id":"chh1huq6cuj3fo74tm60","pricing_plan_id":"free"},{"bike_id":"efc047db-574f-4a0a-9a79-c1f1a01d9969","system_id":"levelo_inurba_marseille","lat":43.29785,"lon":5.39345,"is_reserved":false,"is_disabled":false,"rental_uris":{"android":"levelo://app?vid=efc047db-574f-4a0a-9a79-c1f1a01d9969","ios":"levelo://app?vid=efc047db-574f-4a0a-9a79-c1f1a01d9969"},"vehicle_type_id":"4","last_reported":1705774095,"current_range_meters":18000,"station_id":"chh1huq6cuj3fo74tm60","pricing_plan_id":"free"},{"bike_id":"0527fbe6-54ae-48f0-ab6c-6bbd59118211","system_id":"levelo_inurba_marseille","lat":43.297836,"lon":5.393484,"is_reserved":false,"is_disabled":false,"rental_uris":{"android":"levelo://app?vid=0527fbe6-54ae-48f0-ab6c-6bbd59118211","ios":"levelo://app?vid=0527fbe6-54ae-48f0-ab6c-6bbd59118211"},"vehicle_type_id":"4","last_reported":1705774095,"current_range_meters":800,"station_id":"chh1huq6cuj3fo74tm60","pricing_plan_id":"free"},{"bike_id":"6fde3cfb-702b-4089-a6f6-82265d0c0c9c","system_id":"levelo_inurba_marseille","lat":43.330442,"lon":5.389148,"is_reserved":false,"is_disabled":false,"rental_uris":{"android":"levelo://app?vid=6fde3cfb-702b-4089-a6f6-82265d0c0c9c","ios":"levelo://app?vid=6fde3cfb-702b-4089-a6f6-82265d0c0c9c"},"vehicle_type_id":"4","last_reported":1705774095,"current_range_meters":25600,"station_id":"ce4bhr92rcd13ifvqhrg","pricing_plan_id":"free"},{"bike_id":"ab001c16-e197-4d75-bc32-a8f3a5199351","system_id":"levelo_inurba_marseille","lat":43.330442,"lon":5.389148,"is_reserved":false,"is_disabled":false,"rental_uris":{"android":"levelo://app?vid=ab001c16-e197-4d75-bc32-a8f3a5199351","ios":"levelo://app?vid=ab001c16-e197-4d75-bc32-a8f3a5199351"},"vehicle_type_id":"4","last_reported":1705774095,"current_range_meters":20400,"station_id":"ce4bhr92rcd13ifvqhrg","pricing_plan_id":"free"},{"bike_id":"84f62bb3-0ff9-42c9-806a-d7797256af13","system_id":"levelo_inurba_marseille","lat":43.33024,"lon":5.39036,"is_reserved":false,"is_disabled":false,"rental_uris":{"android":"levelo://app?vid=84f62bb3-0ff9-42c9-806a-d7797256af13","ios":"levelo://app?vid=84f62bb3-0ff9-42c9-806a-d7797256af13"},"vehicle_type_id":"4","last_reported":1705774095,"current_range_meters":28000,"station_id":"ce4bhr92rcd13ifvqhrg","pricing_plan_id":"free"},{"bike_id":"40566484-89da-412d-a858-1a427538b942","system_id":"levelo_inurba_marseille","lat":43.330442,"lon":5.389148,"is_reserved":false,"is_disabled":false,"rental_uris":{"android":"levelo://app?vid=40566484-89da-412d-a858-1a427538b942","ios":"levelo://app?vid=40566484-89da-412d-a858-1a427538b942"},"vehicle_type_id":"4","last_reported":1705774095,"current_range_meters":10800,"station_id":"ce4bhr92rcd13ifvqhrg","pricing_plan_id":"free"},{"bike_id":"ccee71d5-88bb-43ed-95e3-57816d8b9385","system_id":"levelo_inurba_marseille","lat":43.295169,"lon":5.390426,"is_reserved":false,"is_disabled":false,"rental_uris":{"android":"levelo://app?vid=ccee71d5-88bb-43ed-95e3-57816d8b9385","ios":"levelo://app?vid=ccee71d5-88bb-43ed-95e3-57816d8b9385"},"vehicle_type_id":"4","last_reported":1705774095,"current_range_meters":15600,"station_id":"ce4bh3p2rcd13ifvqdp0","pricing_plan_id":"free"},{"bike_id":"6704dc67-27ee-4e72-aca0-e0abd3383b68","system_id":"levelo_inurba_marseille","lat":43.297815,"lon":5.393548,"is_reserved":false,"is_disabled":false,"rental_uris":{"android":"levelo://app?vid=6704dc67-27ee-4e72-aca0-e0abd3383b68","ios":"levelo://app?vid=6704dc67-27ee-4e72-aca0-e0abd3383b68"},"vehicle_type_id":"4","last_reported":1705774095,"current_range_meters":13200,"station_id":"chh1huq6cuj3fo74tm60","pricing_plan_id":"free"},{"bike_id":"972f7b66-caab-4c28-aaad-2da795546af2","system_id":"levelo_inurba_marseille","lat":43.33025,"lon":5.39044,"is_reserved":false,"is_disabled":false,"rental_uris":{"android":"levelo://app?vid=972f7b66-caab-4c28-aaad-2da795546af2","ios":"levelo://app?vid=972f7b66-caab-4c28-aaad-2da795546af2"},"vehicle_type_id":"4","last_reported":1705774095,"current_range_meters":12800,"station_id":"ce4bhr92rcd13ifvqhrg","pricing_plan_id":"free"},{"bike_id":"917d438f-f291-47d4-8bac-19620cd016fb","system_id":"levelo_inurba_marseille","lat":43.295169,"lon":5.390426,"is_reserved":false,"is_disabled":false,"rental_uris":{"android":"levelo://app?vid=917d438f-f291-47d4-8bac-19620cd016fb","ios":"levelo://app?vid=917d438f-f291-47d4-8bac-19620cd016fb"},"vehicle_type_id":"4","last_reported":1705774095,"current_range_meters":20000,"station_id":"ce4bh3p2rcd13ifvqdp0","pricing_plan_id":"free"},{"bike_id":"3f22cc66-e6e6-4179-a9ac-91e5a9e8c660","system_id":"levelo_inurba_marseille","lat":43.33023,"lon":5.39047,"is_reserved":false,"is_disabled":false,"rental_uris":{"android":"levelo://app?vid=3f22cc66-e6e6-4179-a9ac-91e5a9e8c660","ios":"levelo://app?vid=3f22cc66-e6e6-4179-a9ac-91e5a9e8c660"},"vehicle_type_id":"4","last_reported":1705774095,"current_range_meters":16000,"station_id":"ce4bhr92rcd13ifvqhrg","pricing_plan_id":"free"},{"bike_id":"54a902bc-1121-4055-b3d9-4b72e0f3e0c7","system_id":"levelo_inurba_marseille","lat":43.295169,"lon":5.390426,"is_reserved":false,"is_disabled":false,"rental_uris":{"android":"levelo://app?vid=54a902bc-1121-4055-b3d9-4b72e0f3e0c7","ios":"levelo://app?vid=54a902bc-1121-4055-b3d9-4b72e0f3e0c7"},"vehicle_type_id":"4","last_reported":1705774095,"current_range_meters":0,"station_id":"ce4bh3p2rcd13ifvqdp0","pricing_plan_id":"free"},{"bike_id":"3c372d1b-37a7-45a8-81f6-b57c64b03566","system_id":"levelo_inurba_marseille","lat":43.295169,"lon":5.390426,"is_reserved":false,"is_disabled":false,"rental_uris":{"android":"levelo://app?vid=3c372d1b-37a7-45a8-81f6-b57c64b03566","ios":"levelo://app?vid=3c372d1b-37a7-45a8-81f6-b57c64b03566"},"vehicle_type_id":"4","last_reported":1705774095,"current_range_meters":25200,"station_id":"ce4bh3p2rcd13ifvqdp0","pricing_plan_id":"free"},{"bike_id":"7f0d3ef1-aff2-4beb-bd49-ce7a75cdc1bb","system_id":"levelo_inurba_marseille","lat":43.28964,"lon":5.37833,"is_reserved":false,"is_disabled":false,"rental_uris":{"android":"levelo://app?vid=7f0d3ef1-aff2-4beb-bd49-ce7a75cdc1bb","ios":"levelo://app?vid=7f0d3ef1-aff2-4beb-bd49-ce7a75cdc1bb"},"vehicle_type_id":"4","last_reported":1705774095,"current_range_meters":14000,"station_id":"ce4bh9p2rcd13ifvqed0","pricing_plan_id":"free"},{"bike_id":"0d4f6a28-4ad1-4cd8-a0a0-0ffadf6a8ea7","system_id":"levelo_inurba_marseille","lat":43.2901,"lon":5.381269,"is_reserved":false,"is_disabled":false,"rental_uris":{"android":"levelo://app?vid=0d4f6a28-4ad1-4cd8-a0a0-0ffadf6a8ea7","ios":"levelo://app?vid=0d4f6a28-4ad1-4cd8-a0a0-0ffadf6a8ea7"},"vehicle_type_id":"4","last_reported":1705774095,"current_range_meters":21600,"station_id":"ce4bh4p2rcd13ifvqe1g","pricing_plan_id":"free"},{"bike_id":"80ce7a6e-c558-4ddf-96fd-9adc0dbc5ed2","system_id":"levelo_inurba_marseille","lat":43.290094,"lon":5.381264,"is_reserved":false,"is_disabled":false,"rental_uris":{"android":"levelo://app?vid=80ce7a6e-c558-4ddf-96fd-9adc0dbc5ed2","ios":"levelo://app?vid=80ce7a6e-c558-4ddf-96fd-9adc0dbc5ed2"},"vehicle_type_id":"4","last_reported":1705774095,"current_range_meters":7200,"station_id":"ce4bh4p2rcd13ifvqe1g","pricing_plan_id":"free"},{"bike_id":"6869eb96-9852-4977-b5dc-adc7a4dcdcdc","system_id":"levelo_inurba_marseille","lat":43.28856,"lon":5.358371,"is_reserved":false,"is_disabled":false,"rental_uris":{"android":"levelo://app?vid=6869eb96-9852-4977-b5dc-adc7a4dcdcdc","ios":"levelo://app?vid=6869eb96-9852-4977-b5dc-adc7a4dcdcdc"},"vehicle_type_id":"4","last_reported":1705774095,"current_range_meters":9600,"station_id":"ce4bhb12rcd13ifvqem0","pricing_plan_id":"free"},{"bike_id":"46fb2417-9cad-4a97-a7cb-f95cb223d736","system_id":"levelo_inurba_marseille","lat":43.312609,"lon":5.401662,"is_reserved":false,"is_disabled":false,"rental_uris":{"android":"levelo://app?vid=46fb2417-9cad-4a97-a7cb-f95cb223d736","ios":"levelo://app?vid=46fb2417-9cad-4a97-a7cb-f95cb223d736"},"vehicle_type_id":"4","last_reported":1705774095,"current_range_meters":17600,"station_id":"ce4bh092rcd13ifvqd30","pricing_plan_id":"free"},{"bike_id":"02990a8f-5873-4427-970f-49022705b0d6","system_id":"levelo_inurba_marseille","lat":43.309371,"lon":5.401449,"is_reserved":false,"is_disabled":false,"rental_uris":{"android":"levelo://app?vid=02990a8f-5873-4427-970f-49022705b0d6","ios":"levelo://app?vid=02990a8f-5873-4427-970f-49022705b0d6"},"vehicle_type_id":"4","last_reported":1705774095,"current_range_meters":14400,"station_id":"ce4bgvp2rcd13ifvqct0","pricing_plan_id":"free"},{"bike_id":"bbc2adec-27a4-4794-810f-2cc0f8bbd093","system_id":"levelo_inurba_marseille","lat":43.30939,"lon":5.40143,"is_reserved":false,"is_disabled":false,"rental_uris":{"android":"levelo://app?vid=bbc2adec-27a4-4794-810f-2cc0f8bbd093","ios":"levelo://app?vid=bbc2adec-27a4-4794-810f-2cc0f8bbd093"},"vehicle_type_id":"4","last_reported":1705774095,"current_range_meters":16800,"station_id":"ce4bgvp2rcd13ifvqct0","pricing_plan_id":"free"},{"bike_id":"d1807476-d647-41bb-ac77-f6a12b9d5460","system_id":"levelo_inurba_marseille","lat":43.30926,"lon":5.40141,"is_reserved":false,"is_disabled":false,"rental_uris":{"android":"levelo://app?vid=d1807476-d647-41bb-ac77-f6a12b9d5460","ios":"levelo://app?vid=d1807476-d647-41bb-ac77-f6a12b9d5460"},"vehicle_type_id":"4","last_reported":1705774095,"current_range_meters":800,"station_id":"ce4bgvp2rcd13ifvqct0","pricing_plan_id":"free"},{"bike_id":"85d97550-4bed-4136-a75d-2881b5186db4","system_id":"levelo_inurba_marseille","lat":43.30925,"lon":5.40142,"is_reserved":false,"is_disabled":false,"rental_uris":{"android":"levelo://app?vid=85d97550-4bed-4136-a75d-2881b5186db4","ios":"levelo://app?vid=85d97550-4bed-4136-a75d-2881b5186db4"},"vehicle_type_id":"4","last_reported":1705774095,"current_range_meters":2400,"station_id":"ce4bgvp2rcd13ifvqct0","pricing_plan_id":"free"},{"bike_id":"ffd3a2fe-b8d0-4672-887d-303191bd2906","system_id":"levelo_inurba_marseille","lat":43.309371,"lon":5.401449,"is_reserved":false,"is_disabled":false,"rental_uris":{"android":"levelo://app?vid=ffd3a2fe-b8d0-4672-887d-303191bd2906","ios":"levelo://app?vid=ffd3a2fe-b8d0-4672-887d-303191bd2906"},"vehicle_type_id":"4","last_reported":1705774095,"current_range_meters":800,"station_id":"ce4bgvp2rcd13ifvqct0","pricing_plan_id":"free"},{"bike_id":"bb8dd4c3-58bc-4dd3-a664-f6bf6cf9f179","system_id":"levelo_inurba_marseille","lat":43.30925,"lon":5.40145,"is_reserved":false,"is_disabled":false,"rental_uris":{"android":"levelo://app?vid=bb8dd4c3-58bc-4dd3-a664-f6bf6cf9f179","ios":"levelo://app?vid=bb8dd4c3-58bc-4dd3-a664-f6bf6cf9f179"},"vehicle_type_id":"4","last_reported":1705774095,"current_range_meters":12000,"station_id":"ce4bgvp2rcd13ifvqct0","pricing_plan_id":"free"},{"bike_id":"26b65bd6-ae6d-4f88-88e8-854e7cc12053","system_id":"levelo_inurba_marseille","lat":43.309371,"lon":5.401449,"is_reserved":false,"is_disabled":false,"rental_uris":{"android":"levelo://app?vid=26b65bd6-ae6d-4f88-88e8-854e7cc12053","ios":"levelo://app?vid=26b65bd6-ae6d-4f88-88e8-854e7cc12053"},"vehicle_type_id":"4","last_reported":1705774095,"current_range_meters":14800,"station_id":"ce4bgvp2rcd13ifvqct0","pricing_plan_id":"free"},{"bike_id":"325eb459-699d-4b0f-a6f2-8a4d647372a0","system_id":"levelo_inurba_marseille","lat":43.337533,"lon":5.374556,"is_reserved":false,"is_disabled":false,"rental_uris":{"android":"levelo://app?vid=325eb459-699d-4b0f-a6f2-8a4d647372a0","ios":"levelo://app?vid=325eb459-699d-4b0f-a6f2-8a4d647372a0"},"vehicle_type_id":"4","last_reported":1705774095,"current_range_meters":29200,"station_id":"","pricing_plan_id":"free"},{"bike_id":"41dface8-d334-414b-ba81-e313f8165dd4","system_id":"levelo_inurba_marseille","lat":43.306412,"lon":5.401035,"is_reserved":false,"is_disabled":false,"rental_uris":{"android":"levelo://app?vid=41dface8-d334-414b-ba81-e313f8165dd4","ios":"levelo://app?vid=41dface8-d334-414b-ba81-e313f8165dd4"},"vehicle_type_id":"4","last_reported":1705774095,"current_range_meters":6000,"station_id":"ce4bh112rcd13ifvqda0","pricing_plan_id":"free"},