{"last_updated":1727172594,"ttl":60,"version":"2.2","data":{"bikes":[{"bike_id":"94974735-9e09-4ce4-8c77-f4714a151daf","system_id":"levelo_inurba_marseille","lat":43.22929,"lon":5.35373,"is_reserved":false,"is_disabled":false,"rental_uris":{"android":"levelo://app?vid=94974735-9e09-4ce4-8c77-f4714a151daf","ios":"levelo://app?vid=94974735-9e09-4ce4-8c77-f4714a151daf"},"vehicle_type_id":"4","last_reported":1727172595,"current_range_meters":37600,"station_id":"cpo3532slgdg3j2ikp40","pricing_plan_id":"cebpf4jnsgd1na2vs0mg"},{"bike_id":"be8822b3-9edb-4359-9ba6-1ebccccba435","system_id":"levelo_inurba_marseille","lat":43.30287,"lon":5.37707,"is_reserved":false,"is_disabled":false,"rental_uris":{"android":"levelo://app?vid=be8822b3-9edb-4359-9ba6-1ebccccba435","ios":"levelo://app?vid=be8822b3-9edb-4359-9ba6-1ebccccba435"},"vehicle_type_id":"4","last_reported":1727172595,"current_range_meters":33200,"station_id":"ce4bguh2rcd13ifvqcj0","pricing_plan_id":"cebpf4jnsgd1na2vs0mg"},{"bike_id":"d1721365-3872-41a0-a7cf-111fe9673b93","system_id":"levelo_inurba_marseille","lat":43.3015,"lon":5.38084,"is_reserved":false,"is_disabled":false,"rental_uris":{"android":"levelo://app?vid=d1721365-3872-41a0-a7cf-111fe9673b93","ios":"levelo://app?vid=d1721365-3872-41a0-a7cf-111fe9673b93"},"vehicle_type_id":"4","last_reported":1727172595,"current_range_meters":26000,"station_id":"ce4bgjp2rcd13ifvqbh0","pricing_plan_id":"cebpf4jnsgd1na2vs0mg"},{"bike_id":"2200d9de-eab9-4f82-a98f-84d47f405602","system_id":"levelo_inurba_marseille","lat":43.304623,"lon":5.37901,"is_reserved":false,"is_disabled":false,"rental_uris":{"android":"levelo://app?vid=2200d9de-eab9-4f82-a98f-84d47f405602","ios":"levelo://app?vid=2200d9de-eab9-4f82-a98f-84d47f405602"},"vehicle_type_id":"4","last_reported":1727172595,"current_range_meters":38400,"station_id":"ce4bgup2rcd13ifvqcn0","pricing_plan_id":"cebpf4jnsgd1na2vs0mg"},{"bike_id":"f0559f64-2dd1-426c-aa70-5982621f4cf2","system_id":"levelo_inurba_marseille","lat":43.33779,"lon":5.37428,"is_reserved":false,"is_disabled":false,"rental_uris":{"android":"levelo://app?vid=f0559f64-2dd1-426c-aa70-5982621f4cf2","ios":"levelo://app?vid=f0559f64-2dd1-426c-aa70-5982621f4cf2"},"vehicle_type_id":"4","last_reported":1727172595,"current_range_meters":38000,"station_id":"","pricing_plan_id":"cebpf4jnsgd1na2vs0mg"},{"bike_id":"89477c9b-899d-4e11-a6be-74f4b8898f6f","system_id":"levelo_inurba_marseille","lat":43.29049,"lon":5.39965,"is_reserved":false,"is_disabled":false,"rental_uris":{"android":"levelo://app?vid=89477c9b-899d-4e11-a6be-74f4b8898f6f","ios":"levelo://app?vid=89477c9b-899d-4e11-a6be-74f4b8898f6f"},"vehicle_type_id":"4","last_reported":1727172595,"current_range_meters":38000,"station_id":"ce4bh392rcd13ifvqdm0","pricing_plan_id":"cebpf4jnsgd1na2vs0mg"},{"bike_id":"5d3d257f-bb51-4bce-a465-c8d6a178e971","system_id":"levelo_inurba_marseille","lat":43.32658,"lon":5.40988,"is_reserved":false,"is_disabled":false,"rental_uris":{"android":"levelo://app?vid=5d3d257f-bb51-4bce-a465-c8d6a178e971","ios":"levelo://app?vid=5d3d257f-bb51-4bce-a465-c8d6a178e971"},"vehicle_type_id":"4","last_reported":1727172595,"current_range_meters":36800,"station_id":"ce4bhpp2rcd13ifvqhgg","pricing_plan_id":"cebpf4jnsgd1na2vs0mg"},{"bike_id":"4c21f965-572a-47af-874c-378b0097308d","system_id":"levelo_inurba_marseille","lat":43.29027,"lon":5.38136,"is_reserved":false,"is_disabled":false,"rental_uris":{"android":"levelo://app?vid=4c21f965-572a-47af-874c-378b0097308d","ios":"levelo://app?vid=4c21f965-572a-47af-874c-378b0097308d"},"vehicle_type_id":"4","last_reported":1727172595,"current_range_meters":30800,"station_id":"ce4bh4p2rcd13ifvqe1g","pricing_plan_id":"cebpf4jnsgd1na2vs0mg"},{"bike_id":"8e170a94-2469-4727-8d73-fe093909daba","system_id":"levelo_inurba_marseille","lat":43.2754,"lon":5.3843,"is_reserved":false,"is_disabled":false,"rental_uris":{"android":"levelo://app?vid=8e170a94-2469-4727-8d73-fe093909daba","ios":"levelo://app?vid=8e170a94-2469-4727-8d73-fe093909daba"},"vehicle_type_id":"4","last_reported":1727172595,"current_range_meters":28800,"station_id":"ce4bhh92rcd13ifvqfi0","pricing_plan_id":"cebpf4jnsgd1na2vs0mg"},{"bike_id":"b1f1d58f-dcb5-4f28-9b7c-9d265cef4426","system_id":"levelo_inurba_marseille","lat":43.22647,"lon":5.34817,"is_reserved":false,"is_disabled":false,"rental_uris":{"android":"levelo://app?vid=b1f1d58f-dcb5-4f28-9b7c-9d265cef4426","ios":"levelo://app?vid=b1f1d58f-dcb5-4f28-9b7c-9d265cef4426"},"vehicle_type_id":"4","last_reported":1727172595,"current_range_meters":14000,"station_id":"","pricing_plan_id":"cebpf4jnsgd1na2vs0mg"},{"bike_id":"b14d0afd-356c-4c20-b93f-06a170749a0f","system_id":"levelo_inurba_marseille","lat":43.33756,"lon":5.37444,"is_reserved":false,"is_disabled":false,"rental_uris":{"android":"levelo://app?vid=b14d0afd-356c-4c20-b93f-06a170749a0f","ios":"levelo://app?vid=b14d0afd-356c-4c20-b93f-06a170749a0f"},"vehicle_type_id":"4","last_reported":1727172595,"current_range_meters":35200,"station_id":"","pricing_plan_id":"cebpf4jnsgd1na2vs0mg"},{"bike_id":"22483460-0c6e-4ad6-a1a2-c76109a005d1","system_id":"levelo_inurba_marseille","lat":43.30353,"lon":5.41875,"is_reserved":false,"is_disabled":false,"rental_uris":{"android":"levelo://app?vid=22483460-0c6e-4ad6-a1a2-c76109a005d1","ios":"levelo://app?vid=22483460-0c6e-4ad6-a1a2-c76109a005d1"},"vehicle_type_id":"4","last_reported":1727172595,"current_range_meters":37600,"station_id":"ce4bhop2rcd13ifvqh7g","pricing_plan_id":"cebpf4jnsgd1na2vs0mg"},{"bike_id":"78fc45eb-f530-44dc-b471-cd221711ded1","system_id":"levelo_inurba_marseille","lat":43.27489,"lon":5.42472,"is_reserved":false,"is_disabled":false,"rental_uris":{"android":"levelo://app?vid=78fc45eb-f530-44dc-b471-cd221711ded1","ios":"levelo://app?vid=78fc45eb-f530-44dc-b471-cd221711ded1"},"vehicle_type_id":"4","last_reported":1727172595,"current_range_meters":8400,"station_id":"ce4bhn92rcd13ifvqgrg","pricing_plan_id":"cebpf4jnsgd1na2vs0mg"},{"bike_id":"b8dad904-33af-41fa-b0a1-3a8e019182d4","system_id":"levelo_inurba_marseille","lat":43.30151,"lon":5.39849,"is_reserved":false,"is_disabled":false,"rental_uris":{"android":"levelo://app?vid=b8dad904-33af-41fa-b0a1-3a8e019182d4","ios":"levelo://app?vid=b8dad904-33af-41fa-b0a1-3a8e019182d4"},"vehicle_type_id":"4","last_reported":1727172595,"current_range_meters":30800,"station_id":"ce4bh0h2rcd13ifvqd40","pricing_plan_id":"cebpf4jnsgd1na2vs0mg"},{"bike_id":"cec702f9-6429-493f-a263-782f4419d3a6","system_id":"levelo_inurba_marseille","lat":43.258554,"lon":5.39907,"is_reserved":false,"is_disabled":false,"rental_uris":{"android":"levelo://app?vid=cec702f9-6429-493f-a263-782f4419d3a6","ios":"levelo://app?vid=cec702f9-6429-493f-a263-782f4419d3a6"},"vehicle_type_id":"4","last_reported":1727172595,"current_range_meters":29600,"station_id":"ce4bhl92rcd13ifvqghg","pricing_plan_id":"cebpf4jnsgd1na2vs0mg"},{"bike_id":"0d42b10a-3b15-482b-bbe9-82d3ea517263","system_id":"levelo_inurba_marseille","lat":43.25939,"lon":5.40904,"is_reserved":false,"is_disabled":false,"rental_uris":{"android":"levelo://app?vid=0d42b10a-3b15-482b-bbe9-82d3ea517263","ios":"levelo://app?vid=0d42b10a-3b15-482b-bbe9-82d3ea517263"},"vehicle_type_id":"4","last_reported":1727172595,"current_range_meters":28800,"station_id":"ce4bhm92rcd13ifvqglg","pricing_plan_id":"cebpf4jnsgd1na2vs0mg"},{"bike_id":"fe69611f-6ed0-4350-9cf0-f719ab4012ce","system_id":"levelo_inurba_marseille","lat":43.30279,"lon":5.377,"is_reserved":false,"is_disabled":false,"rental_uris":{"android":"levelo://app?vid=fe69611f-6ed0-4350-9cf0-f719ab4012ce","ios":"levelo://app?vid=fe69611f-6ed0-4350-9cf0-f719ab4012ce"},"vehicle_type_id":"4","last_reported":1727172595,"current_range_meters":40000,"station_id":"ce4bguh2rcd13ifvqcj0","pricing_plan_id":"cebpf4jnsgd1na2vs0mg"},{"bike_id":"c074e469-dd27-4f30-bf4d-c563ec44ac25","system_id":"levelo_inurba_marseille","lat":43.25816,"lon":5.3944,"is_reserved":false,"is_disabled":false,"rental_uris":{"android":"levelo://app?vid=c074e469-dd27-4f30-bf4d-c563ec44ac25","ios":"levelo://app?vid=c074e469-dd27-4f30-bf4d-c563ec44ac25"},"vehicle_type_id":"4","last_reported":1727172595,"current_range_meters":23200,"station_id":"ce4bhip2rcd13ifvqft0","pricing_plan_id":"cebpf4jnsgd1na2vs0mg"},{"bike_id":"03a3d6e2-992e-47df-a362-63da52ff6ce7","system_id":"levelo_inurba_marseille","lat":43.305482,"lon":5.365585,"is_reserved":false,"is_disabled":false,"rental_uris":{"android":"levelo://app?vid=03a3d6e2-992e-47df-a362-63da52ff6ce7","ios":"levelo://app?vid=03a3d6e2-992e-47df-a362-63da52ff6ce7"},"vehicle_type_id":"4","last_reported":1727172595,"current_range_meters":5600,"station_id":"ce4bgs12rcd13ifvqcag","pricing_plan_id":"cebpf4jnsgd1na2vs0mg"},{"bike_id":"7f34c370-5f95-43b1-ac2a-d78c61294077","system_id":"levelo_inurba_marseille","lat":43.26935,"lon":5.40253,"is_reserved":false,"is_disabled":false,"rental_uris":{"android":"levelo://app?vid=7f34c370-5f95-43b1-ac2a-d78c61294077","ios":"levelo://app?vid=7f34c370-5f95-43b1-ac2a-d78c61294077"},"vehicle_type_id":"4","last_reported":1727172595,"current_range_meters":18000,"station_id":"cjm6bp8fraef2m0cb0m0","pricing_plan_id":"cebpf4jnsgd1na2vs0mg"},{"bike_id":"7737b815-6daf-41f0-8354-4b28ba75917f","system_id":"levelo_inurba_marseille","lat":43.30191,"lon":5.3983,"is_reserved":false,"is_disabled":false,"rental_uris":{"android":"levelo://app?vid=7737b815-6daf-41f0-8354-4b28ba75917f","ios":"levelo://app?vid=7737b815-6daf-41f0-8354-4b28ba75917f"},"vehicle_type_id":"4","last_reported":1727172595,"current_range_meters":24000,"station_id":"ce4bgvp2rcd13ifvqct0","pricing_plan_id":"cebpf4jnsgd1na2vs0mg"},{"bike_id":"6af05b22-7037-4454-861c-3b90a9d37c6e","system_id":"levelo_inurba_marseille","lat":43.23155,"lon":5.43705,"is_reserved":false,"is_disabled":false,"rental_uris":{"android":"levelo://app?vid=6af05b22-7037-4454-861c-3b90a9d37c6e","ios":"levelo://app?vid=6af05b22-7037-4454-861c-3b90a9d37c6e"},"vehicle_type_id":"4","last_reported":1727172595,"current_range_meters":20800,"station_id":"ce4bhmp2rcd13ifvqgog","pricing_plan_id":"cebpf4jnsgd1na2vs0mg"},{"bike_id":"203232da-cb2d-4a12-99f8-36d7610c05e0","system_id":"levelo_inurba_marseille","lat":43.337444,"lon":5.374475,"is_reserved":false,"is_disabled":false,"rental_uris":{"android":"levelo://app?vid=203232da-cb2d-4a12-99f8-36d7610c05e0","ios":"levelo://app?vid=203232da-cb2d-4a12-99f8-36d7610c05e0"},"vehicle_type_id":"4","last_reported":1727172595,"current_range_meters":34800,"station_id":"","pricing_plan_id":"cebpf4jnsgd1na2vs0mg"},{"bike_id":"a0d707e1-1962-44ea-871d-1343e49e7758","system_id":"levelo_inurba_marseille","lat":43.27498,"lon":5.42462,"is_reserved":false,"is_disabled":false,"rental_uris":{"android":"levelo://app?vid=a0d707e1-1962-44ea-871d-1343e49e7758","ios":"levelo://app?vid=a0d707e1-1962-44ea-871d-1343e49e7758"},"vehicle_type_id":"4","last_reported":1727172595,"current_range_meters":33600,"station_id":"ce4bhn92rcd13ifvqgrg","pricing_plan_id":"cebpf4jnsgd1na2vs0mg"},{"bike_id":"be083973-5be6-4bf4-8ea2-14732256d9a7","system_id":"levelo_inurba_marseille","lat":43.2467,"lon":5.38151,"is_reserved":false,"is_disabled":false,"rental_uris":{"android":"levelo://app?vid=be083973-5be6-4bf4-8ea2-14732256d9a7","ios":"levelo://app?vid=be083973-5be6-4bf4-8ea2-14732256d9a7"},"vehicle_type_id":"4","last_reported":1727172595,"current_range_meters":38800,"station_id":"ce4bhih2rcd13ifvqfr0","pricing_plan_id":"cebpf4jnsgd1na2vs0mg"},{"bike_id":"d4af3188-051f-4a7d-a203-31b3728fca1e","system_id":"levelo_inurba_marseille","lat":43.2707,"lon":5.42279,"is_reserved":false,"is_disabled":false,"rental_uris":{"android":"levelo://app?vid=d4af3188-051f-4a7d-a203-31b3728fca1e","ios":"levelo://app?vid=d4af3188-051f-4a7d-a203-31b3728fca1e"},"vehicle_type_id":"4","last_reported":1727172595,"current_range_meters":36800,"station_id":"ce4bhk92rcd13ifvqgb0","pricing_plan_id":"cebpf4jnsgd1na2vs0mg"},{"bike_id":"b0c345d5-d74c-45b2-8441-c854bf655a91","system_id":"levelo_inurba_marseille","lat":43.31887,"lon":5.40731,"is_reserved":false,"is_disabled":false,"rental_uris":{"android":"levelo://app?vid=b0c345d5-d74c-45b2-8441-c854bf655a91","ios":"levelo://app?vid=b0c345d5-d74c-45b2-8441-c854bf655a91"},"vehicle_type_id":"4","last_reported":1727172595,"current_range_meters":38000,"station_id":"ce4bhq12rcd13ifvqhig","pricing_plan_id":"cebpf4jnsgd1na2vs0mg"},{"bike_id":"099eed42-4ad8-4340-8dbe-80cef86546dc","system_id":"levelo_inurba_marseille","lat":43.28432,"lon":5.39191,"is_reserved":false,"is_disabled":false,"rental_uris":{"android":"levelo://app?vid=099eed42-4ad8-4340-8dbe-80cef86546dc","ios":"levelo://app?vid=099eed42-4ad8-4340-8dbe-80cef86546dc"},"vehicle_type_id":"4","last_reported":1727172595,"current_range_meters":38800,"station_id":"ce4bhoh2rcd13ifvqh5g","pricing_plan_id":"cebpf4jnsgd1na2vs0mg"},{"bike_id":"f8c704cc-636c-4268-80af-5309e4b09904","system_id":"levelo_inurba_marseille","lat":43.24175,"lon":5.39711,"is_reserved":false,"is_disabled":false,"rental_uris":{"android":"levelo://app?vid=f8c704cc-636c-4268-80af-5309e4b09904","ios":"levelo://app?vid=f8c704cc-636c-4268-80af-5309e4b09904"},"vehicle_type_id":"4","last_reported":1727172595,"current_range_meters":37600,"station_id":"ce4bhn12rcd13ifvqgpg","pricing_plan_id":"cebpf4jnsgd1na2vs0mg"},{"bike_id":"5453ff63-c479-4c4f-90a6-2244bf56c8f3","system_id":"levelo_inurba_marseille","lat":43.2707,"lon":5.42278,"is_reserved":false,"is_disabled":false,"rental_uris":{"android":"levelo://app?vid=5453ff63-c479-4c4f-90a6-2244bf56c8f3","ios":"levelo://app?vid=5453ff63-c479-4c4f-90a6-2244bf56c8f3"},"vehicle_type_id":"4","last_reported":1727172595,"current_range_meters":40000,"station_id":"ce4bhk92rcd13ifvqgb0","pricing_plan_id":"cebpf4jnsgd1na2vs0mg"},{"bike_id":"46e9bb28-c116-48a7-82b9-60ce06b6afad","system_id":"levelo_inurba_marseille","lat":43.29916,"lon":5.38149,"is_reserved":false,"is_disabled":false,"rental_uris":{"android":"levelo://app?vid=46e9bb28-c116-48a7-82b9-60ce06b6afad","ios":"levelo://app?vid=46e9bb28-c116-48a7-82b9-60ce06b6afad"},"vehicle_type_id":"4","last_reported":1727172595,"current_range_meters":12400,"station_id":"ce4bgj12rcd13ifvqbc0","pricing_plan_id":"cebpf4jnsgd1na2vs0mg"},{"bike_id":"4b6cc228-d3e6-44a3-bee8-b0056aed30bf","system_id":"levelo_inurba_marseille","lat":43.23157,"lon":5.43701,"is_reserved":false,"is_disabled":false,"rental_uris":{"android":"levelo://app?vid=4b6cc228-d3e6-44a3-bee8-b0056aed30bf","ios":"levelo://app?vid=4b6cc228-d3e6-44a3-bee8-b0056aed30bf"},"vehicle_type_id":"4","last_reported":1727172595,"current_range_meters":33200,"station_id":"ce4bhmp2rcd13ifvqgog","pricing_plan_id":"cebpf4jnsgd1na2vs0mg"},{"bike_id":"c0bfbb99-b969-40cd-b8cc-4e5130fab7d0","system_id":"levelo_inurba_marseille","lat":43.31222,"lon":5.36877,"is_reserved":false,"is_disabled":false,"rental_uris":{"android":"levelo://app?vid=c0bfbb99-b969-40cd-b8cc-4e5130fab7d0","ios":"levelo://app?vid=c0bfbb99-b969-40cd-b8cc-4e5130fab7d0"},"vehicle_type_id":"4","last_reported":1727172595,"current_range_meters":40000,"station_id":"ce4bgl92rcd13ifvqbq0","pricing_plan_id":"cebpf4jnsgd1na2vs0mg"},{"bike_id":"ad216239-a1f3-4a37-b5aa-fa2a18ccaa61","system_id":"levelo_inurba_marseille","lat":43.25939,"lon":5.40901,"is_reserved":false,"is_disabled":false,"rental_uris":{"android":"levelo://app?vid=ad216239-a1f3-4a37-b5aa-fa2a18ccaa61","ios":"levelo://app?vid=ad216239-a1f3-4a37-b5aa-fa2a18ccaa61"},"vehicle_type_id":"4","last_reported":1727172595,"current_range_meters":26000,"station_id":"ce4bhm92rcd13ifvqglg","pricing_plan_id":"cebpf4jnsgd1na2vs0mg"},{"bike_id":"7a8458d5-44ac-4f2e-abef-3f01eb31f7ca","system_id":"levelo_inurba_marseille","lat":43.337444,"lon":5.374475,"is_reserved":false,"is_disabled":false,"rental_uris":{"android":"levelo://app?vid=7a8458d5-44ac-4f2e-abef-3f01eb31f7ca","ios":"levelo://app?vid=7a8458d5-44ac-4f2e-abef-3f01eb31f7ca"},"vehicle_type_id":"4","last_reported":1727172595,"current_range_meters":22000,"station_id":"","pricing_plan_id":"cebpf4jnsgd1na2vs0mg"},{"bike_id":"44956eb9-ed26-423f-bf8f-af8c21f3017f","system_id":"levelo_inurba_marseille","lat":43.30535,"lon":5.36709,"is_reserved":false,"is_disabled":false,"rental_uris":{"android":"levelo://app?vid=44956eb9-ed26-423f-bf8f-af8c21f3017f","ios":"levelo://app?vid=44956eb9-ed26-423f-bf8f-af8c21f3017f"},"vehicle_type_id":"4","last_reported":1727172595,"current_range_meters":34800,"station_id":"ce4bgrp2rcd13ifvqc9g","pricing_plan_id":"cebpf4jnsgd1na2vs0mg"},{"bike_id":"ef1087a3-2aa8-49da-a1ea-c5c69068f32c","system_id":"levelo_inurba_marseille","lat":43.26687,"lon":5.38268,"is_reserved":false,"is_disabled":false,"rental_uris":{"android":"levelo://app?vid=ef1087a3-2aa8-49da-a1ea-c5c69068f32c","ios":"levelo://app?vid=ef1087a3-2aa8-49da-a1ea-c5c69068f32c"},"vehicle_type_id":"4","last_reported":1727172595,"current_range_meters":24800,"station_id":"ce4bhg92rcd13ifvqf90","pricing_plan_id":"cebpf4jnsgd1na2vs0mg"},{"bike_id":"e425f7a7-28cc-4ac4-9849-c1cdcd92ba41","system_id":"levelo_inurba_marseille","lat":43.29922,"lon":5.37459,"is_reserved":false,"is_disabled":false,"rental_uris":{"android":"levelo://app?vid=e425f7a7-28cc-4ac4-9849-c1cdcd92ba41","ios":"levelo://app?vid=e425f7a7-28cc-4ac4-9849-c1cdcd92ba41"},"vehicle_type_id":"4","last_reported":1727172595,"current_range_meters":36800,"station_id":"ce4bgjh2rcd13ifvqbg0","pricing_plan_id":"cebpf4jnsgd1na2vs0mg"},{"bike_id":"c9b5ec6f-9235-414f-8086-a847b21c71d9","system_id":"levelo_inurba_marseille","lat":43.30309,"lon":5.36904,"is_reserved":false,"is_disabled":false,"rental_uris":{"android":"levelo://app?vid=c9b5ec6f-9235-414f-8086-a847b21c71d9","ios":"levelo://app?vid=c9b5ec6f-9235-414f-8086-a847b21c71d9"},"vehicle_type_id":"4","last_reported":1727172595,"current_range_meters":30800,"station_id":"ce4bgqh2rcd13ifvqc5g","pricing_plan_id":"cebpf4jnsgd1na2vs0mg"},{"bike_id":"45cc1704-bcda-4d91-ab8c-9b3c195e5285","system_id":"levelo_inurba_marseille","lat":43.29975,"lon":5.3849,"is_reserved":false,"is_disabled":false,"rental_uris":{"android":"levelo://app?vid=45cc1704-bcda-4d91-ab8c-9b3c195e5285","ios":"levelo://app?vid=45cc1704-bcda-4d91-ab8c-9b3c195e5285"},"vehicle_type_id":"4","last_reported":1727172595,"current_range_meters":38800,"station_id":"ce4bgj92rcd13ifvqbd0","pricing_plan_id":"cebpf4jnsgd1na2vs0mg"},{"bike_id":"ebf5c734-b1fe-4fcc-88dc-f9132da6918b","system_id":"levelo_inurba_marseille","lat":43.304678,"lon":5.378979,"is_reserved":false,"is_disabled":false,"rental_uris":{"android":"levelo://app?vid=ebf5c734-b1fe-4fcc-88dc-f9132da6918b","ios":"levelo://app?vid=ebf5c734-b1fe-4fcc-88dc-f9132da6918b"},"vehicle_type_id":"4","last_reported":1727172595,"current_range_meters":37600,"station_id":"ce4bgup2rcd13ifvqcn0","pricing_plan_id":"cebpf4jnsgd1na2vs0mg"},{"bike_id":"537149c0-3fee-4c5c-aa95-834fe2f0793e","system_id":"levelo_inurba_marseille","lat":43.32662,"lon":5.40987,"is_reserved":false,"is_disabled":false,"rental_uris":{"android":"levelo://app?vid=537149c0-3fee-4c5c-aa95-834fe2f0793e","ios":"levelo://app?vid=537149c0-3fee-4c5c-aa95-834fe2f0793e"},"vehicle_type_id":"4","last_reported":1727172595,"current_range_meters":38800,"station_id":"ce4bhpp2rcd13ifvqhgg","pricing_plan_id":"cebpf4jnsgd1na2vs0mg"},{"bike_id":"f437622a-7b03-444c-9262-3c5f7cb817ba","system_id":"levelo_inurba_marseille","lat":43.31268,"lon":5.40173,"is_reserved":false,"is_disabled":false,"rental_uris":{"android":"levelo://app?vid=f437622a-7b03-444c-9262-3c5f7cb817ba","ios":"levelo://app?vid=f437622a-7b03-444c-9262-3c5f7cb817ba"},"vehicle_type_id":"4","last_reported":1727172595,"current_range_meters":33600,"station_id":"ce4bh092rcd13ifvqd30","pricing_plan_id":"cebpf4jnsgd1na2vs0mg"},{"bike_id":"bec43ced-e021-443b-bf7c-2c743da04e68","system_id":"levelo_inurba_marseille","lat":43.31348,"lon":5.38492,"is_reserved":false,"is_disabled":false,"rental_uris":{"android":"levelo://app?vid=bec43ced-e021-443b-bf7c-2c743da04e68","ios":"levelo://app?vid=bec43ced-e021-443b-bf7c-2c743da04e68"},"vehicle_type_id":"4","last_reported":1727172595,"current_range_meters":25600,"station_id":"ce4bgt92rcd13ifvqcf0","pricing_plan_id":"cebpf4jnsgd1na2vs0mg"},{"bike_id":"c8243bdf-7063-48e0-83f5-bba459ffe98b","system_id":"levelo_inurba_marseille","lat":43.24077,"lon":5.37754,"is_reserved":false,"is_disabled":false,"rental_uris":{"android":"levelo://app?vid=c8243bdf-7063-48e0-83f5-bba459ffe98b","ios":"levelo://app?vid=c8243bdf-7063-48e0-83f5-bba459ffe98b"},"vehicle_type_id":"4","last_reported":1727172595,"current_range_meters":36800,"station_id":"ce4bhnp2rcd13ifvqgvg","pricing_plan_id":"cebpf4jnsgd1na2vs0mg"},{"bike_id":"03409d1a-a416-4d64-af15-2f1fc04e5663","system_id":"levelo_inurba_marseille","lat":43.23148,"lon":5.43725,"is_reserved":false,"is_disabled":false,"rental_uris":{"android":"levelo://app?vid=03409d1a-a416-4d64-af15-2f1fc04e5663","ios":"levelo://app?vid=03409d1a-a416-4d64-af15-2f1fc04e5663"},"vehicle_type_id":"4","last_reported":1727172595,"current_range_meters":26000,"station_id":"ce4bhmp2rcd13ifvqgog","pricing_plan_id":"cebpf4jnsgd1na2vs0mg"},{"bike_id":"6979d0b4-a1f3-4e96-a880-9fd4f35bf761","system_id":"levelo_inurba_marseille","lat":43.30153,"lon":5.38077,"is_reserved":false,"is_disabled":false,"rental_uris":{"android":"levelo://app?vid=6979d0b4-a1f3-4e96-a880-9fd4f35bf761","ios":"levelo://app?vid=6979d0b4-a1f3-4e96-a880-9fd4f35bf761"},"vehicle_type_id":"4","last_reported":1727172595,"current_range_meters":31200,"station_id":"ce4bgjp2rcd13ifvqbh0","pricing_plan_id":"cebpf4jnsgd1na2vs0mg"},{"bike_id":"0187dbe4-866c-4031-9cbb-94cdd92f6a82","system_id":"levelo_inurba_marseille","lat":43.29741,"lon":5.37743,"is_reserved":false,"is_disabled":false,"rental_uris":{"android":"levelo://app?vid=0187dbe4-866c-4031-9cbb-94cdd92f6a82","ios":"levelo://app?vid=0187dbe4-866c-4031-9cbb-94cdd92f6a82"},"vehicle_type_id":"4","last_reported":1727172595,"current_range_meters":4800,"station_id":"","pricing_plan_id":"cebpf4jnsgd1na2vs0mg"},{"bike_id":"4f0a51da-5b6e-46fa-ac51-6932c8a42a8f","system_id":"levelo_inurba_marseille","lat":43.27834,"lon":5.39209,"is_reserved":false,"is_disabled":false,"rental_uris":{"android":"levelo://app?vid=4f0a51da-5b6e-46fa-ac51-6932c8a42a8f","ios":"levelo://app?vid=4f0a51da-5b6e-46fa-ac51-6932c8a42a8f"},"vehicle_type_id":"4","last_reported":1727172595,"current_range_meters":30400,"station_id":"ce4bhjp2rcd13ifvqga0","pricing_plan_id":"cebpf4jnsgd1na2vs0mg"},{"bike_id":"9fadec36-32c2-40ce-86e3-222ef791ca3d","system_id":"levelo_inurba_marseille","lat":43.2984,"lon":5.36266,"is_reserved":false,"is_disabled":false,"rental_uris":{"android":"levelo://app?vid=9fadec36-32c2-40ce-86e3-222ef791ca3d","ios":"levelo://app?vid=9fadec36-32c2-40ce-86e3-222ef791ca3d"},"vehicle_type_id":"4","last_reported":1727172595,"current_range_meters":24800,"station_id":"ce4bgpp2rcd13ifvqc3g","pricing_plan_id":"cebpf4jnsgd1na2vs0mg"},{"bike_id":"c29db812-a2ba-4b10-8014-dfbcc2e5e72c","system_id":"levelo_inurba_marseille","lat":43.26019,"lon":5.37586,"is_reserved":false,"is_disabled":false,"rental_uris":{"android":"levelo://app?vid=c29db812-a2ba-4b10-8014-dfbcc2e5e72c","ios":"levelo://app?vid=c29db812-a2ba-4b10-8014-dfbcc2e5e72c"},"vehicle_type_id":"4","last_reported":1727172595,"current_range_meters":3200,"station_id":"ce4bhgh2rcd13ifvqfa0","pricing_plan_id":"cebpf4jnsgd1na2vs0mg"},{"bike_id":"6acc6fab-b5ef-443e-99ba-b8bbb33f88f6","system_id":"levelo_inurba_marseille","lat":43.2749,"lon":5.42453,"is_reserved":false,"is_disabled":false,"rental_uris":{"android":"levelo://app?vid=6acc6fab-b5ef-443e-99ba-b8bbb33f88f6","ios":"levelo://app?vid=6acc6fab-b5ef-443e-99ba-b8bbb33f88f6"},"vehicle_type_id":"4","last_reported":1727172595,"current_range_meters":25600,"station_id":"ce4bhn92rcd13ifvqgrg","pricing_plan_id":"cebpf4jnsgd1na2vs0mg"},{"bike_id":"3cbccf5e-927a-4192-a6a7-d056c365b8c1","system_id":"levelo_inurba_marseille","lat":43.30538,"lon":5.36548,"is_reserved":false,"is_disabled":false,"rental_uris":{"android":"levelo://app?vid=3cbccf5e-927a-4192-a6a7-d056c365b8c1","ios":"levelo://app?vid=3cbccf5e-927a-4192-a6a7-d056c365b8c1"},"vehicle_type_id":"4","last_reported":1727172595,"current_range_meters":40000,"station_id":"ce4bgs12rcd13ifvqcag","pricing_plan_id":"cebpf4jnsgd1na2vs0mg"},{"bike_id":"44a8a61c-997b-400e-8a2b-961413edaa1d","system_id":"levelo_inurba_marseille","lat":43.29844,"lon":5.36269,"is_reserved":false,"is_disabled":false,"rental_uris":{"android":"levelo://app?vid=44a8a61c-997b-400e-8a2b-961413edaa1d","ios":"levelo://app?vid=44a8a61c-997b-400e-8a2b-961413edaa1d"},"vehicle_type_id":"4","last_reported":1727172595,"current_range_meters":38800,"station_id":"ce4bgpp2rcd13ifvqc3g","pricing_plan_id":"cebpf4jnsgd1na2vs0mg"},{"bike_id":"87da5202-59d4-4e9d-a627-50c812ca8ee2","system_id":"levelo_inurba_marseille","lat":43.25926,"lon":5.40908,"is_reserved":false,"is_disabled":false,"rental_uris":{"android":"levelo://app?vid=87da5202-59d4-4e9d-a627-50c812ca8ee2","ios":"levelo://app?vid=87da5202-59d4-4e9d-a627-50c812ca8ee2"},"vehicle_type_id":"4","last_reported":1727172595,"current_range_meters":30000,"station_id":"ce4bhm92rcd13ifvqglg","pricing_plan_id":"cebpf4jnsgd1na2vs0mg"},{"bike_id":"86916baa-321b-4b49-be28-450590ebbd8a","system_id":"levelo_inurba_marseille","lat":43.2905,"lon":5.37163,"is_reserved":false,"is_disabled":false,"rental_uris":{"android":"levelo://app?vid=86916baa-321b-4b49-be28-450590ebbd8a","ios":"levelo://app?vid=86916baa-321b-4b49-be28-450590ebbd8a"},"vehicle_type_id":"4","last_reported":1727172595,"current_range_meters":39200,"station_id":"ce4bh5p2rcd13ifvqe4g","pricing_plan_id":"cebpf4jnsgd1na2vs0mg"},{"bike_id":"82485995-fe24-4e7e-8681-27eeb66115bf","system_id":"levelo_inurba_marseille","lat":43.32529,"lon":5.41461,"is_reserved":false,"is_disabled":false,"rental_uris":{"android":"levelo://app?vid=82485995-fe24-4e7e-8681-27eeb66115bf","ios":"levelo://app?vid=82485995-fe24-4e7e-8681-27eeb66115bf"},"vehicle_type_id":"4","last_reported":1727172595,"current_range_meters":16400,"station_id":"ce4bhq12rcd13ifvqhhg","pricing_plan_id":"cebpf4jnsgd1na2vs0mg"},{"bike_id":"cfb76313-aeda-42a6-aa7a-6136e23cfa03","system_id":"levelo_inurba_marseille","lat":43.31221,"lon":5.36862,"is_reserved":false,"is_disabled":false,"rental_uris":{"android":"levelo://app?vid=cfb76313-aeda-42a6-aa7a-6136e23cfa03","ios":"levelo://app?vid=cfb76313-aeda-42a6-aa7a-6136e23cfa03"},"vehicle_type_id":"4","last_reported":1727172595,"current_range_meters":38400,"station_id":"ce4bgl92rcd13ifvqbq0","pricing_plan_id":"cebpf4jnsgd1na2vs0mg"},{"bike_id":"00cd35ef-952b-4788-94fe-dbb3cb5fa024","system_id":"levelo_inurba_marseille","lat":43.24547,"lon":5.39525,"is_reserved":false,"is_disabled":false,"rental_uris":{"android":"levelo://app?vid=00cd35ef-952b-4788-94fe-dbb3cb5fa024","ios":"levelo://app?vid=00cd35ef-952b-4788-94fe-dbb3cb5fa024"},"vehicle_type_id":"4","last_reported":1727172595,"current_range_meters":27200,"station_id":"ce4bhlp2rcd13ifvqgjg","pricing_plan_id":"cebpf4jnsgd1na2vs0mg"},{"bike_id":"d4837689-2792-457c-b3c2-6ec48acad52e","system_id":"levelo_inurba_marseille","lat":43.29033,"lon":5.37547,"is_reserved":false,"is_disabled":false,"rental_uris":{"android":"levelo://app?vid=d4837689-2792-457c-b3c2-6ec48acad52e","ios":"levelo://app?vid=d4837689-2792-457c-b3c2-6ec48acad52e"},"vehicle_type_id":"4","last_reported":1727172595,"current_range_meters":38800,"station_id":"ce4bh692rcd13ifvqe90","pricing_plan_id":"cebpf4jnsgd1na2vs0mg"},{"bike_id":"83442873-ab88-4c7b-b4cb-de621ffea8db","system_id":"levelo_inurba_marseille","lat":43.30422,"lon":5.41285,"is_reserved":false,"is_disabled":false,"rental_uris":{"android":"levelo://app?vid=83442873-ab88-4c7b-b4cb-de621ffea8db","ios":"levelo://app?vid=83442873-ab88-4c7b-b4cb-de621ffea8db"},"vehicle_type_id":"4","last_reported":1727172595,"current_range_meters":26000,"station_id":"ce4bhop2rcd13ifvqh8g","pricing_plan_id":"cebpf4jnsgd1na2vs0mg"},{"bike_id":"c35ced23-7af7-4bee-aa1c-f7b5e7924ca7","system_id":"levelo_inurba_marseille","lat":43.29404,"lon":5.37402,"is_reserved":false,"is_disabled":false,"rental_uris":{"android":"levelo://app?vid=c35ced23-7af7-4bee-aa1c-f7b5e7924ca7","ios":"levelo://app?vid=c35ced23-7af7-4bee-aa1c-f7b5e7924ca7"},"vehicle_type_id":"4","last_reported":1727172595,"current_range_meters":29600,"station_id":"","pricing_plan_id":"cebpf4jnsgd1na2vs0mg"},{"bike_id":"3c8b0282-d0f9-46f6-8aeb-03cabe2a4232","system_id":"levelo_inurba_marseille","lat":43.30949,"lon":5.3904,"is_reserved":false,"is_disabled":false,"rental_uris":{"android":"levelo://app?vid=3c8b0282-d0f9-46f6-8aeb-03cabe2a4232","ios":"levelo://app?vid=3c8b0282-d0f9-46f6-8aeb-03cabe2a4232"},"vehicle_type_id":"4","last_reported":1727172595,"current_range_meters":17600,"station_id":"ce4bgup2rcd13ifvqco0","pricing_plan_id":"cebpf4jnsgd1na2vs0mg"},{"bike_id":"a57c0cca-328a-4f0a-b679-e1aacee7d643","system_id":"levelo_inurba_marseille","lat":43.27994,"lon":5.41658,"is_reserved":false,"is_disabled":false,"rental_uris":{"android":"levelo://app?vid=a57c0cca-328a-4f0a-b679-e1aacee7d643","ios":"levelo://app?vid=a57c0cca-328a-4f0a-b679-e1aacee7d643"},"vehicle_type_id":"4","last_reported":1727172595,"current_range_meters":10000,"station_id":"ce4bho12rcd13ifvqh1g","pricing_plan_id":"cebpf4jnsgd1na2vs0mg"},{"bike_id":"3aabf19b-419b-4a5d-9dba-c459214ecaa6","system_id":"levelo_inurba_marseille","lat":43.279112,"lon":5.395683,"is_reserved":false,"is_disabled":false,"rental_uris":{"android":"levelo://app?vid=3aabf19b-419b-4a5d-9dba-c459214ecaa6","ios":"levelo://app?vid=3aabf19b-419b-4a5d-9dba-c459214ecaa6"},"vehicle_type_id":"4","last_reported":1727172595,"current_range_meters":37600,"station_id":"ce4bhf92rcd13ifvqf40","pricing_plan_id":"cebpf4jnsgd1na2vs0mg"},{"bike_id":"e7efd04e-d977-48fe-9416-f096aaf29bbf","system_id":"levelo_inurba_marseille","lat":43.231942,"lon":5.3555,"is_reserved":false,"is_disabled":false,"rental_uris":{"android":"levelo://app?vid=e7efd04e-d977-48fe-9416-f096aaf29bbf","ios":"levelo://app?vid=e7efd04e-d977-48fe-9416-f096aaf29bbf"},"vehicle_type_id":"4","last_reported":1727172595,"current_range_meters":28400,"station_id":"ce4bhu92rcd13ifvqi70","pricing_plan_id":"cebpf4jnsgd1na2vs0mg"},{"bike_id":"9ccd0d45-ce5e-4124-b8e8-da8553b20553","system_id":"levelo_inurba_marseille","lat":43.30798,"lon":5.38153,"is_reserved":false,"is_disabled":false,"rental_uris":{"android":"levelo://app?vid=9ccd0d45-ce5e-4124-b8e8-da8553b20553","ios":"levelo://app?vid=9ccd0d45-ce5e-4124-b8e8-da8553b20553"},"vehicle_type_id":"4","last_reported":1727172595,"current_range_meters":38800,"station_id":"ce4bgt12rcd13ifvqce0","pricing_plan_id":"cebpf4jnsgd1na2vs0mg"},{"bike_id":"a578be38-e360-4614-972e-bddd8629f052","system_id":"levelo_inurba_marseille","lat":43.337444,"lon":5.374475,"is_reserved":false,"is_disabled":false,"rental_uris":{"android":"levelo://app?vid=a578be38-e360-4614-972e-bddd8629f052","ios":"levelo://app?vid=a578be38-e360-4614-972e-bddd8629f052"},"vehicle_type_id":"4","last_reported":1727172595,"current_range_meters":19600,"station_id":"","pricing_plan_id":"cebpf4jnsgd1na2vs0mg"},{"bike_id":"c00cbaf3-673a-41dc-aefd-e91c0d90b257","system_id":"levelo_inurba_marseille","lat":43.23063,"lon":5.35493,"is_reserved":false,"is_disabled":false,"rental_uris":{"android":"levelo://app?vid=c00cbaf3-673a-41dc-aefd-e91c0d90b257","ios":"levelo://app?vid=c00cbaf3-673a-41dc-aefd-e91c0d90b257"},"vehicle_type_id":"4","last_reported":1727172595,"current_range_meters":28800,"station_id":"cpo3342slgdg3j2ifvpg","pricing_plan_id":"cebpf4jnsgd1na2vs0mg"},{"bike_id":"58da2eb5-b9c0-403e-8a66-0a99e6a0a28e","system_id":"levelo_inurba_marseille","lat":43.3122,"lon":5.3686,"is_reserved":false,"is_disabled":false,"rental_uris":{"android":"levelo://app?vid=58da2eb5-b9c0-403e-8a66-0a99e6a0a28e","ios":"levelo://app?vid=58da2eb5-b9c0-403e-8a66-0a99e6a0a28e"},"vehicle_type_id":"4","last_reported":1727172595,"current_range_meters":30000,"station_id":"ce4bgl92rcd13ifvqbq0","pricing_plan_id":"cebpf4jnsgd1na2vs0mg"},{"bike_id":"0206f0db-0077-454e-ac41-48c62a7ceaf0","system_id":"levelo_inurba_marseille","lat":43.30307,"lon":5.36898,"is_reserved":false,"is_disabled":false,"rental_uris":{"android":"levelo://app?vid=0206f0db-0077-454e-ac41-48c62a7ceaf0","ios":"levelo://app?vid=0206f0db-0077-454e-ac41-48c62a7ceaf0"},"vehicle_type_id":"4","last_reported":1727172595,"current_range_meters":21600,"station_id":"ce4bgqh2rcd13ifvqc5g","pricing_plan_id":"cebpf4jnsgd1na2vs0mg"},{"bike_id":"1cf9c6ad-a18e-4581-966a-e4580ac983e8","system_id":"levelo_inurba_marseille","lat":43.3015,"lon":5.3808,"is_reserved":false,"is_disabled":false,"rental_uris":{"android":"levelo://app?vid=1cf9c6ad-a18e-4581-966a-e4580ac983e8","ios":"levelo://app?vid=1cf9c6ad-a18e-4581-966a-e4580ac983e8"},"vehicle_type_id":"4","last_reported":1727172595,"current_range_meters":36800,"station_id":"ce4bgjp2rcd13ifvqbh0","pricing_plan_id":"cebpf4jnsgd1na2vs0mg"},{"bike_id":"2949db4c-f00a-4d16-8682-8390a0fc974e","system_id":"levelo_inurba_marseille","lat":43.30554,"lon":5.36549,"is_reserved":false,"is_disabled":false,"rental_uris":{"android":"levelo://app?vid=2949db4c-f00a-4d16-8682-8390a0fc974e","ios":"levelo://app?vid=2949db4c-f00a-4d16-8682-8390a0fc974e"},"vehicle_type_id":"4","last_reported":1727172595,"current_range_meters":38800,"station_id":"ce4bgs12rcd13ifvqcag","pricing_plan_id":"cebpf4jnsgd1na2vs0mg"},{"bike_id":"25bd7405-be80-4a77-a761-8a1efed52652","system_id":"levelo_inurba_marseille","lat":43.29897,"lon":5.43662,"is_reserved":false,"is_disabled":false,"rental_uris":{"android":"levelo://app?vid=25bd7405-be80-4a77-a761-8a1efed52652","ios":"levelo://app?vid=25bd7405-be80-4a77-a761-8a1efed52652"},"vehicle_type_id":"4","last_reported":1727172595,"current_range_meters":5600,"station_id":"ce4bhpp2rcd13ifvqhfg","pricing_plan_id":"cebpf4jnsgd1na2vs0mg"},{"bike_id":"96086254-c636-4e5b-8975-25742631d3ee","system_id":"levelo_inurba_marseille","lat":43.23154,"lon":5.4371,"is_reserved":false,"is_disabled":false,"rental_uris":{"android":"levelo://app?vid=96086254-c636-4e5b-8975-25742631d3ee","ios":"levelo://app?vid=96086254-c636-4e5b-8975-25742631d3ee"},"vehicle_type_id":"4","last_reported":1727172595,"current_range_meters":17600,"station_id":"ce4bhmp2rcd13ifvqgog","pricing_plan_id":"cebpf4jnsgd1na2vs0mg"},{"bike_id":"a1dacc97-ea0d-4276-a0fd-f91a0191cd9e","system_id":"levelo_inurba_marseille","lat":43.30305,"lon":5.36907,"is_reserved":false,"is_disabled":false,"rental_uris":{"android":"levelo://app?vid=a1dacc97-ea0d-4276-a0fd-f91a0191cd9e","ios":"levelo://app?vid=a1dacc97-ea0d-4276-a0fd-f91a0191cd9e"},"vehicle_type_id":"4","last_reported":1727172595,"current_range_meters":30000,"station_id":"ce4bgqh2rcd13ifvqc5g","pricing_plan_id":"cebpf4jnsgd1na2vs0mg"},{"bike_id":"1f13c84d-32df-4b86-91e7-7e26e1872f07","system_id":"levelo_inurba_marseille","lat":43.30134,"lon":5.38094,"is_reserved":false,"is_disabled":false,"rental_uris":{"android":"levelo://app?vid=1f13c84d-32df-4b86-91e7-7e26e1872f07","ios":"levelo://app?vid=1f13c84d-32df-4b86-91e7-7e26e1872f07"},"vehicle_type_id":"4","last_reported":1727172595,"current_range_meters":34800,"station_id":"ce4bgjp2rcd13ifvqbh0","pricing_plan_id":"cebpf4jnsgd1na2vs0mg"},{"bike_id":"633f2106-a60c-40e6-8cfb-64f986a9b453","system_id":"levelo_inurba_marseille","lat":43.30896,"lon":5.36855,"is_reserved":false,"is_disabled":false,"rental_uris":{"android":"levelo://app?vid=633f2106-a60c-40e6-8cfb-64f986a9b453","ios":"levelo://app?vid=633f2106-a60c-40e6-8cfb-64f986a9b453"},"vehicle_type_id":"4","last_reported":1727172595,"current_range_meters":32400,"station_id":"ce4bgn92rcd13ifvqbvg","pricing_plan_id":"cebpf4jnsgd1na2vs0mg"},{"bike_id":"847623a3-ad65-4222-8dbd-1e171a189bf0","system_id":"levelo_inurba_marseille","lat":43.29916,"lon":5.38147,"is_reserved":false,"is_disabled":false,"rental_uris":{"android":"levelo://app?vid=847623a3-ad65-4222-8dbd-1e171a189bf0","ios":"levelo://app?vid=847623a3-ad65-4222-8dbd-1e171a189bf0"},"vehicle_type_id":"4","last_reported":1727172595,"current_range_meters":36800,"station_id":"ce4bgj12rcd13ifvqbc0","pricing_plan_id":"cebpf4jnsgd1na2vs0mg"},{"bike_id":"6c70bfc0-7dcf-4862-b6e9-628ce3ae38c4","system_id":"levelo_inurba_marseille","lat":43.30457,"lon":5.37911,"is_reserved":false,"is_disabled":false,"rental_uris":{"android":"levelo://app?vid=6c70bfc0-7dcf-4862-b6e9-628ce3ae38c4","ios":"levelo://app?vid=6c70bfc0-7dcf-4862-b6e9-628ce3ae38c4"},"vehicle_type_id":"4","last_reported":1727172595,"current_range_meters":30400,"station_id":"ce4bgup2rcd13ifvqcn0","pricing_plan_id":"cebpf4jnsgd1na2vs0mg"},{"bike_id":"e7c4c0b5-1b80-47ec-84b0-fc154df92f2d","system_id":"levelo_inurba_marseille","lat":43.27903,"lon":5.39586,"is_reserved":false,"is_disabled":false,"rental_uris":{"android":"levelo://app?vid=e7c4c0b5-1b80-47ec-84b0-fc154df92f2d","ios":"levelo://app?vid=e7c4c0b5-1b80-47ec-84b0-fc154df92f2d"},"vehicle_type_id":"4","last_reported":1727172595,"current_range_meters":36400,"station_id":"ce4bhf92rcd13ifvqf40","pricing_plan_id":"cebpf4jnsgd1na2vs0mg"},{"bike_id":"502a8ec4-1232-488b-bf6d-1d0948137061","system_id":"levelo_inurba_marseille","lat":43.26792,"lon":5.40273,"is_reserved":false,"is_disabled":false,"rental_uris":{"android":"levelo://app?vid=502a8ec4-1232-488b-bf6d-1d0948137061","ios":"levelo://app?vid=502a8ec4-1232-488b-bf6d-1d0948137061"},"vehicle_type_id":"4","last_reported":1727172595,"current_range_meters":12400,"station_id":"ce501612rcd8frsf0b60","pricing_plan_id":"cebpf4jnsgd1na2vs0mg"},{"bike_id":"34e140d6-38fd-45cb-89c0-96c3879875a3","system_id":"levelo_inurba_marseille","lat":43.30726,"lon":5.37999,"is_reserved":false,"is_disabled":false,"rental_uris":{"android":"levelo://app?vid=34e140d6-38fd-45cb-89c0-96c3879875a3","ios":"levelo://app?vid=34e140d6-38fd-45cb-89c0-96c3879875a3"},"vehicle_type_id":"4","last_reported":1727172595,"current_range_meters":31200,"station_id":"ce4bgh92rcd13ifvqb40","pricing_plan_id":"cebpf4jnsgd1na2vs0mg"},{"bike_id":"1da69dba-953c-4d21-af9a-699bd6b421bd","system_id":"levelo_inurba_marseille","lat":43.31354,"lon":5.36706,"is_reserved":false,"is_disabled":false,"rental_uris":{"android":"levelo://app?vid=1da69dba-953c-4d21-af9a-699bd6b421bd","ios":"levelo://app?vid=1da69dba-953c-4d21-af9a-699bd6b421bd"},"vehicle_type_id":"4","last_reported":1727172595,"current_range_meters":38800,"station_id":"ce4bgr92rcd13ifvqc6g","pricing_plan_id":"cebpf4jnsgd1na2vs0mg"},{"bike_id":"f5d95463-6c1b-40f4-8bc3-99197167d4ed","system_id":"levelo_inurba_marseille","lat":43.24184,"lon":5.39721,"is_reserved":false,"is_disabled":false,"rental_uris":{"android":"levelo://app?vid=f5d95463-6c1b-40f4-8bc3-99197167d4ed","ios":"levelo://app?vid=f5d95463-6c1b-40f4-8bc3-99197167d4ed"},"vehicle_type_id":"4","last_reported":1727172595,"current_range_meters":36000,"station_id":"ce4bhn12rcd13ifvqgpg","pricing_plan_id":"cebpf4jnsgd1na2vs0mg"},{"bike_id":"929a92e2-2c06-4bee-bf0d-0fb22e0837a1","system_id":"levelo_inurba_marseille","lat":43.27304,"lon":5.39097,"is_reserved":false,"is_disabled":false,"rental_uris":{"android":"levelo://app?vid=929a92e2-2c06-4bee-bf0d-0fb22e0837a1","ios":"levelo://app?vid=929a92e2-2c06-4bee-bf0d-0fb22e0837a1"},"vehicle_type_id":"4","last_reported":1727172595,"current_range_meters":26800,"station_id":"ce4bhgp2rcd13ifvqfe0","pricing_plan_id":"cebpf4jnsgd1na2vs0mg"},{"bike_id":"11792274-c4e1-4dcb-b2a1-424fa6a64f5a","system_id":"levelo_inurba_marseille","lat":43.25939,"lon":5.40907,"is_reserved":false,"is_disabled":false,"rental_uris":{"android":"levelo://app?vid=11792274-c4e1-4dcb-b2a1-424fa6a64f5a","ios":"levelo://app?vid=11792274-c4e1-4dcb-b2a1-424fa6a64f5a"},"vehicle_type_id":"4","last_reported":1727172595,"current_range_meters":15200,"station_id":"ce4bhm92rcd13ifvqglg","pricing_plan_id":"cebpf4jnsgd1na2vs0mg"},{"bike_id":"e59a9260-c0b5-4ade-b8d9-6965b1134efc","system_id":"levelo_inurba_marseille","lat":43.27423,"lon":5.39422,"is_reserved":false,"is_disabled":false,"rental_uris":{"android":"levelo://app?vid=e59a9260-c0b5-4ade-b8d9-6965b1134efc","ios":"levelo://app?vid=e59a9260-c0b5-4ade-b8d9-6965b1134efc"},"vehicle_type_id":"4","last_reported":1727172595,"current_range_meters":28400,"station_id":"ce4bhdp2rcd13ifvqf20","pricing_plan_id":"cebpf4jnsgd1na2vs0mg"},{"bike_id":"535244bd-764a-44d0-b71a-dcceb073c8f2","system_id":"levelo_inurba_marseille","lat":43.30145,"lon":5.38076,"is_reserved":false,"is_disabled":false,"rental_uris":{"android":"levelo://app?vid=535244bd-764a-44d0-b71a-dcceb073c8f2","ios":"levelo://app?vid=535244bd-764a-44d0-b71a-dcceb073c8f2"},"vehicle_type_id":"4","last_reported":1727172595,"current_range_meters":33600,"station_id":"ce4bgjp2rcd13ifvqbh0","pricing_plan_id":"cebpf4jnsgd1na2vs0mg"},{"bike_id":"18763c19-edf4-43f4-a09b-588756fbcdcb","system_id":"levelo_inurba_marseille","lat":43.30458,"lon":5.37902,"is_reserved":false,"is_disabled":false,"rental_uris":{"android":"levelo://app?vid=18763c19-edf4-43f4-a09b-588756fbcdcb","ios":"levelo://app?vid=18763c19-edf4-43f4-a09b-588756fbcdcb"},"vehicle_type_id":"4","last_reported":1727172595,"current_range_meters":32800,"station_id":"ce4bgup2rcd13ifvqcn0","pricing_plan_id":"cebpf4jnsgd1na2vs0mg"},{"bike_id":"01328d1a-46e2-4abc-b12b-32bf41357606","system_id":"levelo_inurba_marseille","lat":43.30548,"lon":5.3671,"is_reserved":false,"is_disabled":false,"rental_uris":{"android":"levelo://app?vid=01328d1a-46e2-4abc-b12b-32bf41357606","ios":"levelo://app?vid=01328d1a-46e2-4abc-b12b-32bf41357606"},"vehicle_type_id":"4","last_reported":1727172595,"current_range_meters":28000,"station_id":"ce4bgrp2rcd13ifvqc9g","pricing_plan_id":"cebpf4jnsgd1na2vs0mg"},{"bike_id":"7d724a28-7b4d-48b6-93a2-cf2a5e5b2b14","system_id":"levelo_inurba_marseille","lat":43.28402,"lon":5.37519,"is_reserved":false,"is_disabled":false,"rental_uris":{"android":"levelo://app?vid=7d724a28-7b4d-48b6-93a2-cf2a5e5b2b14","ios":"levelo://app?vid=7d724a28-7b4d-48b6-93a2-cf2a5e5b2b14"},"vehicle_type_id":"4","last_reported":1727172595,"current_range_meters":28000,"station_id":"ce4bh412rcd13ifvqds0","pricing_plan_id":"cebpf4jnsgd1na2vs0mg"},{"bike_id":"495c8f04-baa0-4d04-b6e9-fa5581cfae30","system_id":"levelo_inurba_marseille","lat":43.301485,"lon":5.380797,"is_reserved":false,"is_disabled":false,"rental_uris":{"android":"levelo://app?vid=495c8f04-baa0-4d04-b6e9-fa5581cfae30","ios":"levelo://app?vid=495c8f04-baa0-4d04-b6e9-fa5581cfae30"},"vehicle_type_id":"4","last_reported":1727172595,"current_range_meters":38800,"station_id":"ce4bgjp2rcd13ifvqbh0","pricing_plan_id":"cebpf4jnsgd1na2vs0mg"},{"bike_id":"37aa31e2-23a7-4d4d-aa1e-19037c5f0a74","system_id":"levelo_inurba_marseille","lat":43.28153,"lon":5.4265,"is_reserved":false,"is_disabled":false,"rental_uris":{"android":"levelo://app?vid=37aa31e2-23a7-4d4d-aa1e-19037c5f0a74","ios":"levelo://app?vid=37aa31e2-23a7-4d4d-aa1e-19037c5f0a74"},"vehicle_type_id":"4","last_reported":1727172595,"current_range_meters":38800,"station_id":"ce4bhnh2rcd13ifvqgug","pricing_plan_id":"cebpf4jnsgd1na2vs0mg"},{"bike_id":"84f0e2bf-ec77-43e1-ac6e-d2df4cdab65b","system_id":"levelo_inurba_marseille","lat":43.26681,"lon":5.38271,"is_reserved":false,"is_disabled":false,"rental_uris":{"android":"levelo://app?vid=84f0e2bf-ec77-43e1-ac6e-d2df4cdab65b","ios":"levelo://app?vid=84f0e2bf-ec77-43e1-ac6e-d2df4cdab65b"},"vehicle_type_id":"4","last_reported":1727172595,"current_range_meters":28000,"station_id":"ce4bhg92rcd13ifvqf90","pricing_plan_id":"cebpf4jnsgd1na2vs0mg"},{"bike_id":"f1956775-09fc-4f0f-8980-4d38962baf8e","system_id":"levelo_inurba_marseille","lat":43.29522,"lon":5.37501,"is_reserved":false,"is_disabled":false,"rental_uris":{"android":"levelo://app?vid=f1956775-09fc-4f0f-8980-4d38962baf8e","ios":"levelo://app?vid=f1956775-09fc-4f0f-8980-4d38962baf8e"},"vehicle_type_id":"4","last_reported":1727172595,"current_range_meters":38800,"station_id":"ce4bgkp2rcd13ifvqbmg","pricing_plan_id":"cebpf4jnsgd1na2vs0mg"},{"bike_id":"12c200ed-d35a-43ce-8d6e-751cae72363b","system_id":"levelo_inurba_marseille","lat":43.32526,"lon":5.41453,"is_reserved":false,"is_disabled":false,"rental_uris":{"android":"levelo://app?vid=12c200ed-d35a-43ce-8d6e-751cae72363b","ios":"levelo://app?vid=12c200ed-d35a-43ce-8d6e-751cae72363b"},"vehicle_type_id":"4","last_reported":1727172595,"current_range_meters":18800,"station_id":"ce4bhq12rcd13ifvqhhg","pricing_plan_id":"cebpf4jnsgd1na2vs0mg"},{"bike_id":"ebb7c5ad-05b9-41f0-aaae-a6f130ec014e","system_id":"levelo_inurba_marseille","lat":43.27487,"lon":5.42456,"is_reserved":false,"is_disabled":false,"rental_uris":{"android":"levelo://app?vid=ebb7c5ad-05b9-41f0-aaae-a6f130ec014e","ios":"levelo://app?vid=ebb7c5ad-05b9-41f0-aaae-a6f130ec014e"},"vehicle_type_id":"4","last_reported":1727172595,"current_range_meters":28800,"station_id":"ce4bhn92rcd13ifvqgrg","pricing_plan_id":"cebpf4jnsgd1na2vs0mg"},{"bike_id":"e9ecddf9-5c7c-4b1d-b61b-e6f2cb758e87","system_id":"levelo_inurba_marseille","lat":43.24083,"lon":5.37749,"is_reserved":false,"is_disabled":false,"rental_uris":{"android":"levelo://app?vid=e9ecddf9-5c7c-4b1d-b61b-e6f2cb758e87","ios":"levelo://app?vid=e9ecddf9-5c7c-4b1d-b61b-e6f2cb758e87"},"vehicle_type_id":"4","last_reported":1727172595,"current_range_meters":30000,"station_id":"ce4bhnp2rcd13ifvqgvg","pricing_plan_id":"cebpf4jnsgd1na2vs0mg"},{"bike_id":"664c1492-4c06-4350-b400-91571a357f51","system_id":"levelo_inurba_marseille","lat":43.29839,"lon":5.36261,"is_reserved":false,"is_disabled":false,"rental_uris":{"android":"levelo://app?vid=664c1492-4c06-4350-b400-91571a357f51","ios":"levelo://app?vid=664c1492-4c06-4350-b400-91571a357f51"},"vehicle_type_id":"4","last_reported":1727172595,"current_range_meters":38000,"station_id":"ce4bgpp2rcd13ifvqc3g","pricing_plan_id":"cebpf4jnsgd1na2vs0mg"},{"bike_id":"72d6d13b-3228-455f-8e5e-0f6f77d35e7c","system_id":"levelo_inurba_marseille","lat":43.301444,"lon":5.374217,"is_reserved":false,"is_disabled":false,"rental_uris":{"android":"levelo://app?vid=72d6d13b-3228-455f-8e5e-0f6f77d35e7c","ios":"levelo://app?vid=72d6d13b-3228-455f-8e5e-0f6f77d35e7c"},"vehicle_type_id":"4","last_reported":1727172595,"current_range_meters":16400,"station_id":"ce4bguh2rcd13ifvqcj0","pricing_plan_id":"cebpf4jnsgd1na2vs0mg"},{"bike_id":"7188cc5d-7fd6-4e78-8d4e-521d4d1d865a","system_id":"levelo_inurba_marseille","lat":43.303266,"lon":5.368996,"is_reserved":false,"is_disabled":false,"rental_uris":{"android":"levelo://app?vid=7188cc5d-7fd6-4e78-8d4e-521d4d1d865a","ios":"levelo://app?vid=7188cc5d-7fd6-4e78-8d4e-521d4d1d865a"},"vehicle_type_id":"4","last_reported":1727172595,"current_range_meters":37600,"station_id":"ce4bgqh2rcd13ifvqc5g","pricing_plan_id":"cebpf4jnsgd1na2vs0mg"},{"bike_id":"7fd0dda8-1cda-49fe-8f22-143af3ca4b76","system_id":"levelo_inurba_marseille","lat":43.27492,"lon":5.42456,"is_reserved":false,"is_disabled":false,"rental_uris":{"android":"levelo://app?vid=7fd0dda8-1cda-49fe-8f22-143af3ca4b76","ios":"levelo://app?vid=7fd0dda8-1cda-49fe-8f22-143af3ca4b76"},"vehicle_type_id":"4","last_reported":1727172595,"current_range_meters":25200,"station_id":"ce4bhn92rcd13ifvqgrg","pricing_plan_id":"cebpf4jnsgd1na2vs0mg"},{"bike_id":"445ab112-1d78-470c-83c0-bb9f52ccf0ad","system_id":"levelo_inurba_marseille","lat":43.24073,"lon":5.37764,"is_reserved":false,"is_disabled":false,"rental_uris":{"android":"levelo://app?vid=445ab112-1d78-470c-83c0-bb9f52ccf0ad","ios":"levelo://app?vid=445ab112-1d78-470c-83c0-bb9f52ccf0ad"},"vehicle_type_id":"4","last_reported":1727172595,"current_range_meters":3600,"station_id":"ce4bhnp2rcd13ifvqgvg","pricing_plan_id":"cebpf4jnsgd1na2vs0mg"},{"bike_id":"b3d0d2bc-1bb7-48d0-99e1-5eb8c65fa48f","system_id":"levelo_inurba_marseille","lat":43.28719,"lon":5.36084,"is_reserved":false,"is_disabled":false,"rental_uris":{"android":"levelo://app?vid=b3d0d2bc-1bb7-48d0-99e1-5eb8c65fa48f","ios":"levelo://app?vid=b3d0d2bc-1bb7-48d0-99e1-5eb8c65fa48f"},"vehicle_type_id":"4","last_reported":1727172595,"current_range_meters":24400,"station_id":"cki0cbj6b192h4jlfktg","pricing_plan_id":"cebpf4jnsgd1na2vs0mg"},{"bike_id":"215aa121-54a7-4a19-a1be-428183585b05","system_id":"levelo_inurba_marseille","lat":43.2799,"lon":5.41657,"is_reserved":false,"is_disabled":false,"rental_uris":{"android":"levelo://app?vid=215aa121-54a7-4a19-a1be-428183585b05","ios":"levelo://app?vid=215aa121-54a7-4a19-a1be-428183585b05"},"vehicle_type_id":"4","last_reported":1727172595,"current_range_meters":26800,"station_id":"ce4bho12rcd13ifvqh1g","pricing_plan_id":"cebpf4jnsgd1na2vs0mg"},{"bike_id":"845cab90-09e5-4c7d-9c58-6a45fab9630f","system_id":"levelo_inurba_marseille","lat":43.29557,"lon":5.42283,"is_reserved":false,"is_disabled":false,"rental_uris":{"android":"levelo://app?vid=845cab90-09e5-4c7d-9c58-6a45fab9630f","ios":"levelo://app?vid=845cab90-09e5-4c7d-9c58-6a45fab9630f"},"vehicle_type_id":"4","last_reported":1727172595,"current_range_meters":23200,"station_id":"ce4bhph2rcd13ifvqhdg","pricing_plan_id":"cebpf4jnsgd1na2vs0mg"},{"bike_id":"6c402720-31ce-4eca-a8e3-0f608a9b2ce5","system_id":"levelo_inurba_marseille","lat":43.25121,"lon":5.40317,"is_reserved":false,"is_disabled":false,"rental_uris":{"android":"levelo://app?vid=6c402720-31ce-4eca-a8e3-0f608a9b2ce5","ios":"levelo://app?vid=6c402720-31ce-4eca-a8e3-0f608a9b2ce5"},"vehicle_type_id":"4","last_reported":1727172595,"current_range_meters":27200,"station_id":"ce4bhlh2rcd13ifvqgig","pricing_plan_id":"cebpf4jnsgd1na2vs0mg"},{"bike_id":"aba66e9c-0967-4175-a8e1-2d17c031de2d","system_id":"levelo_inurba_marseille","lat":43.27494,"lon":5.42457,"is_reserved":false,"is_disabled":false,"rental_uris":{"android":"levelo://app?vid=aba66e9c-0967-4175-a8e1-2d17c031de2d","ios":"levelo://app?vid=aba66e9c-0967-4175-a8e1-2d17c031de2d"},"vehicle_type_id":"4","last_reported":1727172595,"current_range_meters":30000,"station_id":"ce4bhn92rcd13ifvqgrg","pricing_plan_id":"cebpf4jnsgd1na2vs0mg"},{"bike_id":"7a907bd8-a31c-44f5-ae26-4d359cad6743","system_id":"levelo_inurba_marseille","lat":43.23061,"lon":5.35489,"is_reserved":false,"is_disabled":false,"rental_uris":{"android":"levelo://app?vid=7a907bd8-a31c-44f5-ae26-4d359cad6743","ios":"levelo://app?vid=7a907bd8-a31c-44f5-ae26-4d359cad6743"},"vehicle_type_id":"4","last_reported":1727172595,"current_range_meters":9200,"station_id":"cpo3342slgdg3j2ifvpg","pricing_plan_id":"cebpf4jnsgd1na2vs0mg"},{"bike_id":"629d79b3-a190-4325-947b-810e3c3ab6b7","system_id":"levelo_inurba_marseille","lat":43.33611,"lon":5.4103,"is_reserved":false,"is_disabled":false,"rental_uris":{"android":"levelo://app?vid=629d79b3-a190-4325-947b-810e3c3ab6b7","ios":"levelo://app?vid=629d79b3-a190-4325-947b-810e3c3ab6b7"},"vehicle_type_id":"4","last_reported":1727172595,"current_range_meters":40000,"station_id":"ce4bhqh2rcd13ifvqhmg","pricing_plan_id":"cebpf4jnsgd1na2vs0mg"},{"bike_id":"d84c15ee-be95-4cc9-b655-f412bf3cbfd1","system_id":"levelo_inurba_marseille","lat":43.24081,"lon":5.37748,"is_reserved":false,"is_disabled":false,"rental_uris":{"android":"levelo://app?vid=d84c15ee-be95-4cc9-b655-f412bf3cbfd1","ios":"levelo://app?vid=d84c15ee-be95-4cc9-b655-f412bf3cbfd1"},"vehicle_type_id":"4","last_reported":1727172595,"current_range_meters":11200,"station_id":"ce4bhnp2rcd13ifvqgvg","pricing_plan_id":"cebpf4jnsgd1na2vs0mg"},{"bike_id":"ee8d00e1-e139-4433-9d15-cf6c0efd7d69","system_id":"levelo_inurba_marseille","lat":43.31356,"lon":5.36702,"is_reserved":false,"is_disabled":false,"rental_uris":{"android":"levelo://app?vid=ee8d00e1-e139-4433-9d15-cf6c0efd7d69","ios":"levelo://app?vid=ee8d00e1-e139-4433-9d15-cf6c0efd7d69"},"vehicle_type_id":"4","last_reported":1727172595,"current_range_meters":34800,"station_id":"ce4bgr92rcd13ifvqc6g","pricing_plan_id":"cebpf4jnsgd1na2vs0mg"},{"bike_id":"f20c0942-eca9-4a06-9655-817652ff38b3","system_id":"levelo_inurba_marseille","lat":43.29913,"lon":5.38136,"is_reserved":false,"is_disabled":false,"rental_uris":{"android":"levelo://app?vid=f20c0942-eca9-4a06-9655-817652ff38b3","ios":"levelo://app?vid=f20c0942-eca9-4a06-9655-817652ff38b3"},"vehicle_type_id":"4","last_reported":1727172595,"current_range_meters":20400,"station_id":"ce4bgj12rcd13ifvqbc0","pricing_plan_id":"cebpf4jnsgd1na2vs0mg"},{"bike_id":"90e4f5cf-76b7-4f63-b9d0-430673bc5974","system_id":"levelo_inurba_marseille","lat":43.27921,"lon":5.39581,"is_reserved":false,"is_disabled":false,"rental_uris":{"android":"levelo://app?vid=90e4f5cf-76b7-4f63-b9d0-430673bc5974","ios":"levelo://app?vid=90e4f5cf-76b7-4f63-b9d0-430673bc5974"},"vehicle_type_id":"4","last_reported":1727172595,"current_range_meters":36400,"station_id":"ce4bhf92rcd13ifvqf40","pricing_plan_id":"cebpf4jnsgd1na2vs0mg"},{"bike_id":"2e772849-a2ef-44a8-ac1e-92baa03e5c0c","system_id":"levelo_inurba_marseille","lat":43.26929,"lon":5.40218,"is_reserved":false,"is_disabled":false,"rental_uris":{"android":"levelo://app?vid=2e772849-a2ef-44a8-ac1e-92baa03e5c0c","ios":"levelo://app?vid=2e772849-a2ef-44a8-ac1e-92baa03e5c0c"},"vehicle_type_id":"4","last_reported":1727172595,"current_range_meters":35200,"station_id":"cjm6bp8fraef2m0cb0m0","pricing_plan_id":"cebpf4jnsgd1na2vs0mg"},{"bike_id":"10aff346-1f31-470c-b183-c82c0f6f9f25","system_id":"levelo_inurba_marseille","lat":43.30091,"lon":5.39083,"is_reserved":false,"is_disabled":false,"rental_uris":{"android":"levelo://app?vid=10aff346-1f31-470c-b183-c82c0f6f9f25","ios":"levelo://app?vid=10aff346-1f31-470c-b183-c82c0f6f9f25"},"vehicle_type_id":"4","last_reported":1727172595,"current_range_meters":34800,"station_id":"ce4bh192rcd13ifvqdb0","pricing_plan_id":"cebpf4jnsgd1na2vs0mg"},{"bike_id":"9f92bf8f-7756-4ffd-ac07-bf9236417f30","system_id":"levelo_inurba_marseille","lat":43.30911,"lon":5.36849,"is_reserved":false,"is_disabled":false,"rental_uris":{"android":"levelo://app?vid=9f92bf8f-7756-4ffd-ac07-bf9236417f30","ios":"levelo://app?vid=9f92bf8f-7756-4ffd-ac07-bf9236417f30"},"vehicle_type_id":"4","last_reported":1727172595,"current_range_meters":38800,"station_id":"ce4bgn92rcd13ifvqbvg","pricing_plan_id":"cebpf4jnsgd1na2vs0mg"},{"bike_id":"3b7bb097-07a2-4f7f-b603-450d2e971f0b","system_id":"levelo_inurba_marseille","lat":43.29586,"lon":5.37505,"is_reserved":false,"is_disabled":false,"rental_uris":{"android":"levelo://app?vid=3b7bb097-07a2-4f7f-b603-450d2e971f0b","ios":"levelo://app?vid=3b7bb097-07a2-4f7f-b603-450d2e971f0b"},"vehicle_type_id":"4","last_reported":1727172595,"current_range_meters":28800,"station_id":"ce4bgh92rcd13ifvqb50","pricing_plan_id":"cebpf4jnsgd1na2vs0mg"},{"bike_id":"ebec7cd5-5fed-46ce-abdb-3cd659f607ac","system_id":"levelo_inurba_marseille","lat":43.2955,"lon":5.42283,"is_reserved":false,"is_disabled":false,"rental_uris":{"android":"levelo://app?vid=ebec7cd5-5fed-46ce-abdb-3cd659f607ac","ios":"levelo://app?vid=ebec7cd5-5fed-46ce-abdb-3cd659f607ac"},"vehicle_type_id":"4","last_reported":1727172595,"current_range_meters":38000,"station_id":"ce4bhph2rcd13ifvqhdg","pricing_plan_id":"cebpf4jnsgd1na2vs0mg"},{"bike_id":"6d6065cc-15d1-48a2-aa33-8bac2101b02a","system_id":"levelo_inurba_marseille","lat":43.22928,"lon":5.35377,"is_reserved":false,"is_disabled":false,"rental_uris":{"android":"levelo://app?vid=6d6065cc-15d1-48a2-aa33-8bac2101b02a","ios":"levelo://app?vid=6d6065cc-15d1-48a2-aa33-8bac2101b02a"},"vehicle_type_id":"4","last_reported":1727172595,"current_range_meters":27600,"station_id":"cpo3532slgdg3j2ikp40","pricing_plan_id":"cebpf4jnsgd1na2vs0mg"},{"bike_id":"09db2183-b1d3-473b-aba6-b7133ce3cf60","system_id":"levelo_inurba_marseille","lat":43.30308,"lon":5.36911,"is_reserved":false,"is_disabled":false,"rental_uris":{"android":"levelo://app?vid=09db2183-b1d3-473b-aba6-b7133ce3cf60","ios":"levelo://app?vid=09db2183-b1d3-473b-aba6-b7133ce3cf60"},"vehicle_type_id":"4","last_reported":1727172595,"current_range_meters":34000,"station_id":"ce4bgqh2rcd13ifvqc5g","pricing_plan_id":"cebpf4jnsgd1na2vs0mg"},{"bike_id":"df5b38d2-64cb-4df0-856f-ea9bd22c082c","system_id":"levelo_inurba_marseille","lat":43.23189,"lon":5.35564,"is_reserved":false,"is_disabled":false,"rental_uris":{"android":"levelo://app?vid=df5b38d2-64cb-4df0-856f-ea9bd22c082c","ios":"levelo://app?vid=df5b38d2-64cb-4df0-856f-ea9bd22c082c"},"vehicle_type_id":"4","last_reported":1727172595,"current_range_meters":12800,"station_id":"ce4bhu92rcd13ifvqi70","pricing_plan_id":"cebpf4jnsgd1na2vs0mg"},{"bike_id":"9ede7f75-cb6f-46b8-849d-9f2fff383752","system_id":"levelo_inurba_marseille","lat":43.30609,"lon":5.3722,"is_reserved":false,"is_disabled":false,"rental_uris":{"android":"levelo://app?vid=9ede7f75-cb6f-46b8-849d-9f2fff383752","ios":"levelo://app?vid=9ede7f75-cb6f-46b8-849d-9f2fff383752"},"vehicle_type_id":"4","last_reported":1727172595,"current_range_meters":23200,"station_id":"ce4bgqh2rcd13ifvqc4g","pricing_plan_id":"cebpf4jnsgd1na2vs0mg"},{"bike_id":"5f847edf-4854-4c40-afe1-6f12615b8aa9","system_id":"levelo_inurba_marseille","lat":43.326613,"lon":5.409777,"is_reserved":false,"is_disabled":false,"rental_uris":{"android":"levelo://app?vid=5f847edf-4854-4c40-afe1-6f12615b8aa9","ios":"levelo://app?vid=5f847edf-4854-4c40-afe1-6f12615b8aa9"},"vehicle_type_id":"4","last_reported":1727172595,"current_range_meters":32400,"station_id":"ce4bhqp2rcd13ifvqhng","pricing_plan_id":"cebpf4jnsgd1na2vs0mg"},{"bike_id":"27ba0d9b-4317-46dc-ae51-f59ab8e53980","system_id":"levelo_inurba_marseille","lat":43.29938,"lon":5.36546,"is_reserved":false,"is_disabled":false,"rental_uris":{"android":"levelo://app?vid=27ba0d9b-4317-46dc-ae51-f59ab8e53980","ios":"levelo://app?vid=27ba0d9b-4317-46dc-ae51-f59ab8e53980"},"vehicle_type_id":"4","last_reported":1727172595,"current_range_meters":12000,"station_id":"ce4bgm92rcd13ifvqbr0","pricing_plan_id":"cebpf4jnsgd1na2vs0mg"},{"bike_id":"bbc82b62-0f7f-40fd-a1a8-f4995cff4541","system_id":"levelo_inurba_marseille","lat":43.317202,"lon":5.437094,"is_reserved":false,"is_disabled":false,"rental_uris":{"android":"levelo://app?vid=bbc82b62-0f7f-40fd-a1a8-f4995cff4541","ios":"levelo://app?vid=bbc82b62-0f7f-40fd-a1a8-f4995cff4541"},"vehicle_type_id":"4","last_reported":1727172595,"current_range_meters":14800,"station_id":"ce4bhp92rcd13ifvqhcg","pricing_plan_id":"cebpf4jnsgd1na2vs0mg"},{"bike_id":"78142927-babe-413e-afa4-d9dfdfe7b7b0","system_id":"levelo_inurba_marseille","lat":43.27488,"lon":5.42466,"is_reserved":false,"is_disabled":false,"rental_uris":{"android":"levelo://app?vid=78142927-babe-413e-afa4-d9dfdfe7b7b0","ios":"levelo://app?vid=78142927-babe-413e-afa4-d9dfdfe7b7b0"},"vehicle_type_id":"4","last_reported":1727172595,"current_range_meters":12400,"station_id":"ce4bhn92rcd13ifvqgrg","pricing_plan_id":"cebpf4jnsgd1na2vs0mg"},{"bike_id":"f7c3e42d-9e62-4baf-af92-550666c6e971","system_id":"levelo_inurba_marseille","lat":43.27813,"lon":5.40721,"is_reserved":false,"is_disabled":false,"rental_uris":{"android":"levelo://app?vid=f7c3e42d-9e62-4baf-af92-550666c6e971","ios":"levelo://app?vid=f7c3e42d-9e62-4baf-af92-550666c6e971"},"vehicle_type_id":"4","last_reported":1727172595,"current_range_meters":16400,"station_id":"ce4bhnh2rcd13ifvqgtg","pricing_plan_id":"cebpf4jnsgd1na2vs0mg"},{"bike_id":"17b1cd1a-7803-4ca9-91f3-73c4fa44f09e","system_id":"levelo_inurba_marseille","lat":43.29556,"lon":5.42287,"is_reserved":false,"is_disabled":false,"rental_uris":{"android":"levelo://app?vid=17b1cd1a-7803-4ca9-91f3-73c4fa44f09e","ios":"levelo://app?vid=17b1cd1a-7803-4ca9-91f3-73c4fa44f09e"},"vehicle_type_id":"4","last_reported":1727172595,"current_range_meters":8800,"station_id":"ce4bhph2rcd13ifvqhdg","pricing_plan_id":"cebpf4jnsgd1na2vs0mg"},{"bike_id":"2c43c88e-ad28-4001-9314-af5e9a95dd6d","system_id":"levelo_inurba_marseille","lat":43.24074,"lon":5.37763,"is_reserved":false,"is_disabled":false,"rental_uris":{"android":"levelo://app?vid=2c43c88e-ad28-4001-9314-af5e9a95dd6d","ios":"levelo://app?vid=2c43c88e-ad28-4001-9314-af5e9a95dd6d"},"vehicle_type_id":"4","last_reported":1727172595,"current_range_meters":9200,"station_id":"ce4bhnp2rcd13ifvqgvg","pricing_plan_id":"cebpf4jnsgd1na2vs0mg"},{"bike_id":"4b0a790c-bdad-4bb5-9a98-96c1e4dd5a88","system_id":"levelo_inurba_marseille","lat":43.30594,"lon":5.37228,"is_reserved":false,"is_disabled":false,"rental_uris":{"android":"levelo://app?vid=4b0a790c-bdad-4bb5-9a98-96c1e4dd5a88","ios":"levelo://app?vid=4b0a790c-bdad-4bb5-9a98-96c1e4dd5a88"},"vehicle_type_id":"4","last_reported":1727172595,"current_range_meters":30800,"station_id":"ce4bgqh2rcd13ifvqc4g","pricing_plan_id":"cebpf4jnsgd1na2vs0mg"},{"bike_id":"51c6413a-5bf4-490e-a4ce-a0fc1992f4f2","system_id":"levelo_inurba_marseille","lat":43.289948,"lon":5.35634,"is_reserved":false,"is_disabled":false,"rental_uris":{"android":"levelo://app?vid=51c6413a-5bf4-490e-a4ce-a0fc1992f4f2","ios":"levelo://app?vid=51c6413a-5bf4-490e-a4ce-a0fc1992f4f2"},"vehicle_type_id":"4","last_reported":1727172595,"current_range_meters":38000,"station_id":"ce4bhh12rcd13ifvqff0","pricing_plan_id":"cebpf4jnsgd1na2vs0mg"},{"bike_id":"3a1e7684-6b55-422c-a310-97c6d2529f72","system_id":"levelo_inurba_marseille","lat":43.30328,"lon":5.40432,"is_reserved":false,"is_disabled":false,"rental_uris":{"android":"levelo://app?vid=3a1e7684-6b55-422c-a310-97c6d2529f72","ios":"levelo://app?vid=3a1e7684-6b55-422c-a310-97c6d2529f72"},"vehicle_type_id":"4","last_reported":1727172595,"current_range_meters":24000,"station_id":"ce4bh012rcd13ifvqd10","pricing_plan_id":"cebpf4jnsgd1na2vs0mg"},{"bike_id":"b6eee498-fb15-4e3b-9eef-2538446e40a3","system_id":"levelo_inurba_marseille","lat":43.3055,"lon":5.36709,"is_reserved":false,"is_disabled":false,"rental_uris":{"android":"levelo://app?vid=b6eee498-fb15-4e3b-9eef-2538446e40a3","ios":"levelo://app?vid=b6eee498-fb15-4e3b-9eef-2538446e40a3"},"vehicle_type_id":"4","last_reported":1727172595,"current_range_meters":21600,"station_id":"ce4bgrp2rcd13ifvqc9g","pricing_plan_id":"cebpf4jnsgd1na2vs0mg"},{"bike_id":"ca061407-f6cc-48f8-8b57-a3a80cb7d17a","system_id":"levelo_inurba_marseille","lat":43.30802,"lon":5.43517,"is_reserved":false,"is_disabled":false,"rental_uris":{"android":"levelo://app?vid=ca061407-f6cc-48f8-8b57-a3a80cb7d17a","ios":"levelo://app?vid=ca061407-f6cc-48f8-8b57-a3a80cb7d17a"},"vehicle_type_id":"4","last_reported":1727172595,"current_range_meters":32000,"station_id":"ce4bhph2rcd13ifvqheg","pricing_plan_id":"cebpf4jnsgd1na2vs0mg"},{"bike_id":"f5b1128c-7029-4130-89ca-a009ee88473a","system_id":"levelo_inurba_marseille","lat":43.24672,"lon":5.3816,"is_reserved":false,"is_disabled":false,"rental_uris":{"android":"levelo://app?vid=f5b1128c-7029-4130-89ca-a009ee88473a","ios":"levelo://app?vid=f5b1128c-7029-4130-89ca-a009ee88473a"},"vehicle_type_id":"4","last_reported":1727172595,"current_range_meters":8800,"station_id":"ce4bhih2rcd13ifvqfr0","pricing_plan_id":"cebpf4jnsgd1na2vs0mg"},{"bike_id":"74371e4c-2218-4397-9345-b9f878db7dd5","system_id":"levelo_inurba_marseille","lat":43.33761,"lon":5.3743,"is_reserved":false,"is_disabled":false,"rental_uris":{"android":"levelo://app?vid=74371e4c-2218-4397-9345-b9f878db7dd5","ios":"levelo://app?vid=74371e4c-2218-4397-9345-b9f878db7dd5"},"vehicle_type_id":"4","last_reported":1727172595,"current_range_meters":38000,"station_id":"","pricing_plan_id":"cebpf4jnsgd1na2vs0mg"},{"bike_id":"3073410f-7845-4cda-8ebb-ea5392e49bcf","system_id":"levelo_inurba_marseille","lat":43.29844,"lon":5.36267,"is_reserved":false,"is_disabled":false,"rental_uris":{"android":"levelo://app?vid=3073410f-7845-4cda-8ebb-ea5392e49bcf","ios":"levelo://app?vid=3073410f-7845-4cda-8ebb-ea5392e49bcf"},"vehicle_type_id":"4","last_reported":1727172595,"current_range_meters":29600,"station_id":"ce4bgpp2rcd13ifvqc3g","pricing_plan_id":"cebpf4jnsgd1na2vs0mg"},{"bike_id":"220c92c5-b10a-42a3-aae9-b14b566e440b","system_id":"levelo_inurba_marseille","lat":43.29933,"lon":5.3654,"is_reserved":false,"is_disabled":false,"rental_uris":{"android":"levelo://app?vid=220c92c5-b10a-42a3-aae9-b14b566e440b","ios":"levelo://app?vid=220c92c5-b10a-42a3-aae9-b14b566e440b"},"vehicle_type_id":"4","last_reported":1727172595,"current_range_meters":8800,"station_id":"ce4bgm92rcd13ifvqbr0","pricing_plan_id":"cebpf4jnsgd1na2vs0mg"},{"bike_id":"45aa4500-f2ca-4428-8b3c-13971a47fcbb","system_id":"levelo_inurba_marseille","lat":43.30149,"lon":5.38087,"is_reserved":false,"is_disabled":false,"rental_uris":{"android":"levelo://app?vid=45aa4500-f2ca-4428-8b3c-13971a47fcbb","ios":"levelo://app?vid=45aa4500-f2ca-4428-8b3c-13971a47fcbb"},"vehicle_type_id":"4","last_reported":1727172595,"current_range_meters":35600,"station_id":"ce4bgjp2rcd13ifvqbh0","pricing_plan_id":"cebpf4jnsgd1na2vs0mg"},{"bike_id":"124543fe-b791-4047-97dc-3b38ba1277b8","system_id":"levelo_inurba_marseille","lat":43.2707,"lon":5.42279,"is_reserved":false,"is_disabled":false,"rental_uris":{"android":"levelo://app?vid=124543fe-b791-4047-97dc-3b38ba1277b8","ios":"levelo://app?vid=124543fe-b791-4047-97dc-3b38ba1277b8"},"vehicle_type_id":"4","last_reported":1727172595,"current_range_meters":24800,"station_id":"ce4bhk92rcd13ifvqgb0","pricing_plan_id":"cebpf4jnsgd1na2vs0mg"},{"bike_id":"70dcefbd-4b07-404e-b4c6-04f06b54c398","system_id":"levelo_inurba_marseille","lat":43.30145,"lon":5.37423,"is_reserved":false,"is_disabled":false,"rental_uris":{"android":"levelo://app?vid=70dcefbd-4b07-404e-b4c6-04f06b54c398","ios":"levelo://app?vid=70dcefbd-4b07-404e-b4c6-04f06b54c398"},"vehicle_type_id":"4","last_reported":1727172595,"current_range_meters":39200,"station_id":"ce4bgs92rcd13ifvqcc0","pricing_plan_id":"cebpf4jnsgd1na2vs0mg"},{"bike_id":"b1f73128-5271-43d8-af34-94e10e3b804a","system_id":"levelo_inurba_marseille","lat":43.33023,"lon":5.39042,"is_reserved":false,"is_disabled":false,"rental_uris":{"android":"levelo://app?vid=b1f73128-5271-43d8-af34-94e10e3b804a","ios":"levelo://app?vid=b1f73128-5271-43d8-af34-94e10e3b804a"},"vehicle_type_id":"4","last_reported":1727172595,"current_range_meters":36400,"station_id":"ce4bhr92rcd13ifvqhrg","pricing_plan_id":"cebpf4jnsgd1na2vs0mg"},{"bike_id":"8a98e2ce-aee1-4d77-8b6d-16aec9fb6e85","system_id":"levelo_inurba_marseille","lat":43.30608,"lon":5.3722,"is_reserved":false,"is_disabled":false,"rental_uris":{"android":"levelo://app?vid=8a98e2ce-aee1-4d77-8b6d-16aec9fb6e85","ios":"levelo://app?vid=8a98e2ce-aee1-4d77-8b6d-16aec9fb6e85"},"vehicle_type_id":"4","last_reported":1727172595,"current_range_meters":37600,"station_id":"ce4bgqh2rcd13ifvqc4g","pricing_plan_id":"cebpf4jnsgd1na2vs0mg"},{"bike_id":"d1d47486-1c37-4693-89cd-19a90e5cdde0","system_id":"levelo_inurba_marseille","lat":43.262,"lon":5.37936,"is_reserved":false,"is_disabled":false,"rental_uris":{"android":"levelo://app?vid=d1d47486-1c37-4693-89cd-19a90e5cdde0","ios":"levelo://app?vid=d1d47486-1c37-4693-89cd-19a90e5cdde0"},"vehicle_type_id":"4","last_reported":1727172595,"current_range_meters":38800,"station_id":"ce4bhjp2rcd13ifvqg90","pricing_plan_id":"cebpf4jnsgd1na2vs0mg"},{"bike_id":"afa093e5-7bb5-44f0-9e79-efa67d676153","system_id":"levelo_inurba_marseille","lat":43.29568,"lon":5.37517,"is_reserved":false,"is_disabled":false,"rental_uris":{"android":"levelo://app?vid=afa093e5-7bb5-44f0-9e79-efa67d676153","ios":"levelo://app?vid=afa093e5-7bb5-44f0-9e79-efa67d676153"},"vehicle_type_id":"4","last_reported":1727172595,"current_range_meters":23200,"station_id":"ce4bgh92rcd13ifvqb50","pricing_plan_id":"cebpf4jnsgd1na2vs0mg"},{"bike_id":"26e9936a-64b5-43cc-9447-451e3bc4bc9b","system_id":"levelo_inurba_marseille","lat":43.292572,"lon":5.384428,"is_reserved":false,"is_disabled":false,"rental_uris":{"android":"levelo://app?vid=26e9936a-64b5-43cc-9447-451e3bc4bc9b","ios":"levelo://app?vid=26e9936a-64b5-43cc-9447-451e3bc4bc9b"},"vehicle_type_id":"4","last_reported":1727172595,"current_range_meters":12800,"station_id":"ce4bh692rcd13ifvqea0","pricing_plan_id":"cebpf4jnsgd1na2vs0mg"},{"bike_id":"4b770073-7726-4e78-b34f-a257261dc7d3","system_id":"levelo_inurba_marseille","lat":43.29557,"lon":5.42281,"is_reserved":false,"is_disabled":false,"rental_uris":{"android":"levelo://app?vid=4b770073-7726-4e78-b34f-a257261dc7d3","ios":"levelo://app?vid=4b770073-7726-4e78-b34f-a257261dc7d3"},"vehicle_type_id":"4","last_reported":1727172595,"current_range_meters":28800,"station_id":"ce4bhph2rcd13ifvqhdg","pricing_plan_id":"cebpf4jnsgd1na2vs0mg"},{"bike_id":"d8652924-2187-42bf-848a-1f35c66a4826","system_id":"levelo_inurba_marseille","lat":43.24071,"lon":5.37764,"is_reserved":false,"is_disabled":false,"rental_uris":{"android":"levelo://app?vid=d8652924-2187-42bf-848a-1f35c66a4826","ios":"levelo://app?vid=d8652924-2187-42bf-848a-1f35c66a4826"},"vehicle_type_id":"4","last_reported":1727172595,"current_range_meters":15200,"station_id":"ce4bhnp2rcd13ifvqgvg","pricing_plan_id":"cebpf4jnsgd1na2vs0mg"},{"bike_id":"841e21f9-f305-4ce7-9733-44766f15a953","system_id":"levelo_inurba_marseille","lat":43.29906,"lon":5.38144,"is_reserved":false,"is_disabled":false,"rental_uris":{"android":"levelo://app?vid=841e21f9-f305-4ce7-9733-44766f15a953","ios":"levelo://app?vid=841e21f9-f305-4ce7-9733-44766f15a953"},"vehicle_type_id":"4","last_reported":1727172595,"current_range_meters":36400,"station_id":"ce4bgj12rcd13ifvqbc0","pricing_plan_id":"cebpf4jnsgd1na2vs0mg"},{"bike_id":"efcab10f-f8b5-4015-93f2-6e1654482c73","system_id":"levelo_inurba_marseille","lat":43.24076,"lon":5.37766,"is_reserved":false,"is_disabled":false,"rental_uris":{"android":"levelo://app?vid=efcab10f-f8b5-4015-93f2-6e1654482c73","ios":"levelo://app?vid=efcab10f-f8b5-4015-93f2-6e1654482c73"},"vehicle_type_id":"4","last_reported":1727172595,"current_range_meters":33200,"station_id":"ce4bhnp2rcd13ifvqgvg","pricing_plan_id":"cebpf4jnsgd1na2vs0mg"},{"bike_id":"49d80325-faab-4d79-8ece-643304efb99e","system_id":"levelo_inurba_marseille","lat":43.26682,"lon":5.38267,"is_reserved":false,"is_disabled":false,"rental_uris":{"android":"levelo://app?vid=49d80325-faab-4d79-8ece-643304efb99e","ios":"levelo://app?vid=49d80325-faab-4d79-8ece-643304efb99e"},"vehicle_type_id":"4","last_reported":1727172595,"current_range_meters":38400,"station_id":"ce4bhg92rcd13ifvqf90","pricing_plan_id":"cebpf4jnsgd1na2vs0mg"},{"bike_id":"2a91c602-7af4-42b1-8c72-3df85588a145","system_id":"levelo_inurba_marseille","lat":43.277689,"lon":5.388177,"is_reserved":false,"is_disabled":false,"rental_uris":{"android":"levelo://app?vid=2a91c602-7af4-42b1-8c72-3df85588a145","ios":"levelo://app?vid=2a91c602-7af4-42b1-8c72-3df85588a145"},"vehicle_type_id":"4","last_reported":1727172595,"current_range_meters":38800,"station_id":"ce4bhi12rcd13ifvqfo0","pricing_plan_id":"cebpf4jnsgd1na2vs0mg"},{"bike_id":"e59b0fcb-9ec1-4e05-a6bd-12eb54ed61ec","system_id":"levelo_inurba_marseille","lat":43.2668,"lon":5.38263,"is_reserved":false,"is_disabled":false,"rental_uris":{"android":"levelo://app?vid=e59b0fcb-9ec1-4e05-a6bd-12eb54ed61ec","ios":"levelo://app?vid=e59b0fcb-9ec1-4e05-a6bd-12eb54ed61ec"},"vehicle_type_id":"4","last_reported":1727172595,"current_range_meters":35600,"station_id":"ce4bhg92rcd13ifvqf90","pricing_plan_id":"cebpf4jnsgd1na2vs0mg"},{"bike_id":"48557990-4eb5-4fa2-b998-12748800b44a","system_id":"levelo_inurba_marseille","lat":43.27074,"lon":5.42292,"is_reserved":false,"is_disabled":false,"rental_uris":{"android":"levelo://app?vid=48557990-4eb5-4fa2-b998-12748800b44a","ios":"levelo://app?vid=48557990-4eb5-4fa2-b998-12748800b44a"},"vehicle_type_id":"4","last_reported":1727172595,"current_range_meters":34000,"station_id":"ce4bhk92rcd13ifvqgb0","pricing_plan_id":"cebpf4jnsgd1na2vs0mg"},{"bike_id":"2c567e6d-9516-43a8-a805-6a796053112e","system_id":"levelo_inurba_marseille","lat":43.32484,"lon":5.3657,"is_reserved":false,"is_disabled":false,"rental_uris":{"android":"levelo://app?vid=2c567e6d-9516-43a8-a805-6a796053112e","ios":"levelo://app?vid=2c567e6d-9516-43a8-a805-6a796053112e"},"vehicle_type_id":"4","last_reported":1727172595,"current_range_meters":40000,"station_id":"ce4bhs12rcd13ifvqhvg","pricing_plan_id":"cebpf4jnsgd1na2vs0mg"},{"bike_id":"fde2d6d4-9d31-4a99-9484-69258ce91198","system_id":"levelo_inurba_marseille","lat":43.30896,"lon":5.37192,"is_reserved":false,"is_disabled":false,"rental_uris":{"android":"levelo://app?vid=fde2d6d4-9d31-4a99-9484-69258ce91198","ios":"levelo://app?vid=fde2d6d4-9d31-4a99-9484-69258ce91198"},"vehicle_type_id":"4","last_reported":1727172595,"current_range_meters":24800,"station_id":"ce4bguh2rcd13ifvqckg","pricing_plan_id":"cebpf4jnsgd1na2vs0mg"},{"bike_id":"3741c135-6583-410d-87b9-b4310a4bf662","system_id":"levelo_inurba_marseille","lat":43.26677,"lon":5.38272,"is_reserved":false,"is_disabled":false,"rental_uris":{"android":"levelo://app?vid=3741c135-6583-410d-87b9-b4310a4bf662","ios":"levelo://app?vid=3741c135-6583-410d-87b9-b4310a4bf662"},"vehicle_type_id":"4","last_reported":1727172595,"current_range_meters":39200,"station_id":"ce4bhg92rcd13ifvqf90","pricing_plan_id":"cebpf4jnsgd1na2vs0mg"},{"bike_id":"4eecbec9-f03f-4d5b-9fc0-36edfe613779","system_id":"levelo_inurba_marseille","lat":43.28259,"lon":5.35071,"is_reserved":false,"is_disabled":false,"rental_uris":{"android":"levelo://app?vid=4eecbec9-f03f-4d5b-9fc0-36edfe613779","ios":"levelo://app?vid=4eecbec9-f03f-4d5b-9fc0-36edfe613779"},"vehicle_type_id":"4","last_reported":1727172595,"current_range_meters":17600,"station_id":"ce4bhbp2rcd13ifvqerg","pricing_plan_id":"cebpf4jnsgd1na2vs0mg"},{"bike_id":"cb037699-9180-4cca-9257-9699aba3381e","system_id":"levelo_inurba_marseille","lat":43.24995,"lon":5.3892,"is_reserved":false,"is_disabled":false,"rental_uris":{"android":"levelo://app?vid=cb037699-9180-4cca-9257-9699aba3381e","ios":"levelo://app?vid=cb037699-9180-4cca-9257-9699aba3381e"},"vehicle_type_id":"4","last_reported":1727172595,"current_range_meters":36800,"station_id":"ce4bhgp2rcd13ifvqfd0","pricing_plan_id":"cebpf4jnsgd1na2vs0mg"},{"bike_id":"17701005-77c3-4e4f-a0b4-b2ece630517d","system_id":"levelo_inurba_marseille","lat":43.23955,"lon":5.36632,"is_reserved":false,"is_disabled":false,"rental_uris":{"android":"levelo://app?vid=17701005-77c3-4e4f-a0b4-b2ece630517d","ios":"levelo://app?vid=17701005-77c3-4e4f-a0b4-b2ece630517d"},"vehicle_type_id":"4","last_reported":1727172595,"current_range_meters":38800,"station_id":"ce4bhi12rcd13ifvqfp0","pricing_plan_id":"cebpf4jnsgd1na2vs0mg"},{"bike_id":"c95db81f-57e1-4d8c-ab9b-e45d7c4ed3f2","system_id":"levelo_inurba_marseille","lat":43.29532,"lon":5.39052,"is_reserved":false,"is_disabled":false,"rental_uris":{"android":"levelo://app?vid=c95db81f-57e1-4d8c-ab9b-e45d7c4ed3f2","ios":"levelo://app?vid=c95db81f-57e1-4d8c-ab9b-e45d7c4ed3f2"},"vehicle_type_id":"4","last_reported":1727172595,"current_range_meters":37600,"station_id":"ce4bh3p2rcd13ifvqdp0","pricing_plan_id":"cebpf4jnsgd1na2vs0mg"},{"bike_id":"e5ecb953-43b6-40e6-9f73-99c952f50042","system_id":"levelo_inurba_marseille","lat":43.23146,"lon":5.43719,"is_reserved":false,"is_disabled":false,"rental_uris":{"android":"levelo://app?vid=e5ecb953-43b6-40e6-9f73-99c952f50042","ios":"levelo://app?vid=e5ecb953-43b6-40e6-9f73-99c952f50042"},"vehicle_type_id":"4","last_reported":1727172595,"current_range_meters":24800,"station_id":"ce4bhmp2rcd13ifvqgog","pricing_plan_id":"cebpf4jnsgd1na2vs0mg"},{"bike_id":"fe57e638-2e32-4de9-a694-726eae663078","system_id":"levelo_inurba_marseille","lat":43.305485,"lon":5.365405,"is_reserved":false,"is_disabled":false,"rental_uris":{"android":"levelo://app?vid=fe57e638-2e32-4de9-a694-726eae663078","ios":"levelo://app?vid=fe57e638-2e32-4de9-a694-726eae663078"},"vehicle_type_id":"4","last_reported":1727172595,"current_range_meters":30000,"station_id":"ce4bgs12rcd13ifvqcag","pricing_plan_id":"cebpf4jnsgd1na2vs0mg"},{"bike_id":"5f0bbf15-234c-4d10-8d49-5e13abf3af54","system_id":"levelo_inurba_marseille","lat":43.26939,"lon":5.40256,"is_reserved":false,"is_disabled":false,"rental_uris":{"android":"levelo://app?vid=5f0bbf15-234c-4d10-8d49-5e13abf3af54","ios":"levelo://app?vid=5f0bbf15-234c-4d10-8d49-5e13abf3af54"},"vehicle_type_id":"4","last_reported":1727172595,"current_range_meters":38000,"station_id":"cjm6bp8fraef2m0cb0m0","pricing_plan_id":"cebpf4jnsgd1na2vs0mg"},{"bike_id":"63ac3f3b-affc-4ed0-ad00-6c7dc2e92a73","system_id":"levelo_inurba_marseille","lat":43.30531,"lon":5.36722,"is_reserved":false,"is_disabled":false,"rental_uris":{"android":"levelo://app?vid=63ac3f3b-affc-4ed0-ad00-6c7dc2e92a73","ios":"levelo://app?vid=63ac3f3b-affc-4ed0-ad00-6c7dc2e92a73"},"vehicle_type_id":"4","last_reported":1727172595,"current_range_meters":21600,"station_id":"ce4bgrp2rcd13ifvqc9g","pricing_plan_id":"cebpf4jnsgd1na2vs0mg"},{"bike_id":"14b54b12-0404-4e43-847e-0a9d7b245337","system_id":"levelo_inurba_marseille","lat":43.273273,"lon":5.390851,"is_reserved":false,"is_disabled":false,"rental_uris":{"android":"levelo://app?vid=14b54b12-0404-4e43-847e-0a9d7b245337","ios":"levelo://app?vid=14b54b12-0404-4e43-847e-0a9d7b245337"},"vehicle_type_id":"4","last_reported":1727172595,"current_range_meters":23200,"station_id":"ce4bhgp2rcd13ifvqfe0","pricing_plan_id":"cebpf4jnsgd1na2vs0mg"},{"bike_id":"01e3177f-2980-42c0-bc79-421123d82f75","system_id":"levelo_inurba_marseille","lat":43.25936,"lon":5.40899,"is_reserved":false,"is_disabled":false,"rental_uris":{"android":"levelo://app?vid=01e3177f-2980-42c0-bc79-421123d82f75","ios":"levelo://app?vid=01e3177f-2980-42c0-bc79-421123d82f75"},"vehicle_type_id":"4","last_reported":1727172595,"current_range_meters":9200,"station_id":"ce4bhm92rcd13ifvqglg","pricing_plan_id":"cebpf4jnsgd1na2vs0mg"},{"bike_id":"ef462b40-5abb-456e-ae03-2b347f34b8dc","system_id":"levelo_inurba_marseille","lat":43.30476,"lon":5.37907,"is_reserved":false,"is_disabled":false,"rental_uris":{"android":"levelo://app?vid=ef462b40-5abb-456e-ae03-2b347f34b8dc","ios":"levelo://app?vid=ef462b40-5abb-456e-ae03-2b347f34b8dc"},"vehicle_type_id":"4","last_reported":1727172595,"current_range_meters":24000,"station_id":"ce4bgup2rcd13ifvqcn0","pricing_plan_id":"cebpf4jnsgd1na2vs0mg"},{"bike_id":"b77c8ffc-c5d2-4cd3-94b0-2c8496f3b46f","system_id":"levelo_inurba_marseille","lat":43.24662,"lon":5.38163,"is_reserved":false,"is_disabled":false,"rental_uris":{"android":"levelo://app?vid=b77c8ffc-c5d2-4cd3-94b0-2c8496f3b46f","ios":"levelo://app?vid=b77c8ffc-c5d2-4cd3-94b0-2c8496f3b46f"},"vehicle_type_id":"4","last_reported":1727172595,"current_range_meters":23200,"station_id":"ce4bhih2rcd13ifvqfr0","pricing_plan_id":"cebpf4jnsgd1na2vs0mg"},{"bike_id":"87bc3c3a-5b0d-4d32-b107-ce17692bf59d","system_id":"levelo_inurba_marseille","lat":43.2315,"lon":5.43702,"is_reserved":false,"is_disabled":false,"rental_uris":{"android":"levelo://app?vid=87bc3c3a-5b0d-4d32-b107-ce17692bf59d","ios":"levelo://app?vid=87bc3c3a-5b0d-4d32-b107-ce17692bf59d"},"vehicle_type_id":"4","last_reported":1727172595,"current_range_meters":4800,"station_id":"ce4bhmp2rcd13ifvqgog","pricing_plan_id":"cebpf4jnsgd1na2vs0mg"},{"bike_id":"feb7e672-20ed-4429-a9fd-1f3290550401","system_id":"levelo_inurba_marseille","lat":43.337444,"lon":5.374475,"is_reserved":false,"is_disabled":false,"rental_uris":{"android":"levelo://app?vid=feb7e672-20ed-4429-a9fd-1f3290550401","ios":"levelo://app?vid=feb7e672-20ed-4429-a9fd-1f3290550401"},"vehicle_type_id":"4","last_reported":1727172595,"current_range_meters":30400,"station_id":"","pricing_plan_id":"cebpf4jnsgd1na2vs0mg"},{"bike_id":"66984918-1ddb-417f-8820-678cc0f01121","system_id":"levelo_inurba_marseille","lat":43.27369,"lon":5.3626,"is_reserved":false,"is_disabled":false,"rental_uris":{"android":"levelo://app?vid=66984918-1ddb-417f-8820-678cc0f01121","ios":"levelo://app?vid=66984918-1ddb-417f-8820-678cc0f01121"},"vehicle_type_id":"4","last_reported":1727172595,"current_range_meters":28800,"station_id":"ce4bhbh2rcd13ifvqeo0","pricing_plan_id":"cebpf4jnsgd1na2vs0mg"},{"bike_id":"b431df12-6e80-48dd-8eb1-e71cd3d4f829","system_id":"levelo_inurba_marseille","lat":43.2996,"lon":5.38502,"is_reserved":false,"is_disabled":false,"rental_uris":{"android":"levelo://app?vid=b431df12-6e80-48dd-8eb1-e71cd3d4f829","ios":"levelo://app?vid=b431df12-6e80-48dd-8eb1-e71cd3d4f829"},"vehicle_type_id":"4","last_reported":1727172595,"current_range_meters":27200,"station_id":"ce4bgj92rcd13ifvqbd0","pricing_plan_id":"cebpf4jnsgd1na2vs0mg"},{"bike_id":"a0c97515-3c94-4a97-8379-f7b7767cc614","system_id":"levelo_inurba_marseille","lat":43.24078,"lon":5.37757,"is_reserved":false,"is_disabled":false,"rental_uris":{"android":"levelo://app?vid=a0c97515-3c94-4a97-8379-f7b7767cc614","ios":"levelo://app?vid=a0c97515-3c94-4a97-8379-f7b7767cc614"},"vehicle_type_id":"4","last_reported":1727172595,"current_range_meters":25600,"station_id":"ce4bhnp2rcd13ifvqgvg","pricing_plan_id":"cebpf4jnsgd1na2vs0mg"},{"bike_id":"0ac2590e-473f-4f5b-8f41-e946497d27c2","system_id":"levelo_inurba_marseille","lat":43.3085,"lon":5.39659,"is_reserved":false,"is_disabled":false,"rental_uris":{"android":"levelo://app?vid=0ac2590e-473f-4f5b-8f41-e946497d27c2","ios":"levelo://app?vid=0ac2590e-473f-4f5b-8f41-e946497d27c2"},"vehicle_type_id":"4","last_reported":1727172595,"current_range_meters":30800,"station_id":"ce4bh012rcd13ifvqcv0","pricing_plan_id":"cebpf4jnsgd1na2vs0mg"},{"bike_id":"674055bd-c5e5-45c3-9df3-9ac9937bb517","system_id":"levelo_inurba_marseille","lat":43.264955,"lon":5.395418,"is_reserved":false,"is_disabled":false,"rental_uris":{"android":"levelo://app?vid=674055bd-c5e5-45c3-9df3-9ac9937bb517","ios":"levelo://app?vid=674055bd-c5e5-45c3-9df3-9ac9937bb517"},"vehicle_type_id":"4","last_reported":1727172595,"current_range_meters":20400,"station_id":"ce4bhi12rcd13ifvqfq0","pricing_plan_id":"cebpf4jnsgd1na2vs0mg"},{"bike_id":"fce4c3c1-622f-4010-980f-7950b369c25e","system_id":"levelo_inurba_marseille","lat":43.30459,"lon":5.37913,"is_reserved":false,"is_disabled":false,"rental_uris":{"android":"levelo://app?vid=fce4c3c1-622f-4010-980f-7950b369c25e","ios":"levelo://app?vid=fce4c3c1-622f-4010-980f-7950b369c25e"},"vehicle_type_id":"4","last_reported":1727172595,"current_range_meters":37600,"station_id":"ce4bgup2rcd13ifvqcn0","pricing_plan_id":"cebpf4jnsgd1na2vs0mg"},{"bike_id":"337d797f-5bad-4e42-a3a9-741eceae0aa0","system_id":"levelo_inurba_marseille","lat":43.33723,"lon":5.39183,"is_reserved":false,"is_disabled":false,"rental_uris":{"android":"levelo://app?vid=337d797f-5bad-4e42-a3a9-741eceae0aa0","ios":"levelo://app?vid=337d797f-5bad-4e42-a3a9-741eceae0aa0"},"vehicle_type_id":"4","last_reported":1727172595,"current_range_meters":37600,"station_id":"ce4bhr92rcd13ifvqhsg","pricing_plan_id":"cebpf4jnsgd1na2vs0mg"},{"bike_id":"4d248d67-7876-4d4b-a4d0-58c880f6e169","system_id":"levelo_inurba_marseille","lat":43.3014,"lon":5.37424,"is_reserved":false,"is_disabled":false,"rental_uris":{"android":"levelo://app?vid=4d248d67-7876-4d4b-a4d0-58c880f6e169","ios":"levelo://app?vid=4d248d67-7876-4d4b-a4d0-58c880f6e169"},"vehicle_type_id":"4","last_reported":1727172595,"current_range_meters":36800,"station_id":"ce4bgs92rcd13ifvqcc0","pricing_plan_id":"cebpf4jnsgd1na2vs0mg"},{"bike_id":"ebabd93c-8308-4f8a-93ac-d572213397f7","system_id":"levelo_inurba_marseille","lat":43.27484,"lon":5.42465,"is_reserved":false,"is_disabled":false,"rental_uris":{"android":"levelo://app?vid=ebabd93c-8308-4f8a-93ac-d572213397f7","ios":"levelo://app?vid=ebabd93c-8308-4f8a-93ac-d572213397f7"},"vehicle_type_id":"4","last_reported":1727172595,"current_range_meters":3200,"station_id":"ce4bhn92rcd13ifvqgrg","pricing_plan_id":"cebpf4jnsgd1na2vs0mg"},{"bike_id":"313886ea-d7e6-4f46-88c2-d20fced15e63","system_id":"levelo_inurba_marseille","lat":43.27496,"lon":5.42451,"is_reserved":false,"is_disabled":false,"rental_uris":{"android":"levelo://app?vid=313886ea-d7e6-4f46-88c2-d20fced15e63","ios":"levelo://app?vid=313886ea-d7e6-4f46-88c2-d20fced15e63"},"vehicle_type_id":"4","last_reported":1727172595,"current_range_meters":8400,"station_id":"ce4bhn92rcd13ifvqgrg","pricing_plan_id":"cebpf4jnsgd1na2vs0mg"},{"bike_id":"4a4bfd88-bdfc-4802-b3a8-e798e4274727","system_id":"levelo_inurba_marseille","lat":43.32292,"lon":5.38272,"is_reserved":false,"is_disabled":false,"rental_uris":{"android":"levelo://app?vid=4a4bfd88-bdfc-4802-b3a8-e798e4274727","ios":"levelo://app?vid=4a4bfd88-bdfc-4802-b3a8-e798e4274727"},"vehicle_type_id":"4","last_reported":1727172595,"current_range_meters":34000,"station_id":"ce4bhr12rcd13ifvqhqg","pricing_plan_id":"cebpf4jnsgd1na2vs0mg"},{"bike_id":"fe9291c0-c1e0-47d3-902d-7bd90e99bf30","system_id":"levelo_inurba_marseille","lat":43.25935,"lon":5.40912,"is_reserved":false,"is_disabled":false,"rental_uris":{"android":"levelo://app?vid=fe9291c0-c1e0-47d3-902d-7bd90e99bf30","ios":"levelo://app?vid=fe9291c0-c1e0-47d3-902d-7bd90e99bf30"},"vehicle_type_id":"4","last_reported":1727172595,"current_range_meters":36000,"station_id":"ce4bhm92rcd13ifvqglg","pricing_plan_id":"cebpf4jnsgd1na2vs0mg"},{"bike_id":"18da4ebd-d367-4c55-b156-dabc68113dce","system_id":"levelo_inurba_marseille","lat":43.25867,"lon":5.39896,"is_reserved":false,"is_disabled":false,"rental_uris":{"android":"levelo://app?vid=18da4ebd-d367-4c55-b156-dabc68113dce","ios":"levelo://app?vid=18da4ebd-d367-4c55-b156-dabc68113dce"},"vehicle_type_id":"4","last_reported":1727172595,"current_range_meters":26000,"station_id":"ce4bhl92rcd13ifvqghg","pricing_plan_id":"cebpf4jnsgd1na2vs0mg"},{"bike_id":"6a234ea4-e692-42a3-ac3e-9d89c87610c4","system_id":"levelo_inurba_marseille","lat":43.2742,"lon":5.39415,"is_reserved":false,"is_disabled":false,"rental_uris":{"android":"levelo://app?vid=6a234ea4-e692-42a3-ac3e-9d89c87610c4","ios":"levelo://app?vid=6a234ea4-e692-42a3-ac3e-9d89c87610c4"},"vehicle_type_id":"4","last_reported":1727172595,"current_range_meters":22000,"station_id":"ce4bhdp2rcd13ifvqf20","pricing_plan_id":"cebpf4jnsgd1na2vs0mg"},{"bike_id":"1c7e4786-9ca9-4f60-a6d4-ec885e073639","system_id":"levelo_inurba_marseille","lat":43.27498,"lon":5.42444,"is_reserved":false,"is_disabled":false,"rental_uris":{"android":"levelo://app?vid=1c7e4786-9ca9-4f60-a6d4-ec885e073639","ios":"levelo://app?vid=1c7e4786-9ca9-4f60-a6d4-ec885e073639"},"vehicle_type_id":"4","last_reported":1727172595,"current_range_meters":39200,"station_id":"ce4bhn92rcd13ifvqgrg","pricing_plan_id":"cebpf4jnsgd1na2vs0mg"},{"bike_id":"1e890691-54ce-4d02-8e0c-8fa33fd77705","system_id":"levelo_inurba_marseille","lat":43.29716,"lon":5.37685,"is_reserved":false,"is_disabled":false,"rental_uris":{"android":"levelo://app?vid=1e890691-54ce-4d02-8e0c-8fa33fd77705","ios":"levelo://app?vid=1e890691-54ce-4d02-8e0c-8fa33fd77705"},"vehicle_type_id":"4","last_reported":1727172595,"current_range_meters":9600,"station_id":"ce4bgkh2rcd13ifvqbl0","pricing_plan_id":"cebpf4jnsgd1na2vs0mg"},{"bike_id":"a2f7dd34-66d4-4c67-9da2-cff9c00429ff","system_id":"levelo_inurba_marseille","lat":43.31127,"lon":5.37764,"is_reserved":false,"is_disabled":false,"rental_uris":{"android":"levelo://app?vid=a2f7dd34-66d4-4c67-9da2-cff9c00429ff","ios":"levelo://app?vid=a2f7dd34-66d4-4c67-9da2-cff9c00429ff"},"vehicle_type_id":"4","last_reported":1727172595,"current_range_meters":15200,"station_id":"ce4bgt92rcd13ifvqcg0","pricing_plan_id":"cebpf4jnsgd1na2vs0mg"},{"bike_id":"dbd33b64-19e1-4449-9362-cfdfec5c7d6b","system_id":"levelo_inurba_marseille","lat":43.31223,"lon":5.36872,"is_reserved":false,"is_disabled":false,"rental_uris":{"android":"levelo://app?vid=dbd33b64-19e1-4449-9362-cfdfec5c7d6b","ios":"levelo://app?vid=dbd33b64-19e1-4449-9362-cfdfec5c7d6b"},"vehicle_type_id":"4","last_reported":1727172595,"current_range_meters":32400,"station_id":"ce4bgl92rcd13ifvqbq0","pricing_plan_id":"cebpf4jnsgd1na2vs0mg"},{"bike_id":"7a5e54d3-cb96-476c-8b83-730cce3955d0","system_id":"levelo_inurba_marseille","lat":43.313567,"lon":5.367031,"is_reserved":false,"is_disabled":false,"rental_uris":{"android":"levelo://app?vid=7a5e54d3-cb96-476c-8b83-730cce3955d0","ios":"levelo://app?vid=7a5e54d3-cb96-476c-8b83-730cce3955d0"},"vehicle_type_id":"4","last_reported":1727172595,"current_range_meters":24800,"station_id":"ce4bgr92rcd13ifvqc6g","pricing_plan_id":"cebpf4jnsgd1na2vs0mg"},{"bike_id":"80c09bcd-f591-4f57-827d-58dd1b44e8f1","system_id":"levelo_inurba_marseille","lat":43.23967,"lon":5.36628,"is_reserved":false,"is_disabled":false,"rental_uris":{"android":"levelo://app?vid=80c09bcd-f591-4f57-827d-58dd1b44e8f1","ios":"levelo://app?vid=80c09bcd-f591-4f57-827d-58dd1b44e8f1"},"vehicle_type_id":"4","last_reported":1727172595,"current_range_meters":38800,"station_id":"ce4bhi12rcd13ifvqfp0","pricing_plan_id":"cebpf4jnsgd1na2vs0mg"},{"bike_id":"f57a687d-6e59-440f-a32c-db5cd432a50f","system_id":"levelo_inurba_marseille","lat":43.27063,"lon":5.42271,"is_reserved":false,"is_disabled":false,"rental_uris":{"android":"levelo://app?vid=f57a687d-6e59-440f-a32c-db5cd432a50f","ios":"levelo://app?vid=f57a687d-6e59-440f-a32c-db5cd432a50f"},"vehicle_type_id":"4","last_reported":1727172595,"current_range_meters":15200,"station_id":"ce4bhk92rcd13ifvqgb0","pricing_plan_id":"cebpf4jnsgd1na2vs0mg"},{"bike_id":"4310d7a3-ee90-4440-ad32-e2fa7a88ff77","system_id":"levelo_inurba_marseille","lat":43.30469,"lon":5.37907,"is_reserved":false,"is_disabled":false,"rental_uris":{"android":"levelo://app?vid=4310d7a3-ee90-4440-ad32-e2fa7a88ff77","ios":"levelo://app?vid=4310d7a3-ee90-4440-ad32-e2fa7a88ff77"},"vehicle_type_id":"4","last_reported":1727172595,"current_range_meters":33600,"station_id":"ce4bgup2rcd13ifvqcn0","pricing_plan_id":"cebpf4jnsgd1na2vs0mg"},{"bike_id":"527f8512-3393-48f9-8f7c-a7d320ece1f5","system_id":"levelo_inurba_marseille","lat":43.3361,"lon":5.41034,"is_reserved":false,"is_disabled":false,"rental_uris":{"android":"levelo://app?vid=527f8512-3393-48f9-8f7c-a7d320ece1f5","ios":"levelo://app?vid=527f8512-3393-48f9-8f7c-a7d320ece1f5"},"vehicle_type_id":"4","last_reported":1727172595,"current_range_meters":40000,"station_id":"ce4bhqh2rcd13ifvqhmg","pricing_plan_id":"cebpf4jnsgd1na2vs0mg"},{"bike_id":"ede37da0-431f-462e-af97-45c71435ab2a","system_id":"levelo_inurba_marseille","lat":43.24175,"lon":5.39714,"is_reserved":false,"is_disabled":false,"rental_uris":{"android":"levelo://app?vid=ede37da0-431f-462e-af97-45c71435ab2a","ios":"levelo://app?vid=ede37da0-431f-462e-af97-45c71435ab2a"},"vehicle_type_id":"4","last_reported":1727172595,"current_range_meters":27200,"station_id":"ce4bhn12rcd13ifvqgpg","pricing_plan_id":"cebpf4jnsgd1na2vs0mg"},{"bike_id":"3c5abc47-ec0e-4fb1-9d63-a70ffbf47084","system_id":"levelo_inurba_marseille","lat":43.26684,"lon":5.38264,"is_reserved":false,"is_disabled":false,"rental_uris":{"android":"levelo://app?vid=3c5abc47-ec0e-4fb1-9d63-a70ffbf47084","ios":"levelo://app?vid=3c5abc47-ec0e-4fb1-9d63-a70ffbf47084"},"vehicle_type_id":"4","last_reported":1727172595,"current_range_meters":14800,"station_id":"ce4bhg92rcd13ifvqf90","pricing_plan_id":"cebpf4jnsgd1na2vs0mg"},{"bike_id":"4820ed06-9b47-478c-b635-bbd2296b8f6f","system_id":"levelo_inurba_marseille","lat":43.29629,"lon":5.37731,"is_reserved":false,"is_disabled":false,"rental_uris":{"android":"levelo://app?vid=4820ed06-9b47-478c-b635-bbd2296b8f6f","ios":"levelo://app?vid=4820ed06-9b47-478c-b635-bbd2296b8f6f"},"vehicle_type_id":"4","last_reported":1727172595,"current_range_meters":26000,"station_id":"ce4bgi92rcd13ifvqb90","pricing_plan_id":"cebpf4jnsgd1na2vs0mg"},{"bike_id":"9559b53b-c56e-48cd-8fc6-433930529f8d","system_id":"levelo_inurba_marseille","lat":43.337444,"lon":5.374475,"is_reserved":false,"is_disabled":false,"rental_uris":{"android":"levelo://app?vid=9559b53b-c56e-48cd-8fc6-433930529f8d","ios":"levelo://app?vid=9559b53b-c56e-48cd-8fc6-433930529f8d"},"vehicle_type_id":"4","last_reported":1727172595,"current_range_meters":35600,"station_id":"","pricing_plan_id":"cebpf4jnsgd1na2vs0mg"},{"bike_id":"71fe9dd5-6eed-434e-abc0-108f9ba18246","system_id":"levelo_inurba_marseille","lat":43.32528,"lon":5.41448,"is_reserved":false,"is_disabled":false,"rental_uris":{"android":"levelo://app?vid=71fe9dd5-6eed-434e-abc0-108f9ba18246","ios":"levelo://app?vid=71fe9dd5-6eed-434e-abc0-108f9ba18246"},"vehicle_type_id":"4","last_reported":1727172595,"current_range_meters":39200,"station_id":"ce4bhq12rcd13ifvqhhg","pricing_plan_id":"cebpf4jnsgd1na2vs0mg"},{"bike_id":"dac4f1f7-b45f-4016-bd54-f9f5b40e592a","system_id":"levelo_inurba_marseille","lat":43.29217,"lon":5.37882,"is_reserved":false,"is_disabled":false,"rental_uris":{"android":"levelo://app?vid=dac4f1f7-b45f-4016-bd54-f9f5b40e592a","ios":"levelo://app?vid=dac4f1f7-b45f-4016-bd54-f9f5b40e592a"},"vehicle_type_id":"4","last_reported":1727172595,"current_range_meters":24400,"station_id":"ce4bh3p2rcd13ifvqdq0","pricing_plan_id":"cebpf4jnsgd1na2vs0mg"},{"bike_id":"0716664a-9969-45af-b937-5ca658b0d99e","system_id":"levelo_inurba_marseille","lat":43.30281,"lon":5.37713,"is_reserved":false,"is_disabled":false,"rental_uris":{"android":"levelo://app?vid=0716664a-9969-45af-b937-5ca658b0d99e","ios":"levelo://app?vid=0716664a-9969-45af-b937-5ca658b0d99e"},"vehicle_type_id":"4","last_reported":1727172595,"current_range_meters":27600,"station_id":"ce4bguh2rcd13ifvqcj0","pricing_plan_id":"cebpf4jnsgd1na2vs0mg"},{"bike_id":"6c1a0788-5ce8-43cb-8a92-deb020775856","system_id":"levelo_inurba_marseille","lat":43.3055,"lon":5.36719,"is_reserved":false,"is_disabled":false,"rental_uris":{"android":"levelo://app?vid=6c1a0788-5ce8-43cb-8a92-deb020775856","ios":"levelo://app?vid=6c1a0788-5ce8-43cb-8a92-deb020775856"},"vehicle_type_id":"4","last_reported":1727172595,"current_range_meters":17200,"station_id":"ce4bgrp2rcd13ifvqc9g","pricing_plan_id":"cebpf4jnsgd1na2vs0mg"},{"bike_id":"f19a187b-a827-4347-aa0a-56faf5fe56f4","system_id":"levelo_inurba_marseille","lat":43.2408,"lon":5.37743,"is_reserved":false,"is_disabled":false,"rental_uris":{"android":"levelo://app?vid=f19a187b-a827-4347-aa0a-56faf5fe56f4","ios":"levelo://app?vid=f19a187b-a827-4347-aa0a-56faf5fe56f4"},"vehicle_type_id":"4","last_reported":1727172595,"current_range_meters":26000,"station_id":"ce4bhnp2rcd13ifvqgvg","pricing_plan_id":"cebpf4jnsgd1na2vs0mg"},{"bike_id":"69761971-2323-45be-98e5-7912d6a588b0","system_id":"levelo_inurba_marseille","lat":43.30311,"lon":5.36901,"is_reserved":false,"is_disabled":false,"rental_uris":{"android":"levelo://app?vid=69761971-2323-45be-98e5-7912d6a588b0","ios":"levelo://app?vid=69761971-2323-45be-98e5-7912d6a588b0"},"vehicle_type_id":"4","last_reported":1727172595,"current_range_meters":38800,"station_id":"ce4bgqh2rcd13ifvqc5g","pricing_plan_id":"cebpf4jnsgd1na2vs0mg"},{"bike_id":"36a0fd46-93b1-40f5-88cc-a93c28e81a11","system_id":"levelo_inurba_marseille","lat":43.29551,"lon":5.42284,"is_reserved":false,"is_disabled":false,"rental_uris":{"android":"levelo://app?vid=36a0fd46-93b1-40f5-88cc-a93c28e81a11","ios":"levelo://app?vid=36a0fd46-93b1-40f5-88cc-a93c28e81a11"},"vehicle_type_id":"4","last_reported":1727172595,"current_range_meters":37600,"station_id":"ce4bhph2rcd13ifvqhdg","pricing_plan_id":"cebpf4jnsgd1na2vs0mg"},{"bike_id":"80395c44-8614-4479-ac23-2002c7f68794","system_id":"levelo_inurba_marseille","lat":43.30311,"lon":5.36899,"is_reserved":false,"is_disabled":false,"rental_uris":{"android":"levelo://app?vid=80395c44-8614-4479-ac23-2002c7f68794","ios":"levelo://app?vid=80395c44-8614-4479-ac23-2002c7f68794"},"vehicle_type_id":"4","last_reported":1727172595,"current_range_meters":6800,"station_id":"ce4bgqh2rcd13ifvqc5g","pricing_plan_id":"cebpf4jnsgd1na2vs0mg"},{"bike_id":"9a6cf666-3ed7-4d3d-afb8-56b0230a4d6b","system_id":"levelo_inurba_marseille","lat":43.27988,"lon":5.4166,"is_reserved":false,"is_disabled":false,"rental_uris":{"android":"levelo://app?vid=9a6cf666-3ed7-4d3d-afb8-56b0230a4d6b","ios":"levelo://app?vid=9a6cf666-3ed7-4d3d-afb8-56b0230a4d6b"},"vehicle_type_id":"4","last_reported":1727172595,"current_range_meters":23200,"station_id":"ce4bho12rcd13ifvqh1g","pricing_plan_id":"cebpf4jnsgd1na2vs0mg"},{"bike_id":"94b7041a-5c24-4375-8179-1e0eb4b13407","system_id":"levelo_inurba_marseille","lat":43.30306,"lon":5.36913,"is_reserved":false,"is_disabled":false,"rental_uris":{"android":"levelo://app?vid=94b7041a-5c24-4375-8179-1e0eb4b13407","ios":"levelo://app?vid=94b7041a-5c24-4375-8179-1e0eb4b13407"},"vehicle_type_id":"4","last_reported":1727172595,"current_range_meters":38800,"station_id":"ce4bgqh2rcd13ifvqc5g","pricing_plan_id":"cebpf4jnsgd1na2vs0mg"},{"bike_id":"58c3919d-0a8d-421f-b8b1-973b347c73dd","system_id":"levelo_inurba_marseille","lat":43.27319,"lon":5.39084,"is_reserved":false,"is_disabled":false,"rental_uris":{"android":"levelo://app?vid=58c3919d-0a8d-421f-b8b1-973b347c73dd","ios":"levelo://app?vid=58c3919d-0a8d-421f-b8b1-973b347c73dd"},"vehicle_type_id":"4","last_reported":1727172595,"current_range_meters":33200,"station_id":"ce4bhgp2rcd13ifvqfe0","pricing_plan_id":"cebpf4jnsgd1na2vs0mg"},{"bike_id":"4d48d42a-04a8-48fd-b6b5-a41934e0147b","system_id":"levelo_inurba_marseille","lat":43.33603,"lon":5.41027,"is_reserved":false,"is_disabled":false,"rental_uris":{"android":"levelo://app?vid=4d48d42a-04a8-48fd-b6b5-a41934e0147b","ios":"levelo://app?vid=4d48d42a-04a8-48fd-b6b5-a41934e0147b"},"vehicle_type_id":"4","last_reported":1727172595,"current_range_meters":20800,"station_id":"ce4bhqh2rcd13ifvqhmg","pricing_plan_id":"cebpf4jnsgd1na2vs0mg"},{"bike_id":"357624b9-ac3e-4d1c-a8e6-db4d2b9293ce","system_id":"levelo_inurba_marseille","lat":43.29041,"lon":5.39951,"is_reserved":false,"is_disabled":false,"rental_uris":{"android":"levelo://app?vid=357624b9-ac3e-4d1c-a8e6-db4d2b9293ce","ios":"levelo://app?vid=357624b9-ac3e-4d1c-a8e6-db4d2b9293ce"},"vehicle_type_id":"4","last_reported":1727172595,"current_range_meters":34800,"station_id":"ce4bh392rcd13ifvqdm0","pricing_plan_id":"cebpf4jnsgd1na2vs0mg"},{"bike_id":"9a3a41f2-cae1-4c28-ba2c-ac64d958a2f8","system_id":"levelo_inurba_marseille","lat":43.30142,"lon":5.37405,"is_reserved":false,"is_disabled":false,"rental_uris":{"android":"levelo://app?vid=9a3a41f2-cae1-4c28-ba2c-ac64d958a2f8","ios":"levelo://app?vid=9a3a41f2-cae1-4c28-ba2c-ac64d958a2f8"},"vehicle_type_id":"4","last_reported":1727172595,"current_range_meters":37600,"station_id":"ce4bgs92rcd13ifvqcc0","pricing_plan_id":"cebpf4jnsgd1na2vs0mg"},{"bike_id":"773ab278-8fe8-4ef2-9130-a31f1a8853aa","system_id":"levelo_inurba_marseille","lat":43.23143,"lon":5.4373,"is_reserved":false,"is_disabled":false,"rental_uris":{"android":"levelo://app?vid=773ab278-8fe8-4ef2-9130-a31f1a8853aa","ios":"levelo://app?vid=773ab278-8fe8-4ef2-9130-a31f1a8853aa"},"vehicle_type_id":"4","last_reported":1727172595,"current_range_meters":22000,"station_id":"ce4bhmp2rcd13ifvqgog","pricing_plan_id":"cebpf4jnsgd1na2vs0mg"},{"bike_id":"6ddafbe1-16f1-463a-be44-0bef68acf23b","system_id":"levelo_inurba_marseille","lat":43.27189,"lon":5.40995,"is_reserved":false,"is_disabled":false,"rental_uris":{"android":"levelo://app?vid=6ddafbe1-16f1-463a-be44-0bef68acf23b","ios":"levelo://app?vid=6ddafbe1-16f1-463a-be44-0bef68acf23b"},"vehicle_type_id":"4","last_reported":1727172595,"current_range_meters":32000,"station_id":"ce4bhl12rcd13ifvqgf0","pricing_plan_id":"cebpf4jnsgd1na2vs0mg"},{"bike_id":"35be4688-6680-4c6e-8986-6b48e8be9ac6","system_id":"levelo_inurba_marseille","lat":43.27486,"lon":5.42458,"is_reserved":false,"is_disabled":false,"rental_uris":{"android":"levelo://app?vid=35be4688-6680-4c6e-8986-6b48e8be9ac6","ios":"levelo://app?vid=35be4688-6680-4c6e-8986-6b48e8be9ac6"},"vehicle_type_id":"4","last_reported":1727172595,"current_range_meters":25200,"station_id":"ce4bhn92rcd13ifvqgrg","pricing_plan_id":"cebpf4jnsgd1na2vs0mg"},{"bike_id":"5f8cfaeb-78bd-45be-81a1-4e06ff46f61f","system_id":"levelo_inurba_marseille","lat":43.30142,"lon":5.37418,"is_reserved":false,"is_disabled":false,"rental_uris":{"android":"levelo://app?vid=5f8cfaeb-78bd-45be-81a1-4e06ff46f61f","ios":"levelo://app?vid=5f8cfaeb-78bd-45be-81a1-4e06ff46f61f"},"vehicle_type_id":"4","last_reported":1727172595,"current_range_meters":17600,"station_id":"ce4bgs92rcd13ifvqcc0","pricing_plan_id":"cebpf4jnsgd1na2vs0mg"},{"bike_id":"fd19ea05-0c3d-4fdf-9085-77114a710376","system_id":"levelo_inurba_marseille","lat":43.25,"lon":5.38927,"is_reserved":false,"is_disabled":false,"rental_uris":{"android":"levelo://app?vid=fd19ea05-0c3d-4fdf-9085-77114a710376","ios":"levelo://app?vid=fd19ea05-0c3d-4fdf-9085-77114a710376"},"vehicle_type_id":"4","last_reported":1727172595,"current_range_meters":25200,"station_id":"ce4bhgp2rcd13ifvqfd0","pricing_plan_id":"cebpf4jnsgd1na2vs0mg"},