{"last_updated":1732964800,"ttl":60,"version":"2.2","data":{"bikes":[{"bike_id":"c154376e-81a4-4c09-89dd-3a6cf12029e1","system_id":"levelo_inurba_marseille","lat":43.23055,"lon":5.35487,"is_reserved":false,"is_disabled":false,"rental_uris":{"android":"levelo://app?vid=c154376e-81a4-4c09-89dd-3a6cf12029e1","ios":"levelo://app?vid=c154376e-81a4-4c09-89dd-3a6cf12029e1"},"vehicle_type_id":"4","last_reported":1732964800,"current_range_meters":12800,"station_id":"cpo3342slgdg3j2ifvpg","pricing_plan_id":"cebpf4jnsgd1na2vs0mg"},{"bike_id":"b856c8b4-412d-4c25-bdd4-e6b29aed04cb","system_id":"levelo_inurba_marseille","lat":43.22933,"lon":5.35379,"is_reserved":false,"is_disabled":false,"rental_uris":{"android":"levelo://app?vid=b856c8b4-412d-4c25-bdd4-e6b29aed04cb","ios":"levelo://app?vid=b856c8b4-412d-4c25-bdd4-e6b29aed04cb"},"vehicle_type_id":"4","last_reported":1732964800,"current_range_meters":38800,"station_id":"cpo3532slgdg3j2ikp40","pricing_plan_id":"cebpf4jnsgd1na2vs0mg"},{"bike_id":"50b0428d-2baf-4e29-94df-1bf6edcf6248","system_id":"levelo_inurba_marseille","lat":43.29935,"lon":5.36531,"is_reserved":false,"is_disabled":false,"rental_uris":{"android":"levelo://app?vid=50b0428d-2baf-4e29-94df-1bf6edcf6248","ios":"levelo://app?vid=50b0428d-2baf-4e29-94df-1bf6edcf6248"},"vehicle_type_id":"4","last_reported":1732964800,"current_range_meters":38000,"station_id":"ce4bgm92rcd13ifvqbr0","pricing_plan_id":"cebpf4jnsgd1na2vs0mg"},{"bike_id":"3b0e05b2-1e98-491d-b2e1-ddc66cfd8a1a","system_id":"levelo_inurba_marseille","lat":43.30042,"lon":5.38657,"is_reserved":false,"is_disabled":false,"rental_uris":{"android":"levelo://app?vid=3b0e05b2-1e98-491d-b2e1-ddc66cfd8a1a","ios":"levelo://app?vid=3b0e05b2-1e98-491d-b2e1-ddc66cfd8a1a"},"vehicle_type_id":"4","last_reported":1732964800,"current_range_meters":38800,"station_id":"","pricing_plan_id":"cebpf4jnsgd1na2vs0mg"},{"bike_id":"7ab5ca07-c9c4-44c3-b1bf-a9fe940ac72c","system_id":"levelo_inurba_marseille","lat":43.23054,"lon":5.35486,"is_reserved":false,"is_disabled":false,"rental_uris":{"android":"levelo://app?vid=7ab5ca07-c9c4-44c3-b1bf-a9fe940ac72c","ios":"levelo://app?vid=7ab5ca07-c9c4-44c3-b1bf-a9fe940ac72c"},"vehicle_type_id":"4","last_reported":1732964800,"current_range_meters":8400,"station_id":"cpo3342slgdg3j2ifvpg","pricing_plan_id":"cebpf4jnsgd1na2vs0mg"},{"bike_id":"84ccddc4-6681-44c8-bacd-154da9b78895","system_id":"levelo_inurba_marseille","lat":43.31716,"lon":5.42406,"is_reserved":false,"is_disabled":false,"rental_uris":{"android":"levelo://app?vid=84ccddc4-6681-44c8-bacd-154da9b78895","ios":"levelo://app?vid=84ccddc4-6681-44c8-bacd-154da9b78895"},"vehicle_type_id":"4","last_reported":1732964800,"current_range_meters":25200,"station_id":"ce4bhp92rcd13ifvqhbg","pricing_plan_id":"cebpf4jnsgd1na2vs0mg"},{"bike_id":"b08651e1-8cc8-49b1-b2c7-daf1e5949271","system_id":"levelo_inurba_marseille","lat":43.298037,"lon":5.380954,"is_reserved":false,"is_disabled":false,"rental_uris":{"android":"levelo://app?vid=b08651e1-8cc8-49b1-b2c7-daf1e5949271","ios":"levelo://app?vid=b08651e1-8cc8-49b1-b2c7-daf1e5949271"},"vehicle_type_id":"4","last_reported":1732964800,"current_range_meters":24800,"station_id":"ce4bgip2rcd13ifvqbb0","pricing_plan_id":"cebpf4jnsgd1na2vs0mg"},{"bike_id":"d584b724-4205-49f3-a058-1f2e0bcd168e","system_id":"levelo_inurba_marseille","lat":43.30469,"lon":5.3791,"is_reserved":false,"is_disabled":false,"rental_uris":{"android":"levelo://app?vid=d584b724-4205-49f3-a058-1f2e0bcd168e","ios":"levelo://app?vid=d584b724-4205-49f3-a058-1f2e0bcd168e"},"vehicle_type_id":"4","last_reported":1732964800,"current_range_meters":36000,"station_id":"ce4bgup2rcd13ifvqcn0","pricing_plan_id":"cebpf4jnsgd1na2vs0mg"},{"bike_id":"f81f88bf-c809-4e8c-8740-6c8eaeab220c","system_id":"levelo_inurba_marseille","lat":43.31231,"lon":5.36854,"is_reserved":false,"is_disabled":false,"rental_uris":{"android":"levelo://app?vid=f81f88bf-c809-4e8c-8740-6c8eaeab220c","ios":"levelo://app?vid=f81f88bf-c809-4e8c-8740-6c8eaeab220c"},"vehicle_type_id":"4","last_reported":1732964800,"current_range_meters":38000,"station_id":"ce4bgl92rcd13ifvqbq0","pricing_plan_id":"cebpf4jnsgd1na2vs0mg"},{"bike_id":"7974306f-50f1-4979-96e6-42a3a669c81a","system_id":"levelo_inurba_marseille","lat":43.32006,"lon":5.38157,"is_reserved":false,"is_disabled":false,"rental_uris":{"android":"levelo://app?vid=7974306f-50f1-4979-96e6-42a3a669c81a","ios":"levelo://app?vid=7974306f-50f1-4979-96e6-42a3a669c81a"},"vehicle_type_id":"4","last_reported":1732964800,"current_range_meters":10800,"station_id":"ce4bhr12rcd13ifvqhpg","pricing_plan_id":"cebpf4jnsgd1na2vs0mg"},{"bike_id":"29c8520d-68c7-438d-a8e0-e82d09bd1945","system_id":"levelo_inurba_marseille","lat":43.28028,"lon":5.3694,"is_reserved":false,"is_disabled":false,"rental_uris":{"android":"levelo://app?vid=29c8520d-68c7-438d-a8e0-e82d09bd1945","ios":"levelo://app?vid=29c8520d-68c7-438d-a8e0-e82d09bd1945"},"vehicle_type_id":"4","last_reported":1732964800,"current_range_meters":38800,"station_id":"ce4bha12rcd13ifvqef0","pricing_plan_id":"cebpf4jnsgd1na2vs0mg"},{"bike_id":"7e6bd422-e93f-4c13-8d01-72a1032e883e","system_id":"levelo_inurba_marseille","lat":43.26212,"lon":5.37437,"is_reserved":false,"is_disabled":false,"rental_uris":{"android":"levelo://app?vid=7e6bd422-e93f-4c13-8d01-72a1032e883e","ios":"levelo://app?vid=7e6bd422-e93f-4c13-8d01-72a1032e883e"},"vehicle_type_id":"4","last_reported":1732964800,"current_range_meters":9600,"station_id":"ce4bhgp2rcd13ifvqfc0","pricing_plan_id":"cebpf4jnsgd1na2vs0mg"},{"bike_id":"0cd7568c-61c9-4738-9f22-7dd8dcddb2a6","system_id":"levelo_inurba_marseille","lat":43.29609,"lon":5.37723,"is_reserved":false,"is_disabled":false,"rental_uris":{"android":"levelo://app?vid=0cd7568c-61c9-4738-9f22-7dd8dcddb2a6","ios":"levelo://app?vid=0cd7568c-61c9-4738-9f22-7dd8dcddb2a6"},"vehicle_type_id":"4","last_reported":1732964800,"current_range_meters":36800,"station_id":"ce4bgi92rcd13ifvqb90","pricing_plan_id":"cebpf4jnsgd1na2vs0mg"},{"bike_id":"4da15633-a66a-473a-bc54-06fe8f87dea7","system_id":"levelo_inurba_marseille","lat":43.29368,"lon":5.37852,"is_reserved":false,"is_disabled":false,"rental_uris":{"android":"levelo://app?vid=4da15633-a66a-473a-bc54-06fe8f87dea7","ios":"levelo://app?vid=4da15633-a66a-473a-bc54-06fe8f87dea7"},"vehicle_type_id":"4","last_reported":1732964800,"current_range_meters":38800,"station_id":"ce4bgjh2rcd13ifvqbf0","pricing_plan_id":"cebpf4jnsgd1na2vs0mg"},{"bike_id":"8a4921de-591d-404a-ae14-b2db9821bd6e","system_id":"levelo_inurba_marseille","lat":43.29615,"lon":5.37738,"is_reserved":false,"is_disabled":false,"rental_uris":{"android":"levelo://app?vid=8a4921de-591d-404a-ae14-b2db9821bd6e","ios":"levelo://app?vid=8a4921de-591d-404a-ae14-b2db9821bd6e"},"vehicle_type_id":"4","last_reported":1732964800,"current_range_meters":30800,"station_id":"ce4bgi92rcd13ifvqb90","pricing_plan_id":"cebpf4jnsgd1na2vs0mg"},{"bike_id":"dd764c4f-e5a4-49d0-a29b-266bdb920ff5","system_id":"levelo_inurba_marseille","lat":43.24545,"lon":5.39519,"is_reserved":false,"is_disabled":false,"rental_uris":{"android":"levelo://app?vid=dd764c4f-e5a4-49d0-a29b-266bdb920ff5","ios":"levelo://app?vid=dd764c4f-e5a4-49d0-a29b-266bdb920ff5"},"vehicle_type_id":"4","last_reported":1732964800,"current_range_meters":20400,"station_id":"ce4bhlp2rcd13ifvqgjg","pricing_plan_id":"cebpf4jnsgd1na2vs0mg"},{"bike_id":"d77c8fa8-9230-4eda-bc9a-5b066cfdd6cc","system_id":"levelo_inurba_marseille","lat":43.25714,"lon":5.41109,"is_reserved":false,"is_disabled":false,"rental_uris":{"android":"levelo://app?vid=d77c8fa8-9230-4eda-bc9a-5b066cfdd6cc","ios":"levelo://app?vid=d77c8fa8-9230-4eda-bc9a-5b066cfdd6cc"},"vehicle_type_id":"4","last_reported":1732964800,"current_range_meters":22400,"station_id":"ce4bhkp2rcd13ifvqgd0","pricing_plan_id":"cebpf4jnsgd1na2vs0mg"},{"bike_id":"132c1aa2-f6cc-4cde-9bda-2bd4f12da939","system_id":"levelo_inurba_marseille","lat":43.30884,"lon":5.39644,"is_reserved":false,"is_disabled":false,"rental_uris":{"android":"levelo://app?vid=132c1aa2-f6cc-4cde-9bda-2bd4f12da939","ios":"levelo://app?vid=132c1aa2-f6cc-4cde-9bda-2bd4f12da939"},"vehicle_type_id":"4","last_reported":1732964800,"current_range_meters":32800,"station_id":"ce4bh012rcd13ifvqcv0","pricing_plan_id":"cebpf4jnsgd1na2vs0mg"},{"bike_id":"8ae4c486-eda6-49b5-8bd9-0d88e430bc60","system_id":"levelo_inurba_marseille","lat":43.29067,"lon":5.37153,"is_reserved":false,"is_disabled":false,"rental_uris":{"android":"levelo://app?vid=8ae4c486-eda6-49b5-8bd9-0d88e430bc60","ios":"levelo://app?vid=8ae4c486-eda6-49b5-8bd9-0d88e430bc60"},"vehicle_type_id":"4","last_reported":1732964800,"current_range_meters":24800,"station_id":"ce4bh5p2rcd13ifvqe4g","pricing_plan_id":"cebpf4jnsgd1na2vs0mg"},{"bike_id":"44f16cf6-56ca-494a-9d11-2e0807e1d80c","system_id":"levelo_inurba_marseille","lat":43.25502,"lon":5.37647,"is_reserved":false,"is_disabled":false,"rental_uris":{"android":"levelo://app?vid=44f16cf6-56ca-494a-9d11-2e0807e1d80c","ios":"levelo://app?vid=44f16cf6-56ca-494a-9d11-2e0807e1d80c"},"vehicle_type_id":"4","last_reported":1732964800,"current_range_meters":38000,"station_id":"ce4bhh12rcd13ifvqff0","pricing_plan_id":"cebpf4jnsgd1na2vs0mg"},{"bike_id":"b0bd4cdf-7308-45f0-8e99-a0d5811907ff","system_id":"levelo_inurba_marseille","lat":43.2545,"lon":5.38168,"is_reserved":false,"is_disabled":true,"rental_uris":{"android":"levelo://app?vid=b0bd4cdf-7308-45f0-8e99-a0d5811907ff","ios":"levelo://app?vid=b0bd4cdf-7308-45f0-8e99-a0d5811907ff"},"vehicle_type_id":"4","last_reported":1732964800,"current_range_meters":0,"station_id":"","pricing_plan_id":"cebpf4jnsgd1na2vs0mg"},{"bike_id":"280010bf-edd4-44a4-bc0e-fe96bafa1603","system_id":"levelo_inurba_marseille","lat":43.2512,"lon":5.40326,"is_reserved":false,"is_disabled":false,"rental_uris":{"android":"levelo://app?vid=280010bf-edd4-44a4-bc0e-fe96bafa1603","ios":"levelo://app?vid=280010bf-edd4-44a4-bc0e-fe96bafa1603"},"vehicle_type_id":"4","last_reported":1732964800,"current_range_meters":32000,"station_id":"ce4bhlh2rcd13ifvqgig","pricing_plan_id":"cebpf4jnsgd1na2vs0mg"},{"bike_id":"c4a53c78-5239-4533-9cc7-6224f0957fc2","system_id":"levelo_inurba_marseille","lat":43.337444,"lon":5.374475,"is_reserved":false,"is_disabled":false,"rental_uris":{"android":"levelo://app?vid=c4a53c78-5239-4533-9cc7-6224f0957fc2","ios":"levelo://app?vid=c4a53c78-5239-4533-9cc7-6224f0957fc2"},"vehicle_type_id":"4","last_reported":1732964800,"current_range_meters":38800,"station_id":"ce4bgl92rcd13ifvqbq0","pricing_plan_id":"cebpf4jnsgd1na2vs0mg"},{"bike_id":"98dae069-3362-4121-b1f0-b199dccaad7b","system_id":"levelo_inurba_marseille","lat":43.30554,"lon":5.36526,"is_reserved":false,"is_disabled":false,"rental_uris":{"android":"levelo://app?vid=98dae069-3362-4121-b1f0-b199dccaad7b","ios":"levelo://app?vid=98dae069-3362-4121-b1f0-b199dccaad7b"},"vehicle_type_id":"4","last_reported":1732964800,"current_range_meters":30400,"station_id":"ce4bgs12rcd13ifvqcag","pricing_plan_id":"cebpf4jnsgd1na2vs0mg"},{"bike_id":"ffb3e7b2-b3df-4ccf-9e57-1706eef700ae","system_id":"levelo_inurba_marseille","lat":43.3028,"lon":5.377,"is_reserved":false,"is_disabled":false,"rental_uris":{"android":"levelo://app?vid=ffb3e7b2-b3df-4ccf-9e57-1706eef700ae","ios":"levelo://app?vid=ffb3e7b2-b3df-4ccf-9e57-1706eef700ae"},"vehicle_type_id":"4","last_reported":1732964800,"current_range_meters":26800,"station_id":"ce4bguh2rcd13ifvqcj0","pricing_plan_id":"cebpf4jnsgd1na2vs0mg"},{"bike_id":"3c241112-0e96-425e-8646-c6f08bf02411","system_id":"levelo_inurba_marseille","lat":43.24651,"lon":5.38893,"is_reserved":false,"is_disabled":true,"rental_uris":{"android":"levelo://app?vid=3c241112-0e96-425e-8646-c6f08bf02411","ios":"levelo://app?vid=3c241112-0e96-425e-8646-c6f08bf02411"},"vehicle_type_id":"4","last_reported":1732964800,"current_range_meters":0,"station_id":"ce4bhg12rcd13ifvqf60","pricing_plan_id":"cebpf4jnsgd1na2vs0mg"},{"bike_id":"6f7949e1-de87-4a49-8620-fec27e04447f","system_id":"levelo_inurba_marseille","lat":43.33724,"lon":5.39193,"is_reserved":false,"is_disabled":false,"rental_uris":{"android":"levelo://app?vid=6f7949e1-de87-4a49-8620-fec27e04447f","ios":"levelo://app?vid=6f7949e1-de87-4a49-8620-fec27e04447f"},"vehicle_type_id":"4","last_reported":1732964800,"current_range_meters":28000,"station_id":"ce4bhr92rcd13ifvqhsg","pricing_plan_id":"cebpf4jnsgd1na2vs0mg"},{"bike_id":"7066298c-8444-4dbb-8e5a-afa45f0890f5","system_id":"levelo_inurba_marseille","lat":43.28852,"lon":5.39333,"is_reserved":false,"is_disabled":true,"rental_uris":{"android":"levelo://app?vid=7066298c-8444-4dbb-8e5a-afa45f0890f5","ios":"levelo://app?vid=7066298c-8444-4dbb-8e5a-afa45f0890f5"},"vehicle_type_id":"4","last_reported":1732964800,"current_range_meters":12800,"station_id":"ce4bh2p2rcd13ifvqdi0","pricing_plan_id":"cebpf4jnsgd1na2vs0mg"},{"bike_id":"79da6e11-068f-4f85-891a-bf5d6033ae1b","system_id":"levelo_inurba_marseille","lat":43.29197,"lon":5.3931,"is_reserved":false,"is_disabled":true,"rental_uris":{"android":"levelo://app?vid=79da6e11-068f-4f85-891a-bf5d6033ae1b","ios":"levelo://app?vid=79da6e11-068f-4f85-891a-bf5d6033ae1b"},"vehicle_type_id":"4","last_reported":1732964800,"current_range_meters":24800,"station_id":"ce4bh192rcd13ifvqdd0","pricing_plan_id":"cebpf4jnsgd1na2vs0mg"},{"bike_id":"ea65bc22-100f-4a7b-a38b-f2659223cf3d","system_id":"levelo_inurba_marseille","lat":43.31991,"lon":5.38141,"is_reserved":false,"is_disabled":false,"rental_uris":{"android":"levelo://app?vid=ea65bc22-100f-4a7b-a38b-f2659223cf3d","ios":"levelo://app?vid=ea65bc22-100f-4a7b-a38b-f2659223cf3d"},"vehicle_type_id":"4","last_reported":1732964800,"current_range_meters":7200,"station_id":"ce4bhr12rcd13ifvqhpg","pricing_plan_id":"cebpf4jnsgd1na2vs0mg"},{"bike_id":"81f11009-6cdb-4fe2-8c88-b7d3089f082f","system_id":"levelo_inurba_marseille","lat":43.29963,"lon":5.41318,"is_reserved":false,"is_disabled":false,"rental_uris":{"android":"levelo://app?vid=81f11009-6cdb-4fe2-8c88-b7d3089f082f","ios":"levelo://app?vid=81f11009-6cdb-4fe2-8c88-b7d3089f082f"},"vehicle_type_id":"4","last_reported":1732964800,"current_range_meters":38800,"station_id":"ce4bhp12rcd13ifvqh9g","pricing_plan_id":"cebpf4jnsgd1na2vs0mg"},{"bike_id":"2bccffa4-6158-4b6a-bb21-85ef9a7be122","system_id":"levelo_inurba_marseille","lat":43.29794,"lon":5.39339,"is_reserved":false,"is_disabled":false,"rental_uris":{"android":"levelo://app?vid=2bccffa4-6158-4b6a-bb21-85ef9a7be122","ios":"levelo://app?vid=2bccffa4-6158-4b6a-bb21-85ef9a7be122"},"vehicle_type_id":"4","last_reported":1732964800,"current_range_meters":17600,"station_id":"chh1huq6cuj3fo74tm60","pricing_plan_id":"cebpf4jnsgd1na2vs0mg"},{"bike_id":"f26bfa4f-1b03-4d40-bd8a-9396393c620d","system_id":"levelo_inurba_marseille","lat":43.25579,"lon":5.38239,"is_reserved":false,"is_disabled":false,"rental_uris":{"android":"levelo://app?vid=f26bfa4f-1b03-4d40-bd8a-9396393c620d","ios":"levelo://app?vid=f26bfa4f-1b03-4d40-bd8a-9396393c620d"},"vehicle_type_id":"4","last_reported":1732964800,"current_range_meters":38800,"station_id":"ce4bhih2rcd13ifvqfs0","pricing_plan_id":"cebpf4jnsgd1na2vs0mg"},{"bike_id":"e0a56adb-aed0-4a2f-8507-10676a253836","system_id":"levelo_inurba_marseille","lat":43.32659,"lon":5.40993,"is_reserved":false,"is_disabled":false,"rental_uris":{"android":"levelo://app?vid=e0a56adb-aed0-4a2f-8507-10676a253836","ios":"levelo://app?vid=e0a56adb-aed0-4a2f-8507-10676a253836"},"vehicle_type_id":"4","last_reported":1732964800,"current_range_meters":22400,"station_id":"ce4bhpp2rcd13ifvqhgg","pricing_plan_id":"cebpf4jnsgd1na2vs0mg"},{"bike_id":"1adb4a8b-e2aa-4bb7-adab-b867af7d49b6","system_id":"levelo_inurba_marseille","lat":43.29001,"lon":5.3561,"is_reserved":false,"is_disabled":false,"rental_uris":{"android":"levelo://app?vid=1adb4a8b-e2aa-4bb7-adab-b867af7d49b6","ios":"levelo://app?vid=1adb4a8b-e2aa-4bb7-adab-b867af7d49b6"},"vehicle_type_id":"4","last_reported":1732964800,"current_range_meters":38800,"station_id":"ce4bhb92rcd13ifvqen0","pricing_plan_id":"cebpf4jnsgd1na2vs0mg"},{"bike_id":"98037c3a-9b2c-4fc3-b5c9-984ee3607601","system_id":"levelo_inurba_marseille","lat":43.3236,"lon":5.36765,"is_reserved":false,"is_disabled":false,"rental_uris":{"android":"levelo://app?vid=98037c3a-9b2c-4fc3-b5c9-984ee3607601","ios":"levelo://app?vid=98037c3a-9b2c-4fc3-b5c9-984ee3607601"},"vehicle_type_id":"4","last_reported":1732964800,"current_range_meters":8400,"station_id":"ce4bhsh2rcd13ifvqi2g","pricing_plan_id":"cebpf4jnsgd1na2vs0mg"},{"bike_id":"261cb0d8-79c2-4a51-8ca3-473ca9a92328","system_id":"levelo_inurba_marseille","lat":43.26556,"lon":5.37285,"is_reserved":false,"is_disabled":false,"rental_uris":{"android":"levelo://app?vid=261cb0d8-79c2-4a51-8ca3-473ca9a92328","ios":"levelo://app?vid=261cb0d8-79c2-4a51-8ca3-473ca9a92328"},"vehicle_type_id":"4","last_reported":1732964800,"current_range_meters":38800,"station_id":"ce4bhg12rcd13ifvqf70","pricing_plan_id":"cebpf4jnsgd1na2vs0mg"},{"bike_id":"9a6be48b-7e7b-4828-ab19-c428a8d47a62","system_id":"levelo_inurba_marseille","lat":43.29037,"lon":5.3812,"is_reserved":false,"is_disabled":false,"rental_uris":{"android":"levelo://app?vid=9a6be48b-7e7b-4828-ab19-c428a8d47a62","ios":"levelo://app?vid=9a6be48b-7e7b-4828-ab19-c428a8d47a62"},"vehicle_type_id":"4","last_reported":1732964800,"current_range_meters":37600,"station_id":"ce4bh4p2rcd13ifvqe1g","pricing_plan_id":"cebpf4jnsgd1na2vs0mg"},{"bike_id":"d1486dd5-23d4-40bc-bb61-4a3c8126196a","system_id":"levelo_inurba_marseille","lat":43.27375,"lon":5.36207,"is_reserved":false,"is_disabled":false,"rental_uris":{"android":"levelo://app?vid=d1486dd5-23d4-40bc-bb61-4a3c8126196a","ios":"levelo://app?vid=d1486dd5-23d4-40bc-bb61-4a3c8126196a"},"vehicle_type_id":"4","last_reported":1732964800,"current_range_meters":37600,"station_id":"ce4bhbh2rcd13ifvqeo0","pricing_plan_id":"cebpf4jnsgd1na2vs0mg"},{"bike_id":"8d04f02f-d227-4755-8001-37a91b33121e","system_id":"levelo_inurba_marseille","lat":43.25567,"lon":5.38242,"is_reserved":false,"is_disabled":false,"rental_uris":{"android":"levelo://app?vid=8d04f02f-d227-4755-8001-37a91b33121e","ios":"levelo://app?vid=8d04f02f-d227-4755-8001-37a91b33121e"},"vehicle_type_id":"4","last_reported":1732964800,"current_range_meters":30800,"station_id":"ce4bhih2rcd13ifvqfs0","pricing_plan_id":"cebpf4jnsgd1na2vs0mg"},{"bike_id":"d2f41cee-061b-429d-ae6d-119b46c11a1f","system_id":"levelo_inurba_marseille","lat":43.23194,"lon":5.35564,"is_reserved":false,"is_disabled":false,"rental_uris":{"android":"levelo://app?vid=d2f41cee-061b-429d-ae6d-119b46c11a1f","ios":"levelo://app?vid=d2f41cee-061b-429d-ae6d-119b46c11a1f"},"vehicle_type_id":"4","last_reported":1732964800,"current_range_meters":12800,"station_id":"ce4bhu92rcd13ifvqi70","pricing_plan_id":"cebpf4jnsgd1na2vs0mg"},{"bike_id":"d350231d-a46d-4666-ba51-f12c2e69a01c","system_id":"levelo_inurba_marseille","lat":43.25718,"lon":5.41113,"is_reserved":false,"is_disabled":false,"rental_uris":{"android":"levelo://app?vid=d350231d-a46d-4666-ba51-f12c2e69a01c","ios":"levelo://app?vid=d350231d-a46d-4666-ba51-f12c2e69a01c"},"vehicle_type_id":"4","last_reported":1732964800,"current_range_meters":39200,"station_id":"ce4bhkp2rcd13ifvqgd0","pricing_plan_id":"cebpf4jnsgd1na2vs0mg"},{"bike_id":"5f2b9320-f7c9-43f7-beab-21b8556b62ab","system_id":"levelo_inurba_marseille","lat":43.29527,"lon":5.37501,"is_reserved":false,"is_disabled":false,"rental_uris":{"android":"levelo://app?vid=5f2b9320-f7c9-43f7-beab-21b8556b62ab","ios":"levelo://app?vid=5f2b9320-f7c9-43f7-beab-21b8556b62ab"},"vehicle_type_id":"4","last_reported":1732964800,"current_range_meters":22000,"station_id":"ce4bgkp2rcd13ifvqbmg","pricing_plan_id":"cebpf4jnsgd1na2vs0mg"},{"bike_id":"9d22430f-206f-4dac-a138-8e0c20ce2558","system_id":"levelo_inurba_marseille","lat":43.2549,"lon":5.37647,"is_reserved":false,"is_disabled":false,"rental_uris":{"android":"levelo://app?vid=9d22430f-206f-4dac-a138-8e0c20ce2558","ios":"levelo://app?vid=9d22430f-206f-4dac-a138-8e0c20ce2558"},"vehicle_type_id":"4","last_reported":1732964800,"current_range_meters":34000,"station_id":"ce4bhh12rcd13ifvqff0","pricing_plan_id":"cebpf4jnsgd1na2vs0mg"},{"bike_id":"c157d13c-dbef-4380-aa54-e1f80e860cca","system_id":"levelo_inurba_marseille","lat":43.24388,"lon":5.37063,"is_reserved":false,"is_disabled":false,"rental_uris":{"android":"levelo://app?vid=c157d13c-dbef-4380-aa54-e1f80e860cca","ios":"levelo://app?vid=c157d13c-dbef-4380-aa54-e1f80e860cca"},"vehicle_type_id":"4","last_reported":1732964800,"current_range_meters":16400,"station_id":"ce4bhhh2rcd13ifvqfk0","pricing_plan_id":"cebpf4jnsgd1na2vs0mg"},{"bike_id":"e26db07a-65e4-4542-a5e5-588ca6de09db","system_id":"levelo_inurba_marseille","lat":43.31705,"lon":5.37769,"is_reserved":false,"is_disabled":false,"rental_uris":{"android":"levelo://app?vid=e26db07a-65e4-4542-a5e5-588ca6de09db","ios":"levelo://app?vid=e26db07a-65e4-4542-a5e5-588ca6de09db"},"vehicle_type_id":"4","last_reported":1732964800,"current_range_meters":36000,"station_id":"ce4bgth2rcd13ifvqch0","pricing_plan_id":"cebpf4jnsgd1na2vs0mg"},{"bike_id":"ab48ff1d-73d7-44c7-9ef3-0adeaaf25f01","system_id":"levelo_inurba_marseille","lat":43.26927,"lon":5.38925,"is_reserved":false,"is_disabled":false,"rental_uris":{"android":"levelo://app?vid=ab48ff1d-73d7-44c7-9ef3-0adeaaf25f01","ios":"levelo://app?vid=ab48ff1d-73d7-44c7-9ef3-0adeaaf25f01"},"vehicle_type_id":"4","last_reported":1732964800,"current_range_meters":10000,"station_id":"ce4bhhh2rcd13ifvqfl0","pricing_plan_id":"cebpf4jnsgd1na2vs0mg"},{"bike_id":"b2990e50-c96f-464d-8634-bd59a0d64e74","system_id":"levelo_inurba_marseille","lat":43.27073,"lon":5.42274,"is_reserved":false,"is_disabled":false,"rental_uris":{"android":"levelo://app?vid=b2990e50-c96f-464d-8634-bd59a0d64e74","ios":"levelo://app?vid=b2990e50-c96f-464d-8634-bd59a0d64e74"},"vehicle_type_id":"4","last_reported":1732964800,"current_range_meters":24400,"station_id":"ce4bhk92rcd13ifvqgb0","pricing_plan_id":"cebpf4jnsgd1na2vs0mg"},{"bike_id":"e22ba53e-35fd-4022-81b4-35e03ab88d5c","system_id":"levelo_inurba_marseille","lat":43.27938,"lon":5.41044,"is_reserved":false,"is_disabled":false,"rental_uris":{"android":"levelo://app?vid=e22ba53e-35fd-4022-81b4-35e03ab88d5c","ios":"levelo://app?vid=e22ba53e-35fd-4022-81b4-35e03ab88d5c"},"vehicle_type_id":"4","last_reported":1732964800,"current_range_meters":30800,"station_id":"ce4bhnp2rcd13ifvqh0g","pricing_plan_id":"cebpf4jnsgd1na2vs0mg"},{"bike_id":"668e2ee9-a198-4160-90ec-b474472e7019","system_id":"levelo_inurba_marseille","lat":43.3234,"lon":5.40614,"is_reserved":false,"is_disabled":false,"rental_uris":{"android":"levelo://app?vid=668e2ee9-a198-4160-90ec-b474472e7019","ios":"levelo://app?vid=668e2ee9-a198-4160-90ec-b474472e7019"},"vehicle_type_id":"4","last_reported":1732964800,"current_range_meters":27200,"station_id":"ce4bhq92rcd13ifvqhjg","pricing_plan_id":"cebpf4jnsgd1na2vs0mg"},{"bike_id":"94ddd20c-e5b2-4c73-a61a-2ac668abc7d2","system_id":"levelo_inurba_marseille","lat":43.32,"lon":5.38134,"is_reserved":false,"is_disabled":false,"rental_uris":{"android":"levelo://app?vid=94ddd20c-e5b2-4c73-a61a-2ac668abc7d2","ios":"levelo://app?vid=94ddd20c-e5b2-4c73-a61a-2ac668abc7d2"},"vehicle_type_id":"4","last_reported":1732964800,"current_range_meters":39200,"station_id":"ce4bhr12rcd13ifvqhpg","pricing_plan_id":"cebpf4jnsgd1na2vs0mg"},{"bike_id":"a2ac41da-6096-4fe3-9a6c-690722f4702a","system_id":"levelo_inurba_marseille","lat":43.24388,"lon":5.37065,"is_reserved":false,"is_disabled":false,"rental_uris":{"android":"levelo://app?vid=a2ac41da-6096-4fe3-9a6c-690722f4702a","ios":"levelo://app?vid=a2ac41da-6096-4fe3-9a6c-690722f4702a"},"vehicle_type_id":"4","last_reported":1732964800,"current_range_meters":4800,"station_id":"ce4bhhh2rcd13ifvqfk0","pricing_plan_id":"cebpf4jnsgd1na2vs0mg"},{"bike_id":"fe2c00d6-fab6-472b-887d-35960cae9038","system_id":"levelo_inurba_marseille","lat":43.25939,"lon":5.409,"is_reserved":false,"is_disabled":false,"rental_uris":{"android":"levelo://app?vid=fe2c00d6-fab6-472b-887d-35960cae9038","ios":"levelo://app?vid=fe2c00d6-fab6-472b-887d-35960cae9038"},"vehicle_type_id":"4","last_reported":1732964800,"current_range_meters":37600,"station_id":"ce4bhm92rcd13ifvqglg","pricing_plan_id":"cebpf4jnsgd1na2vs0mg"},{"bike_id":"41caa9ee-86f5-464c-8b22-d4d7c535acc8","system_id":"levelo_inurba_marseille","lat":43.28457,"lon":5.35891,"is_reserved":false,"is_disabled":true,"rental_uris":{"android":"levelo://app?vid=41caa9ee-86f5-464c-8b22-d4d7c535acc8","ios":"levelo://app?vid=41caa9ee-86f5-464c-8b22-d4d7c535acc8"},"vehicle_type_id":"4","last_reported":1732964800,"current_range_meters":6400,"station_id":"ce4bhah2rcd13ifvqei0","pricing_plan_id":"cebpf4jnsgd1na2vs0mg"},{"bike_id":"bc749360-3ce4-4dd6-a0ac-83aa82c323a7","system_id":"levelo_inurba_marseille","lat":43.28151,"lon":5.42636,"is_reserved":false,"is_disabled":true,"rental_uris":{"android":"levelo://app?vid=bc749360-3ce4-4dd6-a0ac-83aa82c323a7","ios":"levelo://app?vid=bc749360-3ce4-4dd6-a0ac-83aa82c323a7"},"vehicle_type_id":"4","last_reported":1732964800,"current_range_meters":36000,"station_id":"ce4bhnh2rcd13ifvqgug","pricing_plan_id":"cebpf4jnsgd1na2vs0mg"},{"bike_id":"a5083c7e-4a01-446d-8f78-53cc7c6d43ce","system_id":"levelo_inurba_marseille","lat":43.2319,"lon":5.35551,"is_reserved":false,"is_disabled":false,"rental_uris":{"android":"levelo://app?vid=a5083c7e-4a01-446d-8f78-53cc7c6d43ce","ios":"levelo://app?vid=a5083c7e-4a01-446d-8f78-53cc7c6d43ce"},"vehicle_type_id":"4","last_reported":1732964800,"current_range_meters":38800,"station_id":"ce4bhu92rcd13ifvqi70","pricing_plan_id":"cebpf4jnsgd1na2vs0mg"},{"bike_id":"4d4c884f-6933-49c0-8899-f9856d90f44d","system_id":"levelo_inurba_marseille","lat":43.29748,"lon":5.37971,"is_reserved":false,"is_disabled":true,"rental_uris":{"android":"levelo://app?vid=4d4c884f-6933-49c0-8899-f9856d90f44d","ios":"levelo://app?vid=4d4c884f-6933-49c0-8899-f9856d90f44d"},"vehicle_type_id":"4","last_reported":1732964800,"current_range_meters":0,"station_id":"","pricing_plan_id":"cebpf4jnsgd1na2vs0mg"},{"bike_id":"beec5ab2-c1dc-4fdc-a5ae-f0817f1fb535","system_id":"levelo_inurba_marseille","lat":43.3046,"lon":5.37905,"is_reserved":false,"is_disabled":false,"rental_uris":{"android":"levelo://app?vid=beec5ab2-c1dc-4fdc-a5ae-f0817f1fb535","ios":"levelo://app?vid=beec5ab2-c1dc-4fdc-a5ae-f0817f1fb535"},"vehicle_type_id":"4","last_reported":1732964800,"current_range_meters":32000,"station_id":"ce4bgup2rcd13ifvqcn0","pricing_plan_id":"cebpf4jnsgd1na2vs0mg"},{"bike_id":"4166630b-c6b0-41c8-9181-bcc3e1031696","system_id":"levelo_inurba_marseille","lat":43.25827,"lon":5.3942,"is_reserved":false,"is_disabled":false,"rental_uris":{"android":"levelo://app?vid=4166630b-c6b0-41c8-9181-bcc3e1031696","ios":"levelo://app?vid=4166630b-c6b0-41c8-9181-bcc3e1031696"},"vehicle_type_id":"4","last_reported":1732964800,"current_range_meters":38000,"station_id":"ce4bhip2rcd13ifvqft0","pricing_plan_id":"cebpf4jnsgd1na2vs0mg"},{"bike_id":"27282aed-3d73-46ce-8c09-013e4c0cbfba","system_id":"levelo_inurba_marseille","lat":43.30093,"lon":5.39092,"is_reserved":false,"is_disabled":false,"rental_uris":{"android":"levelo://app?vid=27282aed-3d73-46ce-8c09-013e4c0cbfba","ios":"levelo://app?vid=27282aed-3d73-46ce-8c09-013e4c0cbfba"},"vehicle_type_id":"4","last_reported":1732964800,"current_range_meters":38800,"station_id":"ce4bh192rcd13ifvqdb0","pricing_plan_id":"cebpf4jnsgd1na2vs0mg"},{"bike_id":"9009be37-c6b1-406b-b0a8-fbab355f715e","system_id":"levelo_inurba_marseille","lat":43.33763,"lon":5.37495,"is_reserved":false,"is_disabled":false,"rental_uris":{"android":"levelo://app?vid=9009be37-c6b1-406b-b0a8-fbab355f715e","ios":"levelo://app?vid=9009be37-c6b1-406b-b0a8-fbab355f715e"},"vehicle_type_id":"4","last_reported":1732964800,"current_range_meters":36800,"station_id":"","pricing_plan_id":"cebpf4jnsgd1na2vs0mg"},{"bike_id":"3fd3c9e9-2a71-460f-909c-9685f3d1b7d4","system_id":"levelo_inurba_marseille","lat":43.25718,"lon":5.41113,"is_reserved":false,"is_disabled":false,"rental_uris":{"android":"levelo://app?vid=3fd3c9e9-2a71-460f-909c-9685f3d1b7d4","ios":"levelo://app?vid=3fd3c9e9-2a71-460f-909c-9685f3d1b7d4"},"vehicle_type_id":"4","last_reported":1732964800,"current_range_meters":26800,"station_id":"ce4bhkp2rcd13ifvqgd0","pricing_plan_id":"cebpf4jnsgd1na2vs0mg"},{"bike_id":"9c42fbca-d476-4e7a-9c7d-f0c953594f1d","system_id":"levelo_inurba_marseille","lat":43.2953,"lon":5.39038,"is_reserved":false,"is_disabled":false,"rental_uris":{"android":"levelo://app?vid=9c42fbca-d476-4e7a-9c7d-f0c953594f1d","ios":"levelo://app?vid=9c42fbca-d476-4e7a-9c7d-f0c953594f1d"},"vehicle_type_id":"4","last_reported":1732964800,"current_range_meters":31200,"station_id":"ce4bh3p2rcd13ifvqdp0","pricing_plan_id":"cebpf4jnsgd1na2vs0mg"},{"bike_id":"dceab1d4-12c0-41da-b4ce-858986625686","system_id":"levelo_inurba_marseille","lat":43.29567,"lon":5.37511,"is_reserved":false,"is_disabled":false,"rental_uris":{"android":"levelo://app?vid=dceab1d4-12c0-41da-b4ce-858986625686","ios":"levelo://app?vid=dceab1d4-12c0-41da-b4ce-858986625686"},"vehicle_type_id":"4","last_reported":1732964800,"current_range_meters":23200,"station_id":"ce4bgh92rcd13ifvqb50","pricing_plan_id":"cebpf4jnsgd1na2vs0mg"},{"bike_id":"e5d13301-b1b5-4f4c-b0b9-0e0ce528717b","system_id":"levelo_inurba_marseille","lat":43.30952,"lon":5.39028,"is_reserved":false,"is_disabled":true,"rental_uris":{"android":"levelo://app?vid=e5d13301-b1b5-4f4c-b0b9-0e0ce528717b","ios":"levelo://app?vid=e5d13301-b1b5-4f4c-b0b9-0e0ce528717b"},"vehicle_type_id":"4","last_reported":1732964800,"current_range_meters":12400,"station_id":"ce4bgup2rcd13ifvqco0","pricing_plan_id":"cebpf4jnsgd1na2vs0mg"},{"bike_id":"be1ea8ae-bb6c-4cc9-9878-4dd6e7c328d6","system_id":"levelo_inurba_marseille","lat":43.32106,"lon":5.36769,"is_reserved":false,"is_disabled":false,"rental_uris":{"android":"levelo://app?vid=be1ea8ae-bb6c-4cc9-9878-4dd6e7c328d6","ios":"levelo://app?vid=be1ea8ae-bb6c-4cc9-9878-4dd6e7c328d6"},"vehicle_type_id":"4","last_reported":1732964800,"current_range_meters":30800,"station_id":"ce4bhrh2rcd13ifvqhug","pricing_plan_id":"cebpf4jnsgd1na2vs0mg"},{"bike_id":"3abdb507-aca9-41cf-ab5c-c13fb795c3a0","system_id":"levelo_inurba_marseille","lat":43.284054,"lon":5.349836,"is_reserved":false,"is_disabled":true,"rental_uris":{"android":"levelo://app?vid=3abdb507-aca9-41cf-ab5c-c13fb795c3a0","ios":"levelo://app?vid=3abdb507-aca9-41cf-ab5c-c13fb795c3a0"},"vehicle_type_id":"4","last_reported":1732964800,"current_range_meters":38800,"station_id":"ce4bhbh2rcd13ifvqepg","pricing_plan_id":"cebpf4jnsgd1na2vs0mg"},{"bike_id":"659c3713-9f69-48d4-ab56-f16999acb99a","system_id":"levelo_inurba_marseille","lat":43.33019,"lon":5.39033,"is_reserved":false,"is_disabled":false,"rental_uris":{"android":"levelo://app?vid=659c3713-9f69-48d4-ab56-f16999acb99a","ios":"levelo://app?vid=659c3713-9f69-48d4-ab56-f16999acb99a"},"vehicle_type_id":"4","last_reported":1732964800,"current_range_meters":27200,"station_id":"ce4bhr92rcd13ifvqhrg","pricing_plan_id":"cebpf4jnsgd1na2vs0mg"},{"bike_id":"77be03dd-3d99-4535-adc0-1c7477c4a3a3","system_id":"levelo_inurba_marseille","lat":43.32284,"lon":5.38277,"is_reserved":false,"is_disabled":false,"rental_uris":{"android":"levelo://app?vid=77be03dd-3d99-4535-adc0-1c7477c4a3a3","ios":"levelo://app?vid=77be03dd-3d99-4535-adc0-1c7477c4a3a3"},"vehicle_type_id":"4","last_reported":1732964800,"current_range_meters":38400,"station_id":"ce4bhr12rcd13ifvqhqg","pricing_plan_id":"cebpf4jnsgd1na2vs0mg"},{"bike_id":"c6422ac3-4818-40bf-ac64-e35ffc01cfbf","system_id":"levelo_inurba_marseille","lat":43.24387,"lon":5.37061,"is_reserved":false,"is_disabled":false,"rental_uris":{"android":"levelo://app?vid=c6422ac3-4818-40bf-ac64-e35ffc01cfbf","ios":"levelo://app?vid=c6422ac3-4818-40bf-ac64-e35ffc01cfbf"},"vehicle_type_id":"4","last_reported":1732964800,"current_range_meters":28800,"station_id":"ce4bhhh2rcd13ifvqfk0","pricing_plan_id":"cebpf4jnsgd1na2vs0mg"},{"bike_id":"d8893ea1-0749-47d0-bcb7-133a48050ff5","system_id":"levelo_inurba_marseille","lat":43.24653,"lon":5.38891,"is_reserved":false,"is_disabled":false,"rental_uris":{"android":"levelo://app?vid=d8893ea1-0749-47d0-bcb7-133a48050ff5","ios":"levelo://app?vid=d8893ea1-0749-47d0-bcb7-133a48050ff5"},"vehicle_type_id":"4","last_reported":1732964800,"current_range_meters":6800,"station_id":"ce4bhg12rcd13ifvqf60","pricing_plan_id":"cebpf4jnsgd1na2vs0mg"},{"bike_id":"f417758e-d5f5-4e46-8e61-41e3114e14c2","system_id":"levelo_inurba_marseille","lat":43.30142,"lon":5.3741,"is_reserved":false,"is_disabled":false,"rental_uris":{"android":"levelo://app?vid=f417758e-d5f5-4e46-8e61-41e3114e14c2","ios":"levelo://app?vid=f417758e-d5f5-4e46-8e61-41e3114e14c2"},"vehicle_type_id":"4","last_reported":1732964800,"current_range_meters":36800,"station_id":"ce4bgs92rcd13ifvqcc0","pricing_plan_id":"cebpf4jnsgd1na2vs0mg"},{"bike_id":"886ec63f-d5a1-4a1a-ba68-c525d37258f9","system_id":"levelo_inurba_marseille","lat":43.27376,"lon":5.3626,"is_reserved":false,"is_disabled":true,"rental_uris":{"android":"levelo://app?vid=886ec63f-d5a1-4a1a-ba68-c525d37258f9","ios":"levelo://app?vid=886ec63f-d5a1-4a1a-ba68-c525d37258f9"},"vehicle_type_id":"4","last_reported":1732964800,"current_range_meters":0,"station_id":"ce4bhbh2rcd13ifvqeo0","pricing_plan_id":"cebpf4jnsgd1na2vs0mg"},{"bike_id":"b724444d-09e8-445f-949d-732ef4c35473","system_id":"levelo_inurba_marseille","lat":43.24801,"lon":5.37447,"is_reserved":false,"is_disabled":false,"rental_uris":{"android":"levelo://app?vid=b724444d-09e8-445f-949d-732ef4c35473","ios":"levelo://app?vid=b724444d-09e8-445f-949d-732ef4c35473"},"vehicle_type_id":"4","last_reported":1732964800,"current_range_meters":39200,"station_id":"ce4bhgh2rcd13ifvqfb0","pricing_plan_id":"cebpf4jnsgd1na2vs0mg"},{"bike_id":"ca20ea45-5a00-49af-88ae-1db20fe0c34f","system_id":"levelo_inurba_marseille","lat":43.26929,"lon":5.38927,"is_reserved":false,"is_disabled":false,"rental_uris":{"android":"levelo://app?vid=ca20ea45-5a00-49af-88ae-1db20fe0c34f","ios":"levelo://app?vid=ca20ea45-5a00-49af-88ae-1db20fe0c34f"},"vehicle_type_id":"4","last_reported":1732964800,"current_range_meters":8800,"station_id":"ce4bhhh2rcd13ifvqfl0","pricing_plan_id":"cebpf4jnsgd1na2vs0mg"},{"bike_id":"46507057-863b-4762-9275-3f3b81fccf53","system_id":"levelo_inurba_marseille","lat":43.24998,"lon":5.38934,"is_reserved":false,"is_disabled":false,"rental_uris":{"android":"levelo://app?vid=46507057-863b-4762-9275-3f3b81fccf53","ios":"levelo://app?vid=46507057-863b-4762-9275-3f3b81fccf53"},"vehicle_type_id":"4","last_reported":1732964800,"current_range_meters":24800,"station_id":"ce4bhgp2rcd13ifvqfd0","pricing_plan_id":"cebpf4jnsgd1na2vs0mg"},{"bike_id":"e8fa7be1-2407-41a7-b843-e7c70f1917ef","system_id":"levelo_inurba_marseille","lat":43.27611,"lon":5.36109,"is_reserved":false,"is_disabled":true,"rental_uris":{"android":"levelo://app?vid=e8fa7be1-2407-41a7-b843-e7c70f1917ef","ios":"levelo://app?vid=e8fa7be1-2407-41a7-b843-e7c70f1917ef"},"vehicle_type_id":"4","last_reported":1732964800,"current_range_meters":0,"station_id":"ce4bgj92rcd13ifvqbe0","pricing_plan_id":"cebpf4jnsgd1na2vs0mg"},{"bike_id":"9b3538b0-69eb-44ab-af07-7d5a8e6eacc5","system_id":"levelo_inurba_marseille","lat":43.30547,"lon":5.36527,"is_reserved":false,"is_disabled":false,"rental_uris":{"android":"levelo://app?vid=9b3538b0-69eb-44ab-af07-7d5a8e6eacc5","ios":"levelo://app?vid=9b3538b0-69eb-44ab-af07-7d5a8e6eacc5"},"vehicle_type_id":"4","last_reported":1732964800,"current_range_meters":39200,"station_id":"ce4bgs12rcd13ifvqcag","pricing_plan_id":"cebpf4jnsgd1na2vs0mg"},{"bike_id":"9b835a50-fa61-49f1-a736-fe68d4eadb04","system_id":"levelo_inurba_marseille","lat":43.27995,"lon":5.40007,"is_reserved":false,"is_disabled":false,"rental_uris":{"android":"levelo://app?vid=9b835a50-fa61-49f1-a736-fe68d4eadb04","ios":"levelo://app?vid=9b835a50-fa61-49f1-a736-fe68d4eadb04"},"vehicle_type_id":"4","last_reported":1732964800,"current_range_meters":30800,"station_id":"ce4bho92rcd13ifvqh4g","pricing_plan_id":"cebpf4jnsgd1na2vs0mg"},{"bike_id":"e63be40c-faef-4595-b063-ee836e4f86b7","system_id":"levelo_inurba_marseille","lat":43.29599,"lon":5.38104,"is_reserved":false,"is_disabled":false,"rental_uris":{"android":"levelo://app?vid=e63be40c-faef-4595-b063-ee836e4f86b7","ios":"levelo://app?vid=e63be40c-faef-4595-b063-ee836e4f86b7"},"vehicle_type_id":"4","last_reported":1732964800,"current_range_meters":34800,"station_id":"ce4bgl12rcd13ifvqbo0","pricing_plan_id":"cebpf4jnsgd1na2vs0mg"},{"bike_id":"a81c20da-a7ef-40a9-aa7a-dd0e9ef2a532","system_id":"levelo_inurba_marseille","lat":43.27217,"lon":5.39205,"is_reserved":false,"is_disabled":false,"rental_uris":{"android":"levelo://app?vid=a81c20da-a7ef-40a9-aa7a-dd0e9ef2a532","ios":"levelo://app?vid=a81c20da-a7ef-40a9-aa7a-dd0e9ef2a532"},"vehicle_type_id":"4","last_reported":1732964800,"current_range_meters":36000,"station_id":"ce4bhhp2rcd13ifvqfm0","pricing_plan_id":"cebpf4jnsgd1na2vs0mg"},{"bike_id":"9700beae-0fbf-4e58-beda-d02b6fed27fe","system_id":"levelo_inurba_marseille","lat":43.337444,"lon":5.374475,"is_reserved":false,"is_disabled":false,"rental_uris":{"android":"levelo://app?vid=9700beae-0fbf-4e58-beda-d02b6fed27fe","ios":"levelo://app?vid=9700beae-0fbf-4e58-beda-d02b6fed27fe"},"vehicle_type_id":"4","last_reported":1732964800,"current_range_meters":38800,"station_id":"","pricing_plan_id":"cebpf4jnsgd1na2vs0mg"},{"bike_id":"b64c6095-9d78-4b69-b855-374d2a38d0a7","system_id":"levelo_inurba_marseille","lat":43.27606,"lon":5.36112,"is_reserved":false,"is_disabled":false,"rental_uris":{"android":"levelo://app?vid=b64c6095-9d78-4b69-b855-374d2a38d0a7","ios":"levelo://app?vid=b64c6095-9d78-4b69-b855-374d2a38d0a7"},"vehicle_type_id":"4","last_reported":1732964800,"current_range_meters":39200,"station_id":"ce4bgj92rcd13ifvqbe0","pricing_plan_id":"cebpf4jnsgd1na2vs0mg"},{"bike_id":"7673869c-5eae-412b-abb2-407999f3b948","system_id":"levelo_inurba_marseille","lat":43.27055,"lon":5.4026,"is_reserved":false,"is_disabled":false,"rental_uris":{"android":"levelo://app?vid=7673869c-5eae-412b-abb2-407999f3b948","ios":"levelo://app?vid=7673869c-5eae-412b-abb2-407999f3b948"},"vehicle_type_id":"4","last_reported":1732964800,"current_range_meters":28800,"station_id":"ce4bhk92rcd13ifvqgc0","pricing_plan_id":"cebpf4jnsgd1na2vs0mg"},{"bike_id":"0fa1a0ee-35c1-4ef4-95ba-73f88ec1db30","system_id":"levelo_inurba_marseille","lat":43.23196,"lon":5.35548,"is_reserved":false,"is_disabled":false,"rental_uris":{"android":"levelo://app?vid=0fa1a0ee-35c1-4ef4-95ba-73f88ec1db30","ios":"levelo://app?vid=0fa1a0ee-35c1-4ef4-95ba-73f88ec1db30"},"vehicle_type_id":"4","last_reported":1732964800,"current_range_meters":8400,"station_id":"ce4bhu92rcd13ifvqi70","pricing_plan_id":"cebpf4jnsgd1na2vs0mg"},{"bike_id":"58cc47a8-7400-4783-8e9f-bef56208b81d","system_id":"levelo_inurba_marseille","lat":43.25575,"lon":5.38232,"is_reserved":false,"is_disabled":false,"rental_uris":{"android":"levelo://app?vid=58cc47a8-7400-4783-8e9f-bef56208b81d","ios":"levelo://app?vid=58cc47a8-7400-4783-8e9f-bef56208b81d"},"vehicle_type_id":"4","last_reported":1732964800,"current_range_meters":11200,"station_id":"ce4bhih2rcd13ifvqfs0","pricing_plan_id":"cebpf4jnsgd1na2vs0mg"},{"bike_id":"6e942838-c3ee-4d04-a2d6-4c13e296b188","system_id":"levelo_inurba_marseille","lat":43.29066,"lon":5.37171,"is_reserved":false,"is_disabled":false,"rental_uris":{"android":"levelo://app?vid=6e942838-c3ee-4d04-a2d6-4c13e296b188","ios":"levelo://app?vid=6e942838-c3ee-4d04-a2d6-4c13e296b188"},"vehicle_type_id":"4","last_reported":1732964800,"current_range_meters":39200,"station_id":"ce4bh5p2rcd13ifvqe4g","pricing_plan_id":"cebpf4jnsgd1na2vs0mg"},{"bike_id":"92de0aec-7fd7-4b0f-836a-d45b7677365d","system_id":"levelo_inurba_marseille","lat":43.25001,"lon":5.38935,"is_reserved":false,"is_disabled":false,"rental_uris":{"android":"levelo://app?vid=92de0aec-7fd7-4b0f-836a-d45b7677365d","ios":"levelo://app?vid=92de0aec-7fd7-4b0f-836a-d45b7677365d"},"vehicle_type_id":"4","last_reported":1732964800,"current_range_meters":38800,"station_id":"ce4bhgp2rcd13ifvqfd0","pricing_plan_id":"cebpf4jnsgd1na2vs0mg"},{"bike_id":"3fb2985a-9879-4b12-bbe8-3579aa0e2ec2","system_id":"levelo_inurba_marseille","lat":43.30254,"lon":5.40057,"is_reserved":false,"is_disabled":false,"rental_uris":{"android":"levelo://app?vid=3fb2985a-9879-4b12-bbe8-3579aa0e2ec2","ios":"levelo://app?vid=3fb2985a-9879-4b12-bbe8-3579aa0e2ec2"},"vehicle_type_id":"4","last_reported":1732964800,"current_range_meters":36800,"station_id":"ce4bgvh2rcd13ifvqcs0","pricing_plan_id":"cebpf4jnsgd1na2vs0mg"},{"bike_id":"c254f6a2-7ff1-4f96-adb7-8a7ee1b965ce","system_id":"levelo_inurba_marseille","lat":43.29609,"lon":5.37733,"is_reserved":false,"is_disabled":false,"rental_uris":{"android":"levelo://app?vid=c254f6a2-7ff1-4f96-adb7-8a7ee1b965ce","ios":"levelo://app?vid=c254f6a2-7ff1-4f96-adb7-8a7ee1b965ce"},"vehicle_type_id":"4","last_reported":1732964800,"current_range_meters":29600,"station_id":"ce4bgi92rcd13ifvqb90","pricing_plan_id":"cebpf4jnsgd1na2vs0mg"},{"bike_id":"4a2be555-d056-454c-bed3-fe781ba86f8e","system_id":"levelo_inurba_marseille","lat":43.25886,"lon":5.39954,"is_reserved":false,"is_disabled":true,"rental_uris":{"android":"levelo://app?vid=4a2be555-d056-454c-bed3-fe781ba86f8e","ios":"levelo://app?vid=4a2be555-d056-454c-bed3-fe781ba86f8e"},"vehicle_type_id":"4","last_reported":1732964800,"current_range_meters":0,"station_id":"","pricing_plan_id":"cebpf4jnsgd1na2vs0mg"},{"bike_id":"8f22ce9f-b266-4291-a09b-63ff117ff1ad","system_id":"levelo_inurba_marseille","lat":43.32489,"lon":5.36557,"is_reserved":false,"is_disabled":false,"rental_uris":{"android":"levelo://app?vid=8f22ce9f-b266-4291-a09b-63ff117ff1ad","ios":"levelo://app?vid=8f22ce9f-b266-4291-a09b-63ff117ff1ad"},"vehicle_type_id":"4","last_reported":1732964800,"current_range_meters":36800,"station_id":"ce4bhs12rcd13ifvqhvg","pricing_plan_id":"cebpf4jnsgd1na2vs0mg"},{"bike_id":"e7409b42-c149-4b21-bac4-0ccaf55b69e0","system_id":"levelo_inurba_marseille","lat":43.29587,"lon":5.3811,"is_reserved":false,"is_disabled":false,"rental_uris":{"android":"levelo://app?vid=e7409b42-c149-4b21-bac4-0ccaf55b69e0","ios":"levelo://app?vid=e7409b42-c149-4b21-bac4-0ccaf55b69e0"},"vehicle_type_id":"4","last_reported":1732964800,"current_range_meters":30400,"station_id":"ce4bgl12rcd13ifvqbo0","pricing_plan_id":"cebpf4jnsgd1na2vs0mg"},{"bike_id":"377f5e66-8688-4e05-b388-e679a49f773c","system_id":"levelo_inurba_marseille","lat":43.27612,"lon":5.36113,"is_reserved":false,"is_disabled":false,"rental_uris":{"android":"levelo://app?vid=377f5e66-8688-4e05-b388-e679a49f773c","ios":"levelo://app?vid=377f5e66-8688-4e05-b388-e679a49f773c"},"vehicle_type_id":"4","last_reported":1732964800,"current_range_meters":24400,"station_id":"ce4bgj92rcd13ifvqbe0","pricing_plan_id":"cebpf4jnsgd1na2vs0mg"},{"bike_id":"54d5519e-96fe-42c7-b01d-5689eddd4164","system_id":"levelo_inurba_marseille","lat":43.29279,"lon":5.40125,"is_reserved":false,"is_disabled":false,"rental_uris":{"android":"levelo://app?vid=54d5519e-96fe-42c7-b01d-5689eddd4164","ios":"levelo://app?vid=54d5519e-96fe-42c7-b01d-5689eddd4164"},"vehicle_type_id":"4","last_reported":1732964800,"current_range_meters":10800,"station_id":"ce4bh312rcd13ifvqdk0","pricing_plan_id":"cebpf4jnsgd1na2vs0mg"},{"bike_id":"6217d58b-6d8f-48fa-84a5-0fb9c799d410","system_id":"levelo_inurba_marseille","lat":43.30534,"lon":5.36547,"is_reserved":false,"is_disabled":false,"rental_uris":{"android":"levelo://app?vid=6217d58b-6d8f-48fa-84a5-0fb9c799d410","ios":"levelo://app?vid=6217d58b-6d8f-48fa-84a5-0fb9c799d410"},"vehicle_type_id":"4","last_reported":1732964800,"current_range_meters":38800,"station_id":"ce4bgs12rcd13ifvqcag","pricing_plan_id":"cebpf4jnsgd1na2vs0mg"},{"bike_id":"24998420-0380-4723-9afc-291d57f3e3d8","system_id":"levelo_inurba_marseille","lat":43.25721,"lon":5.41111,"is_reserved":false,"is_disabled":false,"rental_uris":{"android":"levelo://app?vid=24998420-0380-4723-9afc-291d57f3e3d8","ios":"levelo://app?vid=24998420-0380-4723-9afc-291d57f3e3d8"},"vehicle_type_id":"4","last_reported":1732964800,"current_range_meters":30400,"station_id":"ce4bhkp2rcd13ifvqgd0","pricing_plan_id":"cebpf4jnsgd1na2vs0mg"},{"bike_id":"80ee5806-271f-4b24-a602-2dc27d804313","system_id":"levelo_inurba_marseille","lat":43.32109,"lon":5.36779,"is_reserved":false,"is_disabled":false,"rental_uris":{"android":"levelo://app?vid=80ee5806-271f-4b24-a602-2dc27d804313","ios":"levelo://app?vid=80ee5806-271f-4b24-a602-2dc27d804313"},"vehicle_type_id":"4","last_reported":1732964800,"current_range_meters":9600,"station_id":"ce4bhrh2rcd13ifvqhug","pricing_plan_id":"cebpf4jnsgd1na2vs0mg"},{"bike_id":"a99e441f-fcb3-4edf-8132-a5c34ea369bf","system_id":"levelo_inurba_marseille","lat":43.26939,"lon":5.402524,"is_reserved":false,"is_disabled":false,"rental_uris":{"android":"levelo://app?vid=a99e441f-fcb3-4edf-8132-a5c34ea369bf","ios":"levelo://app?vid=a99e441f-fcb3-4edf-8132-a5c34ea369bf"},"vehicle_type_id":"4","last_reported":1732964800,"current_range_meters":37600,"station_id":"cjm6bp8fraef2m0cb0m0","pricing_plan_id":"cebpf4jnsgd1na2vs0mg"},{"bike_id":"b20f8aa2-099b-43c7-9225-b80e46e82c1f","system_id":"levelo_inurba_marseille","lat":43.30147,"lon":5.3807,"is_reserved":false,"is_disabled":false,"rental_uris":{"android":"levelo://app?vid=b20f8aa2-099b-43c7-9225-b80e46e82c1f","ios":"levelo://app?vid=b20f8aa2-099b-43c7-9225-b80e46e82c1f"},"vehicle_type_id":"4","last_reported":1732964800,"current_range_meters":25200,"station_id":"ce4bgjp2rcd13ifvqbh0","pricing_plan_id":"cebpf4jnsgd1na2vs0mg"},{"bike_id":"48f109df-b17a-4c5f-a3a0-503c884c120a","system_id":"levelo_inurba_marseille","lat":43.25118,"lon":5.40316,"is_reserved":false,"is_disabled":false,"rental_uris":{"android":"levelo://app?vid=48f109df-b17a-4c5f-a3a0-503c884c120a","ios":"levelo://app?vid=48f109df-b17a-4c5f-a3a0-503c884c120a"},"vehicle_type_id":"4","last_reported":1732964800,"current_range_meters":38400,"station_id":"ce4bhlh2rcd13ifvqgig","pricing_plan_id":"cebpf4jnsgd1na2vs0mg"},{"bike_id":"e9e34fcb-454f-40af-8702-7cb5fa1ffa4f","system_id":"levelo_inurba_marseille","lat":43.29873,"lon":5.38907,"is_reserved":false,"is_disabled":false,"rental_uris":{"android":"levelo://app?vid=e9e34fcb-454f-40af-8702-7cb5fa1ffa4f","ios":"levelo://app?vid=e9e34fcb-454f-40af-8702-7cb5fa1ffa4f"},"vehicle_type_id":"4","last_reported":1732964800,"current_range_meters":38000,"station_id":"ce4bh392rcd13ifvqdl0","pricing_plan_id":"cebpf4jnsgd1na2vs0mg"},{"bike_id":"483a327b-6bdf-4bb5-9b4d-d007206d8a9a","system_id":"levelo_inurba_marseille","lat":43.25119,"lon":5.40319,"is_reserved":false,"is_disabled":false,"rental_uris":{"android":"levelo://app?vid=483a327b-6bdf-4bb5-9b4d-d007206d8a9a","ios":"levelo://app?vid=483a327b-6bdf-4bb5-9b4d-d007206d8a9a"},"vehicle_type_id":"4","last_reported":1732964800,"current_range_meters":20000,"station_id":"ce4bhlh2rcd13ifvqgig","pricing_plan_id":"cebpf4jnsgd1na2vs0mg"},{"bike_id":"981f5323-76ee-4aff-abdb-308b2ece5ca8","system_id":"levelo_inurba_marseille","lat":43.33724,"lon":5.3918,"is_reserved":false,"is_disabled":false,"rental_uris":{"android":"levelo://app?vid=981f5323-76ee-4aff-abdb-308b2ece5ca8","ios":"levelo://app?vid=981f5323-76ee-4aff-abdb-308b2ece5ca8"},"vehicle_type_id":"4","last_reported":1732964800,"current_range_meters":38800,"station_id":"ce4bhr92rcd13ifvqhsg","pricing_plan_id":"cebpf4jnsgd1na2vs0mg"},{"bike_id":"81d9f7be-c3c6-4233-bf11-948e6f22debc","system_id":"levelo_inurba_marseille","lat":43.32364,"lon":5.3888,"is_reserved":false,"is_disabled":false,"rental_uris":{"android":"levelo://app?vid=81d9f7be-c3c6-4233-bf11-948e6f22debc","ios":"levelo://app?vid=81d9f7be-c3c6-4233-bf11-948e6f22debc"},"vehicle_type_id":"4","last_reported":1732964800,"current_range_meters":31200,"station_id":"ce4bhqp2rcd13ifvqhog","pricing_plan_id":"cebpf4jnsgd1na2vs0mg"},{"bike_id":"8a7a49b2-5d66-4af9-bf95-0013db872aa0","system_id":"levelo_inurba_marseille","lat":43.30424,"lon":5.39741,"is_reserved":false,"is_disabled":false,"rental_uris":{"android":"levelo://app?vid=8a7a49b2-5d66-4af9-bf95-0013db872aa0","ios":"levelo://app?vid=8a7a49b2-5d66-4af9-bf95-0013db872aa0"},"vehicle_type_id":"4","last_reported":1732964800,"current_range_meters":38400,"station_id":"ce4bh092rcd13ifvqd20","pricing_plan_id":"cebpf4jnsgd1na2vs0mg"},{"bike_id":"a678a75a-8f3b-4051-997e-2fcfc3227b9d","system_id":"levelo_inurba_marseille","lat":43.29793,"lon":5.38116,"is_reserved":false,"is_disabled":false,"rental_uris":{"android":"levelo://app?vid=a678a75a-8f3b-4051-997e-2fcfc3227b9d","ios":"levelo://app?vid=a678a75a-8f3b-4051-997e-2fcfc3227b9d"},"vehicle_type_id":"4","last_reported":1732964800,"current_range_meters":34000,"station_id":"ce4bgip2rcd13ifvqbb0","pricing_plan_id":"cebpf4jnsgd1na2vs0mg"},{"bike_id":"79778764-9e35-4fb3-ba4f-30a862fa4590","system_id":"levelo_inurba_marseille","lat":43.27997,"lon":5.40018,"is_reserved":false,"is_disabled":false,"rental_uris":{"android":"levelo://app?vid=79778764-9e35-4fb3-ba4f-30a862fa4590","ios":"levelo://app?vid=79778764-9e35-4fb3-ba4f-30a862fa4590"},"vehicle_type_id":"4","last_reported":1732964800,"current_range_meters":38800,"station_id":"ce4bho92rcd13ifvqh4g","pricing_plan_id":"cebpf4jnsgd1na2vs0mg"},{"bike_id":"ab1db49f-701c-4711-8b20-531372b5e60f","system_id":"levelo_inurba_marseille","lat":43.32638,"lon":5.3755,"is_reserved":false,"is_disabled":false,"rental_uris":{"android":"levelo://app?vid=ab1db49f-701c-4711-8b20-531372b5e60f","ios":"levelo://app?vid=ab1db49f-701c-4711-8b20-531372b5e60f"},"vehicle_type_id":"4","last_reported":1732964800,"current_range_meters":33200,"station_id":"","pricing_plan_id":"cebpf4jnsgd1na2vs0mg"},{"bike_id":"29a80c71-9648-4a26-b6c9-5f69092eaa01","system_id":"levelo_inurba_marseille","lat":43.2707,"lon":5.42279,"is_reserved":false,"is_disabled":false,"rental_uris":{"android":"levelo://app?vid=29a80c71-9648-4a26-b6c9-5f69092eaa01","ios":"levelo://app?vid=29a80c71-9648-4a26-b6c9-5f69092eaa01"},"vehicle_type_id":"4","last_reported":1732964800,"current_range_meters":39200,"station_id":"ce4bhk92rcd13ifvqgb0","pricing_plan_id":"cebpf4jnsgd1na2vs0mg"},{"bike_id":"6da71609-93e3-4d55-9c9a-2a34aa3f9d53","system_id":"levelo_inurba_marseille","lat":43.24802,"lon":5.37451,"is_reserved":false,"is_disabled":false,"rental_uris":{"android":"levelo://app?vid=6da71609-93e3-4d55-9c9a-2a34aa3f9d53","ios":"levelo://app?vid=6da71609-93e3-4d55-9c9a-2a34aa3f9d53"},"vehicle_type_id":"4","last_reported":1732964800,"current_range_meters":38000,"station_id":"ce4bhgh2rcd13ifvqfb0","pricing_plan_id":"cebpf4jnsgd1na2vs0mg"},{"bike_id":"f881fa43-b9ae-4a00-a03d-424f20a920b7","system_id":"levelo_inurba_marseille","lat":43.30151,"lon":5.38084,"is_reserved":false,"is_disabled":false,"rental_uris":{"android":"levelo://app?vid=f881fa43-b9ae-4a00-a03d-424f20a920b7","ios":"levelo://app?vid=f881fa43-b9ae-4a00-a03d-424f20a920b7"},"vehicle_type_id":"4","last_reported":1732964800,"current_range_meters":10000,"station_id":"ce4bgjp2rcd13ifvqbh0","pricing_plan_id":"cebpf4jnsgd1na2vs0mg"},{"bike_id":"73c872b6-b245-4557-afe2-6504b31215d2","system_id":"levelo_inurba_marseille","lat":43.30888,"lon":5.39609,"is_reserved":false,"is_disabled":false,"rental_uris":{"android":"levelo://app?vid=73c872b6-b245-4557-afe2-6504b31215d2","ios":"levelo://app?vid=73c872b6-b245-4557-afe2-6504b31215d2"},"vehicle_type_id":"4","last_reported":1732964800,"current_range_meters":38800,"station_id":"ce4bh012rcd13ifvqcv0","pricing_plan_id":"cebpf4jnsgd1na2vs0mg"},{"bike_id":"99a36b7a-1470-4aa7-baaf-cbcc590ec44c","system_id":"levelo_inurba_marseille","lat":43.22936,"lon":5.35379,"is_reserved":false,"is_disabled":false,"rental_uris":{"android":"levelo://app?vid=99a36b7a-1470-4aa7-baaf-cbcc590ec44c","ios":"levelo://app?vid=99a36b7a-1470-4aa7-baaf-cbcc590ec44c"},"vehicle_type_id":"4","last_reported":1732964800,"current_range_meters":38800,"station_id":"cpo3532slgdg3j2ikp40","pricing_plan_id":"cebpf4jnsgd1na2vs0mg"},{"bike_id":"0174841e-8011-4a7b-bd18-480101bee765","system_id":"levelo_inurba_marseille","lat":43.2396,"lon":5.3663,"is_reserved":false,"is_disabled":true,"rental_uris":{"android":"levelo://app?vid=0174841e-8011-4a7b-bd18-480101bee765","ios":"levelo://app?vid=0174841e-8011-4a7b-bd18-480101bee765"},"vehicle_type_id":"4","last_reported":1732964800,"current_range_meters":0,"station_id":"ce4bhi12rcd13ifvqfp0","pricing_plan_id":"cebpf4jnsgd1na2vs0mg"},{"bike_id":"2305c8ac-e0c1-4ac4-9433-503ff05569f8","system_id":"levelo_inurba_marseille","lat":43.28435,"lon":5.39181,"is_reserved":false,"is_disabled":false,"rental_uris":{"android":"levelo://app?vid=2305c8ac-e0c1-4ac4-9433-503ff05569f8","ios":"levelo://app?vid=2305c8ac-e0c1-4ac4-9433-503ff05569f8"},"vehicle_type_id":"4","last_reported":1732964800,"current_range_meters":33600,"station_id":"ce4bhoh2rcd13ifvqh5g","pricing_plan_id":"cebpf4jnsgd1na2vs0mg"},{"bike_id":"fd405db4-6f5b-4763-b335-7a51479a2ea9","system_id":"levelo_inurba_marseille","lat":43.25582,"lon":5.38232,"is_reserved":false,"is_disabled":false,"rental_uris":{"android":"levelo://app?vid=fd405db4-6f5b-4763-b335-7a51479a2ea9","ios":"levelo://app?vid=fd405db4-6f5b-4763-b335-7a51479a2ea9"},"vehicle_type_id":"4","last_reported":1732964800,"current_range_meters":39200,"station_id":"ce4bhih2rcd13ifvqfs0","pricing_plan_id":"cebpf4jnsgd1na2vs0mg"},{"bike_id":"0cff04d7-ac42-44fe-8172-e6b3f4744a1b","system_id":"levelo_inurba_marseille","lat":43.3172,"lon":5.42396,"is_reserved":false,"is_disabled":false,"rental_uris":{"android":"levelo://app?vid=0cff04d7-ac42-44fe-8172-e6b3f4744a1b","ios":"levelo://app?vid=0cff04d7-ac42-44fe-8172-e6b3f4744a1b"},"vehicle_type_id":"4","last_reported":1732964800,"current_range_meters":11600,"station_id":"ce4bhp92rcd13ifvqhbg","pricing_plan_id":"cebpf4jnsgd1na2vs0mg"},{"bike_id":"00b5e211-7497-40e0-9a48-4abd0dd8f0c1","system_id":"levelo_inurba_marseille","lat":43.23965,"lon":5.36633,"is_reserved":false,"is_disabled":false,"rental_uris":{"android":"levelo://app?vid=00b5e211-7497-40e0-9a48-4abd0dd8f0c1","ios":"levelo://app?vid=00b5e211-7497-40e0-9a48-4abd0dd8f0c1"},"vehicle_type_id":"4","last_reported":1732964800,"current_range_meters":32400,"station_id":"ce4bhi12rcd13ifvqfp0","pricing_plan_id":"cebpf4jnsgd1na2vs0mg"},{"bike_id":"a233b25b-869e-422b-bf5e-63d3d8ff686f","system_id":"levelo_inurba_marseille","lat":43.30927,"lon":5.4014,"is_reserved":false,"is_disabled":true,"rental_uris":{"android":"levelo://app?vid=a233b25b-869e-422b-bf5e-63d3d8ff686f","ios":"levelo://app?vid=a233b25b-869e-422b-bf5e-63d3d8ff686f"},"vehicle_type_id":"4","last_reported":1732964800,"current_range_meters":25200,"station_id":"ce4bgvp2rcd13ifvqct0","pricing_plan_id":"cebpf4jnsgd1na2vs0mg"},{"bike_id":"3b61cc8f-6b8c-4eed-8c48-de246bc9d687","system_id":"levelo_inurba_marseille","lat":43.28735,"lon":5.36086,"is_reserved":false,"is_disabled":false,"rental_uris":{"android":"levelo://app?vid=3b61cc8f-6b8c-4eed-8c48-de246bc9d687","ios":"levelo://app?vid=3b61cc8f-6b8c-4eed-8c48-de246bc9d687"},"vehicle_type_id":"4","last_reported":1732964800,"current_range_meters":38800,"station_id":"cki0cbj6b192h4jlfktg","pricing_plan_id":"cebpf4jnsgd1na2vs0mg"},{"bike_id":"6e914fb7-e6d2-4357-b161-70e1de222ef2","system_id":"levelo_inurba_marseille","lat":43.25728,"lon":5.41109,"is_reserved":false,"is_disabled":false,"rental_uris":{"android":"levelo://app?vid=6e914fb7-e6d2-4357-b161-70e1de222ef2","ios":"levelo://app?vid=6e914fb7-e6d2-4357-b161-70e1de222ef2"},"vehicle_type_id":"4","last_reported":1732964800,"current_range_meters":38000,"station_id":"ce4bhkp2rcd13ifvqgd0","pricing_plan_id":"cebpf4jnsgd1na2vs0mg"},{"bike_id":"389ea475-e1a0-4e18-b65c-f83729b9e1b9","system_id":"levelo_inurba_marseille","lat":43.25494,"lon":5.37649,"is_reserved":false,"is_disabled":false,"rental_uris":{"android":"levelo://app?vid=389ea475-e1a0-4e18-b65c-f83729b9e1b9","ios":"levelo://app?vid=389ea475-e1a0-4e18-b65c-f83729b9e1b9"},"vehicle_type_id":"4","last_reported":1732964800,"current_range_meters":40000,"station_id":"ce4bhh12rcd13ifvqff0","pricing_plan_id":"cebpf4jnsgd1na2vs0mg"},{"bike_id":"eee1dbbf-7932-4bce-9f2e-6568a37fdd74","system_id":"levelo_inurba_marseille","lat":43.30087,"lon":5.39082,"is_reserved":false,"is_disabled":false,"rental_uris":{"android":"levelo://app?vid=eee1dbbf-7932-4bce-9f2e-6568a37fdd74","ios":"levelo://app?vid=eee1dbbf-7932-4bce-9f2e-6568a37fdd74"},"vehicle_type_id":"4","last_reported":1732964800,"current_range_meters":26800,"station_id":"ce4bh192rcd13ifvqdb0","pricing_plan_id":"cebpf4jnsgd1na2vs0mg"},{"bike_id":"c53456cf-9ecd-48ab-bd70-22a06cf80d9a","system_id":"levelo_inurba_marseille","lat":43.25496,"lon":5.37649,"is_reserved":false,"is_disabled":false,"rental_uris":{"android":"levelo://app?vid=c53456cf-9ecd-48ab-bd70-22a06cf80d9a","ios":"levelo://app?vid=c53456cf-9ecd-48ab-bd70-22a06cf80d9a"},"vehicle_type_id":"4","last_reported":1732964800,"current_range_meters":39200,"station_id":"ce4bhh12rcd13ifvqff0","pricing_plan_id":"cebpf4jnsgd1na2vs0mg"},{"bike_id":"da47f8dd-19be-4993-b833-a5461573171b","system_id":"levelo_inurba_marseille","lat":43.283567,"lon":5.386388,"is_reserved":false,"is_disabled":false,"rental_uris":{"android":"levelo://app?vid=da47f8dd-19be-4993-b833-a5461573171b","ios":"levelo://app?vid=da47f8dd-19be-4993-b833-a5461573171b"},"vehicle_type_id":"4","last_reported":1732964800,"current_range_meters":37600,"station_id":"ce4bh492rcd13ifvqdvg","pricing_plan_id":"cebpf4jnsgd1na2vs0mg"},{"bike_id":"c2d172e1-98e6-4a29-80b6-476b9c5f1669","system_id":"levelo_inurba_marseille","lat":43.27621,"lon":5.36118,"is_reserved":false,"is_disabled":false,"rental_uris":{"android":"levelo://app?vid=c2d172e1-98e6-4a29-80b6-476b9c5f1669","ios":"levelo://app?vid=c2d172e1-98e6-4a29-80b6-476b9c5f1669"},"vehicle_type_id":"4","last_reported":1732964800,"current_range_meters":38800,"station_id":"ce4bgj92rcd13ifvqbe0","pricing_plan_id":"cebpf4jnsgd1na2vs0mg"},{"bike_id":"ae13da75-4136-42e7-881f-2cf846214b1a","system_id":"levelo_inurba_marseille","lat":43.29192,"lon":5.39327,"is_reserved":false,"is_disabled":false,"rental_uris":{"android":"levelo://app?vid=ae13da75-4136-42e7-881f-2cf846214b1a","ios":"levelo://app?vid=ae13da75-4136-42e7-881f-2cf846214b1a"},"vehicle_type_id":"4","last_reported":1732964800,"current_range_meters":33600,"station_id":"ce4bh192rcd13ifvqdd0","pricing_plan_id":"cebpf4jnsgd1na2vs0mg"},{"bike_id":"2acf3c00-9adf-448c-a9a4-10d6de2d7879","system_id":"levelo_inurba_marseille","lat":43.30648,"lon":5.40074,"is_reserved":false,"is_disabled":true,"rental_uris":{"android":"levelo://app?vid=2acf3c00-9adf-448c-a9a4-10d6de2d7879","ios":"levelo://app?vid=2acf3c00-9adf-448c-a9a4-10d6de2d7879"},"vehicle_type_id":"4","last_reported":1732964800,"current_range_meters":0,"station_id":"ce4bh112rcd13ifvqda0","pricing_plan_id":"cebpf4jnsgd1na2vs0mg"},{"bike_id":"23a1127e-cb22-4ed4-9e04-bd48f9f2b789","system_id":"levelo_inurba_marseille","lat":43.29838,"lon":5.36266,"is_reserved":false,"is_disabled":false,"rental_uris":{"android":"levelo://app?vid=23a1127e-cb22-4ed4-9e04-bd48f9f2b789","ios":"levelo://app?vid=23a1127e-cb22-4ed4-9e04-bd48f9f2b789"},"vehicle_type_id":"4","last_reported":1732964800,"current_range_meters":38000,"station_id":"ce4bgpp2rcd13ifvqc3g","pricing_plan_id":"cebpf4jnsgd1na2vs0mg"},{"bike_id":"b6b86d97-5b3a-467f-8948-7c236b088fbc","system_id":"levelo_inurba_marseille","lat":43.290192,"lon":5.387603,"is_reserved":false,"is_disabled":false,"rental_uris":{"android":"levelo://app?vid=b6b86d97-5b3a-467f-8948-7c236b088fbc","ios":"levelo://app?vid=b6b86d97-5b3a-467f-8948-7c236b088fbc"},"vehicle_type_id":"4","last_reported":1732964800,"current_range_meters":8400,"station_id":"ce4bh4p2rcd13ifvqe0g","pricing_plan_id":"cebpf4jnsgd1na2vs0mg"},{"bike_id":"06448cf4-5db2-4556-ae15-36018f41ecec","system_id":"levelo_inurba_marseille","lat":43.30888,"lon":5.39637,"is_reserved":false,"is_disabled":false,"rental_uris":{"android":"levelo://app?vid=06448cf4-5db2-4556-ae15-36018f41ecec","ios":"levelo://app?vid=06448cf4-5db2-4556-ae15-36018f41ecec"},"vehicle_type_id":"4","last_reported":1732964800,"current_range_meters":38800,"station_id":"ce4bh012rcd13ifvqcv0","pricing_plan_id":"cebpf4jnsgd1na2vs0mg"},{"bike_id":"1c275863-2459-47a8-a12e-69bd5a5bb952","system_id":"levelo_inurba_marseille","lat":43.29599,"lon":5.381,"is_reserved":false,"is_disabled":false,"rental_uris":{"android":"levelo://app?vid=1c275863-2459-47a8-a12e-69bd5a5bb952","ios":"levelo://app?vid=1c275863-2459-47a8-a12e-69bd5a5bb952"},"vehicle_type_id":"4","last_reported":1732964800,"current_range_meters":4400,"station_id":"ce4bgl12rcd13ifvqbo0","pricing_plan_id":"cebpf4jnsgd1na2vs0mg"},{"bike_id":"96514040-dda8-41d6-80eb-14656629b10f","system_id":"levelo_inurba_marseille","lat":43.3031,"lon":5.36896,"is_reserved":false,"is_disabled":false,"rental_uris":{"android":"levelo://app?vid=96514040-dda8-41d6-80eb-14656629b10f","ios":"levelo://app?vid=96514040-dda8-41d6-80eb-14656629b10f"},"vehicle_type_id":"4","last_reported":1732964800,"current_range_meters":36800,"station_id":"ce4bgqh2rcd13ifvqc5g","pricing_plan_id":"cebpf4jnsgd1na2vs0mg"},{"bike_id":"fe1c6c60-0f4f-4b5c-a7ea-9f2ff8347245","system_id":"levelo_inurba_marseille","lat":43.27625,"lon":5.36113,"is_reserved":false,"is_disabled":false,"rental_uris":{"android":"levelo://app?vid=fe1c6c60-0f4f-4b5c-a7ea-9f2ff8347245","ios":"levelo://app?vid=fe1c6c60-0f4f-4b5c-a7ea-9f2ff8347245"},"vehicle_type_id":"4","last_reported":1732964800,"current_range_meters":38800,"station_id":"ce4bgj92rcd13ifvqbe0","pricing_plan_id":"cebpf4jnsgd1na2vs0mg"},{"bike_id":"4abebe2b-dec7-442c-a6a0-da33deb742de","system_id":"levelo_inurba_marseille","lat":43.3211,"lon":5.36776,"is_reserved":false,"is_disabled":false,"rental_uris":{"android":"levelo://app?vid=4abebe2b-dec7-442c-a6a0-da33deb742de","ios":"levelo://app?vid=4abebe2b-dec7-442c-a6a0-da33deb742de"},"vehicle_type_id":"4","last_reported":1732964800,"current_range_meters":37600,"station_id":"ce4bhrh2rcd13ifvqhug","pricing_plan_id":"cebpf4jnsgd1na2vs0mg"},{"bike_id":"e8761c76-5abe-46ec-a02e-5c1eaaf3ecfa","system_id":"levelo_inurba_marseille","lat":43.24158,"lon":5.36401,"is_reserved":false,"is_disabled":false,"rental_uris":{"android":"levelo://app?vid=e8761c76-5abe-46ec-a02e-5c1eaaf3ecfa","ios":"levelo://app?vid=e8761c76-5abe-46ec-a02e-5c1eaaf3ecfa"},"vehicle_type_id":"4","last_reported":1732964800,"current_range_meters":30400,"station_id":"cpo36qri1sfpv3e86is0","pricing_plan_id":"cebpf4jnsgd1na2vs0mg"},{"bike_id":"0c20e4e7-374c-4b39-bc12-c6658a4700bf","system_id":"levelo_inurba_marseille","lat":43.30554,"lon":5.36535,"is_reserved":false,"is_disabled":false,"rental_uris":{"android":"levelo://app?vid=0c20e4e7-374c-4b39-bc12-c6658a4700bf","ios":"levelo://app?vid=0c20e4e7-374c-4b39-bc12-c6658a4700bf"},"vehicle_type_id":"4","last_reported":1732964800,"current_range_meters":14800,"station_id":"ce4bgs12rcd13ifvqcag","pricing_plan_id":"cebpf4jnsgd1na2vs0mg"},{"bike_id":"deb31fb0-607b-461f-aedb-dc476e058fa0","system_id":"levelo_inurba_marseille","lat":43.29623,"lon":5.37711,"is_reserved":false,"is_disabled":false,"rental_uris":{"android":"levelo://app?vid=deb31fb0-607b-461f-aedb-dc476e058fa0","ios":"levelo://app?vid=deb31fb0-607b-461f-aedb-dc476e058fa0"},"vehicle_type_id":"4","last_reported":1732964800,"current_range_meters":29600,"station_id":"ce4bgi92rcd13ifvqb90","pricing_plan_id":"cebpf4jnsgd1na2vs0mg"},{"bike_id":"0f17f004-1308-4dc1-baa4-8e9fe8d97b2d","system_id":"levelo_inurba_marseille","lat":43.25714,"lon":5.41122,"is_reserved":false,"is_disabled":false,"rental_uris":{"android":"levelo://app?vid=0f17f004-1308-4dc1-baa4-8e9fe8d97b2d","ios":"levelo://app?vid=0f17f004-1308-4dc1-baa4-8e9fe8d97b2d"},"vehicle_type_id":"4","last_reported":1732964800,"current_range_meters":24400,"station_id":"ce4bhkp2rcd13ifvqgd0","pricing_plan_id":"cebpf4jnsgd1na2vs0mg"},{"bike_id":"e9e69297-2349-49bf-ad9a-2429bf78d7a6","system_id":"levelo_inurba_marseille","lat":43.29574,"lon":5.37474,"is_reserved":false,"is_disabled":false,"rental_uris":{"android":"levelo://app?vid=e9e69297-2349-49bf-ad9a-2429bf78d7a6","ios":"levelo://app?vid=e9e69297-2349-49bf-ad9a-2429bf78d7a6"},"vehicle_type_id":"4","last_reported":1732964800,"current_range_meters":38000,"station_id":"ce4bgh92rcd13ifvqb50","pricing_plan_id":"cebpf4jnsgd1na2vs0mg"},{"bike_id":"dbfd2507-0f98-41c9-a955-22631d3ab074","system_id":"levelo_inurba_marseille","lat":43.314972,"lon":5.373122,"is_reserved":false,"is_disabled":false,"rental_uris":{"android":"levelo://app?vid=dbfd2507-0f98-41c9-a955-22631d3ab074","ios":"levelo://app?vid=dbfd2507-0f98-41c9-a955-22631d3ab074"},"vehicle_type_id":"4","last_reported":1732964800,"current_range_meters":20400,"station_id":"ce4bgt12rcd13ifvqcd0","pricing_plan_id":"cebpf4jnsgd1na2vs0mg"},{"bike_id":"105efde2-9574-43cf-9513-237e615a19bb","system_id":"levelo_inurba_marseille","lat":43.29597,"lon":5.38107,"is_reserved":false,"is_disabled":false,"rental_uris":{"android":"levelo://app?vid=105efde2-9574-43cf-9513-237e615a19bb","ios":"levelo://app?vid=105efde2-9574-43cf-9513-237e615a19bb"},"vehicle_type_id":"4","last_reported":1732964800,"current_range_meters":16000,"station_id":"ce4bgl12rcd13ifvqbo0","pricing_plan_id":"cebpf4jnsgd1na2vs0mg"},{"bike_id":"f3e62513-1081-48c7-9138-1c35378c3b9f","system_id":"levelo_inurba_marseille","lat":43.2568,"lon":5.378742,"is_reserved":false,"is_disabled":false,"rental_uris":{"android":"levelo://app?vid=f3e62513-1081-48c7-9138-1c35378c3b9f","ios":"levelo://app?vid=f3e62513-1081-48c7-9138-1c35378c3b9f"},"vehicle_type_id":"4","last_reported":1732964800,"current_range_meters":30000,"station_id":"ce4bhgh2rcd13ifvqfa0","pricing_plan_id":"cebpf4jnsgd1na2vs0mg"},{"bike_id":"92529803-908f-413b-9cf1-4bbbdc65c1ac","system_id":"levelo_inurba_marseille","lat":43.29552,"lon":5.42278,"is_reserved":false,"is_disabled":false,"rental_uris":{"android":"levelo://app?vid=92529803-908f-413b-9cf1-4bbbdc65c1ac","ios":"levelo://app?vid=92529803-908f-413b-9cf1-4bbbdc65c1ac"},"vehicle_type_id":"4","last_reported":1732964800,"current_range_meters":12000,"station_id":"ce4bhph2rcd13ifvqhdg","pricing_plan_id":"cebpf4jnsgd1na2vs0mg"},{"bike_id":"50083385-87a7-4059-b9fe-3253996030c6","system_id":"levelo_inurba_marseille","lat":43.29613,"lon":5.3774,"is_reserved":false,"is_disabled":false,"rental_uris":{"android":"levelo://app?vid=50083385-87a7-4059-b9fe-3253996030c6","ios":"levelo://app?vid=50083385-87a7-4059-b9fe-3253996030c6"},"vehicle_type_id":"4","last_reported":1732964800,"current_range_meters":38800,"station_id":"ce4bgi92rcd13ifvqb90","pricing_plan_id":"cebpf4jnsgd1na2vs0mg"},{"bike_id":"9dd1fc98-a89e-437a-b707-6eb8b3c899e8","system_id":"levelo_inurba_marseille","lat":43.29039,"lon":5.35922,"is_reserved":false,"is_disabled":true,"rental_uris":{"android":"levelo://app?vid=9dd1fc98-a89e-437a-b707-6eb8b3c899e8","ios":"levelo://app?vid=9dd1fc98-a89e-437a-b707-6eb8b3c899e8"},"vehicle_type_id":"4","last_reported":1732964800,"current_range_meters":800,"station_id":"ce4bha92rcd13ifvqeg0","pricing_plan_id":"cebpf4jnsgd1na2vs0mg"},{"bike_id":"aea6b7a8-fa3c-4842-89c6-693b08a99724","system_id":"levelo_inurba_marseille","lat":43.33764,"lon":5.37446,"is_reserved":false,"is_disabled":false,"rental_uris":{"android":"levelo://app?vid=aea6b7a8-fa3c-4842-89c6-693b08a99724","ios":"levelo://app?vid=aea6b7a8-fa3c-4842-89c6-693b08a99724"},"vehicle_type_id":"4","last_reported":1732964800,"current_range_meters":38800,"station_id":"","pricing_plan_id":"cebpf4jnsgd1na2vs0mg"},{"bike_id":"72545c36-dac1-4f8e-a9b7-23590662e00f","system_id":"levelo_inurba_marseille","lat":43.29965,"lon":5.38497,"is_reserved":false,"is_disabled":false,"rental_uris":{"android":"levelo://app?vid=72545c36-dac1-4f8e-a9b7-23590662e00f","ios":"levelo://app?vid=72545c36-dac1-4f8e-a9b7-23590662e00f"},"vehicle_type_id":"4","last_reported":1732964800,"current_range_meters":24000,"station_id":"ce4bgj92rcd13ifvqbd0","pricing_plan_id":"cebpf4jnsgd1na2vs0mg"},{"bike_id":"a1da46ac-0823-493f-ac56-218330798636","system_id":"levelo_inurba_marseille","lat":43.24357,"lon":5.37064,"is_reserved":false,"is_disabled":false,"rental_uris":{"android":"levelo://app?vid=a1da46ac-0823-493f-ac56-218330798636","ios":"levelo://app?vid=a1da46ac-0823-493f-ac56-218330798636"},"vehicle_type_id":"4","last_reported":1732964800,"current_range_meters":39200,"station_id":"ce4bhhh2rcd13ifvqfk0","pricing_plan_id":"cebpf4jnsgd1na2vs0mg"},{"bike_id":"c73328dd-d4e4-4b90-97b9-f98bbd87a6ad","system_id":"levelo_inurba_marseille","lat":43.26957,"lon":5.38632,"is_reserved":false,"is_disabled":false,"rental_uris":{"android":"levelo://app?vid=c73328dd-d4e4-4b90-97b9-f98bbd87a6ad","ios":"levelo://app?vid=c73328dd-d4e4-4b90-97b9-f98bbd87a6ad"},"vehicle_type_id":"4","last_reported":1732964800,"current_range_meters":38000,"station_id":"ce4bhh92rcd13ifvqfh0","pricing_plan_id":"cebpf4jnsgd1na2vs0mg"},{"bike_id":"a5909545-3e09-4859-9fda-9ffe4e6e4883","system_id":"levelo_inurba_marseille","lat":43.23066,"lon":5.35492,"is_reserved":false,"is_disabled":false,"rental_uris":{"android":"levelo://app?vid=a5909545-3e09-4859-9fda-9ffe4e6e4883","ios":"levelo://app?vid=a5909545-3e09-4859-9fda-9ffe4e6e4883"},"vehicle_type_id":"4","last_reported":1732964800,"current_range_meters":12000,"station_id":"cpo3342slgdg3j2ifvpg","pricing_plan_id":"cebpf4jnsgd1na2vs0mg"},{"bike_id":"84612e77-e805-4d98-a6c5-5b7bf00eb83d","system_id":"levelo_inurba_marseille","lat":43.29622,"lon":5.37167,"is_reserved":false,"is_disabled":false,"rental_uris":{"android":"levelo://app?vid=84612e77-e805-4d98-a6c5-5b7bf00eb83d","ios":"levelo://app?vid=84612e77-e805-4d98-a6c5-5b7bf00eb83d"},"vehicle_type_id":"4","last_reported":1732964800,"current_range_meters":33200,"station_id":"ce4bgnh2rcd13ifvqc0g","pricing_plan_id":"cebpf4jnsgd1na2vs0mg"},{"bike_id":"8a706c0a-83d1-44fa-9127-38cdaec2557e","system_id":"levelo_inurba_marseille","lat":43.31424,"lon":5.39369,"is_reserved":false,"is_disabled":false,"rental_uris":{"android":"levelo://app?vid=8a706c0a-83d1-44fa-9127-38cdaec2557e","ios":"levelo://app?vid=8a706c0a-83d1-44fa-9127-38cdaec2557e"},"vehicle_type_id":"4","last_reported":1732964800,"current_range_meters":38800,"station_id":"","pricing_plan_id":"cebpf4jnsgd1na2vs0mg"},{"bike_id":"78716590-acd8-4375-8266-67d9a41d59a7","system_id":"levelo_inurba_marseille","lat":43.32379,"lon":5.38875,"is_reserved":false,"is_disabled":false,"rental_uris":{"android":"levelo://app?vid=78716590-acd8-4375-8266-67d9a41d59a7","ios":"levelo://app?vid=78716590-acd8-4375-8266-67d9a41d59a7"},"vehicle_type_id":"4","last_reported":1732964800,"current_range_meters":30800,"station_id":"ce4bhqp2rcd13ifvqhog","pricing_plan_id":"cebpf4jnsgd1na2vs0mg"},{"bike_id":"29bc040e-f56a-4090-9867-9a42d6dde056","system_id":"levelo_inurba_marseille","lat":43.27496,"lon":5.42451,"is_reserved":false,"is_disabled":false,"rental_uris":{"android":"levelo://app?vid=29bc040e-f56a-4090-9867-9a42d6dde056","ios":"levelo://app?vid=29bc040e-f56a-4090-9867-9a42d6dde056"},"vehicle_type_id":"4","last_reported":1732964800,"current_range_meters":30000,"station_id":"ce4bhn92rcd13ifvqgrg","pricing_plan_id":"cebpf4jnsgd1na2vs0mg"},{"bike_id":"645c606c-68ed-422b-af50-4155f76d4c2c","system_id":"levelo_inurba_marseille","lat":43.3015,"lon":5.38077,"is_reserved":false,"is_disabled":false,"rental_uris":{"android":"levelo://app?vid=645c606c-68ed-422b-af50-4155f76d4c2c","ios":"levelo://app?vid=645c606c-68ed-422b-af50-4155f76d4c2c"},"vehicle_type_id":"4","last_reported":1732964800,"current_range_meters":22800,"station_id":"ce4bgjp2rcd13ifvqbh0","pricing_plan_id":"cebpf4jnsgd1na2vs0mg"},{"bike_id":"e5951ee3-4a5a-4ebb-b469-096c5188dfa3","system_id":"levelo_inurba_marseille","lat":43.23188,"lon":5.35532,"is_reserved":false,"is_disabled":false,"rental_uris":{"android":"levelo://app?vid=e5951ee3-4a5a-4ebb-b469-096c5188dfa3","ios":"levelo://app?vid=e5951ee3-4a5a-4ebb-b469-096c5188dfa3"},"vehicle_type_id":"4","last_reported":1732964800,"current_range_meters":20000,"station_id":"ce4bhu92rcd13ifvqi70","pricing_plan_id":"cebpf4jnsgd1na2vs0mg"},{"bike_id":"f9a63393-5401-4f98-ae5a-dfbb8291ab6d","system_id":"levelo_inurba_marseille","lat":43.3004,"lon":5.37551,"is_reserved":false,"is_disabled":true,"rental_uris":{"android":"levelo://app?vid=f9a63393-5401-4f98-ae5a-dfbb8291ab6d","ios":"levelo://app?vid=f9a63393-5401-4f98-ae5a-dfbb8291ab6d"},"vehicle_type_id":"4","last_reported":1732964800,"current_range_meters":0,"station_id":"","pricing_plan_id":"cebpf4jnsgd1na2vs0mg"},{"bike_id":"d2300a67-e59d-4c6d-84e8-89c1777cddcc","system_id":"levelo_inurba_marseille","lat":43.31987,"lon":5.38138,"is_reserved":false,"is_disabled":false,"rental_uris":{"android":"levelo://app?vid=d2300a67-e59d-4c6d-84e8-89c1777cddcc","ios":"levelo://app?vid=d2300a67-e59d-4c6d-84e8-89c1777cddcc"},"vehicle_type_id":"4","last_reported":1732964800,"current_range_meters":39200,"station_id":"ce4bhr12rcd13ifvqhpg","pricing_plan_id":"cebpf4jnsgd1na2vs0mg"},{"bike_id":"aacfb94e-cf9a-4099-ab69-41176bf99d01","system_id":"levelo_inurba_marseille","lat":43.24666,"lon":5.38172,"is_reserved":false,"is_disabled":false,"rental_uris":{"android":"levelo://app?vid=aacfb94e-cf9a-4099-ab69-41176bf99d01","ios":"levelo://app?vid=aacfb94e-cf9a-4099-ab69-41176bf99d01"},"vehicle_type_id":"4","last_reported":1732964800,"current_range_meters":21600,"station_id":"ce4bhih2rcd13ifvqfr0","pricing_plan_id":"cebpf4jnsgd1na2vs0mg"},{"bike_id":"209edce5-94bd-42b7-894c-233f806592a5","system_id":"levelo_inurba_marseille","lat":43.32357,"lon":5.36745,"is_reserved":false,"is_disabled":false,"rental_uris":{"android":"levelo://app?vid=209edce5-94bd-42b7-894c-233f806592a5","ios":"levelo://app?vid=209edce5-94bd-42b7-894c-233f806592a5"},"vehicle_type_id":"4","last_reported":1732964800,"current_range_meters":28400,"station_id":"ce4bhsh2rcd13ifvqi2g","pricing_plan_id":"cebpf4jnsgd1na2vs0mg"},{"bike_id":"34916d6a-7f26-4121-8662-e51ef2368170","system_id":"levelo_inurba_marseille","lat":43.31726,"lon":5.37725,"is_reserved":false,"is_disabled":false,"rental_uris":{"android":"levelo://app?vid=34916d6a-7f26-4121-8662-e51ef2368170","ios":"levelo://app?vid=34916d6a-7f26-4121-8662-e51ef2368170"},"vehicle_type_id":"4","last_reported":1732964800,"current_range_meters":38800,"station_id":"ce4bgth2rcd13ifvqch0","pricing_plan_id":"cebpf4jnsgd1na2vs0mg"},{"bike_id":"efbc4d20-bdec-45eb-8f74-c8ad3b7ba3bb","system_id":"levelo_inurba_marseille","lat":43.23059,"lon":5.35493,"is_reserved":false,"is_disabled":false,"rental_uris":{"android":"levelo://app?vid=efbc4d20-bdec-45eb-8f74-c8ad3b7ba3bb","ios":"levelo://app?vid=efbc4d20-bdec-45eb-8f74-c8ad3b7ba3bb"},"vehicle_type_id":"4","last_reported":1732964800,"current_range_meters":30000,"station_id":"cpo3342slgdg3j2ifvpg","pricing_plan_id":"cebpf4jnsgd1na2vs0mg"},{"bike_id":"3dd31273-b0d5-4cf3-be5e-f5b5cd5566c1","system_id":"levelo_inurba_marseille","lat":43.29707,"lon":5.37699,"is_reserved":false,"is_disabled":false,"rental_uris":{"android":"levelo://app?vid=3dd31273-b0d5-4cf3-be5e-f5b5cd5566c1","ios":"levelo://app?vid=3dd31273-b0d5-4cf3-be5e-f5b5cd5566c1"},"vehicle_type_id":"4","last_reported":1732964800,"current_range_meters":37600,"station_id":"ce4bgkh2rcd13ifvqbl0","pricing_plan_id":"cebpf4jnsgd1na2vs0mg"},{"bike_id":"a1de088e-f9bc-437b-86db-027b9d5a0352","system_id":"levelo_inurba_marseille","lat":43.33023,"lon":5.3904,"is_reserved":false,"is_disabled":false,"rental_uris":{"android":"levelo://app?vid=a1de088e-f9bc-437b-86db-027b9d5a0352","ios":"levelo://app?vid=a1de088e-f9bc-437b-86db-027b9d5a0352"},"vehicle_type_id":"4","last_reported":1732964800,"current_range_meters":36800,"station_id":"ce4bhr92rcd13ifvqhrg","pricing_plan_id":"cebpf4jnsgd1na2vs0mg"},{"bike_id":"596f550b-37f8-4290-aa1b-4eeda17e0d90","system_id":"levelo_inurba_marseille","lat":43.2742,"lon":5.39405,"is_reserved":false,"is_disabled":false,"rental_uris":{"android":"levelo://app?vid=596f550b-37f8-4290-aa1b-4eeda17e0d90","ios":"levelo://app?vid=596f550b-37f8-4290-aa1b-4eeda17e0d90"},"vehicle_type_id":"4","last_reported":1732964800,"current_range_meters":38400,"station_id":"ce4bhdp2rcd13ifvqf20","pricing_plan_id":"cebpf4jnsgd1na2vs0mg"},{"bike_id":"0e2e2e8f-f6ff-472f-a399-ce2091a0ec39","system_id":"levelo_inurba_marseille","lat":43.30426,"lon":5.39751,"is_reserved":false,"is_disabled":false,"rental_uris":{"android":"levelo://app?vid=0e2e2e8f-f6ff-472f-a399-ce2091a0ec39","ios":"levelo://app?vid=0e2e2e8f-f6ff-472f-a399-ce2091a0ec39"},"vehicle_type_id":"4","last_reported":1732964800,"current_range_meters":24800,"station_id":"ce4bh092rcd13ifvqd20","pricing_plan_id":"cebpf4jnsgd1na2vs0mg"},{"bike_id":"38798db8-5bd5-4792-b41b-6f809d1b1c45","system_id":"levelo_inurba_marseille","lat":43.319918,"lon":5.381428,"is_reserved":false,"is_disabled":false,"rental_uris":{"android":"levelo://app?vid=38798db8-5bd5-4792-b41b-6f809d1b1c45","ios":"levelo://app?vid=38798db8-5bd5-4792-b41b-6f809d1b1c45"},"vehicle_type_id":"4","last_reported":1732964800,"current_range_meters":18800,"station_id":"ce4bhr12rcd13ifvqhpg","pricing_plan_id":"cebpf4jnsgd1na2vs0mg"},{"bike_id":"103ab32b-58e4-4d26-aa74-616b3801944f","system_id":"levelo_inurba_marseille","lat":43.3042,"lon":5.41288,"is_reserved":false,"is_disabled":false,"rental_uris":{"android":"levelo://app?vid=103ab32b-58e4-4d26-aa74-616b3801944f","ios":"levelo://app?vid=103ab32b-58e4-4d26-aa74-616b3801944f"},"vehicle_type_id":"4","last_reported":1732964800,"current_range_meters":16400,"station_id":"ce4bhop2rcd13ifvqh8g","pricing_plan_id":"cebpf4jnsgd1na2vs0mg"},{"bike_id":"375f3ff8-f817-4dea-ba6a-e7f3d0cf2b56","system_id":"levelo_inurba_marseille","lat":43.28035,"lon":5.36943,"is_reserved":false,"is_disabled":false,"rental_uris":{"android":"levelo://app?vid=375f3ff8-f817-4dea-ba6a-e7f3d0cf2b56","ios":"levelo://app?vid=375f3ff8-f817-4dea-ba6a-e7f3d0cf2b56"},"vehicle_type_id":"4","last_reported":1732964800,"current_range_meters":38800,"station_id":"ce4bha12rcd13ifvqef0","pricing_plan_id":"cebpf4jnsgd1na2vs0mg"},{"bike_id":"e05ac5be-d807-4203-8b20-bdb26cceefb0","system_id":"levelo_inurba_marseille","lat":43.31762,"lon":5.39016,"is_reserved":false,"is_disabled":false,"rental_uris":{"android":"levelo://app?vid=e05ac5be-d807-4203-8b20-bdb26cceefb0","ios":"levelo://app?vid=e05ac5be-d807-4203-8b20-bdb26cceefb0"},"vehicle_type_id":"4","last_reported":1732964800,"current_range_meters":35600,"station_id":"ce4bhqp2rcd13ifvqhng","pricing_plan_id":"cebpf4jnsgd1na2vs0mg"},{"bike_id":"7f082386-34c8-4a7b-8898-dd84fb928ab5","system_id":"levelo_inurba_marseille","lat":43.23153,"lon":5.43715,"is_reserved":false,"is_disabled":false,"rental_uris":{"android":"levelo://app?vid=7f082386-34c8-4a7b-8898-dd84fb928ab5","ios":"levelo://app?vid=7f082386-34c8-4a7b-8898-dd84fb928ab5"},"vehicle_type_id":"4","last_reported":1732964800,"current_range_meters":9600,"station_id":"ce4bhmp2rcd13ifvqgog","pricing_plan_id":"cebpf4jnsgd1na2vs0mg"},{"bike_id":"e294bbed-4a82-4bea-afc5-e9fa144a2863","system_id":"levelo_inurba_marseille","lat":43.30541,"lon":5.38419,"is_reserved":false,"is_disabled":false,"rental_uris":{"android":"levelo://app?vid=e294bbed-4a82-4bea-afc5-e9fa144a2863","ios":"levelo://app?vid=e294bbed-4a82-4bea-afc5-e9fa144a2863"},"vehicle_type_id":"4","last_reported":1732964800,"current_range_meters":16400,"station_id":"ce4bgg92rcd13ifvqb30","pricing_plan_id":"cebpf4jnsgd1na2vs0mg"},{"bike_id":"c43fffd1-108f-4493-9c53-d2971d2b16a2","system_id":"levelo_inurba_marseille","lat":43.32919,"lon":5.4156,"is_reserved":false,"is_disabled":false,"rental_uris":{"android":"levelo://app?vid=c43fffd1-108f-4493-9c53-d2971d2b16a2","ios":"levelo://app?vid=c43fffd1-108f-4493-9c53-d2971d2b16a2"},"vehicle_type_id":"4","last_reported":1732964800,"current_range_meters":21600,"station_id":"","pricing_plan_id":"cebpf4jnsgd1na2vs0mg"},{"bike_id":"cf002d38-17c9-44fd-9354-c7910c4bd3ff","system_id":"levelo_inurba_marseille","lat":43.33024,"lon":5.3903,"is_reserved":false,"is_disabled":false,"rental_uris":{"android":"levelo://app?vid=cf002d38-17c9-44fd-9354-c7910c4bd3ff","ios":"levelo://app?vid=cf002d38-17c9-44fd-9354-c7910c4bd3ff"},"vehicle_type_id":"4","last_reported":1732964800,"current_range_meters":37600,"station_id":"ce4bhr92rcd13ifvqhrg","pricing_plan_id":"cebpf4jnsgd1na2vs0mg"},{"bike_id":"ccba872b-b73e-4c65-9348-bf2fa2550f0e","system_id":"levelo_inurba_marseille","lat":43.29291,"lon":5.37448,"is_reserved":false,"is_disabled":false,"rental_uris":{"android":"levelo://app?vid=ccba872b-b73e-4c65-9348-bf2fa2550f0e","ios":"levelo://app?vid=ccba872b-b73e-4c65-9348-bf2fa2550f0e"},"vehicle_type_id":"4","last_reported":1732964800,"current_range_meters":39200,"station_id":"ce4bgi12rcd13ifvqb70","pricing_plan_id":"cebpf4jnsgd1na2vs0mg"},{"bike_id":"43746d86-8a13-4845-9faf-ae69b548d714","system_id":"levelo_inurba_marseille","lat":43.29459,"lon":5.37917,"is_reserved":false,"is_disabled":true,"rental_uris":{"android":"levelo://app?vid=43746d86-8a13-4845-9faf-ae69b548d714","ios":"levelo://app?vid=43746d86-8a13-4845-9faf-ae69b548d714"},"vehicle_type_id":"4","last_reported":1732964800,"current_range_meters":0,"station_id":"","pricing_plan_id":"cebpf4jnsgd1na2vs0mg"},{"bike_id":"b99d912f-5dc0-4792-8912-e0c60fda2b57","system_id":"levelo_inurba_marseille","lat":43.23053,"lon":5.35484,"is_reserved":false,"is_disabled":false,"rental_uris":{"android":"levelo://app?vid=b99d912f-5dc0-4792-8912-e0c60fda2b57","ios":"levelo://app?vid=b99d912f-5dc0-4792-8912-e0c60fda2b57"},"vehicle_type_id":"4","last_reported":1732964800,"current_range_meters":28000,"station_id":"cpo3342slgdg3j2ifvpg","pricing_plan_id":"cebpf4jnsgd1na2vs0mg"},{"bike_id":"91c69d73-d24d-493d-a22e-00d0c945bccd","system_id":"levelo_inurba_marseille","lat":43.30085,"lon":5.39077,"is_reserved":false,"is_disabled":false,"rental_uris":{"android":"levelo://app?vid=91c69d73-d24d-493d-a22e-00d0c945bccd","ios":"levelo://app?vid=91c69d73-d24d-493d-a22e-00d0c945bccd"},"vehicle_type_id":"4","last_reported":1732964800,"current_range_meters":38800,"station_id":"ce4bh192rcd13ifvqdb0","pricing_plan_id":"cebpf4jnsgd1na2vs0mg"},{"bike_id":"b8d98f58-1ce0-42c5-bb7c-fc81dd4c1609","system_id":"levelo_inurba_marseille","lat":43.28424,"lon":5.34996,"is_reserved":false,"is_disabled":false,"rental_uris":{"android":"levelo://app?vid=b8d98f58-1ce0-42c5-bb7c-fc81dd4c1609","ios":"levelo://app?vid=b8d98f58-1ce0-42c5-bb7c-fc81dd4c1609"},"vehicle_type_id":"4","last_reported":1732964800,"current_range_meters":4000,"station_id":"ce4bhbh2rcd13ifvqepg","pricing_plan_id":"cebpf4jnsgd1na2vs0mg"},{"bike_id":"47a90437-acbe-44e5-ba57-0be28e485092","system_id":"levelo_inurba_marseille","lat":43.30085,"lon":5.39098,"is_reserved":false,"is_disabled":false,"rental_uris":{"android":"levelo://app?vid=47a90437-acbe-44e5-ba57-0be28e485092","ios":"levelo://app?vid=47a90437-acbe-44e5-ba57-0be28e485092"},"vehicle_type_id":"4","last_reported":1732964800,"current_range_meters":32400,"station_id":"ce4bh192rcd13ifvqdb0","pricing_plan_id":"cebpf4jnsgd1na2vs0mg"},{"bike_id":"8b9b79f9-3aaa-4444-8431-6e75d6ee4785","system_id":"levelo_inurba_marseille","lat":43.29179,"lon":5.35825,"is_reserved":false,"is_disabled":false,"rental_uris":{"android":"levelo://app?vid=8b9b79f9-3aaa-4444-8431-6e75d6ee4785","ios":"levelo://app?vid=8b9b79f9-3aaa-4444-8431-6e75d6ee4785"},"vehicle_type_id":"4","last_reported":1732964800,"current_range_meters":38800,"station_id":"ce4bhb12rcd13ifvqel0","pricing_plan_id":"cebpf4jnsgd1na2vs0mg"},{"bike_id":"2128ca5f-479c-4e9b-909a-d8926555554b","system_id":"levelo_inurba_marseille","lat":43.24808,"lon":5.37456,"is_reserved":false,"is_disabled":false,"rental_uris":{"android":"levelo://app?vid=2128ca5f-479c-4e9b-909a-d8926555554b","ios":"levelo://app?vid=2128ca5f-479c-4e9b-909a-d8926555554b"},"vehicle_type_id":"4","last_reported":1732964800,"current_range_meters":32000,"station_id":"ce4bhgh2rcd13ifvqfb0","pricing_plan_id":"cebpf4jnsgd1na2vs0mg"},{"bike_id":"004808dd-897a-450f-9d03-3436370a1db6","system_id":"levelo_inurba_marseille","lat":43.29268,"lon":5.36847,"is_reserved":false,"is_disabled":false,"rental_uris":{"android":"levelo://app?vid=004808dd-897a-450f-9d03-3436370a1db6","ios":"levelo://app?vid=004808dd-897a-450f-9d03-3436370a1db6"},"vehicle_type_id":"4","last_reported":1732964800,"current_range_meters":32800,"station_id":"ce4bhbp2rcd13ifvqesg","pricing_plan_id":"cebpf4jnsgd1na2vs0mg"},{"bike_id":"4b9c7681-507a-4563-b64e-42649b13b2ea","system_id":"levelo_inurba_marseille","lat":43.30536,"lon":5.36521,"is_reserved":false,"is_disabled":false,"rental_uris":{"android":"levelo://app?vid=4b9c7681-507a-4563-b64e-42649b13b2ea","ios":"levelo://app?vid=4b9c7681-507a-4563-b64e-42649b13b2ea"},"vehicle_type_id":"4","last_reported":1732964800,"current_range_meters":19600,"station_id":"ce4bgs12rcd13ifvqcag","pricing_plan_id":"cebpf4jnsgd1na2vs0mg"},{"bike_id":"8224d37b-5677-43f5-94bd-2373379da771","system_id":"levelo_inurba_marseille","lat":43.29615,"lon":5.37725,"is_reserved":false,"is_disabled":false,"rental_uris":{"android":"levelo://app?vid=8224d37b-5677-43f5-94bd-2373379da771","ios":"levelo://app?vid=8224d37b-5677-43f5-94bd-2373379da771"},"vehicle_type_id":"4","last_reported":1732964800,"current_range_meters":33600,"station_id":"ce4bgi92rcd13ifvqb90","pricing_plan_id":"cebpf4jnsgd1na2vs0mg"},{"bike_id":"0931d803-eb8c-41d3-bde0-19f913a96fb7","system_id":"levelo_inurba_marseille","lat":43.26934,"lon":5.38921,"is_reserved":false,"is_disabled":false,"rental_uris":{"android":"levelo://app?vid=0931d803-eb8c-41d3-bde0-19f913a96fb7","ios":"levelo://app?vid=0931d803-eb8c-41d3-bde0-19f913a96fb7"},"vehicle_type_id":"4","last_reported":1732964800,"current_range_meters":38800,"station_id":"ce4bhhh2rcd13ifvqfl0","pricing_plan_id":"cebpf4jnsgd1na2vs0mg"},{"bike_id":"15e24c31-4292-4084-bcd3-e24f0a31685e","system_id":"levelo_inurba_marseille","lat":43.28424,"lon":5.34987,"is_reserved":false,"is_disabled":true,"rental_uris":{"android":"levelo://app?vid=15e24c31-4292-4084-bcd3-e24f0a31685e","ios":"levelo://app?vid=15e24c31-4292-4084-bcd3-e24f0a31685e"},"vehicle_type_id":"4","last_reported":1732964800,"current_range_meters":35600,"station_id":"ce4bhbh2rcd13ifvqepg","pricing_plan_id":"cebpf4jnsgd1na2vs0mg"},{"bike_id":"579ec052-1a9b-4b33-b6e7-3ce0d78a27eb","system_id":"levelo_inurba_marseille","lat":43.32479,"lon":5.36556,"is_reserved":false,"is_disabled":false,"rental_uris":{"android":"levelo://app?vid=579ec052-1a9b-4b33-b6e7-3ce0d78a27eb","ios":"levelo://app?vid=579ec052-1a9b-4b33-b6e7-3ce0d78a27eb"},"vehicle_type_id":"4","last_reported":1732964800,"current_range_meters":39200,"station_id":"ce4bhs12rcd13ifvqhvg","pricing_plan_id":"cebpf4jnsgd1na2vs0mg"},{"bike_id":"ed2e18cb-6b73-482a-997d-872d2e2185a6","system_id":"levelo_inurba_marseille","lat":43.22931,"lon":5.35372,"is_reserved":false,"is_disabled":false,"rental_uris":{"android":"levelo://app?vid=ed2e18cb-6b73-482a-997d-872d2e2185a6","ios":"levelo://app?vid=ed2e18cb-6b73-482a-997d-872d2e2185a6"},"vehicle_type_id":"4","last_reported":1732964800,"current_range_meters":38800,"station_id":"cpo3532slgdg3j2ikp40","pricing_plan_id":"cebpf4jnsgd1na2vs0mg"},{"bike_id":"10abe4b6-26e4-45e3-b0b0-8edd299bef5f","system_id":"levelo_inurba_marseille","lat":43.29579,"lon":5.37505,"is_reserved":false,"is_disabled":false,"rental_uris":{"android":"levelo://app?vid=10abe4b6-26e4-45e3-b0b0-8edd299bef5f","ios":"levelo://app?vid=10abe4b6-26e4-45e3-b0b0-8edd299bef5f"},"vehicle_type_id":"4","last_reported":1732964800,"current_range_meters":36800,"station_id":"ce4bgh92rcd13ifvqb50","pricing_plan_id":"cebpf4jnsgd1na2vs0mg"},{"bike_id":"fc4d15f5-6256-45a3-90d6-77bb4c676955","system_id":"levelo_inurba_marseille","lat":43.296284,"lon":5.377877,"is_reserved":false,"is_disabled":true,"rental_uris":{"android":"levelo://app?vid=fc4d15f5-6256-45a3-90d6-77bb4c676955","ios":"levelo://app?vid=fc4d15f5-6256-45a3-90d6-77bb4c676955"},"vehicle_type_id":"4","last_reported":1732964800,"current_range_meters":24800,"station_id":"","pricing_plan_id":"cebpf4jnsgd1na2vs0mg"},{"bike_id":"77e61912-8b3b-458c-8fc9-4fe4fa41b27b","system_id":"levelo_inurba_marseille","lat":43.25004,"lon":5.38967,"is_reserved":false,"is_disabled":false,"rental_uris":{"android":"levelo://app?vid=77e61912-8b3b-458c-8fc9-4fe4fa41b27b","ios":"levelo://app?vid=77e61912-8b3b-458c-8fc9-4fe4fa41b27b"},"vehicle_type_id":"4","last_reported":1732964800,"current_range_meters":20400,"station_id":"ce4bhgp2rcd13ifvqfd0","pricing_plan_id":"cebpf4jnsgd1na2vs0mg"},{"bike_id":"c88f8730-1176-4717-97e2-17c27b15274f","system_id":"levelo_inurba_marseille","lat":43.23192,"lon":5.35543,"is_reserved":false,"is_disabled":false,"rental_uris":{"android":"levelo://app?vid=c88f8730-1176-4717-97e2-17c27b15274f","ios":"levelo://app?vid=c88f8730-1176-4717-97e2-17c27b15274f"},"vehicle_type_id":"4","last_reported":1732964800,"current_range_meters":39200,"station_id":"ce4bhu92rcd13ifvqi70","pricing_plan_id":"cebpf4jnsgd1na2vs0mg"},{"bike_id":"50ec6fb7-fa0f-4bc7-84bf-1a32a2944e99","system_id":"levelo_inurba_marseille","lat":43.30278,"lon":5.36866,"is_reserved":false,"is_disabled":false,"rental_uris":{"android":"levelo://app?vid=50ec6fb7-fa0f-4bc7-84bf-1a32a2944e99","ios":"levelo://app?vid=50ec6fb7-fa0f-4bc7-84bf-1a32a2944e99"},"vehicle_type_id":"4","last_reported":1732964800,"current_range_meters":7200,"station_id":"ce4bgrp2rcd13ifvqc9g","pricing_plan_id":"cebpf4jnsgd1na2vs0mg"},{"bike_id":"a16afe75-0fd4-4a69-b96a-bb6ed635780c","system_id":"levelo_inurba_marseille","lat":43.31122,"lon":5.37767,"is_reserved":false,"is_disabled":true,"rental_uris":{"android":"levelo://app?vid=a16afe75-0fd4-4a69-b96a-bb6ed635780c","ios":"levelo://app?vid=a16afe75-0fd4-4a69-b96a-bb6ed635780c"},"vehicle_type_id":"4","last_reported":1732964800,"current_range_meters":22400,"station_id":"ce4bgt92rcd13ifvqcg0","pricing_plan_id":"cebpf4jnsgd1na2vs0mg"},{"bike_id":"da719756-3742-4209-8d60-b3804f08c501","system_id":"levelo_inurba_marseille","lat":43.29815,"lon":5.37992,"is_reserved":false,"is_disabled":false,"rental_uris":{"android":"levelo://app?vid=da719756-3742-4209-8d60-b3804f08c501","ios":"levelo://app?vid=da719756-3742-4209-8d60-b3804f08c501"},"vehicle_type_id":"4","last_reported":1732964800,"current_range_meters":27600,"station_id":"","pricing_plan_id":"cebpf4jnsgd1na2vs0mg"},{"bike_id":"5547a441-9653-482c-905c-97a54076438b","system_id":"levelo_inurba_marseille","lat":43.32362,"lon":5.36758,"is_reserved":false,"is_disabled":false,"rental_uris":{"android":"levelo://app?vid=5547a441-9653-482c-905c-97a54076438b","ios":"levelo://app?vid=5547a441-9653-482c-905c-97a54076438b"},"vehicle_type_id":"4","last_reported":1732964800,"current_range_meters":16000,"station_id":"ce4bhsh2rcd13ifvqi2g","pricing_plan_id":"cebpf4jnsgd1na2vs0mg"},{"bike_id":"2c30d78e-dc05-416b-bf2a-60c5af8b20c4","system_id":"levelo_inurba_marseille","lat":43.25578,"lon":5.3823,"is_reserved":false,"is_disabled":false,"rental_uris":{"android":"levelo://app?vid=2c30d78e-dc05-416b-bf2a-60c5af8b20c4","ios":"levelo://app?vid=2c30d78e-dc05-416b-bf2a-60c5af8b20c4"},"vehicle_type_id":"4","last_reported":1732964800,"current_range_meters":20800,"station_id":"ce4bhih2rcd13ifvqfs0","pricing_plan_id":"cebpf4jnsgd1na2vs0mg"},{"bike_id":"af465613-ea2e-4c6e-b2ce-111c8ea45991","system_id":"levelo_inurba_marseille","lat":43.29809,"lon":5.38104,"is_reserved":false,"is_disabled":false,"rental_uris":{"android":"levelo://app?vid=af465613-ea2e-4c6e-b2ce-111c8ea45991","ios":"levelo://app?vid=af465613-ea2e-4c6e-b2ce-111c8ea45991"},"vehicle_type_id":"4","last_reported":1732964800,"current_range_meters":38800,"station_id":"ce4bgip2rcd13ifvqbb0","pricing_plan_id":"cebpf4jnsgd1na2vs0mg"},{"bike_id":"af4aea72-ff88-49b5-8f41-06cfcdc04967","system_id":"levelo_inurba_marseille","lat":43.29274,"lon":5.36847,"is_reserved":false,"is_disabled":false,"rental_uris":{"android":"levelo://app?vid=af4aea72-ff88-49b5-8f41-06cfcdc04967","ios":"levelo://app?vid=af4aea72-ff88-49b5-8f41-06cfcdc04967"},"vehicle_type_id":"4","last_reported":1732964800,"current_range_meters":38800,"station_id":"ce4bhbp2rcd13ifvqesg","pricing_plan_id":"cebpf4jnsgd1na2vs0mg"},{"bike_id":"2545b486-f597-4ecd-8508-05df785b0c49","system_id":"levelo_inurba_marseille","lat":43.33021,"lon":5.39036,"is_reserved":false,"is_disabled":false,"rental_uris":{"android":"levelo://app?vid=2545b486-f597-4ecd-8508-05df785b0c49","ios":"levelo://app?vid=2545b486-f597-4ecd-8508-05df785b0c49"},"vehicle_type_id":"4","last_reported":1732964800,"current_range_meters":39200,"station_id":"ce4bhr92rcd13ifvqhrg","pricing_plan_id":"cebpf4jnsgd1na2vs0mg"},{"bike_id":"615d3b9c-5cdd-4442-8e0c-b2ac0c975d11","system_id":"levelo_inurba_marseille","lat":43.29541,"lon":5.42293,"is_reserved":false,"is_disabled":false,"rental_uris":{"android":"levelo://app?vid=615d3b9c-5cdd-4442-8e0c-b2ac0c975d11","ios":"levelo://app?vid=615d3b9c-5cdd-4442-8e0c-b2ac0c975d11"},"vehicle_type_id":"4","last_reported":1732964800,"current_range_meters":36800,"station_id":"ce4bhph2rcd13ifvqhdg","pricing_plan_id":"cebpf4jnsgd1na2vs0mg"},{"bike_id":"6b24c5f9-0bdb-4efc-aae5-a9650fb06268","system_id":"levelo_inurba_marseille","lat":43.28689,"lon":5.37397,"is_reserved":false,"is_disabled":false,"rental_uris":{"android":"levelo://app?vid=6b24c5f9-0bdb-4efc-aae5-a9650fb06268","ios":"levelo://app?vid=6b24c5f9-0bdb-4efc-aae5-a9650fb06268"},"vehicle_type_id":"4","last_reported":1732964800,"current_range_meters":24800,"station_id":"ce4bh3p2rcd13ifvqdq0","pricing_plan_id":"cebpf4jnsgd1na2vs0mg"},{"bike_id":"e7c6a48e-08e0-4285-8071-9b5ff4ee3434","system_id":"levelo_inurba_marseille","lat":43.28701,"lon":5.3999,"is_reserved":false,"is_disabled":false,"rental_uris":{"android":"levelo://app?vid=e7c6a48e-08e0-4285-8071-9b5ff4ee3434","ios":"levelo://app?vid=e7c6a48e-08e0-4285-8071-9b5ff4ee3434"},"vehicle_type_id":"4","last_reported":1732964800,"current_range_meters":8000,"station_id":"ce4bho92rcd13ifvqh3g","pricing_plan_id":"cebpf4jnsgd1na2vs0mg"},{"bike_id":"9bc8c65a-39ab-4760-9bd4-98cf64dfeec4","system_id":"levelo_inurba_marseille","lat":43.24165,"lon":5.36405,"is_reserved":false,"is_disabled":false,"rental_uris":{"android":"levelo://app?vid=9bc8c65a-39ab-4760-9bd4-98cf64dfeec4","ios":"levelo://app?vid=9bc8c65a-39ab-4760-9bd4-98cf64dfeec4"},"vehicle_type_id":"4","last_reported":1732964800,"current_range_meters":22000,"station_id":"cpo36qri1sfpv3e86is0","pricing_plan_id":"cebpf4jnsgd1na2vs0mg"},{"bike_id":"c0e30c3f-2711-44d1-82b6-5574ccb5e6bd","system_id":"levelo_inurba_marseille","lat":43.26788,"lon":5.39423,"is_reserved":false,"is_disabled":false,"rental_uris":{"android":"levelo://app?vid=c0e30c3f-2711-44d1-82b6-5574ccb5e6bd","ios":"levelo://app?vid=c0e30c3f-2711-44d1-82b6-5574ccb5e6bd"},"vehicle_type_id":"4","last_reported":1732964800,"current_range_meters":24400,"station_id":"ce4bhh12rcd13ifvqfg0","pricing_plan_id":"cebpf4jnsgd1na2vs0mg"},{"bike_id":"4bec4e0e-ef4c-4da0-b561-58c48e54ff15","system_id":"levelo_inurba_marseille","lat":43.30151,"lon":5.38075,"is_reserved":false,"is_disabled":false,"rental_uris":{"android":"levelo://app?vid=4bec4e0e-ef4c-4da0-b561-58c48e54ff15","ios":"levelo://app?vid=4bec4e0e-ef4c-4da0-b561-58c48e54ff15"},"vehicle_type_id":"4","last_reported":1732964800,"current_range_meters":19600,"station_id":"ce4bgjp2rcd13ifvqbh0","pricing_plan_id":"cebpf4jnsgd1na2vs0mg"},{"bike_id":"14a4f0e3-d54f-47b8-a445-c36225f4c58d","system_id":"levelo_inurba_marseille","lat":43.24544,"lon":5.39527,"is_reserved":false,"is_disabled":true,"rental_uris":{"android":"levelo://app?vid=14a4f0e3-d54f-47b8-a445-c36225f4c58d","ios":"levelo://app?vid=14a4f0e3-d54f-47b8-a445-c36225f4c58d"},"vehicle_type_id":"4","last_reported":1732964800,"current_range_meters":0,"station_id":"ce4bhlp2rcd13ifvqgjg","pricing_plan_id":"cebpf4jnsgd1na2vs0mg"},{"bike_id":"c0d1645d-b3ba-4623-812d-91f19da6d439","system_id":"levelo_inurba_marseille","lat":43.29271,"lon":5.36848,"is_reserved":false,"is_disabled":false,"rental_uris":{"android":"levelo://app?vid=c0d1645d-b3ba-4623-812d-91f19da6d439","ios":"levelo://app?vid=c0d1645d-b3ba-4623-812d-91f19da6d439"},"vehicle_type_id":"4","last_reported":1732964800,"current_range_meters":32000,"station_id":"ce4bhbp2rcd13ifvqesg","pricing_plan_id":"cebpf4jnsgd1na2vs0mg"},{"bike_id":"57713483-d20c-44f5-9b7d-00918e06e67d","system_id":"levelo_inurba_marseille","lat":43.30538,"lon":5.36562,"is_reserved":false,"is_disabled":false,"rental_uris":{"android":"levelo://app?vid=57713483-d20c-44f5-9b7d-00918e06e67d","ios":"levelo://app?vid=57713483-d20c-44f5-9b7d-00918e06e67d"},"vehicle_type_id":"4","last_reported":1732964800,"current_range_meters":13600,"station_id":"ce4bgs12rcd13ifvqcag","pricing_plan_id":"cebpf4jnsgd1na2vs0mg"},{"bike_id":"5a923f0a-5360-4d58-a97f-1b2ee01b2a18","system_id":"levelo_inurba_marseille","lat":43.30277,"lon":5.37702,"is_reserved":false,"is_disabled":false,"rental_uris":{"android":"levelo://app?vid=5a923f0a-5360-4d58-a97f-1b2ee01b2a18","ios":"levelo://app?vid=5a923f0a-5360-4d58-a97f-1b2ee01b2a18"},"vehicle_type_id":"4","last_reported":1732964800,"current_range_meters":38800,"station_id":"ce4bguh2rcd13ifvqcj0","pricing_plan_id":"cebpf4jnsgd1na2vs0mg"},{"bike_id":"80326332-42a2-40bf-a18b-4eb27f1d3f93","system_id":"levelo_inurba_marseille","lat":43.29278,"lon":5.3685,"is_reserved":false,"is_disabled":false,"rental_uris":{"android":"levelo://app?vid=80326332-42a2-40bf-a18b-4eb27f1d3f93","ios":"levelo://app?vid=80326332-42a2-40bf-a18b-4eb27f1d3f93"},"vehicle_type_id":"4","last_reported":1732964800,"current_range_meters":19600,"station_id":"ce4bhbp2rcd13ifvqesg","pricing_plan_id":"cebpf4jnsgd1na2vs0mg"},{"bike_id":"14e4fce8-c4b2-4689-94f2-05fca89d1ec8","system_id":"levelo_inurba_marseille","lat":43.29596,"lon":5.38103,"is_reserved":false,"is_disabled":false,"rental_uris":{"android":"levelo://app?vid=14e4fce8-c4b2-4689-94f2-05fca89d1ec8","ios":"levelo://app?vid=14e4fce8-c4b2-4689-94f2-05fca89d1ec8"},"vehicle_type_id":"4","last_reported":1732964800,"current_range_meters":25600,"station_id":"ce4bgl12rcd13ifvqbo0","pricing_plan_id":"cebpf4jnsgd1na2vs0mg"},{"bike_id":"117c81c6-9683-495a-80ea-c409aec9839a","system_id":"levelo_inurba_marseille","lat":43.24648,"lon":5.38887,"is_reserved":false,"is_disabled":false,"rental_uris":{"android":"levelo://app?vid=117c81c6-9683-495a-80ea-c409aec9839a","ios":"levelo://app?vid=117c81c6-9683-495a-80ea-c409aec9839a"},"vehicle_type_id":"4","last_reported":1732964800,"current_range_meters":37600,"station_id":"ce4bhg12rcd13ifvqf60","pricing_plan_id":"cebpf4jnsgd1na2vs0mg"},{"bike_id":"787f3017-f312-4e9d-b90c-dfcf2e39c5f3","system_id":"levelo_inurba_marseille","lat":43.2989,"lon":5.38538,"is_reserved":false,"is_disabled":true,"rental_uris":{"android":"levelo://app?vid=787f3017-f312-4e9d-b90c-dfcf2e39c5f3","ios":"levelo://app?vid=787f3017-f312-4e9d-b90c-dfcf2e39c5f3"},"vehicle_type_id":"4","last_reported":1732964800,"current_range_meters":400,"station_id":"","pricing_plan_id":"cebpf4jnsgd1na2vs0mg"},{"bike_id":"365de24e-a53d-4024-8195-20d1c4ace829","system_id":"levelo_inurba_marseille","lat":43.29611,"lon":5.3773,"is_reserved":false,"is_disabled":false,"rental_uris":{"android":"levelo://app?vid=365de24e-a53d-4024-8195-20d1c4ace829","ios":"levelo://app?vid=365de24e-a53d-4024-8195-20d1c4ace829"},"vehicle_type_id":"4","last_reported":1732964800,"current_range_meters":39200,"station_id":"ce4bgi92rcd13ifvqb90","pricing_plan_id":"cebpf4jnsgd1na2vs0mg"},{"bike_id":"48ed804a-f36d-4343-8375-ef3a8e588212","system_id":"levelo_inurba_marseille","lat":43.31991,"lon":5.3814,"is_reserved":false,"is_disabled":false,"rental_uris":{"android":"levelo://app?vid=48ed804a-f36d-4343-8375-ef3a8e588212","ios":"levelo://app?vid=48ed804a-f36d-4343-8375-ef3a8e588212"},"vehicle_type_id":"4","last_reported":1732964800,"current_range_meters":22800,"station_id":"ce4bhr12rcd13ifvqhpg","pricing_plan_id":"cebpf4jnsgd1na2vs0mg"},