{"last_updated":1686956799,"ttl":30,"version":"2.2","data":{"bikes":[{"bike_id":"e491506c-0515-482c-8523-fd3849a91601","system_id":"levelo_inurba_marseille","lat":43.312239,"lon":5.368562,"is_reserved":false,"is_disabled":false,"rental_uris":{"android":"levelo://app?vid=e491506c-0515-482c-8523-fd3849a91601","ios":"levelo://app?vid=e491506c-0515-482c-8523-fd3849a91601"},"vehicle_type_id":"4","last_reported":1686956800,"current_range_meters":18800,"station_id":"ce4bgl92rcd13ifvqbq0","pricing_plan_id":"free"},{"bike_id":"8b882f6f-8785-49aa-ada2-2c191f9e5dcf","system_id":"levelo_inurba_marseille","lat":43.308606,"lon":5.372099,"is_reserved":false,"is_disabled":false,"rental_uris":{"android":"levelo://app?vid=8b882f6f-8785-49aa-ada2-2c191f9e5dcf","ios":"levelo://app?vid=8b882f6f-8785-49aa-ada2-2c191f9e5dcf"},"vehicle_type_id":"4","last_reported":1686956800,"current_range_meters":19600,"station_id":"ce4bguh2rcd13ifvqckg","pricing_plan_id":"free"},{"bike_id":"b4994553-55b2-4b9e-94ea-601ed6a5969d","system_id":"levelo_inurba_marseille","lat":43.308606,"lon":5.372099,"is_reserved":false,"is_disabled":false,"rental_uris":{"android":"levelo://app?vid=b4994553-55b2-4b9e-94ea-601ed6a5969d","ios":"levelo://app?vid=b4994553-55b2-4b9e-94ea-601ed6a5969d"},"vehicle_type_id":"4","last_reported":1686956800,"current_range_meters":22000,"station_id":"ce4bguh2rcd13ifvqckg","pricing_plan_id":"free"},{"bike_id":"b140bff3-59f6-4c18-bc64-651c61cd4c0f","system_id":"levelo_inurba_marseille","lat":43.305989,"lon":5.37225,"is_reserved":false,"is_disabled":false,"rental_uris":{"android":"levelo://app?vid=b140bff3-59f6-4c18-bc64-651c61cd4c0f","ios":"levelo://app?vid=b140bff3-59f6-4c18-bc64-651c61cd4c0f"},"vehicle_type_id":"4","last_reported":1686956800,"current_range_meters":2800,"station_id":"ce4bgqh2rcd13ifvqc4g","pricing_plan_id":"free"},{"bike_id":"d6daecbb-361b-49c6-a5cc-62f2d95483fb","system_id":"levelo_inurba_marseille","lat":43.305989,"lon":5.37225,"is_reserved":false,"is_disabled":false,"rental_uris":{"android":"levelo://app?vid=d6daecbb-361b-49c6-a5cc-62f2d95483fb","ios":"levelo://app?vid=d6daecbb-361b-49c6-a5cc-62f2d95483fb"},"vehicle_type_id":"4","last_reported":1686956800,"current_range_meters":17200,"station_id":"ce4bgqh2rcd13ifvqc4g","pricing_plan_id":"free"},{"bike_id":"01464188-fde7-43e3-819a-a4c401c83e66","system_id":"levelo_inurba_marseille","lat":43.305989,"lon":5.37225,"is_reserved":false,"is_disabled":false,"rental_uris":{"android":"levelo://app?vid=01464188-fde7-43e3-819a-a4c401c83e66","ios":"levelo://app?vid=01464188-fde7-43e3-819a-a4c401c83e66"},"vehicle_type_id":"4","last_reported":1686956800,"current_range_meters":26800,"station_id":"ce4bgqh2rcd13ifvqc4g","pricing_plan_id":"free"},{"bike_id":"c0943b7b-1dc0-4ebc-9158-a230ab2ebeeb","system_id":"levelo_inurba_marseille","lat":43.305989,"lon":5.37225,"is_reserved":false,"is_disabled":false,"rental_uris":{"android":"levelo://app?vid=c0943b7b-1dc0-4ebc-9158-a230ab2ebeeb","ios":"levelo://app?vid=c0943b7b-1dc0-4ebc-9158-a230ab2ebeeb"},"vehicle_type_id":"4","last_reported":1686956800,"current_range_meters":30000,"station_id":"ce4bgqh2rcd13ifvqc4g","pricing_plan_id":"free"},{"bike_id":"d29b1a69-8565-4eff-a0e1-d7f64955799e","system_id":"levelo_inurba_marseille","lat":43.305989,"lon":5.37225,"is_reserved":false,"is_disabled":false,"rental_uris":{"android":"levelo://app?vid=d29b1a69-8565-4eff-a0e1-d7f64955799e","ios":"levelo://app?vid=d29b1a69-8565-4eff-a0e1-d7f64955799e"},"vehicle_type_id":"4","last_reported":1686956800,"current_range_meters":24000,"station_id":"ce4bgqh2rcd13ifvqc4g","pricing_plan_id":"free"},{"bike_id":"d9053597-4116-4e8f-b2c7-cb882b0f4abc","system_id":"levelo_inurba_marseille","lat":43.311131,"lon":5.377651,"is_reserved":false,"is_disabled":false,"rental_uris":{"android":"levelo://app?vid=d9053597-4116-4e8f-b2c7-cb882b0f4abc","ios":"levelo://app?vid=d9053597-4116-4e8f-b2c7-cb882b0f4abc"},"vehicle_type_id":"4","last_reported":1686956800,"current_range_meters":28800,"station_id":"ce4bgt92rcd13ifvqcg0","pricing_plan_id":"free"},{"bike_id":"4fa084c6-8e62-429d-9e78-297dd52c5075","system_id":"levelo_inurba_marseille","lat":43.311125,"lon":5.377624,"is_reserved":false,"is_disabled":false,"rental_uris":{"android":"levelo://app?vid=4fa084c6-8e62-429d-9e78-297dd52c5075","ios":"levelo://app?vid=4fa084c6-8e62-429d-9e78-297dd52c5075"},"vehicle_type_id":"4","last_reported":1686956800,"current_range_meters":5200,"station_id":"ce4bgt92rcd13ifvqcg0","pricing_plan_id":"free"},{"bike_id":"c3ba90eb-a943-4a9c-b70d-d355daca4f1d","system_id":"levelo_inurba_marseille","lat":43.311125,"lon":5.377624,"is_reserved":false,"is_disabled":false,"rental_uris":{"android":"levelo://app?vid=c3ba90eb-a943-4a9c-b70d-d355daca4f1d","ios":"levelo://app?vid=c3ba90eb-a943-4a9c-b70d-d355daca4f1d"},"vehicle_type_id":"4","last_reported":1686956800,"current_range_meters":25200,"station_id":"ce4bgt92rcd13ifvqcg0","pricing_plan_id":"free"},{"bike_id":"58d1ce3c-aa8d-4000-abcd-c41a3b25f47d","system_id":"levelo_inurba_marseille","lat":43.311125,"lon":5.377624,"is_reserved":false,"is_disabled":false,"rental_uris":{"android":"levelo://app?vid=58d1ce3c-aa8d-4000-abcd-c41a3b25f47d","ios":"levelo://app?vid=58d1ce3c-aa8d-4000-abcd-c41a3b25f47d"},"vehicle_type_id":"4","last_reported":1686956800,"current_range_meters":1600,"station_id":"ce4bgt92rcd13ifvqcg0","pricing_plan_id":"free"},{"bike_id":"46df6f56-1135-49f2-8aa4-e221987385d2","system_id":"levelo_inurba_marseille","lat":43.317075,"lon":5.377367,"is_reserved":false,"is_disabled":false,"rental_uris":{"android":"levelo://app?vid=46df6f56-1135-49f2-8aa4-e221987385d2","ios":"levelo://app?vid=46df6f56-1135-49f2-8aa4-e221987385d2"},"vehicle_type_id":"4","last_reported":1686956800,"current_range_meters":7600,"station_id":"ce4bgth2rcd13ifvqch0","pricing_plan_id":"free"},{"bike_id":"09941c8e-d9e9-4d84-87eb-77d4dbb68a64","system_id":"levelo_inurba_marseille","lat":43.317075,"lon":5.377367,"is_reserved":false,"is_disabled":false,"rental_uris":{"android":"levelo://app?vid=09941c8e-d9e9-4d84-87eb-77d4dbb68a64","ios":"levelo://app?vid=09941c8e-d9e9-4d84-87eb-77d4dbb68a64"},"vehicle_type_id":"4","last_reported":1686956800,"current_range_meters":21200,"station_id":"ce4bgth2rcd13ifvqch0","pricing_plan_id":"free"},{"bike_id":"2424216c-0462-4ad0-b127-d0366c91b61c","system_id":"levelo_inurba_marseille","lat":43.317075,"lon":5.377367,"is_reserved":false,"is_disabled":false,"rental_uris":{"android":"levelo://app?vid=2424216c-0462-4ad0-b127-d0366c91b61c","ios":"levelo://app?vid=2424216c-0462-4ad0-b127-d0366c91b61c"},"vehicle_type_id":"4","last_reported":1686956800,"current_range_meters":30000,"station_id":"ce4bgth2rcd13ifvqch0","pricing_plan_id":"free"},{"bike_id":"3f0796fd-256c-4b34-acc9-e19bd7cecc8a","system_id":"levelo_inurba_marseille","lat":43.30315,"lon":5.36903,"is_reserved":false,"is_disabled":false,"rental_uris":{"android":"levelo://app?vid=3f0796fd-256c-4b34-acc9-e19bd7cecc8a","ios":"levelo://app?vid=3f0796fd-256c-4b34-acc9-e19bd7cecc8a"},"vehicle_type_id":"4","last_reported":1686956800,"current_range_meters":2000,"station_id":"ce4bgqh2rcd13ifvqc5g","pricing_plan_id":"free"},{"bike_id":"2754d6b1-c631-489f-8bbd-48263c28661c","system_id":"levelo_inurba_marseille","lat":43.315289,"lon":5.380349,"is_reserved":false,"is_disabled":false,"rental_uris":{"android":"levelo://app?vid=2754d6b1-c631-489f-8bbd-48263c28661c","ios":"levelo://app?vid=2754d6b1-c631-489f-8bbd-48263c28661c"},"vehicle_type_id":"4","last_reported":1686956800,"current_range_meters":11200,"station_id":"ce4bhsp2rcd13ifvqi50","pricing_plan_id":"free"},{"bike_id":"46bb3f47-908b-4b9e-9d58-bbeb1fffa81a","system_id":"levelo_inurba_marseille","lat":43.315293,"lon":5.380349,"is_reserved":false,"is_disabled":false,"rental_uris":{"android":"levelo://app?vid=46bb3f47-908b-4b9e-9d58-bbeb1fffa81a","ios":"levelo://app?vid=46bb3f47-908b-4b9e-9d58-bbeb1fffa81a"},"vehicle_type_id":"4","last_reported":1686956800,"current_range_meters":14400,"station_id":"ce4bhsp2rcd13ifvqi50","pricing_plan_id":"free"},{"bike_id":"b3aafb43-eded-49bc-a398-70a1458b366c","system_id":"levelo_inurba_marseille","lat":43.315289,"lon":5.380349,"is_reserved":false,"is_disabled":false,"rental_uris":{"android":"levelo://app?vid=b3aafb43-eded-49bc-a398-70a1458b366c","ios":"levelo://app?vid=b3aafb43-eded-49bc-a398-70a1458b366c"},"vehicle_type_id":"4","last_reported":1686956800,"current_range_meters":23200,"station_id":"ce4bhsp2rcd13ifvqi50","pricing_plan_id":"free"},{"bike_id":"30cffc38-6805-4a61-b795-6213b8fdbaa5","system_id":"levelo_inurba_marseille","lat":43.301939,"lon":5.366286,"is_reserved":false,"is_disabled":false,"rental_uris":{"android":"levelo://app?vid=30cffc38-6805-4a61-b795-6213b8fdbaa5","ios":"levelo://app?vid=30cffc38-6805-4a61-b795-6213b8fdbaa5"},"vehicle_type_id":"4","last_reported":1686956800,"current_range_meters":18800,"station_id":"ce4bgrh2rcd13ifvqc8g","pricing_plan_id":"free"},{"bike_id":"2bc7223e-e751-4ba9-b8ac-82a48cbc79e4","system_id":"levelo_inurba_marseille","lat":43.308012,"lon":5.381511,"is_reserved":false,"is_disabled":false,"rental_uris":{"android":"levelo://app?vid=2bc7223e-e751-4ba9-b8ac-82a48cbc79e4","ios":"levelo://app?vid=2bc7223e-e751-4ba9-b8ac-82a48cbc79e4"},"vehicle_type_id":"4","last_reported":1686956800,"current_range_meters":19600,"station_id":"ce4bgt12rcd13ifvqce0","pricing_plan_id":"free"},{"bike_id":"ae33307b-fcd5-479b-9ae1-9002ed226c6e","system_id":"levelo_inurba_marseille","lat":43.308012,"lon":5.381511,"is_reserved":false,"is_disabled":false,"rental_uris":{"android":"levelo://app?vid=ae33307b-fcd5-479b-9ae1-9002ed226c6e","ios":"levelo://app?vid=ae33307b-fcd5-479b-9ae1-9002ed226c6e"},"vehicle_type_id":"4","last_reported":1686956800,"current_range_meters":13200,"station_id":"ce4bgt12rcd13ifvqce0","pricing_plan_id":"free"},{"bike_id":"721ca755-5419-4da8-8f0f-ef8c35c044cc","system_id":"levelo_inurba_marseille","lat":43.308012,"lon":5.381511,"is_reserved":false,"is_disabled":false,"rental_uris":{"android":"levelo://app?vid=721ca755-5419-4da8-8f0f-ef8c35c044cc","ios":"levelo://app?vid=721ca755-5419-4da8-8f0f-ef8c35c044cc"},"vehicle_type_id":"4","last_reported":1686956800,"current_range_meters":24800,"station_id":"ce4bgt12rcd13ifvqce0","pricing_plan_id":"free"},{"bike_id":"bddebf4d-b176-4ce8-a008-01b01f6d37bd","system_id":"levelo_inurba_marseille","lat":43.30798,"lon":5.38158,"is_reserved":false,"is_disabled":false,"rental_uris":{"android":"levelo://app?vid=bddebf4d-b176-4ce8-a008-01b01f6d37bd","ios":"levelo://app?vid=bddebf4d-b176-4ce8-a008-01b01f6d37bd"},"vehicle_type_id":"4","last_reported":1686956800,"current_range_meters":800,"station_id":"ce4bgt12rcd13ifvqce0","pricing_plan_id":"free"},{"bike_id":"11629adb-8add-4f4f-af41-90b1e04876b0","system_id":"levelo_inurba_marseille","lat":43.308012,"lon":5.381511,"is_reserved":false,"is_disabled":false,"rental_uris":{"android":"levelo://app?vid=11629adb-8add-4f4f-af41-90b1e04876b0","ios":"levelo://app?vid=11629adb-8add-4f4f-af41-90b1e04876b0"},"vehicle_type_id":"4","last_reported":1686956800,"current_range_meters":24800,"station_id":"ce4bgt12rcd13ifvqce0","pricing_plan_id":"free"},{"bike_id":"4a84a40a-989f-4438-ae1c-5ad17a6e0076","system_id":"levelo_inurba_marseille","lat":43.304606,"lon":5.379026,"is_reserved":false,"is_disabled":false,"rental_uris":{"android":"levelo://app?vid=4a84a40a-989f-4438-ae1c-5ad17a6e0076","ios":"levelo://app?vid=4a84a40a-989f-4438-ae1c-5ad17a6e0076"},"vehicle_type_id":"4","last_reported":1686956800,"current_range_meters":31200,"station_id":"ce4bgup2rcd13ifvqcn0","pricing_plan_id":"free"},{"bike_id":"fc4a69da-5dee-4c68-8631-20ee11bc487b","system_id":"levelo_inurba_marseille","lat":43.304606,"lon":5.379026,"is_reserved":false,"is_disabled":false,"rental_uris":{"android":"levelo://app?vid=fc4a69da-5dee-4c68-8631-20ee11bc487b","ios":"levelo://app?vid=fc4a69da-5dee-4c68-8631-20ee11bc487b"},"vehicle_type_id":"4","last_reported":1686956800,"current_range_meters":30400,"station_id":"ce4bgup2rcd13ifvqcn0","pricing_plan_id":"free"},{"bike_id":"32827146-2d6b-4fb1-b00e-6b2f535ca544","system_id":"levelo_inurba_marseille","lat":43.3048,"lon":5.37919,"is_reserved":false,"is_disabled":false,"rental_uris":{"android":"levelo://app?vid=32827146-2d6b-4fb1-b00e-6b2f535ca544","ios":"levelo://app?vid=32827146-2d6b-4fb1-b00e-6b2f535ca544"},"vehicle_type_id":"4","last_reported":1686956800,"current_range_meters":30800,"station_id":"ce4bgup2rcd13ifvqcn0","pricing_plan_id":"free"},{"bike_id":"43fc693e-f2a9-4aec-8fd9-d094bb02cb70","system_id":"levelo_inurba_marseille","lat":43.304606,"lon":5.379026,"is_reserved":false,"is_disabled":false,"rental_uris":{"android":"levelo://app?vid=43fc693e-f2a9-4aec-8fd9-d094bb02cb70","ios":"levelo://app?vid=43fc693e-f2a9-4aec-8fd9-d094bb02cb70"},"vehicle_type_id":"4","last_reported":1686956800,"current_range_meters":23600,"station_id":"ce4bgup2rcd13ifvqcn0","pricing_plan_id":"free"},{"bike_id":"3d7d3e55-b9d8-445e-bb3d-61373d6965eb","system_id":"levelo_inurba_marseille","lat":43.301429,"lon":5.37413,"is_reserved":false,"is_disabled":false,"rental_uris":{"android":"levelo://app?vid=3d7d3e55-b9d8-445e-bb3d-61373d6965eb","ios":"levelo://app?vid=3d7d3e55-b9d8-445e-bb3d-61373d6965eb"},"vehicle_type_id":"4","last_reported":1686956800,"current_range_meters":14400,"station_id":"ce4bgs92rcd13ifvqcc0","pricing_plan_id":"free"},{"bike_id":"9f3a129a-ea77-4460-b3f5-662da8601911","system_id":"levelo_inurba_marseille","lat":43.3014,"lon":5.37404,"is_reserved":false,"is_disabled":false,"rental_uris":{"android":"levelo://app?vid=9f3a129a-ea77-4460-b3f5-662da8601911","ios":"levelo://app?vid=9f3a129a-ea77-4460-b3f5-662da8601911"},"vehicle_type_id":"4","last_reported":1686956800,"current_range_meters":31200,"station_id":"ce4bgs92rcd13ifvqcc0","pricing_plan_id":"free"},{"bike_id":"dfc0cbe9-e7d8-46b1-8fc9-450226ff9a63","system_id":"levelo_inurba_marseille","lat":43.30137,"lon":5.37403,"is_reserved":false,"is_disabled":false,"rental_uris":{"android":"levelo://app?vid=dfc0cbe9-e7d8-46b1-8fc9-450226ff9a63","ios":"levelo://app?vid=dfc0cbe9-e7d8-46b1-8fc9-450226ff9a63"},"vehicle_type_id":"4","last_reported":1686956800,"current_range_meters":13600,"station_id":"ce4bgs92rcd13ifvqcc0","pricing_plan_id":"free"},{"bike_id":"84c99c38-6e6e-4243-9a18-a434754e8380","system_id":"levelo_inurba_marseille","lat":43.30143,"lon":5.37423,"is_reserved":false,"is_disabled":false,"rental_uris":{"android":"levelo://app?vid=84c99c38-6e6e-4243-9a18-a434754e8380","ios":"levelo://app?vid=84c99c38-6e6e-4243-9a18-a434754e8380"},"vehicle_type_id":"4","last_reported":1686956800,"current_range_meters":30800,"station_id":"ce4bgs92rcd13ifvqcc0","pricing_plan_id":"free"},{"bike_id":"a29bde0a-83ef-4275-9205-99e332e1df63","system_id":"levelo_inurba_marseille","lat":43.301429,"lon":5.37413,"is_reserved":false,"is_disabled":false,"rental_uris":{"android":"levelo://app?vid=a29bde0a-83ef-4275-9205-99e332e1df63","ios":"levelo://app?vid=a29bde0a-83ef-4275-9205-99e332e1df63"},"vehicle_type_id":"4","last_reported":1686956800,"current_range_meters":26800,"station_id":"ce4bgs92rcd13ifvqcc0","pricing_plan_id":"free"},{"bike_id":"ef8b104a-a4d6-479c-bbb7-5ce95d85ea82","system_id":"levelo_inurba_marseille","lat":43.301429,"lon":5.37413,"is_reserved":false,"is_disabled":false,"rental_uris":{"android":"levelo://app?vid=ef8b104a-a4d6-479c-bbb7-5ce95d85ea82","ios":"levelo://app?vid=ef8b104a-a4d6-479c-bbb7-5ce95d85ea82"},"vehicle_type_id":"4","last_reported":1686956800,"current_range_meters":30400,"station_id":"ce4bgs92rcd13ifvqcc0","pricing_plan_id":"free"},{"bike_id":"3f535af0-37d0-49bd-98d7-bd9dcccbdbc4","system_id":"levelo_inurba_marseille","lat":43.301429,"lon":5.37413,"is_reserved":false,"is_disabled":false,"rental_uris":{"android":"levelo://app?vid=3f535af0-37d0-49bd-98d7-bd9dcccbdbc4","ios":"levelo://app?vid=3f535af0-37d0-49bd-98d7-bd9dcccbdbc4"},"vehicle_type_id":"4","last_reported":1686956800,"current_range_meters":12000,"station_id":"ce4bgs92rcd13ifvqcc0","pricing_plan_id":"free"},{"bike_id":"35c2b480-e69a-4543-9412-895f27c2a34e","system_id":"levelo_inurba_marseille","lat":43.319935,"lon":5.381699,"is_reserved":false,"is_disabled":false,"rental_uris":{"android":"levelo://app?vid=35c2b480-e69a-4543-9412-895f27c2a34e","ios":"levelo://app?vid=35c2b480-e69a-4543-9412-895f27c2a34e"},"vehicle_type_id":"4","last_reported":1686956800,"current_range_meters":5200,"station_id":"ce4bhr12rcd13ifvqhpg","pricing_plan_id":"free"},{"bike_id":"8fce8128-d8b9-4e54-b948-117df1579464","system_id":"levelo_inurba_marseille","lat":43.319935,"lon":5.381699,"is_reserved":false,"is_disabled":false,"rental_uris":{"android":"levelo://app?vid=8fce8128-d8b9-4e54-b948-117df1579464","ios":"levelo://app?vid=8fce8128-d8b9-4e54-b948-117df1579464"},"vehicle_type_id":"4","last_reported":1686956800,"current_range_meters":20400,"station_id":"ce4bhr12rcd13ifvqhpg","pricing_plan_id":"free"},{"bike_id":"6ab70fa5-f07a-41ab-bc3a-37757bb35c77","system_id":"levelo_inurba_marseille","lat":43.313571,"lon":5.384829,"is_reserved":false,"is_disabled":false,"rental_uris":{"android":"levelo://app?vid=6ab70fa5-f07a-41ab-bc3a-37757bb35c77","ios":"levelo://app?vid=6ab70fa5-f07a-41ab-bc3a-37757bb35c77"},"vehicle_type_id":"4","last_reported":1686956800,"current_range_meters":18400,"station_id":"ce4bgt92rcd13ifvqcf0","pricing_plan_id":"free"},{"bike_id":"8d9d5263-de87-473b-bac5-6a426a005a84","system_id":"levelo_inurba_marseille","lat":43.313571,"lon":5.384829,"is_reserved":false,"is_disabled":false,"rental_uris":{"android":"levelo://app?vid=8d9d5263-de87-473b-bac5-6a426a005a84","ios":"levelo://app?vid=8d9d5263-de87-473b-bac5-6a426a005a84"},"vehicle_type_id":"4","last_reported":1686956800,"current_range_meters":28000,"station_id":"ce4bgt92rcd13ifvqcf0","pricing_plan_id":"free"},{"bike_id":"19b331cb-4c88-4ccf-90ac-12e3b75cc718","system_id":"levelo_inurba_marseille","lat":43.313571,"lon":5.384829,"is_reserved":false,"is_disabled":false,"rental_uris":{"android":"levelo://app?vid=19b331cb-4c88-4ccf-90ac-12e3b75cc718","ios":"levelo://app?vid=19b331cb-4c88-4ccf-90ac-12e3b75cc718"},"vehicle_type_id":"4","last_reported":1686956800,"current_range_meters":22800,"station_id":"ce4bgt92rcd13ifvqcf0","pricing_plan_id":"free"},{"bike_id":"330412da-b9eb-49fa-9ba0-9288ee9ddd31","system_id":"levelo_inurba_marseille","lat":43.30047,"lon":5.37524,"is_reserved":false,"is_disabled":false,"rental_uris":{"android":"levelo://app?vid=330412da-b9eb-49fa-9ba0-9288ee9ddd31","ios":"levelo://app?vid=330412da-b9eb-49fa-9ba0-9288ee9ddd31"},"vehicle_type_id":"4","last_reported":1686956800,"current_range_meters":21600,"station_id":"","pricing_plan_id":"free"},{"bike_id":"8acc6e83-457b-4f1c-98d1-0af1725aeef0","system_id":"levelo_inurba_marseille","lat":43.311722,"lon":5.387247,"is_reserved":false,"is_disabled":false,"rental_uris":{"android":"levelo://app?vid=8acc6e83-457b-4f1c-98d1-0af1725aeef0","ios":"levelo://app?vid=8acc6e83-457b-4f1c-98d1-0af1725aeef0"},"vehicle_type_id":"4","last_reported":1686956800,"current_range_meters":5200,"station_id":"ce4bgv12rcd13ifvqcp0","pricing_plan_id":"free"},{"bike_id":"176f4894-d7fc-460e-aa5d-7c8c1e206dc3","system_id":"levelo_inurba_marseille","lat":43.297163,"lon":5.365866,"is_reserved":false,"is_disabled":false,"rental_uris":{"android":"levelo://app?vid=176f4894-d7fc-460e-aa5d-7c8c1e206dc3","ios":"levelo://app?vid=176f4894-d7fc-460e-aa5d-7c8c1e206dc3"},"vehicle_type_id":"4","last_reported":1686956800,"current_range_meters":18800,"station_id":"ce4bgn12rcd13ifvqbt0","pricing_plan_id":"free"},{"bike_id":"88d0330c-5bb0-4a19-9b65-d4683b42e015","system_id":"levelo_inurba_marseille","lat":43.29683,"lon":5.36046,"is_reserved":false,"is_disabled":false,"rental_uris":{"android":"levelo://app?vid=88d0330c-5bb0-4a19-9b65-d4683b42e015","ios":"levelo://app?vid=88d0330c-5bb0-4a19-9b65-d4683b42e015"},"vehicle_type_id":"4","last_reported":1686956800,"current_range_meters":8800,"station_id":"ce4bgpp2rcd13ifvqc3g","pricing_plan_id":"free"},{"bike_id":"24f41ca5-b432-4feb-a0c8-a15026b97306","system_id":"levelo_inurba_marseille","lat":43.296131,"lon":5.370773,"is_reserved":false,"is_disabled":false,"rental_uris":{"android":"levelo://app?vid=24f41ca5-b432-4feb-a0c8-a15026b97306","ios":"levelo://app?vid=24f41ca5-b432-4feb-a0c8-a15026b97306"},"vehicle_type_id":"4","last_reported":1686956800,"current_range_meters":18400,"station_id":"ce4bgnh2rcd13ifvqc0g","pricing_plan_id":"free"},{"bike_id":"5168bf25-ad2d-4489-9ebf-cc35d0c7cd91","system_id":"levelo_inurba_marseille","lat":43.29908,"lon":5.38134,"is_reserved":false,"is_disabled":false,"rental_uris":{"android":"levelo://app?vid=5168bf25-ad2d-4489-9ebf-cc35d0c7cd91","ios":"levelo://app?vid=5168bf25-ad2d-4489-9ebf-cc35d0c7cd91"},"vehicle_type_id":"4","last_reported":1686956800,"current_range_meters":29600,"station_id":"ce4bgj12rcd13ifvqbc0","pricing_plan_id":"free"},{"bike_id":"f0d398ba-5fbd-40a2-8eb4-3daf2a765a19","system_id":"levelo_inurba_marseille","lat":43.317557,"lon":5.390173,"is_reserved":false,"is_disabled":false,"rental_uris":{"android":"levelo://app?vid=f0d398ba-5fbd-40a2-8eb4-3daf2a765a19","ios":"levelo://app?vid=f0d398ba-5fbd-40a2-8eb4-3daf2a765a19"},"vehicle_type_id":"4","last_reported":1686956800,"current_range_meters":27200,"station_id":"ce4bhqp2rcd13ifvqhng","pricing_plan_id":"free"},{"bike_id":"f6cb89c9-4f39-4c2e-8a69-b2f9c75b9ad2","system_id":"levelo_inurba_marseille","lat":43.317557,"lon":5.390173,"is_reserved":false,"is_disabled":false,"rental_uris":{"android":"levelo://app?vid=f6cb89c9-4f39-4c2e-8a69-b2f9c75b9ad2","ios":"levelo://app?vid=f6cb89c9-4f39-4c2e-8a69-b2f9c75b9ad2"},"vehicle_type_id":"4","last_reported":1686956800,"current_range_meters":1600,"station_id":"ce4bhqp2rcd13ifvqhng","pricing_plan_id":"free"},{"bike_id":"7e19f6e8-c594-4a18-9388-3bcca6b82816","system_id":"levelo_inurba_marseille","lat":43.317557,"lon":5.390173,"is_reserved":false,"is_disabled":false,"rental_uris":{"android":"levelo://app?vid=7e19f6e8-c594-4a18-9388-3bcca6b82816","ios":"levelo://app?vid=7e19f6e8-c594-4a18-9388-3bcca6b82816"},"vehicle_type_id":"4","last_reported":1686956800,"current_range_meters":24400,"station_id":"ce4bhqp2rcd13ifvqhng","pricing_plan_id":"free"},{"bike_id":"250c8a96-8498-4211-b8f3-1b00a8d1fbaf","system_id":"levelo_inurba_marseille","lat":43.296477,"lon":5.37768,"is_reserved":false,"is_disabled":false,"rental_uris":{"android":"levelo://app?vid=250c8a96-8498-4211-b8f3-1b00a8d1fbaf","ios":"levelo://app?vid=250c8a96-8498-4211-b8f3-1b00a8d1fbaf"},"vehicle_type_id":"4","last_reported":1686956800,"current_range_meters":18800,"station_id":"","pricing_plan_id":"free"},{"bike_id":"de53f222-8fd0-4bd4-a9f0-bb828f409507","system_id":"levelo_inurba_marseille","lat":43.29789,"lon":5.38106,"is_reserved":false,"is_disabled":false,"rental_uris":{"android":"levelo://app?vid=de53f222-8fd0-4bd4-a9f0-bb828f409507","ios":"levelo://app?vid=de53f222-8fd0-4bd4-a9f0-bb828f409507"},"vehicle_type_id":"4","last_reported":1686956800,"current_range_meters":5600,"station_id":"ce4bgip2rcd13ifvqbb0","pricing_plan_id":"free"},{"bike_id":"5a2be942-eb74-4d02-b446-be02a784316f","system_id":"levelo_inurba_marseille","lat":43.32367,"lon":5.388836,"is_reserved":false,"is_disabled":false,"rental_uris":{"android":"levelo://app?vid=5a2be942-eb74-4d02-b446-be02a784316f","ios":"levelo://app?vid=5a2be942-eb74-4d02-b446-be02a784316f"},"vehicle_type_id":"4","last_reported":1686956800,"current_range_meters":5200,"station_id":"ce4bhqp2rcd13ifvqhog","pricing_plan_id":"free"},{"bike_id":"4e4ada0f-35fd-4753-9468-ed6564a42d3a","system_id":"levelo_inurba_marseille","lat":43.32367,"lon":5.388836,"is_reserved":false,"is_disabled":false,"rental_uris":{"android":"levelo://app?vid=4e4ada0f-35fd-4753-9468-ed6564a42d3a","ios":"levelo://app?vid=4e4ada0f-35fd-4753-9468-ed6564a42d3a"},"vehicle_type_id":"4","last_reported":1686956800,"current_range_meters":23200,"station_id":"ce4bhqp2rcd13ifvqhog","pricing_plan_id":"free"},{"bike_id":"2c9ad911-25e0-4222-8751-d809dfadd582","system_id":"levelo_inurba_marseille","lat":43.32367,"lon":5.388836,"is_reserved":false,"is_disabled":false,"rental_uris":{"android":"levelo://app?vid=2c9ad911-25e0-4222-8751-d809dfadd582","ios":"levelo://app?vid=2c9ad911-25e0-4222-8751-d809dfadd582"},"vehicle_type_id":"4","last_reported":1686956800,"current_range_meters":28400,"station_id":"ce4bhqp2rcd13ifvqhog","pricing_plan_id":"free"},{"bike_id":"6563fc8f-37de-404e-be9b-a296b574b350","system_id":"levelo_inurba_marseille","lat":43.32367,"lon":5.388836,"is_reserved":false,"is_disabled":false,"rental_uris":{"android":"levelo://app?vid=6563fc8f-37de-404e-be9b-a296b574b350","ios":"levelo://app?vid=6563fc8f-37de-404e-be9b-a296b574b350"},"vehicle_type_id":"4","last_reported":1686956800,"current_range_meters":8000,"station_id":"ce4bhqp2rcd13ifvqhog","pricing_plan_id":"free"},{"bike_id":"27870627-bb52-4e2b-96ea-0adea6600ffc","system_id":"levelo_inurba_marseille","lat":43.293013,"lon":5.371548,"is_reserved":false,"is_disabled":false,"rental_uris":{"android":"levelo://app?vid=27870627-bb52-4e2b-96ea-0adea6600ffc","ios":"levelo://app?vid=27870627-bb52-4e2b-96ea-0adea6600ffc"},"vehicle_type_id":"4","last_reported":1686956800,"current_range_meters":7200,"station_id":"ce4bgh92rcd13ifvqb40","pricing_plan_id":"free"},{"bike_id":"097d6f9a-8ada-41af-9d2b-3d78d5c3b4dd","system_id":"levelo_inurba_marseille","lat":43.305994,"lon":5.393687,"is_reserved":false,"is_disabled":false,"rental_uris":{"android":"levelo://app?vid=097d6f9a-8ada-41af-9d2b-3d78d5c3b4dd","ios":"levelo://app?vid=097d6f9a-8ada-41af-9d2b-3d78d5c3b4dd"},"vehicle_type_id":"4","last_reported":1686956800,"current_range_meters":19600,"station_id":"ce4bh0p2rcd13ifvqd80","pricing_plan_id":"free"},{"bike_id":"bd92780d-44ea-4b32-9ac3-f094b1c1b4a4","system_id":"levelo_inurba_marseille","lat":43.2936,"lon":5.37835,"is_reserved":false,"is_disabled":false,"rental_uris":{"android":"levelo://app?vid=bd92780d-44ea-4b32-9ac3-f094b1c1b4a4","ios":"levelo://app?vid=bd92780d-44ea-4b32-9ac3-f094b1c1b4a4"},"vehicle_type_id":"4","last_reported":1686956800,"current_range_meters":0,"station_id":"ce4bgjh2rcd13ifvqbf0","pricing_plan_id":"free"},{"bike_id":"27fd3687-5358-40a0-bd90-3704c272b340","system_id":"levelo_inurba_marseille","lat":43.2936,"lon":5.37835,"is_reserved":false,"is_disabled":false,"rental_uris":{"android":"levelo://app?vid=27fd3687-5358-40a0-bd90-3704c272b340","ios":"levelo://app?vid=27fd3687-5358-40a0-bd90-3704c272b340"},"vehicle_type_id":"4","last_reported":1686956800,"current_range_meters":28800,"station_id":"ce4bgjh2rcd13ifvqbf0","pricing_plan_id":"free"},{"bike_id":"9438969a-2ead-4497-bf79-e647315a1e67","system_id":"levelo_inurba_marseille","lat":43.302992,"lon":5.392136,"is_reserved":false,"is_disabled":false,"rental_uris":{"android":"levelo://app?vid=9438969a-2ead-4497-bf79-e647315a1e67","ios":"levelo://app?vid=9438969a-2ead-4497-bf79-e647315a1e67"},"vehicle_type_id":"4","last_reported":1686956800,"current_range_meters":19600,"station_id":"ce4bgkh2rcd13ifvqbk0","pricing_plan_id":"free"},{"bike_id":"a165dbcc-391e-4ee3-aa45-51ec3bfde9ec","system_id":"levelo_inurba_marseille","lat":43.29364,"lon":5.37847,"is_reserved":false,"is_disabled":false,"rental_uris":{"android":"levelo://app?vid=a165dbcc-391e-4ee3-aa45-51ec3bfde9ec","ios":"levelo://app?vid=a165dbcc-391e-4ee3-aa45-51ec3bfde9ec"},"vehicle_type_id":"4","last_reported":1686956800,"current_range_meters":8000,"station_id":"ce4bgjh2rcd13ifvqbf0","pricing_plan_id":"free"},{"bike_id":"fdceccf7-f390-44d0-8371-6bb4df6f630a","system_id":"levelo_inurba_marseille","lat":43.30085,"lon":5.390856,"is_reserved":false,"is_disabled":false,"rental_uris":{"android":"levelo://app?vid=fdceccf7-f390-44d0-8371-6bb4df6f630a","ios":"levelo://app?vid=fdceccf7-f390-44d0-8371-6bb4df6f630a"},"vehicle_type_id":"4","last_reported":1686956800,"current_range_meters":10400,"station_id":"ce4bh192rcd13ifvqdb0","pricing_plan_id":"free"},{"bike_id":"edd27ecf-5e8a-44a0-82e6-021137b2b9de","system_id":"levelo_inurba_marseille","lat":43.29291,"lon":5.35678,"is_reserved":false,"is_disabled":false,"rental_uris":{"android":"levelo://app?vid=edd27ecf-5e8a-44a0-82e6-021137b2b9de","ios":"levelo://app?vid=edd27ecf-5e8a-44a0-82e6-021137b2b9de"},"vehicle_type_id":"4","last_reported":1686956800,"current_range_meters":3600,"station_id":"","pricing_plan_id":"free"},{"bike_id":"515ec7ec-8ab5-473b-a389-31fdb6d8970e","system_id":"levelo_inurba_marseille","lat":43.292663,"lon":5.376389,"is_reserved":false,"is_disabled":false,"rental_uris":{"android":"levelo://app?vid=515ec7ec-8ab5-473b-a389-31fdb6d8970e","ios":"levelo://app?vid=515ec7ec-8ab5-473b-a389-31fdb6d8970e"},"vehicle_type_id":"4","last_reported":1686956800,"current_range_meters":16400,"station_id":"ce4bgi12rcd13ifvqb80","pricing_plan_id":"free"},{"bike_id":"36343275-03e3-404d-8fa4-27ee4aeb8f7b","system_id":"levelo_inurba_marseille","lat":43.291671,"lon":5.371575,"is_reserved":false,"is_disabled":false,"rental_uris":{"android":"levelo://app?vid=36343275-03e3-404d-8fa4-27ee4aeb8f7b","ios":"levelo://app?vid=36343275-03e3-404d-8fa4-27ee4aeb8f7b"},"vehicle_type_id":"4","last_reported":1686956800,"current_range_meters":16400,"station_id":"ce4bha92rcd13ifvqeh0","pricing_plan_id":"free"},{"bike_id":"9117032f-1c78-4369-846d-b0d0150515fa","system_id":"levelo_inurba_marseille","lat":43.2936,"lon":5.37835,"is_reserved":false,"is_disabled":false,"rental_uris":{"android":"levelo://app?vid=9117032f-1c78-4369-846d-b0d0150515fa","ios":"levelo://app?vid=9117032f-1c78-4369-846d-b0d0150515fa"},"vehicle_type_id":"4","last_reported":1686956800,"current_range_meters":400,"station_id":"ce4bgjh2rcd13ifvqbf0","pricing_plan_id":"free"},{"bike_id":"eec9743f-fce6-4a6f-bb45-5a4a7d109958","system_id":"levelo_inurba_marseille","lat":43.309038,"lon":5.396546,"is_reserved":false,"is_disabled":false,"rental_uris":{"android":"levelo://app?vid=eec9743f-fce6-4a6f-bb45-5a4a7d109958","ios":"levelo://app?vid=eec9743f-fce6-4a6f-bb45-5a4a7d109958"},"vehicle_type_id":"4","last_reported":1686956800,"current_range_meters":4000,"station_id":"ce4bh012rcd13ifvqcv0","pricing_plan_id":"free"},{"bike_id":"e1b17844-9fc4-4bf7-87d6-7143fd7d65a2","system_id":"levelo_inurba_marseille","lat":43.313291,"lon":5.396838,"is_reserved":false,"is_disabled":false,"rental_uris":{"android":"levelo://app?vid=e1b17844-9fc4-4bf7-87d6-7143fd7d65a2","ios":"levelo://app?vid=e1b17844-9fc4-4bf7-87d6-7143fd7d65a2"},"vehicle_type_id":"4","last_reported":1686956800,"current_range_meters":23600,"station_id":"ce4bgvp2rcd13ifvqcu0","pricing_plan_id":"free"},{"bike_id":"a599d736-91d5-4137-981e-54cbfaa30792","system_id":"levelo_inurba_marseille","lat":43.309038,"lon":5.396546,"is_reserved":false,"is_disabled":false,"rental_uris":{"android":"levelo://app?vid=a599d736-91d5-4137-981e-54cbfaa30792","ios":"levelo://app?vid=a599d736-91d5-4137-981e-54cbfaa30792"},"vehicle_type_id":"4","last_reported":1686956800,"current_range_meters":0,"station_id":"ce4bh012rcd13ifvqcv0","pricing_plan_id":"free"},{"bike_id":"42c8e5d5-9b6e-4fa3-8a1f-9a52236a8737","system_id":"levelo_inurba_marseille","lat":43.313291,"lon":5.396838,"is_reserved":false,"is_disabled":false,"rental_uris":{"android":"levelo://app?vid=42c8e5d5-9b6e-4fa3-8a1f-9a52236a8737","ios":"levelo://app?vid=42c8e5d5-9b6e-4fa3-8a1f-9a52236a8737"},"vehicle_type_id":"4","last_reported":1686956800,"current_range_meters":22000,"station_id":"ce4bgvp2rcd13ifvqcu0","pricing_plan_id":"free"},{"bike_id":"06191352-0ed9-4282-9430-e44419e00ca8","system_id":"levelo_inurba_marseille","lat":43.313291,"lon":5.396838,"is_reserved":false,"is_disabled":false,"rental_uris":{"android":"levelo://app?vid=06191352-0ed9-4282-9430-e44419e00ca8","ios":"levelo://app?vid=06191352-0ed9-4282-9430-e44419e00ca8"},"vehicle_type_id":"4","last_reported":1686956800,"current_range_meters":21200,"station_id":"ce4bgvp2rcd13ifvqcu0","pricing_plan_id":"free"},{"bike_id":"5a9f00bd-cd48-4368-9c6b-f11b48f8ee67","system_id":"levelo_inurba_marseille","lat":43.313291,"lon":5.396838,"is_reserved":false,"is_disabled":false,"rental_uris":{"android":"levelo://app?vid=5a9f00bd-cd48-4368-9c6b-f11b48f8ee67","ios":"levelo://app?vid=5a9f00bd-cd48-4368-9c6b-f11b48f8ee67"},"vehicle_type_id":"4","last_reported":1686956800,"current_range_meters":3200,"station_id":"ce4bgvp2rcd13ifvqcu0","pricing_plan_id":"free"},{"bike_id":"4fabf872-fe0e-48c5-9f1c-538adf12ec08","system_id":"levelo_inurba_marseille","lat":43.313291,"lon":5.396838,"is_reserved":false,"is_disabled":false,"rental_uris":{"android":"levelo://app?vid=4fabf872-fe0e-48c5-9f1c-538adf12ec08","ios":"levelo://app?vid=4fabf872-fe0e-48c5-9f1c-538adf12ec08"},"vehicle_type_id":"4","last_reported":1686956800,"current_range_meters":24800,"station_id":"ce4bgvp2rcd13ifvqcu0","pricing_plan_id":"free"},{"bike_id":"86bde3e1-cbc9-48d7-84a3-371200cbc9fe","system_id":"levelo_inurba_marseille","lat":43.309038,"lon":5.396546,"is_reserved":false,"is_disabled":false,"rental_uris":{"android":"levelo://app?vid=86bde3e1-cbc9-48d7-84a3-371200cbc9fe","ios":"levelo://app?vid=86bde3e1-cbc9-48d7-84a3-371200cbc9fe"},"vehicle_type_id":"4","last_reported":1686956800,"current_range_meters":0,"station_id":"ce4bh012rcd13ifvqcv0","pricing_plan_id":"free"},{"bike_id":"666e612e-7722-4586-9988-5179a6837f19","system_id":"levelo_inurba_marseille","lat":43.29344,"lon":5.38167,"is_reserved":false,"is_disabled":false,"rental_uris":{"android":"levelo://app?vid=666e612e-7722-4586-9988-5179a6837f19","ios":"levelo://app?vid=666e612e-7722-4586-9988-5179a6837f19"},"vehicle_type_id":"4","last_reported":1686956800,"current_range_meters":0,"station_id":"","pricing_plan_id":"free"},{"bike_id":"e0846b57-acf0-4616-bcce-f60a9578ed41","system_id":"levelo_inurba_marseille","lat":43.290624,"lon":5.359245,"is_reserved":false,"is_disabled":false,"rental_uris":{"android":"levelo://app?vid=e0846b57-acf0-4616-bcce-f60a9578ed41","ios":"levelo://app?vid=e0846b57-acf0-4616-bcce-f60a9578ed41"},"vehicle_type_id":"4","last_reported":1686956800,"current_range_meters":4400,"station_id":"ce4bha92rcd13ifvqeg0","pricing_plan_id":"free"},{"bike_id":"0a87fb4c-30a6-43b5-9992-858aab035019","system_id":"levelo_inurba_marseille","lat":43.294162,"lon":5.386292,"is_reserved":false,"is_disabled":false,"rental_uris":{"android":"levelo://app?vid=0a87fb4c-30a6-43b5-9992-858aab035019","ios":"levelo://app?vid=0a87fb4c-30a6-43b5-9992-858aab035019"},"vehicle_type_id":"4","last_reported":1686956800,"current_range_meters":4400,"station_id":"ce4bh2h2rcd13ifvqdh0","pricing_plan_id":"free"},{"bike_id":"1d0f29b5-c31d-4fa8-81f3-9ab0518aed19","system_id":"levelo_inurba_marseille","lat":43.294162,"lon":5.386292,"is_reserved":false,"is_disabled":false,"rental_uris":{"android":"levelo://app?vid=1d0f29b5-c31d-4fa8-81f3-9ab0518aed19","ios":"levelo://app?vid=1d0f29b5-c31d-4fa8-81f3-9ab0518aed19"},"vehicle_type_id":"4","last_reported":1686956800,"current_range_meters":28800,"station_id":"ce4bh2h2rcd13ifvqdh0","pricing_plan_id":"free"},{"bike_id":"38eb09af-7166-42b9-865e-84246929498f","system_id":"levelo_inurba_marseille","lat":43.29256,"lon":5.38445,"is_reserved":false,"is_disabled":false,"rental_uris":{"android":"levelo://app?vid=38eb09af-7166-42b9-865e-84246929498f","ios":"levelo://app?vid=38eb09af-7166-42b9-865e-84246929498f"},"vehicle_type_id":"4","last_reported":1686956800,"current_range_meters":31200,"station_id":"ce4bh692rcd13ifvqea0","pricing_plan_id":"free"},{"bike_id":"efd9ad73-20e4-48a8-9273-d79e81729f94","system_id":"levelo_inurba_marseille","lat":43.33044,"lon":5.3892,"is_reserved":false,"is_disabled":false,"rental_uris":{"android":"levelo://app?vid=efd9ad73-20e4-48a8-9273-d79e81729f94","ios":"levelo://app?vid=efd9ad73-20e4-48a8-9273-d79e81729f94"},"vehicle_type_id":"4","last_reported":1686956800,"current_range_meters":2800,"station_id":"ce4bhr92rcd13ifvqhrg","pricing_plan_id":"free"},{"bike_id":"6497a535-5db0-41a3-844a-8b2b8033880c","system_id":"levelo_inurba_marseille","lat":43.290103,"lon":5.356114,"is_reserved":false,"is_disabled":false,"rental_uris":{"android":"levelo://app?vid=6497a535-5db0-41a3-844a-8b2b8033880c","ios":"levelo://app?vid=6497a535-5db0-41a3-844a-8b2b8033880c"},"vehicle_type_id":"4","last_reported":1686956800,"current_range_meters":9200,"station_id":"ce4bhb92rcd13ifvqen0","pricing_plan_id":"free"},{"bike_id":"4ba4daf9-cb19-4e1c-9d7d-d8a715e51344","system_id":"levelo_inurba_marseille","lat":43.290103,"lon":5.356114,"is_reserved":false,"is_disabled":false,"rental_uris":{"android":"levelo://app?vid=4ba4daf9-cb19-4e1c-9d7d-d8a715e51344","ios":"levelo://app?vid=4ba4daf9-cb19-4e1c-9d7d-d8a715e51344"},"vehicle_type_id":"4","last_reported":1686956800,"current_range_meters":11200,"station_id":"ce4bhb92rcd13ifvqen0","pricing_plan_id":"free"},{"bike_id":"1cec5454-d5ce-4321-99e6-af023a1d977d","system_id":"levelo_inurba_marseille","lat":43.290995,"lon":5.381361,"is_reserved":false,"is_disabled":false,"rental_uris":{"android":"levelo://app?vid=1cec5454-d5ce-4321-99e6-af023a1d977d","ios":"levelo://app?vid=1cec5454-d5ce-4321-99e6-af023a1d977d"},"vehicle_type_id":"4","last_reported":1686956800,"current_range_meters":31200,"station_id":"ce4bh512rcd13ifvqe2g","pricing_plan_id":"free"},{"bike_id":"3db011a4-bbea-4e71-b680-5cb67989a226","system_id":"levelo_inurba_marseille","lat":43.297815,"lon":5.393548,"is_reserved":false,"is_disabled":false,"rental_uris":{"android":"levelo://app?vid=3db011a4-bbea-4e71-b680-5cb67989a226","ios":"levelo://app?vid=3db011a4-bbea-4e71-b680-5cb67989a226"},"vehicle_type_id":"4","last_reported":1686956800,"current_range_meters":3200,"station_id":"chh1huq6cuj3fo74tm60","pricing_plan_id":"free"},{"bike_id":"f21fbf3f-09bf-4b0f-8f0f-051f5197ed7a","system_id":"levelo_inurba_marseille","lat":43.29782,"lon":5.39334,"is_reserved":false,"is_disabled":false,"rental_uris":{"android":"levelo://app?vid=f21fbf3f-09bf-4b0f-8f0f-051f5197ed7a","ios":"levelo://app?vid=f21fbf3f-09bf-4b0f-8f0f-051f5197ed7a"},"vehicle_type_id":"4","last_reported":1686956800,"current_range_meters":800,"station_id":"chh1huq6cuj3fo74tm60","pricing_plan_id":"free"},{"bike_id":"f36db77f-cd59-493d-912a-d223746a6888","system_id":"levelo_inurba_marseille","lat":43.2901,"lon":5.381269,"is_reserved":false,"is_disabled":false,"rental_uris":{"android":"levelo://app?vid=f36db77f-cd59-493d-912a-d223746a6888","ios":"levelo://app?vid=f36db77f-cd59-493d-912a-d223746a6888"},"vehicle_type_id":"4","last_reported":1686956800,"current_range_meters":12400,"station_id":"ce4bh4p2rcd13ifvqe1g","pricing_plan_id":"free"},{"bike_id":"d3704486-4b87-40a4-886f-056ca3a9b43f","system_id":"levelo_inurba_marseille","lat":43.28856,"lon":5.358371,"is_reserved":false,"is_disabled":false,"rental_uris":{"android":"levelo://app?vid=d3704486-4b87-40a4-886f-056ca3a9b43f","ios":"levelo://app?vid=d3704486-4b87-40a4-886f-056ca3a9b43f"},"vehicle_type_id":"4","last_reported":1686956800,"current_range_meters":31200,"station_id":"ce4bhb12rcd13ifvqem0","pricing_plan_id":"free"},{"bike_id":"b1b2f804-de2e-4b5d-ad73-dfb4beca7f59","system_id":"levelo_inurba_marseille","lat":43.28856,"lon":5.358371,"is_reserved":false,"is_disabled":false,"rental_uris":{"android":"levelo://app?vid=b1b2f804-de2e-4b5d-ad73-dfb4beca7f59","ios":"levelo://app?vid=b1b2f804-de2e-4b5d-ad73-dfb4beca7f59"},"vehicle_type_id":"4","last_reported":1686956800,"current_range_meters":13200,"station_id":"ce4bhb12rcd13ifvqem0","pricing_plan_id":"free"},{"bike_id":"c0fb8083-e02d-4dec-b1b9-fa095e6c5b75","system_id":"levelo_inurba_marseille","lat":43.337396,"lon":5.374526,"is_reserved":false,"is_disabled":false,"rental_uris":{"android":"levelo://app?vid=c0fb8083-e02d-4dec-b1b9-fa095e6c5b75","ios":"levelo://app?vid=c0fb8083-e02d-4dec-b1b9-fa095e6c5b75"},"vehicle_type_id":"4","last_reported":1686956800,"current_range_meters":0,"station_id":"ce4bhp92rcd13ifvqhag","pricing_plan_id":"free"},{"bike_id":"d5e6bd0f-c204-4df0-a839-e4ec2e2e56d8","system_id":"levelo_inurba_marseille","lat":43.309371,"lon":5.401449,"is_reserved":false,"is_disabled":false,"rental_uris":{"android":"levelo://app?vid=d5e6bd0f-c204-4df0-a839-e4ec2e2e56d8","ios":"levelo://app?vid=d5e6bd0f-c204-4df0-a839-e4ec2e2e56d8"},"vehicle_type_id":"4","last_reported":1686956800,"current_range_meters":24000,"station_id":"ce4bgvp2rcd13ifvqct0","pricing_plan_id":"free"},{"bike_id":"db42e44a-2775-4c62-83dc-a3c8c71b6bb3","system_id":"levelo_inurba_marseille","lat":43.309371,"lon":5.401449,"is_reserved":false,"is_disabled":false,"rental_uris":{"android":"levelo://app?vid=db42e44a-2775-4c62-83dc-a3c8c71b6bb3","ios":"levelo://app?vid=db42e44a-2775-4c62-83dc-a3c8c71b6bb3"},"vehicle_type_id":"4","last_reported":1686956800,"current_range_meters":800,"station_id":"ce4bgvp2rcd13ifvqct0","pricing_plan_id":"free"},{"bike_id":"a3914528-27ba-4acc-bec1-258d2b2744ea","system_id":"levelo_inurba_marseille","lat":43.309371,"lon":5.401449,"is_reserved":false,"is_disabled":false,"rental_uris":{"android":"levelo://app?vid=a3914528-27ba-4acc-bec1-258d2b2744ea","ios":"levelo://app?vid=a3914528-27ba-4acc-bec1-258d2b2744ea"},"vehicle_type_id":"4","last_reported":1686956800,"current_range_meters":9200,"station_id":"ce4bgvp2rcd13ifvqct0","pricing_plan_id":"free"},{"bike_id":"24fdee23-3960-4f97-b366-c82ca33cc7c8","system_id":"levelo_inurba_marseille","lat":43.298681,"lon":5.397225,"is_reserved":false,"is_disabled":false,"rental_uris":{"android":"levelo://app?vid=24fdee23-3960-4f97-b366-c82ca33cc7c8","ios":"levelo://app?vid=24fdee23-3960-4f97-b366-c82ca33cc7c8"},"vehicle_type_id":"4","last_reported":1686956800,"current_range_meters":10800,"station_id":"ce4bh0h2rcd13ifvqd50","pricing_plan_id":"free"},{"bike_id":"e5f0f0c6-611e-488d-8805-7a8d5d647a69","system_id":"levelo_inurba_marseille","lat":43.28705,"lon":5.37389,"is_reserved":false,"is_disabled":false,"rental_uris":{"android":"levelo://app?vid=e5f0f0c6-611e-488d-8805-7a8d5d647a69","ios":"levelo://app?vid=e5f0f0c6-611e-488d-8805-7a8d5d647a69"},"vehicle_type_id":"4","last_reported":1686956800,"current_range_meters":0,"station_id":"ce4bh3p2rcd13ifvqdq0","pricing_plan_id":"free"},{"bike_id":"33c15c43-b826-4eb0-a72c-da4d7764294c","system_id":"levelo_inurba_marseille","lat":43.298681,"lon":5.397225,"is_reserved":false,"is_disabled":false,"rental_uris":{"android":"levelo://app?vid=33c15c43-b826-4eb0-a72c-da4d7764294c","ios":"levelo://app?vid=33c15c43-b826-4eb0-a72c-da4d7764294c"},"vehicle_type_id":"4","last_reported":1686956800,"current_range_meters":7600,"station_id":"ce4bh0h2rcd13ifvqd50","pricing_plan_id":"free"},{"bike_id":"046207dc-4d0a-4969-9f1b-5bd5efbe4cd4","system_id":"levelo_inurba_marseille","lat":43.298681,"lon":5.397225,"is_reserved":false,"is_disabled":false,"rental_uris":{"android":"levelo://app?vid=046207dc-4d0a-4969-9f1b-5bd5efbe4cd4","ios":"levelo://app?vid=046207dc-4d0a-4969-9f1b-5bd5efbe4cd4"},"vehicle_type_id":"4","last_reported":1686956800,"current_range_meters":15200,"station_id":"ce4bh0h2rcd13ifvqd50","pricing_plan_id":"free"},{"bike_id":"1204d2b3-06d7-459e-b772-dd51f8bf0828","system_id":"levelo_inurba_marseille","lat":43.298681,"lon":5.397225,"is_reserved":false,"is_disabled":false,"rental_uris":{"android":"levelo://app?vid=1204d2b3-06d7-459e-b772-dd51f8bf0828","ios":"levelo://app?vid=1204d2b3-06d7-459e-b772-dd51f8bf0828"},"vehicle_type_id":"4","last_reported":1686956800,"current_range_meters":12000,"station_id":"ce4bh0h2rcd13ifvqd50","pricing_plan_id":"free"},{"bike_id":"11d666c1-6fe1-4fe8-a5e0-a82eb1e9bf7a","system_id":"levelo_inurba_marseille","lat":43.295196,"lon":5.39397,"is_reserved":false,"is_disabled":false,"rental_uris":{"android":"levelo://app?vid=11d666c1-6fe1-4fe8-a5e0-a82eb1e9bf7a","ios":"levelo://app?vid=11d666c1-6fe1-4fe8-a5e0-a82eb1e9bf7a"},"vehicle_type_id":"4","last_reported":1686956800,"current_range_meters":17200,"station_id":"ce4bh292rcd13ifvqdf0","pricing_plan_id":"free"},{"bike_id":"e4564b14-2edc-4d42-b034-2a9b9ed4c193","system_id":"levelo_inurba_marseille","lat":43.290345,"lon":5.38646,"is_reserved":false,"is_disabled":false,"rental_uris":{"android":"levelo://app?vid=e4564b14-2edc-4d42-b034-2a9b9ed4c193","ios":"levelo://app?vid=e4564b14-2edc-4d42-b034-2a9b9ed4c193"},"vehicle_type_id":"4","last_reported":1686956800,"current_range_meters":28800,"station_id":"ce4bh4p2rcd13ifvqe0g","pricing_plan_id":"free"},{"bike_id":"c2740052-9914-4c4b-a92e-1f4e5d935397","system_id":"levelo_inurba_marseille","lat":43.290345,"lon":5.38646,"is_reserved":false,"is_disabled":false,"rental_uris":{"android":"levelo://app?vid=c2740052-9914-4c4b-a92e-1f4e5d935397","ios":"levelo://app?vid=c2740052-9914-4c4b-a92e-1f4e5d935397"},"vehicle_type_id":"4","last_reported":1686956800,"current_range_meters":25200,"station_id":"ce4bh4p2rcd13ifvqe0g","pricing_plan_id":"free"},{"bike_id":"eba89af1-0cfe-42ed-a903-7255c1d0859e","system_id":"levelo_inurba_marseille","lat":43.302759,"lon":5.400793,"is_reserved":false,"is_disabled":false,"rental_uris":{"android":"levelo://app?vid=eba89af1-0cfe-42ed-a903-7255c1d0859e","ios":"levelo://app?vid=eba89af1-0cfe-42ed-a903-7255c1d0859e"},"vehicle_type_id":"4","last_reported":1686956800,"current_range_meters":6000,"station_id":"ce4bgvh2rcd13ifvqcs0","pricing_plan_id":"free"},{"bike_id":"30c9ee08-d3c3-4518-86b0-80cce755b28a","system_id":"levelo_inurba_marseille","lat":43.286039,"lon":5.370679,"is_reserved":false,"is_disabled":false,"rental_uris":{"android":"levelo://app?vid=30c9ee08-d3c3-4518-86b0-80cce755b28a","ios":"levelo://app?vid=30c9ee08-d3c3-4518-86b0-80cce755b28a"},"vehicle_type_id":"4","last_reported":1686956800,"current_range_meters":7600,"station_id":"ce4bht12rcd13ifvqi60","pricing_plan_id":"free"},{"bike_id":"976c54d9-a4f1-4052-9b8e-25b0a7a65692","system_id":"levelo_inurba_marseille","lat":43.286039,"lon":5.370679,"is_reserved":false,"is_disabled":false,"rental_uris":{"android":"levelo://app?vid=976c54d9-a4f1-4052-9b8e-25b0a7a65692","ios":"levelo://app?vid=976c54d9-a4f1-4052-9b8e-25b0a7a65692"},"vehicle_type_id":"4","last_reported":1686956800,"current_range_meters":12400,"station_id":"ce4bht12rcd13ifvqi60","pricing_plan_id":"free"},{"bike_id":"5b16d2a9-8d08-48fd-a0ec-064d86d7a144","system_id":"levelo_inurba_marseille","lat":43.291994,"lon":5.392907,"is_reserved":false,"is_disabled":false,"rental_uris":{"android":"levelo://app?vid=5b16d2a9-8d08-48fd-a0ec-064d86d7a144","ios":"levelo://app?vid=5b16d2a9-8d08-48fd-a0ec-064d86d7a144"},"vehicle_type_id":"4","last_reported":1686956800,"current_range_meters":18800,"station_id":"ce4bh192rcd13ifvqdd0","pricing_plan_id":"free"},{"bike_id":"543fe385-8656-49c6-b475-b2d5872d8ad3","system_id":"levelo_inurba_marseille","lat":43.291994,"lon":5.392907,"is_reserved":false,"is_disabled":false,"rental_uris":{"android":"levelo://app?vid=543fe385-8656-49c6-b475-b2d5872d8ad3","ios":"levelo://app?vid=543fe385-8656-49c6-b475-b2d5872d8ad3"},"vehicle_type_id":"4","last_reported":1686956800,"current_range_meters":20800,"station_id":"ce4bh192rcd13ifvqdd0","pricing_plan_id":"free"},{"bike_id":"d320c19f-2c0f-4423-a685-edbd2977b1a7","system_id":"levelo_inurba_marseille","lat":43.291994,"lon":5.392907,"is_reserved":false,"is_disabled":false,"rental_uris":{"android":"levelo://app?vid=d320c19f-2c0f-4423-a685-edbd2977b1a7","ios":"levelo://app?vid=d320c19f-2c0f-4423-a685-edbd2977b1a7"},"vehicle_type_id":"4","last_reported":1686956800,"current_range_meters":6400,"station_id":"ce4bh192rcd13ifvqdd0","pricing_plan_id":"free"},{"bike_id":"c32e53b1-a838-46c0-b2b8-d5d97739eebc","system_id":"levelo_inurba_marseille","lat":43.284534,"lon":5.358662,"is_reserved":false,"is_disabled":false,"rental_uris":{"android":"levelo://app?vid=c32e53b1-a838-46c0-b2b8-d5d97739eebc","ios":"levelo://app?vid=c32e53b1-a838-46c0-b2b8-d5d97739eebc"},"vehicle_type_id":"4","last_reported":1686956800,"current_range_meters":4800,"station_id":"ce4bhah2rcd13ifvqei0","pricing_plan_id":"free"},{"bike_id":"c3a18d89-2ef0-4138-9c87-47d0408464ae","system_id":"levelo_inurba_marseille","lat":43.284534,"lon":5.358662,"is_reserved":false,"is_disabled":false,"rental_uris":{"android":"levelo://app?vid=c3a18d89-2ef0-4138-9c87-47d0408464ae","ios":"levelo://app?vid=c3a18d89-2ef0-4138-9c87-47d0408464ae"},"vehicle_type_id":"4","last_reported":1686956800,"current_range_meters":14400,"station_id":"ce4bhah2rcd13ifvqei0","pricing_plan_id":"free"},{"bike_id":"ab7e49e9-6eb3-4bb0-8522-d110410e007b","system_id":"levelo_inurba_marseille","lat":43.284534,"lon":5.358662,"is_reserved":false,"is_disabled":false,"rental_uris":{"android":"levelo://app?vid=ab7e49e9-6eb3-4bb0-8522-d110410e007b","ios":"levelo://app?vid=ab7e49e9-6eb3-4bb0-8522-d110410e007b"},"vehicle_type_id":"4","last_reported":1686956800,"current_range_meters":22400,"station_id":"ce4bhah2rcd13ifvqei0","pricing_plan_id":"free"},{"bike_id":"42c25a91-125b-4890-8157-261b1a5b4c0c","system_id":"levelo_inurba_marseille","lat":43.284534,"lon":5.358662,"is_reserved":false,"is_disabled":false,"rental_uris":{"android":"levelo://app?vid=42c25a91-125b-4890-8157-261b1a5b4c0c","ios":"levelo://app?vid=42c25a91-125b-4890-8157-261b1a5b4c0c"},"vehicle_type_id":"4","last_reported":1686956800,"current_range_meters":8800,"station_id":"ce4bhah2rcd13ifvqei0","pricing_plan_id":"free"},{"bike_id":"160be31a-a240-4c8f-a12e-d540b152da0c","system_id":"levelo_inurba_marseille","lat":43.28457,"lon":5.35889,"is_reserved":false,"is_disabled":false,"rental_uris":{"android":"levelo://app?vid=160be31a-a240-4c8f-a12e-d540b152da0c","ios":"levelo://app?vid=160be31a-a240-4c8f-a12e-d540b152da0c"},"vehicle_type_id":"4","last_reported":1686956800,"current_range_meters":27200,"station_id":"ce4bhah2rcd13ifvqei0","pricing_plan_id":"free"},{"bike_id":"b2484b48-3261-4490-b636-899464e9f915","system_id":"levelo_inurba_marseille","lat":43.284534,"lon":5.358662,"is_reserved":false,"is_disabled":false,"rental_uris":{"android":"levelo://app?vid=b2484b48-3261-4490-b636-899464e9f915","ios":"levelo://app?vid=b2484b48-3261-4490-b636-899464e9f915"},"vehicle_type_id":"4","last_reported":1686956800,"current_range_meters":8400,"station_id":"ce4bhah2rcd13ifvqei0","pricing_plan_id":"free"},{"bike_id":"866c0150-e936-4c3a-9f0d-516e80fa09f5","system_id":"levelo_inurba_marseille","lat":43.284534,"lon":5.358662,"is_reserved":false,"is_disabled":false,"rental_uris":{"android":"levelo://app?vid=866c0150-e936-4c3a-9f0d-516e80fa09f5","ios":"levelo://app?vid=866c0150-e936-4c3a-9f0d-516e80fa09f5"},"vehicle_type_id":"4","last_reported":1686956800,"current_range_meters":7600,"station_id":"ce4bhah2rcd13ifvqei0","pricing_plan_id":"free"},{"bike_id":"0baf26d4-fbaa-4cd5-bb59-e10981efd559","system_id":"levelo_inurba_marseille","lat":43.28454,"lon":5.35888,"is_reserved":false,"is_disabled":false,"rental_uris":{"android":"levelo://app?vid=0baf26d4-fbaa-4cd5-bb59-e10981efd559","ios":"levelo://app?vid=0baf26d4-fbaa-4cd5-bb59-e10981efd559"},"vehicle_type_id":"4","last_reported":1686956800,"current_range_meters":24400,"station_id":"ce4bhah2rcd13ifvqei0","pricing_plan_id":"free"},{"bike_id":"48c19f76-005f-4bcf-af56-4f2ac0ea9251","system_id":"levelo_inurba_marseille","lat":43.284534,"lon":5.358662,"is_reserved":false,"is_disabled":false,"rental_uris":{"android":"levelo://app?vid=48c19f76-005f-4bcf-af56-4f2ac0ea9251","ios":"levelo://app?vid=48c19f76-005f-4bcf-af56-4f2ac0ea9251"},"vehicle_type_id":"4","last_reported":1686956800,"current_range_meters":19200,"station_id":"ce4bhah2rcd13ifvqei0","pricing_plan_id":"free"},{"bike_id":"8e1713e6-70be-4ea5-80d6-df141a147c40","system_id":"levelo_inurba_marseille","lat":43.295713,"lon":5.399639,"is_reserved":false,"is_disabled":false,"rental_uris":{"android":"levelo://app?vid=8e1713e6-70be-4ea5-80d6-df141a147c40","ios":"levelo://app?vid=8e1713e6-70be-4ea5-80d6-df141a147c40"},"vehicle_type_id":"4","last_reported":1686956800,"current_range_meters":15200,"station_id":"ce4bh312rcd13ifvqdj0","pricing_plan_id":"free"},{"bike_id":"1edd4e87-d564-4f8b-b8dc-cc1ab29d4645","system_id":"levelo_inurba_marseille","lat":43.295713,"lon":5.399639,"is_reserved":false,"is_disabled":false,"rental_uris":{"android":"levelo://app?vid=1edd4e87-d564-4f8b-b8dc-cc1ab29d4645","ios":"levelo://app?vid=1edd4e87-d564-4f8b-b8dc-cc1ab29d4645"},"vehicle_type_id":"4","last_reported":1686956800,"current_range_meters":6400,"station_id":"ce4bh312rcd13ifvqdj0","pricing_plan_id":"free"},{"bike_id":"a0975aa1-e3dd-4ffe-9172-81565110f03d","system_id":"levelo_inurba_marseille","lat":43.295713,"lon":5.399639,"is_reserved":false,"is_disabled":false,"rental_uris":{"android":"levelo://app?vid=a0975aa1-e3dd-4ffe-9172-81565110f03d","ios":"levelo://app?vid=a0975aa1-e3dd-4ffe-9172-81565110f03d"},"vehicle_type_id":"4","last_reported":1686956800,"current_range_meters":13200,"station_id":"ce4bh312rcd13ifvqdj0","pricing_plan_id":"free"},{"bike_id":"aa5aa89a-28b3-4a5b-9dd3-59af8932e016","system_id":"levelo_inurba_marseille","lat":43.286595,"lon":5.386795,"is_reserved":false,"is_disabled":false,"rental_uris":{"android":"levelo://app?vid=aa5aa89a-28b3-4a5b-9dd3-59af8932e016","ios":"levelo://app?vid=aa5aa89a-28b3-4a5b-9dd3-59af8932e016"},"vehicle_type_id":"4","last_reported":1686956800,"current_range_meters":31600,"station_id":"ce4bh492rcd13ifvqdug","pricing_plan_id":"free"},{"bike_id":"16e5fedd-6e86-436a-a0a2-72c7cd60a6ea","system_id":"levelo_inurba_marseille","lat":43.32335,"lon":5.4062,"is_reserved":false,"is_disabled":false,"rental_uris":{"android":"levelo://app?vid=16e5fedd-6e86-436a-a0a2-72c7cd60a6ea","ios":"levelo://app?vid=16e5fedd-6e86-436a-a0a2-72c7cd60a6ea"},"vehicle_type_id":"4","last_reported":1686956800,"current_range_meters":31200,"station_id":"ce4bhq92rcd13ifvqhjg","pricing_plan_id":"free"},{"bike_id":"cbeeffe1-6f43-4e33-a0c4-cf6eb4e5dd1d","system_id":"levelo_inurba_marseille","lat":43.28867,"lon":5.39308,"is_reserved":false,"is_disabled":false,"rental_uris":{"android":"levelo://app?vid=cbeeffe1-6f43-4e33-a0c4-cf6eb4e5dd1d","ios":"levelo://app?vid=cbeeffe1-6f43-4e33-a0c4-cf6eb4e5dd1d"},"vehicle_type_id":"4","last_reported":1686956800,"current_range_meters":30800,"station_id":"ce4bh2p2rcd13ifvqdi0","pricing_plan_id":"free"},{"bike_id":"a03398e6-e628-4d29-b948-0f84c3a914ff","system_id":"levelo_inurba_marseille","lat":43.28859,"lon":5.39323,"is_reserved":false,"is_disabled":false,"rental_uris":{"android":"levelo://app?vid=a03398e6-e628-4d29-b948-0f84c3a914ff","ios":"levelo://app?vid=a03398e6-e628-4d29-b948-0f84c3a914ff"},"vehicle_type_id":"4","last_reported":1686956800,"current_range_meters":31200,"station_id":"ce4bh2p2rcd13ifvqdi0","pricing_plan_id":"free"},{"bike_id":"026a3ac4-68fe-4ef5-ab2e-dbd2e381336a","system_id":"levelo_inurba_marseille","lat":43.288497,"lon":5.393089,"is_reserved":false,"is_disabled":false,"rental_uris":{"android":"levelo://app?vid=026a3ac4-68fe-4ef5-ab2e-dbd2e381336a","ios":"levelo://app?vid=026a3ac4-68fe-4ef5-ab2e-dbd2e381336a"},"vehicle_type_id":"4","last_reported":1686956800,"current_range_meters":10800,"station_id":"ce4bh2p2rcd13ifvqdi0","pricing_plan_id":"free"},{"bike_id":"26a22133-0f62-4720-862d-dde208fcb6de","system_id":"levelo_inurba_marseille","lat":43.288497,"lon":5.393089,"is_reserved":false,"is_disabled":false,"rental_uris":{"android":"levelo://app?vid=26a22133-0f62-4720-862d-dde208fcb6de","ios":"levelo://app?vid=26a22133-0f62-4720-862d-dde208fcb6de"},"vehicle_type_id":"4","last_reported":1686956800,"current_range_meters":31200,"station_id":"ce4bh2p2rcd13ifvqdi0","pricing_plan_id":"free"},{"bike_id":"85bf4018-e40e-46c7-b305-b46d1e6f713d","system_id":"levelo_inurba_marseille","lat":43.288519,"lon":5.393277,"is_reserved":false,"is_disabled":false,"rental_uris":{"android":"levelo://app?vid=85bf4018-e40e-46c7-b305-b46d1e6f713d","ios":"levelo://app?vid=85bf4018-e40e-46c7-b305-b46d1e6f713d"},"vehicle_type_id":"4","last_reported":1686956800,"current_range_meters":31200,"station_id":"ce4bh2p2rcd13ifvqdi0","pricing_plan_id":"free"},{"bike_id":"00b4d942-d645-4a17-a320-9c02b5ecca68","system_id":"levelo_inurba_marseille","lat":43.288501,"lon":5.393087,"is_reserved":false,"is_disabled":false,"rental_uris":{"android":"levelo://app?vid=00b4d942-d645-4a17-a320-9c02b5ecca68","ios":"levelo://app?vid=00b4d942-d645-4a17-a320-9c02b5ecca68"},"vehicle_type_id":"4","last_reported":1686956800,"current_range_meters":28000,"station_id":"ce4bh2p2rcd13ifvqdi0","pricing_plan_id":"free"},{"bike_id":"de46fbc1-eb82-408b-800c-fc69de6aae0f","system_id":"levelo_inurba_marseille","lat":43.28346,"lon":5.38103,"is_reserved":false,"is_disabled":false,"rental_uris":{"android":"levelo://app?vid=de46fbc1-eb82-408b-800c-fc69de6aae0f","ios":"levelo://app?vid=de46fbc1-eb82-408b-800c-fc69de6aae0f"},"vehicle_type_id":"4","last_reported":1686956800,"current_range_meters":31200,"station_id":"ce4bh412rcd13ifvqdr0","pricing_plan_id":"free"},{"bike_id":"8bad628a-58ca-4fe2-ac8e-d167943d9ed1","system_id":"levelo_inurba_marseille","lat":43.29277,"lon":5.40115,"is_reserved":false,"is_disabled":false,"rental_uris":{"android":"levelo://app?vid=8bad628a-58ca-4fe2-ac8e-d167943d9ed1","ios":"levelo://app?vid=8bad628a-58ca-4fe2-ac8e-d167943d9ed1"},"vehicle_type_id":"4","last_reported":1686956800,"current_range_meters":19200,"station_id":"ce4bh312rcd13ifvqdk0","pricing_plan_id":"free"},{"bike_id":"e2c3a0aa-7f22-492a-a04d-15e355466059","system_id":"levelo_inurba_marseille","lat":43.32879,"lon":5.40534,"is_reserved":false,"is_disabled":false,"rental_uris":{"android":"levelo://app?vid=e2c3a0aa-7f22-492a-a04d-15e355466059","ios":"levelo://app?vid=e2c3a0aa-7f22-492a-a04d-15e355466059"},"vehicle_type_id":"4","last_reported":1686956800,"current_range_meters":11200,"station_id":"","pricing_plan_id":"free"},{"bike_id":"e0b772a3-df8e-456c-8866-06c89db6964d","system_id":"levelo_inurba_marseille","lat":43.28039,"lon":5.369297,"is_reserved":false,"is_disabled":false,"rental_uris":{"android":"levelo://app?vid=e0b772a3-df8e-456c-8866-06c89db6964d","ios":"levelo://app?vid=e0b772a3-df8e-456c-8866-06c89db6964d"},"vehicle_type_id":"4","last_reported":1686956800,"current_range_meters":29600,"station_id":"ce4bha12rcd13ifvqef0","pricing_plan_id":"free"},{"bike_id":"9a88d039-702d-4002-b283-c65681e5c561","system_id":"levelo_inurba_marseille","lat":43.2904,"lon":5.39964,"is_reserved":false,"is_disabled":false,"rental_uris":{"android":"levelo://app?vid=9a88d039-702d-4002-b283-c65681e5c561","ios":"levelo://app?vid=9a88d039-702d-4002-b283-c65681e5c561"},"vehicle_type_id":"4","last_reported":1686956800,"current_range_meters":1600,"station_id":"ce4bh392rcd13ifvqdm0","pricing_plan_id":"free"},{"bike_id":"13619278-1640-46f8-b139-26c25727e077","system_id":"levelo_inurba_marseille","lat":43.28118,"lon":5.38201,"is_reserved":false,"is_disabled":false,"rental_uris":{"android":"levelo://app?vid=13619278-1640-46f8-b139-26c25727e077","ios":"levelo://app?vid=13619278-1640-46f8-b139-26c25727e077"},"vehicle_type_id":"4","last_reported":1686956800,"current_range_meters":0,"station_id":"","pricing_plan_id":"free"},{"bike_id":"c9d9ada1-9307-40ef-a9b2-6fce9cf691f3","system_id":"levelo_inurba_marseille","lat":43.284462,"lon":5.392121,"is_reserved":false,"is_disabled":false,"rental_uris":{"android":"levelo://app?vid=c9d9ada1-9307-40ef-a9b2-6fce9cf691f3","ios":"levelo://app?vid=c9d9ada1-9307-40ef-a9b2-6fce9cf691f3"},"vehicle_type_id":"4","last_reported":1686956800,"current_range_meters":24400,"station_id":"ce4bhoh2rcd13ifvqh5g","pricing_plan_id":"free"},{"bike_id":"6ec7c427-3edd-4229-9e4d-601eed929b0d","system_id":"levelo_inurba_marseille","lat":43.284462,"lon":5.392121,"is_reserved":false,"is_disabled":false,"rental_uris":{"android":"levelo://app?vid=6ec7c427-3edd-4229-9e4d-601eed929b0d","ios":"levelo://app?vid=6ec7c427-3edd-4229-9e4d-601eed929b0d"},"vehicle_type_id":"4","last_reported":1686956800,"current_range_meters":8800,"station_id":"ce4bhoh2rcd13ifvqh5g","pricing_plan_id":"free"},{"bike_id":"dbe00079-873c-4c00-8ee0-ada168d49597","system_id":"levelo_inurba_marseille","lat":43.284462,"lon":5.392121,"is_reserved":false,"is_disabled":false,"rental_uris":{"android":"levelo://app?vid=dbe00079-873c-4c00-8ee0-ada168d49597","ios":"levelo://app?vid=dbe00079-873c-4c00-8ee0-ada168d49597"},"vehicle_type_id":"4","last_reported":1686956800,"current_range_meters":10800,"station_id":"ce4bhoh2rcd13ifvqh5g","pricing_plan_id":"free"},{"bike_id":"7a04a0f7-b5ee-4baf-90c0-1b24512321f6","system_id":"levelo_inurba_marseille","lat":43.284462,"lon":5.392121,"is_reserved":false,"is_disabled":false,"rental_uris":{"android":"levelo://app?vid=7a04a0f7-b5ee-4baf-90c0-1b24512321f6","ios":"levelo://app?vid=7a04a0f7-b5ee-4baf-90c0-1b24512321f6"},"vehicle_type_id":"4","last_reported":1686956800,"current_range_meters":7600,"station_id":"ce4bhoh2rcd13ifvqh5g","pricing_plan_id":"free"},{"bike_id":"d8fa76e8-69ea-4286-bd3a-0135edfb363e","system_id":"levelo_inurba_marseille","lat":43.326605,"lon":5.409903,"is_reserved":false,"is_disabled":false,"rental_uris":{"android":"levelo://app?vid=d8fa76e8-69ea-4286-bd3a-0135edfb363e","ios":"levelo://app?vid=d8fa76e8-69ea-4286-bd3a-0135edfb363e"},"vehicle_type_id":"4","last_reported":1686956800,"current_range_meters":24800,"station_id":"ce4bhpp2rcd13ifvqhgg","pricing_plan_id":"free"},{"bike_id":"7b98889d-dff9-45a4-b1d6-61e6722fd02c","system_id":"levelo_inurba_marseille","lat":43.32655,"lon":5.40991,"is_reserved":false,"is_disabled":false,"rental_uris":{"android":"levelo://app?vid=7b98889d-dff9-45a4-b1d6-61e6722fd02c","ios":"levelo://app?vid=7b98889d-dff9-45a4-b1d6-61e6722fd02c"},"vehicle_type_id":"4","last_reported":1686956800,"current_range_meters":18800,"station_id":"ce4bhpp2rcd13ifvqhgg","pricing_plan_id":"free"},{"bike_id":"718fa9c0-ec27-4121-95ff-271fc779d0f2","system_id":"levelo_inurba_marseille","lat":43.304188,"lon":5.412904,"is_reserved":false,"is_disabled":false,"rental_uris":{"android":"levelo://app?vid=718fa9c0-ec27-4121-95ff-271fc779d0f2","ios":"levelo://app?vid=718fa9c0-ec27-4121-95ff-271fc779d0f2"},"vehicle_type_id":"4","last_reported":1686956800,"current_range_meters":2400,"station_id":"ce4bhop2rcd13ifvqh8g","pricing_plan_id":"free"},{"bike_id":"5a8b8605-c58c-4f64-861a-86afe4b0a9bf","system_id":"levelo_inurba_marseille","lat":43.304188,"lon":5.412904,"is_reserved":false,"is_disabled":false,"rental_uris":{"android":"levelo://app?vid=5a8b8605-c58c-4f64-861a-86afe4b0a9bf","ios":"levelo://app?vid=5a8b8605-c58c-4f64-861a-86afe4b0a9bf"},"vehicle_type_id":"4","last_reported":1686956800,"current_range_meters":6800,"station_id":"ce4bhop2rcd13ifvqh8g","pricing_plan_id":"free"},{"bike_id":"f1f5e810-e5bd-4704-a74f-9438e0035fb0","system_id":"levelo_inurba_marseille","lat":43.27901,"lon":5.3801,"is_reserved":false,"is_disabled":false,"rental_uris":{"android":"levelo://app?vid=f1f5e810-e5bd-4704-a74f-9438e0035fb0","ios":"levelo://app?vid=f1f5e810-e5bd-4704-a74f-9438e0035fb0"},"vehicle_type_id":"4","last_reported":1686956800,"current_range_meters":18400,"station_id":"","pricing_plan_id":"free"},{"bike_id":"f6ef4476-5e99-4db4-97b2-11e013f686dd","system_id":"levelo_inurba_marseille","lat":43.27899,"lon":5.38003,"is_reserved":false,"is_disabled":false,"rental_uris":{"android":"levelo://app?vid=f6ef4476-5e99-4db4-97b2-11e013f686dd","ios":"levelo://app?vid=f6ef4476-5e99-4db4-97b2-11e013f686dd"},"vehicle_type_id":"4","last_reported":1686956800,"current_range_meters":800,"station_id":"","pricing_plan_id":"free"},{"bike_id":"78ee79ad-62b9-4afb-aae1-892fa768ba15","system_id":"levelo_inurba_marseille","lat":43.27901,"lon":5.38013,"is_reserved":false,"is_disabled":false,"rental_uris":{"android":"levelo://app?vid=78ee79ad-62b9-4afb-aae1-892fa768ba15","ios":"levelo://app?vid=78ee79ad-62b9-4afb-aae1-892fa768ba15"},"vehicle_type_id":"4","last_reported":1686956800,"current_range_meters":20400,"station_id":"","pricing_plan_id":"free"},{"bike_id":"074e9e20-a229-4cfa-9108-2e7815f15e4a","system_id":"levelo_inurba_marseille","lat":43.28715,"lon":5.39992,"is_reserved":false,"is_disabled":false,"rental_uris":{"android":"levelo://app?vid=074e9e20-a229-4cfa-9108-2e7815f15e4a","ios":"levelo://app?vid=074e9e20-a229-4cfa-9108-2e7815f15e4a"},"vehicle_type_id":"4","last_reported":1686956800,"current_range_meters":31200,"station_id":"ce4bho92rcd13ifvqh3g","pricing_plan_id":"free"},{"bike_id":"a541f1e9-ae14-4606-910b-c135d5b27ea6","system_id":"levelo_inurba_marseille","lat":43.287154,"lon":5.399979,"is_reserved":false,"is_disabled":false,"rental_uris":{"android":"levelo://app?vid=a541f1e9-ae14-4606-910b-c135d5b27ea6","ios":"levelo://app?vid=a541f1e9-ae14-4606-910b-c135d5b27ea6"},"vehicle_type_id":"4","last_reported":1686956800,"current_range_meters":4000,"station_id":"ce4bho92rcd13ifvqh3g","pricing_plan_id":"free"},{"bike_id":"abba509f-e19d-4daa-8f93-db976c2c6a99","system_id":"levelo_inurba_marseille","lat":43.287154,"lon":5.399979,"is_reserved":false,"is_disabled":false,"rental_uris":{"android":"levelo://app?vid=abba509f-e19d-4daa-8f93-db976c2c6a99","ios":"levelo://app?vid=abba509f-e19d-4daa-8f93-db976c2c6a99"},"vehicle_type_id":"4","last_reported":1686956800,"current_range_meters":25200,"station_id":"ce4bho92rcd13ifvqh3g","pricing_plan_id":"free"},{"bike_id":"4904a921-3a40-4dad-ba7e-953b6c29060d","system_id":"levelo_inurba_marseille","lat":43.287154,"lon":5.399979,"is_reserved":false,"is_disabled":false,"rental_uris":{"android":"levelo://app?vid=4904a921-3a40-4dad-ba7e-953b6c29060d","ios":"levelo://app?vid=4904a921-3a40-4dad-ba7e-953b6c29060d"},"vehicle_type_id":"4","last_reported":1686956800,"current_range_meters":18400,"station_id":"ce4bho92rcd13ifvqh3g","pricing_plan_id":"free"},{"bike_id":"b5974d0e-6cf2-4910-903d-2adfa411156c","system_id":"levelo_inurba_marseille","lat":43.287154,"lon":5.399979,"is_reserved":false,"is_disabled":false,"rental_uris":{"android":"levelo://app?vid=b5974d0e-6cf2-4910-903d-2adfa411156c","ios":"levelo://app?vid=b5974d0e-6cf2-4910-903d-2adfa411156c"},"vehicle_type_id":"4","last_reported":1686956800,"current_range_meters":19600,"station_id":"ce4bho92rcd13ifvqh3g","pricing_plan_id":"free"},{"bike_id":"469f93e3-603b-44dd-85fb-4b2f6596b0a8","system_id":"levelo_inurba_marseille","lat":43.287154,"lon":5.399979,"is_reserved":false,"is_disabled":false,"rental_uris":{"android":"levelo://app?vid=469f93e3-603b-44dd-85fb-4b2f6596b0a8","ios":"levelo://app?vid=469f93e3-603b-44dd-85fb-4b2f6596b0a8"},"vehicle_type_id":"4","last_reported":1686956800,"current_range_meters":3200,"station_id":"ce4bho92rcd13ifvqh3g","pricing_plan_id":"free"},{"bike_id":"46310828-f50b-47ff-b7ed-88a399207bd3","system_id":"levelo_inurba_marseille","lat":43.287022,"lon":5.40018,"is_reserved":false,"is_disabled":false,"rental_uris":{"android":"levelo://app?vid=46310828-f50b-47ff-b7ed-88a399207bd3","ios":"levelo://app?vid=46310828-f50b-47ff-b7ed-88a399207bd3"},"vehicle_type_id":"4","last_reported":1686956800,"current_range_meters":31200,"station_id":"ce4bho92rcd13ifvqh3g","pricing_plan_id":"free"},{"bike_id":"3f5ac565-c8a5-42dd-b980-eeb59bac77e9","system_id":"levelo_inurba_marseille","lat":43.27963,"lon":5.38726,"is_reserved":false,"is_disabled":false,"rental_uris":{"android":"levelo://app?vid=3f5ac565-c8a5-42dd-b980-eeb59bac77e9","ios":"levelo://app?vid=3f5ac565-c8a5-42dd-b980-eeb59bac77e9"},"vehicle_type_id":"4","last_reported":1686956800,"current_range_meters":8800,"station_id":"ce4bhg12rcd13ifvqf80","pricing_plan_id":"free"},{"bike_id":"d85ac94f-9fdb-4ed4-ae60-6062e8d4d87e","system_id":"levelo_inurba_marseille","lat":43.292569,"lon":5.409107,"is_reserved":false,"is_disabled":false,"rental_uris":{"android":"levelo://app?vid=d85ac94f-9fdb-4ed4-ae60-6062e8d4d87e","ios":"levelo://app?vid=d85ac94f-9fdb-4ed4-ae60-6062e8d4d87e"},"vehicle_type_id":"4","last_reported":1686956800,"current_range_meters":2400,"station_id":"ce4bh192rcd13ifvqdc0","pricing_plan_id":"free"},{"bike_id":"aae0aeca-8666-498b-8282-b2676eb50268","system_id":"levelo_inurba_marseille","lat":43.276179,"lon":5.361009,"is_reserved":false,"is_disabled":false,"rental_uris":{"android":"levelo://app?vid=aae0aeca-8666-498b-8282-b2676eb50268","ios":"levelo://app?vid=aae0aeca-8666-498b-8282-b2676eb50268"},"vehicle_type_id":"4","last_reported":1686956800,"current_range_meters":30800,"station_id":"ce4bgj92rcd13ifvqbe0","pricing_plan_id":"free"},{"bike_id":"6fcccb3d-41f3-4382-ba98-08736085e8c5","system_id":"levelo_inurba_marseille","lat":43.27613,"lon":5.36107,"is_reserved":false,"is_disabled":false,"rental_uris":{"android":"levelo://app?vid=6fcccb3d-41f3-4382-ba98-08736085e8c5","ios":"levelo://app?vid=6fcccb3d-41f3-4382-ba98-08736085e8c5"},"vehicle_type_id":"4","last_reported":1686956800,"current_range_meters":31200,"station_id":"ce4bgj92rcd13ifvqbe0","pricing_plan_id":"free"},{"bike_id":"6d1bbe17-ca62-4b09-9155-47eff896e3e5","system_id":"levelo_inurba_marseille","lat":43.28077,"lon":5.39659,"is_reserved":false,"is_disabled":false,"rental_uris":{"android":"levelo://app?vid=6d1bbe17-ca62-4b09-9155-47eff896e3e5","ios":"levelo://app?vid=6d1bbe17-ca62-4b09-9155-47eff896e3e5"},"vehicle_type_id":"4","last_reported":1686956800,"current_range_meters":23600,"station_id":"ce4bho12rcd13ifvqh2g","pricing_plan_id":"free"},{"bike_id":"24f28e11-fe7d-4bee-9035-93aa31c5bdc5","system_id":"levelo_inurba_marseille","lat":43.280784,"lon":5.396622,"is_reserved":false,"is_disabled":false,"rental_uris":{"android":"levelo://app?vid=24f28e11-fe7d-4bee-9035-93aa31c5bdc5","ios":"levelo://app?vid=24f28e11-fe7d-4bee-9035-93aa31c5bdc5"},"vehicle_type_id":"4","last_reported":1686956800,"current_range_meters":22000,"station_id":"ce4bho12rcd13ifvqh2g","pricing_plan_id":"free"},{"bike_id":"2388aa98-ed4e-4c72-a835-59885366efd6","system_id":"levelo_inurba_marseille","lat":43.30354,"lon":5.41877,"is_reserved":false,"is_disabled":false,"rental_uris":{"android":"levelo://app?vid=2388aa98-ed4e-4c72-a835-59885366efd6","ios":"levelo://app?vid=2388aa98-ed4e-4c72-a835-59885366efd6"},"vehicle_type_id":"4","last_reported":1686956800,"current_range_meters":9200,"station_id":"","pricing_plan_id":"free"},{"bike_id":"e336abfd-2939-4de5-96f8-2e2d1ead4bc0","system_id":"levelo_inurba_marseille","lat":43.303837,"lon":5.418724,"is_reserved":false,"is_disabled":false,"rental_uris":{"android":"levelo://app?vid=e336abfd-2939-4de5-96f8-2e2d1ead4bc0","ios":"levelo://app?vid=e336abfd-2939-4de5-96f8-2e2d1ead4bc0"},"vehicle_type_id":"4","last_reported":1686956800,"current_range_meters":6800,"station_id":"ce4bhop2rcd13ifvqh7g","pricing_plan_id":"free"},{"bike_id":"381c6f25-c7b9-447c-aec6-a5592aac017e","system_id":"levelo_inurba_marseille","lat":43.278399,"lon":5.392139,"is_reserved":false,"is_disabled":false,"rental_uris":{"android":"levelo://app?vid=381c6f25-c7b9-447c-aec6-a5592aac017e","ios":"levelo://app?vid=381c6f25-c7b9-447c-aec6-a5592aac017e"},"vehicle_type_id":"4","last_reported":1686956800,"current_range_meters":31200,"station_id":"ce4bhjp2rcd13ifvqga0","pricing_plan_id":"free"},{"bike_id":"b128b94a-ee64-4e94-9762-2d8504b711a0","system_id":"levelo_inurba_marseille","lat":43.278399,"lon":5.392139,"is_reserved":false,"is_disabled":false,"rental_uris":{"android":"levelo://app?vid=b128b94a-ee64-4e94-9762-2d8504b711a0","ios":"levelo://app?vid=b128b94a-ee64-4e94-9762-2d8504b711a0"},"vehicle_type_id":"4","last_reported":1686956800,"current_range_meters":21200,"station_id":"ce4bhjp2rcd13ifvqga0","pricing_plan_id":"free"},{"bike_id":"2a469a93-d1e2-4817-8e39-b09c7557be7b","system_id":"levelo_inurba_marseille","lat":43.273613,"lon":5.362705,"is_reserved":false,"is_disabled":false,"rental_uris":{"android":"levelo://app?vid=2a469a93-d1e2-4817-8e39-b09c7557be7b","ios":"levelo://app?vid=2a469a93-d1e2-4817-8e39-b09c7557be7b"},"vehicle_type_id":"4","last_reported":1686956800,"current_range_meters":26800,"station_id":"ce4bhbh2rcd13ifvqeo0","pricing_plan_id":"free"},{"bike_id":"fddded41-1f18-46e6-9307-6083692dee9b","system_id":"levelo_inurba_marseille","lat":43.33612,"lon":5.410321,"is_reserved":false,"is_disabled":false,"rental_uris":{"android":"levelo://app?vid=fddded41-1f18-46e6-9307-6083692dee9b","ios":"levelo://app?vid=fddded41-1f18-46e6-9307-6083692dee9b"},"vehicle_type_id":"4","last_reported":1686956800,"current_range_meters":18000,"station_id":"ce4bhqh2rcd13ifvqhmg","pricing_plan_id":"free"},{"bike_id":"c9a58cb1-73dd-4294-8881-af8c21e92dd4","system_id":"levelo_inurba_marseille","lat":43.275625,"lon":5.384392,"is_reserved":false,"is_disabled":false,"rental_uris":{"android":"levelo://app?vid=c9a58cb1-73dd-4294-8881-af8c21e92dd4","ios":"levelo://app?vid=c9a58cb1-73dd-4294-8881-af8c21e92dd4"},"vehicle_type_id":"4","last_reported":1686956800,"current_range_meters":31200,"station_id":"ce4bhh92rcd13ifvqfi0","pricing_plan_id":"free"},{"bike_id":"1ee3a71a-1c80-4688-8612-2a2ed7693ac6","system_id":"levelo_inurba_marseille","lat":43.273609,"lon":5.362708,"is_reserved":false,"is_disabled":false,"rental_uris":{"android":"levelo://app?vid=1ee3a71a-1c80-4688-8612-2a2ed7693ac6","ios":"levelo://app?vid=1ee3a71a-1c80-4688-8612-2a2ed7693ac6"},"vehicle_type_id":"4","last_reported":1686956800,"current_range_meters":30400,"station_id":"ce4bhbh2rcd13ifvqeo0","pricing_plan_id":"free"},{"bike_id":"06041c88-51c9-4357-b94c-236f772d1efb","system_id":"levelo_inurba_marseille","lat":43.33603,"lon":5.41031,"is_reserved":false,"is_disabled":false,"rental_uris":{"android":"levelo://app?vid=06041c88-51c9-4357-b94c-236f772d1efb","ios":"levelo://app?vid=06041c88-51c9-4357-b94c-236f772d1efb"},"vehicle_type_id":"4","last_reported":1686956800,"current_range_meters":400,"station_id":"ce4bhqh2rcd13ifvqhmg","pricing_plan_id":"free"},{"bike_id":"381b217b-5ce9-40b4-85ab-306435a59afe","system_id":"levelo_inurba_marseille","lat":43.336134,"lon":5.410341,"is_reserved":false,"is_disabled":false,"rental_uris":{"android":"levelo://app?vid=381b217b-5ce9-40b4-85ab-306435a59afe","ios":"levelo://app?vid=381b217b-5ce9-40b4-85ab-306435a59afe"},"vehicle_type_id":"4","last_reported":1686956800,"current_range_meters":27600,"station_id":"ce4bhqh2rcd13ifvqhmg","pricing_plan_id":"free"},{"bike_id":"50688f63-f186-4631-9b94-46b238405c8a","system_id":"levelo_inurba_marseille","lat":43.276769,"lon":5.388787,"is_reserved":false,"is_disabled":false,"rental_uris":{"android":"levelo://app?vid=50688f63-f186-4631-9b94-46b238405c8a","ios":"levelo://app?vid=50688f63-f186-4631-9b94-46b238405c8a"},"vehicle_type_id":"4","last_reported":1686956800,"current_range_meters":31200,"station_id":"ce4bhi12rcd13ifvqfo0","pricing_plan_id":"free"},{"bike_id":"073d6a4c-fcb7-4972-a534-6028dd4afa10","system_id":"levelo_inurba_marseille","lat":43.276769,"lon":5.388787,"is_reserved":false,"is_disabled":false,"rental_uris":{"android":"levelo://app?vid=073d6a4c-fcb7-4972-a534-6028dd4afa10","ios":"levelo://app?vid=073d6a4c-fcb7-4972-a534-6028dd4afa10"},"vehicle_type_id":"4","last_reported":1686956800,"current_range_meters":31200,"station_id":"ce4bhi12rcd13ifvqfo0","pricing_plan_id":"free"},{"bike_id":"486f46d4-77e1-49c9-9d8e-a4de8a538725","system_id":"levelo_inurba_marseille","lat":43.276769,"lon":5.388787,"is_reserved":false,"is_disabled":false,"rental_uris":{"android":"levelo://app?vid=486f46d4-77e1-49c9-9d8e-a4de8a538725","ios":"levelo://app?vid=486f46d4-77e1-49c9-9d8e-a4de8a538725"},"vehicle_type_id":"4","last_reported":1686956800,"current_range_meters":31200,"station_id":"ce4bhi12rcd13ifvqfo0","pricing_plan_id":"free"},{"bike_id":"bccf2933-77c1-4256-8f68-8b2138e02159","system_id":"levelo_inurba_marseille","lat":43.276769,"lon":5.388787,"is_reserved":false,"is_disabled":false,"rental_uris":{"android":"levelo://app?vid=bccf2933-77c1-4256-8f68-8b2138e02159","ios":"levelo://app?vid=bccf2933-77c1-4256-8f68-8b2138e02159"},"vehicle_type_id":"4","last_reported":1686956800,"current_range_meters":0,"station_id":"ce4bhi12rcd13ifvqfo0","pricing_plan_id":"free"},{"bike_id":"b7c90117-1c4e-4c6b-a4a5-0ecefef8ef53","system_id":"levelo_inurba_marseille","lat":43.276771,"lon":5.388799,"is_reserved":false,"is_disabled":false,"rental_uris":{"android":"levelo://app?vid=b7c90117-1c4e-4c6b-a4a5-0ecefef8ef53","ios":"levelo://app?vid=b7c90117-1c4e-4c6b-a4a5-0ecefef8ef53"},"vehicle_type_id":"4","last_reported":1686956800,"current_range_meters":31200,"station_id":"ce4bhi12rcd13ifvqfo0","pricing_plan_id":"free"},{"bike_id":"b51a9f5a-f163-44c4-91c8-c0efcf63b47e","system_id":"levelo_inurba_marseille","lat":43.276771,"lon":5.388799,"is_reserved":false,"is_disabled":false,"rental_uris":{"android":"levelo://app?vid=b51a9f5a-f163-44c4-91c8-c0efcf63b47e","ios":"levelo://app?vid=b51a9f5a-f163-44c4-91c8-c0efcf63b47e"},"vehicle_type_id":"4","last_reported":1686956800,"current_range_meters":31200,"station_id":"ce4bhi12rcd13ifvqfo0","pricing_plan_id":"free"},{"bike_id":"861efe2f-a5c0-4ddd-b5cd-4bc2c13db759","system_id":"levelo_inurba_marseille","lat":43.27658,"lon":5.38899,"is_reserved":false,"is_disabled":false,"rental_uris":{"android":"levelo://app?vid=861efe2f-a5c0-4ddd-b5cd-4bc2c13db759","ios":"levelo://app?vid=861efe2f-a5c0-4ddd-b5cd-4bc2c13db759"},"vehicle_type_id":"4","last_reported":1686956800,"current_range_meters":31200,"station_id":"","pricing_plan_id":"free"},{"bike_id":"d924a432-9541-41dc-8775-e19175f75871","system_id":"levelo_inurba_marseille","lat":43.31084,"lon":5.42432,"is_reserved":false,"is_disabled":false,"rental_uris":{"android":"levelo://app?vid=d924a432-9541-41dc-8775-e19175f75871","ios":"levelo://app?vid=d924a432-9541-41dc-8775-e19175f75871"},"vehicle_type_id":"4","last_reported":1686956800,"current_range_meters":16000,"station_id":"ce4bhp92rcd13ifvqhag","pricing_plan_id":"free"},{"bike_id":"f82c4e0b-ce86-4de4-962b-f266d6ba506e","system_id":"levelo_inurba_marseille","lat":43.273125,"lon":5.390731,"is_reserved":false,"is_disabled":false,"rental_uris":{"android":"levelo://app?vid=f82c4e0b-ce86-4de4-962b-f266d6ba506e","ios":"levelo://app?vid=f82c4e0b-ce86-4de4-962b-f266d6ba506e"},"vehicle_type_id":"4","last_reported":1686956800,"current_range_meters":28400,"station_id":"ce4bhgp2rcd13ifvqfe0","pricing_plan_id":"free"},{"bike_id":"1a39b94d-9254-417e-a136-7ad84f7845e8","system_id":"levelo_inurba_marseille","lat":43.27323,"lon":5.39084,"is_reserved":false,"is_disabled":false,"rental_uris":{"android":"levelo://app?vid=1a39b94d-9254-417e-a136-7ad84f7845e8","ios":"levelo://app?vid=1a39b94d-9254-417e-a136-7ad84f7845e8"},"vehicle_type_id":"4","last_reported":1686956800,"current_range_meters":31200,"station_id":"ce4bhgp2rcd13ifvqfe0","pricing_plan_id":"free"},{"bike_id":"a5426c21-d201-4cb6-ae2a-50ef71853308","system_id":"levelo_inurba_marseille","lat":43.273125,"lon":5.390731,"is_reserved":false,"is_disabled":false,"rental_uris":{"android":"levelo://app?vid=a5426c21-d201-4cb6-ae2a-50ef71853308","ios":"levelo://app?vid=a5426c21-d201-4cb6-ae2a-50ef71853308"},"vehicle_type_id":"4","last_reported":1686956800,"current_range_meters":24000,"station_id":"ce4bhgp2rcd13ifvqfe0","pricing_plan_id":"free"},{"bike_id":"32019446-a3b3-4de2-98ec-ec1931c6041e","system_id":"levelo_inurba_marseille","lat":43.273125,"lon":5.390731,"is_reserved":false,"is_disabled":false,"rental_uris":{"android":"levelo://app?vid=32019446-a3b3-4de2-98ec-ec1931c6041e","ios":"levelo://app?vid=32019446-a3b3-4de2-98ec-ec1931c6041e"},"vehicle_type_id":"4","last_reported":1686956800,"current_range_meters":20800,"station_id":"ce4bhgp2rcd13ifvqfe0","pricing_plan_id":"free"},{"bike_id":"70577519-c84b-442a-a090-99fb8bcfcb06","system_id":"levelo_inurba_marseille","lat":43.273129,"lon":5.390725,"is_reserved":false,"is_disabled":false,"rental_uris":{"android":"levelo://app?vid=70577519-c84b-442a-a090-99fb8bcfcb06","ios":"levelo://app?vid=70577519-c84b-442a-a090-99fb8bcfcb06"},"vehicle_type_id":"4","last_reported":1686956800,"current_range_meters":7200,"station_id":"ce4bhgp2rcd13ifvqfe0","pricing_plan_id":"free"},{"bike_id":"54b66a99-b1fa-4aaf-9f0c-308ece62f05e","system_id":"levelo_inurba_marseille","lat":43.273129,"lon":5.390725,"is_reserved":false,"is_disabled":false,"rental_uris":{"android":"levelo://app?vid=54b66a99-b1fa-4aaf-9f0c-308ece62f05e","ios":"levelo://app?vid=54b66a99-b1fa-4aaf-9f0c-308ece62f05e"},"vehicle_type_id":"4","last_reported":1686956800,"current_range_meters":28400,"station_id":"ce4bhgp2rcd13ifvqfe0","pricing_plan_id":"free"},{"bike_id":"91176743-7e5d-44e4-8e63-0dce9eca9eeb","system_id":"levelo_inurba_marseille","lat":43.27419,"lon":5.39406,"is_reserved":false,"is_disabled":false,"rental_uris":{"android":"levelo://app?vid=91176743-7e5d-44e4-8e63-0dce9eca9eeb","ios":"levelo://app?vid=91176743-7e5d-44e4-8e63-0dce9eca9eeb"},"vehicle_type_id":"4","last_reported":1686956800,"current_range_meters":17200,"station_id":"","pricing_plan_id":"free"},{"bike_id":"fe4eb1e6-6ad9-4496-95fd-7daa31236351","system_id":"levelo_inurba_marseille","lat":43.295511,"lon":5.422926,"is_reserved":false,"is_disabled":false,"rental_uris":{"android":"levelo://app?vid=fe4eb1e6-6ad9-4496-95fd-7daa31236351","ios":"levelo://app?vid=fe4eb1e6-6ad9-4496-95fd-7daa31236351"},"vehicle_type_id":"4","last_reported":1686956800,"current_range_meters":30400,"station_id":"ce4bhph2rcd13ifvqhdg","pricing_plan_id":"free"},{"bike_id":"aeafe444-f0b4-45c3-8f37-7deb6ba4be0b","system_id":"levelo_inurba_marseille","lat":43.278128,"lon":5.407195,"is_reserved":false,"is_disabled":false,"rental_uris":{"android":"levelo://app?vid=aeafe444-f0b4-45c3-8f37-7deb6ba4be0b","ios":"levelo://app?vid=aeafe444-f0b4-45c3-8f37-7deb6ba4be0b"},"vehicle_type_id":"4","last_reported":1686956800,"current_range_meters":16800,"station_id":"ce4bhnh2rcd13ifvqgtg","pricing_plan_id":"free"},{"bike_id":"bb479b71-f33e-424f-aaf0-2397de19ade3","system_id":"levelo_inurba_marseille","lat":43.278128,"lon":5.407195,"is_reserved":false,"is_disabled":false,"rental_uris":{"android":"levelo://app?vid=bb479b71-f33e-424f-aaf0-2397de19ade3","ios":"levelo://app?vid=bb479b71-f33e-424f-aaf0-2397de19ade3"},"vehicle_type_id":"4","last_reported":1686956800,"current_range_meters":30000,"station_id":"ce4bhnh2rcd13ifvqgtg","pricing_plan_id":"free"},{"bike_id":"6347f125-cc2a-46bc-9c37-54be69c511a1","system_id":"levelo_inurba_marseille","lat":43.278128,"lon":5.407195,"is_reserved":false,"is_disabled":false,"rental_uris":{"android":"levelo://app?vid=6347f125-cc2a-46bc-9c37-54be69c511a1","ios":"levelo://app?vid=6347f125-cc2a-46bc-9c37-54be69c511a1"},"vehicle_type_id":"4","last_reported":1686956800,"current_range_meters":28000,"station_id":"ce4bhnh2rcd13ifvqgtg","pricing_plan_id":"free"},{"bike_id":"4315823b-b2d3-4830-80e6-52822cbeedc3","system_id":"levelo_inurba_marseille","lat":43.269467,"lon":5.386439,"is_reserved":false,"is_disabled":false,"rental_uris":{"android":"levelo://app?vid=4315823b-b2d3-4830-80e6-52822cbeedc3","ios":"levelo://app?vid=4315823b-b2d3-4830-80e6-52822cbeedc3"},"vehicle_type_id":"4","last_reported":1686956800,"current_range_meters":31200,"station_id":"ce4bhh92rcd13ifvqfh0","pricing_plan_id":"free"},{"bike_id":"50760438-3870-48fd-9f53-f940a5ce97c2","system_id":"levelo_inurba_marseille","lat":43.269467,"lon":5.386439,"is_reserved":false,"is_disabled":false,"rental_uris":{"android":"levelo://app?vid=50760438-3870-48fd-9f53-f940a5ce97c2","ios":"levelo://app?vid=50760438-3870-48fd-9f53-f940a5ce97c2"},"vehicle_type_id":"4","last_reported":1686956800,"current_range_meters":31200,"station_id":"ce4bhh92rcd13ifvqfh0","pricing_plan_id":"free"},{"bike_id":"8c2fa0fd-469f-4863-b4d5-5c704125a8cc","system_id":"levelo_inurba_marseille","lat":43.269467,"lon":5.386439,"is_reserved":false,"is_disabled":false,"rental_uris":{"android":"levelo://app?vid=8c2fa0fd-469f-4863-b4d5-5c704125a8cc","ios":"levelo://app?vid=8c2fa0fd-469f-4863-b4d5-5c704125a8cc"},"vehicle_type_id":"4","last_reported":1686956800,"current_range_meters":31200,"station_id":"ce4bhh92rcd13ifvqfh0","pricing_plan_id":"free"},{"bike_id":"eca4f2bf-5c59-4a74-ac07-2347a2dc8878","system_id":"levelo_inurba_marseille","lat":43.2695,"lon":5.38636,"is_reserved":false,"is_disabled":false,"rental_uris":{"android":"levelo://app?vid=eca4f2bf-5c59-4a74-ac07-2347a2dc8878","ios":"levelo://app?vid=eca4f2bf-5c59-4a74-ac07-2347a2dc8878"},"vehicle_type_id":"4","last_reported":1686956800,"current_range_meters":31200,"station_id":"ce4bhh92rcd13ifvqfh0","pricing_plan_id":"free"},{"bike_id":"587b7b96-6c1c-48d8-8177-bb3a4836a228","system_id":"levelo_inurba_marseille","lat":43.269319,"lon":5.389397,"is_reserved":false,"is_disabled":false,"rental_uris":{"android":"levelo://app?vid=587b7b96-6c1c-48d8-8177-bb3a4836a228","ios":"levelo://app?vid=587b7b96-6c1c-48d8-8177-bb3a4836a228"},"vehicle_type_id":"4","last_reported":1686956800,"current_range_meters":28000,"station_id":"ce4bhhh2rcd13ifvqfl0","pricing_plan_id":"free"},{"bike_id":"19bdaddd-7baf-41cd-8f4a-a44e0f90e336","system_id":"levelo_inurba_marseille","lat":43.269319,"lon":5.389397,"is_reserved":false,"is_disabled":false,"rental_uris":{"android":"levelo://app?vid=19bdaddd-7baf-41cd-8f4a-a44e0f90e336","ios":"levelo://app?vid=19bdaddd-7baf-41cd-8f4a-a44e0f90e336"},"vehicle_type_id":"4","last_reported":1686956800,"current_range_meters":28800,"station_id":"ce4bhhh2rcd13ifvqfl0","pricing_plan_id":"free"},{"bike_id":"076dd0c1-da2c-4112-aef9-9c118a8ef2b3","system_id":"levelo_inurba_marseille","lat":43.26694,"lon":5.3827,"is_reserved":false,"is_disabled":false,"rental_uris":{"android":"levelo://app?vid=076dd0c1-da2c-4112-aef9-9c118a8ef2b3","ios":"levelo://app?vid=076dd0c1-da2c-4112-aef9-9c118a8ef2b3"},"vehicle_type_id":"4","last_reported":1686956800,"current_range_meters":2800,"station_id":"ce4bhg92rcd13ifvqf90","pricing_plan_id":"free"},{"bike_id":"08ef1fb7-7b5e-4fd7-84db-b6da78b62b54","system_id":"levelo_inurba_marseille","lat":43.2669,"lon":5.38276,"is_reserved":false,"is_disabled":false,"rental_uris":{"android":"levelo://app?vid=08ef1fb7-7b5e-4fd7-84db-b6da78b62b54","ios":"levelo://app?vid=08ef1fb7-7b5e-4fd7-84db-b6da78b62b54"},"vehicle_type_id":"4","last_reported":1686956800,"current_range_meters":0,"station_id":"ce4bhg92rcd13ifvqf90","pricing_plan_id":"free"},{"bike_id":"cfba2fbe-9ed5-423f-b411-8d6c38451715","system_id":"levelo_inurba_marseille","lat":43.26682,"lon":5.38267,"is_reserved":false,"is_disabled":false,"rental_uris":{"android":"levelo://app?vid=cfba2fbe-9ed5-423f-b411-8d6c38451715","ios":"levelo://app?vid=cfba2fbe-9ed5-423f-b411-8d6c38451715"},"vehicle_type_id":"4","last_reported":1686956800,"current_range_meters":31200,"station_id":"ce4bhg92rcd13ifvqf90","pricing_plan_id":"free"},{"bike_id":"3c36f439-1a24-48f8-ab55-e1c693333192","system_id":"levelo_inurba_marseille","lat":43.26682,"lon":5.38269,"is_reserved":false,"is_disabled":false,"rental_uris":{"android":"levelo://app?vid=3c36f439-1a24-48f8-ab55-e1c693333192","ios":"levelo://app?vid=3c36f439-1a24-48f8-ab55-e1c693333192"},"vehicle_type_id":"4","last_reported":1686956800,"current_range_meters":31200,"station_id":"ce4bhg92rcd13ifvqf90","pricing_plan_id":"free"},{"bike_id":"79c99247-1128-43cb-9015-93c15d2bb2fe","system_id":"levelo_inurba_marseille","lat":43.26681,"lon":5.382694,"is_reserved":false,"is_disabled":false,"rental_uris":{"android":"levelo://app?vid=79c99247-1128-43cb-9015-93c15d2bb2fe","ios":"levelo://app?vid=79c99247-1128-43cb-9015-93c15d2bb2fe"},"vehicle_type_id":"4","last_reported":1686956800,"current_range_meters":31200,"station_id":"ce4bhg92rcd13ifvqf90","pricing_plan_id":"free"},{"bike_id":"463c326f-73c9-423c-967a-feb827919fdc","system_id":"levelo_inurba_marseille","lat":43.26679,"lon":5.38269,"is_reserved":false,"is_disabled":false,"rental_uris":{"android":"levelo://app?vid=463c326f-73c9-423c-967a-feb827919fdc","ios":"levelo://app?vid=463c326f-73c9-423c-967a-feb827919fdc"},"vehicle_type_id":"4","last_reported":1686956800,"current_range_meters":30800,"station_id":"ce4bhg92rcd13ifvqf90","pricing_plan_id":"free"},{"bike_id":"15ec3f5b-2b3a-4805-85fc-5061a84ccf17","system_id":"levelo_inurba_marseille","lat":43.26678,"lon":5.38266,"is_reserved":false,"is_disabled":false,"rental_uris":{"android":"levelo://app?vid=15ec3f5b-2b3a-4805-85fc-5061a84ccf17","ios":"levelo://app?vid=15ec3f5b-2b3a-4805-85fc-5061a84ccf17"},"vehicle_type_id":"4","last_reported":1686956800,"current_range_meters":31200,"station_id":"ce4bhg92rcd13ifvqf90","pricing_plan_id":"free"},{"bike_id":"131412c0-90cc-45ab-bdac-a4f2b3a3bc1e","system_id":"levelo_inurba_marseille","lat":43.26681,"lon":5.382694,"is_reserved":false,"is_disabled":false,"rental_uris":{"android":"levelo://app?vid=131412c0-90cc-45ab-bdac-a4f2b3a3bc1e","ios":"levelo://app?vid=131412c0-90cc-45ab-bdac-a4f2b3a3bc1e"},"vehicle_type_id":"4","last_reported":1686956800,"current_range_meters":31200,"station_id":"ce4bhg92rcd13ifvqf90","pricing_plan_id":"free"},{"bike_id":"6275aaca-a354-407f-be44-df40f2969d44","system_id":"levelo_inurba_marseille","lat":43.26674,"lon":5.38272,"is_reserved":false,"is_disabled":false,"rental_uris":{"android":"levelo://app?vid=6275aaca-a354-407f-be44-df40f2969d44","ios":"levelo://app?vid=6275aaca-a354-407f-be44-df40f2969d44"},"vehicle_type_id":"4","last_reported":1686956800,"current_range_meters":31200,"station_id":"ce4bhg92rcd13ifvqf90","pricing_plan_id":"free"},{"bike_id":"14fbcf64-2810-4b99-970a-15ad90e46f10","system_id":"levelo_inurba_marseille","lat":43.27996,"lon":5.416624,"is_reserved":false,"is_disabled":false,"rental_uris":{"android":"levelo://app?vid=14fbcf64-2810-4b99-970a-15ad90e46f10","ios":"levelo://app?vid=14fbcf64-2810-4b99-970a-15ad90e46f10"},"vehicle_type_id":"4","last_reported":1686956800,"current_range_meters":30000,"station_id":"ce4bho12rcd13ifvqh1g","pricing_plan_id":"free"},{"bike_id":"e2c56f6c-10f9-4bee-bb05-11c219e97fc4","system_id":"levelo_inurba_marseille","lat":43.27996,"lon":5.416624,"is_reserved":false,"is_disabled":false,"rental_uris":{"android":"levelo://app?vid=e2c56f6c-10f9-4bee-bb05-11c219e97fc4","ios":"levelo://app?vid=e2c56f6c-10f9-4bee-bb05-11c219e97fc4"},"vehicle_type_id":"4","last_reported":1686956800,"current_range_meters":29600,"station_id":"ce4bho12rcd13ifvqh1g","pricing_plan_id":"free"},{"bike_id":"c163107f-e00c-44fc-b7d0-cda567d82569","system_id":"levelo_inurba_marseille","lat":43.27996,"lon":5.416624,"is_reserved":false,"is_disabled":false,"rental_uris":{"android":"levelo://app?vid=c163107f-e00c-44fc-b7d0-cda567d82569","ios":"levelo://app?vid=c163107f-e00c-44fc-b7d0-cda567d82569"},"vehicle_type_id":"4","last_reported":1686956800,"current_range_meters":24400,"station_id":"ce4bho12rcd13ifvqh1g","pricing_plan_id":"free"},{"bike_id":"c1de12a1-50d4-4f27-a030-42af0d28cd2a","system_id":"levelo_inurba_marseille","lat":43.27996,"lon":5.416624,"is_reserved":false,"is_disabled":false,"rental_uris":{"android":"levelo://app?vid=c1de12a1-50d4-4f27-a030-42af0d28cd2a","ios":"levelo://app?vid=c1de12a1-50d4-4f27-a030-42af0d28cd2a"},"vehicle_type_id":"4","last_reported":1686956800,"current_range_meters":30000,"station_id":"ce4bho12rcd13ifvqh1g","pricing_plan_id":"free"},{"bike_id":"27555105-c2d2-4fc3-a139-bd6e522cbc91","system_id":"levelo_inurba_marseille","lat":43.27996,"lon":5.416624,"is_reserved":false,"is_disabled":false,"rental_uris":{"android":"levelo://app?vid=27555105-c2d2-4fc3-a139-bd6e522cbc91","ios":"levelo://app?vid=27555105-c2d2-4fc3-a139-bd6e522cbc91"},"vehicle_type_id":"4","last_reported":1686956800,"current_range_meters":0,"station_id":"ce4bho12rcd13ifvqh1g","pricing_plan_id":"free"},{"bike_id":"eb6dc0d2-827c-4b4b-8859-88c38c911d12","system_id":"levelo_inurba_marseille","lat":43.26784,"lon":5.3941,"is_reserved":false,"is_disabled":false,"rental_uris":{"android":"levelo://app?vid=eb6dc0d2-827c-4b4b-8859-88c38c911d12","ios":"levelo://app?vid=eb6dc0d2-827c-4b4b-8859-88c38c911d12"},"vehicle_type_id":"4","last_reported":1686956800,"current_range_meters":400,"station_id":"ce4bhh12rcd13ifvqfg0","pricing_plan_id":"free"},{"bike_id":"3987290e-fd4b-4f2b-81c0-57fca98f9cde","system_id":"levelo_inurba_marseille","lat":43.26786,"lon":5.39417,"is_reserved":false,"is_disabled":false,"rental_uris":{"android":"levelo://app?vid=3987290e-fd4b-4f2b-81c0-57fca98f9cde","ios":"levelo://app?vid=3987290e-fd4b-4f2b-81c0-57fca98f9cde"},"vehicle_type_id":"4","last_reported":1686956800,"current_range_meters":30800,"station_id":"ce4bhh12rcd13ifvqfg0","pricing_plan_id":"free"},{"bike_id":"e05a73a7-896d-430d-920f-7b1b2c8f5439","system_id":"levelo_inurba_marseille","lat":43.267966,"lon":5.393976,"is_reserved":false,"is_disabled":false,"rental_uris":{"android":"levelo://app?vid=e05a73a7-896d-430d-920f-7b1b2c8f5439","ios":"levelo://app?vid=e05a73a7-896d-430d-920f-7b1b2c8f5439"},"vehicle_type_id":"4","last_reported":1686956800,"current_range_meters":19200,"station_id":"ce4bhh12rcd13ifvqfg0","pricing_plan_id":"free"},{"bike_id":"5b795564-3282-4560-87e4-619e3c6d3c1a","system_id":"levelo_inurba_marseille","lat":43.265571,"lon":5.390032,"is_reserved":false,"is_disabled":false,"rental_uris":{"android":"levelo://app?vid=5b795564-3282-4560-87e4-619e3c6d3c1a","ios":"levelo://app?vid=5b795564-3282-4560-87e4-619e3c6d3c1a"},"vehicle_type_id":"4","last_reported":1686956800,"current_range_meters":7200,"station_id":"ce4bhe12rcd13ifvqf30","pricing_plan_id":"free"},{"bike_id":"a7763815-c428-4823-a1f1-7eb3c9184ee6","system_id":"levelo_inurba_marseille","lat":43.261782,"lon":5.374515,"is_reserved":false,"is_disabled":false,"rental_uris":{"android":"levelo://app?vid=a7763815-c428-4823-a1f1-7eb3c9184ee6","ios":"levelo://app?vid=a7763815-c428-4823-a1f1-7eb3c9184ee6"},"vehicle_type_id":"4","last_reported":1686956800,"current_range_meters":400,"station_id":"ce4bhgp2rcd13ifvqfc0","pricing_plan_id":"free"},{"bike_id":"6391ea03-bc0c-4216-886b-ec1a0bbd3963","system_id":"levelo_inurba_marseille","lat":43.31713,"lon":5.43708,"is_reserved":false,"is_disabled":false,"rental_uris":{"android":"levelo://app?vid=6391ea03-bc0c-4216-886b-ec1a0bbd3963","ios":"levelo://app?vid=6391ea03-bc0c-4216-886b-ec1a0bbd3963"},"vehicle_type_id":"4","last_reported":1686956800,"current_range_meters":11600,"station_id":"ce4bhp92rcd13ifvqhcg","pricing_plan_id":"free"},{"bike_id":"191fd450-a7e0-463d-b620-1328f7e85f3f","system_id":"levelo_inurba_marseille","lat":43.262012,"lon":5.379307,"is_reserved":false,"is_disabled":false,"rental_uris":{"android":"levelo://app?vid=191fd450-a7e0-463d-b620-1328f7e85f3f","ios":"levelo://app?vid=191fd450-a7e0-463d-b620-1328f7e85f3f"},"vehicle_type_id":"4","last_reported":1686956800,"current_range_meters":31200,"station_id":"ce4bhjp2rcd13ifvqg90","pricing_plan_id":"free"},{"bike_id":"1d6ad414-f440-435b-925f-80dabaa65f3a","system_id":"levelo_inurba_marseille","lat":43.271388,"lon":5.409269,"is_reserved":false,"is_disabled":false,"rental_uris":{"android":"levelo://app?vid=1d6ad414-f440-435b-925f-80dabaa65f3a","ios":"levelo://app?vid=1d6ad414-f440-435b-925f-80dabaa65f3a"},"vehicle_type_id":"4","last_reported":1686956800,"current_range_meters":2000,"station_id":"ce4bhl12rcd13ifvqgf0","pricing_plan_id":"free"},{"bike_id":"994a06b7-6a83-465e-94fa-29161181f580","system_id":"levelo_inurba_marseille","lat":43.271368,"lon":5.40928,"is_reserved":false,"is_disabled":false,"rental_uris":{"android":"levelo://app?vid=994a06b7-6a83-465e-94fa-29161181f580","ios":"levelo://app?vid=994a06b7-6a83-465e-94fa-29161181f580"},"vehicle_type_id":"4","last_reported":1686956800,"current_range_meters":4800,"station_id":"ce4bhl12rcd13ifvqgf0","pricing_plan_id":"free"},{"bike_id":"a198524d-5d0a-4964-8c83-d650548fb399","system_id":"levelo_inurba_marseille","lat":43.267959,"lon":5.402685,"is_reserved":false,"is_disabled":false,"rental_uris":{"android":"levelo://app?vid=a198524d-5d0a-4964-8c83-d650548fb399","ios":"levelo://app?vid=a198524d-5d0a-4964-8c83-d650548fb399"},"vehicle_type_id":"4","last_reported":1686956800,"current_range_meters":26400,"station_id":"ce501612rcd8frsf0b60","pricing_plan_id":"free"},{"bike_id":"6104c01e-dab8-49c4-8de2-c59be46261dc","system_id":"levelo_inurba_marseille","lat":43.267959,"lon":5.402685,"is_reserved":false,"is_disabled":false,"rental_uris":{"android":"levelo://app?vid=6104c01e-dab8-49c4-8de2-c59be46261dc","ios":"levelo://app?vid=6104c01e-dab8-49c4-8de2-c59be46261dc"},"vehicle_type_id":"4","last_reported":1686956800,"current_range_meters":10800,"station_id":"ce501612rcd8frsf0b60","pricing_plan_id":"free"},{"bike_id":"c49245c7-f82b-4a3d-90c2-75ae6170f1e4","system_id":"levelo_inurba_marseille","lat":43.267959,"lon":5.402687,"is_reserved":false,"is_disabled":false,"rental_uris":{"android":"levelo://app?vid=c49245c7-f82b-4a3d-90c2-75ae6170f1e4","ios":"levelo://app?vid=c49245c7-f82b-4a3d-90c2-75ae6170f1e4"},"vehicle_type_id":"4","last_reported":1686956800,"current_range_meters":22400,"station_id":"ce501612rcd8frsf0b60","pricing_plan_id":"free"},{"bike_id":"2717c3a0-c0d2-482b-a14a-e567ad31cc42","system_id":"levelo_inurba_marseille","lat":43.267959,"lon":5.402685,"is_reserved":false,"is_disabled":false,"rental_uris":{"android":"levelo://app?vid=2717c3a0-c0d2-482b-a14a-e567ad31cc42","ios":"levelo://app?vid=2717c3a0-c0d2-482b-a14a-e567ad31cc42"},"vehicle_type_id":"4","last_reported":1686956800,"current_range_meters":10800,"station_id":"ce501612rcd8frsf0b60","pricing_plan_id":"free"},{"bike_id":"fb1b7c39-630e-491e-b54b-563ec770b4de","system_id":"levelo_inurba_marseille","lat":43.267959,"lon":5.402687,"is_reserved":false,"is_disabled":false,"rental_uris":{"android":"levelo://app?vid=fb1b7c39-630e-491e-b54b-563ec770b4de","ios":"levelo://app?vid=fb1b7c39-630e-491e-b54b-563ec770b4de"},"vehicle_type_id":"4","last_reported":1686956800,"current_range_meters":10000,"station_id":"ce501612rcd8frsf0b60","pricing_plan_id":"free"},{"bike_id":"71fea6fb-52fc-48a5-a2d7-29dc72612712","system_id":"levelo_inurba_marseille","lat":43.267959,"lon":5.402687,"is_reserved":false,"is_disabled":false,"rental_uris":{"android":"levelo://app?vid=71fea6fb-52fc-48a5-a2d7-29dc72612712","ios":"levelo://app?vid=71fea6fb-52fc-48a5-a2d7-29dc72612712"},"vehicle_type_id":"4","last_reported":1686956800,"current_range_meters":14800,"station_id":"ce501612rcd8frsf0b60","pricing_plan_id":"free"},{"bike_id":"9d5b67b8-a9c4-4896-be07-b4c1e795b919","system_id":"levelo_inurba_marseille","lat":43.267959,"lon":5.402687,"is_reserved":false,"is_disabled":false,"rental_uris":{"android":"levelo://app?vid=9d5b67b8-a9c4-4896-be07-b4c1e795b919","ios":"levelo://app?vid=9d5b67b8-a9c4-4896-be07-b4c1e795b919"},"vehicle_type_id":"4","last_reported":1686956800,"current_range_meters":23600,"station_id":"ce501612rcd8frsf0b60","pricing_plan_id":"free"},{"bike_id":"ecda948c-4e46-492c-8d6a-466ee3c57832","system_id":"levelo_inurba_marseille","lat":43.267959,"lon":5.402687,"is_reserved":false,"is_disabled":false,"rental_uris":{"android":"levelo://app?vid=ecda948c-4e46-492c-8d6a-466ee3c57832","ios":"levelo://app?vid=ecda948c-4e46-492c-8d6a-466ee3c57832"},"vehicle_type_id":"4","last_reported":1686956800,"current_range_meters":23200,"station_id":"ce501612rcd8frsf0b60","pricing_plan_id":"free"},{"bike_id":"fa4abafd-85f8-49d2-9ef7-25120b3f012c","system_id":"levelo_inurba_marseille","lat":43.299,"lon":5.43677,"is_reserved":false,"is_disabled":false,"rental_uris":{"android":"levelo://app?vid=fa4abafd-85f8-49d2-9ef7-25120b3f012c","ios":"levelo://app?vid=fa4abafd-85f8-49d2-9ef7-25120b3f012c"},"vehicle_type_id":"4","last_reported":1686956800,"current_range_meters":23600,"station_id":"","pricing_plan_id":"free"},{"bike_id":"962087f6-4d29-46bc-be24-106994e3c7d7","system_id":"levelo_inurba_marseille","lat":43.26027,"lon":5.37546,"is_reserved":false,"is_disabled":false,"rental_uris":{"android":"levelo://app?vid=962087f6-4d29-46bc-be24-106994e3c7d7","ios":"levelo://app?vid=962087f6-4d29-46bc-be24-106994e3c7d7"},"vehicle_type_id":"4","last_reported":1686956800,"current_range_meters":31200,"station_id":"ce4bhgh2rcd13ifvqfa0","pricing_plan_id":"free"},{"bike_id":"7d9c9d72-ae2c-48ca-a35c-e2104d162ccd","system_id":"levelo_inurba_marseille","lat":43.26059,"lon":5.3939,"is_reserved":false,"is_disabled":false,"rental_uris":{"android":"levelo://app?vid=7d9c9d72-ae2c-48ca-a35c-e2104d162ccd","ios":"levelo://app?vid=7d9c9d72-ae2c-48ca-a35c-e2104d162ccd"},"vehicle_type_id":"4","last_reported":1686956800,"current_range_meters":23600,"station_id":"ce4bhh92rcd13ifvqfj0","pricing_plan_id":"free"},{"bike_id":"a2480536-abf9-43fd-b1f1-3c646dff0709","system_id":"levelo_inurba_marseille","lat":43.275028,"lon":5.424534,"is_reserved":false,"is_disabled":false,"rental_uris":{"android":"levelo://app?vid=a2480536-abf9-43fd-b1f1-3c646dff0709","ios":"levelo://app?vid=a2480536-abf9-43fd-b1f1-3c646dff0709"},