{"last_updated":1777354187,"ttl":60,"version":"2.2","data":{"bikes":[{"bike_id":"ebeae45d-02c0-4455-b825-bd34442cdbcc","system_id":"levelo_inurba_marseille","lat":43.30171,"lon":5.38097,"is_reserved":false,"is_disabled":false,"rental_uris":{"android":"levelo://app?vid=ebeae45d-02c0-4455-b825-bd34442cdbcc","ios":"levelo://app?vid=ebeae45d-02c0-4455-b825-bd34442cdbcc"},"vehicle_type_id":"4","last_reported":1777354188,"current_range_meters":2800,"station_id":"ce4bgjp2rcd13ifvqbh0","pricing_plan_id":"cebpf4jnsgd1na2vs0mg"},{"bike_id":"ad06fbeb-2893-47bd-9310-693ccba410e9","system_id":"levelo_inurba_marseille","lat":43.28763,"lon":5.46823,"is_reserved":false,"is_disabled":false,"rental_uris":{"android":"levelo://app?vid=ad06fbeb-2893-47bd-9310-693ccba410e9","ios":"levelo://app?vid=ad06fbeb-2893-47bd-9310-693ccba410e9"},"vehicle_type_id":"4","last_reported":1777354188,"current_range_meters":2800,"station_id":"","pricing_plan_id":"cebpf4jnsgd1na2vs0mg"},{"bike_id":"cf4537a9-051c-4080-9a3f-93f632ce0082","system_id":"levelo_inurba_marseille","lat":43.337444,"lon":5.374475,"is_reserved":false,"is_disabled":false,"rental_uris":{"android":"levelo://app?vid=cf4537a9-051c-4080-9a3f-93f632ce0082","ios":"levelo://app?vid=cf4537a9-051c-4080-9a3f-93f632ce0082"},"vehicle_type_id":"4","last_reported":1777354188,"current_range_meters":2800,"station_id":"","pricing_plan_id":"cebpf4jnsgd1na2vs0mg"},{"bike_id":"bdab1e31-d7ea-4c8e-b3d6-57aabe73b361","system_id":"levelo_inurba_marseille","lat":43.2856,"lon":5.39496,"is_reserved":false,"is_disabled":true,"rental_uris":{"android":"levelo://app?vid=bdab1e31-d7ea-4c8e-b3d6-57aabe73b361","ios":"levelo://app?vid=bdab1e31-d7ea-4c8e-b3d6-57aabe73b361"},"vehicle_type_id":"4","last_reported":1777354188,"current_range_meters":2800,"station_id":"ce4bh292rcd13ifvqdg0","pricing_plan_id":"cebpf4jnsgd1na2vs0mg"},{"bike_id":"64187fb5-6b9c-4a34-af0d-31bd6126b6d0","system_id":"levelo_inurba_marseille","lat":43.29971,"lon":5.37167,"is_reserved":false,"is_disabled":false,"rental_uris":{"android":"levelo://app?vid=64187fb5-6b9c-4a34-af0d-31bd6126b6d0","ios":"levelo://app?vid=64187fb5-6b9c-4a34-af0d-31bd6126b6d0"},"vehicle_type_id":"4","last_reported":1777354188,"current_range_meters":2800,"station_id":"ce4bgr92rcd13ifvqc7g","pricing_plan_id":"cebpf4jnsgd1na2vs0mg"},{"bike_id":"205e913a-57aa-4cb3-a5b3-6e46e5a47176","system_id":"levelo_inurba_marseille","lat":43.29721,"lon":5.36974,"is_reserved":false,"is_disabled":false,"rental_uris":{"android":"levelo://app?vid=205e913a-57aa-4cb3-a5b3-6e46e5a47176","ios":"levelo://app?vid=205e913a-57aa-4cb3-a5b3-6e46e5a47176"},"vehicle_type_id":"4","last_reported":1777354188,"current_range_meters":2800,"station_id":"","pricing_plan_id":"cebpf4jnsgd1na2vs0mg"},{"bike_id":"0738b116-46d6-4576-94a4-021d359c563e","system_id":"levelo_inurba_marseille","lat":43.28358,"lon":5.3811,"is_reserved":false,"is_disabled":false,"rental_uris":{"android":"levelo://app?vid=0738b116-46d6-4576-94a4-021d359c563e","ios":"levelo://app?vid=0738b116-46d6-4576-94a4-021d359c563e"},"vehicle_type_id":"4","last_reported":1777354188,"current_range_meters":2800,"station_id":"ce4bh412rcd13ifvqdr0","pricing_plan_id":"cebpf4jnsgd1na2vs0mg"},{"bike_id":"531596aa-b42c-45f6-a465-0d6b22171143","system_id":"levelo_inurba_marseille","lat":43.30943,"lon":5.40145,"is_reserved":false,"is_disabled":false,"rental_uris":{"android":"levelo://app?vid=531596aa-b42c-45f6-a465-0d6b22171143","ios":"levelo://app?vid=531596aa-b42c-45f6-a465-0d6b22171143"},"vehicle_type_id":"4","last_reported":1777354188,"current_range_meters":2800,"station_id":"ce4bgvp2rcd13ifvqct0","pricing_plan_id":"cebpf4jnsgd1na2vs0mg"},{"bike_id":"96664ea6-aa56-4a76-9a26-e509828ee890","system_id":"levelo_inurba_marseille","lat":43.30059,"lon":5.39095,"is_reserved":false,"is_disabled":false,"rental_uris":{"android":"levelo://app?vid=96664ea6-aa56-4a76-9a26-e509828ee890","ios":"levelo://app?vid=96664ea6-aa56-4a76-9a26-e509828ee890"},"vehicle_type_id":"4","last_reported":1777354188,"current_range_meters":3200,"station_id":"ce4bh192rcd13ifvqdb0","pricing_plan_id":"cebpf4jnsgd1na2vs0mg"},{"bike_id":"91e4eed8-7aa0-4ca6-bc8b-33ffc5693469","system_id":"levelo_inurba_marseille","lat":43.31334,"lon":5.37908,"is_reserved":false,"is_disabled":false,"rental_uris":{"android":"levelo://app?vid=91e4eed8-7aa0-4ca6-bc8b-33ffc5693469","ios":"levelo://app?vid=91e4eed8-7aa0-4ca6-bc8b-33ffc5693469"},"vehicle_type_id":"4","last_reported":1777354188,"current_range_meters":3200,"station_id":"","pricing_plan_id":"cebpf4jnsgd1na2vs0mg"},{"bike_id":"66e53a8e-d0ef-4820-bb80-9c1e4dc8c9c2","system_id":"levelo_inurba_marseille","lat":43.30135,"lon":5.38099,"is_reserved":false,"is_disabled":false,"rental_uris":{"android":"levelo://app?vid=66e53a8e-d0ef-4820-bb80-9c1e4dc8c9c2","ios":"levelo://app?vid=66e53a8e-d0ef-4820-bb80-9c1e4dc8c9c2"},"vehicle_type_id":"4","last_reported":1777354188,"current_range_meters":3200,"station_id":"ce4bgjp2rcd13ifvqbh0","pricing_plan_id":"cebpf4jnsgd1na2vs0mg"},{"bike_id":"2f755aa1-105e-447f-807e-a8d37a45e600","system_id":"levelo_inurba_marseille","lat":43.28959,"lon":5.39276,"is_reserved":false,"is_disabled":false,"rental_uris":{"android":"levelo://app?vid=2f755aa1-105e-447f-807e-a8d37a45e600","ios":"levelo://app?vid=2f755aa1-105e-447f-807e-a8d37a45e600"},"vehicle_type_id":"4","last_reported":1777354188,"current_range_meters":3200,"station_id":"","pricing_plan_id":"cebpf4jnsgd1na2vs0mg"},{"bike_id":"d2a170e9-4683-45e4-8ad8-6a20e503868b","system_id":"levelo_inurba_marseille","lat":43.2551,"lon":5.37659,"is_reserved":false,"is_disabled":true,"rental_uris":{"android":"levelo://app?vid=d2a170e9-4683-45e4-8ad8-6a20e503868b","ios":"levelo://app?vid=d2a170e9-4683-45e4-8ad8-6a20e503868b"},"vehicle_type_id":"4","last_reported":1777354188,"current_range_meters":3200,"station_id":"ce4bhh12rcd13ifvqff0","pricing_plan_id":"cebpf4jnsgd1na2vs0mg"},{"bike_id":"ad26b8dc-edee-444c-8fc3-cb83169b331a","system_id":"levelo_inurba_marseille","lat":43.2815,"lon":5.42659,"is_reserved":false,"is_disabled":false,"rental_uris":{"android":"levelo://app?vid=ad26b8dc-edee-444c-8fc3-cb83169b331a","ios":"levelo://app?vid=ad26b8dc-edee-444c-8fc3-cb83169b331a"},"vehicle_type_id":"4","last_reported":1777354188,"current_range_meters":3200,"station_id":"ce4bhnh2rcd13ifvqgug","pricing_plan_id":"cebpf4jnsgd1na2vs0mg"},{"bike_id":"b93958f5-4f1a-49e3-8c4b-90b6af009865","system_id":"levelo_inurba_marseille","lat":43.27375,"lon":5.36256,"is_reserved":false,"is_disabled":false,"rental_uris":{"android":"levelo://app?vid=b93958f5-4f1a-49e3-8c4b-90b6af009865","ios":"levelo://app?vid=b93958f5-4f1a-49e3-8c4b-90b6af009865"},"vehicle_type_id":"4","last_reported":1777354188,"current_range_meters":3200,"station_id":"ce4bhbh2rcd13ifvqeo0","pricing_plan_id":"cebpf4jnsgd1na2vs0mg"},{"bike_id":"e2cae97f-59e6-4efd-8e6f-8c29bb62e7ad","system_id":"levelo_inurba_marseille","lat":43.28184,"lon":5.3907,"is_reserved":false,"is_disabled":false,"rental_uris":{"android":"levelo://app?vid=e2cae97f-59e6-4efd-8e6f-8c29bb62e7ad","ios":"levelo://app?vid=e2cae97f-59e6-4efd-8e6f-8c29bb62e7ad"},"vehicle_type_id":"4","last_reported":1777354188,"current_range_meters":3600,"station_id":"ce4bhn92rcd13ifvqgsg","pricing_plan_id":"cebpf4jnsgd1na2vs0mg"},{"bike_id":"7e17da21-de27-4e4b-9912-876e46bc8a36","system_id":"levelo_inurba_marseille","lat":43.32111,"lon":5.36777,"is_reserved":false,"is_disabled":false,"rental_uris":{"android":"levelo://app?vid=7e17da21-de27-4e4b-9912-876e46bc8a36","ios":"levelo://app?vid=7e17da21-de27-4e4b-9912-876e46bc8a36"},"vehicle_type_id":"4","last_reported":1777354188,"current_range_meters":3600,"station_id":"ce4bhrh2rcd13ifvqhug","pricing_plan_id":"cebpf4jnsgd1na2vs0mg"},{"bike_id":"b21748b2-fb24-4ee6-8e6a-c7c61264faec","system_id":"levelo_inurba_marseille","lat":43.27391,"lon":5.42234,"is_reserved":false,"is_disabled":false,"rental_uris":{"android":"levelo://app?vid=b21748b2-fb24-4ee6-8e6a-c7c61264faec","ios":"levelo://app?vid=b21748b2-fb24-4ee6-8e6a-c7c61264faec"},"vehicle_type_id":"4","last_reported":1777354188,"current_range_meters":3600,"station_id":"","pricing_plan_id":"cebpf4jnsgd1na2vs0mg"},{"bike_id":"435297f7-e5fc-4160-b337-aaa007c8b5cf","system_id":"levelo_inurba_marseille","lat":43.28443,"lon":5.48403,"is_reserved":false,"is_disabled":false,"rental_uris":{"android":"levelo://app?vid=435297f7-e5fc-4160-b337-aaa007c8b5cf","ios":"levelo://app?vid=435297f7-e5fc-4160-b337-aaa007c8b5cf"},"vehicle_type_id":"4","last_reported":1777354188,"current_range_meters":3600,"station_id":"","pricing_plan_id":"cebpf4jnsgd1na2vs0mg"},{"bike_id":"0f1d3d83-e8b0-4d8e-a0c9-aba4c5bbe46c","system_id":"levelo_inurba_marseille","lat":43.28942,"lon":5.36652,"is_reserved":false,"is_disabled":true,"rental_uris":{"android":"levelo://app?vid=0f1d3d83-e8b0-4d8e-a0c9-aba4c5bbe46c","ios":"levelo://app?vid=0f1d3d83-e8b0-4d8e-a0c9-aba4c5bbe46c"},"vehicle_type_id":"4","last_reported":1777354188,"current_range_meters":3600,"station_id":"ce4bhap2rcd13ifvqek0","pricing_plan_id":"cebpf4jnsgd1na2vs0mg"},{"bike_id":"dd1a46ba-8d11-4ca4-a48b-231b4cd1a3c5","system_id":"levelo_inurba_marseille","lat":43.28037,"lon":5.36963,"is_reserved":false,"is_disabled":false,"rental_uris":{"android":"levelo://app?vid=dd1a46ba-8d11-4ca4-a48b-231b4cd1a3c5","ios":"levelo://app?vid=dd1a46ba-8d11-4ca4-a48b-231b4cd1a3c5"},"vehicle_type_id":"4","last_reported":1777354188,"current_range_meters":3600,"station_id":"ce4bha12rcd13ifvqef0","pricing_plan_id":"cebpf4jnsgd1na2vs0mg"},{"bike_id":"80b161cc-6e40-44e8-9454-73c670e460e2","system_id":"levelo_inurba_marseille","lat":43.28469,"lon":5.48408,"is_reserved":false,"is_disabled":false,"rental_uris":{"android":"levelo://app?vid=80b161cc-6e40-44e8-9454-73c670e460e2","ios":"levelo://app?vid=80b161cc-6e40-44e8-9454-73c670e460e2"},"vehicle_type_id":"4","last_reported":1777354188,"current_range_meters":3600,"station_id":"","pricing_plan_id":"cebpf4jnsgd1na2vs0mg"},{"bike_id":"ac704a75-d0ec-411b-af81-08d3f9e64ff7","system_id":"levelo_inurba_marseille","lat":43.29519,"lon":5.39054,"is_reserved":false,"is_disabled":false,"rental_uris":{"android":"levelo://app?vid=ac704a75-d0ec-411b-af81-08d3f9e64ff7","ios":"levelo://app?vid=ac704a75-d0ec-411b-af81-08d3f9e64ff7"},"vehicle_type_id":"4","last_reported":1777354188,"current_range_meters":4000,"station_id":"ce4bh3p2rcd13ifvqdp0","pricing_plan_id":"cebpf4jnsgd1na2vs0mg"},{"bike_id":"95fcacf0-7086-4a79-916d-eb3549d744d3","system_id":"levelo_inurba_marseille","lat":43.337444,"lon":5.374475,"is_reserved":false,"is_disabled":false,"rental_uris":{"android":"levelo://app?vid=95fcacf0-7086-4a79-916d-eb3549d744d3","ios":"levelo://app?vid=95fcacf0-7086-4a79-916d-eb3549d744d3"},"vehicle_type_id":"4","last_reported":1777354188,"current_range_meters":4000,"station_id":"","pricing_plan_id":"cebpf4jnsgd1na2vs0mg"},{"bike_id":"c94021b7-854c-46bb-ae91-7c5fc5228b99","system_id":"levelo_inurba_marseille","lat":43.31171,"lon":5.38706,"is_reserved":false,"is_disabled":false,"rental_uris":{"android":"levelo://app?vid=c94021b7-854c-46bb-ae91-7c5fc5228b99","ios":"levelo://app?vid=c94021b7-854c-46bb-ae91-7c5fc5228b99"},"vehicle_type_id":"4","last_reported":1777354188,"current_range_meters":4000,"station_id":"ce4bgv12rcd13ifvqcp0","pricing_plan_id":"cebpf4jnsgd1na2vs0mg"},{"bike_id":"a12bff03-7417-452f-8acb-a1d3c1fe28e2","system_id":"levelo_inurba_marseille","lat":43.33752,"lon":5.37473,"is_reserved":false,"is_disabled":true,"rental_uris":{"android":"levelo://app?vid=a12bff03-7417-452f-8acb-a1d3c1fe28e2","ios":"levelo://app?vid=a12bff03-7417-452f-8acb-a1d3c1fe28e2"},"vehicle_type_id":"4","last_reported":1777354188,"current_range_meters":4000,"station_id":"","pricing_plan_id":"cebpf4jnsgd1na2vs0mg"},{"bike_id":"ac4eb49f-3c14-42c4-ba54-ac72a41c7cf6","system_id":"levelo_inurba_marseille","lat":43.30128,"lon":5.39061,"is_reserved":false,"is_disabled":false,"rental_uris":{"android":"levelo://app?vid=ac4eb49f-3c14-42c4-ba54-ac72a41c7cf6","ios":"levelo://app?vid=ac4eb49f-3c14-42c4-ba54-ac72a41c7cf6"},"vehicle_type_id":"4","last_reported":1777354188,"current_range_meters":4000,"station_id":"","pricing_plan_id":"cebpf4jnsgd1na2vs0mg"},{"bike_id":"b4d9b492-c746-46ed-bddf-343e9b749f81","system_id":"levelo_inurba_marseille","lat":43.32759,"lon":5.36829,"is_reserved":false,"is_disabled":true,"rental_uris":{"android":"levelo://app?vid=b4d9b492-c746-46ed-bddf-343e9b749f81","ios":"levelo://app?vid=b4d9b492-c746-46ed-bddf-343e9b749f81"},"vehicle_type_id":"4","last_reported":1777354188,"current_range_meters":4000,"station_id":"","pricing_plan_id":"cebpf4jnsgd1na2vs0mg"},{"bike_id":"781d8d3d-fabf-4ca2-9f47-16929586692d","system_id":"levelo_inurba_marseille","lat":43.27516,"lon":5.43483,"is_reserved":false,"is_disabled":false,"rental_uris":{"android":"levelo://app?vid=781d8d3d-fabf-4ca2-9f47-16929586692d","ios":"levelo://app?vid=781d8d3d-fabf-4ca2-9f47-16929586692d"},"vehicle_type_id":"4","last_reported":1777354188,"current_range_meters":4000,"station_id":"","pricing_plan_id":"cebpf4jnsgd1na2vs0mg"},{"bike_id":"1c267b42-3346-4d3e-b54a-e87588a5d7e7","system_id":"levelo_inurba_marseille","lat":43.23173,"lon":5.43709,"is_reserved":false,"is_disabled":false,"rental_uris":{"android":"levelo://app?vid=1c267b42-3346-4d3e-b54a-e87588a5d7e7","ios":"levelo://app?vid=1c267b42-3346-4d3e-b54a-e87588a5d7e7"},"vehicle_type_id":"4","last_reported":1777354188,"current_range_meters":4000,"station_id":"ce4bhmp2rcd13ifvqgog","pricing_plan_id":"cebpf4jnsgd1na2vs0mg"},{"bike_id":"f0c74e8b-a798-4dae-9ccd-9d533f5a173e","system_id":"levelo_inurba_marseille","lat":43.31183,"lon":5.38708,"is_reserved":false,"is_disabled":true,"rental_uris":{"android":"levelo://app?vid=f0c74e8b-a798-4dae-9ccd-9d533f5a173e","ios":"levelo://app?vid=f0c74e8b-a798-4dae-9ccd-9d533f5a173e"},"vehicle_type_id":"4","last_reported":1777354188,"current_range_meters":4000,"station_id":"ce4bgv12rcd13ifvqcp0","pricing_plan_id":"cebpf4jnsgd1na2vs0mg"},{"bike_id":"69a2d223-bf66-4571-9613-79c65e1e1d32","system_id":"levelo_inurba_marseille","lat":43.29712,"lon":5.36582,"is_reserved":false,"is_disabled":false,"rental_uris":{"android":"levelo://app?vid=69a2d223-bf66-4571-9613-79c65e1e1d32","ios":"levelo://app?vid=69a2d223-bf66-4571-9613-79c65e1e1d32"},"vehicle_type_id":"4","last_reported":1777354188,"current_range_meters":4000,"station_id":"ce4bgn12rcd13ifvqbt0","pricing_plan_id":"cebpf4jnsgd1na2vs0mg"},{"bike_id":"127186fe-87fe-4347-8c14-2b72a4effa84","system_id":"levelo_inurba_marseille","lat":43.321,"lon":5.36771,"is_reserved":false,"is_disabled":false,"rental_uris":{"android":"levelo://app?vid=127186fe-87fe-4347-8c14-2b72a4effa84","ios":"levelo://app?vid=127186fe-87fe-4347-8c14-2b72a4effa84"},"vehicle_type_id":"4","last_reported":1777354188,"current_range_meters":4000,"station_id":"ce4bhrh2rcd13ifvqhug","pricing_plan_id":"cebpf4jnsgd1na2vs0mg"},{"bike_id":"c9a5deaf-f776-47ca-bce8-1efc7dbe0cef","system_id":"levelo_inurba_marseille","lat":43.301,"lon":5.39086,"is_reserved":false,"is_disabled":false,"rental_uris":{"android":"levelo://app?vid=c9a5deaf-f776-47ca-bce8-1efc7dbe0cef","ios":"levelo://app?vid=c9a5deaf-f776-47ca-bce8-1efc7dbe0cef"},"vehicle_type_id":"4","last_reported":1777354188,"current_range_meters":4400,"station_id":"ce4bh192rcd13ifvqdb0","pricing_plan_id":"cebpf4jnsgd1na2vs0mg"},{"bike_id":"80bd3ac5-6990-409c-aada-b15dc888df6a","system_id":"levelo_inurba_marseille","lat":43.30491,"lon":5.38452,"is_reserved":false,"is_disabled":false,"rental_uris":{"android":"levelo://app?vid=80bd3ac5-6990-409c-aada-b15dc888df6a","ios":"levelo://app?vid=80bd3ac5-6990-409c-aada-b15dc888df6a"},"vehicle_type_id":"4","last_reported":1777354188,"current_range_meters":4400,"station_id":"ce4bgg92rcd13ifvqb30","pricing_plan_id":"cebpf4jnsgd1na2vs0mg"},{"bike_id":"c98e30f1-4d62-4900-92ab-d24358411f06","system_id":"levelo_inurba_marseille","lat":43.28485,"lon":5.38435,"is_reserved":false,"is_disabled":false,"rental_uris":{"android":"levelo://app?vid=c98e30f1-4d62-4900-92ab-d24358411f06","ios":"levelo://app?vid=c98e30f1-4d62-4900-92ab-d24358411f06"},"vehicle_type_id":"4","last_reported":1777354188,"current_range_meters":4400,"station_id":"ce4bh512rcd13ifvqe3g","pricing_plan_id":"cebpf4jnsgd1na2vs0mg"},{"bike_id":"03c9cb36-982a-4f64-b63a-7e83eb3e7ce2","system_id":"levelo_inurba_marseille","lat":43.29025,"lon":5.38654,"is_reserved":false,"is_disabled":false,"rental_uris":{"android":"levelo://app?vid=03c9cb36-982a-4f64-b63a-7e83eb3e7ce2","ios":"levelo://app?vid=03c9cb36-982a-4f64-b63a-7e83eb3e7ce2"},"vehicle_type_id":"4","last_reported":1777354188,"current_range_meters":4400,"station_id":"ce4bh4p2rcd13ifvqe0g","pricing_plan_id":"cebpf4jnsgd1na2vs0mg"},{"bike_id":"bf755b54-9bfc-4f5a-b759-04d952b762e5","system_id":"levelo_inurba_marseille","lat":43.24375,"lon":5.37098,"is_reserved":false,"is_disabled":false,"rental_uris":{"android":"levelo://app?vid=bf755b54-9bfc-4f5a-b759-04d952b762e5","ios":"levelo://app?vid=bf755b54-9bfc-4f5a-b759-04d952b762e5"},"vehicle_type_id":"4","last_reported":1777354188,"current_range_meters":4400,"station_id":"ce4bhhh2rcd13ifvqfk0","pricing_plan_id":"cebpf4jnsgd1na2vs0mg"},{"bike_id":"c02a1909-80f9-49d1-add2-2bcd74a25027","system_id":"levelo_inurba_marseille","lat":43.27167,"lon":5.41001,"is_reserved":false,"is_disabled":false,"rental_uris":{"android":"levelo://app?vid=c02a1909-80f9-49d1-add2-2bcd74a25027","ios":"levelo://app?vid=c02a1909-80f9-49d1-add2-2bcd74a25027"},"vehicle_type_id":"4","last_reported":1777354188,"current_range_meters":4400,"station_id":"ce4bhl12rcd13ifvqgf0","pricing_plan_id":"cebpf4jnsgd1na2vs0mg"},{"bike_id":"6c0e44b5-b4c6-4989-a0ec-b3c6d257ac1d","system_id":"levelo_inurba_marseille","lat":43.33186,"lon":5.37828,"is_reserved":false,"is_disabled":false,"rental_uris":{"android":"levelo://app?vid=6c0e44b5-b4c6-4989-a0ec-b3c6d257ac1d","ios":"levelo://app?vid=6c0e44b5-b4c6-4989-a0ec-b3c6d257ac1d"},"vehicle_type_id":"4","last_reported":1777354188,"current_range_meters":4800,"station_id":"","pricing_plan_id":"cebpf4jnsgd1na2vs0mg"},{"bike_id":"8f13b61e-8a25-4927-8213-0f8d3090195b","system_id":"levelo_inurba_marseille","lat":43.28475,"lon":5.48401,"is_reserved":false,"is_disabled":false,"rental_uris":{"android":"levelo://app?vid=8f13b61e-8a25-4927-8213-0f8d3090195b","ios":"levelo://app?vid=8f13b61e-8a25-4927-8213-0f8d3090195b"},"vehicle_type_id":"4","last_reported":1777354188,"current_range_meters":4800,"station_id":"","pricing_plan_id":"cebpf4jnsgd1na2vs0mg"},{"bike_id":"6b9ceb44-f98b-4474-bf14-5e53602be7a5","system_id":"levelo_inurba_marseille","lat":43.33545,"lon":5.37461,"is_reserved":false,"is_disabled":false,"rental_uris":{"android":"levelo://app?vid=6b9ceb44-f98b-4474-bf14-5e53602be7a5","ios":"levelo://app?vid=6b9ceb44-f98b-4474-bf14-5e53602be7a5"},"vehicle_type_id":"4","last_reported":1777354188,"current_range_meters":4800,"station_id":"st_d46tts09ee8s73dlu43g","pricing_plan_id":"cebpf4jnsgd1na2vs0mg"},{"bike_id":"12811a9c-eb10-4b33-9d8f-ee152e8f6264","system_id":"levelo_inurba_marseille","lat":43.26052,"lon":5.39398,"is_reserved":false,"is_disabled":false,"rental_uris":{"android":"levelo://app?vid=12811a9c-eb10-4b33-9d8f-ee152e8f6264","ios":"levelo://app?vid=12811a9c-eb10-4b33-9d8f-ee152e8f6264"},"vehicle_type_id":"4","last_reported":1777354188,"current_range_meters":4800,"station_id":"ce4bhh92rcd13ifvqfj0","pricing_plan_id":"cebpf4jnsgd1na2vs0mg"},{"bike_id":"2e013045-b635-4629-a87d-995ec1628a85","system_id":"levelo_inurba_marseille","lat":43.32117,"lon":5.36813,"is_reserved":false,"is_disabled":false,"rental_uris":{"android":"levelo://app?vid=2e013045-b635-4629-a87d-995ec1628a85","ios":"levelo://app?vid=2e013045-b635-4629-a87d-995ec1628a85"},"vehicle_type_id":"4","last_reported":1777354188,"current_range_meters":4800,"station_id":"ce4bhrh2rcd13ifvqhug","pricing_plan_id":"cebpf4jnsgd1na2vs0mg"},{"bike_id":"f3887d6f-5f58-4650-a2da-9d2cb7467222","system_id":"levelo_inurba_marseille","lat":43.30247,"lon":5.4008,"is_reserved":false,"is_disabled":false,"rental_uris":{"android":"levelo://app?vid=f3887d6f-5f58-4650-a2da-9d2cb7467222","ios":"levelo://app?vid=f3887d6f-5f58-4650-a2da-9d2cb7467222"},"vehicle_type_id":"4","last_reported":1777354188,"current_range_meters":4800,"station_id":"ce4bgvh2rcd13ifvqcs0","pricing_plan_id":"cebpf4jnsgd1na2vs0mg"},{"bike_id":"c39de570-e7a4-42a3-bc87-effa0cfb5c9c","system_id":"levelo_inurba_marseille","lat":43.31035,"lon":5.37179,"is_reserved":false,"is_disabled":false,"rental_uris":{"android":"levelo://app?vid=c39de570-e7a4-42a3-bc87-effa0cfb5c9c","ios":"levelo://app?vid=c39de570-e7a4-42a3-bc87-effa0cfb5c9c"},"vehicle_type_id":"4","last_reported":1777354188,"current_range_meters":4800,"station_id":"st_d4kl2rp97mjs73e7tdfg","pricing_plan_id":"cebpf4jnsgd1na2vs0mg"},{"bike_id":"13a0c18b-0d11-4c60-91d1-4be6504d7bcc","system_id":"levelo_inurba_marseille","lat":43.23963,"lon":5.36631,"is_reserved":false,"is_disabled":false,"rental_uris":{"android":"levelo://app?vid=13a0c18b-0d11-4c60-91d1-4be6504d7bcc","ios":"levelo://app?vid=13a0c18b-0d11-4c60-91d1-4be6504d7bcc"},"vehicle_type_id":"4","last_reported":1777354188,"current_range_meters":4800,"station_id":"ce4bhi12rcd13ifvqfp0","pricing_plan_id":"cebpf4jnsgd1na2vs0mg"},{"bike_id":"b2337923-5ba9-4722-9099-a4ee37eb1d07","system_id":"levelo_inurba_marseille","lat":43.27961,"lon":5.38753,"is_reserved":false,"is_disabled":false,"rental_uris":{"android":"levelo://app?vid=b2337923-5ba9-4722-9099-a4ee37eb1d07","ios":"levelo://app?vid=b2337923-5ba9-4722-9099-a4ee37eb1d07"},"vehicle_type_id":"4","last_reported":1777354188,"current_range_meters":5600,"station_id":"ce4bhg12rcd13ifvqf80","pricing_plan_id":"cebpf4jnsgd1na2vs0mg"},{"bike_id":"d91a79ea-757d-4fb0-822d-efffb3df9a9a","system_id":"levelo_inurba_marseille","lat":43.24636,"lon":5.38899,"is_reserved":false,"is_disabled":false,"rental_uris":{"android":"levelo://app?vid=d91a79ea-757d-4fb0-822d-efffb3df9a9a","ios":"levelo://app?vid=d91a79ea-757d-4fb0-822d-efffb3df9a9a"},"vehicle_type_id":"4","last_reported":1777354188,"current_range_meters":5600,"station_id":"ce4bhg12rcd13ifvqf60","pricing_plan_id":"cebpf4jnsgd1na2vs0mg"},{"bike_id":"5cbef2a7-8e83-4097-9949-5967c82353a9","system_id":"levelo_inurba_marseille","lat":43.32495,"lon":5.38274,"is_reserved":false,"is_disabled":false,"rental_uris":{"android":"levelo://app?vid=5cbef2a7-8e83-4097-9949-5967c82353a9","ios":"levelo://app?vid=5cbef2a7-8e83-4097-9949-5967c82353a9"},"vehicle_type_id":"4","last_reported":1777354188,"current_range_meters":5600,"station_id":"st_d4asgbiv49dc73anf9m0","pricing_plan_id":"cebpf4jnsgd1na2vs0mg"},{"bike_id":"b06f20e2-7b40-4e46-b06e-55bc14e04088","system_id":"levelo_inurba_marseille","lat":43.24492,"lon":5.42703,"is_reserved":false,"is_disabled":false,"rental_uris":{"android":"levelo://app?vid=b06f20e2-7b40-4e46-b06e-55bc14e04088","ios":"levelo://app?vid=b06f20e2-7b40-4e46-b06e-55bc14e04088"},"vehicle_type_id":"4","last_reported":1777354188,"current_range_meters":5600,"station_id":"","pricing_plan_id":"cebpf4jnsgd1na2vs0mg"},{"bike_id":"77f1be50-d55c-4753-b02a-0b5e7117e7c7","system_id":"levelo_inurba_marseille","lat":43.31305,"lon":5.38194,"is_reserved":false,"is_disabled":false,"rental_uris":{"android":"levelo://app?vid=77f1be50-d55c-4753-b02a-0b5e7117e7c7","ios":"levelo://app?vid=77f1be50-d55c-4753-b02a-0b5e7117e7c7"},"vehicle_type_id":"4","last_reported":1777354188,"current_range_meters":5600,"station_id":"","pricing_plan_id":"cebpf4jnsgd1na2vs0mg"},{"bike_id":"10d2c39a-e24d-4c10-9b33-f3f6db153578","system_id":"levelo_inurba_marseille","lat":43.31698,"lon":5.43733,"is_reserved":false,"is_disabled":false,"rental_uris":{"android":"levelo://app?vid=10d2c39a-e24d-4c10-9b33-f3f6db153578","ios":"levelo://app?vid=10d2c39a-e24d-4c10-9b33-f3f6db153578"},"vehicle_type_id":"4","last_reported":1777354188,"current_range_meters":5600,"station_id":"ce4bhp92rcd13ifvqhcg","pricing_plan_id":"cebpf4jnsgd1na2vs0mg"},{"bike_id":"ba232b12-0530-4684-bdcc-232e54b7d12b","system_id":"levelo_inurba_marseille","lat":43.25006,"lon":5.38933,"is_reserved":false,"is_disabled":false,"rental_uris":{"android":"levelo://app?vid=ba232b12-0530-4684-bdcc-232e54b7d12b","ios":"levelo://app?vid=ba232b12-0530-4684-bdcc-232e54b7d12b"},"vehicle_type_id":"4","last_reported":1777354188,"current_range_meters":5600,"station_id":"ce4bhgp2rcd13ifvqfd0","pricing_plan_id":"cebpf4jnsgd1na2vs0mg"},{"bike_id":"16e943be-0880-430f-b619-cbe210a96917","system_id":"levelo_inurba_marseille","lat":43.32493,"lon":5.38305,"is_reserved":false,"is_disabled":false,"rental_uris":{"android":"levelo://app?vid=16e943be-0880-430f-b619-cbe210a96917","ios":"levelo://app?vid=16e943be-0880-430f-b619-cbe210a96917"},"vehicle_type_id":"4","last_reported":1777354188,"current_range_meters":5600,"station_id":"st_d4asgbiv49dc73anf9m0","pricing_plan_id":"cebpf4jnsgd1na2vs0mg"},{"bike_id":"7691273e-33d0-40e7-9122-ebb011af1b54","system_id":"levelo_inurba_marseille","lat":43.24679,"lon":5.38152,"is_reserved":false,"is_disabled":false,"rental_uris":{"android":"levelo://app?vid=7691273e-33d0-40e7-9122-ebb011af1b54","ios":"levelo://app?vid=7691273e-33d0-40e7-9122-ebb011af1b54"},"vehicle_type_id":"4","last_reported":1777354188,"current_range_meters":5600,"station_id":"ce4bhih2rcd13ifvqfr0","pricing_plan_id":"cebpf4jnsgd1na2vs0mg"},{"bike_id":"6b8549bf-30d2-490f-8f61-d9ca43e4d06c","system_id":"levelo_inurba_marseille","lat":43.27024,"lon":5.40266,"is_reserved":false,"is_disabled":false,"rental_uris":{"android":"levelo://app?vid=6b8549bf-30d2-490f-8f61-d9ca43e4d06c","ios":"levelo://app?vid=6b8549bf-30d2-490f-8f61-d9ca43e4d06c"},"vehicle_type_id":"4","last_reported":1777354188,"current_range_meters":5600,"station_id":"ce4bhk92rcd13ifvqgc0","pricing_plan_id":"cebpf4jnsgd1na2vs0mg"},{"bike_id":"87cc790b-60cd-436a-82f4-3796eb0e0cc9","system_id":"levelo_inurba_marseille","lat":43.29155,"lon":5.43549,"is_reserved":false,"is_disabled":false,"rental_uris":{"android":"levelo://app?vid=87cc790b-60cd-436a-82f4-3796eb0e0cc9","ios":"levelo://app?vid=87cc790b-60cd-436a-82f4-3796eb0e0cc9"},"vehicle_type_id":"4","last_reported":1777354188,"current_range_meters":5600,"station_id":"","pricing_plan_id":"cebpf4jnsgd1na2vs0mg"},{"bike_id":"f13fe151-afeb-4327-9952-17422c4d2706","system_id":"levelo_inurba_marseille","lat":43.2542,"lon":5.41906,"is_reserved":false,"is_disabled":false,"rental_uris":{"android":"levelo://app?vid=f13fe151-afeb-4327-9952-17422c4d2706","ios":"levelo://app?vid=f13fe151-afeb-4327-9952-17422c4d2706"},"vehicle_type_id":"4","last_reported":1777354188,"current_range_meters":5600,"station_id":"","pricing_plan_id":"cebpf4jnsgd1na2vs0mg"},{"bike_id":"fbb49548-0e6f-4f34-b4f9-7953d4130f20","system_id":"levelo_inurba_marseille","lat":43.30295,"lon":5.39209,"is_reserved":false,"is_disabled":false,"rental_uris":{"android":"levelo://app?vid=fbb49548-0e6f-4f34-b4f9-7953d4130f20","ios":"levelo://app?vid=fbb49548-0e6f-4f34-b4f9-7953d4130f20"},"vehicle_type_id":"4","last_reported":1777354188,"current_range_meters":5600,"station_id":"ce4bgkh2rcd13ifvqbk0","pricing_plan_id":"cebpf4jnsgd1na2vs0mg"},{"bike_id":"d20ccda7-29ef-4aa5-bbf2-63f1e6c3dcf5","system_id":"levelo_inurba_marseille","lat":43.32105,"lon":5.36774,"is_reserved":false,"is_disabled":false,"rental_uris":{"android":"levelo://app?vid=d20ccda7-29ef-4aa5-bbf2-63f1e6c3dcf5","ios":"levelo://app?vid=d20ccda7-29ef-4aa5-bbf2-63f1e6c3dcf5"},"vehicle_type_id":"4","last_reported":1777354188,"current_range_meters":5600,"station_id":"ce4bhrh2rcd13ifvqhug","pricing_plan_id":"cebpf4jnsgd1na2vs0mg"},{"bike_id":"8e77f3ba-38f8-4add-b61b-b2f308d4dba7","system_id":"levelo_inurba_marseille","lat":43.24649,"lon":5.38169,"is_reserved":false,"is_disabled":false,"rental_uris":{"android":"levelo://app?vid=8e77f3ba-38f8-4add-b61b-b2f308d4dba7","ios":"levelo://app?vid=8e77f3ba-38f8-4add-b61b-b2f308d4dba7"},"vehicle_type_id":"4","last_reported":1777354188,"current_range_meters":6000,"station_id":"ce4bhih2rcd13ifvqfr0","pricing_plan_id":"cebpf4jnsgd1na2vs0mg"},{"bike_id":"8b1f5d0b-fff3-453f-8e5c-32008a7ce404","system_id":"levelo_inurba_marseille","lat":43.26951,"lon":5.40281,"is_reserved":false,"is_disabled":false,"rental_uris":{"android":"levelo://app?vid=8b1f5d0b-fff3-453f-8e5c-32008a7ce404","ios":"levelo://app?vid=8b1f5d0b-fff3-453f-8e5c-32008a7ce404"},"vehicle_type_id":"4","last_reported":1777354188,"current_range_meters":6000,"station_id":"cjm6bp8fraef2m0cb0m0","pricing_plan_id":"cebpf4jnsgd1na2vs0mg"},{"bike_id":"b504488c-4a5c-43df-b299-e768506d1980","system_id":"levelo_inurba_marseille","lat":43.29344,"lon":5.3718,"is_reserved":false,"is_disabled":true,"rental_uris":{"android":"levelo://app?vid=b504488c-4a5c-43df-b299-e768506d1980","ios":"levelo://app?vid=b504488c-4a5c-43df-b299-e768506d1980"},"vehicle_type_id":"4","last_reported":1777354188,"current_range_meters":6000,"station_id":"ce4bgh92rcd13ifvqb40","pricing_plan_id":"cebpf4jnsgd1na2vs0mg"},{"bike_id":"2e1487b5-ffbe-4174-a3cb-5f2ca03b60ce","system_id":"levelo_inurba_marseille","lat":43.28479,"lon":5.484,"is_reserved":false,"is_disabled":false,"rental_uris":{"android":"levelo://app?vid=2e1487b5-ffbe-4174-a3cb-5f2ca03b60ce","ios":"levelo://app?vid=2e1487b5-ffbe-4174-a3cb-5f2ca03b60ce"},"vehicle_type_id":"4","last_reported":1777354188,"current_range_meters":6000,"station_id":"st_d3svhcjqgbts73a3dn0g","pricing_plan_id":"cebpf4jnsgd1na2vs0mg"},{"bike_id":"5367fafd-42a5-4c52-bd35-5d85953af91c","system_id":"levelo_inurba_marseille","lat":43.30717,"lon":5.38102,"is_reserved":false,"is_disabled":true,"rental_uris":{"android":"levelo://app?vid=5367fafd-42a5-4c52-bd35-5d85953af91c","ios":"levelo://app?vid=5367fafd-42a5-4c52-bd35-5d85953af91c"},"vehicle_type_id":"4","last_reported":1777354188,"current_range_meters":6400,"station_id":"","pricing_plan_id":"cebpf4jnsgd1na2vs0mg"},{"bike_id":"7d24a3ee-0eb9-47a1-8904-33af700bdc69","system_id":"levelo_inurba_marseille","lat":43.28479,"lon":5.48407,"is_reserved":false,"is_disabled":false,"rental_uris":{"android":"levelo://app?vid=7d24a3ee-0eb9-47a1-8904-33af700bdc69","ios":"levelo://app?vid=7d24a3ee-0eb9-47a1-8904-33af700bdc69"},"vehicle_type_id":"4","last_reported":1777354188,"current_range_meters":6400,"station_id":"st_d3svhcjqgbts73a3dn0g","pricing_plan_id":"cebpf4jnsgd1na2vs0mg"},{"bike_id":"4126aa0b-3227-4073-9684-002f7077bd65","system_id":"levelo_inurba_marseille","lat":43.24936,"lon":5.40486,"is_reserved":false,"is_disabled":false,"rental_uris":{"android":"levelo://app?vid=4126aa0b-3227-4073-9684-002f7077bd65","ios":"levelo://app?vid=4126aa0b-3227-4073-9684-002f7077bd65"},"vehicle_type_id":"4","last_reported":1777354188,"current_range_meters":6400,"station_id":"st_d2ngiaodas8pm72gd1h0","pricing_plan_id":"cebpf4jnsgd1na2vs0mg"},{"bike_id":"27cd71a7-0940-4415-a67f-21597fbf1cd9","system_id":"levelo_inurba_marseille","lat":43.34534,"lon":5.37787,"is_reserved":false,"is_disabled":false,"rental_uris":{"android":"levelo://app?vid=27cd71a7-0940-4415-a67f-21597fbf1cd9","ios":"levelo://app?vid=27cd71a7-0940-4415-a67f-21597fbf1cd9"},"vehicle_type_id":"4","last_reported":1777354188,"current_range_meters":6400,"station_id":"","pricing_plan_id":"cebpf4jnsgd1na2vs0mg"},{"bike_id":"c7090961-34dd-4858-a08d-f7ff68a61f87","system_id":"levelo_inurba_marseille","lat":43.292591,"lon":5.409102,"is_reserved":false,"is_disabled":false,"rental_uris":{"android":"levelo://app?vid=c7090961-34dd-4858-a08d-f7ff68a61f87","ios":"levelo://app?vid=c7090961-34dd-4858-a08d-f7ff68a61f87"},"vehicle_type_id":"4","last_reported":1777354188,"current_range_meters":6400,"station_id":"ce4bh192rcd13ifvqdc0","pricing_plan_id":"cebpf4jnsgd1na2vs0mg"},{"bike_id":"65be2cd8-ab0d-46ba-80d2-20d5752f09bd","system_id":"levelo_inurba_marseille","lat":43.33025,"lon":5.39041,"is_reserved":false,"is_disabled":false,"rental_uris":{"android":"levelo://app?vid=65be2cd8-ab0d-46ba-80d2-20d5752f09bd","ios":"levelo://app?vid=65be2cd8-ab0d-46ba-80d2-20d5752f09bd"},"vehicle_type_id":"4","last_reported":1777354188,"current_range_meters":6400,"station_id":"ce4bhr92rcd13ifvqhrg","pricing_plan_id":"cebpf4jnsgd1na2vs0mg"},{"bike_id":"14869599-ab60-4e86-8f2c-d0b35d29b95e","system_id":"levelo_inurba_marseille","lat":43.25647,"lon":5.41849,"is_reserved":false,"is_disabled":false,"rental_uris":{"android":"levelo://app?vid=14869599-ab60-4e86-8f2c-d0b35d29b95e","ios":"levelo://app?vid=14869599-ab60-4e86-8f2c-d0b35d29b95e"},"vehicle_type_id":"4","last_reported":1777354188,"current_range_meters":6400,"station_id":"","pricing_plan_id":"cebpf4jnsgd1na2vs0mg"},{"bike_id":"64633d88-7e11-4956-bb07-afe41f84a160","system_id":"levelo_inurba_marseille","lat":43.31146,"lon":5.37746,"is_reserved":false,"is_disabled":false,"rental_uris":{"android":"levelo://app?vid=64633d88-7e11-4956-bb07-afe41f84a160","ios":"levelo://app?vid=64633d88-7e11-4956-bb07-afe41f84a160"},"vehicle_type_id":"4","last_reported":1777354188,"current_range_meters":6400,"station_id":"ce4bgt92rcd13ifvqcg0","pricing_plan_id":"cebpf4jnsgd1na2vs0mg"},{"bike_id":"4d06cad1-2e4a-4159-99f3-38d6bcb9cc90","system_id":"levelo_inurba_marseille","lat":43.23203,"lon":5.35555,"is_reserved":false,"is_disabled":false,"rental_uris":{"android":"levelo://app?vid=4d06cad1-2e4a-4159-99f3-38d6bcb9cc90","ios":"levelo://app?vid=4d06cad1-2e4a-4159-99f3-38d6bcb9cc90"},"vehicle_type_id":"4","last_reported":1777354188,"current_range_meters":6400,"station_id":"ce4bhu92rcd13ifvqi70","pricing_plan_id":"cebpf4jnsgd1na2vs0mg"},{"bike_id":"45975912-e80e-42bd-80d4-178eefaa9458","system_id":"levelo_inurba_marseille","lat":43.28817,"lon":5.3932,"is_reserved":false,"is_disabled":false,"rental_uris":{"android":"levelo://app?vid=45975912-e80e-42bd-80d4-178eefaa9458","ios":"levelo://app?vid=45975912-e80e-42bd-80d4-178eefaa9458"},"vehicle_type_id":"4","last_reported":1777354188,"current_range_meters":6400,"station_id":"ce4bh2p2rcd13ifvqdi0","pricing_plan_id":"cebpf4jnsgd1na2vs0mg"},{"bike_id":"dfd285f1-0a48-44f6-b0d7-8286d4981c32","system_id":"levelo_inurba_marseille","lat":43.25329,"lon":5.42174,"is_reserved":false,"is_disabled":false,"rental_uris":{"android":"levelo://app?vid=dfd285f1-0a48-44f6-b0d7-8286d4981c32","ios":"levelo://app?vid=dfd285f1-0a48-44f6-b0d7-8286d4981c32"},"vehicle_type_id":"4","last_reported":1777354188,"current_range_meters":6400,"station_id":"st_d2m65c5bi1j21697t3ng","pricing_plan_id":"cebpf4jnsgd1na2vs0mg"},{"bike_id":"1d51c702-75ba-494d-89c9-6b8c4379e860","system_id":"levelo_inurba_marseille","lat":43.31218,"lon":5.37818,"is_reserved":false,"is_disabled":false,"rental_uris":{"android":"levelo://app?vid=1d51c702-75ba-494d-89c9-6b8c4379e860","ios":"levelo://app?vid=1d51c702-75ba-494d-89c9-6b8c4379e860"},"vehicle_type_id":"4","last_reported":1777354188,"current_range_meters":6400,"station_id":"","pricing_plan_id":"cebpf4jnsgd1na2vs0mg"},{"bike_id":"272adfe1-16c9-4d3d-bb04-2ed96330910c","system_id":"levelo_inurba_marseille","lat":43.28849,"lon":5.39322,"is_reserved":false,"is_disabled":false,"rental_uris":{"android":"levelo://app?vid=272adfe1-16c9-4d3d-bb04-2ed96330910c","ios":"levelo://app?vid=272adfe1-16c9-4d3d-bb04-2ed96330910c"},"vehicle_type_id":"4","last_reported":1777354188,"current_range_meters":6400,"station_id":"ce4bh2p2rcd13ifvqdi0","pricing_plan_id":"cebpf4jnsgd1na2vs0mg"},{"bike_id":"f447fec5-f118-42c2-be2c-8ef32b6d20a2","system_id":"levelo_inurba_marseille","lat":43.25963,"lon":5.41685,"is_reserved":false,"is_disabled":false,"rental_uris":{"android":"levelo://app?vid=f447fec5-f118-42c2-be2c-8ef32b6d20a2","ios":"levelo://app?vid=f447fec5-f118-42c2-be2c-8ef32b6d20a2"},"vehicle_type_id":"4","last_reported":1777354188,"current_range_meters":6800,"station_id":"","pricing_plan_id":"cebpf4jnsgd1na2vs0mg"},{"bike_id":"8ac0bd5f-2f2a-4833-ada5-2e9beded5ddb","system_id":"levelo_inurba_marseille","lat":43.31503,"lon":5.39136,"is_reserved":false,"is_disabled":false,"rental_uris":{"android":"levelo://app?vid=8ac0bd5f-2f2a-4833-ada5-2e9beded5ddb","ios":"levelo://app?vid=8ac0bd5f-2f2a-4833-ada5-2e9beded5ddb"},"vehicle_type_id":"4","last_reported":1777354188,"current_range_meters":6800,"station_id":"","pricing_plan_id":"cebpf4jnsgd1na2vs0mg"},{"bike_id":"99b0db6f-dcff-4455-9282-a2a21a6ff5c6","system_id":"levelo_inurba_marseille","lat":43.29197,"lon":5.39316,"is_reserved":false,"is_disabled":false,"rental_uris":{"android":"levelo://app?vid=99b0db6f-dcff-4455-9282-a2a21a6ff5c6","ios":"levelo://app?vid=99b0db6f-dcff-4455-9282-a2a21a6ff5c6"},"vehicle_type_id":"4","last_reported":1777354188,"current_range_meters":6800,"station_id":"ce4bh192rcd13ifvqdd0","pricing_plan_id":"cebpf4jnsgd1na2vs0mg"},{"bike_id":"16d472fe-eb19-4acc-8aa8-94088ad37de6","system_id":"levelo_inurba_marseille","lat":43.35197,"lon":5.36389,"is_reserved":false,"is_disabled":false,"rental_uris":{"android":"levelo://app?vid=16d472fe-eb19-4acc-8aa8-94088ad37de6","ios":"levelo://app?vid=16d472fe-eb19-4acc-8aa8-94088ad37de6"},"vehicle_type_id":"4","last_reported":1777354188,"current_range_meters":6800,"station_id":"","pricing_plan_id":"cebpf4jnsgd1na2vs0mg"},{"bike_id":"74929e98-c2e0-43cc-b447-0901251d01cb","system_id":"levelo_inurba_marseille","lat":43.2549,"lon":5.37677,"is_reserved":false,"is_disabled":false,"rental_uris":{"android":"levelo://app?vid=74929e98-c2e0-43cc-b447-0901251d01cb","ios":"levelo://app?vid=74929e98-c2e0-43cc-b447-0901251d01cb"},"vehicle_type_id":"4","last_reported":1777354188,"current_range_meters":6800,"station_id":"ce4bhh12rcd13ifvqff0","pricing_plan_id":"cebpf4jnsgd1na2vs0mg"},{"bike_id":"e5cd69c7-9379-4379-93b8-62cf25a54177","system_id":"levelo_inurba_marseille","lat":43.337497,"lon":5.374492,"is_reserved":false,"is_disabled":false,"rental_uris":{"android":"levelo://app?vid=e5cd69c7-9379-4379-93b8-62cf25a54177","ios":"levelo://app?vid=e5cd69c7-9379-4379-93b8-62cf25a54177"},"vehicle_type_id":"4","last_reported":1777354188,"current_range_meters":6800,"station_id":"","pricing_plan_id":"cebpf4jnsgd1na2vs0mg"},{"bike_id":"0e46b66f-347b-4d4f-a2c5-cce61bf15e94","system_id":"levelo_inurba_marseille","lat":43.27839,"lon":5.39208,"is_reserved":false,"is_disabled":false,"rental_uris":{"android":"levelo://app?vid=0e46b66f-347b-4d4f-a2c5-cce61bf15e94","ios":"levelo://app?vid=0e46b66f-347b-4d4f-a2c5-cce61bf15e94"},"vehicle_type_id":"4","last_reported":1777354188,"current_range_meters":6800,"station_id":"ce4bhjp2rcd13ifvqga0","pricing_plan_id":"cebpf4jnsgd1na2vs0mg"},{"bike_id":"e993cba1-46e4-4461-855f-3f2092ae4ac8","system_id":"levelo_inurba_marseille","lat":43.2841,"lon":5.34988,"is_reserved":false,"is_disabled":true,"rental_uris":{"android":"levelo://app?vid=e993cba1-46e4-4461-855f-3f2092ae4ac8","ios":"levelo://app?vid=e993cba1-46e4-4461-855f-3f2092ae4ac8"},"vehicle_type_id":"4","last_reported":1777354188,"current_range_meters":6800,"station_id":"ce4bhbh2rcd13ifvqepg","pricing_plan_id":"cebpf4jnsgd1na2vs0mg"},{"bike_id":"3109b0e0-cfd8-4009-92c0-9fa7911dfae1","system_id":"levelo_inurba_marseille","lat":43.31301,"lon":5.39726,"is_reserved":false,"is_disabled":false,"rental_uris":{"android":"levelo://app?vid=3109b0e0-cfd8-4009-92c0-9fa7911dfae1","ios":"levelo://app?vid=3109b0e0-cfd8-4009-92c0-9fa7911dfae1"},"vehicle_type_id":"4","last_reported":1777354188,"current_range_meters":6800,"station_id":"ce4bgvp2rcd13ifvqcu0","pricing_plan_id":"cebpf4jnsgd1na2vs0mg"},{"bike_id":"d0633771-e198-482e-aee8-099fb72776d5","system_id":"levelo_inurba_marseille","lat":43.23183,"lon":5.39997,"is_reserved":false,"is_disabled":true,"rental_uris":{"android":"levelo://app?vid=d0633771-e198-482e-aee8-099fb72776d5","ios":"levelo://app?vid=d0633771-e198-482e-aee8-099fb72776d5"},"vehicle_type_id":"4","last_reported":1777354188,"current_range_meters":6800,"station_id":"ce4bhn12rcd13ifvqgqg","pricing_plan_id":"cebpf4jnsgd1na2vs0mg"},{"bike_id":"9ce63d40-6d31-4810-9d08-18099d265915","system_id":"levelo_inurba_marseille","lat":43.30131,"lon":5.39875,"is_reserved":false,"is_disabled":false,"rental_uris":{"android":"levelo://app?vid=9ce63d40-6d31-4810-9d08-18099d265915","ios":"levelo://app?vid=9ce63d40-6d31-4810-9d08-18099d265915"},"vehicle_type_id":"4","last_reported":1777354188,"current_range_meters":6800,"station_id":"ce4bh0h2rcd13ifvqd40","pricing_plan_id":"cebpf4jnsgd1na2vs0mg"},{"bike_id":"9daae5fc-029a-4575-8080-71abfd7ee94e","system_id":"levelo_inurba_marseille","lat":43.21196,"lon":5.35075,"is_reserved":false,"is_disabled":false,"rental_uris":{"android":"levelo://app?vid=9daae5fc-029a-4575-8080-71abfd7ee94e","ios":"levelo://app?vid=9daae5fc-029a-4575-8080-71abfd7ee94e"},"vehicle_type_id":"4","last_reported":1777354188,"current_range_meters":6800,"station_id":"st_cvj6sg6p6f1abm77japg","pricing_plan_id":"cebpf4jnsgd1na2vs0mg"},{"bike_id":"486a6bd7-6877-47a7-872d-b6d92138ce35","system_id":"levelo_inurba_marseille","lat":43.28148,"lon":5.4265,"is_reserved":false,"is_disabled":false,"rental_uris":{"android":"levelo://app?vid=486a6bd7-6877-47a7-872d-b6d92138ce35","ios":"levelo://app?vid=486a6bd7-6877-47a7-872d-b6d92138ce35"},"vehicle_type_id":"4","last_reported":1777354188,"current_range_meters":6800,"station_id":"ce4bhnh2rcd13ifvqgug","pricing_plan_id":"cebpf4jnsgd1na2vs0mg"},{"bike_id":"dc4f256b-dad1-4b0e-b0aa-70815278bacb","system_id":"levelo_inurba_marseille","lat":43.28967,"lon":5.39318,"is_reserved":false,"is_disabled":false,"rental_uris":{"android":"levelo://app?vid=dc4f256b-dad1-4b0e-b0aa-70815278bacb","ios":"levelo://app?vid=dc4f256b-dad1-4b0e-b0aa-70815278bacb"},"vehicle_type_id":"4","last_reported":1777354188,"current_range_meters":6800,"station_id":"","pricing_plan_id":"cebpf4jnsgd1na2vs0mg"},{"bike_id":"5966df63-83c6-4f34-ae95-a22fe39c03ab","system_id":"levelo_inurba_marseille","lat":43.26547,"lon":5.39072,"is_reserved":false,"is_disabled":true,"rental_uris":{"android":"levelo://app?vid=5966df63-83c6-4f34-ae95-a22fe39c03ab","ios":"levelo://app?vid=5966df63-83c6-4f34-ae95-a22fe39c03ab"},"vehicle_type_id":"4","last_reported":1777354188,"current_range_meters":6800,"station_id":"ce4bhe12rcd13ifvqf30","pricing_plan_id":"cebpf4jnsgd1na2vs0mg"},{"bike_id":"6f316e4d-a13e-4014-bef8-9ebd3486c249","system_id":"levelo_inurba_marseille","lat":43.296598,"lon":5.378044,"is_reserved":false,"is_disabled":false,"rental_uris":{"android":"levelo://app?vid=6f316e4d-a13e-4014-bef8-9ebd3486c249","ios":"levelo://app?vid=6f316e4d-a13e-4014-bef8-9ebd3486c249"},"vehicle_type_id":"4","last_reported":1777354188,"current_range_meters":6800,"station_id":"ce4bgh92rcd13ifvqb50","pricing_plan_id":"cebpf4jnsgd1na2vs0mg"},{"bike_id":"906bb9fa-4cee-445f-bfb8-ea0d07cc33ac","system_id":"levelo_inurba_marseille","lat":43.28357,"lon":5.38113,"is_reserved":false,"is_disabled":false,"rental_uris":{"android":"levelo://app?vid=906bb9fa-4cee-445f-bfb8-ea0d07cc33ac","ios":"levelo://app?vid=906bb9fa-4cee-445f-bfb8-ea0d07cc33ac"},"vehicle_type_id":"4","last_reported":1777354188,"current_range_meters":7200,"station_id":"ce4bh412rcd13ifvqdr0","pricing_plan_id":"cebpf4jnsgd1na2vs0mg"},{"bike_id":"0d4dfb01-63c5-4be7-bdb0-5163c6b2578c","system_id":"levelo_inurba_marseille","lat":43.31912,"lon":5.36808,"is_reserved":false,"is_disabled":false,"rental_uris":{"android":"levelo://app?vid=0d4dfb01-63c5-4be7-bdb0-5163c6b2578c","ios":"levelo://app?vid=0d4dfb01-63c5-4be7-bdb0-5163c6b2578c"},"vehicle_type_id":"4","last_reported":1777354188,"current_range_meters":7200,"station_id":"st_d6o2h0d0559c73evc1b0","pricing_plan_id":"cebpf4jnsgd1na2vs0mg"},{"bike_id":"f34173ba-e522-42fc-89f1-ad871c6b29c4","system_id":"levelo_inurba_marseille","lat":43.29483,"lon":5.4331,"is_reserved":false,"is_disabled":false,"rental_uris":{"android":"levelo://app?vid=f34173ba-e522-42fc-89f1-ad871c6b29c4","ios":"levelo://app?vid=f34173ba-e522-42fc-89f1-ad871c6b29c4"},"vehicle_type_id":"4","last_reported":1777354188,"current_range_meters":7200,"station_id":"st_d3j5ugp08ojc73fj9d10","pricing_plan_id":"cebpf4jnsgd1na2vs0mg"},{"bike_id":"9f2fc3f7-556e-4c37-a225-50c0d5d924cd","system_id":"levelo_inurba_marseille","lat":43.24633,"lon":5.43153,"is_reserved":false,"is_disabled":false,"rental_uris":{"android":"levelo://app?vid=9f2fc3f7-556e-4c37-a225-50c0d5d924cd","ios":"levelo://app?vid=9f2fc3f7-556e-4c37-a225-50c0d5d924cd"},"vehicle_type_id":"4","last_reported":1777354188,"current_range_meters":7200,"station_id":"st_d2m6c4gdas8pm72e190g","pricing_plan_id":"cebpf4jnsgd1na2vs0mg"},{"bike_id":"e593377f-0b04-468e-be39-461905e9f322","system_id":"levelo_inurba_marseille","lat":43.24653,"lon":5.38894,"is_reserved":false,"is_disabled":false,"rental_uris":{"android":"levelo://app?vid=e593377f-0b04-468e-be39-461905e9f322","ios":"levelo://app?vid=e593377f-0b04-468e-be39-461905e9f322"},"vehicle_type_id":"4","last_reported":1777354188,"current_range_meters":7200,"station_id":"ce4bhg12rcd13ifvqf60","pricing_plan_id":"cebpf4jnsgd1na2vs0mg"},{"bike_id":"1fe50201-99f5-4ed2-8aa5-ca1a0cc0784b","system_id":"levelo_inurba_marseille","lat":43.23124,"lon":5.43724,"is_reserved":false,"is_disabled":false,"rental_uris":{"android":"levelo://app?vid=1fe50201-99f5-4ed2-8aa5-ca1a0cc0784b","ios":"levelo://app?vid=1fe50201-99f5-4ed2-8aa5-ca1a0cc0784b"},"vehicle_type_id":"4","last_reported":1777354188,"current_range_meters":7200,"station_id":"ce4bhmp2rcd13ifvqgog","pricing_plan_id":"cebpf4jnsgd1na2vs0mg"},{"bike_id":"55ffa9cb-0e63-4320-8c55-2d765a24cf5f","system_id":"levelo_inurba_marseille","lat":43.24156,"lon":5.36407,"is_reserved":false,"is_disabled":false,"rental_uris":{"android":"levelo://app?vid=55ffa9cb-0e63-4320-8c55-2d765a24cf5f","ios":"levelo://app?vid=55ffa9cb-0e63-4320-8c55-2d765a24cf5f"},"vehicle_type_id":"4","last_reported":1777354188,"current_range_meters":7200,"station_id":"cpo36qri1sfpv3e86is0","pricing_plan_id":"cebpf4jnsgd1na2vs0mg"},{"bike_id":"b5088cd7-5e45-457a-ae9f-32446d67355c","system_id":"levelo_inurba_marseille","lat":43.32477,"lon":5.36571,"is_reserved":false,"is_disabled":false,"rental_uris":{"android":"levelo://app?vid=b5088cd7-5e45-457a-ae9f-32446d67355c","ios":"levelo://app?vid=b5088cd7-5e45-457a-ae9f-32446d67355c"},"vehicle_type_id":"4","last_reported":1777354188,"current_range_meters":7200,"station_id":"ce4bhs12rcd13ifvqhvg","pricing_plan_id":"cebpf4jnsgd1na2vs0mg"},{"bike_id":"369ccb57-d03b-41f4-a2b8-8a53088742e0","system_id":"levelo_inurba_marseille","lat":43.29782,"lon":5.3936,"is_reserved":false,"is_disabled":false,"rental_uris":{"android":"levelo://app?vid=369ccb57-d03b-41f4-a2b8-8a53088742e0","ios":"levelo://app?vid=369ccb57-d03b-41f4-a2b8-8a53088742e0"},"vehicle_type_id":"4","last_reported":1777354188,"current_range_meters":7200,"station_id":"chh1huq6cuj3fo74tm60","pricing_plan_id":"cebpf4jnsgd1na2vs0mg"},{"bike_id":"c5eb2544-6363-4bb7-8f1a-002e9224c711","system_id":"levelo_inurba_marseille","lat":43.31195,"lon":5.38724,"is_reserved":false,"is_disabled":false,"rental_uris":{"android":"levelo://app?vid=c5eb2544-6363-4bb7-8f1a-002e9224c711","ios":"levelo://app?vid=c5eb2544-6363-4bb7-8f1a-002e9224c711"},"vehicle_type_id":"4","last_reported":1777354188,"current_range_meters":7200,"station_id":"ce4bgv12rcd13ifvqcp0","pricing_plan_id":"cebpf4jnsgd1na2vs0mg"},{"bike_id":"fac28b24-06fc-4686-bb93-4fb4a8f802d8","system_id":"levelo_inurba_marseille","lat":43.29539,"lon":5.37513,"is_reserved":false,"is_disabled":false,"rental_uris":{"android":"levelo://app?vid=fac28b24-06fc-4686-bb93-4fb4a8f802d8","ios":"levelo://app?vid=fac28b24-06fc-4686-bb93-4fb4a8f802d8"},"vehicle_type_id":"4","last_reported":1777354188,"current_range_meters":7200,"station_id":"ce4bgkp2rcd13ifvqbmg","pricing_plan_id":"cebpf4jnsgd1na2vs0mg"},{"bike_id":"f68f1035-28b2-4d29-bb46-2eba59d9dd05","system_id":"levelo_inurba_marseille","lat":43.29087,"lon":5.35872,"is_reserved":false,"is_disabled":false,"rental_uris":{"android":"levelo://app?vid=f68f1035-28b2-4d29-bb46-2eba59d9dd05","ios":"levelo://app?vid=f68f1035-28b2-4d29-bb46-2eba59d9dd05"},"vehicle_type_id":"4","last_reported":1777354188,"current_range_meters":7200,"station_id":"ce4bha92rcd13ifvqeg0","pricing_plan_id":"cebpf4jnsgd1na2vs0mg"},{"bike_id":"9f543810-4dfb-4951-9c10-acd2d2940820","system_id":"levelo_inurba_marseille","lat":43.28566,"lon":5.39501,"is_reserved":false,"is_disabled":true,"rental_uris":{"android":"levelo://app?vid=9f543810-4dfb-4951-9c10-acd2d2940820","ios":"levelo://app?vid=9f543810-4dfb-4951-9c10-acd2d2940820"},"vehicle_type_id":"4","last_reported":1777354188,"current_range_meters":7200,"station_id":"ce4bh292rcd13ifvqdg0","pricing_plan_id":"cebpf4jnsgd1na2vs0mg"},{"bike_id":"52773601-2a24-4a86-9c82-463ed16cf75e","system_id":"levelo_inurba_marseille","lat":43.26222,"lon":5.38766,"is_reserved":false,"is_disabled":false,"rental_uris":{"android":"levelo://app?vid=52773601-2a24-4a86-9c82-463ed16cf75e","ios":"levelo://app?vid=52773601-2a24-4a86-9c82-463ed16cf75e"},"vehicle_type_id":"4","last_reported":1777354188,"current_range_meters":7200,"station_id":"","pricing_plan_id":"cebpf4jnsgd1na2vs0mg"},{"bike_id":"93b45866-f66d-4729-beed-fc668232a420","system_id":"levelo_inurba_marseille","lat":43.31273,"lon":5.40176,"is_reserved":false,"is_disabled":false,"rental_uris":{"android":"levelo://app?vid=93b45866-f66d-4729-beed-fc668232a420","ios":"levelo://app?vid=93b45866-f66d-4729-beed-fc668232a420"},"vehicle_type_id":"4","last_reported":1777354188,"current_range_meters":8000,"station_id":"ce4bh092rcd13ifvqd30","pricing_plan_id":"cebpf4jnsgd1na2vs0mg"},{"bike_id":"3462feaa-c9a2-441c-b3a1-f70058c367e6","system_id":"levelo_inurba_marseille","lat":43.24398,"lon":5.37073,"is_reserved":false,"is_disabled":false,"rental_uris":{"android":"levelo://app?vid=3462feaa-c9a2-441c-b3a1-f70058c367e6","ios":"levelo://app?vid=3462feaa-c9a2-441c-b3a1-f70058c367e6"},"vehicle_type_id":"4","last_reported":1777354188,"current_range_meters":8000,"station_id":"ce4bhhh2rcd13ifvqfk0","pricing_plan_id":"cebpf4jnsgd1na2vs0mg"},{"bike_id":"f813821a-ce52-40b8-a9c3-302d9351356b","system_id":"levelo_inurba_marseille","lat":43.25815,"lon":5.38876,"is_reserved":false,"is_disabled":true,"rental_uris":{"android":"levelo://app?vid=f813821a-ce52-40b8-a9c3-302d9351356b","ios":"levelo://app?vid=f813821a-ce52-40b8-a9c3-302d9351356b"},"vehicle_type_id":"4","last_reported":1777354188,"current_range_meters":8000,"station_id":"","pricing_plan_id":"cebpf4jnsgd1na2vs0mg"},{"bike_id":"adfeb72c-acb2-41f5-a829-261edc1615c7","system_id":"levelo_inurba_marseille","lat":43.3078,"lon":5.38164,"is_reserved":false,"is_disabled":false,"rental_uris":{"android":"levelo://app?vid=adfeb72c-acb2-41f5-a829-261edc1615c7","ios":"levelo://app?vid=adfeb72c-acb2-41f5-a829-261edc1615c7"},"vehicle_type_id":"4","last_reported":1777354188,"current_range_meters":8000,"station_id":"ce4bgt12rcd13ifvqce0","pricing_plan_id":"cebpf4jnsgd1na2vs0mg"},{"bike_id":"84b7cd77-f30f-4fac-b8ad-2b060a6cd19b","system_id":"levelo_inurba_marseille","lat":43.29891,"lon":5.39734,"is_reserved":false,"is_disabled":false,"rental_uris":{"android":"levelo://app?vid=84b7cd77-f30f-4fac-b8ad-2b060a6cd19b","ios":"levelo://app?vid=84b7cd77-f30f-4fac-b8ad-2b060a6cd19b"},"vehicle_type_id":"4","last_reported":1777354188,"current_range_meters":8000,"station_id":"ce4bh0h2rcd13ifvqd50","pricing_plan_id":"cebpf4jnsgd1na2vs0mg"},{"bike_id":"d2276d1c-4dd8-4805-b674-72347073e05f","system_id":"levelo_inurba_marseille","lat":43.28871,"lon":5.42525,"is_reserved":false,"is_disabled":false,"rental_uris":{"android":"levelo://app?vid=d2276d1c-4dd8-4805-b674-72347073e05f","ios":"levelo://app?vid=d2276d1c-4dd8-4805-b674-72347073e05f"},"vehicle_type_id":"4","last_reported":1777354188,"current_range_meters":8000,"station_id":"st_d3b462108ojc7389ooeg","pricing_plan_id":"cebpf4jnsgd1na2vs0mg"},{"bike_id":"186a1b4d-2284-4b0e-be24-5ff48ce0d562","system_id":"levelo_inurba_marseille","lat":43.30155,"lon":5.38096,"is_reserved":false,"is_disabled":false,"rental_uris":{"android":"levelo://app?vid=186a1b4d-2284-4b0e-be24-5ff48ce0d562","ios":"levelo://app?vid=186a1b4d-2284-4b0e-be24-5ff48ce0d562"},"vehicle_type_id":"4","last_reported":1777354188,"current_range_meters":8000,"station_id":"ce4bgjp2rcd13ifvqbh0","pricing_plan_id":"cebpf4jnsgd1na2vs0mg"},{"bike_id":"e9e489ed-5efb-43d0-ac34-79efe72d0544","system_id":"levelo_inurba_marseille","lat":43.29249,"lon":5.38442,"is_reserved":false,"is_disabled":false,"rental_uris":{"android":"levelo://app?vid=e9e489ed-5efb-43d0-ac34-79efe72d0544","ios":"levelo://app?vid=e9e489ed-5efb-43d0-ac34-79efe72d0544"},"vehicle_type_id":"4","last_reported":1777354188,"current_range_meters":8000,"station_id":"ce4bh692rcd13ifvqea0","pricing_plan_id":"cebpf4jnsgd1na2vs0mg"},{"bike_id":"f9f92c5c-5f51-4e1c-a4a4-da02d7396e3a","system_id":"levelo_inurba_marseille","lat":43.21733,"lon":5.34609,"is_reserved":false,"is_disabled":false,"rental_uris":{"android":"levelo://app?vid=f9f92c5c-5f51-4e1c-a4a4-da02d7396e3a","ios":"levelo://app?vid=f9f92c5c-5f51-4e1c-a4a4-da02d7396e3a"},"vehicle_type_id":"4","last_reported":1777354188,"current_range_meters":8000,"station_id":"st_cvj6r9ubvosntc0bgbag","pricing_plan_id":"cebpf4jnsgd1na2vs0mg"},{"bike_id":"2b2662f1-d28b-44f2-b2c8-61c6569e4c3d","system_id":"levelo_inurba_marseille","lat":43.29246,"lon":5.40116,"is_reserved":false,"is_disabled":true,"rental_uris":{"android":"levelo://app?vid=2b2662f1-d28b-44f2-b2c8-61c6569e4c3d","ios":"levelo://app?vid=2b2662f1-d28b-44f2-b2c8-61c6569e4c3d"},"vehicle_type_id":"4","last_reported":1777354188,"current_range_meters":8000,"station_id":"ce4bh312rcd13ifvqdk0","pricing_plan_id":"cebpf4jnsgd1na2vs0mg"},{"bike_id":"a7ef47ae-ac7a-4811-8371-2ebdbd6eea38","system_id":"levelo_inurba_marseille","lat":43.21734,"lon":5.34597,"is_reserved":false,"is_disabled":false,"rental_uris":{"android":"levelo://app?vid=a7ef47ae-ac7a-4811-8371-2ebdbd6eea38","ios":"levelo://app?vid=a7ef47ae-ac7a-4811-8371-2ebdbd6eea38"},"vehicle_type_id":"4","last_reported":1777354188,"current_range_meters":8000,"station_id":"st_cvj6r9ubvosntc0bgbag","pricing_plan_id":"cebpf4jnsgd1na2vs0mg"},{"bike_id":"f7cd50ab-86b6-4ec0-a44d-57bbb6fb2471","system_id":"levelo_inurba_marseille","lat":43.28833,"lon":5.39323,"is_reserved":false,"is_disabled":false,"rental_uris":{"android":"levelo://app?vid=f7cd50ab-86b6-4ec0-a44d-57bbb6fb2471","ios":"levelo://app?vid=f7cd50ab-86b6-4ec0-a44d-57bbb6fb2471"},"vehicle_type_id":"4","last_reported":1777354188,"current_range_meters":8000,"station_id":"ce4bh2p2rcd13ifvqdi0","pricing_plan_id":"cebpf4jnsgd1na2vs0mg"},{"bike_id":"987eda33-b3ad-4fac-a63c-0e3ff496e921","system_id":"levelo_inurba_marseille","lat":43.32367,"lon":5.36751,"is_reserved":false,"is_disabled":false,"rental_uris":{"android":"levelo://app?vid=987eda33-b3ad-4fac-a63c-0e3ff496e921","ios":"levelo://app?vid=987eda33-b3ad-4fac-a63c-0e3ff496e921"},"vehicle_type_id":"4","last_reported":1777354188,"current_range_meters":8000,"station_id":"ce4bhsh2rcd13ifvqi2g","pricing_plan_id":"cebpf4jnsgd1na2vs0mg"},{"bike_id":"afde96ac-1493-4085-af72-e5da568a87fd","system_id":"levelo_inurba_marseille","lat":43.28488,"lon":5.48386,"is_reserved":false,"is_disabled":false,"rental_uris":{"android":"levelo://app?vid=afde96ac-1493-4085-af72-e5da568a87fd","ios":"levelo://app?vid=afde96ac-1493-4085-af72-e5da568a87fd"},"vehicle_type_id":"4","last_reported":1777354188,"current_range_meters":8000,"station_id":"st_d3svhcjqgbts73a3dn0g","pricing_plan_id":"cebpf4jnsgd1na2vs0mg"},{"bike_id":"18124950-1930-4034-8c4b-91a0d12df953","system_id":"levelo_inurba_marseille","lat":43.297855,"lon":5.370976,"is_reserved":false,"is_disabled":false,"rental_uris":{"android":"levelo://app?vid=18124950-1930-4034-8c4b-91a0d12df953","ios":"levelo://app?vid=18124950-1930-4034-8c4b-91a0d12df953"},"vehicle_type_id":"4","last_reported":1777354188,"current_range_meters":8000,"station_id":"ce4bgop2rcd13ifvqc1g","pricing_plan_id":"cebpf4jnsgd1na2vs0mg"},{"bike_id":"f0139309-3da0-445b-ae20-7e213ec938ff","system_id":"levelo_inurba_marseille","lat":43.29023,"lon":5.35936,"is_reserved":false,"is_disabled":false,"rental_uris":{"android":"levelo://app?vid=f0139309-3da0-445b-ae20-7e213ec938ff","ios":"levelo://app?vid=f0139309-3da0-445b-ae20-7e213ec938ff"},"vehicle_type_id":"4","last_reported":1777354188,"current_range_meters":8000,"station_id":"ce4bha92rcd13ifvqeg0","pricing_plan_id":"cebpf4jnsgd1na2vs0mg"},{"bike_id":"c4118d6e-3609-4ae2-8c49-d5d7613597bc","system_id":"levelo_inurba_marseille","lat":43.24171,"lon":5.36385,"is_reserved":false,"is_disabled":false,"rental_uris":{"android":"levelo://app?vid=c4118d6e-3609-4ae2-8c49-d5d7613597bc","ios":"levelo://app?vid=c4118d6e-3609-4ae2-8c49-d5d7613597bc"},"vehicle_type_id":"4","last_reported":1777354188,"current_range_meters":8000,"station_id":"cpo36qri1sfpv3e86is0","pricing_plan_id":"cebpf4jnsgd1na2vs0mg"},{"bike_id":"20111a87-41c4-4eaf-9fe8-f7469b02a4e4","system_id":"levelo_inurba_marseille","lat":43.30122,"lon":5.43117,"is_reserved":false,"is_disabled":false,"rental_uris":{"android":"levelo://app?vid=20111a87-41c4-4eaf-9fe8-f7469b02a4e4","ios":"levelo://app?vid=20111a87-41c4-4eaf-9fe8-f7469b02a4e4"},"vehicle_type_id":"4","last_reported":1777354188,"current_range_meters":8000,"station_id":"st_d3js3co5814s73ftftug","pricing_plan_id":"cebpf4jnsgd1na2vs0mg"},{"bike_id":"6b4aa15b-259f-4e69-9c10-9ad064f7be7c","system_id":"levelo_inurba_marseille","lat":43.2557,"lon":5.3826,"is_reserved":false,"is_disabled":false,"rental_uris":{"android":"levelo://app?vid=6b4aa15b-259f-4e69-9c10-9ad064f7be7c","ios":"levelo://app?vid=6b4aa15b-259f-4e69-9c10-9ad064f7be7c"},"vehicle_type_id":"4","last_reported":1777354188,"current_range_meters":8000,"station_id":"ce4bhih2rcd13ifvqfs0","pricing_plan_id":"cebpf4jnsgd1na2vs0mg"},{"bike_id":"eb6724d3-1e36-47e3-a5df-05104ed1cd04","system_id":"levelo_inurba_marseille","lat":43.24812,"lon":5.3746,"is_reserved":false,"is_disabled":false,"rental_uris":{"android":"levelo://app?vid=eb6724d3-1e36-47e3-a5df-05104ed1cd04","ios":"levelo://app?vid=eb6724d3-1e36-47e3-a5df-05104ed1cd04"},"vehicle_type_id":"4","last_reported":1777354188,"current_range_meters":8000,"station_id":"ce4bhgh2rcd13ifvqfb0","pricing_plan_id":"cebpf4jnsgd1na2vs0mg"},{"bike_id":"48567729-a37d-43a5-be29-532eb15e1964","system_id":"levelo_inurba_marseille","lat":43.28927,"lon":5.3641,"is_reserved":false,"is_disabled":false,"rental_uris":{"android":"levelo://app?vid=48567729-a37d-43a5-be29-532eb15e1964","ios":"levelo://app?vid=48567729-a37d-43a5-be29-532eb15e1964"},"vehicle_type_id":"4","last_reported":1777354188,"current_range_meters":8000,"station_id":"ce4bhc92rcd13ifvqetg","pricing_plan_id":"cebpf4jnsgd1na2vs0mg"},{"bike_id":"d37bfdb9-adc4-4f60-a4b7-610054d3a0a6","system_id":"levelo_inurba_marseille","lat":43.274951,"lon":5.389736,"is_reserved":false,"is_disabled":false,"rental_uris":{"android":"levelo://app?vid=d37bfdb9-adc4-4f60-a4b7-610054d3a0a6","ios":"levelo://app?vid=d37bfdb9-adc4-4f60-a4b7-610054d3a0a6"},"vehicle_type_id":"4","last_reported":1777354188,"current_range_meters":8000,"station_id":"ce4bhgp2rcd13ifvqfe0","pricing_plan_id":"cebpf4jnsgd1na2vs0mg"},{"bike_id":"a5c29ba6-9a3f-4a7f-8701-9a67e027726e","system_id":"levelo_inurba_marseille","lat":43.248,"lon":5.37461,"is_reserved":false,"is_disabled":false,"rental_uris":{"android":"levelo://app?vid=a5c29ba6-9a3f-4a7f-8701-9a67e027726e","ios":"levelo://app?vid=a5c29ba6-9a3f-4a7f-8701-9a67e027726e"},"vehicle_type_id":"4","last_reported":1777354188,"current_range_meters":8000,"station_id":"ce4bhgh2rcd13ifvqfb0","pricing_plan_id":"cebpf4jnsgd1na2vs0mg"},{"bike_id":"5c5e3633-7c28-4a43-963a-bf14bc28ad02","system_id":"levelo_inurba_marseille","lat":43.29524,"lon":5.38542,"is_reserved":false,"is_disabled":false,"rental_uris":{"android":"levelo://app?vid=5c5e3633-7c28-4a43-963a-bf14bc28ad02","ios":"levelo://app?vid=5c5e3633-7c28-4a43-963a-bf14bc28ad02"},"vehicle_type_id":"4","last_reported":1777354188,"current_range_meters":8000,"station_id":"ce4bgih2rcd13ifvqba0","pricing_plan_id":"cebpf4jnsgd1na2vs0mg"},{"bike_id":"c04c42cf-36a4-4a3c-b656-dde2fe1bae7e","system_id":"levelo_inurba_marseille","lat":43.28574,"lon":5.40268,"is_reserved":false,"is_disabled":false,"rental_uris":{"android":"levelo://app?vid=c04c42cf-36a4-4a3c-b656-dde2fe1bae7e","ios":"levelo://app?vid=c04c42cf-36a4-4a3c-b656-dde2fe1bae7e"},"vehicle_type_id":"4","last_reported":1777354188,"current_range_meters":8000,"station_id":"","pricing_plan_id":"cebpf4jnsgd1na2vs0mg"},{"bike_id":"5099fcc8-f95e-4589-bb9a-71165fa185c1","system_id":"levelo_inurba_marseille","lat":43.28498,"lon":5.38542,"is_reserved":false,"is_disabled":false,"rental_uris":{"android":"levelo://app?vid=5099fcc8-f95e-4589-bb9a-71165fa185c1","ios":"levelo://app?vid=5099fcc8-f95e-4589-bb9a-71165fa185c1"},"vehicle_type_id":"4","last_reported":1777354188,"current_range_meters":8400,"station_id":"ce4bh8p2rcd13ifvqeb0","pricing_plan_id":"cebpf4jnsgd1na2vs0mg"},{"bike_id":"ca970bed-dff0-40b1-aa6e-d0db5b10d8ee","system_id":"levelo_inurba_marseille","lat":43.27415,"lon":5.39399,"is_reserved":false,"is_disabled":true,"rental_uris":{"android":"levelo://app?vid=ca970bed-dff0-40b1-aa6e-d0db5b10d8ee","ios":"levelo://app?vid=ca970bed-dff0-40b1-aa6e-d0db5b10d8ee"},"vehicle_type_id":"4","last_reported":1777354188,"current_range_meters":8400,"station_id":"ce4bhdp2rcd13ifvqf20","pricing_plan_id":"cebpf4jnsgd1na2vs0mg"},{"bike_id":"fb55a29e-fc68-4bb3-9b50-a2d7150b05aa","system_id":"levelo_inurba_marseille","lat":43.30641,"lon":5.40086,"is_reserved":false,"is_disabled":false,"rental_uris":{"android":"levelo://app?vid=fb55a29e-fc68-4bb3-9b50-a2d7150b05aa","ios":"levelo://app?vid=fb55a29e-fc68-4bb3-9b50-a2d7150b05aa"},"vehicle_type_id":"4","last_reported":1777354188,"current_range_meters":8400,"station_id":"ce4bh112rcd13ifvqda0","pricing_plan_id":"cebpf4jnsgd1na2vs0mg"},{"bike_id":"d128858b-bebf-45c5-838d-de7a7a289000","system_id":"levelo_inurba_marseille","lat":43.29784,"lon":5.39338,"is_reserved":false,"is_disabled":false,"rental_uris":{"android":"levelo://app?vid=d128858b-bebf-45c5-838d-de7a7a289000","ios":"levelo://app?vid=d128858b-bebf-45c5-838d-de7a7a289000"},"vehicle_type_id":"4","last_reported":1777354188,"current_range_meters":8400,"station_id":"chh1huq6cuj3fo74tm60","pricing_plan_id":"cebpf4jnsgd1na2vs0mg"},{"bike_id":"ea0e9f70-3cf6-4747-81ce-1d670e663ee1","system_id":"levelo_inurba_marseille","lat":43.29581,"lon":5.39955,"is_reserved":false,"is_disabled":false,"rental_uris":{"android":"levelo://app?vid=ea0e9f70-3cf6-4747-81ce-1d670e663ee1","ios":"levelo://app?vid=ea0e9f70-3cf6-4747-81ce-1d670e663ee1"},"vehicle_type_id":"4","last_reported":1777354188,"current_range_meters":8400,"station_id":"ce4bh312rcd13ifvqdj0","pricing_plan_id":"cebpf4jnsgd1na2vs0mg"},{"bike_id":"94b1d427-102e-4c64-aa76-0c93e226150f","system_id":"levelo_inurba_marseille","lat":43.28474,"lon":5.48409,"is_reserved":false,"is_disabled":false,"rental_uris":{"android":"levelo://app?vid=94b1d427-102e-4c64-aa76-0c93e226150f","ios":"levelo://app?vid=94b1d427-102e-4c64-aa76-0c93e226150f"},"vehicle_type_id":"4","last_reported":1777354188,"current_range_meters":8400,"station_id":"st_d3svhcjqgbts73a3dn0g","pricing_plan_id":"cebpf4jnsgd1na2vs0mg"},{"bike_id":"e67acc8f-2ca9-403b-9a72-d3f8278b7623","system_id":"levelo_inurba_marseille","lat":43.24813,"lon":5.37468,"is_reserved":false,"is_disabled":false,"rental_uris":{"android":"levelo://app?vid=e67acc8f-2ca9-403b-9a72-d3f8278b7623","ios":"levelo://app?vid=e67acc8f-2ca9-403b-9a72-d3f8278b7623"},"vehicle_type_id":"4","last_reported":1777354188,"current_range_meters":8400,"station_id":"ce4bhgh2rcd13ifvqfb0","pricing_plan_id":"cebpf4jnsgd1na2vs0mg"},{"bike_id":"9a54fe80-e9a9-443a-ac41-a45c15c4d1fd","system_id":"levelo_inurba_marseille","lat":43.30877,"lon":5.39653,"is_reserved":false,"is_disabled":true,"rental_uris":{"android":"levelo://app?vid=9a54fe80-e9a9-443a-ac41-a45c15c4d1fd","ios":"levelo://app?vid=9a54fe80-e9a9-443a-ac41-a45c15c4d1fd"},"vehicle_type_id":"4","last_reported":1777354188,"current_range_meters":8400,"station_id":"ce4bh012rcd13ifvqcv0","pricing_plan_id":"cebpf4jnsgd1na2vs0mg"},{"bike_id":"bd0b0c73-e39f-4382-ba53-7ffd479c57c5","system_id":"levelo_inurba_marseille","lat":43.2656,"lon":5.37298,"is_reserved":false,"is_disabled":false,"rental_uris":{"android":"levelo://app?vid=bd0b0c73-e39f-4382-ba53-7ffd479c57c5","ios":"levelo://app?vid=bd0b0c73-e39f-4382-ba53-7ffd479c57c5"},"vehicle_type_id":"4","last_reported":1777354188,"current_range_meters":8400,"station_id":"ce4bhg12rcd13ifvqf70","pricing_plan_id":"cebpf4jnsgd1na2vs0mg"},{"bike_id":"626afedd-d732-4bc8-be6f-6408a29380b2","system_id":"levelo_inurba_marseille","lat":43.21184,"lon":5.35075,"is_reserved":false,"is_disabled":false,"rental_uris":{"android":"levelo://app?vid=626afedd-d732-4bc8-be6f-6408a29380b2","ios":"levelo://app?vid=626afedd-d732-4bc8-be6f-6408a29380b2"},"vehicle_type_id":"4","last_reported":1777354188,"current_range_meters":8400,"station_id":"st_cvj6sg6p6f1abm77japg","pricing_plan_id":"cebpf4jnsgd1na2vs0mg"},{"bike_id":"d14de05e-8665-4c3d-949e-102c763303bf","system_id":"levelo_inurba_marseille","lat":43.28614,"lon":5.37064,"is_reserved":false,"is_disabled":false,"rental_uris":{"android":"levelo://app?vid=d14de05e-8665-4c3d-949e-102c763303bf","ios":"levelo://app?vid=d14de05e-8665-4c3d-949e-102c763303bf"},"vehicle_type_id":"4","last_reported":1777354188,"current_range_meters":8400,"station_id":"ce4bht12rcd13ifvqi60","pricing_plan_id":"cebpf4jnsgd1na2vs0mg"},{"bike_id":"20f579e4-bb0c-44b0-8f96-d7af0d62c620","system_id":"levelo_inurba_marseille","lat":43.2509,"lon":5.39504,"is_reserved":false,"is_disabled":false,"rental_uris":{"android":"levelo://app?vid=20f579e4-bb0c-44b0-8f96-d7af0d62c620","ios":"levelo://app?vid=20f579e4-bb0c-44b0-8f96-d7af0d62c620"},"vehicle_type_id":"4","last_reported":1777354188,"current_range_meters":8400,"station_id":"ce4bhm12rcd13ifvqgkg","pricing_plan_id":"cebpf4jnsgd1na2vs0mg"},{"bike_id":"906f7108-febf-40ba-b432-178e412912d2","system_id":"levelo_inurba_marseille","lat":43.28354,"lon":5.38107,"is_reserved":false,"is_disabled":false,"rental_uris":{"android":"levelo://app?vid=906f7108-febf-40ba-b432-178e412912d2","ios":"levelo://app?vid=906f7108-febf-40ba-b432-178e412912d2"},"vehicle_type_id":"4","last_reported":1777354188,"current_range_meters":8400,"station_id":"ce4bh412rcd13ifvqdr0","pricing_plan_id":"cebpf4jnsgd1na2vs0mg"},{"bike_id":"76907408-a8ff-4688-9cbf-66e48bb415e8","system_id":"levelo_inurba_marseille","lat":43.28706,"lon":5.46695,"is_reserved":false,"is_disabled":false,"rental_uris":{"android":"levelo://app?vid=76907408-a8ff-4688-9cbf-66e48bb415e8","ios":"levelo://app?vid=76907408-a8ff-4688-9cbf-66e48bb415e8"},"vehicle_type_id":"4","last_reported":1777354188,"current_range_meters":8400,"station_id":"st_d6tc3vkotcvc738tfjhg","pricing_plan_id":"cebpf4jnsgd1na2vs0mg"},{"bike_id":"92b0e79d-5118-4cdc-a154-ad1d52d847b8","system_id":"levelo_inurba_marseille","lat":43.29608,"lon":5.36065,"is_reserved":false,"is_disabled":false,"rental_uris":{"android":"levelo://app?vid=92b0e79d-5118-4cdc-a154-ad1d52d847b8","ios":"levelo://app?vid=92b0e79d-5118-4cdc-a154-ad1d52d847b8"},"vehicle_type_id":"4","last_reported":1777354188,"current_range_meters":8400,"station_id":"","pricing_plan_id":"cebpf4jnsgd1na2vs0mg"},{"bike_id":"f13c1412-9987-4b53-aa5c-79a6ecb2ba2d","system_id":"levelo_inurba_marseille","lat":43.32365,"lon":5.36714,"is_reserved":false,"is_disabled":false,"rental_uris":{"android":"levelo://app?vid=f13c1412-9987-4b53-aa5c-79a6ecb2ba2d","ios":"levelo://app?vid=f13c1412-9987-4b53-aa5c-79a6ecb2ba2d"},"vehicle_type_id":"4","last_reported":1777354188,"current_range_meters":8400,"station_id":"","pricing_plan_id":"cebpf4jnsgd1na2vs0mg"},{"bike_id":"8b4e6bd3-1e82-4277-a45a-3a8abaa4e3ab","system_id":"levelo_inurba_marseille","lat":43.28477,"lon":5.48393,"is_reserved":false,"is_disabled":false,"rental_uris":{"android":"levelo://app?vid=8b4e6bd3-1e82-4277-a45a-3a8abaa4e3ab","ios":"levelo://app?vid=8b4e6bd3-1e82-4277-a45a-3a8abaa4e3ab"},"vehicle_type_id":"4","last_reported":1777354188,"current_range_meters":8400,"station_id":"","pricing_plan_id":"cebpf4jnsgd1na2vs0mg"},{"bike_id":"b9885613-2ab7-4bfa-8e62-7d197a46e827","system_id":"levelo_inurba_marseille","lat":43.25097,"lon":5.39511,"is_reserved":false,"is_disabled":false,"rental_uris":{"android":"levelo://app?vid=b9885613-2ab7-4bfa-8e62-7d197a46e827","ios":"levelo://app?vid=b9885613-2ab7-4bfa-8e62-7d197a46e827"},"vehicle_type_id":"4","last_reported":1777354188,"current_range_meters":8400,"station_id":"ce4bhm12rcd13ifvqgkg","pricing_plan_id":"cebpf4jnsgd1na2vs0mg"},{"bike_id":"a3aba329-c9c2-4793-952f-f5cc163325d9","system_id":"levelo_inurba_marseille","lat":43.3046,"lon":5.37906,"is_reserved":false,"is_disabled":false,"rental_uris":{"android":"levelo://app?vid=a3aba329-c9c2-4793-952f-f5cc163325d9","ios":"levelo://app?vid=a3aba329-c9c2-4793-952f-f5cc163325d9"},"vehicle_type_id":"4","last_reported":1777354188,"current_range_meters":8400,"station_id":"ce4bgup2rcd13ifvqcn0","pricing_plan_id":"cebpf4jnsgd1na2vs0mg"},{"bike_id":"819f824d-530b-4c9e-adb7-e3b742a5d8c9","system_id":"levelo_inurba_marseille","lat":43.30891,"lon":5.39646,"is_reserved":false,"is_disabled":false,"rental_uris":{"android":"levelo://app?vid=819f824d-530b-4c9e-adb7-e3b742a5d8c9","ios":"levelo://app?vid=819f824d-530b-4c9e-adb7-e3b742a5d8c9"},"vehicle_type_id":"4","last_reported":1777354188,"current_range_meters":8400,"station_id":"ce4bh012rcd13ifvqcv0","pricing_plan_id":"cebpf4jnsgd1na2vs0mg"},{"bike_id":"3c37dbd8-05d1-42e0-9359-7f79e94a3922","system_id":"levelo_inurba_marseille","lat":43.26263,"lon":5.40473,"is_reserved":false,"is_disabled":false,"rental_uris":{"android":"levelo://app?vid=3c37dbd8-05d1-42e0-9359-7f79e94a3922","ios":"levelo://app?vid=3c37dbd8-05d1-42e0-9359-7f79e94a3922"},"vehicle_type_id":"4","last_reported":1777354188,"current_range_meters":8800,"station_id":"ce4bhmh2rcd13ifvqgmg","pricing_plan_id":"cebpf4jnsgd1na2vs0mg"},{"bike_id":"baa55d1a-8e1e-46c2-9459-c2953120d083","system_id":"levelo_inurba_marseille","lat":43.28389,"lon":5.34991,"is_reserved":false,"is_disabled":false,"rental_uris":{"android":"levelo://app?vid=baa55d1a-8e1e-46c2-9459-c2953120d083","ios":"levelo://app?vid=baa55d1a-8e1e-46c2-9459-c2953120d083"},"vehicle_type_id":"4","last_reported":1777354188,"current_range_meters":8800,"station_id":"ce4bhbh2rcd13ifvqepg","pricing_plan_id":"cebpf4jnsgd1na2vs0mg"},{"bike_id":"227e4028-246b-4a4b-bf88-36b7ff5228dd","system_id":"levelo_inurba_marseille","lat":43.29492,"lon":5.37572,"is_reserved":false,"is_disabled":false,"rental_uris":{"android":"levelo://app?vid=227e4028-246b-4a4b-bf88-36b7ff5228dd","ios":"levelo://app?vid=227e4028-246b-4a4b-bf88-36b7ff5228dd"},"vehicle_type_id":"4","last_reported":1777354188,"current_range_meters":8800,"station_id":"","pricing_plan_id":"cebpf4jnsgd1na2vs0mg"},{"bike_id":"fd1cd0d2-0b61-48a7-b8ac-5a43e93d2eaa","system_id":"levelo_inurba_marseille","lat":43.30101,"lon":5.39082,"is_reserved":false,"is_disabled":false,"rental_uris":{"android":"levelo://app?vid=fd1cd0d2-0b61-48a7-b8ac-5a43e93d2eaa","ios":"levelo://app?vid=fd1cd0d2-0b61-48a7-b8ac-5a43e93d2eaa"},"vehicle_type_id":"4","last_reported":1777354188,"current_range_meters":8800,"station_id":"ce4bh192rcd13ifvqdb0","pricing_plan_id":"cebpf4jnsgd1na2vs0mg"},{"bike_id":"53dda291-caff-4c5b-a904-ced786c0d3b0","system_id":"levelo_inurba_marseille","lat":43.29902,"lon":5.37476,"is_reserved":false,"is_disabled":false,"rental_uris":{"android":"levelo://app?vid=53dda291-caff-4c5b-a904-ced786c0d3b0","ios":"levelo://app?vid=53dda291-caff-4c5b-a904-ced786c0d3b0"},"vehicle_type_id":"4","last_reported":1777354188,"current_range_meters":8800,"station_id":"ce4bgjh2rcd13ifvqbg0","pricing_plan_id":"cebpf4jnsgd1na2vs0mg"},{"bike_id":"dabc5e28-b9df-4b1a-affa-f2e365a8b45b","system_id":"levelo_inurba_marseille","lat":43.32108,"lon":5.36773,"is_reserved":false,"is_disabled":false,"rental_uris":{"android":"levelo://app?vid=dabc5e28-b9df-4b1a-affa-f2e365a8b45b","ios":"levelo://app?vid=dabc5e28-b9df-4b1a-affa-f2e365a8b45b"},"vehicle_type_id":"4","last_reported":1777354188,"current_range_meters":8800,"station_id":"ce4bhrh2rcd13ifvqhug","pricing_plan_id":"cebpf4jnsgd1na2vs0mg"},{"bike_id":"4541a58b-5803-4873-8531-8182c7674429","system_id":"levelo_inurba_marseille","lat":43.28478,"lon":5.48413,"is_reserved":false,"is_disabled":false,"rental_uris":{"android":"levelo://app?vid=4541a58b-5803-4873-8531-8182c7674429","ios":"levelo://app?vid=4541a58b-5803-4873-8531-8182c7674429"},"vehicle_type_id":"4","last_reported":1777354188,"current_range_meters":8800,"station_id":"st_d3svhcjqgbts73a3dn0g","pricing_plan_id":"cebpf4jnsgd1na2vs0mg"},{"bike_id":"23b9edcd-305b-48b3-b42b-c5b2d1a2cdca","system_id":"levelo_inurba_marseille","lat":43.27051,"lon":5.38642,"is_reserved":false,"is_disabled":false,"rental_uris":{"android":"levelo://app?vid=23b9edcd-305b-48b3-b42b-c5b2d1a2cdca","ios":"levelo://app?vid=23b9edcd-305b-48b3-b42b-c5b2d1a2cdca"},"vehicle_type_id":"4","last_reported":1777354188,"current_range_meters":8800,"station_id":"","pricing_plan_id":"cebpf4jnsgd1na2vs0mg"},{"bike_id":"2b2741c2-a4d0-4797-89b8-4b4a0f560486","system_id":"levelo_inurba_marseille","lat":43.2993,"lon":5.36539,"is_reserved":false,"is_disabled":false,"rental_uris":{"android":"levelo://app?vid=2b2741c2-a4d0-4797-89b8-4b4a0f560486","ios":"levelo://app?vid=2b2741c2-a4d0-4797-89b8-4b4a0f560486"},"vehicle_type_id":"4","last_reported":1777354188,"current_range_meters":8800,"station_id":"ce4bgm92rcd13ifvqbr0","pricing_plan_id":"cebpf4jnsgd1na2vs0mg"},{"bike_id":"7db19171-5729-4c67-91fd-7ba01dabc5cd","system_id":"levelo_inurba_marseille","lat":43.28685,"lon":5.37396,"is_reserved":false,"is_disabled":false,"rental_uris":{"android":"levelo://app?vid=7db19171-5729-4c67-91fd-7ba01dabc5cd","ios":"levelo://app?vid=7db19171-5729-4c67-91fd-7ba01dabc5cd"},"vehicle_type_id":"4","last_reported":1777354188,"current_range_meters":8800,"station_id":"ce4bh3p2rcd13ifvqdq0","pricing_plan_id":"cebpf4jnsgd1na2vs0mg"},{"bike_id":"2519ee8d-92c6-419f-941a-6566274d07bb","system_id":"levelo_inurba_marseille","lat":43.30876,"lon":5.39635,"is_reserved":false,"is_disabled":false,"rental_uris":{"android":"levelo://app?vid=2519ee8d-92c6-419f-941a-6566274d07bb","ios":"levelo://app?vid=2519ee8d-92c6-419f-941a-6566274d07bb"},"vehicle_type_id":"4","last_reported":1777354188,"current_range_meters":8800,"station_id":"ce4bh012rcd13ifvqcv0","pricing_plan_id":"cebpf4jnsgd1na2vs0mg"},{"bike_id":"79830bf7-b711-4c57-8f8d-1b1009e3b153","system_id":"levelo_inurba_marseille","lat":43.30578,"lon":5.38414,"is_reserved":false,"is_disabled":true,"rental_uris":{"android":"levelo://app?vid=79830bf7-b711-4c57-8f8d-1b1009e3b153","ios":"levelo://app?vid=79830bf7-b711-4c57-8f8d-1b1009e3b153"},"vehicle_type_id":"4","last_reported":1777354188,"current_range_meters":8800,"station_id":"ce4bgg92rcd13ifvqb30","pricing_plan_id":"cebpf4jnsgd1na2vs0mg"},{"bike_id":"81e52b6e-bff7-4875-a0d8-d533ea21c465","system_id":"levelo_inurba_marseille","lat":43.28124,"lon":5.4266,"is_reserved":false,"is_disabled":false,"rental_uris":{"android":"levelo://app?vid=81e52b6e-bff7-4875-a0d8-d533ea21c465","ios":"levelo://app?vid=81e52b6e-bff7-4875-a0d8-d533ea21c465"},"vehicle_type_id":"4","last_reported":1777354188,"current_range_meters":8800,"station_id":"ce4bhnh2rcd13ifvqgug","pricing_plan_id":"cebpf4jnsgd1na2vs0mg"},{"bike_id":"77b8dc02-51af-44fd-a00a-7f7f390da885","system_id":"levelo_inurba_marseille","lat":43.27995,"lon":5.41657,"is_reserved":false,"is_disabled":false,"rental_uris":{"android":"levelo://app?vid=77b8dc02-51af-44fd-a00a-7f7f390da885","ios":"levelo://app?vid=77b8dc02-51af-44fd-a00a-7f7f390da885"},"vehicle_type_id":"4","last_reported":1777354188,"current_range_meters":8800,"station_id":"ce4bho12rcd13ifvqh1g","pricing_plan_id":"cebpf4jnsgd1na2vs0mg"},{"bike_id":"afa4e258-7028-4336-abc2-ac6b2f10f6cc","system_id":"levelo_inurba_marseille","lat":43.24808,"lon":5.37456,"is_reserved":false,"is_disabled":false,"rental_uris":{"android":"levelo://app?vid=afa4e258-7028-4336-abc2-ac6b2f10f6cc","ios":"levelo://app?vid=afa4e258-7028-4336-abc2-ac6b2f10f6cc"},"vehicle_type_id":"4","last_reported":1777354188,"current_range_meters":8800,"station_id":"ce4bhgh2rcd13ifvqfb0","pricing_plan_id":"cebpf4jnsgd1na2vs0mg"},{"bike_id":"88cac7ca-0ff7-48b2-a605-b97cc08c4127","system_id":"levelo_inurba_marseille","lat":43.28017,"lon":5.36959,"is_reserved":false,"is_disabled":false,"rental_uris":{"android":"levelo://app?vid=88cac7ca-0ff7-48b2-a605-b97cc08c4127","ios":"levelo://app?vid=88cac7ca-0ff7-48b2-a605-b97cc08c4127"},"vehicle_type_id":"4","last_reported":1777354188,"current_range_meters":8800,"station_id":"ce4bha12rcd13ifvqef0","pricing_plan_id":"cebpf4jnsgd1na2vs0mg"},{"bike_id":"ccc64b12-fba8-4953-9e4c-789c15629674","system_id":"levelo_inurba_marseille","lat":43.23203,"lon":5.35086,"is_reserved":false,"is_disabled":false,"rental_uris":{"android":"levelo://app?vid=ccc64b12-fba8-4953-9e4c-789c15629674","ios":"levelo://app?vid=ccc64b12-fba8-4953-9e4c-789c15629674"},"vehicle_type_id":"4","last_reported":1777354188,"current_range_meters":8800,"station_id":"","pricing_plan_id":"cebpf4jnsgd1na2vs0mg"},{"bike_id":"68ecf2f6-4ac5-45b8-9640-383e9e07a83c","system_id":"levelo_inurba_marseille","lat":43.24558,"lon":5.41606,"is_reserved":false,"is_disabled":false,"rental_uris":{"android":"levelo://app?vid=68ecf2f6-4ac5-45b8-9640-383e9e07a83c","ios":"levelo://app?vid=68ecf2f6-4ac5-45b8-9640-383e9e07a83c"},"vehicle_type_id":"4","last_reported":1777354188,"current_range_meters":8800,"station_id":"","pricing_plan_id":"cebpf4jnsgd1na2vs0mg"},{"bike_id":"35a6cb4b-5d8c-4bef-b99f-fe238abc9fa9","system_id":"levelo_inurba_marseille","lat":43.21761,"lon":5.34596,"is_reserved":false,"is_disabled":false,"rental_uris":{"android":"levelo://app?vid=35a6cb4b-5d8c-4bef-b99f-fe238abc9fa9","ios":"levelo://app?vid=35a6cb4b-5d8c-4bef-b99f-fe238abc9fa9"},"vehicle_type_id":"4","last_reported":1777354188,"current_range_meters":8800,"station_id":"st_cvj6r9ubvosntc0bgbag","pricing_plan_id":"cebpf4jnsgd1na2vs0mg"},{"bike_id":"e5a38a57-f482-4b24-aa4f-e4a7978b3480","system_id":"levelo_inurba_marseille","lat":43.30366,"lon":5.42502,"is_reserved":false,"is_disabled":false,"rental_uris":{"android":"levelo://app?vid=e5a38a57-f482-4b24-aa4f-e4a7978b3480","ios":"levelo://app?vid=e5a38a57-f482-4b24-aa4f-e4a7978b3480"},"vehicle_type_id":"4","last_reported":1777354188,"current_range_meters":8800,"station_id":"ce4bhoh2rcd13ifvqh6g","pricing_plan_id":"cebpf4jnsgd1na2vs0mg"},{"bike_id":"a0306c08-5a06-4f9b-a597-306fad71f9a8","system_id":"levelo_inurba_marseille","lat":43.30917,"lon":5.39612,"is_reserved":false,"is_disabled":false,"rental_uris":{"android":"levelo://app?vid=a0306c08-5a06-4f9b-a597-306fad71f9a8","ios":"levelo://app?vid=a0306c08-5a06-4f9b-a597-306fad71f9a8"},"vehicle_type_id":"4","last_reported":1777354188,"current_range_meters":8800,"station_id":"ce4bh012rcd13ifvqcv0","pricing_plan_id":"cebpf4jnsgd1na2vs0mg"},{"bike_id":"581d8856-c041-400f-9f90-49f3e0fce49b","system_id":"levelo_inurba_marseille","lat":43.28,"lon":5.400081,"is_reserved":false,"is_disabled":false,"rental_uris":{"android":"levelo://app?vid=581d8856-c041-400f-9f90-49f3e0fce49b","ios":"levelo://app?vid=581d8856-c041-400f-9f90-49f3e0fce49b"},"vehicle_type_id":"4","last_reported":1777354188,"current_range_meters":8800,"station_id":"ce4bho92rcd13ifvqh4g","pricing_plan_id":"cebpf4jnsgd1na2vs0mg"},{"bike_id":"1b777b2a-868b-41f8-a934-5ffefe1d9742","system_id":"levelo_inurba_marseille","lat":43.28075,"lon":5.39607,"is_reserved":false,"is_disabled":false,"rental_uris":{"android":"levelo://app?vid=1b777b2a-868b-41f8-a934-5ffefe1d9742","ios":"levelo://app?vid=1b777b2a-868b-41f8-a934-5ffefe1d9742"},"vehicle_type_id":"4","last_reported":1777354188,"current_range_meters":8800,"station_id":"ce4bho12rcd13ifvqh2g","pricing_plan_id":"cebpf4jnsgd1na2vs0mg"},{"bike_id":"04efbdb6-9a20-4be6-b9d8-337fb14f5357","system_id":"levelo_inurba_marseille","lat":43.29857,"lon":5.39737,"is_reserved":false,"is_disabled":false,"rental_uris":{"android":"levelo://app?vid=04efbdb6-9a20-4be6-b9d8-337fb14f5357","ios":"levelo://app?vid=04efbdb6-9a20-4be6-b9d8-337fb14f5357"},"vehicle_type_id":"4","last_reported":1777354188,"current_range_meters":8800,"station_id":"ce4bh0h2rcd13ifvqd50","pricing_plan_id":"cebpf4jnsgd1na2vs0mg"},{"bike_id":"3bb3e953-7b28-4b68-a5fa-b232ff0c32b8","system_id":"levelo_inurba_marseille","lat":43.28857,"lon":5.39311,"is_reserved":false,"is_disabled":false,"rental_uris":{"android":"levelo://app?vid=3bb3e953-7b28-4b68-a5fa-b232ff0c32b8","ios":"levelo://app?vid=3bb3e953-7b28-4b68-a5fa-b232ff0c32b8"},"vehicle_type_id":"4","last_reported":1777354188,"current_range_meters":8800,"station_id":"ce4bh2p2rcd13ifvqdi0","pricing_plan_id":"cebpf4jnsgd1na2vs0mg"},{"bike_id":"b74f6e85-86ec-4cac-816a-53872c6d4c79","system_id":"levelo_inurba_marseille","lat":43.25812,"lon":5.39427,"is_reserved":false,"is_disabled":false,"rental_uris":{"android":"levelo://app?vid=b74f6e85-86ec-4cac-816a-53872c6d4c79","ios":"levelo://app?vid=b74f6e85-86ec-4cac-816a-53872c6d4c79"},"vehicle_type_id":"4","last_reported":1777354188,"current_range_meters":8800,"station_id":"ce4bhip2rcd13ifvqft0","pricing_plan_id":"cebpf4jnsgd1na2vs0mg"},{"bike_id":"835b890c-8b59-44c6-9d4b-9eeecdc3eb6a","system_id":"levelo_inurba_marseille","lat":43.24173,"lon":5.39739,"is_reserved":false,"is_disabled":false,"rental_uris":{"android":"levelo://app?vid=835b890c-8b59-44c6-9d4b-9eeecdc3eb6a","ios":"levelo://app?vid=835b890c-8b59-44c6-9d4b-9eeecdc3eb6a"},"vehicle_type_id":"4","last_reported":1777354188,"current_range_meters":9200,"station_id":"ce4bhn12rcd13ifvqgpg","pricing_plan_id":"cebpf4jnsgd1na2vs0mg"},{"bike_id":"a17b2fbf-8606-49a8-ae8b-5fed72d5e1ba","system_id":"levelo_inurba_marseille","lat":43.23166,"lon":5.39995,"is_reserved":false,"is_disabled":false,"rental_uris":{"android":"levelo://app?vid=a17b2fbf-8606-49a8-ae8b-5fed72d5e1ba","ios":"levelo://app?vid=a17b2fbf-8606-49a8-ae8b-5fed72d5e1ba"},"vehicle_type_id":"4","last_reported":1777354188,"current_range_meters":9200,"station_id":"ce4bhn12rcd13ifvqgqg","pricing_plan_id":"cebpf4jnsgd1na2vs0mg"},{"bike_id":"bdcfe9c7-0120-4e49-8119-1a61a61909d2","system_id":"levelo_inurba_marseille","lat":43.29164,"lon":5.39345,"is_reserved":false,"is_disabled":false,"rental_uris":{"android":"levelo://app?vid=bdcfe9c7-0120-4e49-8119-1a61a61909d2","ios":"levelo://app?vid=bdcfe9c7-0120-4e49-8119-1a61a61909d2"},"vehicle_type_id":"4","last_reported":1777354188,"current_range_meters":9200,"station_id":"","pricing_plan_id":"cebpf4jnsgd1na2vs0mg"},{"bike_id":"bc9d283e-dafa-4dbc-8e8d-4e74de57a8fc","system_id":"levelo_inurba_marseille","lat":43.29038,"lon":5.37573,"is_reserved":false,"is_disabled":false,"rental_uris":{"android":"levelo://app?vid=bc9d283e-dafa-4dbc-8e8d-4e74de57a8fc","ios":"levelo://app?vid=bc9d283e-dafa-4dbc-8e8d-4e74de57a8fc"},"vehicle_type_id":"4","last_reported":1777354188,"current_range_meters":9200,"station_id":"ce4bh692rcd13ifvqe90","pricing_plan_id":"cebpf4jnsgd1na2vs0mg"},{"bike_id":"bdc7799c-e449-46c3-8a73-d7daeb6d1ade","system_id":"levelo_inurba_marseille","lat":43.25625,"lon":5.41878,"is_reserved":false,"is_disabled":false,"rental_uris":{"android":"levelo://app?vid=bdc7799c-e449-46c3-8a73-d7daeb6d1ade","ios":"levelo://app?vid=bdc7799c-e449-46c3-8a73-d7daeb6d1ade"},"vehicle_type_id":"4","last_reported":1777354188,"current_range_meters":9200,"station_id":"","pricing_plan_id":"cebpf4jnsgd1na2vs0mg"},{"bike_id":"0b044b54-8d8a-47fa-ac2e-0d52bc3d6226","system_id":"levelo_inurba_marseille","lat":43.27213,"lon":5.39188,"is_reserved":false,"is_disabled":false,"rental_uris":{"android":"levelo://app?vid=0b044b54-8d8a-47fa-ac2e-0d52bc3d6226","ios":"levelo://app?vid=0b044b54-8d8a-47fa-ac2e-0d52bc3d6226"},"vehicle_type_id":"4","last_reported":1777354188,"current_range_meters":9200,"station_id":"ce4bhhp2rcd13ifvqfm0","pricing_plan_id":"cebpf4jnsgd1na2vs0mg"},{"bike_id":"158f0b12-f213-4809-8361-f186a6a2d51b","system_id":"levelo_inurba_marseille","lat":43.30027,"lon":5.36567,"is_reserved":false,"is_disabled":false,"rental_uris":{"android":"levelo://app?vid=158f0b12-f213-4809-8361-f186a6a2d51b","ios":"levelo://app?vid=158f0b12-f213-4809-8361-f186a6a2d51b"},"vehicle_type_id":"4","last_reported":1777354188,"current_range_meters":9200,"station_id":"","pricing_plan_id":"cebpf4jnsgd1na2vs0mg"},{"bike_id":"70129332-d706-4e0c-b219-17b5f0bf9361","system_id":"levelo_inurba_marseille","lat":43.28939,"lon":5.36628,"is_reserved":false,"is_disabled":false,"rental_uris":{"android":"levelo://app?vid=70129332-d706-4e0c-b219-17b5f0bf9361","ios":"levelo://app?vid=70129332-d706-4e0c-b219-17b5f0bf9361"},"vehicle_type_id":"4","last_reported":1777354188,"current_range_meters":9200,"station_id":"ce4bhap2rcd13ifvqek0","pricing_plan_id":"cebpf4jnsgd1na2vs0mg"},{"bike_id":"14c8c80d-a180-4fc5-a7e3-0193f468869e","system_id":"levelo_inurba_marseille","lat":43.28609,"lon":5.39871,"is_reserved":false,"is_disabled":false,"rental_uris":{"android":"levelo://app?vid=14c8c80d-a180-4fc5-a7e3-0193f468869e","ios":"levelo://app?vid=14c8c80d-a180-4fc5-a7e3-0193f468869e"},"vehicle_type_id":"4","last_reported":1777354188,"current_range_meters":9200,"station_id":"st_d4a7ka997mjs738ck50g","pricing_plan_id":"cebpf4jnsgd1na2vs0mg"},{"bike_id":"ef809088-19f7-4902-a559-51469dadba8c","system_id":"levelo_inurba_marseille","lat":43.27132,"lon":5.39054,"is_reserved":false,"is_disabled":false,"rental_uris":{"android":"levelo://app?vid=ef809088-19f7-4902-a559-51469dadba8c","ios":"levelo://app?vid=ef809088-19f7-4902-a559-51469dadba8c"},"vehicle_type_id":"4","last_reported":1777354188,"current_range_meters":9200,"station_id":"","pricing_plan_id":"cebpf4jnsgd1na2vs0mg"},{"bike_id":"f11e3633-986d-40f4-8b5f-6b5e41220dfc","system_id":"levelo_inurba_marseille","lat":43.31905,"lon":5.36822,"is_reserved":false,"is_disabled":false,"rental_uris":{"android":"levelo://app?vid=f11e3633-986d-40f4-8b5f-6b5e41220dfc","ios":"levelo://app?vid=f11e3633-986d-40f4-8b5f-6b5e41220dfc"},"vehicle_type_id":"4","last_reported":1777354188,"current_range_meters":9200,"station_id":"st_d6o2h0d0559c73evc1b0","pricing_plan_id":"cebpf4jnsgd1na2vs0mg"},{"bike_id":"8ef6aeb1-6188-4490-98eb-83dffd7c696f","system_id":"levelo_inurba_marseille","lat":43.28024,"lon":5.41629,"is_reserved":false,"is_disabled":false,"rental_uris":{"android":"levelo://app?vid=8ef6aeb1-6188-4490-98eb-83dffd7c696f","ios":"levelo://app?vid=8ef6aeb1-6188-4490-98eb-83dffd7c696f"},"vehicle_type_id":"4","last_reported":1777354188,"current_range_meters":9200,"station_id":"ce4bho12rcd13ifvqh1g","pricing_plan_id":"cebpf4jnsgd1na2vs0mg"},{"bike_id":"390bf80e-a686-45ee-be0e-9cfd49dc8517","system_id":"levelo_inurba_marseille","lat":43.28928,"lon":5.3839,"is_reserved":false,"is_disabled":true,"rental_uris":{"android":"levelo://app?vid=390bf80e-a686-45ee-be0e-9cfd49dc8517","ios":"levelo://app?vid=390bf80e-a686-45ee-be0e-9cfd49dc8517"},"vehicle_type_id":"4","last_reported":1777354188,"current_range_meters":9200,"station_id":"ce4bh612rcd13ifvqe6g","pricing_plan_id":"cebpf4jnsgd1na2vs0mg"},{"bike_id":"8dc1ef37-abdf-464a-a2a5-8795c083c97b","system_id":"levelo_inurba_marseille","lat":43.27652,"lon":5.35839,"is_reserved":false,"is_disabled":false,"rental_uris":{"android":"levelo://app?vid=8dc1ef37-abdf-464a-a2a5-8795c083c97b","ios":"levelo://app?vid=8dc1ef37-abdf-464a-a2a5-8795c083c97b"},"vehicle_type_id":"4","last_reported":1777354188,"current_range_meters":9200,"station_id":"","pricing_plan_id":"cebpf4jnsgd1na2vs0mg"},{"bike_id":"9cec9cd0-5cb6-44ae-8928-6aadf2885a40","system_id":"levelo_inurba_marseille","lat":43.25096,"lon":5.39505,"is_reserved":false,"is_disabled":false,"rental_uris":{"android":"levelo://app?vid=9cec9cd0-5cb6-44ae-8928-6aadf2885a40","ios":"levelo://app?vid=9cec9cd0-5cb6-44ae-8928-6aadf2885a40"},"vehicle_type_id":"4","last_reported":1777354188,"current_range_meters":9200,"station_id":"ce4bhm12rcd13ifvqgkg","pricing_plan_id":"cebpf4jnsgd1na2vs0mg"},{"bike_id":"32f2b2b8-ccb1-4c58-8eee-85314b2a01f0","system_id":"levelo_inurba_marseille","lat":43.30121,"lon":5.4311,"is_reserved":false,"is_disabled":false,"rental_uris":{"android":"levelo://app?vid=32f2b2b8-ccb1-4c58-8eee-85314b2a01f0","ios":"levelo://app?vid=32f2b2b8-ccb1-4c58-8eee-85314b2a01f0"},"vehicle_type_id":"4","last_reported":1777354188,"current_range_meters":9600,"station_id":"st_d3js3co5814s73ftftug","pricing_plan_id":"cebpf4jnsgd1na2vs0mg"},{"bike_id":"bcd67e65-43b0-4b23-bb5c-0bdd7484ac57","system_id":"levelo_inurba_marseille","lat":43.33173,"lon":5.37785,"is_reserved":false,"is_disabled":false,"rental_uris":{"android":"levelo://app?vid=bcd67e65-43b0-4b23-bb5c-0bdd7484ac57","ios":"levelo://app?vid=bcd67e65-43b0-4b23-bb5c-0bdd7484ac57"},"vehicle_type_id":"4","last_reported":1777354188,"current_range_meters":9600,"station_id":"","pricing_plan_id":"cebpf4jnsgd1na2vs0mg"},{"bike_id":"3d408cc0-6887-4693-a0aa-37755e308d62","system_id":"levelo_inurba_marseille","lat":43.32116,"lon":5.36765,"is_reserved":false,"is_disabled":false,"rental_uris":{"android":"levelo://app?vid=3d408cc0-6887-4693-a0aa-37755e308d62","ios":"levelo://app?vid=3d408cc0-6887-4693-a0aa-37755e308d62"},"vehicle_type_id":"4","last_reported":1777354188,"current_range_meters":9600,"station_id":"ce4bhrh2rcd13ifvqhug","pricing_plan_id":"cebpf4jnsgd1na2vs0mg"},{"bike_id":"7fd2e247-b701-4f46-a536-ef6f5169d89d","system_id":"levelo_inurba_marseille","lat":43.24809,"lon":5.3746,"is_reserved":false,"is_disabled":false,"rental_uris":{"android":"levelo://app?vid=7fd2e247-b701-4f46-a536-ef6f5169d89d","ios":"levelo://app?vid=7fd2e247-b701-4f46-a536-ef6f5169d89d"},"vehicle_type_id":"4","last_reported":1777354188,"current_range_meters":9600,"station_id":"ce4bhgh2rcd13ifvqfb0","pricing_plan_id":"cebpf4jnsgd1na2vs0mg"},{"bike_id":"ee5bca21-2a39-4c24-aced-c94d2451e251","system_id":"levelo_inurba_marseille","lat":43.27985,"lon":5.41653,"is_reserved":false,"is_disabled":false,"rental_uris":{"android":"levelo://app?vid=ee5bca21-2a39-4c24-aced-c94d2451e251","ios":"levelo://app?vid=ee5bca21-2a39-4c24-aced-c94d2451e251"},"vehicle_type_id":"4","last_reported":1777354188,"current_range_meters":9600,"station_id":"ce4bho12rcd13ifvqh1g","pricing_plan_id":"cebpf4jnsgd1na2vs0mg"},{"bike_id":"098dd0b9-9791-493a-8be1-927e5c89b38b","system_id":"levelo_inurba_marseille","lat":43.2822,"lon":5.39049,"is_reserved":false,"is_disabled":false,"rental_uris":{"android":"levelo://app?vid=098dd0b9-9791-493a-8be1-927e5c89b38b","ios":"levelo://app?vid=098dd0b9-9791-493a-8be1-927e5c89b38b"},"vehicle_type_id":"4","last_reported":1777354188,"current_range_meters":9600,"station_id":"ce4bhn92rcd13ifvqgsg","pricing_plan_id":"cebpf4jnsgd1na2vs0mg"},{"bike_id":"11effbb2-3489-4e85-aec9-0e018fcdcc03","system_id":"levelo_inurba_marseille","lat":43.23215,"lon":5.35555,"is_reserved":false,"is_disabled":false,"rental_uris":{"android":"levelo://app?vid=11effbb2-3489-4e85-aec9-0e018fcdcc03","ios":"levelo://app?vid=11effbb2-3489-4e85-aec9-0e018fcdcc03"},"vehicle_type_id":"4","last_reported":1777354188,"current_range_meters":9600,"station_id":"ce4bhu92rcd13ifvqi70","pricing_plan_id":"cebpf4jnsgd1na2vs0mg"},{"bike_id":"01bc725f-1235-4bb3-9e85-9f30ec9b2233","system_id":"levelo_inurba_marseille","lat":43.2861,"lon":5.39926,"is_reserved":false,"is_disabled":false,"rental_uris":{"android":"levelo://app?vid=01bc725f-1235-4bb3-9e85-9f30ec9b2233","ios":"levelo://app?vid=01bc725f-1235-4bb3-9e85-9f30ec9b2233"},"vehicle_type_id":"4","last_reported":1777354188,"current_range_meters":9600,"station_id":"st_d4a7ka997mjs738ck50g","pricing_plan_id":"cebpf4jnsgd1na2vs0mg"},{"bike_id":"6e56ad92-5d69-4afb-ad0f-22e3f9cbb63f","system_id":"levelo_inurba_marseille","lat":43.30166,"lon":5.38074,"is_reserved":false,"is_disabled":false,"rental_uris":{"android":"levelo://app?vid=6e56ad92-5d69-4afb-ad0f-22e3f9cbb63f","ios":"levelo://app?vid=6e56ad92-5d69-4afb-ad0f-22e3f9cbb63f"},"vehicle_type_id":"4","last_reported":1777354188,"current_range_meters":9600,"station_id":"ce4bgjp2rcd13ifvqbh0","pricing_plan_id":"cebpf4jnsgd1na2vs0mg"},{"bike_id":"224c405b-b50d-4bc3-9c22-c22cf35f9c91","system_id":"levelo_inurba_marseille","lat":43.31122,"lon":5.37759,"is_reserved":false,"is_disabled":false,"rental_uris":{"android":"levelo://app?vid=224c405b-b50d-4bc3-9c22-c22cf35f9c91","ios":"levelo://app?vid=224c405b-b50d-4bc3-9c22-c22cf35f9c91"},"vehicle_type_id":"4","last_reported":1777354188,"current_range_meters":9600,"station_id":"ce4bgt92rcd13ifvqcg0","pricing_plan_id":"cebpf4jnsgd1na2vs0mg"},{"bike_id":"6702339c-6bbd-44c0-bb90-353a1b7436d9","system_id":"levelo_inurba_marseille","lat":43.2463,"lon":5.43149,"is_reserved":false,"is_disabled":false,"rental_uris":{"android":"levelo://app?vid=6702339c-6bbd-44c0-bb90-353a1b7436d9","ios":"levelo://app?vid=6702339c-6bbd-44c0-bb90-353a1b7436d9"},"vehicle_type_id":"4","last_reported":1777354188,"current_range_meters":9600,"station_id":"st_d2m6c4gdas8pm72e190g","pricing_plan_id":"cebpf4jnsgd1na2vs0mg"},{"bike_id":"fff894f8-6ea1-4904-8ddd-d3a601465772","system_id":"levelo_inurba_marseille","lat":43.27208,"lon":5.39171,"is_reserved":false,"is_disabled":false,"rental_uris":{"android":"levelo://app?vid=fff894f8-6ea1-4904-8ddd-d3a601465772","ios":"levelo://app?vid=fff894f8-6ea1-4904-8ddd-d3a601465772"},"vehicle_type_id":"4","last_reported":1777354188,"current_range_meters":9600,"station_id":"ce4bhhp2rcd13ifvqfm0","pricing_plan_id":"cebpf4jnsgd1na2vs0mg"},{"bike_id":"32fa63ea-2b56-42e5-bf7c-9a3e4b76e6ff","system_id":"levelo_inurba_marseille","lat":43.30938,"lon":5.40146,"is_reserved":false,"is_disabled":false,"rental_uris":{"android":"levelo://app?vid=32fa63ea-2b56-42e5-bf7c-9a3e4b76e6ff","ios":"levelo://app?vid=32fa63ea-2b56-42e5-bf7c-9a3e4b76e6ff"},"vehicle_type_id":"4","last_reported":1777354188,"current_range_meters":9600,"station_id":"ce4bgvp2rcd13ifvqct0","pricing_plan_id":"cebpf4jnsgd1na2vs0mg"},{"bike_id":"3dcb2e6d-bfe7-4745-af51-f37fe70255b9","system_id":"levelo_inurba_marseille","lat":43.24702,"lon":5.38147,"is_reserved":false,"is_disabled":false,"rental_uris":{"android":"levelo://app?vid=3dcb2e6d-bfe7-4745-af51-f37fe70255b9","ios":"levelo://app?vid=3dcb2e6d-bfe7-4745-af51-f37fe70255b9"},"vehicle_type_id":"4","last_reported":1777354188,"current_range_meters":9600,"station_id":"ce4bhih2rcd13ifvqfr0","pricing_plan_id":"cebpf4jnsgd1na2vs0mg"},{"bike_id":"27ed8375-a56d-4f2f-9150-384fa33051f6","system_id":"levelo_inurba_marseille","lat":43.29692,"lon":5.37696,"is_reserved":false,"is_disabled":false,"rental_uris":{"android":"levelo://app?vid=27ed8375-a56d-4f2f-9150-384fa33051f6","ios":"levelo://app?vid=27ed8375-a56d-4f2f-9150-384fa33051f6"},"vehicle_type_id":"4","last_reported":1777354188,"current_range_meters":9600,"station_id":"ce4bgkh2rcd13ifvqbl0","pricing_plan_id":"cebpf4jnsgd1na2vs0mg"},{"bike_id":"dc448c65-e602-41a5-9c4d-2affcc9188fb","system_id":"levelo_inurba_marseille","lat":43.29256,"lon":5.40152,"is_reserved":false,"is_disabled":false,"rental_uris":{"android":"levelo://app?vid=dc448c65-e602-41a5-9c4d-2affcc9188fb","ios":"levelo://app?vid=dc448c65-e602-41a5-9c4d-2affcc9188fb"},"vehicle_type_id":"4","last_reported":1777354188,"current_range_meters":9600,"station_id":"ce4bh312rcd13ifvqdk0","pricing_plan_id":"cebpf4jnsgd1na2vs0mg"},{"bike_id":"ccbcaefd-d781-4d5f-a9aa-78d007c71b86","system_id":"levelo_inurba_marseille","lat":43.26222,"lon":5.40385,"is_reserved":false,"is_disabled":false,"rental_uris":{"android":"levelo://app?vid=ccbcaefd-d781-4d5f-a9aa-78d007c71b86","ios":"levelo://app?vid=ccbcaefd-d781-4d5f-a9aa-78d007c71b86"},"vehicle_type_id":"4","last_reported":1777354188,"current_range_meters":9600,"station_id":"ce4bhmh2rcd13ifvqgmg","pricing_plan_id":"cebpf4jnsgd1na2vs0mg"},{"bike_id":"a0faf62e-3fd3-41e6-8c3f-14765bb7d79d","system_id":"levelo_inurba_marseille","lat":43.29607,"lon":5.38017,"is_reserved":false,"is_disabled":false,"rental_uris":{"android":"levelo://app?vid=a0faf62e-3fd3-41e6-8c3f-14765bb7d79d","ios":"levelo://app?vid=a0faf62e-3fd3-41e6-8c3f-14765bb7d79d"},"vehicle_type_id":"4","last_reported":1777354188,"current_range_meters":9600,"station_id":"","pricing_plan_id":"cebpf4jnsgd1na2vs0mg"},{"bike_id":"f7a5267e-ffda-4cb3-8f6e-89eeda61dbbe","system_id":"levelo_inurba_marseille","lat":43.27844,"lon":5.4071,"is_reserved":false,"is_disabled":true,"rental_uris":{"android":"levelo://app?vid=f7a5267e-ffda-4cb3-8f6e-89eeda61dbbe","ios":"levelo://app?vid=f7a5267e-ffda-4cb3-8f6e-89eeda61dbbe"},"vehicle_type_id":"4","last_reported":1777354188,"current_range_meters":10000,"station_id":"ce4bhnh2rcd13ifvqgtg","pricing_plan_id":"cebpf4jnsgd1na2vs0mg"},{"bike_id":"e116e98a-e7c1-4e2d-9ae3-1a759c33b548","system_id":"levelo_inurba_marseille","lat":43.337444,"lon":5.374475,"is_reserved":false,"is_disabled":false,"rental_uris":{"android":"levelo://app?vid=e116e98a-e7c1-4e2d-9ae3-1a759c33b548","ios":"levelo://app?vid=e116e98a-e7c1-4e2d-9ae3-1a759c33b548"},"vehicle_type_id":"4","last_reported":1777354188,"current_range_meters":10000,"station_id":"ce4bgop2rcd13ifvqc1g","pricing_plan_id":"cebpf4jnsgd1na2vs0mg"},{"bike_id":"b9c0ca4a-61af-4a0b-994f-7b554a71a91c","system_id":"levelo_inurba_marseille","lat":43.3235,"lon":5.3673,"is_reserved":false,"is_disabled":false,"rental_uris":{"android":"levelo://app?vid=b9c0ca4a-61af-4a0b-994f-7b554a71a91c","ios":"levelo://app?vid=b9c0ca4a-61af-4a0b-994f-7b554a71a91c"},"vehicle_type_id":"4","last_reported":1777354188,"current_range_meters":10000,"station_id":"ce4bhsh2rcd13ifvqi2g","pricing_plan_id":"cebpf4jnsgd1na2vs0mg"},{"bike_id":"eb27abcf-4f01-48a4-9495-dcda68cace44","system_id":"levelo_inurba_marseille","lat":43.30151,"lon":5.38074,"is_reserved":false,"is_disabled":false,"rental_uris":{"android":"levelo://app?vid=eb27abcf-4f01-48a4-9495-dcda68cace44","ios":"levelo://app?vid=eb27abcf-4f01-48a4-9495-dcda68cace44"},"vehicle_type_id":"4","last_reported":1777354188,"current_range_meters":10000,"station_id":"ce4bgjp2rcd13ifvqbh0","pricing_plan_id":"cebpf4jnsgd1na2vs0mg"},{"bike_id":"7d066b14-e186-4adc-9ae1-3dbc4828dfe8","system_id":"levelo_inurba_marseille","lat":43.24952,"lon":5.40495,"is_reserved":false,"is_disabled":false,"rental_uris":{"android":"levelo://app?vid=7d066b14-e186-4adc-9ae1-3dbc4828dfe8","ios":"levelo://app?vid=7d066b14-e186-4adc-9ae1-3dbc4828dfe8"},"vehicle_type_id":"4","last_reported":1777354188,"current_range_meters":10000,"station_id":"st_d2ngiaodas8pm72gd1h0","pricing_plan_id":"cebpf4jnsgd1na2vs0mg"},{"bike_id":"f21e1623-5e51-4882-99e8-3ad041c9e17f","system_id":"levelo_inurba_marseille","lat":43.21748,"lon":5.34612,"is_reserved":false,"is_disabled":true,"rental_uris":{"android":"levelo://app?vid=f21e1623-5e51-4882-99e8-3ad041c9e17f","ios":"levelo://app?vid=f21e1623-5e51-4882-99e8-3ad041c9e17f"},"vehicle_type_id":"4","last_reported":1777354188,"current_range_meters":10000,"station_id":"st_cvj6r9ubvosntc0bgbag","pricing_plan_id":"cebpf4jnsgd1na2vs0mg"},{"bike_id":"0629d9a2-067f-48d6-8430-8b8a7a9e3e07","system_id":"levelo_inurba_marseille","lat":43.28454,"lon":5.3856,"is_reserved":false,"is_disabled":false,"rental_uris":{"android":"levelo://app?vid=0629d9a2-067f-48d6-8430-8b8a7a9e3e07","ios":"levelo://app?vid=0629d9a2-067f-48d6-8430-8b8a7a9e3e07"},"vehicle_type_id":"4","last_reported":1777354188,"current_range_meters":10000,"station_id":"ce4bh8p2rcd13ifvqeb0","pricing_plan_id":"cebpf4jnsgd1na2vs0mg"},{"bike_id":"8ddf78e6-7053-4f51-a052-cbf410efa6bf","system_id":"levelo_inurba_marseille","lat":43.31337,"lon":5.36826,"is_reserved":false,"is_disabled":false,"rental_uris":{"android":"levelo://app?vid=8ddf78e6-7053-4f51-a052-cbf410efa6bf","ios":"levelo://app?vid=8ddf78e6-7053-4f51-a052-cbf410efa6bf"},"vehicle_type_id":"4","last_reported":1777354188,"current_range_meters":10000,"station_id":"ce4bgr92rcd13ifvqc6g","pricing_plan_id":"cebpf4jnsgd1na2vs0mg"},{"bike_id":"114100ef-6fbd-4605-ae0d-8f71fe920c18","system_id":"levelo_inurba_marseille","lat":43.25592,"lon":5.38254,"is_reserved":false,"is_disabled":false,"rental_uris":{"android":"levelo://app?vid=114100ef-6fbd-4605-ae0d-8f71fe920c18","ios":"levelo://app?vid=114100ef-6fbd-4605-ae0d-8f71fe920c18"},"vehicle_type_id":"4","last_reported":1777354188,"current_range_meters":10000,"station_id":"ce4bhih2rcd13ifvqfs0","pricing_plan_id":"cebpf4jnsgd1na2vs0mg"},