{"last_updated":1719072589,"ttl":30,"version":"2.2","data":{"bikes":[{"bike_id":"5c4c7cb5-2fa5-4eb5-aff2-a05e0704fe2b","system_id":"levelo_inurba_marseille","lat":43.31341,"lon":5.367098,"is_reserved":false,"is_disabled":false,"rental_uris":{"android":"levelo://app?vid=5c4c7cb5-2fa5-4eb5-aff2-a05e0704fe2b","ios":"levelo://app?vid=5c4c7cb5-2fa5-4eb5-aff2-a05e0704fe2b"},"vehicle_type_id":"4","last_reported":1719072589,"current_range_meters":5600,"station_id":"ce4bgr92rcd13ifvqc6g","pricing_plan_id":"cebpf4jnsgd1na2vs0mg"},{"bike_id":"ab5be018-fb8d-4d2e-8e25-9f1a4dba40a5","system_id":"levelo_inurba_marseille","lat":43.312239,"lon":5.368562,"is_reserved":false,"is_disabled":false,"rental_uris":{"android":"levelo://app?vid=ab5be018-fb8d-4d2e-8e25-9f1a4dba40a5","ios":"levelo://app?vid=ab5be018-fb8d-4d2e-8e25-9f1a4dba40a5"},"vehicle_type_id":"4","last_reported":1719072589,"current_range_meters":5600,"station_id":"ce4bgl92rcd13ifvqbq0","pricing_plan_id":"cebpf4jnsgd1na2vs0mg"},{"bike_id":"7d0b8269-b40f-4505-a221-ae8b55c4cde7","system_id":"levelo_inurba_marseille","lat":43.312239,"lon":5.368562,"is_reserved":false,"is_disabled":false,"rental_uris":{"android":"levelo://app?vid=7d0b8269-b40f-4505-a221-ae8b55c4cde7","ios":"levelo://app?vid=7d0b8269-b40f-4505-a221-ae8b55c4cde7"},"vehicle_type_id":"4","last_reported":1719072589,"current_range_meters":12000,"station_id":"ce4bgl92rcd13ifvqbq0","pricing_plan_id":"cebpf4jnsgd1na2vs0mg"},{"bike_id":"2d074b9a-1a23-4136-be67-20b6656dcc63","system_id":"levelo_inurba_marseille","lat":43.312239,"lon":5.368562,"is_reserved":false,"is_disabled":false,"rental_uris":{"android":"levelo://app?vid=2d074b9a-1a23-4136-be67-20b6656dcc63","ios":"levelo://app?vid=2d074b9a-1a23-4136-be67-20b6656dcc63"},"vehicle_type_id":"4","last_reported":1719072589,"current_range_meters":400,"station_id":"ce4bgl92rcd13ifvqbq0","pricing_plan_id":"cebpf4jnsgd1na2vs0mg"},{"bike_id":"2b22fd08-85eb-4f52-b3d4-2bd9c09d51a8","system_id":"levelo_inurba_marseille","lat":43.312239,"lon":5.368562,"is_reserved":false,"is_disabled":false,"rental_uris":{"android":"levelo://app?vid=2b22fd08-85eb-4f52-b3d4-2bd9c09d51a8","ios":"levelo://app?vid=2b22fd08-85eb-4f52-b3d4-2bd9c09d51a8"},"vehicle_type_id":"4","last_reported":1719072589,"current_range_meters":0,"station_id":"ce4bgl92rcd13ifvqbq0","pricing_plan_id":"cebpf4jnsgd1na2vs0mg"},{"bike_id":"747d802d-786a-47de-83cd-a3c124e9ae1b","system_id":"levelo_inurba_marseille","lat":43.312239,"lon":5.368562,"is_reserved":false,"is_disabled":false,"rental_uris":{"android":"levelo://app?vid=747d802d-786a-47de-83cd-a3c124e9ae1b","ios":"levelo://app?vid=747d802d-786a-47de-83cd-a3c124e9ae1b"},"vehicle_type_id":"4","last_reported":1719072589,"current_range_meters":27200,"station_id":"ce4bgl92rcd13ifvqbq0","pricing_plan_id":"cebpf4jnsgd1na2vs0mg"},{"bike_id":"4b24c8f3-decd-4099-847b-897766f58ea2","system_id":"levelo_inurba_marseille","lat":43.309076,"lon":5.368465,"is_reserved":false,"is_disabled":false,"rental_uris":{"android":"levelo://app?vid=4b24c8f3-decd-4099-847b-897766f58ea2","ios":"levelo://app?vid=4b24c8f3-decd-4099-847b-897766f58ea2"},"vehicle_type_id":"4","last_reported":1719072589,"current_range_meters":30000,"station_id":"ce4bgn92rcd13ifvqbvg","pricing_plan_id":"cebpf4jnsgd1na2vs0mg"},{"bike_id":"438ebbfb-ccc0-4a53-ba78-13d680adbad2","system_id":"levelo_inurba_marseille","lat":43.309076,"lon":5.368465,"is_reserved":false,"is_disabled":false,"rental_uris":{"android":"levelo://app?vid=438ebbfb-ccc0-4a53-ba78-13d680adbad2","ios":"levelo://app?vid=438ebbfb-ccc0-4a53-ba78-13d680adbad2"},"vehicle_type_id":"4","last_reported":1719072589,"current_range_meters":26800,"station_id":"ce4bgn92rcd13ifvqbvg","pricing_plan_id":"cebpf4jnsgd1na2vs0mg"},{"bike_id":"7d8dcea9-0e58-4185-a4a5-8f022bf2bec9","system_id":"levelo_inurba_marseille","lat":43.309076,"lon":5.368465,"is_reserved":false,"is_disabled":false,"rental_uris":{"android":"levelo://app?vid=7d8dcea9-0e58-4185-a4a5-8f022bf2bec9","ios":"levelo://app?vid=7d8dcea9-0e58-4185-a4a5-8f022bf2bec9"},"vehicle_type_id":"4","last_reported":1719072589,"current_range_meters":21200,"station_id":"ce4bgn92rcd13ifvqbvg","pricing_plan_id":"cebpf4jnsgd1na2vs0mg"},{"bike_id":"24d509b5-ef37-465b-b8cc-6a71986a5c4f","system_id":"levelo_inurba_marseille","lat":43.308744,"lon":5.368099,"is_reserved":false,"is_disabled":false,"rental_uris":{"android":"levelo://app?vid=24d509b5-ef37-465b-b8cc-6a71986a5c4f","ios":"levelo://app?vid=24d509b5-ef37-465b-b8cc-6a71986a5c4f"},"vehicle_type_id":"4","last_reported":1719072589,"current_range_meters":20400,"station_id":"ce4bgn92rcd13ifvqbvg","pricing_plan_id":"cebpf4jnsgd1na2vs0mg"},{"bike_id":"38f118ce-9e90-43d5-8011-5b78b84bab42","system_id":"levelo_inurba_marseille","lat":43.309076,"lon":5.368465,"is_reserved":false,"is_disabled":false,"rental_uris":{"android":"levelo://app?vid=38f118ce-9e90-43d5-8011-5b78b84bab42","ios":"levelo://app?vid=38f118ce-9e90-43d5-8011-5b78b84bab42"},"vehicle_type_id":"4","last_reported":1719072589,"current_range_meters":17600,"station_id":"ce4bgn92rcd13ifvqbvg","pricing_plan_id":"cebpf4jnsgd1na2vs0mg"},{"bike_id":"20f31c62-307b-4c16-93b6-6fcc5accd677","system_id":"levelo_inurba_marseille","lat":43.31458,"lon":5.373641,"is_reserved":false,"is_disabled":false,"rental_uris":{"android":"levelo://app?vid=20f31c62-307b-4c16-93b6-6fcc5accd677","ios":"levelo://app?vid=20f31c62-307b-4c16-93b6-6fcc5accd677"},"vehicle_type_id":"4","last_reported":1719072589,"current_range_meters":15600,"station_id":"","pricing_plan_id":"cebpf4jnsgd1na2vs0mg"},{"bike_id":"c46a7969-d450-4ed9-929d-253c947e48fd","system_id":"levelo_inurba_marseille","lat":43.309034,"lon":5.371783,"is_reserved":false,"is_disabled":false,"rental_uris":{"android":"levelo://app?vid=c46a7969-d450-4ed9-929d-253c947e48fd","ios":"levelo://app?vid=c46a7969-d450-4ed9-929d-253c947e48fd"},"vehicle_type_id":"4","last_reported":1719072589,"current_range_meters":19200,"station_id":"ce4bguh2rcd13ifvqckg","pricing_plan_id":"cebpf4jnsgd1na2vs0mg"},{"bike_id":"a947fe29-9e44-4481-b67d-4960a7d096ec","system_id":"levelo_inurba_marseille","lat":43.30537,"lon":5.367345,"is_reserved":false,"is_disabled":false,"rental_uris":{"android":"levelo://app?vid=a947fe29-9e44-4481-b67d-4960a7d096ec","ios":"levelo://app?vid=a947fe29-9e44-4481-b67d-4960a7d096ec"},"vehicle_type_id":"4","last_reported":1719072589,"current_range_meters":14400,"station_id":"ce4bgrp2rcd13ifvqc9g","pricing_plan_id":"cebpf4jnsgd1na2vs0mg"},{"bike_id":"624caa4b-8868-44dd-bb01-74bfdf626794","system_id":"levelo_inurba_marseille","lat":43.305368,"lon":5.367343,"is_reserved":false,"is_disabled":false,"rental_uris":{"android":"levelo://app?vid=624caa4b-8868-44dd-bb01-74bfdf626794","ios":"levelo://app?vid=624caa4b-8868-44dd-bb01-74bfdf626794"},"vehicle_type_id":"4","last_reported":1719072589,"current_range_meters":14800,"station_id":"ce4bgrp2rcd13ifvqc9g","pricing_plan_id":"cebpf4jnsgd1na2vs0mg"},{"bike_id":"24356373-3264-49ae-a4e0-445f6ca7f73e","system_id":"levelo_inurba_marseille","lat":43.30542,"lon":5.3655,"is_reserved":false,"is_disabled":false,"rental_uris":{"android":"levelo://app?vid=24356373-3264-49ae-a4e0-445f6ca7f73e","ios":"levelo://app?vid=24356373-3264-49ae-a4e0-445f6ca7f73e"},"vehicle_type_id":"4","last_reported":1719072589,"current_range_meters":31600,"station_id":"ce4bgs12rcd13ifvqcag","pricing_plan_id":"cebpf4jnsgd1na2vs0mg"},{"bike_id":"f71dc4db-dca5-468c-af99-0597e56a7620","system_id":"levelo_inurba_marseille","lat":43.30537,"lon":5.367345,"is_reserved":false,"is_disabled":false,"rental_uris":{"android":"levelo://app?vid=f71dc4db-dca5-468c-af99-0597e56a7620","ios":"levelo://app?vid=f71dc4db-dca5-468c-af99-0597e56a7620"},"vehicle_type_id":"4","last_reported":1719072589,"current_range_meters":2000,"station_id":"ce4bgrp2rcd13ifvqc9g","pricing_plan_id":"cebpf4jnsgd1na2vs0mg"},{"bike_id":"1b48e66f-1637-4152-b5f6-08f2b291a014","system_id":"levelo_inurba_marseille","lat":43.305368,"lon":5.367343,"is_reserved":false,"is_disabled":false,"rental_uris":{"android":"levelo://app?vid=1b48e66f-1637-4152-b5f6-08f2b291a014","ios":"levelo://app?vid=1b48e66f-1637-4152-b5f6-08f2b291a014"},"vehicle_type_id":"4","last_reported":1719072589,"current_range_meters":30400,"station_id":"ce4bgrp2rcd13ifvqc9g","pricing_plan_id":"cebpf4jnsgd1na2vs0mg"},{"bike_id":"a43e7e1e-e283-47ba-bb74-77104a25b45c","system_id":"levelo_inurba_marseille","lat":43.30532,"lon":5.36661,"is_reserved":false,"is_disabled":false,"rental_uris":{"android":"levelo://app?vid=a43e7e1e-e283-47ba-bb74-77104a25b45c","ios":"levelo://app?vid=a43e7e1e-e283-47ba-bb74-77104a25b45c"},"vehicle_type_id":"4","last_reported":1719072589,"current_range_meters":21600,"station_id":"","pricing_plan_id":"cebpf4jnsgd1na2vs0mg"},{"bike_id":"2cd51ec7-b6ca-4502-90f1-ee33eefb9b73","system_id":"levelo_inurba_marseille","lat":43.30537,"lon":5.36562,"is_reserved":false,"is_disabled":false,"rental_uris":{"android":"levelo://app?vid=2cd51ec7-b6ca-4502-90f1-ee33eefb9b73","ios":"levelo://app?vid=2cd51ec7-b6ca-4502-90f1-ee33eefb9b73"},"vehicle_type_id":"4","last_reported":1719072589,"current_range_meters":31600,"station_id":"ce4bgs12rcd13ifvqcag","pricing_plan_id":"cebpf4jnsgd1na2vs0mg"},{"bike_id":"87b726b8-f769-45df-acfb-eb55881baf96","system_id":"levelo_inurba_marseille","lat":43.305712,"lon":5.365641,"is_reserved":false,"is_disabled":false,"rental_uris":{"android":"levelo://app?vid=87b726b8-f769-45df-acfb-eb55881baf96","ios":"levelo://app?vid=87b726b8-f769-45df-acfb-eb55881baf96"},"vehicle_type_id":"4","last_reported":1719072589,"current_range_meters":30800,"station_id":"ce4bgs12rcd13ifvqcag","pricing_plan_id":"cebpf4jnsgd1na2vs0mg"},{"bike_id":"fbceea03-0c9e-453a-993f-5a92f8ff14fb","system_id":"levelo_inurba_marseille","lat":43.30311,"lon":5.368957,"is_reserved":false,"is_disabled":false,"rental_uris":{"android":"levelo://app?vid=fbceea03-0c9e-453a-993f-5a92f8ff14fb","ios":"levelo://app?vid=fbceea03-0c9e-453a-993f-5a92f8ff14fb"},"vehicle_type_id":"4","last_reported":1719072589,"current_range_meters":31200,"station_id":"ce4bgqh2rcd13ifvqc5g","pricing_plan_id":"cebpf4jnsgd1na2vs0mg"},{"bike_id":"58f2c1f8-8576-4e49-b5a5-9f3fbbd3c62d","system_id":"levelo_inurba_marseille","lat":43.303046,"lon":5.368981,"is_reserved":false,"is_disabled":false,"rental_uris":{"android":"levelo://app?vid=58f2c1f8-8576-4e49-b5a5-9f3fbbd3c62d","ios":"levelo://app?vid=58f2c1f8-8576-4e49-b5a5-9f3fbbd3c62d"},"vehicle_type_id":"4","last_reported":1719072589,"current_range_meters":14400,"station_id":"ce4bgqh2rcd13ifvqc5g","pricing_plan_id":"cebpf4jnsgd1na2vs0mg"},{"bike_id":"eedc50b3-0479-47cf-92a2-62a967313ff4","system_id":"levelo_inurba_marseille","lat":43.30304,"lon":5.368987,"is_reserved":false,"is_disabled":false,"rental_uris":{"android":"levelo://app?vid=eedc50b3-0479-47cf-92a2-62a967313ff4","ios":"levelo://app?vid=eedc50b3-0479-47cf-92a2-62a967313ff4"},"vehicle_type_id":"4","last_reported":1719072589,"current_range_meters":11200,"station_id":"ce4bgqh2rcd13ifvqc5g","pricing_plan_id":"cebpf4jnsgd1na2vs0mg"},{"bike_id":"593e38e9-fd78-4563-b7c8-d5bf579f71ff","system_id":"levelo_inurba_marseille","lat":43.30304,"lon":5.368987,"is_reserved":false,"is_disabled":false,"rental_uris":{"android":"levelo://app?vid=593e38e9-fd78-4563-b7c8-d5bf579f71ff","ios":"levelo://app?vid=593e38e9-fd78-4563-b7c8-d5bf579f71ff"},"vehicle_type_id":"4","last_reported":1719072589,"current_range_meters":31200,"station_id":"ce4bgqh2rcd13ifvqc5g","pricing_plan_id":"cebpf4jnsgd1na2vs0mg"},{"bike_id":"5b8007bb-0dd8-4352-b213-d088b8c4b4e0","system_id":"levelo_inurba_marseille","lat":43.31557,"lon":5.38011,"is_reserved":false,"is_disabled":false,"rental_uris":{"android":"levelo://app?vid=5b8007bb-0dd8-4352-b213-d088b8c4b4e0","ios":"levelo://app?vid=5b8007bb-0dd8-4352-b213-d088b8c4b4e0"},"vehicle_type_id":"4","last_reported":1719072589,"current_range_meters":8400,"station_id":"ce4bhsp2rcd13ifvqi50","pricing_plan_id":"cebpf4jnsgd1na2vs0mg"},{"bike_id":"374b75ad-ef9c-4801-ab0d-552e0ad47925","system_id":"levelo_inurba_marseille","lat":43.315289,"lon":5.380349,"is_reserved":false,"is_disabled":false,"rental_uris":{"android":"levelo://app?vid=374b75ad-ef9c-4801-ab0d-552e0ad47925","ios":"levelo://app?vid=374b75ad-ef9c-4801-ab0d-552e0ad47925"},"vehicle_type_id":"4","last_reported":1719072589,"current_range_meters":15200,"station_id":"ce4bhsp2rcd13ifvqi50","pricing_plan_id":"cebpf4jnsgd1na2vs0mg"},{"bike_id":"1aa9382d-bd55-4aff-8971-b23615fccdae","system_id":"levelo_inurba_marseille","lat":43.311,"lon":5.38145,"is_reserved":false,"is_disabled":false,"rental_uris":{"android":"levelo://app?vid=1aa9382d-bd55-4aff-8971-b23615fccdae","ios":"levelo://app?vid=1aa9382d-bd55-4aff-8971-b23615fccdae"},"vehicle_type_id":"4","last_reported":1719072589,"current_range_meters":5200,"station_id":"","pricing_plan_id":"cebpf4jnsgd1na2vs0mg"},{"bike_id":"1cc25914-2a72-4e23-8678-a9be8865271d","system_id":"levelo_inurba_marseille","lat":43.315289,"lon":5.380349,"is_reserved":false,"is_disabled":false,"rental_uris":{"android":"levelo://app?vid=1cc25914-2a72-4e23-8678-a9be8865271d","ios":"levelo://app?vid=1cc25914-2a72-4e23-8678-a9be8865271d"},"vehicle_type_id":"4","last_reported":1719072589,"current_range_meters":0,"station_id":"ce4bhsp2rcd13ifvqi50","pricing_plan_id":"cebpf4jnsgd1na2vs0mg"},{"bike_id":"c8d74784-cfa3-4dc0-a55e-c53d6b6b7590","system_id":"levelo_inurba_marseille","lat":43.313452,"lon":5.382551,"is_reserved":false,"is_disabled":false,"rental_uris":{"android":"levelo://app?vid=c8d74784-cfa3-4dc0-a55e-c53d6b6b7590","ios":"levelo://app?vid=c8d74784-cfa3-4dc0-a55e-c53d6b6b7590"},"vehicle_type_id":"4","last_reported":1719072589,"current_range_meters":16800,"station_id":"","pricing_plan_id":"cebpf4jnsgd1na2vs0mg"},{"bike_id":"3e258cbf-9091-417b-8096-7baf23605e25","system_id":"levelo_inurba_marseille","lat":43.308012,"lon":5.381511,"is_reserved":false,"is_disabled":false,"rental_uris":{"android":"levelo://app?vid=3e258cbf-9091-417b-8096-7baf23605e25","ios":"levelo://app?vid=3e258cbf-9091-417b-8096-7baf23605e25"},"vehicle_type_id":"4","last_reported":1719072589,"current_range_meters":23200,"station_id":"ce4bgt12rcd13ifvqce0","pricing_plan_id":"cebpf4jnsgd1na2vs0mg"},{"bike_id":"a83371aa-194d-4df8-9496-bf45dda26c80","system_id":"levelo_inurba_marseille","lat":43.30834,"lon":5.38187,"is_reserved":false,"is_disabled":false,"rental_uris":{"android":"levelo://app?vid=a83371aa-194d-4df8-9496-bf45dda26c80","ios":"levelo://app?vid=a83371aa-194d-4df8-9496-bf45dda26c80"},"vehicle_type_id":"4","last_reported":1719072589,"current_range_meters":31200,"station_id":"","pricing_plan_id":"cebpf4jnsgd1na2vs0mg"},{"bike_id":"53c99c7b-9065-4519-aae2-7a04171d7f31","system_id":"levelo_inurba_marseille","lat":43.308012,"lon":5.381511,"is_reserved":false,"is_disabled":false,"rental_uris":{"android":"levelo://app?vid=53c99c7b-9065-4519-aae2-7a04171d7f31","ios":"levelo://app?vid=53c99c7b-9065-4519-aae2-7a04171d7f31"},"vehicle_type_id":"4","last_reported":1719072589,"current_range_meters":15200,"station_id":"ce4bgt12rcd13ifvqce0","pricing_plan_id":"cebpf4jnsgd1na2vs0mg"},{"bike_id":"ed14ec74-1f1c-4cfd-8d26-59aa92fdca8a","system_id":"levelo_inurba_marseille","lat":43.30082,"lon":5.367207,"is_reserved":false,"is_disabled":false,"rental_uris":{"android":"levelo://app?vid=ed14ec74-1f1c-4cfd-8d26-59aa92fdca8a","ios":"levelo://app?vid=ed14ec74-1f1c-4cfd-8d26-59aa92fdca8a"},"vehicle_type_id":"4","last_reported":1719072589,"current_range_meters":25600,"station_id":"","pricing_plan_id":"cebpf4jnsgd1na2vs0mg"},{"bike_id":"4c229950-9cd9-42e2-8315-d333ff268688","system_id":"levelo_inurba_marseille","lat":43.304606,"lon":5.379026,"is_reserved":false,"is_disabled":false,"rental_uris":{"android":"levelo://app?vid=4c229950-9cd9-42e2-8315-d333ff268688","ios":"levelo://app?vid=4c229950-9cd9-42e2-8315-d333ff268688"},"vehicle_type_id":"4","last_reported":1719072589,"current_range_meters":30000,"station_id":"ce4bgup2rcd13ifvqcn0","pricing_plan_id":"cebpf4jnsgd1na2vs0mg"},{"bike_id":"4ca936f9-568c-4d43-8073-24ee3aef1855","system_id":"levelo_inurba_marseille","lat":43.304606,"lon":5.379026,"is_reserved":false,"is_disabled":false,"rental_uris":{"android":"levelo://app?vid=4ca936f9-568c-4d43-8073-24ee3aef1855","ios":"levelo://app?vid=4ca936f9-568c-4d43-8073-24ee3aef1855"},"vehicle_type_id":"4","last_reported":1719072589,"current_range_meters":23200,"station_id":"ce4bgup2rcd13ifvqcn0","pricing_plan_id":"cebpf4jnsgd1na2vs0mg"},{"bike_id":"e4876dc7-104d-4e95-bdeb-5e7adbe9717d","system_id":"levelo_inurba_marseille","lat":43.324771,"lon":5.36557,"is_reserved":false,"is_disabled":false,"rental_uris":{"android":"levelo://app?vid=e4876dc7-104d-4e95-bdeb-5e7adbe9717d","ios":"levelo://app?vid=e4876dc7-104d-4e95-bdeb-5e7adbe9717d"},"vehicle_type_id":"4","last_reported":1719072589,"current_range_meters":9600,"station_id":"ce4bhs12rcd13ifvqhvg","pricing_plan_id":"cebpf4jnsgd1na2vs0mg"},{"bike_id":"1ad38dab-86fc-4c88-9489-92129a8ae0cf","system_id":"levelo_inurba_marseille","lat":43.324771,"lon":5.36557,"is_reserved":false,"is_disabled":false,"rental_uris":{"android":"levelo://app?vid=1ad38dab-86fc-4c88-9489-92129a8ae0cf","ios":"levelo://app?vid=1ad38dab-86fc-4c88-9489-92129a8ae0cf"},"vehicle_type_id":"4","last_reported":1719072589,"current_range_meters":20800,"station_id":"ce4bhs12rcd13ifvqhvg","pricing_plan_id":"cebpf4jnsgd1na2vs0mg"},{"bike_id":"ee432a41-c719-4a44-947b-f03e107c25a9","system_id":"levelo_inurba_marseille","lat":43.310804,"lon":5.38359,"is_reserved":false,"is_disabled":false,"rental_uris":{"android":"levelo://app?vid=ee432a41-c719-4a44-947b-f03e107c25a9","ios":"levelo://app?vid=ee432a41-c719-4a44-947b-f03e107c25a9"},"vehicle_type_id":"4","last_reported":1719072589,"current_range_meters":19600,"station_id":"ce4bgv92rcd13ifvqcr0","pricing_plan_id":"cebpf4jnsgd1na2vs0mg"},{"bike_id":"01c329ea-bc74-4154-a227-307bb011758d","system_id":"levelo_inurba_marseille","lat":43.299724,"lon":5.371829,"is_reserved":false,"is_disabled":false,"rental_uris":{"android":"levelo://app?vid=01c329ea-bc74-4154-a227-307bb011758d","ios":"levelo://app?vid=01c329ea-bc74-4154-a227-307bb011758d"},"vehicle_type_id":"4","last_reported":1719072589,"current_range_meters":23200,"station_id":"ce4bgr92rcd13ifvqc7g","pricing_plan_id":"cebpf4jnsgd1na2vs0mg"},{"bike_id":"6bd1a044-52ca-4bb4-a5e4-a0a6306462e1","system_id":"levelo_inurba_marseille","lat":43.29988,"lon":5.37431,"is_reserved":false,"is_disabled":false,"rental_uris":{"android":"levelo://app?vid=6bd1a044-52ca-4bb4-a5e4-a0a6306462e1","ios":"levelo://app?vid=6bd1a044-52ca-4bb4-a5e4-a0a6306462e1"},"vehicle_type_id":"4","last_reported":1719072589,"current_range_meters":26800,"station_id":"ce4bgr92rcd13ifvqc7g","pricing_plan_id":"cebpf4jnsgd1na2vs0mg"},{"bike_id":"6e0188d2-66e3-4776-81c7-0d560ccd4044","system_id":"levelo_inurba_marseille","lat":43.305364,"lon":5.384119,"is_reserved":false,"is_disabled":false,"rental_uris":{"android":"levelo://app?vid=6e0188d2-66e3-4776-81c7-0d560ccd4044","ios":"levelo://app?vid=6e0188d2-66e3-4776-81c7-0d560ccd4044"},"vehicle_type_id":"4","last_reported":1719072589,"current_range_meters":30400,"station_id":"ce4bgg92rcd13ifvqb30","pricing_plan_id":"cebpf4jnsgd1na2vs0mg"},{"bike_id":"bfcf57d5-759b-470d-af96-1559a9e89cb1","system_id":"levelo_inurba_marseille","lat":43.311722,"lon":5.387247,"is_reserved":false,"is_disabled":false,"rental_uris":{"android":"levelo://app?vid=bfcf57d5-759b-470d-af96-1559a9e89cb1","ios":"levelo://app?vid=bfcf57d5-759b-470d-af96-1559a9e89cb1"},"vehicle_type_id":"4","last_reported":1719072589,"current_range_meters":24400,"station_id":"ce4bgv12rcd13ifvqcp0","pricing_plan_id":"cebpf4jnsgd1na2vs0mg"},{"bike_id":"aec862af-a23d-4a4e-b53a-1eaa4876abae","system_id":"levelo_inurba_marseille","lat":43.299243,"lon":5.374807,"is_reserved":false,"is_disabled":false,"rental_uris":{"android":"levelo://app?vid=aec862af-a23d-4a4e-b53a-1eaa4876abae","ios":"levelo://app?vid=aec862af-a23d-4a4e-b53a-1eaa4876abae"},"vehicle_type_id":"4","last_reported":1719072589,"current_range_meters":5600,"station_id":"ce4bgjh2rcd13ifvqbg0","pricing_plan_id":"cebpf4jnsgd1na2vs0mg"},{"bike_id":"54e13617-3812-4af6-9fb7-15a63c8861a3","system_id":"levelo_inurba_marseille","lat":43.311722,"lon":5.387247,"is_reserved":false,"is_disabled":false,"rental_uris":{"android":"levelo://app?vid=54e13617-3812-4af6-9fb7-15a63c8861a3","ios":"levelo://app?vid=54e13617-3812-4af6-9fb7-15a63c8861a3"},"vehicle_type_id":"4","last_reported":1719072589,"current_range_meters":0,"station_id":"ce4bgv12rcd13ifvqcp0","pricing_plan_id":"cebpf4jnsgd1na2vs0mg"},{"bike_id":"d94a8623-e06e-45f8-8530-23f1b20b118c","system_id":"levelo_inurba_marseille","lat":43.299243,"lon":5.374807,"is_reserved":false,"is_disabled":false,"rental_uris":{"android":"levelo://app?vid=d94a8623-e06e-45f8-8530-23f1b20b118c","ios":"levelo://app?vid=d94a8623-e06e-45f8-8530-23f1b20b118c"},"vehicle_type_id":"4","last_reported":1719072589,"current_range_meters":0,"station_id":"ce4bgjh2rcd13ifvqbg0","pricing_plan_id":"cebpf4jnsgd1na2vs0mg"},{"bike_id":"580b8760-d092-4615-8d58-4d90d42a5620","system_id":"levelo_inurba_marseille","lat":43.311722,"lon":5.387247,"is_reserved":false,"is_disabled":false,"rental_uris":{"android":"levelo://app?vid=580b8760-d092-4615-8d58-4d90d42a5620","ios":"levelo://app?vid=580b8760-d092-4615-8d58-4d90d42a5620"},"vehicle_type_id":"4","last_reported":1719072589,"current_range_meters":20400,"station_id":"ce4bgv12rcd13ifvqcp0","pricing_plan_id":"cebpf4jnsgd1na2vs0mg"},{"bike_id":"e8b52068-5eac-4f99-8fc9-062b911cab46","system_id":"levelo_inurba_marseille","lat":43.31173,"lon":5.38721,"is_reserved":false,"is_disabled":false,"rental_uris":{"android":"levelo://app?vid=e8b52068-5eac-4f99-8fc9-062b911cab46","ios":"levelo://app?vid=e8b52068-5eac-4f99-8fc9-062b911cab46"},"vehicle_type_id":"4","last_reported":1719072589,"current_range_meters":0,"station_id":"ce4bgv12rcd13ifvqcp0","pricing_plan_id":"cebpf4jnsgd1na2vs0mg"},{"bike_id":"6719732f-c943-44fe-9bbd-0574a63107e2","system_id":"levelo_inurba_marseille","lat":43.297794,"lon":5.370888,"is_reserved":false,"is_disabled":false,"rental_uris":{"android":"levelo://app?vid=6719732f-c943-44fe-9bbd-0574a63107e2","ios":"levelo://app?vid=6719732f-c943-44fe-9bbd-0574a63107e2"},"vehicle_type_id":"4","last_reported":1719072589,"current_range_meters":4400,"station_id":"ce4bgop2rcd13ifvqc1g","pricing_plan_id":"cebpf4jnsgd1na2vs0mg"},{"bike_id":"29372970-9828-489b-bd74-a1546889f7fe","system_id":"levelo_inurba_marseille","lat":43.297794,"lon":5.370888,"is_reserved":false,"is_disabled":false,"rental_uris":{"android":"levelo://app?vid=29372970-9828-489b-bd74-a1546889f7fe","ios":"levelo://app?vid=29372970-9828-489b-bd74-a1546889f7fe"},"vehicle_type_id":"4","last_reported":1719072589,"current_range_meters":21200,"station_id":"ce4bgop2rcd13ifvqc1g","pricing_plan_id":"cebpf4jnsgd1na2vs0mg"},{"bike_id":"18b78c24-4b02-41d1-8197-e4f0879b6376","system_id":"levelo_inurba_marseille","lat":43.297774,"lon":5.370875,"is_reserved":false,"is_disabled":false,"rental_uris":{"android":"levelo://app?vid=18b78c24-4b02-41d1-8197-e4f0879b6376","ios":"levelo://app?vid=18b78c24-4b02-41d1-8197-e4f0879b6376"},"vehicle_type_id":"4","last_reported":1719072589,"current_range_meters":8400,"station_id":"ce4bgop2rcd13ifvqc1g","pricing_plan_id":"cebpf4jnsgd1na2vs0mg"},{"bike_id":"d5e27169-6738-4f64-87b1-fdf5ddef6b84","system_id":"levelo_inurba_marseille","lat":43.297794,"lon":5.370888,"is_reserved":false,"is_disabled":false,"rental_uris":{"android":"levelo://app?vid=d5e27169-6738-4f64-87b1-fdf5ddef6b84","ios":"levelo://app?vid=d5e27169-6738-4f64-87b1-fdf5ddef6b84"},"vehicle_type_id":"4","last_reported":1719072589,"current_range_meters":17600,"station_id":"ce4bgop2rcd13ifvqc1g","pricing_plan_id":"cebpf4jnsgd1na2vs0mg"},{"bike_id":"6456432a-d723-4139-bbc0-477d9c32e291","system_id":"levelo_inurba_marseille","lat":43.297163,"lon":5.365866,"is_reserved":false,"is_disabled":false,"rental_uris":{"android":"levelo://app?vid=6456432a-d723-4139-bbc0-477d9c32e291","ios":"levelo://app?vid=6456432a-d723-4139-bbc0-477d9c32e291"},"vehicle_type_id":"4","last_reported":1719072589,"current_range_meters":9200,"station_id":"ce4bgn12rcd13ifvqbt0","pricing_plan_id":"cebpf4jnsgd1na2vs0mg"},{"bike_id":"2f30e7c2-0ca1-42ce-8d9c-1bc0f92b8f29","system_id":"levelo_inurba_marseille","lat":43.2968,"lon":5.37291,"is_reserved":false,"is_disabled":false,"rental_uris":{"android":"levelo://app?vid=2f30e7c2-0ca1-42ce-8d9c-1bc0f92b8f29","ios":"levelo://app?vid=2f30e7c2-0ca1-42ce-8d9c-1bc0f92b8f29"},"vehicle_type_id":"4","last_reported":1719072589,"current_range_meters":16400,"station_id":"ce4bgk12rcd13ifvqbj0","pricing_plan_id":"cebpf4jnsgd1na2vs0mg"},{"bike_id":"49a95941-444e-40f3-8719-ee8411858fab","system_id":"levelo_inurba_marseille","lat":43.296129,"lon":5.370777,"is_reserved":false,"is_disabled":false,"rental_uris":{"android":"levelo://app?vid=49a95941-444e-40f3-8719-ee8411858fab","ios":"levelo://app?vid=49a95941-444e-40f3-8719-ee8411858fab"},"vehicle_type_id":"4","last_reported":1719072589,"current_range_meters":22400,"station_id":"ce4bgnh2rcd13ifvqc0g","pricing_plan_id":"cebpf4jnsgd1na2vs0mg"},{"bike_id":"260578ca-ad3c-48a3-990d-48846ea83dd4","system_id":"levelo_inurba_marseille","lat":43.296129,"lon":5.370777,"is_reserved":false,"is_disabled":false,"rental_uris":{"android":"levelo://app?vid=260578ca-ad3c-48a3-990d-48846ea83dd4","ios":"levelo://app?vid=260578ca-ad3c-48a3-990d-48846ea83dd4"},"vehicle_type_id":"4","last_reported":1719072589,"current_range_meters":16400,"station_id":"ce4bgnh2rcd13ifvqc0g","pricing_plan_id":"cebpf4jnsgd1na2vs0mg"},{"bike_id":"e7c304a2-05db-4a82-ad19-919ef282decc","system_id":"levelo_inurba_marseille","lat":43.29573,"lon":5.367355,"is_reserved":false,"is_disabled":false,"rental_uris":{"android":"levelo://app?vid=e7c304a2-05db-4a82-ad19-919ef282decc","ios":"levelo://app?vid=e7c304a2-05db-4a82-ad19-919ef282decc"},"vehicle_type_id":"4","last_reported":1719072589,"current_range_meters":20000,"station_id":"ce4bgph2rcd13ifvqc2g","pricing_plan_id":"cebpf4jnsgd1na2vs0mg"},{"bike_id":"4c5f90e7-d9df-47dc-8e51-05249537d5a7","system_id":"levelo_inurba_marseille","lat":43.29573,"lon":5.367355,"is_reserved":false,"is_disabled":false,"rental_uris":{"android":"levelo://app?vid=4c5f90e7-d9df-47dc-8e51-05249537d5a7","ios":"levelo://app?vid=4c5f90e7-d9df-47dc-8e51-05249537d5a7"},"vehicle_type_id":"4","last_reported":1719072589,"current_range_meters":7200,"station_id":"ce4bgph2rcd13ifvqc2g","pricing_plan_id":"cebpf4jnsgd1na2vs0mg"},{"bike_id":"e5c6b246-0b79-4f7a-b835-1eebb0c7c28b","system_id":"levelo_inurba_marseille","lat":43.29573,"lon":5.367355,"is_reserved":false,"is_disabled":false,"rental_uris":{"android":"levelo://app?vid=e5c6b246-0b79-4f7a-b835-1eebb0c7c28b","ios":"levelo://app?vid=e5c6b246-0b79-4f7a-b835-1eebb0c7c28b"},"vehicle_type_id":"4","last_reported":1719072589,"current_range_meters":8400,"station_id":"ce4bgph2rcd13ifvqc2g","pricing_plan_id":"cebpf4jnsgd1na2vs0mg"},{"bike_id":"a46654e0-9439-4177-9eb4-42e3c45a52e2","system_id":"levelo_inurba_marseille","lat":43.299028,"lon":5.381509,"is_reserved":false,"is_disabled":false,"rental_uris":{"android":"levelo://app?vid=a46654e0-9439-4177-9eb4-42e3c45a52e2","ios":"levelo://app?vid=a46654e0-9439-4177-9eb4-42e3c45a52e2"},"vehicle_type_id":"4","last_reported":1719072589,"current_range_meters":22800,"station_id":"ce4bgj12rcd13ifvqbc0","pricing_plan_id":"cebpf4jnsgd1na2vs0mg"},{"bike_id":"ee9546b4-d216-41b2-a5a0-939015eefc7e","system_id":"levelo_inurba_marseille","lat":43.299028,"lon":5.381509,"is_reserved":false,"is_disabled":false,"rental_uris":{"android":"levelo://app?vid=ee9546b4-d216-41b2-a5a0-939015eefc7e","ios":"levelo://app?vid=ee9546b4-d216-41b2-a5a0-939015eefc7e"},"vehicle_type_id":"4","last_reported":1719072589,"current_range_meters":11200,"station_id":"ce4bgj12rcd13ifvqbc0","pricing_plan_id":"cebpf4jnsgd1na2vs0mg"},{"bike_id":"08581f40-f28e-47b7-8ffb-79772d5f1d16","system_id":"levelo_inurba_marseille","lat":43.309589,"lon":5.390258,"is_reserved":false,"is_disabled":false,"rental_uris":{"android":"levelo://app?vid=08581f40-f28e-47b7-8ffb-79772d5f1d16","ios":"levelo://app?vid=08581f40-f28e-47b7-8ffb-79772d5f1d16"},"vehicle_type_id":"4","last_reported":1719072589,"current_range_meters":6800,"station_id":"ce4bgup2rcd13ifvqco0","pricing_plan_id":"cebpf4jnsgd1na2vs0mg"},{"bike_id":"91f7dfd5-f1a4-4641-aca4-0bfba4d5942a","system_id":"levelo_inurba_marseille","lat":43.29693,"lon":5.37695,"is_reserved":false,"is_disabled":false,"rental_uris":{"android":"levelo://app?vid=91f7dfd5-f1a4-4641-aca4-0bfba4d5942a","ios":"levelo://app?vid=91f7dfd5-f1a4-4641-aca4-0bfba4d5942a"},"vehicle_type_id":"4","last_reported":1719072589,"current_range_meters":16000,"station_id":"ce4bgkh2rcd13ifvqbl0","pricing_plan_id":"cebpf4jnsgd1na2vs0mg"},{"bike_id":"47207e96-15e0-4eb7-aaaf-6e6964c4364f","system_id":"levelo_inurba_marseille","lat":43.304274,"lon":5.388873,"is_reserved":false,"is_disabled":false,"rental_uris":{"android":"levelo://app?vid=47207e96-15e0-4eb7-aaaf-6e6964c4364f","ios":"levelo://app?vid=47207e96-15e0-4eb7-aaaf-6e6964c4364f"},"vehicle_type_id":"4","last_reported":1719072589,"current_range_meters":8800,"station_id":"ce4bgk12rcd13ifvqbi0","pricing_plan_id":"cebpf4jnsgd1na2vs0mg"},{"bike_id":"f4b3cc2f-f497-4856-b525-c285b3a1ac48","system_id":"levelo_inurba_marseille","lat":43.304278,"lon":5.388868,"is_reserved":false,"is_disabled":false,"rental_uris":{"android":"levelo://app?vid=f4b3cc2f-f497-4856-b525-c285b3a1ac48","ios":"levelo://app?vid=f4b3cc2f-f497-4856-b525-c285b3a1ac48"},"vehicle_type_id":"4","last_reported":1719072589,"current_range_meters":24800,"station_id":"ce4bgk12rcd13ifvqbi0","pricing_plan_id":"cebpf4jnsgd1na2vs0mg"},{"bike_id":"9168e2dc-696d-43c5-871a-44abcdd5588e","system_id":"levelo_inurba_marseille","lat":43.296277,"lon":5.377108,"is_reserved":false,"is_disabled":false,"rental_uris":{"android":"levelo://app?vid=9168e2dc-696d-43c5-871a-44abcdd5588e","ios":"levelo://app?vid=9168e2dc-696d-43c5-871a-44abcdd5588e"},"vehicle_type_id":"4","last_reported":1719072589,"current_range_meters":1200,"station_id":"ce4bgi92rcd13ifvqb90","pricing_plan_id":"cebpf4jnsgd1na2vs0mg"},{"bike_id":"19a5cc38-2d49-432a-8cb5-1a30dabd720e","system_id":"levelo_inurba_marseille","lat":43.295279,"lon":5.375048,"is_reserved":false,"is_disabled":false,"rental_uris":{"android":"levelo://app?vid=19a5cc38-2d49-432a-8cb5-1a30dabd720e","ios":"levelo://app?vid=19a5cc38-2d49-432a-8cb5-1a30dabd720e"},"vehicle_type_id":"4","last_reported":1719072589,"current_range_meters":400,"station_id":"ce4bgkp2rcd13ifvqbmg","pricing_plan_id":"cebpf4jnsgd1na2vs0mg"},{"bike_id":"9e30ee99-de5b-4b9f-bbd2-6811d2c68684","system_id":"levelo_inurba_marseille","lat":43.299724,"lon":5.384848,"is_reserved":false,"is_disabled":false,"rental_uris":{"android":"levelo://app?vid=9e30ee99-de5b-4b9f-bbd2-6811d2c68684","ios":"levelo://app?vid=9e30ee99-de5b-4b9f-bbd2-6811d2c68684"},"vehicle_type_id":"4","last_reported":1719072589,"current_range_meters":1200,"station_id":"ce4bgj92rcd13ifvqbd0","pricing_plan_id":"cebpf4jnsgd1na2vs0mg"},{"bike_id":"9f6fe126-9e67-43d5-bf1c-7a6bf1f6bc28","system_id":"levelo_inurba_marseille","lat":43.30129,"lon":5.38816,"is_reserved":false,"is_disabled":false,"rental_uris":{"android":"levelo://app?vid=9f6fe126-9e67-43d5-bf1c-7a6bf1f6bc28","ios":"levelo://app?vid=9f6fe126-9e67-43d5-bf1c-7a6bf1f6bc28"},"vehicle_type_id":"4","last_reported":1719072589,"current_range_meters":17600,"station_id":"","pricing_plan_id":"cebpf4jnsgd1na2vs0mg"},{"bike_id":"cb0e9900-94af-4247-b362-102a601441b0","system_id":"levelo_inurba_marseille","lat":43.32367,"lon":5.388836,"is_reserved":false,"is_disabled":false,"rental_uris":{"android":"levelo://app?vid=cb0e9900-94af-4247-b362-102a601441b0","ios":"levelo://app?vid=cb0e9900-94af-4247-b362-102a601441b0"},"vehicle_type_id":"4","last_reported":1719072589,"current_range_meters":15200,"station_id":"ce4bhqp2rcd13ifvqhog","pricing_plan_id":"cebpf4jnsgd1na2vs0mg"},{"bike_id":"47bebe8a-63d8-40d0-bafd-108e5a07e49e","system_id":"levelo_inurba_marseille","lat":43.29383,"lon":5.37417,"is_reserved":false,"is_disabled":false,"rental_uris":{"android":"levelo://app?vid=47bebe8a-63d8-40d0-bafd-108e5a07e49e","ios":"levelo://app?vid=47bebe8a-63d8-40d0-bafd-108e5a07e49e"},"vehicle_type_id":"4","last_reported":1719072589,"current_range_meters":400,"station_id":"","pricing_plan_id":"cebpf4jnsgd1na2vs0mg"},{"bike_id":"2aca212f-d54c-42dd-b38a-13c1a64dd773","system_id":"levelo_inurba_marseille","lat":43.293249,"lon":5.371578,"is_reserved":false,"is_disabled":false,"rental_uris":{"android":"levelo://app?vid=2aca212f-d54c-42dd-b38a-13c1a64dd773","ios":"levelo://app?vid=2aca212f-d54c-42dd-b38a-13c1a64dd773"},"vehicle_type_id":"4","last_reported":1719072589,"current_range_meters":22800,"station_id":"ce4bgh92rcd13ifvqb40","pricing_plan_id":"cebpf4jnsgd1na2vs0mg"},{"bike_id":"26f44c64-a0a5-427a-a1d5-20d14ab3f764","system_id":"levelo_inurba_marseille","lat":43.293259,"lon":5.371586,"is_reserved":false,"is_disabled":false,"rental_uris":{"android":"levelo://app?vid=26f44c64-a0a5-427a-a1d5-20d14ab3f764","ios":"levelo://app?vid=26f44c64-a0a5-427a-a1d5-20d14ab3f764"},"vehicle_type_id":"4","last_reported":1719072589,"current_range_meters":30400,"station_id":"ce4bgh92rcd13ifvqb40","pricing_plan_id":"cebpf4jnsgd1na2vs0mg"},{"bike_id":"81705c3e-26a1-4d7c-b8ed-c9ee5c69eda9","system_id":"levelo_inurba_marseille","lat":43.29267,"lon":5.36842,"is_reserved":false,"is_disabled":false,"rental_uris":{"android":"levelo://app?vid=81705c3e-26a1-4d7c-b8ed-c9ee5c69eda9","ios":"levelo://app?vid=81705c3e-26a1-4d7c-b8ed-c9ee5c69eda9"},"vehicle_type_id":"4","last_reported":1719072589,"current_range_meters":18800,"station_id":"ce4bhbp2rcd13ifvqesg","pricing_plan_id":"cebpf4jnsgd1na2vs0mg"},{"bike_id":"611068b1-8872-4ff7-b95c-36cfb4e18b52","system_id":"levelo_inurba_marseille","lat":43.29265,"lon":5.36841,"is_reserved":false,"is_disabled":false,"rental_uris":{"android":"levelo://app?vid=611068b1-8872-4ff7-b95c-36cfb4e18b52","ios":"levelo://app?vid=611068b1-8872-4ff7-b95c-36cfb4e18b52"},"vehicle_type_id":"4","last_reported":1719072589,"current_range_meters":0,"station_id":"ce4bhbp2rcd13ifvqesg","pricing_plan_id":"cebpf4jnsgd1na2vs0mg"},{"bike_id":"7bb1fff1-95ca-40a8-82da-347a4cd8b8c7","system_id":"levelo_inurba_marseille","lat":43.30588,"lon":5.39341,"is_reserved":false,"is_disabled":false,"rental_uris":{"android":"levelo://app?vid=7bb1fff1-95ca-40a8-82da-347a4cd8b8c7","ios":"levelo://app?vid=7bb1fff1-95ca-40a8-82da-347a4cd8b8c7"},"vehicle_type_id":"4","last_reported":1719072589,"current_range_meters":14000,"station_id":"ce4bh0p2rcd13ifvqd80","pricing_plan_id":"cebpf4jnsgd1na2vs0mg"},{"bike_id":"1b1a2246-7e4c-454a-b6b0-c8d6bc728518","system_id":"levelo_inurba_marseille","lat":43.293009,"lon":5.374584,"is_reserved":false,"is_disabled":false,"rental_uris":{"android":"levelo://app?vid=1b1a2246-7e4c-454a-b6b0-c8d6bc728518","ios":"levelo://app?vid=1b1a2246-7e4c-454a-b6b0-c8d6bc728518"},"vehicle_type_id":"4","last_reported":1719072589,"current_range_meters":10800,"station_id":"ce4bgi12rcd13ifvqb70","pricing_plan_id":"cebpf4jnsgd1na2vs0mg"},{"bike_id":"21f91a9c-a97d-4610-97cd-064bcd10e378","system_id":"levelo_inurba_marseille","lat":43.293009,"lon":5.374584,"is_reserved":false,"is_disabled":false,"rental_uris":{"android":"levelo://app?vid=21f91a9c-a97d-4610-97cd-064bcd10e378","ios":"levelo://app?vid=21f91a9c-a97d-4610-97cd-064bcd10e378"},"vehicle_type_id":"4","last_reported":1719072589,"current_range_meters":11600,"station_id":"ce4bgi12rcd13ifvqb70","pricing_plan_id":"cebpf4jnsgd1na2vs0mg"},{"bike_id":"492f0e30-e892-4eff-b16c-64b4cfd15369","system_id":"levelo_inurba_marseille","lat":43.29298,"lon":5.37466,"is_reserved":false,"is_disabled":false,"rental_uris":{"android":"levelo://app?vid=492f0e30-e892-4eff-b16c-64b4cfd15369","ios":"levelo://app?vid=492f0e30-e892-4eff-b16c-64b4cfd15369"},"vehicle_type_id":"4","last_reported":1719072589,"current_range_meters":10000,"station_id":"ce4bgi12rcd13ifvqb70","pricing_plan_id":"cebpf4jnsgd1na2vs0mg"},{"bike_id":"df0afb3e-6b43-426d-8e43-409d219bad6f","system_id":"levelo_inurba_marseille","lat":43.305994,"lon":5.393687,"is_reserved":false,"is_disabled":false,"rental_uris":{"android":"levelo://app?vid=df0afb3e-6b43-426d-8e43-409d219bad6f","ios":"levelo://app?vid=df0afb3e-6b43-426d-8e43-409d219bad6f"},"vehicle_type_id":"4","last_reported":1719072589,"current_range_meters":25200,"station_id":"ce4bh0p2rcd13ifvqd80","pricing_plan_id":"cebpf4jnsgd1na2vs0mg"},{"bike_id":"4066a83f-5bdb-4662-bcb3-45e90f894a2d","system_id":"levelo_inurba_marseille","lat":43.293009,"lon":5.374584,"is_reserved":false,"is_disabled":false,"rental_uris":{"android":"levelo://app?vid=4066a83f-5bdb-4662-bcb3-45e90f894a2d","ios":"levelo://app?vid=4066a83f-5bdb-4662-bcb3-45e90f894a2d"},"vehicle_type_id":"4","last_reported":1719072589,"current_range_meters":10800,"station_id":"ce4bgi12rcd13ifvqb70","pricing_plan_id":"cebpf4jnsgd1na2vs0mg"},{"bike_id":"9275ff8b-f335-4cf4-a4a0-2044da468979","system_id":"levelo_inurba_marseille","lat":43.29293,"lon":5.37462,"is_reserved":false,"is_disabled":false,"rental_uris":{"android":"levelo://app?vid=9275ff8b-f335-4cf4-a4a0-2044da468979","ios":"levelo://app?vid=9275ff8b-f335-4cf4-a4a0-2044da468979"},"vehicle_type_id":"4","last_reported":1719072589,"current_range_meters":0,"station_id":"ce4bgi12rcd13ifvqb70","pricing_plan_id":"cebpf4jnsgd1na2vs0mg"},{"bike_id":"d2cd06bb-2bb3-4557-a0a7-98fb71c9e3d2","system_id":"levelo_inurba_marseille","lat":43.305994,"lon":5.393687,"is_reserved":false,"is_disabled":false,"rental_uris":{"android":"levelo://app?vid=d2cd06bb-2bb3-4557-a0a7-98fb71c9e3d2","ios":"levelo://app?vid=d2cd06bb-2bb3-4557-a0a7-98fb71c9e3d2"},"vehicle_type_id":"4","last_reported":1719072589,"current_range_meters":15600,"station_id":"ce4bh0p2rcd13ifvqd80","pricing_plan_id":"cebpf4jnsgd1na2vs0mg"},{"bike_id":"7f9d50e8-8c85-4c7a-adb9-ff69df751d9a","system_id":"levelo_inurba_marseille","lat":43.303002,"lon":5.392142,"is_reserved":false,"is_disabled":false,"rental_uris":{"android":"levelo://app?vid=7f9d50e8-8c85-4c7a-adb9-ff69df751d9a","ios":"levelo://app?vid=7f9d50e8-8c85-4c7a-adb9-ff69df751d9a"},"vehicle_type_id":"4","last_reported":1719072589,"current_range_meters":0,"station_id":"ce4bgkh2rcd13ifvqbk0","pricing_plan_id":"cebpf4jnsgd1na2vs0mg"},{"bike_id":"807fe21c-eaca-4e4e-8ac7-0468aed4ad91","system_id":"levelo_inurba_marseille","lat":43.2936,"lon":5.37835,"is_reserved":false,"is_disabled":false,"rental_uris":{"android":"levelo://app?vid=807fe21c-eaca-4e4e-8ac7-0468aed4ad91","ios":"levelo://app?vid=807fe21c-eaca-4e4e-8ac7-0468aed4ad91"},"vehicle_type_id":"4","last_reported":1719072589,"current_range_meters":9600,"station_id":"ce4bgjh2rcd13ifvqbf0","pricing_plan_id":"cebpf4jnsgd1na2vs0mg"},{"bike_id":"ec1aee9d-df36-4ece-a104-cf52b4171aa6","system_id":"levelo_inurba_marseille","lat":43.2936,"lon":5.37835,"is_reserved":false,"is_disabled":false,"rental_uris":{"android":"levelo://app?vid=ec1aee9d-df36-4ece-a104-cf52b4171aa6","ios":"levelo://app?vid=ec1aee9d-df36-4ece-a104-cf52b4171aa6"},"vehicle_type_id":"4","last_reported":1719072589,"current_range_meters":13600,"station_id":"ce4bgjh2rcd13ifvqbf0","pricing_plan_id":"cebpf4jnsgd1na2vs0mg"},{"bike_id":"72c667c2-73c2-447c-bd9b-815015aefdd1","system_id":"levelo_inurba_marseille","lat":43.2936,"lon":5.37835,"is_reserved":false,"is_disabled":false,"rental_uris":{"android":"levelo://app?vid=72c667c2-73c2-447c-bd9b-815015aefdd1","ios":"levelo://app?vid=72c667c2-73c2-447c-bd9b-815015aefdd1"},"vehicle_type_id":"4","last_reported":1719072589,"current_range_meters":2000,"station_id":"ce4bgjh2rcd13ifvqbf0","pricing_plan_id":"cebpf4jnsgd1na2vs0mg"},{"bike_id":"b5b0cb78-d65e-4683-85a7-c76f8dd5cbb7","system_id":"levelo_inurba_marseille","lat":43.298764,"lon":5.388973,"is_reserved":false,"is_disabled":false,"rental_uris":{"android":"levelo://app?vid=b5b0cb78-d65e-4683-85a7-c76f8dd5cbb7","ios":"levelo://app?vid=b5b0cb78-d65e-4683-85a7-c76f8dd5cbb7"},"vehicle_type_id":"4","last_reported":1719072589,"current_range_meters":0,"station_id":"ce4bh392rcd13ifvqdl0","pricing_plan_id":"cebpf4jnsgd1na2vs0mg"},{"bike_id":"facd866e-5602-4ff9-9af5-9a8e4a133f12","system_id":"levelo_inurba_marseille","lat":43.313291,"lon":5.396838,"is_reserved":false,"is_disabled":false,"rental_uris":{"android":"levelo://app?vid=facd866e-5602-4ff9-9af5-9a8e4a133f12","ios":"levelo://app?vid=facd866e-5602-4ff9-9af5-9a8e4a133f12"},"vehicle_type_id":"4","last_reported":1719072589,"current_range_meters":20000,"station_id":"ce4bgvp2rcd13ifvqcu0","pricing_plan_id":"cebpf4jnsgd1na2vs0mg"},{"bike_id":"80daf218-e373-4bff-a1ea-cfd8320644ee","system_id":"levelo_inurba_marseille","lat":43.290779,"lon":5.371482,"is_reserved":false,"is_disabled":false,"rental_uris":{"android":"levelo://app?vid=80daf218-e373-4bff-a1ea-cfd8320644ee","ios":"levelo://app?vid=80daf218-e373-4bff-a1ea-cfd8320644ee"},"vehicle_type_id":"4","last_reported":1719072589,"current_range_meters":0,"station_id":"ce4bh5p2rcd13ifvqe4g","pricing_plan_id":"cebpf4jnsgd1na2vs0mg"},{"bike_id":"7d83a640-9f10-41d4-8e4d-5331796cdf3e","system_id":"levelo_inurba_marseille","lat":43.290779,"lon":5.371482,"is_reserved":false,"is_disabled":false,"rental_uris":{"android":"levelo://app?vid=7d83a640-9f10-41d4-8e4d-5331796cdf3e","ios":"levelo://app?vid=7d83a640-9f10-41d4-8e4d-5331796cdf3e"},"vehicle_type_id":"4","last_reported":1719072589,"current_range_meters":10800,"station_id":"ce4bh5p2rcd13ifvqe4g","pricing_plan_id":"cebpf4jnsgd1na2vs0mg"},{"bike_id":"ea22c26a-5add-42ee-8545-a66996b96718","system_id":"levelo_inurba_marseille","lat":43.302008,"lon":5.394694,"is_reserved":false,"is_disabled":false,"rental_uris":{"android":"levelo://app?vid=ea22c26a-5add-42ee-8545-a66996b96718","ios":"levelo://app?vid=ea22c26a-5add-42ee-8545-a66996b96718"},"vehicle_type_id":"4","last_reported":1719072589,"current_range_meters":23200,"station_id":"ce4bh0p2rcd13ifvqd70","pricing_plan_id":"cebpf4jnsgd1na2vs0mg"},{"bike_id":"8f48b7cd-9b23-4adc-bef5-25600c70055d","system_id":"levelo_inurba_marseille","lat":43.302008,"lon":5.394694,"is_reserved":false,"is_disabled":false,"rental_uris":{"android":"levelo://app?vid=8f48b7cd-9b23-4adc-bef5-25600c70055d","ios":"levelo://app?vid=8f48b7cd-9b23-4adc-bef5-25600c70055d"},"vehicle_type_id":"4","last_reported":1719072589,"current_range_meters":10800,"station_id":"ce4bh0p2rcd13ifvqd70","pricing_plan_id":"cebpf4jnsgd1na2vs0mg"},{"bike_id":"ebf10e3c-59c9-44bb-9852-240cc414dfaa","system_id":"levelo_inurba_marseille","lat":43.290624,"lon":5.359245,"is_reserved":false,"is_disabled":false,"rental_uris":{"android":"levelo://app?vid=ebf10e3c-59c9-44bb-9852-240cc414dfaa","ios":"levelo://app?vid=ebf10e3c-59c9-44bb-9852-240cc414dfaa"},"vehicle_type_id":"4","last_reported":1719072589,"current_range_meters":19600,"station_id":"ce4bha92rcd13ifvqeg0","pricing_plan_id":"cebpf4jnsgd1na2vs0mg"},{"bike_id":"da678774-8d3d-4007-8ffb-b17868c2d5f4","system_id":"levelo_inurba_marseille","lat":43.294153,"lon":5.386305,"is_reserved":false,"is_disabled":false,"rental_uris":{"android":"levelo://app?vid=da678774-8d3d-4007-8ffb-b17868c2d5f4","ios":"levelo://app?vid=da678774-8d3d-4007-8ffb-b17868c2d5f4"},"vehicle_type_id":"4","last_reported":1719072589,"current_range_meters":1600,"station_id":"ce4bh2h2rcd13ifvqdh0","pricing_plan_id":"cebpf4jnsgd1na2vs0mg"},{"bike_id":"376c104f-4a7c-4ad4-90af-3455930d105b","system_id":"levelo_inurba_marseille","lat":43.294162,"lon":5.386292,"is_reserved":false,"is_disabled":false,"rental_uris":{"android":"levelo://app?vid=376c104f-4a7c-4ad4-90af-3455930d105b","ios":"levelo://app?vid=376c104f-4a7c-4ad4-90af-3455930d105b"},"vehicle_type_id":"4","last_reported":1719072589,"current_range_meters":10800,"station_id":"ce4bh2h2rcd13ifvqdh0","pricing_plan_id":"cebpf4jnsgd1na2vs0mg"},{"bike_id":"69d96b58-b27a-491c-bd4b-44e3aaf63114","system_id":"levelo_inurba_marseille","lat":43.289184,"lon":5.366408,"is_reserved":false,"is_disabled":false,"rental_uris":{"android":"levelo://app?vid=69d96b58-b27a-491c-bd4b-44e3aaf63114","ios":"levelo://app?vid=69d96b58-b27a-491c-bd4b-44e3aaf63114"},"vehicle_type_id":"4","last_reported":1719072589,"current_range_meters":22400,"station_id":"ce4bhap2rcd13ifvqek0","pricing_plan_id":"cebpf4jnsgd1na2vs0mg"},{"bike_id":"5339d038-668d-4cb0-ab5f-8925c8cdc083","system_id":"levelo_inurba_marseille","lat":43.290327,"lon":5.375711,"is_reserved":false,"is_disabled":false,"rental_uris":{"android":"levelo://app?vid=5339d038-668d-4cb0-ab5f-8925c8cdc083","ios":"levelo://app?vid=5339d038-668d-4cb0-ab5f-8925c8cdc083"},"vehicle_type_id":"4","last_reported":1719072589,"current_range_meters":10400,"station_id":"ce4bh692rcd13ifvqe90","pricing_plan_id":"cebpf4jnsgd1na2vs0mg"},{"bike_id":"a46f6dfe-6d9b-4e92-a5de-207710d8d01e","system_id":"levelo_inurba_marseille","lat":43.289184,"lon":5.366408,"is_reserved":false,"is_disabled":false,"rental_uris":{"android":"levelo://app?vid=a46f6dfe-6d9b-4e92-a5de-207710d8d01e","ios":"levelo://app?vid=a46f6dfe-6d9b-4e92-a5de-207710d8d01e"},"vehicle_type_id":"4","last_reported":1719072589,"current_range_meters":20800,"station_id":"ce4bhap2rcd13ifvqek0","pricing_plan_id":"cebpf4jnsgd1na2vs0mg"},{"bike_id":"177d87c9-dbc9-4745-8e36-82d6a973bf48","system_id":"levelo_inurba_marseille","lat":43.289184,"lon":5.366408,"is_reserved":false,"is_disabled":false,"rental_uris":{"android":"levelo://app?vid=177d87c9-dbc9-4745-8e36-82d6a973bf48","ios":"levelo://app?vid=177d87c9-dbc9-4745-8e36-82d6a973bf48"},"vehicle_type_id":"4","last_reported":1719072589,"current_range_meters":7600,"station_id":"ce4bhap2rcd13ifvqek0","pricing_plan_id":"cebpf4jnsgd1na2vs0mg"},{"bike_id":"bb187313-69b7-43bd-9f30-3427bb10a908","system_id":"levelo_inurba_marseille","lat":43.289184,"lon":5.366408,"is_reserved":false,"is_disabled":false,"rental_uris":{"android":"levelo://app?vid=bb187313-69b7-43bd-9f30-3427bb10a908","ios":"levelo://app?vid=bb187313-69b7-43bd-9f30-3427bb10a908"},"vehicle_type_id":"4","last_reported":1719072589,"current_range_meters":17600,"station_id":"ce4bhap2rcd13ifvqek0","pricing_plan_id":"cebpf4jnsgd1na2vs0mg"},{"bike_id":"faf93722-14a8-43d7-ab36-a85deeaae53a","system_id":"levelo_inurba_marseille","lat":43.28933,"lon":5.36625,"is_reserved":false,"is_disabled":false,"rental_uris":{"android":"levelo://app?vid=faf93722-14a8-43d7-ab36-a85deeaae53a","ios":"levelo://app?vid=faf93722-14a8-43d7-ab36-a85deeaae53a"},"vehicle_type_id":"4","last_reported":1719072589,"current_range_meters":30800,"station_id":"ce4bhap2rcd13ifvqek0","pricing_plan_id":"cebpf4jnsgd1na2vs0mg"},{"bike_id":"f062ba9c-d2c5-49b3-9e11-263c4b974142","system_id":"levelo_inurba_marseille","lat":43.289184,"lon":5.366408,"is_reserved":false,"is_disabled":false,"rental_uris":{"android":"levelo://app?vid=f062ba9c-d2c5-49b3-9e11-263c4b974142","ios":"levelo://app?vid=f062ba9c-d2c5-49b3-9e11-263c4b974142"},"vehicle_type_id":"4","last_reported":1719072589,"current_range_meters":14000,"station_id":"ce4bhap2rcd13ifvqek0","pricing_plan_id":"cebpf4jnsgd1na2vs0mg"},{"bike_id":"9eea77b6-c693-4fde-9bd1-ab76e86ed623","system_id":"levelo_inurba_marseille","lat":43.304274,"lon":5.397513,"is_reserved":false,"is_disabled":false,"rental_uris":{"android":"levelo://app?vid=9eea77b6-c693-4fde-9bd1-ab76e86ed623","ios":"levelo://app?vid=9eea77b6-c693-4fde-9bd1-ab76e86ed623"},"vehicle_type_id":"4","last_reported":1719072589,"current_range_meters":15200,"station_id":"ce4bh092rcd13ifvqd20","pricing_plan_id":"cebpf4jnsgd1na2vs0mg"},{"bike_id":"f9fd24c4-6523-44d8-a384-3b80c357d8c1","system_id":"levelo_inurba_marseille","lat":43.292642,"lon":5.384254,"is_reserved":false,"is_disabled":false,"rental_uris":{"android":"levelo://app?vid=f9fd24c4-6523-44d8-a384-3b80c357d8c1","ios":"levelo://app?vid=f9fd24c4-6523-44d8-a384-3b80c357d8c1"},"vehicle_type_id":"4","last_reported":1719072589,"current_range_meters":26000,"station_id":"ce4bh692rcd13ifvqea0","pricing_plan_id":"cebpf4jnsgd1na2vs0mg"},{"bike_id":"baf0f859-6672-4f24-87d2-f17c85d7b723","system_id":"levelo_inurba_marseille","lat":43.292642,"lon":5.384254,"is_reserved":false,"is_disabled":false,"rental_uris":{"android":"levelo://app?vid=baf0f859-6672-4f24-87d2-f17c85d7b723","ios":"levelo://app?vid=baf0f859-6672-4f24-87d2-f17c85d7b723"},"vehicle_type_id":"4","last_reported":1719072589,"current_range_meters":0,"station_id":"ce4bh692rcd13ifvqea0","pricing_plan_id":"cebpf4jnsgd1na2vs0mg"},{"bike_id":"94462ca1-0f1c-441a-843d-b94ea47254fc","system_id":"levelo_inurba_marseille","lat":43.304296,"lon":5.397513,"is_reserved":false,"is_disabled":false,"rental_uris":{"android":"levelo://app?vid=94462ca1-0f1c-441a-843d-b94ea47254fc","ios":"levelo://app?vid=94462ca1-0f1c-441a-843d-b94ea47254fc"},"vehicle_type_id":"4","last_reported":1719072589,"current_range_meters":29600,"station_id":"ce4bh092rcd13ifvqd20","pricing_plan_id":"cebpf4jnsgd1na2vs0mg"},{"bike_id":"e6ef20e9-62d6-4132-bfad-a5c5784c20b0","system_id":"levelo_inurba_marseille","lat":43.29256,"lon":5.38432,"is_reserved":false,"is_disabled":false,"rental_uris":{"android":"levelo://app?vid=e6ef20e9-62d6-4132-bfad-a5c5784c20b0","ios":"levelo://app?vid=e6ef20e9-62d6-4132-bfad-a5c5784c20b0"},"vehicle_type_id":"4","last_reported":1719072589,"current_range_meters":28400,"station_id":"ce4bh692rcd13ifvqea0","pricing_plan_id":"cebpf4jnsgd1na2vs0mg"},{"bike_id":"93bc8910-ed58-4204-bc82-55a9faecf298","system_id":"levelo_inurba_marseille","lat":43.304274,"lon":5.397513,"is_reserved":false,"is_disabled":false,"rental_uris":{"android":"levelo://app?vid=93bc8910-ed58-4204-bc82-55a9faecf298","ios":"levelo://app?vid=93bc8910-ed58-4204-bc82-55a9faecf298"},"vehicle_type_id":"4","last_reported":1719072589,"current_range_meters":18800,"station_id":"ce4bh092rcd13ifvqd20","pricing_plan_id":"cebpf4jnsgd1na2vs0mg"},{"bike_id":"77854ebd-2e84-4e49-bf4c-077703d8b3bf","system_id":"levelo_inurba_marseille","lat":43.292644,"lon":5.384257,"is_reserved":false,"is_disabled":false,"rental_uris":{"android":"levelo://app?vid=77854ebd-2e84-4e49-bf4c-077703d8b3bf","ios":"levelo://app?vid=77854ebd-2e84-4e49-bf4c-077703d8b3bf"},"vehicle_type_id":"4","last_reported":1719072589,"current_range_meters":19200,"station_id":"ce4bh692rcd13ifvqea0","pricing_plan_id":"cebpf4jnsgd1na2vs0mg"},{"bike_id":"6da687da-6fd0-46b0-9e41-cfc7a7ba9d30","system_id":"levelo_inurba_marseille","lat":43.290995,"lon":5.381361,"is_reserved":false,"is_disabled":false,"rental_uris":{"android":"levelo://app?vid=6da687da-6fd0-46b0-9e41-cfc7a7ba9d30","ios":"levelo://app?vid=6da687da-6fd0-46b0-9e41-cfc7a7ba9d30"},"vehicle_type_id":"4","last_reported":1719072589,"current_range_meters":4400,"station_id":"ce4bh512rcd13ifvqe2g","pricing_plan_id":"cebpf4jnsgd1na2vs0mg"},{"bike_id":"d071fcb0-3438-4915-b4db-58fb7e410e93","system_id":"levelo_inurba_marseille","lat":43.29785,"lon":5.39331,"is_reserved":false,"is_disabled":false,"rental_uris":{"android":"levelo://app?vid=d071fcb0-3438-4915-b4db-58fb7e410e93","ios":"levelo://app?vid=d071fcb0-3438-4915-b4db-58fb7e410e93"},"vehicle_type_id":"4","last_reported":1719072589,"current_range_meters":0,"station_id":"chh1huq6cuj3fo74tm60","pricing_plan_id":"cebpf4jnsgd1na2vs0mg"},{"bike_id":"a7872c37-de23-4455-8bec-42d07190bda7","system_id":"levelo_inurba_marseille","lat":43.330442,"lon":5.389148,"is_reserved":false,"is_disabled":false,"rental_uris":{"android":"levelo://app?vid=a7872c37-de23-4455-8bec-42d07190bda7","ios":"levelo://app?vid=a7872c37-de23-4455-8bec-42d07190bda7"},"vehicle_type_id":"4","last_reported":1719072589,"current_range_meters":6000,"station_id":"ce4bhr92rcd13ifvqhrg","pricing_plan_id":"cebpf4jnsgd1na2vs0mg"},{"bike_id":"012d9b6a-f1fb-4bd0-be1b-f13ffeb2d39e","system_id":"levelo_inurba_marseille","lat":43.295169,"lon":5.390426,"is_reserved":false,"is_disabled":false,"rental_uris":{"android":"levelo://app?vid=012d9b6a-f1fb-4bd0-be1b-f13ffeb2d39e","ios":"levelo://app?vid=012d9b6a-f1fb-4bd0-be1b-f13ffeb2d39e"},"vehicle_type_id":"4","last_reported":1719072589,"current_range_meters":4800,"station_id":"ce4bh3p2rcd13ifvqdp0","pricing_plan_id":"cebpf4jnsgd1na2vs0mg"},{"bike_id":"6cbe5ccb-9ce8-437f-b275-3c2841be44a8","system_id":"levelo_inurba_marseille","lat":43.330442,"lon":5.389148,"is_reserved":false,"is_disabled":false,"rental_uris":{"android":"levelo://app?vid=6cbe5ccb-9ce8-437f-b275-3c2841be44a8","ios":"levelo://app?vid=6cbe5ccb-9ce8-437f-b275-3c2841be44a8"},"vehicle_type_id":"4","last_reported":1719072589,"current_range_meters":13200,"station_id":"ce4bhr92rcd13ifvqhrg","pricing_plan_id":"cebpf4jnsgd1na2vs0mg"},{"bike_id":"990af8c1-bfa7-4988-9bd1-7db70646c769","system_id":"levelo_inurba_marseille","lat":43.295169,"lon":5.390426,"is_reserved":false,"is_disabled":false,"rental_uris":{"android":"levelo://app?vid=990af8c1-bfa7-4988-9bd1-7db70646c769","ios":"levelo://app?vid=990af8c1-bfa7-4988-9bd1-7db70646c769"},"vehicle_type_id":"4","last_reported":1719072589,"current_range_meters":23600,"station_id":"ce4bh3p2rcd13ifvqdp0","pricing_plan_id":"cebpf4jnsgd1na2vs0mg"},{"bike_id":"5f8473df-7fc2-4827-b4ef-ec432c8ce169","system_id":"levelo_inurba_marseille","lat":43.330442,"lon":5.389148,"is_reserved":false,"is_disabled":false,"rental_uris":{"android":"levelo://app?vid=5f8473df-7fc2-4827-b4ef-ec432c8ce169","ios":"levelo://app?vid=5f8473df-7fc2-4827-b4ef-ec432c8ce169"},"vehicle_type_id":"4","last_reported":1719072589,"current_range_meters":6800,"station_id":"ce4bhr92rcd13ifvqhrg","pricing_plan_id":"cebpf4jnsgd1na2vs0mg"},{"bike_id":"13c6072f-23cb-4f84-ac90-715022f088bc","system_id":"levelo_inurba_marseille","lat":43.2901,"lon":5.381269,"is_reserved":false,"is_disabled":false,"rental_uris":{"android":"levelo://app?vid=13c6072f-23cb-4f84-ac90-715022f088bc","ios":"levelo://app?vid=13c6072f-23cb-4f84-ac90-715022f088bc"},"vehicle_type_id":"4","last_reported":1719072589,"current_range_meters":0,"station_id":"ce4bh4p2rcd13ifvqe1g","pricing_plan_id":"cebpf4jnsgd1na2vs0mg"},{"bike_id":"5d8c2fbb-9fd3-4608-8ee9-6d4b3c75b2bd","system_id":"levelo_inurba_marseille","lat":43.28856,"lon":5.358371,"is_reserved":false,"is_disabled":false,"rental_uris":{"android":"levelo://app?vid=5d8c2fbb-9fd3-4608-8ee9-6d4b3c75b2bd","ios":"levelo://app?vid=5d8c2fbb-9fd3-4608-8ee9-6d4b3c75b2bd"},"vehicle_type_id":"4","last_reported":1719072589,"current_range_meters":0,"station_id":"ce4bhb12rcd13ifvqem0","pricing_plan_id":"cebpf4jnsgd1na2vs0mg"},{"bike_id":"b7db00b0-1bd5-4952-9687-38ef3d6e7f26","system_id":"levelo_inurba_marseille","lat":43.291673,"lon":5.386088,"is_reserved":false,"is_disabled":false,"rental_uris":{"android":"levelo://app?vid=b7db00b0-1bd5-4952-9687-38ef3d6e7f26","ios":"levelo://app?vid=b7db00b0-1bd5-4952-9687-38ef3d6e7f26"},"vehicle_type_id":"4","last_reported":1719072589,"current_range_meters":0,"station_id":"","pricing_plan_id":"cebpf4jnsgd1na2vs0mg"},{"bike_id":"05092e03-5cef-41c3-9575-df5db7507ebd","system_id":"levelo_inurba_marseille","lat":43.33739,"lon":5.37464,"is_reserved":false,"is_disabled":false,"rental_uris":{"android":"levelo://app?vid=05092e03-5cef-41c3-9575-df5db7507ebd","ios":"levelo://app?vid=05092e03-5cef-41c3-9575-df5db7507ebd"},"vehicle_type_id":"4","last_reported":1719072589,"current_range_meters":19200,"station_id":"","pricing_plan_id":"cebpf4jnsgd1na2vs0mg"},{"bike_id":"b96c5d51-82b0-4b78-bde4-3aaef404bf1b","system_id":"levelo_inurba_marseille","lat":43.309371,"lon":5.401449,"is_reserved":false,"is_disabled":false,"rental_uris":{"android":"levelo://app?vid=b96c5d51-82b0-4b78-bde4-3aaef404bf1b","ios":"levelo://app?vid=b96c5d51-82b0-4b78-bde4-3aaef404bf1b"},"vehicle_type_id":"4","last_reported":1719072589,"current_range_meters":0,"station_id":"ce4bgvp2rcd13ifvqct0","pricing_plan_id":"cebpf4jnsgd1na2vs0mg"},{"bike_id":"53442259-47e0-4c76-bdc2-57b7ffeafe29","system_id":"levelo_inurba_marseille","lat":43.309371,"lon":5.401449,"is_reserved":false,"is_disabled":false,"rental_uris":{"android":"levelo://app?vid=53442259-47e0-4c76-bdc2-57b7ffeafe29","ios":"levelo://app?vid=53442259-47e0-4c76-bdc2-57b7ffeafe29"},"vehicle_type_id":"4","last_reported":1719072589,"current_range_meters":4000,"station_id":"ce4bgvp2rcd13ifvqct0","pricing_plan_id":"cebpf4jnsgd1na2vs0mg"},{"bike_id":"5b5cae36-09e1-4bd0-aeb4-83d37c064d16","system_id":"levelo_inurba_marseille","lat":43.33745,"lon":5.37455,"is_reserved":false,"is_disabled":false,"rental_uris":{"android":"levelo://app?vid=5b5cae36-09e1-4bd0-aeb4-83d37c064d16","ios":"levelo://app?vid=5b5cae36-09e1-4bd0-aeb4-83d37c064d16"},"vehicle_type_id":"4","last_reported":1719072589,"current_range_meters":27200,"station_id":"","pricing_plan_id":"cebpf4jnsgd1na2vs0mg"},{"bike_id":"a394400c-c030-4ef7-bc11-47632a92f9c4","system_id":"levelo_inurba_marseille","lat":43.309371,"lon":5.401449,"is_reserved":false,"is_disabled":false,"rental_uris":{"android":"levelo://app?vid=a394400c-c030-4ef7-bc11-47632a92f9c4","ios":"levelo://app?vid=a394400c-c030-4ef7-bc11-47632a92f9c4"},"vehicle_type_id":"4","last_reported":1719072589,"current_range_meters":26400,"station_id":"ce4bgvp2rcd13ifvqct0","pricing_plan_id":"cebpf4jnsgd1na2vs0mg"},{"bike_id":"b40bfd51-529f-4bed-85c4-21ad9261c9e9","system_id":"levelo_inurba_marseille","lat":43.309371,"lon":5.401449,"is_reserved":false,"is_disabled":false,"rental_uris":{"android":"levelo://app?vid=b40bfd51-529f-4bed-85c4-21ad9261c9e9","ios":"levelo://app?vid=b40bfd51-529f-4bed-85c4-21ad9261c9e9"},"vehicle_type_id":"4","last_reported":1719072589,"current_range_meters":20800,"station_id":"ce4bgvp2rcd13ifvqct0","pricing_plan_id":"cebpf4jnsgd1na2vs0mg"},{"bike_id":"86cc2b04-e138-4237-bb18-4280b80b1eb3","system_id":"levelo_inurba_marseille","lat":43.312609,"lon":5.401662,"is_reserved":false,"is_disabled":false,"rental_uris":{"android":"levelo://app?vid=86cc2b04-e138-4237-bb18-4280b80b1eb3","ios":"levelo://app?vid=86cc2b04-e138-4237-bb18-4280b80b1eb3"},"vehicle_type_id":"4","last_reported":1719072589,"current_range_meters":17200,"station_id":"ce4bh092rcd13ifvqd30","pricing_plan_id":"cebpf4jnsgd1na2vs0mg"},{"bike_id":"a00c218c-138a-4388-aca4-2952a6961815","system_id":"levelo_inurba_marseille","lat":43.33753,"lon":5.37478,"is_reserved":false,"is_disabled":false,"rental_uris":{"android":"levelo://app?vid=a00c218c-138a-4388-aca4-2952a6961815","ios":"levelo://app?vid=a00c218c-138a-4388-aca4-2952a6961815"},"vehicle_type_id":"4","last_reported":1719072589,"current_range_meters":28800,"station_id":"","pricing_plan_id":"cebpf4jnsgd1na2vs0mg"},{"bike_id":"0e11bbab-a5d9-4098-a6f1-624d89f27c59","system_id":"levelo_inurba_marseille","lat":43.337572,"lon":5.374546,"is_reserved":false,"is_disabled":false,"rental_uris":{"android":"levelo://app?vid=0e11bbab-a5d9-4098-a6f1-624d89f27c59","ios":"levelo://app?vid=0e11bbab-a5d9-4098-a6f1-624d89f27c59"},"vehicle_type_id":"4","last_reported":1719072589,"current_range_meters":23600,"station_id":"","pricing_plan_id":"cebpf4jnsgd1na2vs0mg"},{"bike_id":"db534928-e6a2-47cc-a852-558fe66ed50c","system_id":"levelo_inurba_marseille","lat":43.337583,"lon":5.374633,"is_reserved":false,"is_disabled":false,"rental_uris":{"android":"levelo://app?vid=db534928-e6a2-47cc-a852-558fe66ed50c","ios":"levelo://app?vid=db534928-e6a2-47cc-a852-558fe66ed50c"},"vehicle_type_id":"4","last_reported":1719072589,"current_range_meters":22400,"station_id":"","pricing_plan_id":"cebpf4jnsgd1na2vs0mg"},{"bike_id":"e7be790b-07e4-40f3-b60f-da683b157943","system_id":"levelo_inurba_marseille","lat":43.33033,"lon":5.39238,"is_reserved":false,"is_disabled":false,"rental_uris":{"android":"levelo://app?vid=e7be790b-07e4-40f3-b60f-da683b157943","ios":"levelo://app?vid=e7be790b-07e4-40f3-b60f-da683b157943"},"vehicle_type_id":"4","last_reported":1719072589,"current_range_meters":18400,"station_id":"","pricing_plan_id":"cebpf4jnsgd1na2vs0mg"},{"bike_id":"a77bf3f1-dc55-4e35-8fe0-6292cee970ef","system_id":"levelo_inurba_marseille","lat":43.33035,"lon":5.39239,"is_reserved":false,"is_disabled":false,"rental_uris":{"android":"levelo://app?vid=a77bf3f1-dc55-4e35-8fe0-6292cee970ef","ios":"levelo://app?vid=a77bf3f1-dc55-4e35-8fe0-6292cee970ef"},"vehicle_type_id":"4","last_reported":1719072589,"current_range_meters":21200,"station_id":"","pricing_plan_id":"cebpf4jnsgd1na2vs0mg"},{"bike_id":"e5d39ea1-35f6-490c-b21b-2c2b8a8993e1","system_id":"levelo_inurba_marseille","lat":43.30642,"lon":5.401031,"is_reserved":false,"is_disabled":false,"rental_uris":{"android":"levelo://app?vid=e5d39ea1-35f6-490c-b21b-2c2b8a8993e1","ios":"levelo://app?vid=e5d39ea1-35f6-490c-b21b-2c2b8a8993e1"},"vehicle_type_id":"4","last_reported":1719072589,"current_range_meters":12400,"station_id":"ce4bh112rcd13ifvqda0","pricing_plan_id":"cebpf4jnsgd1na2vs0mg"},{"bike_id":"1529575d-3c24-4053-9dc4-3fc753c20a3e","system_id":"levelo_inurba_marseille","lat":43.3304,"lon":5.39281,"is_reserved":false,"is_disabled":false,"rental_uris":{"android":"levelo://app?vid=1529575d-3c24-4053-9dc4-3fc753c20a3e","ios":"levelo://app?vid=1529575d-3c24-4053-9dc4-3fc753c20a3e"},"vehicle_type_id":"4","last_reported":1719072589,"current_range_meters":1200,"station_id":"","pricing_plan_id":"cebpf4jnsgd1na2vs0mg"},{"bike_id":"50bbb250-9e39-41c8-a909-9eed2702ae95","system_id":"levelo_inurba_marseille","lat":43.33802,"lon":5.3743,"is_reserved":false,"is_disabled":false,"rental_uris":{"android":"levelo://app?vid=50bbb250-9e39-41c8-a909-9eed2702ae95","ios":"levelo://app?vid=50bbb250-9e39-41c8-a909-9eed2702ae95"},"vehicle_type_id":"4","last_reported":1719072589,"current_range_meters":26400,"station_id":"","pricing_plan_id":"cebpf4jnsgd1na2vs0mg"},{"bike_id":"02e12abe-cef8-42f4-89a0-d1408769a1fb","system_id":"levelo_inurba_marseille","lat":43.28725,"lon":5.36076,"is_reserved":false,"is_disabled":false,"rental_uris":{"android":"levelo://app?vid=02e12abe-cef8-42f4-89a0-d1408769a1fb","ios":"levelo://app?vid=02e12abe-cef8-42f4-89a0-d1408769a1fb"},"vehicle_type_id":"4","last_reported":1719072589,"current_range_meters":21600,"station_id":"cki0cbj6b192h4jlfktg","pricing_plan_id":"cebpf4jnsgd1na2vs0mg"},{"bike_id":"36994c67-1673-40db-b739-f933cd01f4ec","system_id":"levelo_inurba_marseille","lat":43.286591,"lon":5.363346,"is_reserved":false,"is_disabled":false,"rental_uris":{"android":"levelo://app?vid=36994c67-1673-40db-b739-f933cd01f4ec","ios":"levelo://app?vid=36994c67-1673-40db-b739-f933cd01f4ec"},"vehicle_type_id":"4","last_reported":1719072589,"current_range_meters":14400,"station_id":"ce4bhah2rcd13ifvqej0","pricing_plan_id":"cebpf4jnsgd1na2vs0mg"},{"bike_id":"52c00303-bc31-459d-8cc1-b347be0999fa","system_id":"levelo_inurba_marseille","lat":43.286591,"lon":5.363346,"is_reserved":false,"is_disabled":false,"rental_uris":{"android":"levelo://app?vid=52c00303-bc31-459d-8cc1-b347be0999fa","ios":"levelo://app?vid=52c00303-bc31-459d-8cc1-b347be0999fa"},"vehicle_type_id":"4","last_reported":1719072589,"current_range_meters":0,"station_id":"ce4bhah2rcd13ifvqej0","pricing_plan_id":"cebpf4jnsgd1na2vs0mg"},{"bike_id":"81b74f54-e664-4e3c-a5e4-ef44acb61a0a","system_id":"levelo_inurba_marseille","lat":43.286591,"lon":5.363346,"is_reserved":false,"is_disabled":false,"rental_uris":{"android":"levelo://app?vid=81b74f54-e664-4e3c-a5e4-ef44acb61a0a","ios":"levelo://app?vid=81b74f54-e664-4e3c-a5e4-ef44acb61a0a"},"vehicle_type_id":"4","last_reported":1719072589,"current_range_meters":16000,"station_id":"ce4bhah2rcd13ifvqej0","pricing_plan_id":"cebpf4jnsgd1na2vs0mg"},{"bike_id":"519a9176-d23b-4370-ae45-5d663a370382","system_id":"levelo_inurba_marseille","lat":43.286593,"lon":5.363346,"is_reserved":false,"is_disabled":false,"rental_uris":{"android":"levelo://app?vid=519a9176-d23b-4370-ae45-5d663a370382","ios":"levelo://app?vid=519a9176-d23b-4370-ae45-5d663a370382"},"vehicle_type_id":"4","last_reported":1719072589,"current_range_meters":29200,"station_id":"ce4bhah2rcd13ifvqej0","pricing_plan_id":"cebpf4jnsgd1na2vs0mg"},{"bike_id":"df0edf39-e456-43ab-89be-c27dc428ad11","system_id":"levelo_inurba_marseille","lat":43.298681,"lon":5.397225,"is_reserved":false,"is_disabled":false,"rental_uris":{"android":"levelo://app?vid=df0edf39-e456-43ab-89be-c27dc428ad11","ios":"levelo://app?vid=df0edf39-e456-43ab-89be-c27dc428ad11"},"vehicle_type_id":"4","last_reported":1719072589,"current_range_meters":2400,"station_id":"ce4bh0h2rcd13ifvqd50","pricing_plan_id":"cebpf4jnsgd1na2vs0mg"},{"bike_id":"8866ed72-9a87-42d8-9979-5c2520a2181b","system_id":"levelo_inurba_marseille","lat":43.302759,"lon":5.400793,"is_reserved":false,"is_disabled":false,"rental_uris":{"android":"levelo://app?vid=8866ed72-9a87-42d8-9979-5c2520a2181b","ios":"levelo://app?vid=8866ed72-9a87-42d8-9979-5c2520a2181b"},"vehicle_type_id":"4","last_reported":1719072589,"current_range_meters":25200,"station_id":"ce4bgvh2rcd13ifvqcs0","pricing_plan_id":"cebpf4jnsgd1na2vs0mg"},{"bike_id":"5b20264c-b9ff-48de-8ac9-c64a9a84d7fe","system_id":"levelo_inurba_marseille","lat":43.290336,"lon":5.386425,"is_reserved":false,"is_disabled":false,"rental_uris":{"android":"levelo://app?vid=5b20264c-b9ff-48de-8ac9-c64a9a84d7fe","ios":"levelo://app?vid=5b20264c-b9ff-48de-8ac9-c64a9a84d7fe"},"vehicle_type_id":"4","last_reported":1719072589,"current_range_meters":31200,"station_id":"ce4bh4p2rcd13ifvqe0g","pricing_plan_id":"cebpf4jnsgd1na2vs0mg"},{"bike_id":"65bd9d33-1972-4a7a-ad33-8f7aec05515a","system_id":"levelo_inurba_marseille","lat":43.286039,"lon":5.370681,"is_reserved":false,"is_disabled":false,"rental_uris":{"android":"levelo://app?vid=65bd9d33-1972-4a7a-ad33-8f7aec05515a","ios":"levelo://app?vid=65bd9d33-1972-4a7a-ad33-8f7aec05515a"},"vehicle_type_id":"4","last_reported":1719072589,"current_range_meters":20800,"station_id":"ce4bht12rcd13ifvqi60","pricing_plan_id":"cebpf4jnsgd1na2vs0mg"},{"bike_id":"82ba0d88-77be-4a0b-8417-981e137042b3","system_id":"levelo_inurba_marseille","lat":43.286039,"lon":5.370681,"is_reserved":false,"is_disabled":false,"rental_uris":{"android":"levelo://app?vid=82ba0d88-77be-4a0b-8417-981e137042b3","ios":"levelo://app?vid=82ba0d88-77be-4a0b-8417-981e137042b3"},"vehicle_type_id":"4","last_reported":1719072589,"current_range_meters":30400,"station_id":"ce4bht12rcd13ifvqi60","pricing_plan_id":"cebpf4jnsgd1na2vs0mg"},{"bike_id":"ca6e1855-ea02-4630-a292-dcc8037574c8","system_id":"levelo_inurba_marseille","lat":43.286039,"lon":5.370679,"is_reserved":false,"is_disabled":false,"rental_uris":{"android":"levelo://app?vid=ca6e1855-ea02-4630-a292-dcc8037574c8","ios":"levelo://app?vid=ca6e1855-ea02-4630-a292-dcc8037574c8"},"vehicle_type_id":"4","last_reported":1719072589,"current_range_meters":15600,"station_id":"ce4bht12rcd13ifvqi60","pricing_plan_id":"cebpf4jnsgd1na2vs0mg"},{"bike_id":"e4711e0c-9f7b-4872-bc50-0f4baac2f70c","system_id":"levelo_inurba_marseille","lat":43.287184,"lon":5.37937,"is_reserved":false,"is_disabled":false,"rental_uris":{"android":"levelo://app?vid=e4711e0c-9f7b-4872-bc50-0f4baac2f70c","ios":"levelo://app?vid=e4711e0c-9f7b-4872-bc50-0f4baac2f70c"},"vehicle_type_id":"4","last_reported":1719072589,"current_range_meters":8000,"station_id":"ce4bh9p2rcd13ifvqec0","pricing_plan_id":"cebpf4jnsgd1na2vs0mg"},{"bike_id":"9929d708-6440-45ae-8778-22f834cd8f0e","system_id":"levelo_inurba_marseille","lat":43.287184,"lon":5.37937,"is_reserved":false,"is_disabled":false,"rental_uris":{"android":"levelo://app?vid=9929d708-6440-45ae-8778-22f834cd8f0e","ios":"levelo://app?vid=9929d708-6440-45ae-8778-22f834cd8f0e"},"vehicle_type_id":"4","last_reported":1719072589,"current_range_meters":17600,"station_id":"ce4bh9p2rcd13ifvqec0","pricing_plan_id":"cebpf4jnsgd1na2vs0mg"},{"bike_id":"728e327b-5bbe-40c8-91e8-3347e5210740","system_id":"levelo_inurba_marseille","lat":43.287185,"lon":5.379373,"is_reserved":false,"is_disabled":false,"rental_uris":{"android":"levelo://app?vid=728e327b-5bbe-40c8-91e8-3347e5210740","ios":"levelo://app?vid=728e327b-5bbe-40c8-91e8-3347e5210740"},"vehicle_type_id":"4","last_reported":1719072589,"current_range_meters":26800,"station_id":"ce4bh9p2rcd13ifvqec0","pricing_plan_id":"cebpf4jnsgd1na2vs0mg"},{"bike_id":"9e5e01f3-0c57-4ada-8b3f-ab37a2cc5c65","system_id":"levelo_inurba_marseille","lat":43.316821,"lon":5.404737,"is_reserved":false,"is_disabled":false,"rental_uris":{"android":"levelo://app?vid=9e5e01f3-0c57-4ada-8b3f-ab37a2cc5c65","ios":"levelo://app?vid=9e5e01f3-0c57-4ada-8b3f-ab37a2cc5c65"},"vehicle_type_id":"4","last_reported":1719072589,"current_range_meters":16000,"station_id":"ce4bh012rcd13ifvqd00","pricing_plan_id":"cebpf4jnsgd1na2vs0mg"},{"bike_id":"67047250-8321-4261-b8de-8c095a8ce691","system_id":"levelo_inurba_marseille","lat":43.29385,"lon":5.39503,"is_reserved":false,"is_disabled":false,"rental_uris":{"android":"levelo://app?vid=67047250-8321-4261-b8de-8c095a8ce691","ios":"levelo://app?vid=67047250-8321-4261-b8de-8c095a8ce691"},"vehicle_type_id":"4","last_reported":1719072589,"current_range_meters":16000,"station_id":"","pricing_plan_id":"cebpf4jnsgd1na2vs0mg"},{"bike_id":"44c22026-e82a-408d-aec0-baf0038613b8","system_id":"levelo_inurba_marseille","lat":43.29199,"lon":5.39309,"is_reserved":false,"is_disabled":false,"rental_uris":{"android":"levelo://app?vid=44c22026-e82a-408d-aec0-baf0038613b8","ios":"levelo://app?vid=44c22026-e82a-408d-aec0-baf0038613b8"},"vehicle_type_id":"4","last_reported":1719072589,"current_range_meters":20400,"station_id":"ce4bh192rcd13ifvqdd0","pricing_plan_id":"cebpf4jnsgd1na2vs0mg"},{"bike_id":"cdfc9130-eec9-4705-a99d-ba04dc6c881e","system_id":"levelo_inurba_marseille","lat":43.29194,"lon":5.39308,"is_reserved":false,"is_disabled":false,"rental_uris":{"android":"levelo://app?vid=cdfc9130-eec9-4705-a99d-ba04dc6c881e","ios":"levelo://app?vid=cdfc9130-eec9-4705-a99d-ba04dc6c881e"},"vehicle_type_id":"4","last_reported":1719072589,"current_range_meters":0,"station_id":"ce4bh192rcd13ifvqdd0","pricing_plan_id":"cebpf4jnsgd1na2vs0mg"},{"bike_id":"fe6ae486-85b2-41cb-9d88-69dd321233e5","system_id":"levelo_inurba_marseille","lat":43.29201,"lon":5.39325,"is_reserved":false,"is_disabled":false,"rental_uris":{"android":"levelo://app?vid=fe6ae486-85b2-41cb-9d88-69dd321233e5","ios":"levelo://app?vid=fe6ae486-85b2-41cb-9d88-69dd321233e5"},"vehicle_type_id":"4","last_reported":1719072589,"current_range_meters":0,"station_id":"ce4bh192rcd13ifvqdd0","pricing_plan_id":"cebpf4jnsgd1na2vs0mg"},{"bike_id":"093ebae0-0641-4ab6-9d2c-4379860be738","system_id":"levelo_inurba_marseille","lat":43.291994,"lon":5.392907,"is_reserved":false,"is_disabled":false,"rental_uris":{"android":"levelo://app?vid=093ebae0-0641-4ab6-9d2c-4379860be738","ios":"levelo://app?vid=093ebae0-0641-4ab6-9d2c-4379860be738"},"vehicle_type_id":"4","last_reported":1719072589,"current_range_meters":0,"station_id":"ce4bh192rcd13ifvqdd0","pricing_plan_id":"cebpf4jnsgd1na2vs0mg"},{"bike_id":"6243816c-e7a6-4b2f-8d6e-630e8eb586e7","system_id":"levelo_inurba_marseille","lat":43.29448,"lon":5.39732,"is_reserved":false,"is_disabled":false,"rental_uris":{"android":"levelo://app?vid=6243816c-e7a6-4b2f-8d6e-630e8eb586e7","ios":"levelo://app?vid=6243816c-e7a6-4b2f-8d6e-630e8eb586e7"},"vehicle_type_id":"4","last_reported":1719072589,"current_range_meters":22800,"station_id":"","pricing_plan_id":"cebpf4jnsgd1na2vs0mg"},{"bike_id":"d0340038-7c98-4818-aa16-479e86eaa1c0","system_id":"levelo_inurba_marseille","lat":43.284538,"lon":5.358657,"is_reserved":false,"is_disabled":false,"rental_uris":{"android":"levelo://app?vid=d0340038-7c98-4818-aa16-479e86eaa1c0","ios":"levelo://app?vid=d0340038-7c98-4818-aa16-479e86eaa1c0"},"vehicle_type_id":"4","last_reported":1719072589,"current_range_meters":4400,"station_id":"ce4bhah2rcd13ifvqei0","pricing_plan_id":"cebpf4jnsgd1na2vs0mg"},{"bike_id":"09181abe-998e-4734-9d58-016ee37c1716","system_id":"levelo_inurba_marseille","lat":43.284538,"lon":5.358657,"is_reserved":false,"is_disabled":false,"rental_uris":{"android":"levelo://app?vid=09181abe-998e-4734-9d58-016ee37c1716","ios":"levelo://app?vid=09181abe-998e-4734-9d58-016ee37c1716"},"vehicle_type_id":"4","last_reported":1719072589,"current_range_meters":16400,"station_id":"ce4bhah2rcd13ifvqei0","pricing_plan_id":"cebpf4jnsgd1na2vs0mg"},{"bike_id":"44ef08d2-ee1d-4b37-8c5b-9b87e7a6e699","system_id":"levelo_inurba_marseille","lat":43.294314,"lon":5.397498,"is_reserved":false,"is_disabled":false,"rental_uris":{"android":"levelo://app?vid=44ef08d2-ee1d-4b37-8c5b-9b87e7a6e699","ios":"levelo://app?vid=44ef08d2-ee1d-4b37-8c5b-9b87e7a6e699"},"vehicle_type_id":"4","last_reported":1719072589,"current_range_meters":5200,"station_id":"ce4bh3h2rcd13ifvqdo0","pricing_plan_id":"cebpf4jnsgd1na2vs0mg"},{"bike_id":"34d0faa0-6562-4df7-90cd-77d6da218199","system_id":"levelo_inurba_marseille","lat":43.284538,"lon":5.358657,"is_reserved":false,"is_disabled":false,"rental_uris":{"android":"levelo://app?vid=34d0faa0-6562-4df7-90cd-77d6da218199","ios":"levelo://app?vid=34d0faa0-6562-4df7-90cd-77d6da218199"},"vehicle_type_id":"4","last_reported":1719072589,"current_range_meters":18000,"station_id":"ce4bhah2rcd13ifvqei0","pricing_plan_id":"cebpf4jnsgd1na2vs0mg"},{"bike_id":"3f054d8c-c83e-423e-90c0-5e914b133d03","system_id":"levelo_inurba_marseille","lat":43.284538,"lon":5.358657,"is_reserved":false,"is_disabled":false,"rental_uris":{"android":"levelo://app?vid=3f054d8c-c83e-423e-90c0-5e914b133d03","ios":"levelo://app?vid=3f054d8c-c83e-423e-90c0-5e914b133d03"},"vehicle_type_id":"4","last_reported":1719072589,"current_range_meters":6400,"station_id":"ce4bhah2rcd13ifvqei0","pricing_plan_id":"cebpf4jnsgd1na2vs0mg"},{"bike_id":"29ceface-120a-49ed-a9b3-2465b907169f","system_id":"levelo_inurba_marseille","lat":43.284534,"lon":5.358662,"is_reserved":false,"is_disabled":false,"rental_uris":{"android":"levelo://app?vid=29ceface-120a-49ed-a9b3-2465b907169f","ios":"levelo://app?vid=29ceface-120a-49ed-a9b3-2465b907169f"},"vehicle_type_id":"4","last_reported":1719072589,"current_range_meters":25600,"station_id":"ce4bhah2rcd13ifvqei0","pricing_plan_id":"cebpf4jnsgd1na2vs0mg"},{"bike_id":"83fb5dbc-4efc-4bbd-b3c7-cef72e9db304","system_id":"levelo_inurba_marseille","lat":43.294314,"lon":5.397498,"is_reserved":false,"is_disabled":false,"rental_uris":{"android":"levelo://app?vid=83fb5dbc-4efc-4bbd-b3c7-cef72e9db304","ios":"levelo://app?vid=83fb5dbc-4efc-4bbd-b3c7-cef72e9db304"},"vehicle_type_id":"4","last_reported":1719072589,"current_range_meters":18000,"station_id":"ce4bh3h2rcd13ifvqdo0","pricing_plan_id":"cebpf4jnsgd1na2vs0mg"},{"bike_id":"8767a56d-2540-4f7b-b16c-e52b6d8b0849","system_id":"levelo_inurba_marseille","lat":43.284534,"lon":5.358662,"is_reserved":false,"is_disabled":false,"rental_uris":{"android":"levelo://app?vid=8767a56d-2540-4f7b-b16c-e52b6d8b0849","ios":"levelo://app?vid=8767a56d-2540-4f7b-b16c-e52b6d8b0849"},"vehicle_type_id":"4","last_reported":1719072589,"current_range_meters":28000,"station_id":"ce4bhah2rcd13ifvqei0","pricing_plan_id":"cebpf4jnsgd1na2vs0mg"},{"bike_id":"cf09bbdb-8b02-4578-9014-e43bc2625b0a","system_id":"levelo_inurba_marseille","lat":43.285856,"lon":5.350771,"is_reserved":false,"is_disabled":false,"rental_uris":{"android":"levelo://app?vid=cf09bbdb-8b02-4578-9014-e43bc2625b0a","ios":"levelo://app?vid=cf09bbdb-8b02-4578-9014-e43bc2625b0a"},"vehicle_type_id":"4","last_reported":1719072589,"current_range_meters":30800,"station_id":"ce4bhch2rcd13ifvqeug","pricing_plan_id":"cebpf4jnsgd1na2vs0mg"},{"bike_id":"6ffcf0d1-8f01-401f-8833-30fbe7864e07","system_id":"levelo_inurba_marseille","lat":43.283998,"lon":5.375062,"is_reserved":false,"is_disabled":false,"rental_uris":{"android":"levelo://app?vid=6ffcf0d1-8f01-401f-8833-30fbe7864e07","ios":"levelo://app?vid=6ffcf0d1-8f01-401f-8833-30fbe7864e07"},"vehicle_type_id":"4","last_reported":1719072589,"current_range_meters":28400,"station_id":"ce4bh412rcd13ifvqds0","pricing_plan_id":"cebpf4jnsgd1na2vs0mg"},{"bike_id":"191545e7-f3a3-431c-9552-b872f88baceb","system_id":"levelo_inurba_marseille","lat":43.28408,"lon":5.37513,"is_reserved":false,"is_disabled":false,"rental_uris":{"android":"levelo://app?vid=191545e7-f3a3-431c-9552-b872f88baceb","ios":"levelo://app?vid=191545e7-f3a3-431c-9552-b872f88baceb"},"vehicle_type_id":"4","last_reported":1719072589,"current_range_meters":30400,"station_id":"ce4bh412rcd13ifvqds0","pricing_plan_id":"cebpf4jnsgd1na2vs0mg"},{"bike_id":"c964f9dc-3afe-43db-97d8-16f246a08f58","system_id":"levelo_inurba_marseille","lat":43.28399,"lon":5.37509,"is_reserved":false,"is_disabled":false,"rental_uris":{"android":"levelo://app?vid=c964f9dc-3afe-43db-97d8-16f246a08f58","ios":"levelo://app?vid=c964f9dc-3afe-43db-97d8-16f246a08f58"},"vehicle_type_id":"4","last_reported":1719072589,"current_range_meters":15600,"station_id":"ce4bh412rcd13ifvqds0","pricing_plan_id":"cebpf4jnsgd1na2vs0mg"},{"bike_id":"032bffaa-86aa-497f-9c81-7a0743f22c7e","system_id":"levelo_inurba_marseille","lat":43.283998,"lon":5.375062,"is_reserved":false,"is_disabled":false,"rental_uris":{"android":"levelo://app?vid=032bffaa-86aa-497f-9c81-7a0743f22c7e","ios":"levelo://app?vid=032bffaa-86aa-497f-9c81-7a0743f22c7e"},"vehicle_type_id":"4","last_reported":1719072589,"current_range_meters":6800,"station_id":"ce4bh412rcd13ifvqds0","pricing_plan_id":"cebpf4jnsgd1na2vs0mg"},{"bike_id":"e1d5aa9f-ae72-41ae-9d84-192d61a20c07","system_id":"levelo_inurba_marseille","lat":43.319179,"lon":5.407725,"is_reserved":false,"is_disabled":false,"rental_uris":{"android":"levelo://app?vid=e1d5aa9f-ae72-41ae-9d84-192d61a20c07","ios":"levelo://app?vid=e1d5aa9f-ae72-41ae-9d84-192d61a20c07"},"vehicle_type_id":"4","last_reported":1719072589,"current_range_meters":31200,"station_id":"ce4bhq12rcd13ifvqhig","pricing_plan_id":"cebpf4jnsgd1na2vs0mg"},{"bike_id":"fb7a1b79-5e30-47a8-919e-24c501dc14da","system_id":"levelo_inurba_marseille","lat":43.323464,"lon":5.406297,"is_reserved":false,"is_disabled":false,"rental_uris":{"android":"levelo://app?vid=fb7a1b79-5e30-47a8-919e-24c501dc14da","ios":"levelo://app?vid=fb7a1b79-5e30-47a8-919e-24c501dc14da"},"vehicle_type_id":"4","last_reported":1719072589,"current_range_meters":18800,"station_id":"ce4bhq92rcd13ifvqhjg","pricing_plan_id":"cebpf4jnsgd1na2vs0mg"},{"bike_id":"7c936375-8047-451b-9f95-3c06bd01c0f6","system_id":"levelo_inurba_marseille","lat":43.33717,"lon":5.391857,"is_reserved":false,"is_disabled":false,"rental_uris":{"android":"levelo://app?vid=7c936375-8047-451b-9f95-3c06bd01c0f6","ios":"levelo://app?vid=7c936375-8047-451b-9f95-3c06bd01c0f6"},"vehicle_type_id":"4","last_reported":1719072589,"current_range_meters":6800,"station_id":"ce4bhr92rcd13ifvqhsg","pricing_plan_id":"cebpf4jnsgd1na2vs0mg"},{"bike_id":"a3bf49b6-b621-429b-b232-dd130cc03585","system_id":"levelo_inurba_marseille","lat":43.33717,"lon":5.391857,"is_reserved":false,"is_disabled":false,"rental_uris":{"android":"levelo://app?vid=a3bf49b6-b621-429b-b232-dd130cc03585","ios":"levelo://app?vid=a3bf49b6-b621-429b-b232-dd130cc03585"},"vehicle_type_id":"4","last_reported":1719072589,"current_range_meters":9200,"station_id":"ce4bhr92rcd13ifvqhsg","pricing_plan_id":"cebpf4jnsgd1na2vs0mg"},{"bike_id":"3720418d-da95-43ab-883e-5ec4534758a0","system_id":"levelo_inurba_marseille","lat":43.337233,"lon":5.39179,"is_reserved":false,"is_disabled":false,"rental_uris":{"android":"levelo://app?vid=3720418d-da95-43ab-883e-5ec4534758a0","ios":"levelo://app?vid=3720418d-da95-43ab-883e-5ec4534758a0"},"vehicle_type_id":"4","last_reported":1719072589,"current_range_meters":11600,"station_id":"ce4bhr92rcd13ifvqhsg","pricing_plan_id":"cebpf4jnsgd1na2vs0mg"},{"bike_id":"74fc61ce-9515-44c8-bbf1-51260f80e692","system_id":"levelo_inurba_marseille","lat":43.337243,"lon":5.39184,"is_reserved":false,"is_disabled":false,"rental_uris":{"android":"levelo://app?vid=74fc61ce-9515-44c8-bbf1-51260f80e692","ios":"levelo://app?vid=74fc61ce-9515-44c8-bbf1-51260f80e692"},"vehicle_type_id":"4","last_reported":1719072589,"current_range_meters":12400,"station_id":"ce4bhr92rcd13ifvqhsg","pricing_plan_id":"cebpf4jnsgd1na2vs0mg"},{"bike_id":"b1edb63c-ef24-47bc-8a32-e3dc3b37b795","system_id":"levelo_inurba_marseille","lat":43.323464,"lon":5.406297,"is_reserved":false,"is_disabled":false,"rental_uris":{"android":"levelo://app?vid=b1edb63c-ef24-47bc-8a32-e3dc3b37b795","ios":"levelo://app?vid=b1edb63c-ef24-47bc-8a32-e3dc3b37b795"},"vehicle_type_id":"4","last_reported":1719072589,"current_range_meters":9200,"station_id":"ce4bhq92rcd13ifvqhjg","pricing_plan_id":"cebpf4jnsgd1na2vs0mg"},{"bike_id":"dca8e269-b74f-44be-9ebe-afbddd49d0b6","system_id":"levelo_inurba_marseille","lat":43.288501,"lon":5.393087,"is_reserved":false,"is_disabled":false,"rental_uris":{"android":"levelo://app?vid=dca8e269-b74f-44be-9ebe-afbddd49d0b6","ios":"levelo://app?vid=dca8e269-b74f-44be-9ebe-afbddd49d0b6"},"vehicle_type_id":"4","last_reported":1719072589,"current_range_meters":0,"station_id":"ce4bh2p2rcd13ifvqdi0","pricing_plan_id":"cebpf4jnsgd1na2vs0mg"},{"bike_id":"5bc85e4a-36c9-400a-98ed-25e41762209d","system_id":"levelo_inurba_marseille","lat":43.288497,"lon":5.393089,"is_reserved":false,"is_disabled":false,"rental_uris":{"android":"levelo://app?vid=5bc85e4a-36c9-400a-98ed-25e41762209d","ios":"levelo://app?vid=5bc85e4a-36c9-400a-98ed-25e41762209d"},"vehicle_type_id":"4","last_reported":1719072589,"current_range_meters":2000,"station_id":"ce4bh2p2rcd13ifvqdi0","pricing_plan_id":"cebpf4jnsgd1na2vs0mg"},{"bike_id":"abee9c4d-1a4a-4a80-80c3-f37b55872cd3","system_id":"levelo_inurba_marseille","lat":43.283494,"lon":5.380945,"is_reserved":false,"is_disabled":false,"rental_uris":{"android":"levelo://app?vid=abee9c4d-1a4a-4a80-80c3-f37b55872cd3","ios":"levelo://app?vid=abee9c4d-1a4a-4a80-80c3-f37b55872cd3"},"vehicle_type_id":"4","last_reported":1719072589,"current_range_meters":30400,"station_id":"ce4bh412rcd13ifvqdr0","pricing_plan_id":"cebpf4jnsgd1na2vs0mg"},{"bike_id":"35609a37-a38a-4a91-9f91-96cd104e50ce","system_id":"levelo_inurba_marseille","lat":43.284563,"lon":5.384797,"is_reserved":false,"is_disabled":false,"rental_uris":{"android":"levelo://app?vid=35609a37-a38a-4a91-9f91-96cd104e50ce","ios":"levelo://app?vid=35609a37-a38a-4a91-9f91-96cd104e50ce"},"vehicle_type_id":"4","last_reported":1719072589,"current_range_meters":26400,"station_id":"","pricing_plan_id":"cebpf4jnsgd1na2vs0mg"},{"bike_id":"ebd01647-4578-409a-83c8-fb943fbbef1f","system_id":"levelo_inurba_marseille","lat":43.284776,"lon":5.385603,"is_reserved":false,"is_disabled":false,"rental_uris":{"android":"levelo://app?vid=ebd01647-4578-409a-83c8-fb943fbbef1f","ios":"levelo://app?vid=ebd01647-4578-409a-83c8-fb943fbbef1f"},"vehicle_type_id":"4","last_reported":1719072589,"current_range_meters":0,"station_id":"ce4bh8p2rcd13ifvqeb0","pricing_plan_id":"cebpf4jnsgd1na2vs0mg"},{"bike_id":"523f4426-5fbc-4c85-9c98-c2d364848c42","system_id":"levelo_inurba_marseille","lat":43.28267,"lon":5.35076,"is_reserved":false,"is_disabled":false,"rental_uris":{"android":"levelo://app?vid=523f4426-5fbc-4c85-9c98-c2d364848c42","ios":"levelo://app?vid=523f4426-5fbc-4c85-9c98-c2d364848c42"},"vehicle_type_id":"4","last_reported":1719072589,"current_range_meters":0,"station_id":"ce4bhbp2rcd13ifvqerg","pricing_plan_id":"cebpf4jnsgd1na2vs0mg"},{"bike_id":"3c9f542d-2c9d-4526-967e-d58ee8e27863","system_id":"levelo_inurba_marseille","lat":43.28262,"lon":5.35067,"is_reserved":false,"is_disabled":false,"rental_uris":{"android":"levelo://app?vid=3c9f542d-2c9d-4526-967e-d58ee8e27863","ios":"levelo://app?vid=3c9f542d-2c9d-4526-967e-d58ee8e27863"},"vehicle_type_id":"4","last_reported":1719072589,"current_range_meters":24000,"station_id":"ce4bhbp2rcd13ifvqerg","pricing_plan_id":"cebpf4jnsgd1na2vs0mg"},{"bike_id":"504188fd-2fc1-4e53-bcb8-cc6cbb6cc09d","system_id":"levelo_inurba_marseille","lat":43.283502,"lon":5.386471,"is_reserved":false,"is_disabled":false,"rental_uris":{"android":"levelo://app?vid=504188fd-2fc1-4e53-bcb8-cc6cbb6cc09d","ios":"levelo://app?vid=504188fd-2fc1-4e53-bcb8-cc6cbb6cc09d"},"vehicle_type_id":"4","last_reported":1719072589,"current_range_meters":6400,"station_id":"ce4bh492rcd13ifvqdvg","pricing_plan_id":"cebpf4jnsgd1na2vs0mg"},{"bike_id":"7726427e-db4d-40af-97e8-34a7d564507a","system_id":"levelo_inurba_marseille","lat":43.282744,"lon":5.350533,"is_reserved":false,"is_disabled":false,"rental_uris":{"android":"levelo://app?vid=7726427e-db4d-40af-97e8-34a7d564507a","ios":"levelo://app?vid=7726427e-db4d-40af-97e8-34a7d564507a"},"vehicle_type_id":"4","last_reported":1719072589,"current_range_meters":30400,"station_id":"ce4bhbp2rcd13ifvqerg","pricing_plan_id":"cebpf4jnsgd1na2vs0mg"},{"bike_id":"8464f51a-cf7c-4423-8dfa-5864457138d1","system_id":"levelo_inurba_marseille","lat":43.28259,"lon":5.3507,"is_reserved":false,"is_disabled":false,"rental_uris":{"android":"levelo://app?vid=8464f51a-cf7c-4423-8dfa-5864457138d1","ios":"levelo://app?vid=8464f51a-cf7c-4423-8dfa-5864457138d1"},"vehicle_type_id":"4","last_reported":1719072589,"current_range_meters":0,"station_id":"ce4bhbp2rcd13ifvqerg","pricing_plan_id":"cebpf4jnsgd1na2vs0mg"},{"bike_id":"f40a9037-b4a8-41b3-bdb9-b184bdd909ed","system_id":"levelo_inurba_marseille","lat":43.28039,"lon":5.369297,"is_reserved":false,"is_disabled":false,"rental_uris":{"android":"levelo://app?vid=f40a9037-b4a8-41b3-bdb9-b184bdd909ed","ios":"levelo://app?vid=f40a9037-b4a8-41b3-bdb9-b184bdd909ed"},"vehicle_type_id":"4","last_reported":1719072589,"current_range_meters":9600,"station_id":"ce4bha12rcd13ifvqef0","pricing_plan_id":"cebpf4jnsgd1na2vs0mg"},{"bike_id":"eef4235b-32fa-46bd-b91b-9d272641f6f3","system_id":"levelo_inurba_marseille","lat":43.28039,"lon":5.369297,"is_reserved":false,"is_disabled":false,"rental_uris":{"android":"levelo://app?vid=eef4235b-32fa-46bd-b91b-9d272641f6f3","ios":"levelo://app?vid=eef4235b-32fa-46bd-b91b-9d272641f6f3"},"vehicle_type_id":"4","last_reported":1719072589,"current_range_meters":22400,"station_id":"ce4bha12rcd13ifvqef0","pricing_plan_id":"cebpf4jnsgd1na2vs0mg"},{"bike_id":"b729d1e5-e86f-482a-bd37-a9b7be73fc38","system_id":"levelo_inurba_marseille","lat":43.28039,"lon":5.369297,"is_reserved":false,"is_disabled":false,"rental_uris":{"android":"levelo://app?vid=b729d1e5-e86f-482a-bd37-a9b7be73fc38","ios":"levelo://app?vid=b729d1e5-e86f-482a-bd37-a9b7be73fc38"},"vehicle_type_id":"4","last_reported":1719072589,"current_range_meters":7200,"station_id":"ce4bha12rcd13ifvqef0","pricing_plan_id":"cebpf4jnsgd1na2vs0mg"},{"bike_id":"3f1fa926-01b1-4f49-bd12-e30516f199b7","system_id":"levelo_inurba_marseille","lat":43.28039,"lon":5.369297,"is_reserved":false,"is_disabled":false,"rental_uris":{"android":"levelo://app?vid=3f1fa926-01b1-4f49-bd12-e30516f199b7","ios":"levelo://app?vid=3f1fa926-01b1-4f49-bd12-e30516f199b7"},"vehicle_type_id":"4","last_reported":1719072589,"current_range_meters":5600,"station_id":"ce4bha12rcd13ifvqef0","pricing_plan_id":"cebpf4jnsgd1na2vs0mg"},{"bike_id":"e35885bf-556e-48d6-891d-dc8a456bd58c","system_id":"levelo_inurba_marseille","lat":43.281044,"lon":5.378308,"is_reserved":false,"is_disabled":false,"rental_uris":{"android":"levelo://app?vid=e35885bf-556e-48d6-891d-dc8a456bd58c","ios":"levelo://app?vid=e35885bf-556e-48d6-891d-dc8a456bd58c"},"vehicle_type_id":"4","last_reported":1719072589,"current_range_meters":16800,"station_id":"ce4bha12rcd13ifvqee0","pricing_plan_id":"cebpf4jnsgd1na2vs0mg"},{"bike_id":"ac0b7ec3-f50b-4653-adb2-2bb12fe4f673","system_id":"levelo_inurba_marseille","lat":43.296263,"lon":5.40601,"is_reserved":false,"is_disabled":false,"rental_uris":{"android":"levelo://app?vid=ac0b7ec3-f50b-4653-adb2-2bb12fe4f673","ios":"levelo://app?vid=ac0b7ec3-f50b-4653-adb2-2bb12fe4f673"},"vehicle_type_id":"4","last_reported":1719072589,"current_range_meters":7200,"station_id":"ce4bh0h2rcd13ifvqd60","pricing_plan_id":"cebpf4jnsgd1na2vs0mg"},{"bike_id":"484521c9-e9d3-4a81-9215-9fb0a13ed28f","system_id":"levelo_inurba_marseille","lat":43.296263,"lon":5.40601,"is_reserved":false,"is_disabled":false,"rental_uris":{"android":"levelo://app?vid=484521c9-e9d3-4a81-9215-9fb0a13ed28f","ios":"levelo://app?vid=484521c9-e9d3-4a81-9215-9fb0a13ed28f"},"vehicle_type_id":"4","last_reported":1719072589,"current_range_meters":5600,"station_id":"ce4bh0h2rcd13ifvqd60","pricing_plan_id":"cebpf4jnsgd1na2vs0mg"},{"bike_id":"56865bf7-45d5-4b41-8f48-e6825dba9678","system_id":"levelo_inurba_marseille","lat":43.281044,"lon":5.378308,"is_reserved":false,"is_disabled":false,"rental_uris":{"android":"levelo://app?vid=56865bf7-45d5-4b41-8f48-e6825dba9678","ios":"levelo://app?vid=56865bf7-45d5-4b41-8f48-e6825dba9678"},"vehicle_type_id":"4","last_reported":1719072589,"current_range_meters":800,"station_id":"ce4bha12rcd13ifvqee0","pricing_plan_id":"cebpf4jnsgd1na2vs0mg"},{"bike_id":"b6591445-0d85-482e-9b6b-00eb5281cb4d","system_id":"levelo_inurba_marseille","lat":43.284462,"lon":5.392121,"is_reserved":false,"is_disabled":false,"rental_uris":{"android":"levelo://app?vid=b6591445-0d85-482e-9b6b-00eb5281cb4d","ios":"levelo://app?vid=b6591445-0d85-482e-9b6b-00eb5281cb4d"},"vehicle_type_id":"4","last_reported":1719072589,"current_range_meters":8000,"station_id":"ce4bhoh2rcd13ifvqh5g","pricing_plan_id":"cebpf4jnsgd1na2vs0mg"},{"bike_id":"21ec4eee-4971-4e0e-8dee-b53a226ea526","system_id":"levelo_inurba_marseille","lat":43.28434,"lon":5.39192,"is_reserved":false,"is_disabled":false,"rental_uris":{"android":"levelo://app?vid=21ec4eee-4971-4e0e-8dee-b53a226ea526","ios":"levelo://app?vid=21ec4eee-4971-4e0e-8dee-b53a226ea526"},"vehicle_type_id":"4","last_reported":1719072589,"current_range_meters":18800,"station_id":"ce4bhoh2rcd13ifvqh5g","pricing_plan_id":"cebpf4jnsgd1na2vs0mg"},{"bike_id":"29d6a051-281e-4233-bb87-98c81cd8b957","system_id":"levelo_inurba_marseille","lat":43.28444,"lon":5.39214,"is_reserved":false,"is_disabled":false,"rental_uris":{"android":"levelo://app?vid=29d6a051-281e-4233-bb87-98c81cd8b957","ios":"levelo://app?vid=29d6a051-281e-4233-bb87-98c81cd8b957"},"vehicle_type_id":"4","last_reported":1719072589,"current_range_meters":27200,"station_id":"ce4bhoh2rcd13ifvqh5g","pricing_plan_id":"cebpf4jnsgd1na2vs0mg"},{"bike_id":"6f57d0e2-14e4-4254-94f2-8095f5bddb27","system_id":"levelo_inurba_marseille","lat":43.284462,"lon":5.392121,"is_reserved":false,"is_disabled":false,"rental_uris":{"android":"levelo://app?vid=6f57d0e2-14e4-4254-94f2-8095f5bddb27","ios":"levelo://app?vid=6f57d0e2-14e4-4254-94f2-8095f5bddb27"},"vehicle_type_id":"4","last_reported":1719072589,"current_range_meters":8400,"station_id":"ce4bhoh2rcd13ifvqh5g","pricing_plan_id":"cebpf4jnsgd1na2vs0mg"},{"bike_id":"7d14e85c-8b63-4779-9db1-d0f64ac997eb","system_id":"levelo_inurba_marseille","lat":43.285742,"lon":5.395004,"is_reserved":false,"is_disabled":false,"rental_uris":{"android":"levelo://app?vid=7d14e85c-8b63-4779-9db1-d0f64ac997eb","ios":"levelo://app?vid=7d14e85c-8b63-4779-9db1-d0f64ac997eb"},"vehicle_type_id":"4","last_reported":1719072589,"current_range_meters":26000,"station_id":"ce4bh292rcd13ifvqdg0","pricing_plan_id":"cebpf4jnsgd1na2vs0mg"},{"bike_id":"156833cb-0a19-4638-a486-f25b829c6c77","system_id":"levelo_inurba_marseille","lat":43.284462,"lon":5.392121,"is_reserved":false,"is_disabled":false,"rental_uris":{"android":"levelo://app?vid=156833cb-0a19-4638-a486-f25b829c6c77","ios":"levelo://app?vid=156833cb-0a19-4638-a486-f25b829c6c77"},"vehicle_type_id":"4","last_reported":1719072589,"current_range_meters":23200,"station_id":"ce4bhoh2rcd13ifvqh5g","pricing_plan_id":"cebpf4jnsgd1na2vs0mg"},{"bike_id":"d6cfeeb4-5da9-4f32-85e6-e9595fe8d6bf","system_id":"levelo_inurba_marseille","lat":43.28573,"lon":5.394992,"is_reserved":false,"is_disabled":false,"rental_uris":{"android":"levelo://app?vid=d6cfeeb4-5da9-4f32-85e6-e9595fe8d6bf","ios":"levelo://app?vid=d6cfeeb4-5da9-4f32-85e6-e9595fe8d6bf"},"vehicle_type_id":"4","last_reported":1719072589,"current_range_meters":26000,"station_id":"ce4bh292rcd13ifvqdg0","pricing_plan_id":"cebpf4jnsgd1na2vs0mg"},{"bike_id":"8a7781f3-e3b7-49b8-9256-bed8634a48c6","system_id":"levelo_inurba_marseille","lat":43.326605,"lon":5.409903,"is_reserved":false,"is_disabled":false,"rental_uris":{"android":"levelo://app?vid=8a7781f3-e3b7-49b8-9256-bed8634a48c6","ios":"levelo://app?vid=8a7781f3-e3b7-49b8-9256-bed8634a48c6"},"vehicle_type_id":"4","last_reported":1719072589,"current_range_meters":14000,"station_id":"ce4bhpp2rcd13ifvqhgg","pricing_plan_id":"cebpf4jnsgd1na2vs0mg"},{"bike_id":"92046d44-6bf2-442b-9f1b-f4149e090953","system_id":"levelo_inurba_marseille","lat":43.326605,"lon":5.409903,"is_reserved":false,"is_disabled":false,"rental_uris":{"android":"levelo://app?vid=92046d44-6bf2-442b-9f1b-f4149e090953","ios":"levelo://app?vid=92046d44-6bf2-442b-9f1b-f4149e090953"},"vehicle_type_id":"4","last_reported":1719072589,"current_range_meters":26800,"station_id":"ce4bhpp2rcd13ifvqhgg","pricing_plan_id":"cebpf4jnsgd1na2vs0mg"},{"bike_id":"00b33e56-fc24-4155-b283-1169a52b411f","system_id":"levelo_inurba_marseille","lat":43.29875,"lon":5.41006,"is_reserved":false,"is_disabled":false,"rental_uris":{"android":"levelo://app?vid=00b33e56-fc24-4155-b283-1169a52b411f","ios":"levelo://app?vid=00b33e56-fc24-4155-b283-1169a52b411f"},"vehicle_type_id":"4","last_reported":1719072589,"current_range_meters":8000,"station_id":"","pricing_plan_id":"cebpf4jnsgd1na2vs0mg"},{"bike_id":"9061eec8-9251-461d-b863-49c651aeb524","system_id":"levelo_inurba_marseille","lat":43.304188,"lon":5.412904,"is_reserved":false,"is_disabled":false,"rental_uris":{"android":"levelo://app?vid=9061eec8-9251-461d-b863-49c651aeb524","ios":"levelo://app?vid=9061eec8-9251-461d-b863-49c651aeb524"},"vehicle_type_id":"4","last_reported":1719072589,"current_range_meters":18400,"station_id":"ce4bhop2rcd13ifvqh8g","pricing_plan_id":"cebpf4jnsgd1na2vs0mg"},{"bike_id":"bdd4310d-b44f-4330-ad3a-4479e303191a","system_id":"levelo_inurba_marseille","lat":43.304157,"lon":5.412807,"is_reserved":false,"is_disabled":false,"rental_uris":{"android":"levelo://app?vid=bdd4310d-b44f-4330-ad3a-4479e303191a","ios":"levelo://app?vid=bdd4310d-b44f-4330-ad3a-4479e303191a"},"vehicle_type_id":"4","last_reported":1719072589,"current_range_meters":0,"station_id":"ce4bhop2rcd13ifvqh8g","pricing_plan_id":"cebpf4jnsgd1na2vs0mg"},{"bike_id":"147e0c42-70ad-47b3-b7de-eac967327dc5","system_id":"levelo_inurba_marseille","lat":43.304188,"lon":5.412904,"is_reserved":false,"is_disabled":false,"rental_uris":{"android":"levelo://app?vid=147e0c42-70ad-47b3-b7de-eac967327dc5","ios":"levelo://app?vid=147e0c42-70ad-47b3-b7de-eac967327dc5"},"vehicle_type_id":"4","last_reported":1719072589,"current_range_meters":31200,"station_id":"ce4bhop2rcd13ifvqh8g","pricing_plan_id":"cebpf4jnsgd1na2vs0mg"},{"bike_id":"d8ca6300-df9f-4570-b76d-034345c6b065","system_id":"levelo_inurba_marseille","lat":43.304188,"lon":5.412904,"is_reserved":false,"is_disabled":false,"rental_uris":{"android":"levelo://app?vid=d8ca6300-df9f-4570-b76d-034345c6b065","ios":"levelo://app?vid=d8ca6300-df9f-4570-b76d-034345c6b065"},"vehicle_type_id":"4","last_reported":1719072589,"current_range_meters":4000,"station_id":"ce4bhop2rcd13ifvqh8g","pricing_plan_id":"cebpf4jnsgd1na2vs0mg"},{"bike_id":"412732ce-7167-4bd0-bd9b-17e2f1cb76a9","system_id":"levelo_inurba_marseille","lat":43.279087,"lon":5.380114,"is_reserved":false,"is_disabled":false,"rental_uris":{"android":"levelo://app?vid=412732ce-7167-4bd0-bd9b-17e2f1cb76a9","ios":"levelo://app?vid=412732ce-7167-4bd0-bd9b-17e2f1cb76a9"},"vehicle_type_id":"4","last_reported":1719072589,"current_range_meters":24800,"station_id":"ce4bhf92rcd13ifvqf50","pricing_plan_id":"cebpf4jnsgd1na2vs0mg"},{"bike_id":"fdc675e5-570e-429c-a32e-d8c77555dac9","system_id":"levelo_inurba_marseille","lat":43.279087,"lon":5.380114,"is_reserved":false,"is_disabled":false,"rental_uris":{"android":"levelo://app?vid=fdc675e5-570e-429c-a32e-d8c77555dac9","ios":"levelo://app?vid=fdc675e5-570e-429c-a32e-d8c77555dac9"},"vehicle_type_id":"4","last_reported":1719072589,"current_range_meters":18000,"station_id":"ce4bhf92rcd13ifvqf50","pricing_plan_id":"cebpf4jnsgd1na2vs0mg"},{"bike_id":"0e0280f4-cf0b-4530-8189-22bf19f96d64","system_id":"levelo_inurba_marseille","lat":43.279087,"lon":5.380114,"is_reserved":false,"is_disabled":false,"rental_uris":{"android":"levelo://app?vid=0e0280f4-cf0b-4530-8189-22bf19f96d64","ios":"levelo://app?vid=0e0280f4-cf0b-4530-8189-22bf19f96d64"},"vehicle_type_id":"4","last_reported":1719072589,"current_range_meters":29600,"station_id":"ce4bhf92rcd13ifvqf50","pricing_plan_id":"cebpf4jnsgd1na2vs0mg"},{"bike_id":"381b042f-f385-438d-a4c7-3d99fac2dea5","system_id":"levelo_inurba_marseille","lat":43.279742,"lon":5.38744,"is_reserved":false,"is_disabled":false,"rental_uris":{"android":"levelo://app?vid=381b042f-f385-438d-a4c7-3d99fac2dea5","ios":"levelo://app?vid=381b042f-f385-438d-a4c7-3d99fac2dea5"},"vehicle_type_id":"4","last_reported":1719072589,"current_range_meters":28400,"station_id":"ce4bhg12rcd13ifvqf80","pricing_plan_id":"cebpf4jnsgd1na2vs0mg"},{"bike_id":"da6b2fb1-1e41-44c9-9ef6-6dc22d53d8c3","system_id":"levelo_inurba_marseille","lat":43.292571,"lon":5.409107,"is_reserved":false,"is_disabled":false,"rental_uris":{"android":"levelo://app?vid=da6b2fb1-1e41-44c9-9ef6-6dc22d53d8c3","ios":"levelo://app?vid=da6b2fb1-1e41-44c9-9ef6-6dc22d53d8c3"},"vehicle_type_id":"4","last_reported":1719072589,"current_range_meters":29600,"station_id":"ce4bh192rcd13ifvqdc0","pricing_plan_id":"cebpf4jnsgd1na2vs0mg"},{"bike_id":"45d27615-6e0b-4b87-aae1-3feb4bb521b7","system_id":"levelo_inurba_marseille","lat":43.325233,"lon":5.414318,"is_reserved":false,"is_disabled":false,"rental_uris":{"android":"levelo://app?vid=45d27615-6e0b-4b87-aae1-3feb4bb521b7","ios":"levelo://app?vid=45d27615-6e0b-4b87-aae1-3feb4bb521b7"},"vehicle_type_id":"4","last_reported":1719072589,"current_range_meters":28800,"station_id":"ce4bhq12rcd13ifvqhhg","pricing_plan_id":"cebpf4jnsgd1na2vs0mg"},{"bike_id":"9dc16729-1b54-4d8d-8b71-0a8d5bfb4700","system_id":"levelo_inurba_marseille","lat":43.276179,"lon":5.361009,"is_reserved":false,"is_disabled":false,"rental_uris":{"android":"levelo://app?vid=9dc16729-1b54-4d8d-8b71-0a8d5bfb4700","ios":"levelo://app?vid=9dc16729-1b54-4d8d-8b71-0a8d5bfb4700"},"vehicle_type_id":"4","last_reported":1719072589,"current_range_meters":0,"station_id":"ce4bgj92rcd13ifvqbe0","pricing_plan_id":"cebpf4jnsgd1na2vs0mg"},{"bike_id":"397737d3-a319-43f1-8022-b7e05e968a7f","system_id":"levelo_inurba_marseille","lat":43.275671,"lon":5.36028,"is_reserved":false,"is_disabled":false,"rental_uris":{"android":"levelo://app?vid=397737d3-a319-43f1-8022-b7e05e968a7f","ios":"levelo://app?vid=397737d3-a319-43f1-8022-b7e05e968a7f"},"vehicle_type_id":"4","last_reported":1719072589,"current_range_meters":22800,"station_id":"","pricing_plan_id":"cebpf4jnsgd1na2vs0mg"},{"bike_id":"78f77ca4-8c07-47c4-b2a5-d110a8fce985","system_id":"levelo_inurba_marseille","lat":43.273609,"lon":5.362708,"is_reserved":false,"is_disabled":false,"rental_uris":{"android":"levelo://app?vid=78f77ca4-8c07-47c4-b2a5-d110a8fce985","ios":"levelo://app?vid=78f77ca4-8c07-47c4-b2a5-d110a8fce985"},"vehicle_type_id":"4","last_reported":1719072589,"current_range_meters":18800,"station_id":"ce4bhbh2rcd13ifvqeo0","pricing_plan_id":"cebpf4jnsgd1na2vs0mg"},{"bike_id":"3b56c81a-3972-49c7-a953-2c6991bf4e85","system_id":"levelo_inurba_marseille","lat":43.303566,"lon":5.418749,"is_reserved":false,"is_disabled":false,"rental_uris":{"android":"levelo://app?vid=3b56c81a-3972-49c7-a953-2c6991bf4e85","ios":"levelo://app?vid=3b56c81a-3972-49c7-a953-2c6991bf4e85"},"vehicle_type_id":"4","last_reported":1719072589,"current_range_meters":19200,"station_id":"ce4bhop2rcd13ifvqh7g","pricing_plan_id":"cebpf4jnsgd1na2vs0mg"},{"bike_id":"745d5af9-efd7-4f2d-a9a5-b1a66f6d2b64","system_id":"levelo_inurba_marseille","lat":43.303837,"lon":5.418724,"is_reserved":false,"is_disabled":false,"rental_uris":{"android":"levelo://app?vid=745d5af9-efd7-4f2d-a9a5-b1a66f6d2b64","ios":"levelo://app?vid=745d5af9-efd7-4f2d-a9a5-b1a66f6d2b64"},"vehicle_type_id":"4","last_reported":1719072589,"current_range_meters":13600,"station_id":"ce4bhop2rcd13ifvqh7g","pricing_plan_id":"cebpf4jnsgd1na2vs0mg"},