{"last_updated":1727201505,"ttl":60,"version":"2.2","data":{"bikes":[{"bike_id":"5324c3f1-c63c-4aeb-a7b7-8020a205464f","system_id":"levelo_inurba_marseille","lat":43.304182,"lon":5.385351,"is_reserved":false,"is_disabled":false,"rental_uris":{"android":"levelo://app?vid=5324c3f1-c63c-4aeb-a7b7-8020a205464f","ios":"levelo://app?vid=5324c3f1-c63c-4aeb-a7b7-8020a205464f"},"vehicle_type_id":"4","last_reported":1727201506,"current_range_meters":8400,"station_id":"ce4bgg92rcd13ifvqb30","pricing_plan_id":"cebpf4jnsgd1na2vs0mg"},{"bike_id":"f8506148-00c4-4469-b7bd-a981b6b5f269","system_id":"levelo_inurba_marseille","lat":43.29272,"lon":5.36851,"is_reserved":false,"is_disabled":false,"rental_uris":{"android":"levelo://app?vid=f8506148-00c4-4469-b7bd-a981b6b5f269","ios":"levelo://app?vid=f8506148-00c4-4469-b7bd-a981b6b5f269"},"vehicle_type_id":"4","last_reported":1727201506,"current_range_meters":22800,"station_id":"ce4bhbp2rcd13ifvqesg","pricing_plan_id":"cebpf4jnsgd1na2vs0mg"},{"bike_id":"8ee7fb84-da46-476f-a091-3c35d33d7645","system_id":"levelo_inurba_marseille","lat":43.27944,"lon":5.41044,"is_reserved":false,"is_disabled":false,"rental_uris":{"android":"levelo://app?vid=8ee7fb84-da46-476f-a091-3c35d33d7645","ios":"levelo://app?vid=8ee7fb84-da46-476f-a091-3c35d33d7645"},"vehicle_type_id":"4","last_reported":1727201506,"current_range_meters":15200,"station_id":"ce4bhnp2rcd13ifvqh0g","pricing_plan_id":"cebpf4jnsgd1na2vs0mg"},{"bike_id":"a5cd771a-136c-4089-9540-92a43f84b30a","system_id":"levelo_inurba_marseille","lat":43.32333,"lon":5.40621,"is_reserved":false,"is_disabled":false,"rental_uris":{"android":"levelo://app?vid=a5cd771a-136c-4089-9540-92a43f84b30a","ios":"levelo://app?vid=a5cd771a-136c-4089-9540-92a43f84b30a"},"vehicle_type_id":"4","last_reported":1727201506,"current_range_meters":31200,"station_id":"ce4bhq92rcd13ifvqhjg","pricing_plan_id":"cebpf4jnsgd1na2vs0mg"},{"bike_id":"c85c3ac1-ec61-453b-a260-9f3875c4a0d0","system_id":"levelo_inurba_marseille","lat":43.27946,"lon":5.41046,"is_reserved":false,"is_disabled":false,"rental_uris":{"android":"levelo://app?vid=c85c3ac1-ec61-453b-a260-9f3875c4a0d0","ios":"levelo://app?vid=c85c3ac1-ec61-453b-a260-9f3875c4a0d0"},"vehicle_type_id":"4","last_reported":1727201506,"current_range_meters":28800,"station_id":"ce4bhnp2rcd13ifvqh0g","pricing_plan_id":"cebpf4jnsgd1na2vs0mg"},{"bike_id":"55346744-d053-4f73-be69-c67b047be584","system_id":"levelo_inurba_marseille","lat":43.27994,"lon":5.40025,"is_reserved":false,"is_disabled":false,"rental_uris":{"android":"levelo://app?vid=55346744-d053-4f73-be69-c67b047be584","ios":"levelo://app?vid=55346744-d053-4f73-be69-c67b047be584"},"vehicle_type_id":"4","last_reported":1727201506,"current_range_meters":28800,"station_id":"ce4bho92rcd13ifvqh4g","pricing_plan_id":"cebpf4jnsgd1na2vs0mg"},{"bike_id":"8c2e2b80-165e-4810-a886-c0f74d44fec2","system_id":"levelo_inurba_marseille","lat":43.29414,"lon":5.38637,"is_reserved":false,"is_disabled":false,"rental_uris":{"android":"levelo://app?vid=8c2e2b80-165e-4810-a886-c0f74d44fec2","ios":"levelo://app?vid=8c2e2b80-165e-4810-a886-c0f74d44fec2"},"vehicle_type_id":"4","last_reported":1727201506,"current_range_meters":6400,"station_id":"ce4bh2h2rcd13ifvqdh0","pricing_plan_id":"cebpf4jnsgd1na2vs0mg"},{"bike_id":"2de0ede3-be63-4f4e-bf16-11471ca6a1a1","system_id":"levelo_inurba_marseille","lat":43.32665,"lon":5.40994,"is_reserved":false,"is_disabled":false,"rental_uris":{"android":"levelo://app?vid=2de0ede3-be63-4f4e-bf16-11471ca6a1a1","ios":"levelo://app?vid=2de0ede3-be63-4f4e-bf16-11471ca6a1a1"},"vehicle_type_id":"4","last_reported":1727201506,"current_range_meters":36400,"station_id":"ce4bhpp2rcd13ifvqhgg","pricing_plan_id":"cebpf4jnsgd1na2vs0mg"},{"bike_id":"c6cd9b70-3b14-42a0-9ee3-01408936a20e","system_id":"levelo_inurba_marseille","lat":43.2778,"lon":5.40757,"is_reserved":false,"is_disabled":false,"rental_uris":{"android":"levelo://app?vid=c6cd9b70-3b14-42a0-9ee3-01408936a20e","ios":"levelo://app?vid=c6cd9b70-3b14-42a0-9ee3-01408936a20e"},"vehicle_type_id":"4","last_reported":1727201506,"current_range_meters":19200,"station_id":"ce4bhnh2rcd13ifvqgtg","pricing_plan_id":"cebpf4jnsgd1na2vs0mg"},{"bike_id":"6bf9c1b8-dd91-4688-8713-26bb12375021","system_id":"levelo_inurba_marseille","lat":43.29003,"lon":5.35612,"is_reserved":false,"is_disabled":false,"rental_uris":{"android":"levelo://app?vid=6bf9c1b8-dd91-4688-8713-26bb12375021","ios":"levelo://app?vid=6bf9c1b8-dd91-4688-8713-26bb12375021"},"vehicle_type_id":"4","last_reported":1727201506,"current_range_meters":2000,"station_id":"ce4bhb92rcd13ifvqen0","pricing_plan_id":"cebpf4jnsgd1na2vs0mg"},{"bike_id":"9926f8d4-52ff-41d7-995b-39e4b6d4cdc0","system_id":"levelo_inurba_marseille","lat":43.32472,"lon":5.36575,"is_reserved":false,"is_disabled":false,"rental_uris":{"android":"levelo://app?vid=9926f8d4-52ff-41d7-995b-39e4b6d4cdc0","ios":"levelo://app?vid=9926f8d4-52ff-41d7-995b-39e4b6d4cdc0"},"vehicle_type_id":"4","last_reported":1727201506,"current_range_meters":28400,"station_id":"ce4bhs12rcd13ifvqhvg","pricing_plan_id":"cebpf4jnsgd1na2vs0mg"},{"bike_id":"1e5075e3-4144-4b9b-8693-4d7beac6b10a","system_id":"levelo_inurba_marseille","lat":43.27995,"lon":5.40017,"is_reserved":false,"is_disabled":false,"rental_uris":{"android":"levelo://app?vid=1e5075e3-4144-4b9b-8693-4d7beac6b10a","ios":"levelo://app?vid=1e5075e3-4144-4b9b-8693-4d7beac6b10a"},"vehicle_type_id":"4","last_reported":1727201506,"current_range_meters":18800,"station_id":"ce4bho92rcd13ifvqh4g","pricing_plan_id":"cebpf4jnsgd1na2vs0mg"},{"bike_id":"09fe1997-fbfb-48cb-90dc-0a28d3607d87","system_id":"levelo_inurba_marseille","lat":43.29516,"lon":5.39409,"is_reserved":false,"is_disabled":false,"rental_uris":{"android":"levelo://app?vid=09fe1997-fbfb-48cb-90dc-0a28d3607d87","ios":"levelo://app?vid=09fe1997-fbfb-48cb-90dc-0a28d3607d87"},"vehicle_type_id":"4","last_reported":1727201506,"current_range_meters":1600,"station_id":"ce4bh292rcd13ifvqdf0","pricing_plan_id":"cebpf4jnsgd1na2vs0mg"},{"bike_id":"9c03e0f0-96c4-48fe-a0c9-2ff39af48c29","system_id":"levelo_inurba_marseille","lat":43.31994,"lon":5.3816,"is_reserved":false,"is_disabled":false,"rental_uris":{"android":"levelo://app?vid=9c03e0f0-96c4-48fe-a0c9-2ff39af48c29","ios":"levelo://app?vid=9c03e0f0-96c4-48fe-a0c9-2ff39af48c29"},"vehicle_type_id":"4","last_reported":1727201506,"current_range_meters":39200,"station_id":"ce4bhr12rcd13ifvqhpg","pricing_plan_id":"cebpf4jnsgd1na2vs0mg"},{"bike_id":"d442a6f3-1ef5-4532-ac2f-c77fbc1815c9","system_id":"levelo_inurba_marseille","lat":43.29273,"lon":5.38444,"is_reserved":false,"is_disabled":false,"rental_uris":{"android":"levelo://app?vid=d442a6f3-1ef5-4532-ac2f-c77fbc1815c9","ios":"levelo://app?vid=d442a6f3-1ef5-4532-ac2f-c77fbc1815c9"},"vehicle_type_id":"4","last_reported":1727201506,"current_range_meters":20000,"station_id":"ce4bh692rcd13ifvqea0","pricing_plan_id":"cebpf4jnsgd1na2vs0mg"},{"bike_id":"2ec5f482-ef2f-4ef8-b42f-3ca6cf554387","system_id":"levelo_inurba_marseille","lat":43.31335,"lon":5.39701,"is_reserved":false,"is_disabled":false,"rental_uris":{"android":"levelo://app?vid=2ec5f482-ef2f-4ef8-b42f-3ca6cf554387","ios":"levelo://app?vid=2ec5f482-ef2f-4ef8-b42f-3ca6cf554387"},"vehicle_type_id":"4","last_reported":1727201506,"current_range_meters":40000,"station_id":"ce4bgvp2rcd13ifvqcu0","pricing_plan_id":"cebpf4jnsgd1na2vs0mg"},{"bike_id":"7737b815-6daf-41f0-8354-4b28ba75917f","system_id":"levelo_inurba_marseille","lat":43.30188,"lon":5.39825,"is_reserved":false,"is_disabled":false,"rental_uris":{"android":"levelo://app?vid=7737b815-6daf-41f0-8354-4b28ba75917f","ios":"levelo://app?vid=7737b815-6daf-41f0-8354-4b28ba75917f"},"vehicle_type_id":"4","last_reported":1727201506,"current_range_meters":22000,"station_id":"ce4bgvp2rcd13ifvqct0","pricing_plan_id":"cebpf4jnsgd1na2vs0mg"},{"bike_id":"97cd9c66-18db-4e66-9552-5c0b14626eb5","system_id":"levelo_inurba_marseille","lat":43.27993,"lon":5.40018,"is_reserved":false,"is_disabled":false,"rental_uris":{"android":"levelo://app?vid=97cd9c66-18db-4e66-9552-5c0b14626eb5","ios":"levelo://app?vid=97cd9c66-18db-4e66-9552-5c0b14626eb5"},"vehicle_type_id":"4","last_reported":1727201506,"current_range_meters":8000,"station_id":"ce4bho92rcd13ifvqh4g","pricing_plan_id":"cebpf4jnsgd1na2vs0mg"},{"bike_id":"93af468c-1321-4d4c-99c3-612c9b0da5a4","system_id":"levelo_inurba_marseille","lat":43.25821,"lon":5.3944,"is_reserved":false,"is_disabled":false,"rental_uris":{"android":"levelo://app?vid=93af468c-1321-4d4c-99c3-612c9b0da5a4","ios":"levelo://app?vid=93af468c-1321-4d4c-99c3-612c9b0da5a4"},"vehicle_type_id":"4","last_reported":1727201506,"current_range_meters":11200,"station_id":"ce4bhip2rcd13ifvqft0","pricing_plan_id":"cebpf4jnsgd1na2vs0mg"},{"bike_id":"dffc0577-aea5-4585-b4ec-9c4045d181b4","system_id":"levelo_inurba_marseille","lat":43.25576,"lon":5.38234,"is_reserved":false,"is_disabled":false,"rental_uris":{"android":"levelo://app?vid=dffc0577-aea5-4585-b4ec-9c4045d181b4","ios":"levelo://app?vid=dffc0577-aea5-4585-b4ec-9c4045d181b4"},"vehicle_type_id":"4","last_reported":1727201506,"current_range_meters":18800,"station_id":"ce4bhih2rcd13ifvqfs0","pricing_plan_id":"cebpf4jnsgd1na2vs0mg"},{"bike_id":"759c6c90-fe06-4505-8e90-1d605af655f9","system_id":"levelo_inurba_marseille","lat":43.27051,"lon":5.40263,"is_reserved":false,"is_disabled":false,"rental_uris":{"android":"levelo://app?vid=759c6c90-fe06-4505-8e90-1d605af655f9","ios":"levelo://app?vid=759c6c90-fe06-4505-8e90-1d605af655f9"},"vehicle_type_id":"4","last_reported":1727201506,"current_range_meters":28800,"station_id":"ce4bhk92rcd13ifvqgc0","pricing_plan_id":"cebpf4jnsgd1na2vs0mg"},{"bike_id":"411e7b4e-6541-427c-ab4e-96e4a48c1b42","system_id":"levelo_inurba_marseille","lat":43.25577,"lon":5.3824,"is_reserved":false,"is_disabled":false,"rental_uris":{"android":"levelo://app?vid=411e7b4e-6541-427c-ab4e-96e4a48c1b42","ios":"levelo://app?vid=411e7b4e-6541-427c-ab4e-96e4a48c1b42"},"vehicle_type_id":"4","last_reported":1727201506,"current_range_meters":32000,"station_id":"ce4bhih2rcd13ifvqfs0","pricing_plan_id":"cebpf4jnsgd1na2vs0mg"},{"bike_id":"f8c704cc-636c-4268-80af-5309e4b09904","system_id":"levelo_inurba_marseille","lat":43.24182,"lon":5.39723,"is_reserved":false,"is_disabled":false,"rental_uris":{"android":"levelo://app?vid=f8c704cc-636c-4268-80af-5309e4b09904","ios":"levelo://app?vid=f8c704cc-636c-4268-80af-5309e4b09904"},"vehicle_type_id":"4","last_reported":1727201506,"current_range_meters":36800,"station_id":"ce4bhn12rcd13ifvqgpg","pricing_plan_id":"cebpf4jnsgd1na2vs0mg"},{"bike_id":"8db4eeae-90dc-450b-8149-34b6ce69b1f8","system_id":"levelo_inurba_marseille","lat":43.23182,"lon":5.39991,"is_reserved":false,"is_disabled":false,"rental_uris":{"android":"levelo://app?vid=8db4eeae-90dc-450b-8149-34b6ce69b1f8","ios":"levelo://app?vid=8db4eeae-90dc-450b-8149-34b6ce69b1f8"},"vehicle_type_id":"4","last_reported":1727201506,"current_range_meters":30400,"station_id":"ce4bhn12rcd13ifvqgqg","pricing_plan_id":"cebpf4jnsgd1na2vs0mg"},{"bike_id":"20bdd43a-fb86-4a6a-8151-53f794460f1a","system_id":"levelo_inurba_marseille","lat":43.28246,"lon":5.3728,"is_reserved":false,"is_disabled":false,"rental_uris":{"android":"levelo://app?vid=20bdd43a-fb86-4a6a-8151-53f794460f1a","ios":"levelo://app?vid=20bdd43a-fb86-4a6a-8151-53f794460f1a"},"vehicle_type_id":"4","last_reported":1727201506,"current_range_meters":14800,"station_id":"ce4bh412rcd13ifvqds0","pricing_plan_id":"cebpf4jnsgd1na2vs0mg"},{"bike_id":"2b53c05c-7e74-451c-9f0a-5f217febdc56","system_id":"levelo_inurba_marseille","lat":43.30143,"lon":5.37711,"is_reserved":false,"is_disabled":false,"rental_uris":{"android":"levelo://app?vid=2b53c05c-7e74-451c-9f0a-5f217febdc56","ios":"levelo://app?vid=2b53c05c-7e74-451c-9f0a-5f217febdc56"},"vehicle_type_id":"4","last_reported":1727201506,"current_range_meters":7200,"station_id":"","pricing_plan_id":"cebpf4jnsgd1na2vs0mg"},{"bike_id":"7a8458d5-44ac-4f2e-abef-3f01eb31f7ca","system_id":"levelo_inurba_marseille","lat":43.337444,"lon":5.374475,"is_reserved":false,"is_disabled":false,"rental_uris":{"android":"levelo://app?vid=7a8458d5-44ac-4f2e-abef-3f01eb31f7ca","ios":"levelo://app?vid=7a8458d5-44ac-4f2e-abef-3f01eb31f7ca"},"vehicle_type_id":"4","last_reported":1727201506,"current_range_meters":28800,"station_id":"","pricing_plan_id":"cebpf4jnsgd1na2vs0mg"},{"bike_id":"811863e5-6f93-4005-a648-c0d90c68133a","system_id":"levelo_inurba_marseille","lat":43.2979,"lon":5.38095,"is_reserved":false,"is_disabled":false,"rental_uris":{"android":"levelo://app?vid=811863e5-6f93-4005-a648-c0d90c68133a","ios":"levelo://app?vid=811863e5-6f93-4005-a648-c0d90c68133a"},"vehicle_type_id":"4","last_reported":1727201506,"current_range_meters":26800,"station_id":"ce4bgip2rcd13ifvqbb0","pricing_plan_id":"cebpf4jnsgd1na2vs0mg"},{"bike_id":"0a282b40-0fcb-4ed0-b0e7-51c3280c9094","system_id":"levelo_inurba_marseille","lat":43.29678,"lon":5.37282,"is_reserved":false,"is_disabled":false,"rental_uris":{"android":"levelo://app?vid=0a282b40-0fcb-4ed0-b0e7-51c3280c9094","ios":"levelo://app?vid=0a282b40-0fcb-4ed0-b0e7-51c3280c9094"},"vehicle_type_id":"4","last_reported":1727201506,"current_range_meters":38800,"station_id":"ce4bgk12rcd13ifvqbj0","pricing_plan_id":"cebpf4jnsgd1na2vs0mg"},{"bike_id":"c9b5ec6f-9235-414f-8086-a847b21c71d9","system_id":"levelo_inurba_marseille","lat":43.31993,"lon":5.3815,"is_reserved":false,"is_disabled":false,"rental_uris":{"android":"levelo://app?vid=c9b5ec6f-9235-414f-8086-a847b21c71d9","ios":"levelo://app?vid=c9b5ec6f-9235-414f-8086-a847b21c71d9"},"vehicle_type_id":"4","last_reported":1727201506,"current_range_meters":40000,"station_id":"ce4bhr12rcd13ifvqhpg","pricing_plan_id":"cebpf4jnsgd1na2vs0mg"},{"bike_id":"f6882f2a-2b36-498f-b440-c8ec558183fd","system_id":"levelo_inurba_marseille","lat":43.28571,"lon":5.39494,"is_reserved":false,"is_disabled":false,"rental_uris":{"android":"levelo://app?vid=f6882f2a-2b36-498f-b440-c8ec558183fd","ios":"levelo://app?vid=f6882f2a-2b36-498f-b440-c8ec558183fd"},"vehicle_type_id":"4","last_reported":1727201506,"current_range_meters":20400,"station_id":"ce4bh292rcd13ifvqdg0","pricing_plan_id":"cebpf4jnsgd1na2vs0mg"},{"bike_id":"0187dbe4-866c-4031-9cbb-94cdd92f6a82","system_id":"levelo_inurba_marseille","lat":43.29258,"lon":5.36662,"is_reserved":false,"is_disabled":false,"rental_uris":{"android":"levelo://app?vid=0187dbe4-866c-4031-9cbb-94cdd92f6a82","ios":"levelo://app?vid=0187dbe4-866c-4031-9cbb-94cdd92f6a82"},"vehicle_type_id":"4","last_reported":1727201506,"current_range_meters":3200,"station_id":"","pricing_plan_id":"cebpf4jnsgd1na2vs0mg"},{"bike_id":"c5ecba3d-c94f-4f0d-915a-0163562eb754","system_id":"levelo_inurba_marseille","lat":43.27995,"lon":5.40011,"is_reserved":false,"is_disabled":false,"rental_uris":{"android":"levelo://app?vid=c5ecba3d-c94f-4f0d-915a-0163562eb754","ios":"levelo://app?vid=c5ecba3d-c94f-4f0d-915a-0163562eb754"},"vehicle_type_id":"4","last_reported":1727201506,"current_range_meters":19600,"station_id":"ce4bho92rcd13ifvqh4g","pricing_plan_id":"cebpf4jnsgd1na2vs0mg"},{"bike_id":"195e040e-9409-49d3-9dd3-bcac34d34007","system_id":"levelo_inurba_marseille","lat":43.22933,"lon":5.35378,"is_reserved":false,"is_disabled":false,"rental_uris":{"android":"levelo://app?vid=195e040e-9409-49d3-9dd3-bcac34d34007","ios":"levelo://app?vid=195e040e-9409-49d3-9dd3-bcac34d34007"},"vehicle_type_id":"4","last_reported":1727201506,"current_range_meters":17600,"station_id":"cpo3532slgdg3j2ikp40","pricing_plan_id":"cebpf4jnsgd1na2vs0mg"},{"bike_id":"cefb6643-fc89-4b04-b95f-6cff2759399c","system_id":"levelo_inurba_marseille","lat":43.32282,"lon":5.38295,"is_reserved":false,"is_disabled":false,"rental_uris":{"android":"levelo://app?vid=cefb6643-fc89-4b04-b95f-6cff2759399c","ios":"levelo://app?vid=cefb6643-fc89-4b04-b95f-6cff2759399c"},"vehicle_type_id":"4","last_reported":1727201506,"current_range_meters":38400,"station_id":"ce4bhr12rcd13ifvqhqg","pricing_plan_id":"cebpf4jnsgd1na2vs0mg"},{"bike_id":"59076984-aeee-480e-ad47-62b5a7a0c08d","system_id":"levelo_inurba_marseille","lat":43.28616,"lon":5.35104,"is_reserved":false,"is_disabled":false,"rental_uris":{"android":"levelo://app?vid=59076984-aeee-480e-ad47-62b5a7a0c08d","ios":"levelo://app?vid=59076984-aeee-480e-ad47-62b5a7a0c08d"},"vehicle_type_id":"4","last_reported":1727201506,"current_range_meters":36800,"station_id":"ce4bhch2rcd13ifvqeug","pricing_plan_id":"cebpf4jnsgd1na2vs0mg"},{"bike_id":"686884dc-57d0-4edc-aaf7-3f92938a69f6","system_id":"levelo_inurba_marseille","lat":43.27999,"lon":5.40013,"is_reserved":false,"is_disabled":false,"rental_uris":{"android":"levelo://app?vid=686884dc-57d0-4edc-aaf7-3f92938a69f6","ios":"levelo://app?vid=686884dc-57d0-4edc-aaf7-3f92938a69f6"},"vehicle_type_id":"4","last_reported":1727201506,"current_range_meters":20400,"station_id":"ce4bho92rcd13ifvqh4g","pricing_plan_id":"cebpf4jnsgd1na2vs0mg"},{"bike_id":"918d52f3-0ddd-414b-8f45-26b8ce238343","system_id":"levelo_inurba_marseille","lat":43.24661,"lon":5.38167,"is_reserved":false,"is_disabled":false,"rental_uris":{"android":"levelo://app?vid=918d52f3-0ddd-414b-8f45-26b8ce238343","ios":"levelo://app?vid=918d52f3-0ddd-414b-8f45-26b8ce238343"},"vehicle_type_id":"4","last_reported":1727201506,"current_range_meters":30000,"station_id":"ce4bhih2rcd13ifvqfr0","pricing_plan_id":"cebpf4jnsgd1na2vs0mg"},{"bike_id":"3372e947-4808-4189-8a6a-daa18061479d","system_id":"levelo_inurba_marseille","lat":43.29171,"lon":5.37162,"is_reserved":false,"is_disabled":false,"rental_uris":{"android":"levelo://app?vid=3372e947-4808-4189-8a6a-daa18061479d","ios":"levelo://app?vid=3372e947-4808-4189-8a6a-daa18061479d"},"vehicle_type_id":"4","last_reported":1727201506,"current_range_meters":20400,"station_id":"ce4bha92rcd13ifvqeh0","pricing_plan_id":"cebpf4jnsgd1na2vs0mg"},{"bike_id":"2da24b92-3734-492c-9a6c-8b09da92c194","system_id":"levelo_inurba_marseille","lat":43.337444,"lon":5.374475,"is_reserved":false,"is_disabled":false,"rental_uris":{"android":"levelo://app?vid=2da24b92-3734-492c-9a6c-8b09da92c194","ios":"levelo://app?vid=2da24b92-3734-492c-9a6c-8b09da92c194"},"vehicle_type_id":"4","last_reported":1727201506,"current_range_meters":25200,"station_id":"","pricing_plan_id":"cebpf4jnsgd1na2vs0mg"},{"bike_id":"39af98d0-adf0-4182-b86c-567613ebbe09","system_id":"levelo_inurba_marseille","lat":43.31714,"lon":5.43705,"is_reserved":false,"is_disabled":false,"rental_uris":{"android":"levelo://app?vid=39af98d0-adf0-4182-b86c-567613ebbe09","ios":"levelo://app?vid=39af98d0-adf0-4182-b86c-567613ebbe09"},"vehicle_type_id":"4","last_reported":1727201506,"current_range_meters":6800,"station_id":"ce4bhp92rcd13ifvqhcg","pricing_plan_id":"cebpf4jnsgd1na2vs0mg"},{"bike_id":"9ea220b7-6b05-4ef2-9b89-2af19c38ee78","system_id":"levelo_inurba_marseille","lat":43.27374,"lon":5.36265,"is_reserved":false,"is_disabled":false,"rental_uris":{"android":"levelo://app?vid=9ea220b7-6b05-4ef2-9b89-2af19c38ee78","ios":"levelo://app?vid=9ea220b7-6b05-4ef2-9b89-2af19c38ee78"},"vehicle_type_id":"4","last_reported":1727201506,"current_range_meters":8000,"station_id":"ce4bhbh2rcd13ifvqeo0","pricing_plan_id":"cebpf4jnsgd1na2vs0mg"},{"bike_id":"40a5dd0c-9cff-4bc9-b214-d88e60e02be8","system_id":"levelo_inurba_marseille","lat":43.27164,"lon":5.40989,"is_reserved":false,"is_disabled":false,"rental_uris":{"android":"levelo://app?vid=40a5dd0c-9cff-4bc9-b214-d88e60e02be8","ios":"levelo://app?vid=40a5dd0c-9cff-4bc9-b214-d88e60e02be8"},"vehicle_type_id":"4","last_reported":1727201506,"current_range_meters":10800,"station_id":"ce4bhl12rcd13ifvqgf0","pricing_plan_id":"cebpf4jnsgd1na2vs0mg"},{"bike_id":"38f12e1b-e087-4faf-98ce-53ed7d177ee1","system_id":"levelo_inurba_marseille","lat":43.24386,"lon":5.37058,"is_reserved":false,"is_disabled":false,"rental_uris":{"android":"levelo://app?vid=38f12e1b-e087-4faf-98ce-53ed7d177ee1","ios":"levelo://app?vid=38f12e1b-e087-4faf-98ce-53ed7d177ee1"},"vehicle_type_id":"4","last_reported":1727201506,"current_range_meters":37600,"station_id":"ce4bhhh2rcd13ifvqfk0","pricing_plan_id":"cebpf4jnsgd1na2vs0mg"},{"bike_id":"ecb70881-b110-48a8-b751-24b4690d4031","system_id":"levelo_inurba_marseille","lat":43.23184,"lon":5.39977,"is_reserved":false,"is_disabled":false,"rental_uris":{"android":"levelo://app?vid=ecb70881-b110-48a8-b751-24b4690d4031","ios":"levelo://app?vid=ecb70881-b110-48a8-b751-24b4690d4031"},"vehicle_type_id":"4","last_reported":1727201506,"current_range_meters":10800,"station_id":"ce4bhn12rcd13ifvqgqg","pricing_plan_id":"cebpf4jnsgd1na2vs0mg"},{"bike_id":"25bd7405-be80-4a77-a761-8a1efed52652","system_id":"levelo_inurba_marseille","lat":43.29896,"lon":5.43658,"is_reserved":false,"is_disabled":false,"rental_uris":{"android":"levelo://app?vid=25bd7405-be80-4a77-a761-8a1efed52652","ios":"levelo://app?vid=25bd7405-be80-4a77-a761-8a1efed52652"},"vehicle_type_id":"4","last_reported":1727201506,"current_range_meters":36400,"station_id":"ce4bhpp2rcd13ifvqhfg","pricing_plan_id":"cebpf4jnsgd1na2vs0mg"},{"bike_id":"11c4f5be-b465-471a-b3d0-dbbc3061010b","system_id":"levelo_inurba_marseille","lat":43.30801,"lon":5.43526,"is_reserved":false,"is_disabled":false,"rental_uris":{"android":"levelo://app?vid=11c4f5be-b465-471a-b3d0-dbbc3061010b","ios":"levelo://app?vid=11c4f5be-b465-471a-b3d0-dbbc3061010b"},"vehicle_type_id":"4","last_reported":1727201506,"current_range_meters":21600,"station_id":"ce4bhph2rcd13ifvqheg","pricing_plan_id":"cebpf4jnsgd1na2vs0mg"},{"bike_id":"162ee78d-83e3-4081-92bd-328649d7b4ba","system_id":"levelo_inurba_marseille","lat":43.31751,"lon":5.39018,"is_reserved":false,"is_disabled":false,"rental_uris":{"android":"levelo://app?vid=162ee78d-83e3-4081-92bd-328649d7b4ba","ios":"levelo://app?vid=162ee78d-83e3-4081-92bd-328649d7b4ba"},"vehicle_type_id":"4","last_reported":1727201506,"current_range_meters":11200,"station_id":"ce4bhqp2rcd13ifvqhng","pricing_plan_id":"cebpf4jnsgd1na2vs0mg"},{"bike_id":"eea2cd5a-ea70-49e4-b38f-c464fb6c5cc3","system_id":"levelo_inurba_marseille","lat":43.337444,"lon":5.374475,"is_reserved":false,"is_disabled":false,"rental_uris":{"android":"levelo://app?vid=eea2cd5a-ea70-49e4-b38f-c464fb6c5cc3","ios":"levelo://app?vid=eea2cd5a-ea70-49e4-b38f-c464fb6c5cc3"},"vehicle_type_id":"4","last_reported":1727201506,"current_range_meters":33600,"station_id":"","pricing_plan_id":"cebpf4jnsgd1na2vs0mg"},{"bike_id":"f15d7f0d-9746-41a3-ae37-4556e528b0dd","system_id":"levelo_inurba_marseille","lat":43.27998,"lon":5.40016,"is_reserved":false,"is_disabled":false,"rental_uris":{"android":"levelo://app?vid=f15d7f0d-9746-41a3-ae37-4556e528b0dd","ios":"levelo://app?vid=f15d7f0d-9746-41a3-ae37-4556e528b0dd"},"vehicle_type_id":"4","last_reported":1727201506,"current_range_meters":8000,"station_id":"ce4bho92rcd13ifvqh4g","pricing_plan_id":"cebpf4jnsgd1na2vs0mg"},{"bike_id":"03a2ebca-190e-472a-acda-d9f00b98b26b","system_id":"levelo_inurba_marseille","lat":43.31327,"lon":5.39693,"is_reserved":false,"is_disabled":false,"rental_uris":{"android":"levelo://app?vid=03a2ebca-190e-472a-acda-d9f00b98b26b","ios":"levelo://app?vid=03a2ebca-190e-472a-acda-d9f00b98b26b"},"vehicle_type_id":"4","last_reported":1727201506,"current_range_meters":8400,"station_id":"ce4bgvp2rcd13ifvqcu0","pricing_plan_id":"cebpf4jnsgd1na2vs0mg"},{"bike_id":"36aafc9b-fa01-4502-8a92-229ade0b854b","system_id":"levelo_inurba_marseille","lat":43.28401,"lon":5.37517,"is_reserved":false,"is_disabled":false,"rental_uris":{"android":"levelo://app?vid=36aafc9b-fa01-4502-8a92-229ade0b854b","ios":"levelo://app?vid=36aafc9b-fa01-4502-8a92-229ade0b854b"},"vehicle_type_id":"4","last_reported":1727201506,"current_range_meters":38000,"station_id":"ce4bh412rcd13ifvqds0","pricing_plan_id":"cebpf4jnsgd1na2vs0mg"},{"bike_id":"2f50cbf1-cbe8-434b-80ce-4da3c637a8ef","system_id":"levelo_inurba_marseille","lat":43.2919,"lon":5.35812,"is_reserved":false,"is_disabled":false,"rental_uris":{"android":"levelo://app?vid=2f50cbf1-cbe8-434b-80ce-4da3c637a8ef","ios":"levelo://app?vid=2f50cbf1-cbe8-434b-80ce-4da3c637a8ef"},"vehicle_type_id":"4","last_reported":1727201506,"current_range_meters":17200,"station_id":"ce4bhb12rcd13ifvqel0","pricing_plan_id":"cebpf4jnsgd1na2vs0mg"},{"bike_id":"0b243e91-adeb-4528-ae42-19e2b01daafa","system_id":"levelo_inurba_marseille","lat":43.29532,"lon":5.38544,"is_reserved":false,"is_disabled":false,"rental_uris":{"android":"levelo://app?vid=0b243e91-adeb-4528-ae42-19e2b01daafa","ios":"levelo://app?vid=0b243e91-adeb-4528-ae42-19e2b01daafa"},"vehicle_type_id":"4","last_reported":1727201506,"current_range_meters":6400,"station_id":"ce4bgih2rcd13ifvqba0","pricing_plan_id":"cebpf4jnsgd1na2vs0mg"},{"bike_id":"f64945c3-db12-4e2d-926f-977df7660df5","system_id":"levelo_inurba_marseille","lat":43.27813,"lon":5.40721,"is_reserved":false,"is_disabled":false,"rental_uris":{"android":"levelo://app?vid=f64945c3-db12-4e2d-926f-977df7660df5","ios":"levelo://app?vid=f64945c3-db12-4e2d-926f-977df7660df5"},"vehicle_type_id":"4","last_reported":1727201506,"current_range_meters":24800,"station_id":"ce4bhnh2rcd13ifvqgtg","pricing_plan_id":"cebpf4jnsgd1na2vs0mg"},{"bike_id":"1802deb5-1c46-4f67-afa3-157e0fdc0220","system_id":"levelo_inurba_marseille","lat":43.27811,"lon":5.40721,"is_reserved":false,"is_disabled":false,"rental_uris":{"android":"levelo://app?vid=1802deb5-1c46-4f67-afa3-157e0fdc0220","ios":"levelo://app?vid=1802deb5-1c46-4f67-afa3-157e0fdc0220"},"vehicle_type_id":"4","last_reported":1727201506,"current_range_meters":28000,"station_id":"ce4bhnh2rcd13ifvqgtg","pricing_plan_id":"cebpf4jnsgd1na2vs0mg"},{"bike_id":"19e2cf62-301d-4bc7-b95b-be8a67b2a3e9","system_id":"levelo_inurba_marseille","lat":43.3148,"lon":5.37312,"is_reserved":false,"is_disabled":false,"rental_uris":{"android":"levelo://app?vid=19e2cf62-301d-4bc7-b95b-be8a67b2a3e9","ios":"levelo://app?vid=19e2cf62-301d-4bc7-b95b-be8a67b2a3e9"},"vehicle_type_id":"4","last_reported":1727201506,"current_range_meters":12000,"station_id":"ce4bgt12rcd13ifvqcd0","pricing_plan_id":"cebpf4jnsgd1na2vs0mg"},{"bike_id":"5f0182b0-249b-4c18-bdc9-8cefe4c6ae37","system_id":"levelo_inurba_marseille","lat":43.32481,"lon":5.36568,"is_reserved":false,"is_disabled":false,"rental_uris":{"android":"levelo://app?vid=5f0182b0-249b-4c18-bdc9-8cefe4c6ae37","ios":"levelo://app?vid=5f0182b0-249b-4c18-bdc9-8cefe4c6ae37"},"vehicle_type_id":"4","last_reported":1727201506,"current_range_meters":30000,"station_id":"ce4bhs12rcd13ifvqhvg","pricing_plan_id":"cebpf4jnsgd1na2vs0mg"},{"bike_id":"ca94193f-47c8-446f-bb0e-7d77c7815366","system_id":"levelo_inurba_marseille","lat":43.24054,"lon":5.37802,"is_reserved":false,"is_disabled":false,"rental_uris":{"android":"levelo://app?vid=ca94193f-47c8-446f-bb0e-7d77c7815366","ios":"levelo://app?vid=ca94193f-47c8-446f-bb0e-7d77c7815366"},"vehicle_type_id":"4","last_reported":1727201506,"current_range_meters":18800,"station_id":"ce4bhnp2rcd13ifvqgvg","pricing_plan_id":"cebpf4jnsgd1na2vs0mg"},{"bike_id":"a1c19099-fee9-4d42-949a-1cf653239870","system_id":"levelo_inurba_marseille","lat":43.23155,"lon":5.43703,"is_reserved":false,"is_disabled":false,"rental_uris":{"android":"levelo://app?vid=a1c19099-fee9-4d42-949a-1cf653239870","ios":"levelo://app?vid=a1c19099-fee9-4d42-949a-1cf653239870"},"vehicle_type_id":"4","last_reported":1727201506,"current_range_meters":5600,"station_id":"ce4bhmp2rcd13ifvqgog","pricing_plan_id":"cebpf4jnsgd1na2vs0mg"},{"bike_id":"92a51bd3-8269-4bb1-952d-f852f89a4345","system_id":"levelo_inurba_marseille","lat":43.29029,"lon":5.3865,"is_reserved":false,"is_disabled":false,"rental_uris":{"android":"levelo://app?vid=92a51bd3-8269-4bb1-952d-f852f89a4345","ios":"levelo://app?vid=92a51bd3-8269-4bb1-952d-f852f89a4345"},"vehicle_type_id":"4","last_reported":1727201506,"current_range_meters":27600,"station_id":"ce4bh4p2rcd13ifvqe0g","pricing_plan_id":"cebpf4jnsgd1na2vs0mg"},{"bike_id":"57757cf2-b971-443b-97a6-6c791a375948","system_id":"levelo_inurba_marseille","lat":43.28246,"lon":5.43053,"is_reserved":false,"is_disabled":false,"rental_uris":{"android":"levelo://app?vid=57757cf2-b971-443b-97a6-6c791a375948","ios":"levelo://app?vid=57757cf2-b971-443b-97a6-6c791a375948"},"vehicle_type_id":"4","last_reported":1727201506,"current_range_meters":26800,"station_id":"","pricing_plan_id":"cebpf4jnsgd1na2vs0mg"},{"bike_id":"cca5bbd7-8e20-4f1a-b5c4-09db76284882","system_id":"levelo_inurba_marseille","lat":43.27941,"lon":5.41051,"is_reserved":false,"is_disabled":false,"rental_uris":{"android":"levelo://app?vid=cca5bbd7-8e20-4f1a-b5c4-09db76284882","ios":"levelo://app?vid=cca5bbd7-8e20-4f1a-b5c4-09db76284882"},"vehicle_type_id":"4","last_reported":1727201506,"current_range_meters":22800,"station_id":"ce4bhnp2rcd13ifvqh0g","pricing_plan_id":"cebpf4jnsgd1na2vs0mg"},{"bike_id":"01257fda-db62-48b0-95f6-691141635a42","system_id":"levelo_inurba_marseille","lat":43.29077,"lon":5.37146,"is_reserved":false,"is_disabled":false,"rental_uris":{"android":"levelo://app?vid=01257fda-db62-48b0-95f6-691141635a42","ios":"levelo://app?vid=01257fda-db62-48b0-95f6-691141635a42"},"vehicle_type_id":"4","last_reported":1727201506,"current_range_meters":10800,"station_id":"ce4bh5p2rcd13ifvqe4g","pricing_plan_id":"cebpf4jnsgd1na2vs0mg"},{"bike_id":"d93dd17e-1444-4244-9180-f683a6f87469","system_id":"levelo_inurba_marseille","lat":43.28029,"lon":5.36951,"is_reserved":false,"is_disabled":false,"rental_uris":{"android":"levelo://app?vid=d93dd17e-1444-4244-9180-f683a6f87469","ios":"levelo://app?vid=d93dd17e-1444-4244-9180-f683a6f87469"},"vehicle_type_id":"4","last_reported":1727201506,"current_range_meters":20400,"station_id":"ce4bha12rcd13ifvqef0","pricing_plan_id":"cebpf4jnsgd1na2vs0mg"},{"bike_id":"28786443-08d6-4fc5-994a-ebfb705afe75","system_id":"levelo_inurba_marseille","lat":43.31264,"lon":5.40176,"is_reserved":false,"is_disabled":false,"rental_uris":{"android":"levelo://app?vid=28786443-08d6-4fc5-994a-ebfb705afe75","ios":"levelo://app?vid=28786443-08d6-4fc5-994a-ebfb705afe75"},"vehicle_type_id":"4","last_reported":1727201506,"current_range_meters":9200,"station_id":"ce4bh092rcd13ifvqd30","pricing_plan_id":"cebpf4jnsgd1na2vs0mg"},{"bike_id":"5459e5dd-02cf-41c0-a77a-9053bdc92a78","system_id":"levelo_inurba_marseille","lat":43.30806,"lon":5.43534,"is_reserved":false,"is_disabled":false,"rental_uris":{"android":"levelo://app?vid=5459e5dd-02cf-41c0-a77a-9053bdc92a78","ios":"levelo://app?vid=5459e5dd-02cf-41c0-a77a-9053bdc92a78"},"vehicle_type_id":"4","last_reported":1727201506,"current_range_meters":9600,"station_id":"ce4bhph2rcd13ifvqheg","pricing_plan_id":"cebpf4jnsgd1na2vs0mg"},{"bike_id":"be44cdb4-b3ed-4980-9564-10bb8dfe213a","system_id":"levelo_inurba_marseille","lat":43.29025,"lon":5.3813,"is_reserved":false,"is_disabled":false,"rental_uris":{"android":"levelo://app?vid=be44cdb4-b3ed-4980-9564-10bb8dfe213a","ios":"levelo://app?vid=be44cdb4-b3ed-4980-9564-10bb8dfe213a"},"vehicle_type_id":"4","last_reported":1727201506,"current_range_meters":3600,"station_id":"ce4bh4p2rcd13ifvqe1g","pricing_plan_id":"cebpf4jnsgd1na2vs0mg"},{"bike_id":"b32bfd54-dd6c-43b6-9c92-8cdbb88f840c","system_id":"levelo_inurba_marseille","lat":43.27991,"lon":5.40015,"is_reserved":false,"is_disabled":false,"rental_uris":{"android":"levelo://app?vid=b32bfd54-dd6c-43b6-9c92-8cdbb88f840c","ios":"levelo://app?vid=b32bfd54-dd6c-43b6-9c92-8cdbb88f840c"},"vehicle_type_id":"4","last_reported":1727201506,"current_range_meters":33600,"station_id":"ce4bho92rcd13ifvqh4g","pricing_plan_id":"cebpf4jnsgd1na2vs0mg"},{"bike_id":"3922599f-3ab6-47ad-8ea5-e51e6fc7b668","system_id":"levelo_inurba_marseille","lat":43.27373,"lon":5.36259,"is_reserved":false,"is_disabled":false,"rental_uris":{"android":"levelo://app?vid=3922599f-3ab6-47ad-8ea5-e51e6fc7b668","ios":"levelo://app?vid=3922599f-3ab6-47ad-8ea5-e51e6fc7b668"},"vehicle_type_id":"4","last_reported":1727201506,"current_range_meters":12800,"station_id":"ce4bhbh2rcd13ifvqeo0","pricing_plan_id":"cebpf4jnsgd1na2vs0mg"},{"bike_id":"10b9f85e-e4ee-4f70-979e-f255ac0bd659","system_id":"levelo_inurba_marseille","lat":43.22932,"lon":5.35377,"is_reserved":false,"is_disabled":false,"rental_uris":{"android":"levelo://app?vid=10b9f85e-e4ee-4f70-979e-f255ac0bd659","ios":"levelo://app?vid=10b9f85e-e4ee-4f70-979e-f255ac0bd659"},"vehicle_type_id":"4","last_reported":1727201506,"current_range_meters":7200,"station_id":"cpo3532slgdg3j2ikp40","pricing_plan_id":"cebpf4jnsgd1na2vs0mg"},{"bike_id":"2fe809d0-a178-4aca-bfc7-3cf7056f80e8","system_id":"levelo_inurba_marseille","lat":43.28412,"lon":5.34991,"is_reserved":false,"is_disabled":false,"rental_uris":{"android":"levelo://app?vid=2fe809d0-a178-4aca-bfc7-3cf7056f80e8","ios":"levelo://app?vid=2fe809d0-a178-4aca-bfc7-3cf7056f80e8"},"vehicle_type_id":"4","last_reported":1727201506,"current_range_meters":32400,"station_id":"ce4bhbh2rcd13ifvqepg","pricing_plan_id":"cebpf4jnsgd1na2vs0mg"},{"bike_id":"b2eac907-fde7-48e5-9130-71f5018e8c86","system_id":"levelo_inurba_marseille","lat":43.29419,"lon":5.38625,"is_reserved":false,"is_disabled":false,"rental_uris":{"android":"levelo://app?vid=b2eac907-fde7-48e5-9130-71f5018e8c86","ios":"levelo://app?vid=b2eac907-fde7-48e5-9130-71f5018e8c86"},"vehicle_type_id":"4","last_reported":1727201506,"current_range_meters":4400,"station_id":"ce4bh2h2rcd13ifvqdh0","pricing_plan_id":"cebpf4jnsgd1na2vs0mg"},{"bike_id":"58e7befa-661e-46bb-a99f-00ded24fba29","system_id":"levelo_inurba_marseille","lat":43.29026,"lon":5.38655,"is_reserved":false,"is_disabled":false,"rental_uris":{"android":"levelo://app?vid=58e7befa-661e-46bb-a99f-00ded24fba29","ios":"levelo://app?vid=58e7befa-661e-46bb-a99f-00ded24fba29"},"vehicle_type_id":"4","last_reported":1727201506,"current_range_meters":30800,"station_id":"ce4bh4p2rcd13ifvqe0g","pricing_plan_id":"cebpf4jnsgd1na2vs0mg"},{"bike_id":"f81dbcb4-d9ee-4be8-9fee-b5ab1b56484b","system_id":"levelo_inurba_marseille","lat":43.2909,"lon":5.38142,"is_reserved":false,"is_disabled":false,"rental_uris":{"android":"levelo://app?vid=f81dbcb4-d9ee-4be8-9fee-b5ab1b56484b","ios":"levelo://app?vid=f81dbcb4-d9ee-4be8-9fee-b5ab1b56484b"},"vehicle_type_id":"4","last_reported":1727201506,"current_range_meters":20000,"station_id":"ce4bh512rcd13ifvqe2g","pricing_plan_id":"cebpf4jnsgd1na2vs0mg"},{"bike_id":"ca174a89-d0d1-4079-a019-e37fb1dfb7d2","system_id":"levelo_inurba_marseille","lat":43.29258,"lon":5.38439,"is_reserved":false,"is_disabled":false,"rental_uris":{"android":"levelo://app?vid=ca174a89-d0d1-4079-a019-e37fb1dfb7d2","ios":"levelo://app?vid=ca174a89-d0d1-4079-a019-e37fb1dfb7d2"},"vehicle_type_id":"4","last_reported":1727201506,"current_range_meters":9600,"station_id":"ce4bh692rcd13ifvqea0","pricing_plan_id":"cebpf4jnsgd1na2vs0mg"},{"bike_id":"06138e05-a18e-4a99-9c79-38670e01d35d","system_id":"levelo_inurba_marseille","lat":43.28616,"lon":5.35101,"is_reserved":false,"is_disabled":false,"rental_uris":{"android":"levelo://app?vid=06138e05-a18e-4a99-9c79-38670e01d35d","ios":"levelo://app?vid=06138e05-a18e-4a99-9c79-38670e01d35d"},"vehicle_type_id":"4","last_reported":1727201506,"current_range_meters":30400,"station_id":"ce4bhch2rcd13ifvqeug","pricing_plan_id":"cebpf4jnsgd1na2vs0mg"},{"bike_id":"87ac93c2-1c79-4444-9479-f54f849eeac0","system_id":"levelo_inurba_marseille","lat":43.25501,"lon":5.37674,"is_reserved":false,"is_disabled":false,"rental_uris":{"android":"levelo://app?vid=87ac93c2-1c79-4444-9479-f54f849eeac0","ios":"levelo://app?vid=87ac93c2-1c79-4444-9479-f54f849eeac0"},"vehicle_type_id":"4","last_reported":1727201506,"current_range_meters":39200,"station_id":"ce4bhh12rcd13ifvqff0","pricing_plan_id":"cebpf4jnsgd1na2vs0mg"},{"bike_id":"ebec7cd5-5fed-46ce-abdb-3cd659f607ac","system_id":"levelo_inurba_marseille","lat":43.29545,"lon":5.42291,"is_reserved":false,"is_disabled":false,"rental_uris":{"android":"levelo://app?vid=ebec7cd5-5fed-46ce-abdb-3cd659f607ac","ios":"levelo://app?vid=ebec7cd5-5fed-46ce-abdb-3cd659f607ac"},"vehicle_type_id":"4","last_reported":1727201506,"current_range_meters":36800,"station_id":"ce4bhph2rcd13ifvqhdg","pricing_plan_id":"cebpf4jnsgd1na2vs0mg"},{"bike_id":"ca3edcd3-705c-48af-80a7-ed285389a603","system_id":"levelo_inurba_marseille","lat":43.2826,"lon":5.35081,"is_reserved":false,"is_disabled":false,"rental_uris":{"android":"levelo://app?vid=ca3edcd3-705c-48af-80a7-ed285389a603","ios":"levelo://app?vid=ca3edcd3-705c-48af-80a7-ed285389a603"},"vehicle_type_id":"4","last_reported":1727201506,"current_range_meters":18800,"station_id":"ce4bhbp2rcd13ifvqerg","pricing_plan_id":"cebpf4jnsgd1na2vs0mg"},{"bike_id":"584dc729-0cb1-4902-8a6c-23dc123e7906","system_id":"levelo_inurba_marseille","lat":43.22924,"lon":5.35377,"is_reserved":false,"is_disabled":false,"rental_uris":{"android":"levelo://app?vid=584dc729-0cb1-4902-8a6c-23dc123e7906","ios":"levelo://app?vid=584dc729-0cb1-4902-8a6c-23dc123e7906"},"vehicle_type_id":"4","last_reported":1727201506,"current_range_meters":24800,"station_id":"cpo3532slgdg3j2ikp40","pricing_plan_id":"cebpf4jnsgd1na2vs0mg"},{"bike_id":"df5b38d2-64cb-4df0-856f-ea9bd22c082c","system_id":"levelo_inurba_marseille","lat":43.231914,"lon":5.355523,"is_reserved":false,"is_disabled":false,"rental_uris":{"android":"levelo://app?vid=df5b38d2-64cb-4df0-856f-ea9bd22c082c","ios":"levelo://app?vid=df5b38d2-64cb-4df0-856f-ea9bd22c082c"},"vehicle_type_id":"4","last_reported":1727201506,"current_range_meters":10800,"station_id":"ce4bhu92rcd13ifvqi70","pricing_plan_id":"cebpf4jnsgd1na2vs0mg"},{"bike_id":"9f0410b7-e525-46d8-a6f2-5e869c48f16d","system_id":"levelo_inurba_marseille","lat":43.23153,"lon":5.43708,"is_reserved":false,"is_disabled":false,"rental_uris":{"android":"levelo://app?vid=9f0410b7-e525-46d8-a6f2-5e869c48f16d","ios":"levelo://app?vid=9f0410b7-e525-46d8-a6f2-5e869c48f16d"},"vehicle_type_id":"4","last_reported":1727201506,"current_range_meters":15200,"station_id":"ce4bhmp2rcd13ifvqgog","pricing_plan_id":"cebpf4jnsgd1na2vs0mg"},{"bike_id":"663d76f6-33df-46cf-8e0c-d5b83567a5c9","system_id":"levelo_inurba_marseille","lat":43.29578,"lon":5.39988,"is_reserved":false,"is_disabled":false,"rental_uris":{"android":"levelo://app?vid=663d76f6-33df-46cf-8e0c-d5b83567a5c9","ios":"levelo://app?vid=663d76f6-33df-46cf-8e0c-d5b83567a5c9"},"vehicle_type_id":"4","last_reported":1727201506,"current_range_meters":6000,"station_id":"ce4bh312rcd13ifvqdj0","pricing_plan_id":"cebpf4jnsgd1na2vs0mg"},{"bike_id":"17b1cd1a-7803-4ca9-91f3-73c4fa44f09e","system_id":"levelo_inurba_marseille","lat":43.29554,"lon":5.42286,"is_reserved":false,"is_disabled":false,"rental_uris":{"android":"levelo://app?vid=17b1cd1a-7803-4ca9-91f3-73c4fa44f09e","ios":"levelo://app?vid=17b1cd1a-7803-4ca9-91f3-73c4fa44f09e"},"vehicle_type_id":"4","last_reported":1727201506,"current_range_meters":7200,"station_id":"ce4bhph2rcd13ifvqhdg","pricing_plan_id":"cebpf4jnsgd1na2vs0mg"},{"bike_id":"83bc7326-175e-4303-97b7-756f4e3d670e","system_id":"levelo_inurba_marseille","lat":43.27377,"lon":5.36257,"is_reserved":false,"is_disabled":false,"rental_uris":{"android":"levelo://app?vid=83bc7326-175e-4303-97b7-756f4e3d670e","ios":"levelo://app?vid=83bc7326-175e-4303-97b7-756f4e3d670e"},"vehicle_type_id":"4","last_reported":1727201506,"current_range_meters":22000,"station_id":"ce4bhbh2rcd13ifvqeo0","pricing_plan_id":"cebpf4jnsgd1na2vs0mg"},{"bike_id":"b859d033-1095-4e5e-a6d2-faa05166d5e6","system_id":"levelo_inurba_marseille","lat":43.29435,"lon":5.39752,"is_reserved":false,"is_disabled":false,"rental_uris":{"android":"levelo://app?vid=b859d033-1095-4e5e-a6d2-faa05166d5e6","ios":"levelo://app?vid=b859d033-1095-4e5e-a6d2-faa05166d5e6"},"vehicle_type_id":"4","last_reported":1727201506,"current_range_meters":3200,"station_id":"ce4bh3h2rcd13ifvqdo0","pricing_plan_id":"cebpf4jnsgd1na2vs0mg"},{"bike_id":"1ac5bb6b-19e1-4053-8485-115683899a12","system_id":"levelo_inurba_marseille","lat":43.31167,"lon":5.38718,"is_reserved":false,"is_disabled":false,"rental_uris":{"android":"levelo://app?vid=1ac5bb6b-19e1-4053-8485-115683899a12","ios":"levelo://app?vid=1ac5bb6b-19e1-4053-8485-115683899a12"},"vehicle_type_id":"4","last_reported":1727201506,"current_range_meters":24000,"station_id":"ce4bgv12rcd13ifvqcp0","pricing_plan_id":"cebpf4jnsgd1na2vs0mg"},{"bike_id":"8e2ed437-a79e-4ecb-9f43-b77398df59a2","system_id":"levelo_inurba_marseille","lat":43.27998,"lon":5.40026,"is_reserved":false,"is_disabled":false,"rental_uris":{"android":"levelo://app?vid=8e2ed437-a79e-4ecb-9f43-b77398df59a2","ios":"levelo://app?vid=8e2ed437-a79e-4ecb-9f43-b77398df59a2"},"vehicle_type_id":"4","last_reported":1727201506,"current_range_meters":6800,"station_id":"ce4bho92rcd13ifvqh4g","pricing_plan_id":"cebpf4jnsgd1na2vs0mg"},{"bike_id":"c39b9ebf-3474-4128-98e6-09b47ddcbf97","system_id":"levelo_inurba_marseille","lat":43.2707,"lon":5.42281,"is_reserved":false,"is_disabled":false,"rental_uris":{"android":"levelo://app?vid=c39b9ebf-3474-4128-98e6-09b47ddcbf97","ios":"levelo://app?vid=c39b9ebf-3474-4128-98e6-09b47ddcbf97"},"vehicle_type_id":"4","last_reported":1727201506,"current_range_meters":8400,"station_id":"ce4bhk92rcd13ifvqgb0","pricing_plan_id":"cebpf4jnsgd1na2vs0mg"},{"bike_id":"81fe2cdc-578f-4aef-b667-c4b7e0aa10ee","system_id":"levelo_inurba_marseille","lat":43.3064,"lon":5.40102,"is_reserved":false,"is_disabled":false,"rental_uris":{"android":"levelo://app?vid=81fe2cdc-578f-4aef-b667-c4b7e0aa10ee","ios":"levelo://app?vid=81fe2cdc-578f-4aef-b667-c4b7e0aa10ee"},"vehicle_type_id":"4","last_reported":1727201506,"current_range_meters":9600,"station_id":"ce4bh112rcd13ifvqda0","pricing_plan_id":"cebpf4jnsgd1na2vs0mg"},{"bike_id":"4013d596-48e6-42e5-835e-395cfb91bcd7","system_id":"levelo_inurba_marseille","lat":43.29421,"lon":5.38623,"is_reserved":false,"is_disabled":false,"rental_uris":{"android":"levelo://app?vid=4013d596-48e6-42e5-835e-395cfb91bcd7","ios":"levelo://app?vid=4013d596-48e6-42e5-835e-395cfb91bcd7"},"vehicle_type_id":"4","last_reported":1727201506,"current_range_meters":22400,"station_id":"ce4bh2h2rcd13ifvqdh0","pricing_plan_id":"cebpf4jnsgd1na2vs0mg"},{"bike_id":"b1f73128-5271-43d8-af34-94e10e3b804a","system_id":"levelo_inurba_marseille","lat":43.33129,"lon":5.39081,"is_reserved":false,"is_disabled":false,"rental_uris":{"android":"levelo://app?vid=b1f73128-5271-43d8-af34-94e10e3b804a","ios":"levelo://app?vid=b1f73128-5271-43d8-af34-94e10e3b804a"},"vehicle_type_id":"4","last_reported":1727201506,"current_range_meters":38800,"station_id":"","pricing_plan_id":"cebpf4jnsgd1na2vs0mg"},{"bike_id":"182bc544-672f-4d14-b4ec-d38b5c05b37f","system_id":"levelo_inurba_marseille","lat":43.29081,"lon":5.37152,"is_reserved":false,"is_disabled":false,"rental_uris":{"android":"levelo://app?vid=182bc544-672f-4d14-b4ec-d38b5c05b37f","ios":"levelo://app?vid=182bc544-672f-4d14-b4ec-d38b5c05b37f"},"vehicle_type_id":"4","last_reported":1727201506,"current_range_meters":14800,"station_id":"ce4bh5p2rcd13ifvqe4g","pricing_plan_id":"cebpf4jnsgd1na2vs0mg"},{"bike_id":"a1d82605-350d-4120-889c-7761b40719ec","system_id":"levelo_inurba_marseille","lat":43.32105,"lon":5.36768,"is_reserved":false,"is_disabled":false,"rental_uris":{"android":"levelo://app?vid=a1d82605-350d-4120-889c-7761b40719ec","ios":"levelo://app?vid=a1d82605-350d-4120-889c-7761b40719ec"},"vehicle_type_id":"4","last_reported":1727201506,"current_range_meters":24800,"station_id":"ce4bhrh2rcd13ifvqhug","pricing_plan_id":"cebpf4jnsgd1na2vs0mg"},{"bike_id":"264fd858-8510-4bee-9fe6-621719c570c3","system_id":"levelo_inurba_marseille","lat":43.28151,"lon":5.42645,"is_reserved":false,"is_disabled":false,"rental_uris":{"android":"levelo://app?vid=264fd858-8510-4bee-9fe6-621719c570c3","ios":"levelo://app?vid=264fd858-8510-4bee-9fe6-621719c570c3"},"vehicle_type_id":"4","last_reported":1727201506,"current_range_meters":16800,"station_id":"ce4bhnh2rcd13ifvqgug","pricing_plan_id":"cebpf4jnsgd1na2vs0mg"},{"bike_id":"9fbf48b7-8efe-482d-9e8c-afafd6f0902f","system_id":"levelo_inurba_marseille","lat":43.27998,"lon":5.40014,"is_reserved":false,"is_disabled":false,"rental_uris":{"android":"levelo://app?vid=9fbf48b7-8efe-482d-9e8c-afafd6f0902f","ios":"levelo://app?vid=9fbf48b7-8efe-482d-9e8c-afafd6f0902f"},"vehicle_type_id":"4","last_reported":1727201506,"current_range_meters":10800,"station_id":"ce4bho92rcd13ifvqh4g","pricing_plan_id":"cebpf4jnsgd1na2vs0mg"},{"bike_id":"26be7a40-51ac-4890-8b66-a0c532bdfd1d","system_id":"levelo_inurba_marseille","lat":43.29418,"lon":5.38622,"is_reserved":false,"is_disabled":false,"rental_uris":{"android":"levelo://app?vid=26be7a40-51ac-4890-8b66-a0c532bdfd1d","ios":"levelo://app?vid=26be7a40-51ac-4890-8b66-a0c532bdfd1d"},"vehicle_type_id":"4","last_reported":1727201506,"current_range_meters":11200,"station_id":"ce4bh2h2rcd13ifvqdh0","pricing_plan_id":"cebpf4jnsgd1na2vs0mg"},{"bike_id":"c0c4ac2c-dbd6-405c-ae94-75c9c39bd7ab","system_id":"levelo_inurba_marseille","lat":43.25082,"lon":5.39511,"is_reserved":false,"is_disabled":false,"rental_uris":{"android":"levelo://app?vid=c0c4ac2c-dbd6-405c-ae94-75c9c39bd7ab","ios":"levelo://app?vid=c0c4ac2c-dbd6-405c-ae94-75c9c39bd7ab"},"vehicle_type_id":"4","last_reported":1727201506,"current_range_meters":32400,"station_id":"ce4bhm12rcd13ifvqgkg","pricing_plan_id":"cebpf4jnsgd1na2vs0mg"},{"bike_id":"40cbaf0e-0ed2-4a61-8331-eaac712eaaa1","system_id":"levelo_inurba_marseille","lat":43.28729,"lon":5.37932,"is_reserved":false,"is_disabled":false,"rental_uris":{"android":"levelo://app?vid=40cbaf0e-0ed2-4a61-8331-eaac712eaaa1","ios":"levelo://app?vid=40cbaf0e-0ed2-4a61-8331-eaac712eaaa1"},"vehicle_type_id":"4","last_reported":1727201506,"current_range_meters":12000,"station_id":"ce4bh9p2rcd13ifvqec0","pricing_plan_id":"cebpf4jnsgd1na2vs0mg"},{"bike_id":"1166f6b1-5b87-4bc1-b21d-c61655b2fee0","system_id":"levelo_inurba_marseille","lat":43.29452,"lon":5.38074,"is_reserved":false,"is_disabled":false,"rental_uris":{"android":"levelo://app?vid=1166f6b1-5b87-4bc1-b21d-c61655b2fee0","ios":"levelo://app?vid=1166f6b1-5b87-4bc1-b21d-c61655b2fee0"},"vehicle_type_id":"4","last_reported":1727201506,"current_range_meters":37600,"station_id":"","pricing_plan_id":"cebpf4jnsgd1na2vs0mg"},{"bike_id":"e1795019-8f30-497c-8957-dd02477936ec","system_id":"levelo_inurba_marseille","lat":43.27993,"lon":5.40017,"is_reserved":false,"is_disabled":false,"rental_uris":{"android":"levelo://app?vid=e1795019-8f30-497c-8957-dd02477936ec","ios":"levelo://app?vid=e1795019-8f30-497c-8957-dd02477936ec"},"vehicle_type_id":"4","last_reported":1727201506,"current_range_meters":32800,"station_id":"ce4bho92rcd13ifvqh4g","pricing_plan_id":"cebpf4jnsgd1na2vs0mg"},{"bike_id":"6cf02193-3ded-4cde-a5e9-273e1e7f9133","system_id":"levelo_inurba_marseille","lat":43.308,"lon":5.43518,"is_reserved":false,"is_disabled":false,"rental_uris":{"android":"levelo://app?vid=6cf02193-3ded-4cde-a5e9-273e1e7f9133","ios":"levelo://app?vid=6cf02193-3ded-4cde-a5e9-273e1e7f9133"},"vehicle_type_id":"4","last_reported":1727201506,"current_range_meters":27600,"station_id":"ce4bhph2rcd13ifvqheg","pricing_plan_id":"cebpf4jnsgd1na2vs0mg"},{"bike_id":"804881f4-515c-4f02-b25a-0e92e9a53ffd","system_id":"levelo_inurba_marseille","lat":43.28704,"lon":5.3999,"is_reserved":false,"is_disabled":false,"rental_uris":{"android":"levelo://app?vid=804881f4-515c-4f02-b25a-0e92e9a53ffd","ios":"levelo://app?vid=804881f4-515c-4f02-b25a-0e92e9a53ffd"},"vehicle_type_id":"4","last_reported":1727201506,"current_range_meters":11600,"station_id":"ce4bho92rcd13ifvqh3g","pricing_plan_id":"cebpf4jnsgd1na2vs0mg"},{"bike_id":"6b760b31-0017-479c-a794-e0b0be1b2962","system_id":"levelo_inurba_marseille","lat":43.29199,"lon":5.39313,"is_reserved":false,"is_disabled":false,"rental_uris":{"android":"levelo://app?vid=6b760b31-0017-479c-a794-e0b0be1b2962","ios":"levelo://app?vid=6b760b31-0017-479c-a794-e0b0be1b2962"},"vehicle_type_id":"4","last_reported":1727201506,"current_range_meters":19200,"station_id":"ce4bh192rcd13ifvqdd0","pricing_plan_id":"cebpf4jnsgd1na2vs0mg"},{"bike_id":"c517eafc-0d84-46c5-8fed-1b42b71b7911","system_id":"levelo_inurba_marseille","lat":43.31753,"lon":5.39024,"is_reserved":false,"is_disabled":false,"rental_uris":{"android":"levelo://app?vid=c517eafc-0d84-46c5-8fed-1b42b71b7911","ios":"levelo://app?vid=c517eafc-0d84-46c5-8fed-1b42b71b7911"},"vehicle_type_id":"4","last_reported":1727201506,"current_range_meters":16400,"station_id":"ce4bhqp2rcd13ifvqhng","pricing_plan_id":"cebpf4jnsgd1na2vs0mg"},{"bike_id":"26c2aed2-aaa8-4e2d-9818-cb1c3fb87147","system_id":"levelo_inurba_marseille","lat":43.24996,"lon":5.38939,"is_reserved":false,"is_disabled":false,"rental_uris":{"android":"levelo://app?vid=26c2aed2-aaa8-4e2d-9818-cb1c3fb87147","ios":"levelo://app?vid=26c2aed2-aaa8-4e2d-9818-cb1c3fb87147"},"vehicle_type_id":"4","last_reported":1727201506,"current_range_meters":6800,"station_id":"ce4bhgp2rcd13ifvqfd0","pricing_plan_id":"cebpf4jnsgd1na2vs0mg"},{"bike_id":"5d22d37c-c8d4-4feb-8685-bf150cafbdc6","system_id":"levelo_inurba_marseille","lat":43.24067,"lon":5.37769,"is_reserved":false,"is_disabled":false,"rental_uris":{"android":"levelo://app?vid=5d22d37c-c8d4-4feb-8685-bf150cafbdc6","ios":"levelo://app?vid=5d22d37c-c8d4-4feb-8685-bf150cafbdc6"},"vehicle_type_id":"4","last_reported":1727201506,"current_range_meters":22800,"station_id":"ce4bhnp2rcd13ifvqgvg","pricing_plan_id":"cebpf4jnsgd1na2vs0mg"},{"bike_id":"39c1b1bf-8eab-4c8e-b9dd-67f66c5b1626","system_id":"levelo_inurba_marseille","lat":43.28475,"lon":5.384226,"is_reserved":false,"is_disabled":false,"rental_uris":{"android":"levelo://app?vid=39c1b1bf-8eab-4c8e-b9dd-67f66c5b1626","ios":"levelo://app?vid=39c1b1bf-8eab-4c8e-b9dd-67f66c5b1626"},"vehicle_type_id":"4","last_reported":1727201506,"current_range_meters":32400,"station_id":"ce4bh0h2rcd13ifvqd60","pricing_plan_id":"cebpf4jnsgd1na2vs0mg"},{"bike_id":"17701005-77c3-4e4f-a0b4-b2ece630517d","system_id":"levelo_inurba_marseille","lat":43.23956,"lon":5.36633,"is_reserved":false,"is_disabled":false,"rental_uris":{"android":"levelo://app?vid=17701005-77c3-4e4f-a0b4-b2ece630517d","ios":"levelo://app?vid=17701005-77c3-4e4f-a0b4-b2ece630517d"},"vehicle_type_id":"4","last_reported":1727201506,"current_range_meters":38800,"station_id":"ce4bhi12rcd13ifvqfp0","pricing_plan_id":"cebpf4jnsgd1na2vs0mg"},{"bike_id":"a6e400e4-8f19-4182-9b1b-6ce0a2b5e205","system_id":"levelo_inurba_marseille","lat":43.29194,"lon":5.35792,"is_reserved":false,"is_disabled":false,"rental_uris":{"android":"levelo://app?vid=a6e400e4-8f19-4182-9b1b-6ce0a2b5e205","ios":"levelo://app?vid=a6e400e4-8f19-4182-9b1b-6ce0a2b5e205"},"vehicle_type_id":"4","last_reported":1727201506,"current_range_meters":3200,"station_id":"ce4bhb12rcd13ifvqel0","pricing_plan_id":"cebpf4jnsgd1na2vs0mg"},{"bike_id":"c8e2e608-f468-4c9b-9708-10e6f0f0d98d","system_id":"levelo_inurba_marseille","lat":43.247925,"lon":5.374493,"is_reserved":false,"is_disabled":false,"rental_uris":{"android":"levelo://app?vid=c8e2e608-f468-4c9b-9708-10e6f0f0d98d","ios":"levelo://app?vid=c8e2e608-f468-4c9b-9708-10e6f0f0d98d"},"vehicle_type_id":"4","last_reported":1727201506,"current_range_meters":7200,"station_id":"ce4bhgh2rcd13ifvqfb0","pricing_plan_id":"cebpf4jnsgd1na2vs0mg"},{"bike_id":"c60901a6-e0c0-4f7e-851a-f54a10f5276f","system_id":"levelo_inurba_marseille","lat":43.25821,"lon":5.39437,"is_reserved":false,"is_disabled":false,"rental_uris":{"android":"levelo://app?vid=c60901a6-e0c0-4f7e-851a-f54a10f5276f","ios":"levelo://app?vid=c60901a6-e0c0-4f7e-851a-f54a10f5276f"},"vehicle_type_id":"4","last_reported":1727201506,"current_range_meters":10000,"station_id":"ce4bhip2rcd13ifvqft0","pricing_plan_id":"cebpf4jnsgd1na2vs0mg"},{"bike_id":"f6772e1c-2045-4ce1-ac75-1e0729f685d3","system_id":"levelo_inurba_marseille","lat":43.29713,"lon":5.36603,"is_reserved":false,"is_disabled":false,"rental_uris":{"android":"levelo://app?vid=f6772e1c-2045-4ce1-ac75-1e0729f685d3","ios":"levelo://app?vid=f6772e1c-2045-4ce1-ac75-1e0729f685d3"},"vehicle_type_id":"4","last_reported":1727201506,"current_range_meters":16400,"station_id":"ce4bgn12rcd13ifvqbt0","pricing_plan_id":"cebpf4jnsgd1na2vs0mg"},{"bike_id":"a03da877-d0c9-4238-ac2c-d33d34852b62","system_id":"levelo_inurba_marseille","lat":43.32336,"lon":5.40621,"is_reserved":false,"is_disabled":false,"rental_uris":{"android":"levelo://app?vid=a03da877-d0c9-4238-ac2c-d33d34852b62","ios":"levelo://app?vid=a03da877-d0c9-4238-ac2c-d33d34852b62"},"vehicle_type_id":"4","last_reported":1727201506,"current_range_meters":10800,"station_id":"ce4bhq92rcd13ifvqhjg","pricing_plan_id":"cebpf4jnsgd1na2vs0mg"},{"bike_id":"d5aa1add-115d-4e1a-b824-66ecde93a367","system_id":"levelo_inurba_marseille","lat":43.24082,"lon":5.37759,"is_reserved":false,"is_disabled":false,"rental_uris":{"android":"levelo://app?vid=d5aa1add-115d-4e1a-b824-66ecde93a367","ios":"levelo://app?vid=d5aa1add-115d-4e1a-b824-66ecde93a367"},"vehicle_type_id":"4","last_reported":1727201506,"current_range_meters":6000,"station_id":"ce4bhnp2rcd13ifvqgvg","pricing_plan_id":"cebpf4jnsgd1na2vs0mg"},{"bike_id":"a7bca3df-0344-4204-86d7-b742d4769839","system_id":"levelo_inurba_marseille","lat":43.30863,"lon":5.3685,"is_reserved":false,"is_disabled":false,"rental_uris":{"android":"levelo://app?vid=a7bca3df-0344-4204-86d7-b742d4769839","ios":"levelo://app?vid=a7bca3df-0344-4204-86d7-b742d4769839"},"vehicle_type_id":"4","last_reported":1727201506,"current_range_meters":32000,"station_id":"ce4bgn92rcd13ifvqbvg","pricing_plan_id":"cebpf4jnsgd1na2vs0mg"},{"bike_id":"9b540e7a-4a10-493c-9a54-7177a36f5c46","system_id":"levelo_inurba_marseille","lat":43.2871,"lon":5.37944,"is_reserved":false,"is_disabled":false,"rental_uris":{"android":"levelo://app?vid=9b540e7a-4a10-493c-9a54-7177a36f5c46","ios":"levelo://app?vid=9b540e7a-4a10-493c-9a54-7177a36f5c46"},"vehicle_type_id":"4","last_reported":1727201506,"current_range_meters":800,"station_id":"ce4bh9p2rcd13ifvqec0","pricing_plan_id":"cebpf4jnsgd1na2vs0mg"},{"bike_id":"14bb3ee1-8dcf-4ea8-bda7-4684bef163ee","system_id":"levelo_inurba_marseille","lat":43.31753,"lon":5.39017,"is_reserved":false,"is_disabled":false,"rental_uris":{"android":"levelo://app?vid=14bb3ee1-8dcf-4ea8-bda7-4684bef163ee","ios":"levelo://app?vid=14bb3ee1-8dcf-4ea8-bda7-4684bef163ee"},"vehicle_type_id":"4","last_reported":1727201506,"current_range_meters":32000,"station_id":"ce4bhqp2rcd13ifvqhng","pricing_plan_id":"cebpf4jnsgd1na2vs0mg"},{"bike_id":"95611a06-1045-452e-9a52-0c6085206603","system_id":"levelo_inurba_marseille","lat":43.290131,"lon":5.356613,"is_reserved":false,"is_disabled":false,"rental_uris":{"android":"levelo://app?vid=95611a06-1045-452e-9a52-0c6085206603","ios":"levelo://app?vid=95611a06-1045-452e-9a52-0c6085206603"},"vehicle_type_id":"4","last_reported":1727201506,"current_range_meters":14400,"station_id":"ce4bh692rcd13ifvqe90","pricing_plan_id":"cebpf4jnsgd1na2vs0mg"},{"bike_id":"37ea3e6e-16e9-42b3-b4f9-836c84a7a894","system_id":"levelo_inurba_marseille","lat":43.23181,"lon":5.39989,"is_reserved":false,"is_disabled":false,"rental_uris":{"android":"levelo://app?vid=37ea3e6e-16e9-42b3-b4f9-836c84a7a894","ios":"levelo://app?vid=37ea3e6e-16e9-42b3-b4f9-836c84a7a894"},"vehicle_type_id":"4","last_reported":1727201506,"current_range_meters":33200,"station_id":"ce4bhn12rcd13ifvqgqg","pricing_plan_id":"cebpf4jnsgd1na2vs0mg"},{"bike_id":"337d797f-5bad-4e42-a3a9-741eceae0aa0","system_id":"levelo_inurba_marseille","lat":43.33716,"lon":5.39179,"is_reserved":false,"is_disabled":false,"rental_uris":{"android":"levelo://app?vid=337d797f-5bad-4e42-a3a9-741eceae0aa0","ios":"levelo://app?vid=337d797f-5bad-4e42-a3a9-741eceae0aa0"},"vehicle_type_id":"4","last_reported":1727201506,"current_range_meters":36000,"station_id":"ce4bhr92rcd13ifvqhsg","pricing_plan_id":"cebpf4jnsgd1na2vs0mg"},{"bike_id":"7d13bfe6-cac1-417a-a866-11f3f6431dbc","system_id":"levelo_inurba_marseille","lat":43.28793,"lon":5.3702,"is_reserved":false,"is_disabled":false,"rental_uris":{"android":"levelo://app?vid=7d13bfe6-cac1-417a-a866-11f3f6431dbc","ios":"levelo://app?vid=7d13bfe6-cac1-417a-a866-11f3f6431dbc"},"vehicle_type_id":"4","last_reported":1727201506,"current_range_meters":30800,"station_id":"ce4bht12rcd13ifvqi60","pricing_plan_id":"cebpf4jnsgd1na2vs0mg"},{"bike_id":"45641fc1-bc2d-41da-a40a-cf9d6a338912","system_id":"levelo_inurba_marseille","lat":43.29168,"lon":5.3716,"is_reserved":false,"is_disabled":false,"rental_uris":{"android":"levelo://app?vid=45641fc1-bc2d-41da-a40a-cf9d6a338912","ios":"levelo://app?vid=45641fc1-bc2d-41da-a40a-cf9d6a338912"},"vehicle_type_id":"4","last_reported":1727201506,"current_range_meters":4800,"station_id":"ce4bha92rcd13ifvqeh0","pricing_plan_id":"cebpf4jnsgd1na2vs0mg"},{"bike_id":"4a4bfd88-bdfc-4802-b3a8-e798e4274727","system_id":"levelo_inurba_marseille","lat":43.32289,"lon":5.3827,"is_reserved":false,"is_disabled":false,"rental_uris":{"android":"levelo://app?vid=4a4bfd88-bdfc-4802-b3a8-e798e4274727","ios":"levelo://app?vid=4a4bfd88-bdfc-4802-b3a8-e798e4274727"},"vehicle_type_id":"4","last_reported":1727201506,"current_range_meters":32400,"station_id":"ce4bhr12rcd13ifvqhqg","pricing_plan_id":"cebpf4jnsgd1na2vs0mg"},{"bike_id":"86898526-a4d9-47cf-b306-df317b0d9e78","system_id":"levelo_inurba_marseille","lat":43.23195,"lon":5.35556,"is_reserved":false,"is_disabled":false,"rental_uris":{"android":"levelo://app?vid=86898526-a4d9-47cf-b306-df317b0d9e78","ios":"levelo://app?vid=86898526-a4d9-47cf-b306-df317b0d9e78"},"vehicle_type_id":"4","last_reported":1727201506,"current_range_meters":23200,"station_id":"ce4bhu92rcd13ifvqi70","pricing_plan_id":"cebpf4jnsgd1na2vs0mg"},{"bike_id":"74908c3e-ee58-4245-ac9b-30b5da1fe781","system_id":"levelo_inurba_marseille","lat":43.28459,"lon":5.35883,"is_reserved":false,"is_disabled":false,"rental_uris":{"android":"levelo://app?vid=74908c3e-ee58-4245-ac9b-30b5da1fe781","ios":"levelo://app?vid=74908c3e-ee58-4245-ac9b-30b5da1fe781"},"vehicle_type_id":"4","last_reported":1727201506,"current_range_meters":16400,"station_id":"ce4bhah2rcd13ifvqei0","pricing_plan_id":"cebpf4jnsgd1na2vs0mg"},{"bike_id":"9ac9d415-314c-47c9-83c9-409ec35ee620","system_id":"levelo_inurba_marseille","lat":43.2407,"lon":5.37762,"is_reserved":false,"is_disabled":false,"rental_uris":{"android":"levelo://app?vid=9ac9d415-314c-47c9-83c9-409ec35ee620","ios":"levelo://app?vid=9ac9d415-314c-47c9-83c9-409ec35ee620"},"vehicle_type_id":"4","last_reported":1727201506,"current_range_meters":6000,"station_id":"ce4bhnp2rcd13ifvqgvg","pricing_plan_id":"cebpf4jnsgd1na2vs0mg"},{"bike_id":"2182745b-13df-4c49-a9f7-2a798f35e947","system_id":"levelo_inurba_marseille","lat":43.23963,"lon":5.36636,"is_reserved":false,"is_disabled":false,"rental_uris":{"android":"levelo://app?vid=2182745b-13df-4c49-a9f7-2a798f35e947","ios":"levelo://app?vid=2182745b-13df-4c49-a9f7-2a798f35e947"},"vehicle_type_id":"4","last_reported":1727201506,"current_range_meters":28400,"station_id":"ce4bhi12rcd13ifvqfp0","pricing_plan_id":"cebpf4jnsgd1na2vs0mg"},{"bike_id":"366d28fc-9007-4a28-af76-0b1003d1aeba","system_id":"levelo_inurba_marseille","lat":43.31328,"lon":5.397,"is_reserved":false,"is_disabled":false,"rental_uris":{"android":"levelo://app?vid=366d28fc-9007-4a28-af76-0b1003d1aeba","ios":"levelo://app?vid=366d28fc-9007-4a28-af76-0b1003d1aeba"},"vehicle_type_id":"4","last_reported":1727201506,"current_range_meters":36400,"station_id":"ce4bgvp2rcd13ifvqcu0","pricing_plan_id":"cebpf4jnsgd1na2vs0mg"},{"bike_id":"ede37da0-431f-462e-af97-45c71435ab2a","system_id":"levelo_inurba_marseille","lat":43.24176,"lon":5.39707,"is_reserved":false,"is_disabled":false,"rental_uris":{"android":"levelo://app?vid=ede37da0-431f-462e-af97-45c71435ab2a","ios":"levelo://app?vid=ede37da0-431f-462e-af97-45c71435ab2a"},"vehicle_type_id":"4","last_reported":1727201506,"current_range_meters":24800,"station_id":"ce4bhn12rcd13ifvqgpg","pricing_plan_id":"cebpf4jnsgd1na2vs0mg"},{"bike_id":"0f3cbd61-3558-474a-857a-5940b614411a","system_id":"levelo_inurba_marseille","lat":43.301425,"lon":5.374188,"is_reserved":false,"is_disabled":false,"rental_uris":{"android":"levelo://app?vid=0f3cbd61-3558-474a-857a-5940b614411a","ios":"levelo://app?vid=0f3cbd61-3558-474a-857a-5940b614411a"},"vehicle_type_id":"4","last_reported":1727201506,"current_range_meters":0,"station_id":"ce4bgs92rcd13ifvqcc0","pricing_plan_id":"cebpf4jnsgd1na2vs0mg"},{"bike_id":"9559b53b-c56e-48cd-8fc6-433930529f8d","system_id":"levelo_inurba_marseille","lat":43.27911,"lon":5.39585,"is_reserved":false,"is_disabled":false,"rental_uris":{"android":"levelo://app?vid=9559b53b-c56e-48cd-8fc6-433930529f8d","ios":"levelo://app?vid=9559b53b-c56e-48cd-8fc6-433930529f8d"},"vehicle_type_id":"4","last_reported":1727201506,"current_range_meters":27600,"station_id":"ce4bhf92rcd13ifvqf40","pricing_plan_id":"cebpf4jnsgd1na2vs0mg"},{"bike_id":"caad4c4d-3e6f-4fe9-9b2b-d88e2024fef7","system_id":"levelo_inurba_marseille","lat":43.293391,"lon":5.374516,"is_reserved":false,"is_disabled":false,"rental_uris":{"android":"levelo://app?vid=caad4c4d-3e6f-4fe9-9b2b-d88e2024fef7","ios":"levelo://app?vid=caad4c4d-3e6f-4fe9-9b2b-d88e2024fef7"},"vehicle_type_id":"4","last_reported":1727201506,"current_range_meters":12000,"station_id":"ce4bh2p2rcd13ifvqdi0","pricing_plan_id":"cebpf4jnsgd1na2vs0mg"},{"bike_id":"9355b769-996d-4f4f-b5dd-c0b8373b1b70","system_id":"levelo_inurba_marseille","lat":43.31316,"lon":5.39712,"is_reserved":false,"is_disabled":false,"rental_uris":{"android":"levelo://app?vid=9355b769-996d-4f4f-b5dd-c0b8373b1b70","ios":"levelo://app?vid=9355b769-996d-4f4f-b5dd-c0b8373b1b70"},"vehicle_type_id":"4","last_reported":1727201506,"current_range_meters":24400,"station_id":"ce4bgvp2rcd13ifvqcu0","pricing_plan_id":"cebpf4jnsgd1na2vs0mg"},{"bike_id":"645e99ef-1ad1-4b43-8526-e858edc92285","system_id":"levelo_inurba_marseille","lat":43.285736,"lon":5.395004,"is_reserved":false,"is_disabled":false,"rental_uris":{"android":"levelo://app?vid=645e99ef-1ad1-4b43-8526-e858edc92285","ios":"levelo://app?vid=645e99ef-1ad1-4b43-8526-e858edc92285"},"vehicle_type_id":"4","last_reported":1727201506,"current_range_meters":31200,"station_id":"ce4bh292rcd13ifvqdg0","pricing_plan_id":"cebpf4jnsgd1na2vs0mg"},{"bike_id":"9772998c-2089-4fea-ad97-2dcfbb28f75e","system_id":"levelo_inurba_marseille","lat":43.28727,"lon":5.3608,"is_reserved":false,"is_disabled":false,"rental_uris":{"android":"levelo://app?vid=9772998c-2089-4fea-ad97-2dcfbb28f75e","ios":"levelo://app?vid=9772998c-2089-4fea-ad97-2dcfbb28f75e"},"vehicle_type_id":"4","last_reported":1727201506,"current_range_meters":16000,"station_id":"cki0cbj6b192h4jlfktg","pricing_plan_id":"cebpf4jnsgd1na2vs0mg"},{"bike_id":"ca01abf1-be19-44e8-b135-6c2b31a7b934","system_id":"levelo_inurba_marseille","lat":43.29563,"lon":5.38517,"is_reserved":false,"is_disabled":false,"rental_uris":{"android":"levelo://app?vid=ca01abf1-be19-44e8-b135-6c2b31a7b934","ios":"levelo://app?vid=ca01abf1-be19-44e8-b135-6c2b31a7b934"},"vehicle_type_id":"4","last_reported":1727201506,"current_range_meters":38800,"station_id":"","pricing_plan_id":"cebpf4jnsgd1na2vs0mg"},{"bike_id":"f04b5f1e-54e7-4aeb-97f0-ecf0bbe49086","system_id":"levelo_inurba_marseille","lat":43.27941,"lon":5.41054,"is_reserved":false,"is_disabled":false,"rental_uris":{"android":"levelo://app?vid=f04b5f1e-54e7-4aeb-97f0-ecf0bbe49086","ios":"levelo://app?vid=f04b5f1e-54e7-4aeb-97f0-ecf0bbe49086"},"vehicle_type_id":"4","last_reported":1727201506,"current_range_meters":2000,"station_id":"ce4bhnp2rcd13ifvqh0g","pricing_plan_id":"cebpf4jnsgd1na2vs0mg"},{"bike_id":"dc0c13c9-3471-4327-8a75-c86213fe27d7","system_id":"levelo_inurba_marseille","lat":43.2832,"lon":5.40159,"is_reserved":false,"is_disabled":false,"rental_uris":{"android":"levelo://app?vid=dc0c13c9-3471-4327-8a75-c86213fe27d7","ios":"levelo://app?vid=dc0c13c9-3471-4327-8a75-c86213fe27d7"},"vehicle_type_id":"4","last_reported":1727201506,"current_range_meters":22800,"station_id":"","pricing_plan_id":"cebpf4jnsgd1na2vs0mg"},{"bike_id":"43c26b03-5857-406f-b065-434d526f0a1d","system_id":"levelo_inurba_marseille","lat":43.288666,"lon":5.358661,"is_reserved":false,"is_disabled":false,"rental_uris":{"android":"levelo://app?vid=43c26b03-5857-406f-b065-434d526f0a1d","ios":"levelo://app?vid=43c26b03-5857-406f-b065-434d526f0a1d"},"vehicle_type_id":"4","last_reported":1727201506,"current_range_meters":6000,"station_id":"ce4bhb12rcd13ifvqem0","pricing_plan_id":"cebpf4jnsgd1na2vs0mg"},{"bike_id":"387b39ff-ea7f-4a2f-b358-2b5e139dc1c9","system_id":"levelo_inurba_marseille","lat":43.2862,"lon":5.35103,"is_reserved":false,"is_disabled":false,"rental_uris":{"android":"levelo://app?vid=387b39ff-ea7f-4a2f-b358-2b5e139dc1c9","ios":"levelo://app?vid=387b39ff-ea7f-4a2f-b358-2b5e139dc1c9"},"vehicle_type_id":"4","last_reported":1727201506,"current_range_meters":36000,"station_id":"ce4bhch2rcd13ifvqeug","pricing_plan_id":"cebpf4jnsgd1na2vs0mg"},{"bike_id":"3cdb199b-bacd-44b6-8eed-476c74758fbd","system_id":"levelo_inurba_marseille","lat":43.32106,"lon":5.36768,"is_reserved":false,"is_disabled":false,"rental_uris":{"android":"levelo://app?vid=3cdb199b-bacd-44b6-8eed-476c74758fbd","ios":"levelo://app?vid=3cdb199b-bacd-44b6-8eed-476c74758fbd"},"vehicle_type_id":"4","last_reported":1727201506,"current_range_meters":28800,"station_id":"ce4bhrh2rcd13ifvqhug","pricing_plan_id":"cebpf4jnsgd1na2vs0mg"},{"bike_id":"bb027222-2f98-4f9f-bb4d-042285e1902e","system_id":"levelo_inurba_marseille","lat":43.28347,"lon":5.38111,"is_reserved":false,"is_disabled":false,"rental_uris":{"android":"levelo://app?vid=bb027222-2f98-4f9f-bb4d-042285e1902e","ios":"levelo://app?vid=bb027222-2f98-4f9f-bb4d-042285e1902e"},"vehicle_type_id":"4","last_reported":1727201506,"current_range_meters":6000,"station_id":"","pricing_plan_id":"cebpf4jnsgd1na2vs0mg"},{"bike_id":"6ddafbe1-16f1-463a-be44-0bef68acf23b","system_id":"levelo_inurba_marseille","lat":43.2718,"lon":5.40995,"is_reserved":false,"is_disabled":false,"rental_uris":{"android":"levelo://app?vid=6ddafbe1-16f1-463a-be44-0bef68acf23b","ios":"levelo://app?vid=6ddafbe1-16f1-463a-be44-0bef68acf23b"},"vehicle_type_id":"4","last_reported":1727201506,"current_range_meters":30000,"station_id":"ce4bhl12rcd13ifvqgf0","pricing_plan_id":"cebpf4jnsgd1na2vs0mg"},{"bike_id":"fd13c5d1-27ce-499a-a2cf-5e8475e4fd05","system_id":"levelo_inurba_marseille","lat":43.32289,"lon":5.38267,"is_reserved":false,"is_disabled":false,"rental_uris":{"android":"levelo://app?vid=fd13c5d1-27ce-499a-a2cf-5e8475e4fd05","ios":"levelo://app?vid=fd13c5d1-27ce-499a-a2cf-5e8475e4fd05"},"vehicle_type_id":"4","last_reported":1727201506,"current_range_meters":6800,"station_id":"ce4bhr12rcd13ifvqhqg","pricing_plan_id":"cebpf4jnsgd1na2vs0mg"},{"bike_id":"cabbcbaf-7532-447c-9461-78dd1ee2e2c7","system_id":"levelo_inurba_marseille","lat":43.29023,"lon":5.3865,"is_reserved":false,"is_disabled":false,"rental_uris":{"android":"levelo://app?vid=cabbcbaf-7532-447c-9461-78dd1ee2e2c7","ios":"levelo://app?vid=cabbcbaf-7532-447c-9461-78dd1ee2e2c7"},"vehicle_type_id":"4","last_reported":1727201506,"current_range_meters":33200,"station_id":"ce4bh4p2rcd13ifvqe0g","pricing_plan_id":"cebpf4jnsgd1na2vs0mg"},{"bike_id":"dcfd1a3f-06b1-4c63-993b-b79e5484eea9","system_id":"levelo_inurba_marseille","lat":43.31718,"lon":5.43707,"is_reserved":false,"is_disabled":false,"rental_uris":{"android":"levelo://app?vid=dcfd1a3f-06b1-4c63-993b-b79e5484eea9","ios":"levelo://app?vid=dcfd1a3f-06b1-4c63-993b-b79e5484eea9"},"vehicle_type_id":"4","last_reported":1727201506,"current_range_meters":30000,"station_id":"ce4bhp92rcd13ifvqhcg","pricing_plan_id":"cebpf4jnsgd1na2vs0mg"},{"bike_id":"d82c7c51-c376-48ae-bad8-66d7ae0dfdbb","system_id":"levelo_inurba_marseille","lat":43.27529,"lon":5.39575,"is_reserved":false,"is_disabled":false,"rental_uris":{"android":"levelo://app?vid=d82c7c51-c376-48ae-bad8-66d7ae0dfdbb","ios":"levelo://app?vid=d82c7c51-c376-48ae-bad8-66d7ae0dfdbb"},"vehicle_type_id":"4","last_reported":1727201506,"current_range_meters":9600,"station_id":"ce4bho92rcd13ifvqh4g","pricing_plan_id":"cebpf4jnsgd1na2vs0mg"},{"bike_id":"87609928-6088-4ae0-a23b-50d440fc42e0","system_id":"levelo_inurba_marseille","lat":43.32368,"lon":5.38888,"is_reserved":false,"is_disabled":false,"rental_uris":{"android":"levelo://app?vid=87609928-6088-4ae0-a23b-50d440fc42e0","ios":"levelo://app?vid=87609928-6088-4ae0-a23b-50d440fc42e0"},"vehicle_type_id":"4","last_reported":1727201506,"current_range_meters":14000,"station_id":"ce4bhqp2rcd13ifvqhog","pricing_plan_id":"cebpf4jnsgd1na2vs0mg"},{"bike_id":"68cc51bc-b2e4-4155-ba52-9f1658acb4fd","system_id":"levelo_inurba_marseille","lat":43.29073,"lon":5.37148,"is_reserved":false,"is_disabled":false,"rental_uris":{"android":"levelo://app?vid=68cc51bc-b2e4-4155-ba52-9f1658acb4fd","ios":"levelo://app?vid=68cc51bc-b2e4-4155-ba52-9f1658acb4fd"},"vehicle_type_id":"4","last_reported":1727201506,"current_range_meters":24400,"station_id":"ce4bh5p2rcd13ifvqe4g","pricing_plan_id":"cebpf4jnsgd1na2vs0mg"},{"bike_id":"8f3c1364-af89-4370-8a68-8e2d5be1ba96","system_id":"levelo_inurba_marseille","lat":43.29892,"lon":5.38492,"is_reserved":false,"is_disabled":false,"rental_uris":{"android":"levelo://app?vid=8f3c1364-af89-4370-8a68-8e2d5be1ba96","ios":"levelo://app?vid=8f3c1364-af89-4370-8a68-8e2d5be1ba96"},"vehicle_type_id":"4","last_reported":1727201506,"current_range_meters":26000,"station_id":"","pricing_plan_id":"cebpf4jnsgd1na2vs0mg"},{"bike_id":"5f9bb88d-37dc-4c00-aeb4-493533ad4ac1","system_id":"levelo_inurba_marseille","lat":43.25104,"lon":5.40322,"is_reserved":false,"is_disabled":false,"rental_uris":{"android":"levelo://app?vid=5f9bb88d-37dc-4c00-aeb4-493533ad4ac1","ios":"levelo://app?vid=5f9bb88d-37dc-4c00-aeb4-493533ad4ac1"},"vehicle_type_id":"4","last_reported":1727201506,"current_range_meters":24800,"station_id":"ce4bhlh2rcd13ifvqgig","pricing_plan_id":"cebpf4jnsgd1na2vs0mg"},{"bike_id":"68081c0b-9a92-490a-bdd1-ff5103721787","system_id":"levelo_inurba_marseille","lat":43.27071,"lon":5.42279,"is_reserved":false,"is_disabled":false,"rental_uris":{"android":"levelo://app?vid=68081c0b-9a92-490a-bdd1-ff5103721787","ios":"levelo://app?vid=68081c0b-9a92-490a-bdd1-ff5103721787"},"vehicle_type_id":"4","last_reported":1727201506,"current_range_meters":16400,"station_id":"ce4bhk92rcd13ifvqgb0","pricing_plan_id":"cebpf4jnsgd1na2vs0mg"},{"bike_id":"69aae0c0-8704-47b8-8759-b7fa3b6dd031","system_id":"levelo_inurba_marseille","lat":43.27374,"lon":5.36262,"is_reserved":false,"is_disabled":false,"rental_uris":{"android":"levelo://app?vid=69aae0c0-8704-47b8-8759-b7fa3b6dd031","ios":"levelo://app?vid=69aae0c0-8704-47b8-8759-b7fa3b6dd031"},"vehicle_type_id":"4","last_reported":1727201506,"current_range_meters":15200,"station_id":"ce4bhbh2rcd13ifvqeo0","pricing_plan_id":"cebpf4jnsgd1na2vs0mg"},{"bike_id":"3c1248fb-65db-4c06-a010-0e8299c79633","system_id":"levelo_inurba_marseille","lat":43.29038,"lon":5.39962,"is_reserved":false,"is_disabled":false,"rental_uris":{"android":"levelo://app?vid=3c1248fb-65db-4c06-a010-0e8299c79633","ios":"levelo://app?vid=3c1248fb-65db-4c06-a010-0e8299c79633"},"vehicle_type_id":"4","last_reported":1727201506,"current_range_meters":12800,"station_id":"ce4bh392rcd13ifvqdm0","pricing_plan_id":"cebpf4jnsgd1na2vs0mg"},{"bike_id":"e7a12a19-fc56-43a2-a3cc-a0b6f7c8adcd","system_id":"levelo_inurba_marseille","lat":43.30423,"lon":5.397453,"is_reserved":false,"is_disabled":false,"rental_uris":{"android":"levelo://app?vid=e7a12a19-fc56-43a2-a3cc-a0b6f7c8adcd","ios":"levelo://app?vid=e7a12a19-fc56-43a2-a3cc-a0b6f7c8adcd"},"vehicle_type_id":"4","last_reported":1727201506,"current_range_meters":12800,"station_id":"ce4bh092rcd13ifvqd20","pricing_plan_id":"cebpf4jnsgd1na2vs0mg"},{"bike_id":"c4970287-b9a4-4876-bf4f-65d2ddb1b5d1","system_id":"levelo_inurba_marseille","lat":43.29098,"lon":5.38136,"is_reserved":false,"is_disabled":false,"rental_uris":{"android":"levelo://app?vid=c4970287-b9a4-4876-bf4f-65d2ddb1b5d1","ios":"levelo://app?vid=c4970287-b9a4-4876-bf4f-65d2ddb1b5d1"},"vehicle_type_id":"4","last_reported":1727201506,"current_range_meters":18000,"station_id":"ce4bh512rcd13ifvqe2g","pricing_plan_id":"cebpf4jnsgd1na2vs0mg"},{"bike_id":"4fdf4e53-b34f-4fef-95d5-2fc88c66b278","system_id":"levelo_inurba_marseille","lat":43.25984,"lon":5.41466,"is_reserved":false,"is_disabled":false,"rental_uris":{"android":"levelo://app?vid=4fdf4e53-b34f-4fef-95d5-2fc88c66b278","ios":"levelo://app?vid=4fdf4e53-b34f-4fef-95d5-2fc88c66b278"},"vehicle_type_id":"4","last_reported":1727201506,"current_range_meters":24800,"station_id":"","pricing_plan_id":"cebpf4jnsgd1na2vs0mg"},{"bike_id":"92adac0c-8678-43fd-b8c3-5f7a021f2df5","system_id":"levelo_inurba_marseille","lat":43.28459,"lon":5.35879,"is_reserved":false,"is_disabled":false,"rental_uris":{"android":"levelo://app?vid=92adac0c-8678-43fd-b8c3-5f7a021f2df5","ios":"levelo://app?vid=92adac0c-8678-43fd-b8c3-5f7a021f2df5"},"vehicle_type_id":"4","last_reported":1727201506,"current_range_meters":8400,"station_id":"ce4bhah2rcd13ifvqei0","pricing_plan_id":"cebpf4jnsgd1na2vs0mg"},{"bike_id":"1dcefd98-b87f-494b-90d5-79b8b82df335","system_id":"levelo_inurba_marseille","lat":43.27051,"lon":5.40262,"is_reserved":false,"is_disabled":false,"rental_uris":{"android":"levelo://app?vid=1dcefd98-b87f-494b-90d5-79b8b82df335","ios":"levelo://app?vid=1dcefd98-b87f-494b-90d5-79b8b82df335"},"vehicle_type_id":"4","last_reported":1727201506,"current_range_meters":22000,"station_id":"ce4bhk92rcd13ifvqgc0","pricing_plan_id":"cebpf4jnsgd1na2vs0mg"},{"bike_id":"95f8ac12-05ad-433a-bab5-6c2ee3d4d27e","system_id":"levelo_inurba_marseille","lat":43.31988,"lon":5.3815,"is_reserved":false,"is_disabled":false,"rental_uris":{"android":"levelo://app?vid=95f8ac12-05ad-433a-bab5-6c2ee3d4d27e","ios":"levelo://app?vid=95f8ac12-05ad-433a-bab5-6c2ee3d4d27e"},"vehicle_type_id":"4","last_reported":1727201506,"current_range_meters":28000,"station_id":"ce4bhr12rcd13ifvqhpg","pricing_plan_id":"cebpf4jnsgd1na2vs0mg"},{"bike_id":"a41c21b6-863a-4a6e-9072-95c30dbe6d9f","system_id":"levelo_inurba_marseille","lat":43.27943,"lon":5.41043,"is_reserved":false,"is_disabled":false,"rental_uris":{"android":"levelo://app?vid=a41c21b6-863a-4a6e-9072-95c30dbe6d9f","ios":"levelo://app?vid=a41c21b6-863a-4a6e-9072-95c30dbe6d9f"},"vehicle_type_id":"4","last_reported":1727201506,"current_range_meters":30400,"station_id":"ce4bhnp2rcd13ifvqh0g","pricing_plan_id":"cebpf4jnsgd1na2vs0mg"},{"bike_id":"424da7cf-25e8-444e-98f1-96d24b7b78b7","system_id":"levelo_inurba_marseille","lat":43.25577,"lon":5.38245,"is_reserved":false,"is_disabled":false,"rental_uris":{"android":"levelo://app?vid=424da7cf-25e8-444e-98f1-96d24b7b78b7","ios":"levelo://app?vid=424da7cf-25e8-444e-98f1-96d24b7b78b7"},"vehicle_type_id":"4","last_reported":1727201506,"current_range_meters":19600,"station_id":"ce4bhih2rcd13ifvqfs0","pricing_plan_id":"cebpf4jnsgd1na2vs0mg"},{"bike_id":"f6854ccc-c1fa-48e0-92f7-f670b0d2f83f","system_id":"levelo_inurba_marseille","lat":43.27898,"lon":5.42614,"is_reserved":false,"is_disabled":false,"rental_uris":{"android":"levelo://app?vid=f6854ccc-c1fa-48e0-92f7-f670b0d2f83f","ios":"levelo://app?vid=f6854ccc-c1fa-48e0-92f7-f670b0d2f83f"},"vehicle_type_id":"4","last_reported":1727201506,"current_range_meters":29600,"station_id":"","pricing_plan_id":"cebpf4jnsgd1na2vs0mg"},{"bike_id":"3be3268d-9483-49f9-ba39-2a233637549b","system_id":"levelo_inurba_marseille","lat":43.284089,"lon":5.375028,"is_reserved":false,"is_disabled":false,"rental_uris":{"android":"levelo://app?vid=3be3268d-9483-49f9-ba39-2a233637549b","ios":"levelo://app?vid=3be3268d-9483-49f9-ba39-2a233637549b"},"vehicle_type_id":"4","last_reported":1727201506,"current_range_meters":16000,"station_id":"ce4bh412rcd13ifvqds0","pricing_plan_id":"cebpf4jnsgd1na2vs0mg"},{"bike_id":"b8d52647-6f92-451a-a3f1-37f303cfb931","system_id":"levelo_inurba_marseille","lat":43.27809,"lon":5.40714,"is_reserved":false,"is_disabled":false,"rental_uris":{"android":"levelo://app?vid=b8d52647-6f92-451a-a3f1-37f303cfb931","ios":"levelo://app?vid=b8d52647-6f92-451a-a3f1-37f303cfb931"},"vehicle_type_id":"4","last_reported":1727201506,"current_range_meters":38800,"station_id":"ce4bhnh2rcd13ifvqgtg","pricing_plan_id":"cebpf4jnsgd1na2vs0mg"},{"bike_id":"e95ff62b-f4ae-42d7-b4e5-2b5d447e1746","system_id":"levelo_inurba_marseille","lat":43.31755,"lon":5.39014,"is_reserved":false,"is_disabled":false,"rental_uris":{"android":"levelo://app?vid=e95ff62b-f4ae-42d7-b4e5-2b5d447e1746","ios":"levelo://app?vid=e95ff62b-f4ae-42d7-b4e5-2b5d447e1746"},"vehicle_type_id":"4","last_reported":1727201506,"current_range_meters":11600,"station_id":"ce4bhqp2rcd13ifvqhng","pricing_plan_id":"cebpf4jnsgd1na2vs0mg"},{"bike_id":"f808c29f-833c-4be9-94ba-f5bbf2d86de8","system_id":"levelo_inurba_marseille","lat":43.29551,"lon":5.42284,"is_reserved":false,"is_disabled":false,"rental_uris":{"android":"levelo://app?vid=f808c29f-833c-4be9-94ba-f5bbf2d86de8","ios":"levelo://app?vid=f808c29f-833c-4be9-94ba-f5bbf2d86de8"},"vehicle_type_id":"4","last_reported":1727201506,"current_range_meters":39200,"station_id":"ce4bhph2rcd13ifvqhdg","pricing_plan_id":"cebpf4jnsgd1na2vs0mg"},{"bike_id":"ef1bcdaf-ad41-4f13-b79c-6a2d8cd8f3f4","system_id":"levelo_inurba_marseille","lat":43.32329,"lon":5.40622,"is_reserved":false,"is_disabled":false,"rental_uris":{"android":"levelo://app?vid=ef1bcdaf-ad41-4f13-b79c-6a2d8cd8f3f4","ios":"levelo://app?vid=ef1bcdaf-ad41-4f13-b79c-6a2d8cd8f3f4"},"vehicle_type_id":"4","last_reported":1727201506,"current_range_meters":9600,"station_id":"ce4bhq92rcd13ifvqhjg","pricing_plan_id":"cebpf4jnsgd1na2vs0mg"},{"bike_id":"4faaf425-eb7d-4f3f-ac78-2efeba0f86fa","system_id":"levelo_inurba_marseille","lat":43.27074,"lon":5.42278,"is_reserved":false,"is_disabled":false,"rental_uris":{"android":"levelo://app?vid=4faaf425-eb7d-4f3f-ac78-2efeba0f86fa","ios":"levelo://app?vid=4faaf425-eb7d-4f3f-ac78-2efeba0f86fa"},"vehicle_type_id":"4","last_reported":1727201506,"current_range_meters":2800,"station_id":"ce4bhk92rcd13ifvqgb0","pricing_plan_id":"cebpf4jnsgd1na2vs0mg"},{"bike_id":"2be54b1e-5b4a-4a20-9470-88e137658e93","system_id":"levelo_inurba_marseille","lat":43.30643,"lon":5.40108,"is_reserved":false,"is_disabled":false,"rental_uris":{"android":"levelo://app?vid=2be54b1e-5b4a-4a20-9470-88e137658e93","ios":"levelo://app?vid=2be54b1e-5b4a-4a20-9470-88e137658e93"},"vehicle_type_id":"4","last_reported":1727201506,"current_range_meters":5600,"station_id":"ce4bh112rcd13ifvqda0","pricing_plan_id":"cebpf4jnsgd1na2vs0mg"},{"bike_id":"0d10df79-c284-4e2b-b1b7-57df367c1091","system_id":"levelo_inurba_marseille","lat":43.24808,"lon":5.37461,"is_reserved":false,"is_disabled":false,"rental_uris":{"android":"levelo://app?vid=0d10df79-c284-4e2b-b1b7-57df367c1091","ios":"levelo://app?vid=0d10df79-c284-4e2b-b1b7-57df367c1091"},"vehicle_type_id":"4","last_reported":1727201506,"current_range_meters":6400,"station_id":"ce4bhgh2rcd13ifvqfb0","pricing_plan_id":"cebpf4jnsgd1na2vs0mg"},{"bike_id":"e42186fb-4fb9-4e53-802f-6e7e0496cd0c","system_id":"levelo_inurba_marseille","lat":43.29007,"lon":5.35614,"is_reserved":false,"is_disabled":false,"rental_uris":{"android":"levelo://app?vid=e42186fb-4fb9-4e53-802f-6e7e0496cd0c","ios":"levelo://app?vid=e42186fb-4fb9-4e53-802f-6e7e0496cd0c"},"vehicle_type_id":"4","last_reported":1727201506,"current_range_meters":4000,"station_id":"ce4bhb92rcd13ifvqen0","pricing_plan_id":"cebpf4jnsgd1na2vs0mg"},{"bike_id":"b8b97219-f1cb-41e9-93a1-6062897ad601","system_id":"levelo_inurba_marseille","lat":43.24177,"lon":5.39735,"is_reserved":false,"is_disabled":false,"rental_uris":{"android":"levelo://app?vid=b8b97219-f1cb-41e9-93a1-6062897ad601","ios":"levelo://app?vid=b8b97219-f1cb-41e9-93a1-6062897ad601"},"vehicle_type_id":"4","last_reported":1727201506,"current_range_meters":11200,"station_id":"ce4bhn12rcd13ifvqgpg","pricing_plan_id":"cebpf4jnsgd1na2vs0mg"},{"bike_id":"c3ad2758-75d8-462f-a220-b57c3596bc55","system_id":"levelo_inurba_marseille","lat":43.29533,"lon":5.39394,"is_reserved":false,"is_disabled":false,"rental_uris":{"android":"levelo://app?vid=c3ad2758-75d8-462f-a220-b57c3596bc55","ios":"levelo://app?vid=c3ad2758-75d8-462f-a220-b57c3596bc55"},"vehicle_type_id":"4","last_reported":1727201506,"current_range_meters":9600,"station_id":"ce4bh292rcd13ifvqdf0","pricing_plan_id":"cebpf4jnsgd1na2vs0mg"},{"bike_id":"2a01d5ab-952f-433a-8f91-0171a6729d79","system_id":"levelo_inurba_marseille","lat":43.31716,"lon":5.4371,"is_reserved":false,"is_disabled":false,"rental_uris":{"android":"levelo://app?vid=2a01d5ab-952f-433a-8f91-0171a6729d79","ios":"levelo://app?vid=2a01d5ab-952f-433a-8f91-0171a6729d79"},"vehicle_type_id":"4","last_reported":1727201506,"current_range_meters":38800,"station_id":"ce4bhp92rcd13ifvqhcg","pricing_plan_id":"cebpf4jnsgd1na2vs0mg"},{"bike_id":"889e42cb-353f-4ed3-b65e-a89090f5f414","system_id":"levelo_inurba_marseille","lat":43.3171,"lon":5.37749,"is_reserved":false,"is_disabled":false,"rental_uris":{"android":"levelo://app?vid=889e42cb-353f-4ed3-b65e-a89090f5f414","ios":"levelo://app?vid=889e42cb-353f-4ed3-b65e-a89090f5f414"},"vehicle_type_id":"4","last_reported":1727201506,"current_range_meters":29600,"station_id":"ce4bgth2rcd13ifvqch0","pricing_plan_id":"cebpf4jnsgd1na2vs0mg"},{"bike_id":"7ecb6003-d5da-4b70-a48d-dac9ad53edaa","system_id":"levelo_inurba_marseille","lat":43.29555,"lon":5.42285,"is_reserved":false,"is_disabled":false,"rental_uris":{"android":"levelo://app?vid=7ecb6003-d5da-4b70-a48d-dac9ad53edaa","ios":"levelo://app?vid=7ecb6003-d5da-4b70-a48d-dac9ad53edaa"},"vehicle_type_id":"4","last_reported":1727201506,"current_range_meters":32000,"station_id":"ce4bhph2rcd13ifvqhdg","pricing_plan_id":"cebpf4jnsgd1na2vs0mg"},{"bike_id":"f63139f3-7864-43f0-b2c4-8ee79a8a20bd","system_id":"levelo_inurba_marseille","lat":43.3229,"lon":5.38273,"is_reserved":false,"is_disabled":false,"rental_uris":{"android":"levelo://app?vid=f63139f3-7864-43f0-b2c4-8ee79a8a20bd","ios":"levelo://app?vid=f63139f3-7864-43f0-b2c4-8ee79a8a20bd"},"vehicle_type_id":"4","last_reported":1727201506,"current_range_meters":39200,"station_id":"ce4bhr12rcd13ifvqhqg","pricing_plan_id":"cebpf4jnsgd1na2vs0mg"},{"bike_id":"ffb89cd9-6721-437b-9a3f-8c6acc2c0b80","system_id":"levelo_inurba_marseille","lat":43.27315,"lon":5.39082,"is_reserved":false,"is_disabled":false,"rental_uris":{"android":"levelo://app?vid=ffb89cd9-6721-437b-9a3f-8c6acc2c0b80","ios":"levelo://app?vid=ffb89cd9-6721-437b-9a3f-8c6acc2c0b80"},"vehicle_type_id":"4","last_reported":1727201506,"current_range_meters":8800,"station_id":"ce4bhgp2rcd13ifvqfe0","pricing_plan_id":"cebpf4jnsgd1na2vs0mg"},{"bike_id":"544730df-31d8-48bd-880b-bf88bd7c799b","system_id":"levelo_inurba_marseille","lat":43.27614,"lon":5.36125,"is_reserved":false,"is_disabled":false,"rental_uris":{"android":"levelo://app?vid=544730df-31d8-48bd-880b-bf88bd7c799b","ios":"levelo://app?vid=544730df-31d8-48bd-880b-bf88bd7c799b"},"vehicle_type_id":"4","last_reported":1727201506,"current_range_meters":38800,"station_id":"ce4bgj92rcd13ifvqbe0","pricing_plan_id":"cebpf4jnsgd1na2vs0mg"},{"bike_id":"bc029bae-9b22-4f50-b298-88d24fa620ca","system_id":"levelo_inurba_marseille","lat":43.29555,"lon":5.42279,"is_reserved":false,"is_disabled":false,"rental_uris":{"android":"levelo://app?vid=bc029bae-9b22-4f50-b298-88d24fa620ca","ios":"levelo://app?vid=bc029bae-9b22-4f50-b298-88d24fa620ca"},"vehicle_type_id":"4","last_reported":1727201506,"current_range_meters":38400,"station_id":"ce4bhph2rcd13ifvqhdg","pricing_plan_id":"cebpf4jnsgd1na2vs0mg"},{"bike_id":"d99eb340-9e69-425a-8235-517854e3b819","system_id":"levelo_inurba_marseille","lat":43.26955,"lon":5.38634,"is_reserved":false,"is_disabled":false,"rental_uris":{"android":"levelo://app?vid=d99eb340-9e69-425a-8235-517854e3b819","ios":"levelo://app?vid=d99eb340-9e69-425a-8235-517854e3b819"},"vehicle_type_id":"4","last_reported":1727201506,"current_range_meters":36800,"station_id":"ce4bhh92rcd13ifvqfh0","pricing_plan_id":"cebpf4jnsgd1na2vs0mg"},{"bike_id":"6cebe641-309c-4106-947e-257b027f9aa0","system_id":"levelo_inurba_marseille","lat":43.26541,"lon":5.39017,"is_reserved":false,"is_disabled":false,"rental_uris":{"android":"levelo://app?vid=6cebe641-309c-4106-947e-257b027f9aa0","ios":"levelo://app?vid=6cebe641-309c-4106-947e-257b027f9aa0"},"vehicle_type_id":"4","last_reported":1727201506,"current_range_meters":38800,"station_id":"","pricing_plan_id":"cebpf4jnsgd1na2vs0mg"},{"bike_id":"aae11c65-fabb-470c-9829-9d8f6017e786","system_id":"levelo_inurba_marseille","lat":43.29845,"lon":5.36279,"is_reserved":false,"is_disabled":false,"rental_uris":{"android":"levelo://app?vid=aae11c65-fabb-470c-9829-9d8f6017e786","ios":"levelo://app?vid=aae11c65-fabb-470c-9829-9d8f6017e786"},"vehicle_type_id":"4","last_reported":1727201506,"current_range_meters":5600,"station_id":"ce4bgpp2rcd13ifvqc3g","pricing_plan_id":"cebpf4jnsgd1na2vs0mg"},{"bike_id":"28e64d8f-faff-4ba9-ac34-1c815ad9b58e","system_id":"levelo_inurba_marseille","lat":43.29543,"lon":5.42286,"is_reserved":false,"is_disabled":false,"rental_uris":{"android":"levelo://app?vid=28e64d8f-faff-4ba9-ac34-1c815ad9b58e","ios":"levelo://app?vid=28e64d8f-faff-4ba9-ac34-1c815ad9b58e"},"vehicle_type_id":"4","last_reported":1727201506,"current_range_meters":10800,"station_id":"ce4bhph2rcd13ifvqhdg","pricing_plan_id":"cebpf4jnsgd1na2vs0mg"},{"bike_id":"6b7e6416-45ec-4246-80f1-ab3dda113917","system_id":"levelo_inurba_marseille","lat":43.27993,"lon":5.40011,"is_reserved":false,"is_disabled":false,"rental_uris":{"android":"levelo://app?vid=6b7e6416-45ec-4246-80f1-ab3dda113917","ios":"levelo://app?vid=6b7e6416-45ec-4246-80f1-ab3dda113917"},"vehicle_type_id":"4","last_reported":1727201506,"current_range_meters":22800,"station_id":"ce4bho92rcd13ifvqh4g","pricing_plan_id":"cebpf4jnsgd1na2vs0mg"},{"bike_id":"795f69ba-c4d9-45ca-b220-30ca805736cc","system_id":"levelo_inurba_marseille","lat":43.25581,"lon":5.38233,"is_reserved":false,"is_disabled":false,"rental_uris":{"android":"levelo://app?vid=795f69ba-c4d9-45ca-b220-30ca805736cc","ios":"levelo://app?vid=795f69ba-c4d9-45ca-b220-30ca805736cc"},"vehicle_type_id":"4","last_reported":1727201506,"current_range_meters":29600,"station_id":"ce4bhih2rcd13ifvqfs0","pricing_plan_id":"cebpf4jnsgd1na2vs0mg"},{"bike_id":"6f0982c5-31a8-40f7-8039-21dea6a0b8ae","system_id":"levelo_inurba_marseille","lat":43.23061,"lon":5.35493,"is_reserved":false,"is_disabled":false,"rental_uris":{"android":"levelo://app?vid=6f0982c5-31a8-40f7-8039-21dea6a0b8ae","ios":"levelo://app?vid=6f0982c5-31a8-40f7-8039-21dea6a0b8ae"},"vehicle_type_id":"4","last_reported":1727201506,"current_range_meters":7200,"station_id":"cpo3342slgdg3j2ifvpg","pricing_plan_id":"cebpf4jnsgd1na2vs0mg"},{"bike_id":"e3d8882f-4011-45a7-87c7-4f5b01dd120d","system_id":"levelo_inurba_marseille","lat":43.27366,"lon":5.3626,"is_reserved":false,"is_disabled":false,"rental_uris":{"android":"levelo://app?vid=e3d8882f-4011-45a7-87c7-4f5b01dd120d","ios":"levelo://app?vid=e3d8882f-4011-45a7-87c7-4f5b01dd120d"},"vehicle_type_id":"4","last_reported":1727201506,"current_range_meters":9200,"station_id":"ce4bhbh2rcd13ifvqeo0","pricing_plan_id":"cebpf4jnsgd1na2vs0mg"},{"bike_id":"c567e6a9-ea72-4f4c-b9b2-9027955b1d5c","system_id":"levelo_inurba_marseille","lat":43.29269,"lon":5.38433,"is_reserved":false,"is_disabled":false,"rental_uris":{"android":"levelo://app?vid=c567e6a9-ea72-4f4c-b9b2-9027955b1d5c","ios":"levelo://app?vid=c567e6a9-ea72-4f4c-b9b2-9027955b1d5c"},"vehicle_type_id":"4","last_reported":1727201506,"current_range_meters":8000,"station_id":"ce4bh692rcd13ifvqea0","pricing_plan_id":"cebpf4jnsgd1na2vs0mg"},{"bike_id":"be2028c8-dff4-4fc4-9730-036220b1db33","system_id":"levelo_inurba_marseille","lat":43.29931,"lon":5.38594,"is_reserved":false,"is_disabled":false,"rental_uris":{"android":"levelo://app?vid=be2028c8-dff4-4fc4-9730-036220b1db33","ios":"levelo://app?vid=be2028c8-dff4-4fc4-9730-036220b1db33"},"vehicle_type_id":"4","last_reported":1727201506,"current_range_meters":34000,"station_id":"","pricing_plan_id":"cebpf4jnsgd1na2vs0mg"},{"bike_id":"a56d6d25-b5ff-48ec-b89e-9309cd7c7d71","system_id":"levelo_inurba_marseille","lat":43.28138,"lon":5.40528,"is_reserved":false,"is_disabled":false,"rental_uris":{"android":"levelo://app?vid=a56d6d25-b5ff-48ec-b89e-9309cd7c7d71","ios":"levelo://app?vid=a56d6d25-b5ff-48ec-b89e-9309cd7c7d71"},"vehicle_type_id":"4","last_reported":1727201506,"current_range_meters":2800,"station_id":"","pricing_plan_id":"cebpf4jnsgd1na2vs0mg"},{"bike_id":"eccddb30-ba8e-4470-a014-66cd052d3364","system_id":"levelo_inurba_marseille","lat":43.29419,"lon":5.38632,"is_reserved":false,"is_disabled":false,"rental_uris":{"android":"levelo://app?vid=eccddb30-ba8e-4470-a014-66cd052d3364","ios":"levelo://app?vid=eccddb30-ba8e-4470-a014-66cd052d3364"},"vehicle_type_id":"4","last_reported":1727201506,"current_range_meters":10800,"station_id":"ce4bh2h2rcd13ifvqdh0","pricing_plan_id":"cebpf4jnsgd1na2vs0mg"},{"bike_id":"f1bf3f0b-5fc6-4307-b0ea-5f4b216e8f5a","system_id":"levelo_inurba_marseille","lat":43.23192,"lon":5.35545,"is_reserved":false,"is_disabled":false,"rental_uris":{"android":"levelo://app?vid=f1bf3f0b-5fc6-4307-b0ea-5f4b216e8f5a","ios":"levelo://app?vid=f1bf3f0b-5fc6-4307-b0ea-5f4b216e8f5a"},"vehicle_type_id":"4","last_reported":1727201506,"current_range_meters":40000,"station_id":"ce4bhu92rcd13ifvqi70","pricing_plan_id":"cebpf4jnsgd1na2vs0mg"},{"bike_id":"7f1bda25-3423-4568-a53b-35962014fdbe","system_id":"levelo_inurba_marseille","lat":43.27365,"lon":5.3627,"is_reserved":false,"is_disabled":false,"rental_uris":{"android":"levelo://app?vid=7f1bda25-3423-4568-a53b-35962014fdbe","ios":"levelo://app?vid=7f1bda25-3423-4568-a53b-35962014fdbe"},"vehicle_type_id":"4","last_reported":1727201506,"current_range_meters":11200,"station_id":"ce4bhbh2rcd13ifvqeo0","pricing_plan_id":"cebpf4jnsgd1na2vs0mg"},{"bike_id":"f0c14f8e-dfef-41d8-abaf-a2dd1310bdc8","system_id":"levelo_inurba_marseille","lat":43.26809,"lon":5.40269,"is_reserved":false,"is_disabled":false,"rental_uris":{"android":"levelo://app?vid=f0c14f8e-dfef-41d8-abaf-a2dd1310bdc8","ios":"levelo://app?vid=f0c14f8e-dfef-41d8-abaf-a2dd1310bdc8"},"vehicle_type_id":"4","last_reported":1727201506,"current_range_meters":10000,"station_id":"ce501612rcd8frsf0b60","pricing_plan_id":"cebpf4jnsgd1na2vs0mg"},{"bike_id":"ed9fb978-00ec-4d2b-9018-4d2bad1bbe44","system_id":"levelo_inurba_marseille","lat":43.32362,"lon":5.38891,"is_reserved":false,"is_disabled":false,"rental_uris":{"android":"levelo://app?vid=ed9fb978-00ec-4d2b-9018-4d2bad1bbe44","ios":"levelo://app?vid=ed9fb978-00ec-4d2b-9018-4d2bad1bbe44"},"vehicle_type_id":"4","last_reported":1727201506,"current_range_meters":30400,"station_id":"ce4bhqp2rcd13ifvqhog","pricing_plan_id":"cebpf4jnsgd1na2vs0mg"},{"bike_id":"403668ae-c8b8-4767-99d8-f56d986b9b65","system_id":"levelo_inurba_marseille","lat":43.29678,"lon":5.37291,"is_reserved":false,"is_disabled":false,"rental_uris":{"android":"levelo://app?vid=403668ae-c8b8-4767-99d8-f56d986b9b65","ios":"levelo://app?vid=403668ae-c8b8-4767-99d8-f56d986b9b65"},"vehicle_type_id":"4","last_reported":1727201506,"current_range_meters":2800,"station_id":"ce4bgk12rcd13ifvqbj0","pricing_plan_id":"cebpf4jnsgd1na2vs0mg"},{"bike_id":"6196cc7b-86d6-44ad-ac3b-7bc3a58dfea8","system_id":"levelo_inurba_marseille","lat":43.27898,"lon":5.38006,"is_reserved":false,"is_disabled":false,"rental_uris":{"android":"levelo://app?vid=6196cc7b-86d6-44ad-ac3b-7bc3a58dfea8","ios":"levelo://app?vid=6196cc7b-86d6-44ad-ac3b-7bc3a58dfea8"},"vehicle_type_id":"4","last_reported":1727201506,"current_range_meters":17200,"station_id":"ce4bhf92rcd13ifvqf50","pricing_plan_id":"cebpf4jnsgd1na2vs0mg"},{"bike_id":"7ffb98a5-e77a-4606-99ca-33f4db2c7a7d","system_id":"levelo_inurba_marseille","lat":43.2926,"lon":5.38444,"is_reserved":false,"is_disabled":false,"rental_uris":{"android":"levelo://app?vid=7ffb98a5-e77a-4606-99ca-33f4db2c7a7d","ios":"levelo://app?vid=7ffb98a5-e77a-4606-99ca-33f4db2c7a7d"},"vehicle_type_id":"4","last_reported":1727201506,"current_range_meters":2800,"station_id":"ce4bh692rcd13ifvqea0","pricing_plan_id":"cebpf4jnsgd1na2vs0mg"},{"bike_id":"a2788f44-919b-412d-bc91-dd253920415e","system_id":"levelo_inurba_marseille","lat":43.29552,"lon":5.42286,"is_reserved":false,"is_disabled":false,"rental_uris":{"android":"levelo://app?vid=a2788f44-919b-412d-bc91-dd253920415e","ios":"levelo://app?vid=a2788f44-919b-412d-bc91-dd253920415e"},"vehicle_type_id":"4","last_reported":1727201506,"current_range_meters":16800,"station_id":"ce4bhph2rcd13ifvqhdg","pricing_plan_id":"cebpf4jnsgd1na2vs0mg"},{"bike_id":"bfbd7ce3-57c8-4c62-aaa8-52c7c05e68d8","system_id":"levelo_inurba_marseille","lat":43.337444,"lon":5.374475,"is_reserved":false,"is_disabled":false,"rental_uris":{"android":"levelo://app?vid=bfbd7ce3-57c8-4c62-aaa8-52c7c05e68d8","ios":"levelo://app?vid=bfbd7ce3-57c8-4c62-aaa8-52c7c05e68d8"},"vehicle_type_id":"4","last_reported":1727201506,"current_range_meters":16400,"station_id":"","pricing_plan_id":"cebpf4jnsgd1na2vs0mg"},{"bike_id":"cc4a9ff0-6d4b-4415-9c13-4ff1c54eadd6","system_id":"levelo_inurba_marseille","lat":43.27071,"lon":5.42282,"is_reserved":false,"is_disabled":false,"rental_uris":{"android":"levelo://app?vid=cc4a9ff0-6d4b-4415-9c13-4ff1c54eadd6","ios":"levelo://app?vid=cc4a9ff0-6d4b-4415-9c13-4ff1c54eadd6"},"vehicle_type_id":"4","last_reported":1727201506,"current_range_meters":14800,"station_id":"ce4bhk92rcd13ifvqgb0","pricing_plan_id":"cebpf4jnsgd1na2vs0mg"},{"bike_id":"3a7eb840-3bbc-44ae-bc88-6d37c5430e11","system_id":"levelo_inurba_marseille","lat":43.33721,"lon":5.39189,"is_reserved":false,"is_disabled":false,"rental_uris":{"android":"levelo://app?vid=3a7eb840-3bbc-44ae-bc88-6d37c5430e11","ios":"levelo://app?vid=3a7eb840-3bbc-44ae-bc88-6d37c5430e11"},"vehicle_type_id":"4","last_reported":1727201506,"current_range_meters":14400,"station_id":"ce4bhr92rcd13ifvqhsg","pricing_plan_id":"cebpf4jnsgd1na2vs0mg"},{"bike_id":"095fcd16-2ca6-45ff-9341-42e6fea5d89d","system_id":"levelo_inurba_marseille","lat":43.26933,"lon":5.40254,"is_reserved":false,"is_disabled":false,"rental_uris":{"android":"levelo://app?vid=095fcd16-2ca6-45ff-9341-42e6fea5d89d","ios":"levelo://app?vid=095fcd16-2ca6-45ff-9341-42e6fea5d89d"},"vehicle_type_id":"4","last_reported":1727201506,"current_range_meters":22800,"station_id":"cjm6bp8fraef2m0cb0m0","pricing_plan_id":"cebpf4jnsgd1na2vs0mg"},{"bike_id":"8219ba23-8d8e-4476-8056-c311d4757560","system_id":"levelo_inurba_marseille","lat":43.29197,"lon":5.39317,"is_reserved":false,"is_disabled":false,"rental_uris":{"android":"levelo://app?vid=8219ba23-8d8e-4476-8056-c311d4757560","ios":"levelo://app?vid=8219ba23-8d8e-4476-8056-c311d4757560"},"vehicle_type_id":"4","last_reported":1727201506,"current_range_meters":2800,"station_id":"ce4bh192rcd13ifvqdd0","pricing_plan_id":"cebpf4jnsgd1na2vs0mg"},{"bike_id":"413416c2-df3a-4905-9f97-e1e7aa337442","system_id":"levelo_inurba_marseille","lat":43.28723,"lon":5.37935,"is_reserved":false,"is_disabled":false,"rental_uris":{"android":"levelo://app?vid=413416c2-df3a-4905-9f97-e1e7aa337442","ios":"levelo://app?vid=413416c2-df3a-4905-9f97-e1e7aa337442"},"vehicle_type_id":"4","last_reported":1727201506,"current_range_meters":37600,"station_id":"ce4bh9p2rcd13ifvqec0","pricing_plan_id":"cebpf4jnsgd1na2vs0mg"},{"bike_id":"c8eeb706-dbc9-4ffd-a344-759d467e4c78","system_id":"levelo_inurba_marseille","lat":43.31713,"lon":5.43711,"is_reserved":false,"is_disabled":false,"rental_uris":{"android":"levelo://app?vid=c8eeb706-dbc9-4ffd-a344-759d467e4c78","ios":"levelo://app?vid=c8eeb706-dbc9-4ffd-a344-759d467e4c78"},"vehicle_type_id":"4","last_reported":1727201506,"current_range_meters":16400,"station_id":"ce4bhp92rcd13ifvqhcg","pricing_plan_id":"cebpf4jnsgd1na2vs0mg"},{"bike_id":"891301ed-5352-46df-bbf0-120d1f96149f","system_id":"levelo_inurba_marseille","lat":43.30013,"lon":5.37993,"is_reserved":false,"is_disabled":false,"rental_uris":{"android":"levelo://app?vid=891301ed-5352-46df-bbf0-120d1f96149f","ios":"levelo://app?vid=891301ed-5352-46df-bbf0-120d1f96149f"},"vehicle_type_id":"4","last_reported":1727201506,"current_range_meters":17600,"station_id":"","pricing_plan_id":"cebpf4jnsgd1na2vs0mg"},{"bike_id":"41f69784-1cc8-4d30-8066-c97f7c060b5f","system_id":"levelo_inurba_marseille","lat":43.27421,"lon":5.39412,"is_reserved":false,"is_disabled":false,"rental_uris":{"android":"levelo://app?vid=41f69784-1cc8-4d30-8066-c97f7c060b5f","ios":"levelo://app?vid=41f69784-1cc8-4d30-8066-c97f7c060b5f"},"vehicle_type_id":"4","last_reported":1727201506,"current_range_meters":10800,"station_id":"ce4bhdp2rcd13ifvqf20","pricing_plan_id":"cebpf4jnsgd1na2vs0mg"},{"bike_id":"5a5b76cb-1877-4820-8e1c-83caeb5491b4","system_id":"levelo_inurba_marseille","lat":43.32362,"lon":5.38884,"is_reserved":false,"is_disabled":false,"rental_uris":{"android":"levelo://app?vid=5a5b76cb-1877-4820-8e1c-83caeb5491b4","ios":"levelo://app?vid=5a5b76cb-1877-4820-8e1c-83caeb5491b4"},"vehicle_type_id":"4","last_reported":1727201506,"current_range_meters":13600,"station_id":"ce4bhqp2rcd13ifvqhog","pricing_plan_id":"cebpf4jnsgd1na2vs0mg"},{"bike_id":"d2d6b265-3b76-4043-92c9-2c92fb1182db","system_id":"levelo_inurba_marseille","lat":43.27944,"lon":5.4105,"is_reserved":false,"is_disabled":false,"rental_uris":{"android":"levelo://app?vid=d2d6b265-3b76-4043-92c9-2c92fb1182db","ios":"levelo://app?vid=d2d6b265-3b76-4043-92c9-2c92fb1182db"},"vehicle_type_id":"4","last_reported":1727201506,"current_range_meters":11600,"station_id":"ce4bhnp2rcd13ifvqh0g","pricing_plan_id":"cebpf4jnsgd1na2vs0mg"},{"bike_id":"b8d3859a-1e82-4f5c-a63a-e805f7237ea3","system_id":"levelo_inurba_marseille","lat":43.29168,"lon":5.37145,"is_reserved":false,"is_disabled":false,"rental_uris":{"android":"levelo://app?vid=b8d3859a-1e82-4f5c-a63a-e805f7237ea3","ios":"levelo://app?vid=b8d3859a-1e82-4f5c-a63a-e805f7237ea3"},"vehicle_type_id":"4","last_reported":1727201506,"current_range_meters":14400,"station_id":"ce4bha92rcd13ifvqeh0","pricing_plan_id":"cebpf4jnsgd1na2vs0mg"},{"bike_id":"d7861c40-12a1-4e5d-a180-ae6a0db80e6c","system_id":"levelo_inurba_marseille","lat":43.284523,"lon":5.35875,"is_reserved":false,"is_disabled":false,"rental_uris":{"android":"levelo://app?vid=d7861c40-12a1-4e5d-a180-ae6a0db80e6c","ios":"levelo://app?vid=d7861c40-12a1-4e5d-a180-ae6a0db80e6c"},"vehicle_type_id":"4","last_reported":1727201506,"current_range_meters":18800,"station_id":"ce4bhah2rcd13ifvqei0","pricing_plan_id":"cebpf4jnsgd1na2vs0mg"},{"bike_id":"a524c0be-f24a-4a82-895a-42cb7996c0be","system_id":"levelo_inurba_marseille","lat":43.27376,"lon":5.36268,"is_reserved":false,"is_disabled":false,"rental_uris":{"android":"levelo://app?vid=a524c0be-f24a-4a82-895a-42cb7996c0be","ios":"levelo://app?vid=a524c0be-f24a-4a82-895a-42cb7996c0be"},"vehicle_type_id":"4","last_reported":1727201506,"current_range_meters":2000,"station_id":"ce4bhbh2rcd13ifvqeo0","pricing_plan_id":"cebpf4jnsgd1na2vs0mg"},{"bike_id":"0e0441b2-e55b-4222-9e75-06116feeb3c3","system_id":"levelo_inurba_marseille","lat":43.28432,"lon":5.39207,"is_reserved":false,"is_disabled":false,"rental_uris":{"android":"levelo://app?vid=0e0441b2-e55b-4222-9e75-06116feeb3c3","ios":"levelo://app?vid=0e0441b2-e55b-4222-9e75-06116feeb3c3"},"vehicle_type_id":"4","last_reported":1727201506,"current_range_meters":10000,"station_id":"ce4bhoh2rcd13ifvqh5g","pricing_plan_id":"cebpf4jnsgd1na2vs0mg"},{"bike_id":"8d597c2c-8660-4b64-a7c1-8cf37ae96ec3","system_id":"levelo_inurba_marseille","lat":43.31749,"lon":5.39021,"is_reserved":false,"is_disabled":false,"rental_uris":{"android":"levelo://app?vid=8d597c2c-8660-4b64-a7c1-8cf37ae96ec3","ios":"levelo://app?vid=8d597c2c-8660-4b64-a7c1-8cf37ae96ec3"},"vehicle_type_id":"4","last_reported":1727201506,"current_range_meters":26800,"station_id":"ce4bhqp2rcd13ifvqhng","pricing_plan_id":"cebpf4jnsgd1na2vs0mg"},