{"last_updated":1766088715,"ttl":60,"version":"2.2","data":{"bikes":[{"bike_id":"eb8dab28-dabb-4e61-856f-641c6a269de3","system_id":"levelo_inurba_marseille","lat":43.27372,"lon":5.36248,"is_reserved":false,"is_disabled":true,"rental_uris":{"android":"levelo://app?vid=eb8dab28-dabb-4e61-856f-641c6a269de3","ios":"levelo://app?vid=eb8dab28-dabb-4e61-856f-641c6a269de3"},"vehicle_type_id":"4","last_reported":1766088715,"current_range_meters":2800,"station_id":"ce4bhbh2rcd13ifvqeo0","pricing_plan_id":"cebpf4jnsgd1na2vs0mg"},{"bike_id":"22b87d64-5e39-48e9-baa7-d08433b908f3","system_id":"levelo_inurba_marseille","lat":43.28448,"lon":5.35883,"is_reserved":false,"is_disabled":false,"rental_uris":{"android":"levelo://app?vid=22b87d64-5e39-48e9-baa7-d08433b908f3","ios":"levelo://app?vid=22b87d64-5e39-48e9-baa7-d08433b908f3"},"vehicle_type_id":"4","last_reported":1766088715,"current_range_meters":2800,"station_id":"ce4bhah2rcd13ifvqei0","pricing_plan_id":"cebpf4jnsgd1na2vs0mg"},{"bike_id":"075753f2-03fc-482d-992a-1a659c9f27f8","system_id":"levelo_inurba_marseille","lat":43.28218,"lon":5.34909,"is_reserved":false,"is_disabled":false,"rental_uris":{"android":"levelo://app?vid=075753f2-03fc-482d-992a-1a659c9f27f8","ios":"levelo://app?vid=075753f2-03fc-482d-992a-1a659c9f27f8"},"vehicle_type_id":"4","last_reported":1766088715,"current_range_meters":3200,"station_id":"","pricing_plan_id":"cebpf4jnsgd1na2vs0mg"},{"bike_id":"c40c6801-605b-4757-88b0-1e7f9af7b087","system_id":"levelo_inurba_marseille","lat":43.29443,"lon":5.3975,"is_reserved":false,"is_disabled":false,"rental_uris":{"android":"levelo://app?vid=c40c6801-605b-4757-88b0-1e7f9af7b087","ios":"levelo://app?vid=c40c6801-605b-4757-88b0-1e7f9af7b087"},"vehicle_type_id":"4","last_reported":1766088715,"current_range_meters":3200,"station_id":"ce4bh3h2rcd13ifvqdo0","pricing_plan_id":"cebpf4jnsgd1na2vs0mg"},{"bike_id":"139abd45-45c7-43ac-8c05-0d05fbdae320","system_id":"levelo_inurba_marseille","lat":43.2853,"lon":5.44092,"is_reserved":false,"is_disabled":false,"rental_uris":{"android":"levelo://app?vid=139abd45-45c7-43ac-8c05-0d05fbdae320","ios":"levelo://app?vid=139abd45-45c7-43ac-8c05-0d05fbdae320"},"vehicle_type_id":"4","last_reported":1766088715,"current_range_meters":3200,"station_id":"st_d3j3df2ikq2c7380ej80","pricing_plan_id":"cebpf4jnsgd1na2vs0mg"},{"bike_id":"4e9970e5-6b73-48bf-bae5-25251a1d9042","system_id":"levelo_inurba_marseille","lat":43.258252,"lon":5.394389,"is_reserved":false,"is_disabled":false,"rental_uris":{"android":"levelo://app?vid=4e9970e5-6b73-48bf-bae5-25251a1d9042","ios":"levelo://app?vid=4e9970e5-6b73-48bf-bae5-25251a1d9042"},"vehicle_type_id":"4","last_reported":1766088715,"current_range_meters":3200,"station_id":"ce4bhip2rcd13ifvqft0","pricing_plan_id":"cebpf4jnsgd1na2vs0mg"},{"bike_id":"846ba82f-b80b-4118-ba94-f1f7e836af7f","system_id":"levelo_inurba_marseille","lat":43.33757,"lon":5.374367,"is_reserved":false,"is_disabled":false,"rental_uris":{"android":"levelo://app?vid=846ba82f-b80b-4118-ba94-f1f7e836af7f","ios":"levelo://app?vid=846ba82f-b80b-4118-ba94-f1f7e836af7f"},"vehicle_type_id":"4","last_reported":1766088715,"current_range_meters":3600,"station_id":"","pricing_plan_id":"cebpf4jnsgd1na2vs0mg"},{"bike_id":"810e1fac-3433-4833-8834-39cfdf4fd050","system_id":"levelo_inurba_marseille","lat":43.32532,"lon":5.40475,"is_reserved":false,"is_disabled":false,"rental_uris":{"android":"levelo://app?vid=810e1fac-3433-4833-8834-39cfdf4fd050","ios":"levelo://app?vid=810e1fac-3433-4833-8834-39cfdf4fd050"},"vehicle_type_id":"4","last_reported":1766088715,"current_range_meters":3600,"station_id":"ce4bhpp2rcd13ifvqhgg","pricing_plan_id":"cebpf4jnsgd1na2vs0mg"},{"bike_id":"8c596fa0-5a67-45e6-9e68-d2f9a911a924","system_id":"levelo_inurba_marseille","lat":43.29625,"lon":5.37715,"is_reserved":false,"is_disabled":false,"rental_uris":{"android":"levelo://app?vid=8c596fa0-5a67-45e6-9e68-d2f9a911a924","ios":"levelo://app?vid=8c596fa0-5a67-45e6-9e68-d2f9a911a924"},"vehicle_type_id":"4","last_reported":1766088715,"current_range_meters":3600,"station_id":"ce4bgi92rcd13ifvqb90","pricing_plan_id":"cebpf4jnsgd1na2vs0mg"},{"bike_id":"d120d806-66fe-49c5-82b9-f716c627110f","system_id":"levelo_inurba_marseille","lat":43.29549,"lon":5.42283,"is_reserved":false,"is_disabled":false,"rental_uris":{"android":"levelo://app?vid=d120d806-66fe-49c5-82b9-f716c627110f","ios":"levelo://app?vid=d120d806-66fe-49c5-82b9-f716c627110f"},"vehicle_type_id":"4","last_reported":1766088715,"current_range_meters":4000,"station_id":"ce4bhph2rcd13ifvqhdg","pricing_plan_id":"cebpf4jnsgd1na2vs0mg"},{"bike_id":"04aadaa9-8f9b-4247-ad57-f8dabd0adce7","system_id":"levelo_inurba_marseille","lat":43.29737,"lon":5.38165,"is_reserved":false,"is_disabled":false,"rental_uris":{"android":"levelo://app?vid=04aadaa9-8f9b-4247-ad57-f8dabd0adce7","ios":"levelo://app?vid=04aadaa9-8f9b-4247-ad57-f8dabd0adce7"},"vehicle_type_id":"4","last_reported":1766088715,"current_range_meters":4000,"station_id":"","pricing_plan_id":"cebpf4jnsgd1na2vs0mg"},{"bike_id":"60abcc92-9cd8-4028-8c75-d24ddad0d3f5","system_id":"levelo_inurba_marseille","lat":43.29198,"lon":5.39312,"is_reserved":false,"is_disabled":false,"rental_uris":{"android":"levelo://app?vid=60abcc92-9cd8-4028-8c75-d24ddad0d3f5","ios":"levelo://app?vid=60abcc92-9cd8-4028-8c75-d24ddad0d3f5"},"vehicle_type_id":"4","last_reported":1766088715,"current_range_meters":4400,"station_id":"ce4bh192rcd13ifvqdd0","pricing_plan_id":"cebpf4jnsgd1na2vs0mg"},{"bike_id":"64c97bb8-fabc-4d7d-9aa1-782bee57c458","system_id":"levelo_inurba_marseille","lat":43.29569,"lon":5.39975,"is_reserved":false,"is_disabled":false,"rental_uris":{"android":"levelo://app?vid=64c97bb8-fabc-4d7d-9aa1-782bee57c458","ios":"levelo://app?vid=64c97bb8-fabc-4d7d-9aa1-782bee57c458"},"vehicle_type_id":"4","last_reported":1766088715,"current_range_meters":4400,"station_id":"ce4bh312rcd13ifvqdj0","pricing_plan_id":"cebpf4jnsgd1na2vs0mg"},{"bike_id":"421429dd-cc7d-47ec-9c23-d069c5b26c89","system_id":"levelo_inurba_marseille","lat":43.29733,"lon":5.37122,"is_reserved":false,"is_disabled":false,"rental_uris":{"android":"levelo://app?vid=421429dd-cc7d-47ec-9c23-d069c5b26c89","ios":"levelo://app?vid=421429dd-cc7d-47ec-9c23-d069c5b26c89"},"vehicle_type_id":"4","last_reported":1766088715,"current_range_meters":4400,"station_id":"","pricing_plan_id":"cebpf4jnsgd1na2vs0mg"},{"bike_id":"dc28a090-a430-46bc-b9fa-71ab6db2561b","system_id":"levelo_inurba_marseille","lat":43.30649,"lon":5.40079,"is_reserved":false,"is_disabled":false,"rental_uris":{"android":"levelo://app?vid=dc28a090-a430-46bc-b9fa-71ab6db2561b","ios":"levelo://app?vid=dc28a090-a430-46bc-b9fa-71ab6db2561b"},"vehicle_type_id":"4","last_reported":1766088715,"current_range_meters":4400,"station_id":"ce4bh112rcd13ifvqda0","pricing_plan_id":"cebpf4jnsgd1na2vs0mg"},{"bike_id":"ae41551a-3b5e-4d71-8a14-120506fefb36","system_id":"levelo_inurba_marseille","lat":43.297653,"lon":5.427696,"is_reserved":false,"is_disabled":false,"rental_uris":{"android":"levelo://app?vid=ae41551a-3b5e-4d71-8a14-120506fefb36","ios":"levelo://app?vid=ae41551a-3b5e-4d71-8a14-120506fefb36"},"vehicle_type_id":"4","last_reported":1766088715,"current_range_meters":4800,"station_id":"ce4bgih2rcd13ifvqba0","pricing_plan_id":"cebpf4jnsgd1na2vs0mg"},{"bike_id":"7b87b588-9c6a-4369-9707-843aaadcff6c","system_id":"levelo_inurba_marseille","lat":43.31234,"lon":5.3685,"is_reserved":false,"is_disabled":false,"rental_uris":{"android":"levelo://app?vid=7b87b588-9c6a-4369-9707-843aaadcff6c","ios":"levelo://app?vid=7b87b588-9c6a-4369-9707-843aaadcff6c"},"vehicle_type_id":"4","last_reported":1766088715,"current_range_meters":4800,"station_id":"ce4bgl92rcd13ifvqbq0","pricing_plan_id":"cebpf4jnsgd1na2vs0mg"},{"bike_id":"88031236-6a40-4d32-a503-adc00e8f1b31","system_id":"levelo_inurba_marseille","lat":43.33767,"lon":5.374479,"is_reserved":false,"is_disabled":false,"rental_uris":{"android":"levelo://app?vid=88031236-6a40-4d32-a503-adc00e8f1b31","ios":"levelo://app?vid=88031236-6a40-4d32-a503-adc00e8f1b31"},"vehicle_type_id":"4","last_reported":1766088715,"current_range_meters":5600,"station_id":"","pricing_plan_id":"cebpf4jnsgd1na2vs0mg"},{"bike_id":"adf1e018-2599-4cb6-b908-385f549c72d8","system_id":"levelo_inurba_marseille","lat":43.30251,"lon":5.40083,"is_reserved":false,"is_disabled":false,"rental_uris":{"android":"levelo://app?vid=adf1e018-2599-4cb6-b908-385f549c72d8","ios":"levelo://app?vid=adf1e018-2599-4cb6-b908-385f549c72d8"},"vehicle_type_id":"4","last_reported":1766088715,"current_range_meters":5600,"station_id":"ce4bgvh2rcd13ifvqcs0","pricing_plan_id":"cebpf4jnsgd1na2vs0mg"},{"bike_id":"0b8ed324-0846-4be1-8827-b5d8db7fa9ab","system_id":"levelo_inurba_marseille","lat":43.28532,"lon":5.44096,"is_reserved":false,"is_disabled":true,"rental_uris":{"android":"levelo://app?vid=0b8ed324-0846-4be1-8827-b5d8db7fa9ab","ios":"levelo://app?vid=0b8ed324-0846-4be1-8827-b5d8db7fa9ab"},"vehicle_type_id":"4","last_reported":1766088715,"current_range_meters":5600,"station_id":"st_d3j3df2ikq2c7380ej80","pricing_plan_id":"cebpf4jnsgd1na2vs0mg"},{"bike_id":"3eb4d362-c299-4d0e-ab28-26721e375afc","system_id":"levelo_inurba_marseille","lat":43.27498,"lon":5.42461,"is_reserved":false,"is_disabled":false,"rental_uris":{"android":"levelo://app?vid=3eb4d362-c299-4d0e-ab28-26721e375afc","ios":"levelo://app?vid=3eb4d362-c299-4d0e-ab28-26721e375afc"},"vehicle_type_id":"4","last_reported":1766088715,"current_range_meters":5600,"station_id":"ce4bhn92rcd13ifvqgrg","pricing_plan_id":"cebpf4jnsgd1na2vs0mg"},{"bike_id":"73b791d2-6f8a-4c76-a940-4605611964e2","system_id":"levelo_inurba_marseille","lat":43.27367,"lon":5.36247,"is_reserved":false,"is_disabled":false,"rental_uris":{"android":"levelo://app?vid=73b791d2-6f8a-4c76-a940-4605611964e2","ios":"levelo://app?vid=73b791d2-6f8a-4c76-a940-4605611964e2"},"vehicle_type_id":"4","last_reported":1766088715,"current_range_meters":6000,"station_id":"ce4bhbh2rcd13ifvqeo0","pricing_plan_id":"cebpf4jnsgd1na2vs0mg"},{"bike_id":"9080dc59-f94c-4d06-bf2c-c29988d85541","system_id":"levelo_inurba_marseille","lat":43.29586,"lon":5.39933,"is_reserved":false,"is_disabled":true,"rental_uris":{"android":"levelo://app?vid=9080dc59-f94c-4d06-bf2c-c29988d85541","ios":"levelo://app?vid=9080dc59-f94c-4d06-bf2c-c29988d85541"},"vehicle_type_id":"4","last_reported":1766088715,"current_range_meters":6000,"station_id":"ce4bh312rcd13ifvqdj0","pricing_plan_id":"cebpf4jnsgd1na2vs0mg"},{"bike_id":"6cbf3bed-7013-409c-a421-bea59a98c556","system_id":"levelo_inurba_marseille","lat":43.30139,"lon":5.38078,"is_reserved":false,"is_disabled":false,"rental_uris":{"android":"levelo://app?vid=6cbf3bed-7013-409c-a421-bea59a98c556","ios":"levelo://app?vid=6cbf3bed-7013-409c-a421-bea59a98c556"},"vehicle_type_id":"4","last_reported":1766088715,"current_range_meters":6000,"station_id":"ce4bgjp2rcd13ifvqbh0","pricing_plan_id":"cebpf4jnsgd1na2vs0mg"},{"bike_id":"cc178787-4e27-477e-85ac-bb874f1df1de","system_id":"levelo_inurba_marseille","lat":43.27338,"lon":5.41062,"is_reserved":false,"is_disabled":false,"rental_uris":{"android":"levelo://app?vid=cc178787-4e27-477e-85ac-bb874f1df1de","ios":"levelo://app?vid=cc178787-4e27-477e-85ac-bb874f1df1de"},"vehicle_type_id":"4","last_reported":1766088715,"current_range_meters":6000,"station_id":"","pricing_plan_id":"cebpf4jnsgd1na2vs0mg"},{"bike_id":"63120e8a-13fa-4aba-8f46-ecbc93d19ddc","system_id":"levelo_inurba_marseille","lat":43.29003,"lon":5.35602,"is_reserved":false,"is_disabled":false,"rental_uris":{"android":"levelo://app?vid=63120e8a-13fa-4aba-8f46-ecbc93d19ddc","ios":"levelo://app?vid=63120e8a-13fa-4aba-8f46-ecbc93d19ddc"},"vehicle_type_id":"4","last_reported":1766088715,"current_range_meters":6000,"station_id":"ce4bhb92rcd13ifvqen0","pricing_plan_id":"cebpf4jnsgd1na2vs0mg"},{"bike_id":"332619e6-98c8-42bf-8c25-454272c36bd1","system_id":"levelo_inurba_marseille","lat":43.307276,"lon":5.424379,"is_reserved":false,"is_disabled":false,"rental_uris":{"android":"levelo://app?vid=332619e6-98c8-42bf-8c25-454272c36bd1","ios":"levelo://app?vid=332619e6-98c8-42bf-8c25-454272c36bd1"},"vehicle_type_id":"4","last_reported":1766088715,"current_range_meters":6000,"station_id":"st_cvj6ca6bvosntc0bfgr0","pricing_plan_id":"cebpf4jnsgd1na2vs0mg"},{"bike_id":"b9e289e9-e1d8-4db9-8eeb-d4ae6610e1bb","system_id":"levelo_inurba_marseille","lat":43.28868,"lon":5.42533,"is_reserved":false,"is_disabled":false,"rental_uris":{"android":"levelo://app?vid=b9e289e9-e1d8-4db9-8eeb-d4ae6610e1bb","ios":"levelo://app?vid=b9e289e9-e1d8-4db9-8eeb-d4ae6610e1bb"},"vehicle_type_id":"4","last_reported":1766088715,"current_range_meters":6400,"station_id":"st_d3b462108ojc7389ooeg","pricing_plan_id":"cebpf4jnsgd1na2vs0mg"},{"bike_id":"50e6eefe-8aea-4054-ab8f-87d6e301ff34","system_id":"levelo_inurba_marseille","lat":43.24295,"lon":5.43839,"is_reserved":false,"is_disabled":false,"rental_uris":{"android":"levelo://app?vid=50e6eefe-8aea-4054-ab8f-87d6e301ff34","ios":"levelo://app?vid=50e6eefe-8aea-4054-ab8f-87d6e301ff34"},"vehicle_type_id":"4","last_reported":1766088715,"current_range_meters":6400,"station_id":"","pricing_plan_id":"cebpf4jnsgd1na2vs0mg"},{"bike_id":"a1ac0ba7-1483-464e-9caa-755fc64f46a4","system_id":"levelo_inurba_marseille","lat":43.24087,"lon":5.37846,"is_reserved":false,"is_disabled":false,"rental_uris":{"android":"levelo://app?vid=a1ac0ba7-1483-464e-9caa-755fc64f46a4","ios":"levelo://app?vid=a1ac0ba7-1483-464e-9caa-755fc64f46a4"},"vehicle_type_id":"4","last_reported":1766088715,"current_range_meters":6400,"station_id":"","pricing_plan_id":"cebpf4jnsgd1na2vs0mg"},{"bike_id":"c2657a42-26a4-4ae0-b35b-25bd9d22776b","system_id":"levelo_inurba_marseille","lat":43.28722,"lon":5.36078,"is_reserved":false,"is_disabled":false,"rental_uris":{"android":"levelo://app?vid=c2657a42-26a4-4ae0-b35b-25bd9d22776b","ios":"levelo://app?vid=c2657a42-26a4-4ae0-b35b-25bd9d22776b"},"vehicle_type_id":"4","last_reported":1766088715,"current_range_meters":6800,"station_id":"cki0cbj6b192h4jlfktg","pricing_plan_id":"cebpf4jnsgd1na2vs0mg"},{"bike_id":"d235767a-3e44-44c9-893e-7ebda15e5a64","system_id":"levelo_inurba_marseille","lat":43.25393,"lon":5.38534,"is_reserved":false,"is_disabled":false,"rental_uris":{"android":"levelo://app?vid=d235767a-3e44-44c9-893e-7ebda15e5a64","ios":"levelo://app?vid=d235767a-3e44-44c9-893e-7ebda15e5a64"},"vehicle_type_id":"4","last_reported":1766088715,"current_range_meters":6800,"station_id":"","pricing_plan_id":"cebpf4jnsgd1na2vs0mg"},{"bike_id":"cc2a1c40-f3ab-451b-8812-6fdc50c6702d","system_id":"levelo_inurba_marseille","lat":43.28417,"lon":5.34976,"is_reserved":false,"is_disabled":false,"rental_uris":{"android":"levelo://app?vid=cc2a1c40-f3ab-451b-8812-6fdc50c6702d","ios":"levelo://app?vid=cc2a1c40-f3ab-451b-8812-6fdc50c6702d"},"vehicle_type_id":"4","last_reported":1766088715,"current_range_meters":6800,"station_id":"ce4bhbh2rcd13ifvqepg","pricing_plan_id":"cebpf4jnsgd1na2vs0mg"},{"bike_id":"c4cfeafa-6529-4b98-b7f9-ae7b6ca7dbd9","system_id":"levelo_inurba_marseille","lat":43.29909,"lon":5.36367,"is_reserved":false,"is_disabled":false,"rental_uris":{"android":"levelo://app?vid=c4cfeafa-6529-4b98-b7f9-ae7b6ca7dbd9","ios":"levelo://app?vid=c4cfeafa-6529-4b98-b7f9-ae7b6ca7dbd9"},"vehicle_type_id":"4","last_reported":1766088715,"current_range_meters":6800,"station_id":"","pricing_plan_id":"cebpf4jnsgd1na2vs0mg"},{"bike_id":"166160a8-8d79-4d43-9204-b6d12526bbf5","system_id":"levelo_inurba_marseille","lat":43.30547,"lon":5.36534,"is_reserved":false,"is_disabled":false,"rental_uris":{"android":"levelo://app?vid=166160a8-8d79-4d43-9204-b6d12526bbf5","ios":"levelo://app?vid=166160a8-8d79-4d43-9204-b6d12526bbf5"},"vehicle_type_id":"4","last_reported":1766088715,"current_range_meters":6800,"station_id":"ce4bgs12rcd13ifvqcag","pricing_plan_id":"cebpf4jnsgd1na2vs0mg"},{"bike_id":"cf90682b-ebdc-45ba-8a34-248880a734d5","system_id":"levelo_inurba_marseille","lat":43.27677,"lon":5.38887,"is_reserved":false,"is_disabled":false,"rental_uris":{"android":"levelo://app?vid=cf90682b-ebdc-45ba-8a34-248880a734d5","ios":"levelo://app?vid=cf90682b-ebdc-45ba-8a34-248880a734d5"},"vehicle_type_id":"4","last_reported":1766088715,"current_range_meters":6800,"station_id":"ce4bhi12rcd13ifvqfo0","pricing_plan_id":"cebpf4jnsgd1na2vs0mg"},{"bike_id":"07102bbf-8e43-4cc8-abfb-b7bffaf00185","system_id":"levelo_inurba_marseille","lat":43.29376,"lon":5.36268,"is_reserved":false,"is_disabled":false,"rental_uris":{"android":"levelo://app?vid=07102bbf-8e43-4cc8-abfb-b7bffaf00185","ios":"levelo://app?vid=07102bbf-8e43-4cc8-abfb-b7bffaf00185"},"vehicle_type_id":"4","last_reported":1766088715,"current_range_meters":6800,"station_id":"","pricing_plan_id":"cebpf4jnsgd1na2vs0mg"},{"bike_id":"a5b6efc5-8fe1-4d13-a7e7-cfd45268c24f","system_id":"levelo_inurba_marseille","lat":43.31365,"lon":5.38477,"is_reserved":false,"is_disabled":false,"rental_uris":{"android":"levelo://app?vid=a5b6efc5-8fe1-4d13-a7e7-cfd45268c24f","ios":"levelo://app?vid=a5b6efc5-8fe1-4d13-a7e7-cfd45268c24f"},"vehicle_type_id":"4","last_reported":1766088715,"current_range_meters":6800,"station_id":"ce4bgt92rcd13ifvqcf0","pricing_plan_id":"cebpf4jnsgd1na2vs0mg"},{"bike_id":"c7e5daf3-a6b0-4ffc-8e95-134c47362fa1","system_id":"levelo_inurba_marseille","lat":43.30134,"lon":5.36818,"is_reserved":false,"is_disabled":false,"rental_uris":{"android":"levelo://app?vid=c7e5daf3-a6b0-4ffc-8e95-134c47362fa1","ios":"levelo://app?vid=c7e5daf3-a6b0-4ffc-8e95-134c47362fa1"},"vehicle_type_id":"4","last_reported":1766088715,"current_range_meters":6800,"station_id":"","pricing_plan_id":"cebpf4jnsgd1na2vs0mg"},{"bike_id":"c220c080-e1b8-42b1-930f-df7e555bd248","system_id":"levelo_inurba_marseille","lat":43.29531,"lon":5.38355,"is_reserved":false,"is_disabled":false,"rental_uris":{"android":"levelo://app?vid=c220c080-e1b8-42b1-930f-df7e555bd248","ios":"levelo://app?vid=c220c080-e1b8-42b1-930f-df7e555bd248"},"vehicle_type_id":"4","last_reported":1766088715,"current_range_meters":6800,"station_id":"","pricing_plan_id":"cebpf4jnsgd1na2vs0mg"},{"bike_id":"9282d5a7-0e9c-4010-ae8a-61b36e696bbc","system_id":"levelo_inurba_marseille","lat":43.25331,"lon":5.42168,"is_reserved":false,"is_disabled":false,"rental_uris":{"android":"levelo://app?vid=9282d5a7-0e9c-4010-ae8a-61b36e696bbc","ios":"levelo://app?vid=9282d5a7-0e9c-4010-ae8a-61b36e696bbc"},"vehicle_type_id":"4","last_reported":1766088715,"current_range_meters":7200,"station_id":"st_d2m65c5bi1j21697t3ng","pricing_plan_id":"cebpf4jnsgd1na2vs0mg"},{"bike_id":"6a9449df-3fba-4681-b740-672e1b858e04","system_id":"levelo_inurba_marseille","lat":43.29555,"lon":5.4229,"is_reserved":false,"is_disabled":false,"rental_uris":{"android":"levelo://app?vid=6a9449df-3fba-4681-b740-672e1b858e04","ios":"levelo://app?vid=6a9449df-3fba-4681-b740-672e1b858e04"},"vehicle_type_id":"4","last_reported":1766088715,"current_range_meters":7200,"station_id":"ce4bhph2rcd13ifvqhdg","pricing_plan_id":"cebpf4jnsgd1na2vs0mg"},{"bike_id":"a9adc8bf-52f1-4c31-a2de-42743dd086bf","system_id":"levelo_inurba_marseille","lat":43.33723,"lon":5.3748,"is_reserved":false,"is_disabled":false,"rental_uris":{"android":"levelo://app?vid=a9adc8bf-52f1-4c31-a2de-42743dd086bf","ios":"levelo://app?vid=a9adc8bf-52f1-4c31-a2de-42743dd086bf"},"vehicle_type_id":"4","last_reported":1766088715,"current_range_meters":7200,"station_id":"","pricing_plan_id":"cebpf4jnsgd1na2vs0mg"},{"bike_id":"4fc6a6cb-0696-4586-a3b8-9d9960e95275","system_id":"levelo_inurba_marseille","lat":43.29799,"lon":5.39337,"is_reserved":false,"is_disabled":false,"rental_uris":{"android":"levelo://app?vid=4fc6a6cb-0696-4586-a3b8-9d9960e95275","ios":"levelo://app?vid=4fc6a6cb-0696-4586-a3b8-9d9960e95275"},"vehicle_type_id":"4","last_reported":1766088715,"current_range_meters":7200,"station_id":"chh1huq6cuj3fo74tm60","pricing_plan_id":"cebpf4jnsgd1na2vs0mg"},{"bike_id":"32d2954c-60b8-4db3-88e3-2e0255eb2550","system_id":"levelo_inurba_marseille","lat":43.28564,"lon":5.39511,"is_reserved":false,"is_disabled":false,"rental_uris":{"android":"levelo://app?vid=32d2954c-60b8-4db3-88e3-2e0255eb2550","ios":"levelo://app?vid=32d2954c-60b8-4db3-88e3-2e0255eb2550"},"vehicle_type_id":"4","last_reported":1766088715,"current_range_meters":7200,"station_id":"ce4bh292rcd13ifvqdg0","pricing_plan_id":"cebpf4jnsgd1na2vs0mg"},{"bike_id":"651634b5-ed98-44e8-8999-8187e72a197c","system_id":"levelo_inurba_marseille","lat":43.284804,"lon":5.384086,"is_reserved":false,"is_disabled":false,"rental_uris":{"android":"levelo://app?vid=651634b5-ed98-44e8-8999-8187e72a197c","ios":"levelo://app?vid=651634b5-ed98-44e8-8999-8187e72a197c"},"vehicle_type_id":"4","last_reported":1766088715,"current_range_meters":7200,"station_id":"ce4bh512rcd13ifvqe3g","pricing_plan_id":"cebpf4jnsgd1na2vs0mg"},{"bike_id":"9cb52630-f8b4-4ff3-9ddb-fd021bf763e2","system_id":"levelo_inurba_marseille","lat":43.29849,"lon":5.37111,"is_reserved":false,"is_disabled":false,"rental_uris":{"android":"levelo://app?vid=9cb52630-f8b4-4ff3-9ddb-fd021bf763e2","ios":"levelo://app?vid=9cb52630-f8b4-4ff3-9ddb-fd021bf763e2"},"vehicle_type_id":"4","last_reported":1766088715,"current_range_meters":7200,"station_id":"","pricing_plan_id":"cebpf4jnsgd1na2vs0mg"},{"bike_id":"068cf0db-8f7d-4246-b1f9-6f0b576e785b","system_id":"levelo_inurba_marseille","lat":43.29523,"lon":5.39405,"is_reserved":false,"is_disabled":false,"rental_uris":{"android":"levelo://app?vid=068cf0db-8f7d-4246-b1f9-6f0b576e785b","ios":"levelo://app?vid=068cf0db-8f7d-4246-b1f9-6f0b576e785b"},"vehicle_type_id":"4","last_reported":1766088715,"current_range_meters":8000,"station_id":"ce4bh292rcd13ifvqdf0","pricing_plan_id":"cebpf4jnsgd1na2vs0mg"},{"bike_id":"00fd2dcb-6faf-4c7a-8c99-525909084655","system_id":"levelo_inurba_marseille","lat":43.28157,"lon":5.42646,"is_reserved":false,"is_disabled":true,"rental_uris":{"android":"levelo://app?vid=00fd2dcb-6faf-4c7a-8c99-525909084655","ios":"levelo://app?vid=00fd2dcb-6faf-4c7a-8c99-525909084655"},"vehicle_type_id":"4","last_reported":1766088715,"current_range_meters":8000,"station_id":"ce4bhnh2rcd13ifvqgug","pricing_plan_id":"cebpf4jnsgd1na2vs0mg"},{"bike_id":"120bb268-ef5e-447d-81b6-ba9361e727bd","system_id":"levelo_inurba_marseille","lat":43.28227,"lon":5.39074,"is_reserved":false,"is_disabled":false,"rental_uris":{"android":"levelo://app?vid=120bb268-ef5e-447d-81b6-ba9361e727bd","ios":"levelo://app?vid=120bb268-ef5e-447d-81b6-ba9361e727bd"},"vehicle_type_id":"4","last_reported":1766088715,"current_range_meters":8000,"station_id":"ce4bhn92rcd13ifvqgsg","pricing_plan_id":"cebpf4jnsgd1na2vs0mg"},{"bike_id":"3c59d30b-0850-40df-97a8-c10ecbd8cde4","system_id":"levelo_inurba_marseille","lat":43.2572,"lon":5.41112,"is_reserved":false,"is_disabled":false,"rental_uris":{"android":"levelo://app?vid=3c59d30b-0850-40df-97a8-c10ecbd8cde4","ios":"levelo://app?vid=3c59d30b-0850-40df-97a8-c10ecbd8cde4"},"vehicle_type_id":"4","last_reported":1766088715,"current_range_meters":8000,"station_id":"ce4bhkp2rcd13ifvqgd0","pricing_plan_id":"cebpf4jnsgd1na2vs0mg"},{"bike_id":"3418b159-b86a-4a29-9eee-180d4aefe5dd","system_id":"levelo_inurba_marseille","lat":43.30332,"lon":5.40419,"is_reserved":false,"is_disabled":false,"rental_uris":{"android":"levelo://app?vid=3418b159-b86a-4a29-9eee-180d4aefe5dd","ios":"levelo://app?vid=3418b159-b86a-4a29-9eee-180d4aefe5dd"},"vehicle_type_id":"4","last_reported":1766088715,"current_range_meters":8400,"station_id":"ce4bh012rcd13ifvqd10","pricing_plan_id":"cebpf4jnsgd1na2vs0mg"},{"bike_id":"9cd0b5cd-982d-46c9-b94d-972458c0583a","system_id":"levelo_inurba_marseille","lat":43.30656,"lon":5.37365,"is_reserved":false,"is_disabled":false,"rental_uris":{"android":"levelo://app?vid=9cd0b5cd-982d-46c9-b94d-972458c0583a","ios":"levelo://app?vid=9cd0b5cd-982d-46c9-b94d-972458c0583a"},"vehicle_type_id":"4","last_reported":1766088715,"current_range_meters":8400,"station_id":"","pricing_plan_id":"cebpf4jnsgd1na2vs0mg"},{"bike_id":"7a4dda5c-d687-4861-9310-230905128690","system_id":"levelo_inurba_marseille","lat":43.30099,"lon":5.39063,"is_reserved":false,"is_disabled":false,"rental_uris":{"android":"levelo://app?vid=7a4dda5c-d687-4861-9310-230905128690","ios":"levelo://app?vid=7a4dda5c-d687-4861-9310-230905128690"},"vehicle_type_id":"4","last_reported":1766088715,"current_range_meters":8400,"station_id":"ce4bh192rcd13ifvqdb0","pricing_plan_id":"cebpf4jnsgd1na2vs0mg"},{"bike_id":"f9902b54-359a-4a2d-9dab-8d982ebd9f4d","system_id":"levelo_inurba_marseille","lat":43.296198,"lon":5.377091,"is_reserved":false,"is_disabled":false,"rental_uris":{"android":"levelo://app?vid=f9902b54-359a-4a2d-9dab-8d982ebd9f4d","ios":"levelo://app?vid=f9902b54-359a-4a2d-9dab-8d982ebd9f4d"},"vehicle_type_id":"4","last_reported":1766088715,"current_range_meters":8400,"station_id":"","pricing_plan_id":"cebpf4jnsgd1na2vs0mg"},{"bike_id":"069ecd31-6884-4e55-bcb0-19940b2fbb42","system_id":"levelo_inurba_marseille","lat":43.29165,"lon":5.37151,"is_reserved":false,"is_disabled":false,"rental_uris":{"android":"levelo://app?vid=069ecd31-6884-4e55-bcb0-19940b2fbb42","ios":"levelo://app?vid=069ecd31-6884-4e55-bcb0-19940b2fbb42"},"vehicle_type_id":"4","last_reported":1766088715,"current_range_meters":8400,"station_id":"ce4bha92rcd13ifvqeh0","pricing_plan_id":"cebpf4jnsgd1na2vs0mg"},{"bike_id":"da18a3b0-ce97-43eb-b181-936e440b40e5","system_id":"levelo_inurba_marseille","lat":43.31695,"lon":5.40387,"is_reserved":false,"is_disabled":false,"rental_uris":{"android":"levelo://app?vid=da18a3b0-ce97-43eb-b181-936e440b40e5","ios":"levelo://app?vid=da18a3b0-ce97-43eb-b181-936e440b40e5"},"vehicle_type_id":"4","last_reported":1766088715,"current_range_meters":8400,"station_id":"","pricing_plan_id":"cebpf4jnsgd1na2vs0mg"},{"bike_id":"f23d33d9-88b8-4549-a434-a6f6654f4694","system_id":"levelo_inurba_marseille","lat":43.24392,"lon":5.3704,"is_reserved":false,"is_disabled":false,"rental_uris":{"android":"levelo://app?vid=f23d33d9-88b8-4549-a434-a6f6654f4694","ios":"levelo://app?vid=f23d33d9-88b8-4549-a434-a6f6654f4694"},"vehicle_type_id":"4","last_reported":1766088715,"current_range_meters":8800,"station_id":"ce4bhhh2rcd13ifvqfk0","pricing_plan_id":"cebpf4jnsgd1na2vs0mg"},{"bike_id":"bf072638-a768-4d06-83c6-7ffebcffda42","system_id":"levelo_inurba_marseille","lat":43.29781,"lon":5.39341,"is_reserved":false,"is_disabled":false,"rental_uris":{"android":"levelo://app?vid=bf072638-a768-4d06-83c6-7ffebcffda42","ios":"levelo://app?vid=bf072638-a768-4d06-83c6-7ffebcffda42"},"vehicle_type_id":"4","last_reported":1766088715,"current_range_meters":8800,"station_id":"chh1huq6cuj3fo74tm60","pricing_plan_id":"cebpf4jnsgd1na2vs0mg"},{"bike_id":"3cde007c-a409-4597-91e7-ca2461274ad1","system_id":"levelo_inurba_marseille","lat":43.26582,"lon":5.40178,"is_reserved":false,"is_disabled":false,"rental_uris":{"android":"levelo://app?vid=3cde007c-a409-4597-91e7-ca2461274ad1","ios":"levelo://app?vid=3cde007c-a409-4597-91e7-ca2461274ad1"},"vehicle_type_id":"4","last_reported":1766088715,"current_range_meters":8800,"station_id":"","pricing_plan_id":"cebpf4jnsgd1na2vs0mg"},{"bike_id":"8e7be121-07dd-489f-8e8a-9eb75f8564df","system_id":"levelo_inurba_marseille","lat":43.31886,"lon":5.40727,"is_reserved":false,"is_disabled":false,"rental_uris":{"android":"levelo://app?vid=8e7be121-07dd-489f-8e8a-9eb75f8564df","ios":"levelo://app?vid=8e7be121-07dd-489f-8e8a-9eb75f8564df"},"vehicle_type_id":"4","last_reported":1766088715,"current_range_meters":8800,"station_id":"ce4bhq12rcd13ifvqhig","pricing_plan_id":"cebpf4jnsgd1na2vs0mg"},{"bike_id":"a8184877-ba49-44ed-b26f-9cc529982d22","system_id":"levelo_inurba_marseille","lat":43.29194,"lon":5.39312,"is_reserved":false,"is_disabled":false,"rental_uris":{"android":"levelo://app?vid=a8184877-ba49-44ed-b26f-9cc529982d22","ios":"levelo://app?vid=a8184877-ba49-44ed-b26f-9cc529982d22"},"vehicle_type_id":"4","last_reported":1766088715,"current_range_meters":8800,"station_id":"ce4bh192rcd13ifvqdd0","pricing_plan_id":"cebpf4jnsgd1na2vs0mg"},{"bike_id":"a2094c9a-b453-4c4b-96fc-8f6abd18ff8e","system_id":"levelo_inurba_marseille","lat":43.2668,"lon":5.38269,"is_reserved":false,"is_disabled":false,"rental_uris":{"android":"levelo://app?vid=a2094c9a-b453-4c4b-96fc-8f6abd18ff8e","ios":"levelo://app?vid=a2094c9a-b453-4c4b-96fc-8f6abd18ff8e"},"vehicle_type_id":"4","last_reported":1766088715,"current_range_meters":8800,"station_id":"ce4bhg92rcd13ifvqf90","pricing_plan_id":"cebpf4jnsgd1na2vs0mg"},{"bike_id":"7ba54602-568d-42aa-bd74-9550f527b3b9","system_id":"levelo_inurba_marseille","lat":43.28869,"lon":5.35827,"is_reserved":false,"is_disabled":false,"rental_uris":{"android":"levelo://app?vid=7ba54602-568d-42aa-bd74-9550f527b3b9","ios":"levelo://app?vid=7ba54602-568d-42aa-bd74-9550f527b3b9"},"vehicle_type_id":"4","last_reported":1766088715,"current_range_meters":8800,"station_id":"ce4bhb12rcd13ifvqem0","pricing_plan_id":"cebpf4jnsgd1na2vs0mg"},{"bike_id":"a6365b95-0c1f-4c94-a012-c0e22f4b2a20","system_id":"levelo_inurba_marseille","lat":43.31727,"lon":5.43688,"is_reserved":false,"is_disabled":false,"rental_uris":{"android":"levelo://app?vid=a6365b95-0c1f-4c94-a012-c0e22f4b2a20","ios":"levelo://app?vid=a6365b95-0c1f-4c94-a012-c0e22f4b2a20"},"vehicle_type_id":"4","last_reported":1766088715,"current_range_meters":8800,"station_id":"ce4bhp92rcd13ifvqhcg","pricing_plan_id":"cebpf4jnsgd1na2vs0mg"},{"bike_id":"c39e3b99-6bae-441c-9ff1-86572ae7ce60","system_id":"levelo_inurba_marseille","lat":43.28567,"lon":5.39491,"is_reserved":false,"is_disabled":false,"rental_uris":{"android":"levelo://app?vid=c39e3b99-6bae-441c-9ff1-86572ae7ce60","ios":"levelo://app?vid=c39e3b99-6bae-441c-9ff1-86572ae7ce60"},"vehicle_type_id":"4","last_reported":1766088715,"current_range_meters":9200,"station_id":"ce4bh292rcd13ifvqdg0","pricing_plan_id":"cebpf4jnsgd1na2vs0mg"},{"bike_id":"641a61d2-07b0-43ee-a323-1afe61343727","system_id":"levelo_inurba_marseille","lat":43.2958,"lon":5.36741,"is_reserved":false,"is_disabled":false,"rental_uris":{"android":"levelo://app?vid=641a61d2-07b0-43ee-a323-1afe61343727","ios":"levelo://app?vid=641a61d2-07b0-43ee-a323-1afe61343727"},"vehicle_type_id":"4","last_reported":1766088715,"current_range_meters":9200,"station_id":"ce4bgph2rcd13ifvqc2g","pricing_plan_id":"cebpf4jnsgd1na2vs0mg"},{"bike_id":"81508f0a-e327-4705-ae72-228165570b37","system_id":"levelo_inurba_marseille","lat":43.250902,"lon":5.389469,"is_reserved":false,"is_disabled":false,"rental_uris":{"android":"levelo://app?vid=81508f0a-e327-4705-ae72-228165570b37","ios":"levelo://app?vid=81508f0a-e327-4705-ae72-228165570b37"},"vehicle_type_id":"4","last_reported":1766088715,"current_range_meters":9200,"station_id":"","pricing_plan_id":"cebpf4jnsgd1na2vs0mg"},{"bike_id":"cf13c152-e4dd-4b85-ac0d-76fed9bd52f3","system_id":"levelo_inurba_marseille","lat":43.28611,"lon":5.3511,"is_reserved":false,"is_disabled":false,"rental_uris":{"android":"levelo://app?vid=cf13c152-e4dd-4b85-ac0d-76fed9bd52f3","ios":"levelo://app?vid=cf13c152-e4dd-4b85-ac0d-76fed9bd52f3"},"vehicle_type_id":"4","last_reported":1766088715,"current_range_meters":9200,"station_id":"ce4bhch2rcd13ifvqeug","pricing_plan_id":"cebpf4jnsgd1na2vs0mg"},{"bike_id":"f87a7598-e6b9-4feb-a6e3-d98d4acd6941","system_id":"levelo_inurba_marseille","lat":43.24174,"lon":5.36407,"is_reserved":false,"is_disabled":false,"rental_uris":{"android":"levelo://app?vid=f87a7598-e6b9-4feb-a6e3-d98d4acd6941","ios":"levelo://app?vid=f87a7598-e6b9-4feb-a6e3-d98d4acd6941"},"vehicle_type_id":"4","last_reported":1766088715,"current_range_meters":9200,"station_id":"cpo36qri1sfpv3e86is0","pricing_plan_id":"cebpf4jnsgd1na2vs0mg"},{"bike_id":"09575982-d1ce-48f3-97ed-c290bec651a2","system_id":"levelo_inurba_marseille","lat":43.28534,"lon":5.44107,"is_reserved":false,"is_disabled":false,"rental_uris":{"android":"levelo://app?vid=09575982-d1ce-48f3-97ed-c290bec651a2","ios":"levelo://app?vid=09575982-d1ce-48f3-97ed-c290bec651a2"},"vehicle_type_id":"4","last_reported":1766088715,"current_range_meters":9200,"station_id":"st_d3j3df2ikq2c7380ej80","pricing_plan_id":"cebpf4jnsgd1na2vs0mg"},{"bike_id":"83789c53-a455-4209-b2b2-8a0416423c0a","system_id":"levelo_inurba_marseille","lat":43.2951,"lon":5.39393,"is_reserved":false,"is_disabled":false,"rental_uris":{"android":"levelo://app?vid=83789c53-a455-4209-b2b2-8a0416423c0a","ios":"levelo://app?vid=83789c53-a455-4209-b2b2-8a0416423c0a"},"vehicle_type_id":"4","last_reported":1766088715,"current_range_meters":9200,"station_id":"ce4bh292rcd13ifvqdf0","pricing_plan_id":"cebpf4jnsgd1na2vs0mg"},{"bike_id":"516c6c83-1685-45e7-8286-0b9c2073c9f9","system_id":"levelo_inurba_marseille","lat":43.28484,"lon":5.38414,"is_reserved":false,"is_disabled":false,"rental_uris":{"android":"levelo://app?vid=516c6c83-1685-45e7-8286-0b9c2073c9f9","ios":"levelo://app?vid=516c6c83-1685-45e7-8286-0b9c2073c9f9"},"vehicle_type_id":"4","last_reported":1766088715,"current_range_meters":9600,"station_id":"ce4bh512rcd13ifvqe3g","pricing_plan_id":"cebpf4jnsgd1na2vs0mg"},{"bike_id":"467517c8-ed87-4e02-bef8-4ed63963538d","system_id":"levelo_inurba_marseille","lat":43.27185,"lon":5.41001,"is_reserved":false,"is_disabled":true,"rental_uris":{"android":"levelo://app?vid=467517c8-ed87-4e02-bef8-4ed63963538d","ios":"levelo://app?vid=467517c8-ed87-4e02-bef8-4ed63963538d"},"vehicle_type_id":"4","last_reported":1766088715,"current_range_meters":9600,"station_id":"ce4bhl12rcd13ifvqgf0","pricing_plan_id":"cebpf4jnsgd1na2vs0mg"},{"bike_id":"c8ae05dc-be68-4290-a207-222d34083f3e","system_id":"levelo_inurba_marseille","lat":43.28306,"lon":5.38919,"is_reserved":false,"is_disabled":false,"rental_uris":{"android":"levelo://app?vid=c8ae05dc-be68-4290-a207-222d34083f3e","ios":"levelo://app?vid=c8ae05dc-be68-4290-a207-222d34083f3e"},"vehicle_type_id":"4","last_reported":1766088715,"current_range_meters":9600,"station_id":"","pricing_plan_id":"cebpf4jnsgd1na2vs0mg"},{"bike_id":"37acae82-d1d0-450a-bf9a-b56251eaf3bb","system_id":"levelo_inurba_marseille","lat":43.22947,"lon":5.35353,"is_reserved":false,"is_disabled":false,"rental_uris":{"android":"levelo://app?vid=37acae82-d1d0-450a-bf9a-b56251eaf3bb","ios":"levelo://app?vid=37acae82-d1d0-450a-bf9a-b56251eaf3bb"},"vehicle_type_id":"4","last_reported":1766088715,"current_range_meters":9600,"station_id":"cpo3532slgdg3j2ikp40","pricing_plan_id":"cebpf4jnsgd1na2vs0mg"},{"bike_id":"9a3d7d62-61d2-4eda-b573-080611517549","system_id":"levelo_inurba_marseille","lat":43.28609,"lon":5.35104,"is_reserved":false,"is_disabled":false,"rental_uris":{"android":"levelo://app?vid=9a3d7d62-61d2-4eda-b573-080611517549","ios":"levelo://app?vid=9a3d7d62-61d2-4eda-b573-080611517549"},"vehicle_type_id":"4","last_reported":1766088715,"current_range_meters":9600,"station_id":"ce4bhch2rcd13ifvqeug","pricing_plan_id":"cebpf4jnsgd1na2vs0mg"},{"bike_id":"ee22b872-c033-4e0e-815e-ebae4f143d17","system_id":"levelo_inurba_marseille","lat":43.28498,"lon":5.38417,"is_reserved":false,"is_disabled":false,"rental_uris":{"android":"levelo://app?vid=ee22b872-c033-4e0e-815e-ebae4f143d17","ios":"levelo://app?vid=ee22b872-c033-4e0e-815e-ebae4f143d17"},"vehicle_type_id":"4","last_reported":1766088715,"current_range_meters":9600,"station_id":"ce4bh512rcd13ifvqe3g","pricing_plan_id":"cebpf4jnsgd1na2vs0mg"},{"bike_id":"62992be5-5e7a-4105-a3a6-9d0c9b1f9b8d","system_id":"levelo_inurba_marseille","lat":43.28628,"lon":5.37043,"is_reserved":false,"is_disabled":false,"rental_uris":{"android":"levelo://app?vid=62992be5-5e7a-4105-a3a6-9d0c9b1f9b8d","ios":"levelo://app?vid=62992be5-5e7a-4105-a3a6-9d0c9b1f9b8d"},"vehicle_type_id":"4","last_reported":1766088715,"current_range_meters":9600,"station_id":"ce4bht12rcd13ifvqi60","pricing_plan_id":"cebpf4jnsgd1na2vs0mg"},{"bike_id":"539241b1-d636-4581-87f5-003d72e485d3","system_id":"levelo_inurba_marseille","lat":43.30077,"lon":5.39084,"is_reserved":false,"is_disabled":false,"rental_uris":{"android":"levelo://app?vid=539241b1-d636-4581-87f5-003d72e485d3","ios":"levelo://app?vid=539241b1-d636-4581-87f5-003d72e485d3"},"vehicle_type_id":"4","last_reported":1766088715,"current_range_meters":9600,"station_id":"ce4bh192rcd13ifvqdb0","pricing_plan_id":"cebpf4jnsgd1na2vs0mg"},{"bike_id":"1c783e39-3092-489d-97e8-0a4c367392b3","system_id":"levelo_inurba_marseille","lat":43.30582,"lon":5.37231,"is_reserved":false,"is_disabled":false,"rental_uris":{"android":"levelo://app?vid=1c783e39-3092-489d-97e8-0a4c367392b3","ios":"levelo://app?vid=1c783e39-3092-489d-97e8-0a4c367392b3"},"vehicle_type_id":"4","last_reported":1766088715,"current_range_meters":10000,"station_id":"ce4bgqh2rcd13ifvqc4g","pricing_plan_id":"cebpf4jnsgd1na2vs0mg"},{"bike_id":"38cf53a6-ff03-4245-b99b-a3c30164292b","system_id":"levelo_inurba_marseille","lat":43.29598,"lon":5.380981,"is_reserved":false,"is_disabled":true,"rental_uris":{"android":"levelo://app?vid=38cf53a6-ff03-4245-b99b-a3c30164292b","ios":"levelo://app?vid=38cf53a6-ff03-4245-b99b-a3c30164292b"},"vehicle_type_id":"4","last_reported":1766088715,"current_range_meters":10000,"station_id":"ce4bgl12rcd13ifvqbo0","pricing_plan_id":"cebpf4jnsgd1na2vs0mg"},{"bike_id":"62597498-8ede-4c34-8856-26c7410cf2e9","system_id":"levelo_inurba_marseille","lat":43.29257,"lon":5.37625,"is_reserved":false,"is_disabled":false,"rental_uris":{"android":"levelo://app?vid=62597498-8ede-4c34-8856-26c7410cf2e9","ios":"levelo://app?vid=62597498-8ede-4c34-8856-26c7410cf2e9"},"vehicle_type_id":"4","last_reported":1766088715,"current_range_meters":10000,"station_id":"ce4bgi12rcd13ifvqb80","pricing_plan_id":"cebpf4jnsgd1na2vs0mg"},{"bike_id":"6a1e1967-fdaf-4e65-ae26-1571d7f0290c","system_id":"levelo_inurba_marseille","lat":43.337605,"lon":5.374353,"is_reserved":false,"is_disabled":false,"rental_uris":{"android":"levelo://app?vid=6a1e1967-fdaf-4e65-ae26-1571d7f0290c","ios":"levelo://app?vid=6a1e1967-fdaf-4e65-ae26-1571d7f0290c"},"vehicle_type_id":"4","last_reported":1766088715,"current_range_meters":10000,"station_id":"","pricing_plan_id":"cebpf4jnsgd1na2vs0mg"},{"bike_id":"a24ee5b6-572d-4941-9ef3-a9d89c28bd82","system_id":"levelo_inurba_marseille","lat":43.30551,"lon":5.36726,"is_reserved":false,"is_disabled":false,"rental_uris":{"android":"levelo://app?vid=a24ee5b6-572d-4941-9ef3-a9d89c28bd82","ios":"levelo://app?vid=a24ee5b6-572d-4941-9ef3-a9d89c28bd82"},"vehicle_type_id":"4","last_reported":1766088715,"current_range_meters":10000,"station_id":"ce4bgrp2rcd13ifvqc9g","pricing_plan_id":"cebpf4jnsgd1na2vs0mg"},{"bike_id":"51f43a5f-2a5a-4c8a-847c-1c5481be0271","system_id":"levelo_inurba_marseille","lat":43.30622,"lon":5.36722,"is_reserved":false,"is_disabled":true,"rental_uris":{"android":"levelo://app?vid=51f43a5f-2a5a-4c8a-847c-1c5481be0271","ios":"levelo://app?vid=51f43a5f-2a5a-4c8a-847c-1c5481be0271"},"vehicle_type_id":"4","last_reported":1766088715,"current_range_meters":10000,"station_id":"","pricing_plan_id":"cebpf4jnsgd1na2vs0mg"},{"bike_id":"bd47acfe-2f1c-4624-b949-7c14c9226394","system_id":"levelo_inurba_marseille","lat":43.30427,"lon":5.41274,"is_reserved":false,"is_disabled":false,"rental_uris":{"android":"levelo://app?vid=bd47acfe-2f1c-4624-b949-7c14c9226394","ios":"levelo://app?vid=bd47acfe-2f1c-4624-b949-7c14c9226394"},"vehicle_type_id":"4","last_reported":1766088715,"current_range_meters":10000,"station_id":"ce4bhop2rcd13ifvqh8g","pricing_plan_id":"cebpf4jnsgd1na2vs0mg"},{"bike_id":"cf0e2dfe-8751-4251-bbd3-3ad00be9f3ad","system_id":"levelo_inurba_marseille","lat":43.2848,"lon":5.48394,"is_reserved":false,"is_disabled":false,"rental_uris":{"android":"levelo://app?vid=cf0e2dfe-8751-4251-bbd3-3ad00be9f3ad","ios":"levelo://app?vid=cf0e2dfe-8751-4251-bbd3-3ad00be9f3ad"},"vehicle_type_id":"4","last_reported":1766088715,"current_range_meters":10000,"station_id":"","pricing_plan_id":"cebpf4jnsgd1na2vs0mg"},{"bike_id":"39ca6217-71c2-4cee-834d-d178880be878","system_id":"levelo_inurba_marseille","lat":43.30877,"lon":5.37168,"is_reserved":false,"is_disabled":true,"rental_uris":{"android":"levelo://app?vid=39ca6217-71c2-4cee-834d-d178880be878","ios":"levelo://app?vid=39ca6217-71c2-4cee-834d-d178880be878"},"vehicle_type_id":"4","last_reported":1766088715,"current_range_meters":10000,"station_id":"ce4bguh2rcd13ifvqckg","pricing_plan_id":"cebpf4jnsgd1na2vs0mg"},{"bike_id":"e3545456-9ccd-47b9-9f35-1db0fbdf5c17","system_id":"levelo_inurba_marseille","lat":43.285271,"lon":5.440988,"is_reserved":false,"is_disabled":false,"rental_uris":{"android":"levelo://app?vid=e3545456-9ccd-47b9-9f35-1db0fbdf5c17","ios":"levelo://app?vid=e3545456-9ccd-47b9-9f35-1db0fbdf5c17"},"vehicle_type_id":"4","last_reported":1766088715,"current_range_meters":10000,"station_id":"st_d3j3df2ikq2c7380ej80","pricing_plan_id":"cebpf4jnsgd1na2vs0mg"},{"bike_id":"c9ebe54a-3534-4700-b029-26ecc3e08a04","system_id":"levelo_inurba_marseille","lat":43.3001,"lon":5.39911,"is_reserved":false,"is_disabled":false,"rental_uris":{"android":"levelo://app?vid=c9ebe54a-3534-4700-b029-26ecc3e08a04","ios":"levelo://app?vid=c9ebe54a-3534-4700-b029-26ecc3e08a04"},"vehicle_type_id":"4","last_reported":1766088715,"current_range_meters":10000,"station_id":"","pricing_plan_id":"cebpf4jnsgd1na2vs0mg"},{"bike_id":"ef67211c-ffc6-4a8f-be9f-1066bcd0282f","system_id":"levelo_inurba_marseille","lat":43.29198,"lon":5.39318,"is_reserved":false,"is_disabled":false,"rental_uris":{"android":"levelo://app?vid=ef67211c-ffc6-4a8f-be9f-1066bcd0282f","ios":"levelo://app?vid=ef67211c-ffc6-4a8f-be9f-1066bcd0282f"},"vehicle_type_id":"4","last_reported":1766088715,"current_range_meters":10000,"station_id":"ce4bh192rcd13ifvqdd0","pricing_plan_id":"cebpf4jnsgd1na2vs0mg"},{"bike_id":"4a614ce4-d61c-499d-8955-0569e02f377b","system_id":"levelo_inurba_marseille","lat":43.27521,"lon":5.37255,"is_reserved":false,"is_disabled":false,"rental_uris":{"android":"levelo://app?vid=4a614ce4-d61c-499d-8955-0569e02f377b","ios":"levelo://app?vid=4a614ce4-d61c-499d-8955-0569e02f377b"},"vehicle_type_id":"4","last_reported":1766088715,"current_range_meters":10800,"station_id":"","pricing_plan_id":"cebpf4jnsgd1na2vs0mg"},{"bike_id":"b6521d11-99b8-43ca-a853-a51747d5db82","system_id":"levelo_inurba_marseille","lat":43.30105,"lon":5.43149,"is_reserved":false,"is_disabled":false,"rental_uris":{"android":"levelo://app?vid=b6521d11-99b8-43ca-a853-a51747d5db82","ios":"levelo://app?vid=b6521d11-99b8-43ca-a853-a51747d5db82"},"vehicle_type_id":"4","last_reported":1766088715,"current_range_meters":10800,"station_id":"st_d3js3co5814s73ftftug","pricing_plan_id":"cebpf4jnsgd1na2vs0mg"},{"bike_id":"d41b7452-3b20-4b7a-9016-c1deb04937ad","system_id":"levelo_inurba_marseille","lat":43.29274,"lon":5.36848,"is_reserved":false,"is_disabled":false,"rental_uris":{"android":"levelo://app?vid=d41b7452-3b20-4b7a-9016-c1deb04937ad","ios":"levelo://app?vid=d41b7452-3b20-4b7a-9016-c1deb04937ad"},"vehicle_type_id":"4","last_reported":1766088715,"current_range_meters":10800,"station_id":"ce4bhbp2rcd13ifvqesg","pricing_plan_id":"cebpf4jnsgd1na2vs0mg"},{"bike_id":"9f4eeb19-8b85-48ea-b331-0658775c87f0","system_id":"levelo_inurba_marseille","lat":43.295972,"lon":5.38104,"is_reserved":false,"is_disabled":false,"rental_uris":{"android":"levelo://app?vid=9f4eeb19-8b85-48ea-b331-0658775c87f0","ios":"levelo://app?vid=9f4eeb19-8b85-48ea-b331-0658775c87f0"},"vehicle_type_id":"4","last_reported":1766088715,"current_range_meters":10800,"station_id":"ce4bh3p2rcd13ifvqdq0","pricing_plan_id":"cebpf4jnsgd1na2vs0mg"},{"bike_id":"453f1184-f82d-4436-816a-2c45caf5ef82","system_id":"levelo_inurba_marseille","lat":43.30105,"lon":5.3907,"is_reserved":false,"is_disabled":false,"rental_uris":{"android":"levelo://app?vid=453f1184-f82d-4436-816a-2c45caf5ef82","ios":"levelo://app?vid=453f1184-f82d-4436-816a-2c45caf5ef82"},"vehicle_type_id":"4","last_reported":1766088715,"current_range_meters":10800,"station_id":"ce4bh192rcd13ifvqdb0","pricing_plan_id":"cebpf4jnsgd1na2vs0mg"},{"bike_id":"ee6f7e5c-24b4-4046-a3ec-072080785116","system_id":"levelo_inurba_marseille","lat":43.21761,"lon":5.34584,"is_reserved":false,"is_disabled":true,"rental_uris":{"android":"levelo://app?vid=ee6f7e5c-24b4-4046-a3ec-072080785116","ios":"levelo://app?vid=ee6f7e5c-24b4-4046-a3ec-072080785116"},"vehicle_type_id":"4","last_reported":1766088715,"current_range_meters":10800,"station_id":"st_cvj6r9ubvosntc0bgbag","pricing_plan_id":"cebpf4jnsgd1na2vs0mg"},{"bike_id":"8070e6ef-07ff-4ab6-bcac-366200683af8","system_id":"levelo_inurba_marseille","lat":43.29604,"lon":5.3811,"is_reserved":false,"is_disabled":false,"rental_uris":{"android":"levelo://app?vid=8070e6ef-07ff-4ab6-bcac-366200683af8","ios":"levelo://app?vid=8070e6ef-07ff-4ab6-bcac-366200683af8"},"vehicle_type_id":"4","last_reported":1766088715,"current_range_meters":10800,"station_id":"ce4bgl12rcd13ifvqbo0","pricing_plan_id":"cebpf4jnsgd1na2vs0mg"},{"bike_id":"92623e5b-52ee-402d-a529-e6dda8f91418","system_id":"levelo_inurba_marseille","lat":43.30732,"lon":5.367899,"is_reserved":false,"is_disabled":false,"rental_uris":{"android":"levelo://app?vid=92623e5b-52ee-402d-a529-e6dda8f91418","ios":"levelo://app?vid=92623e5b-52ee-402d-a529-e6dda8f91418"},"vehicle_type_id":"4","last_reported":1766088715,"current_range_meters":10800,"station_id":"","pricing_plan_id":"cebpf4jnsgd1na2vs0mg"},{"bike_id":"09989b0f-21d1-46c5-86f8-520ee64c9802","system_id":"levelo_inurba_marseille","lat":43.307587,"lon":5.424487,"is_reserved":false,"is_disabled":false,"rental_uris":{"android":"levelo://app?vid=09989b0f-21d1-46c5-86f8-520ee64c9802","ios":"levelo://app?vid=09989b0f-21d1-46c5-86f8-520ee64c9802"},"vehicle_type_id":"4","last_reported":1766088715,"current_range_meters":10800,"station_id":"st_cvj6ca6bvosntc0bfgr0","pricing_plan_id":"cebpf4jnsgd1na2vs0mg"},{"bike_id":"f0552324-7f16-45f2-af53-7d50398c0e4b","system_id":"levelo_inurba_marseille","lat":43.2918,"lon":5.39354,"is_reserved":false,"is_disabled":true,"rental_uris":{"android":"levelo://app?vid=f0552324-7f16-45f2-af53-7d50398c0e4b","ios":"levelo://app?vid=f0552324-7f16-45f2-af53-7d50398c0e4b"},"vehicle_type_id":"4","last_reported":1766088715,"current_range_meters":10800,"station_id":"","pricing_plan_id":"cebpf4jnsgd1na2vs0mg"},{"bike_id":"a5796e24-e2b8-4ead-adc8-50f93c5077cd","system_id":"levelo_inurba_marseille","lat":43.284052,"lon":5.375212,"is_reserved":false,"is_disabled":false,"rental_uris":{"android":"levelo://app?vid=a5796e24-e2b8-4ead-adc8-50f93c5077cd","ios":"levelo://app?vid=a5796e24-e2b8-4ead-adc8-50f93c5077cd"},"vehicle_type_id":"4","last_reported":1766088715,"current_range_meters":10800,"station_id":"ce4bh412rcd13ifvqds0","pricing_plan_id":"cebpf4jnsgd1na2vs0mg"},{"bike_id":"85d1e855-9b09-4cab-b88e-57db5a50b112","system_id":"levelo_inurba_marseille","lat":43.28105,"lon":5.37831,"is_reserved":false,"is_disabled":false,"rental_uris":{"android":"levelo://app?vid=85d1e855-9b09-4cab-b88e-57db5a50b112","ios":"levelo://app?vid=85d1e855-9b09-4cab-b88e-57db5a50b112"},"vehicle_type_id":"4","last_reported":1766088715,"current_range_meters":10800,"station_id":"ce4bha12rcd13ifvqee0","pricing_plan_id":"cebpf4jnsgd1na2vs0mg"},{"bike_id":"436e467e-3ef8-4484-b12e-82fd46509f97","system_id":"levelo_inurba_marseille","lat":43.23266,"lon":5.44446,"is_reserved":false,"is_disabled":false,"rental_uris":{"android":"levelo://app?vid=436e467e-3ef8-4484-b12e-82fd46509f97","ios":"levelo://app?vid=436e467e-3ef8-4484-b12e-82fd46509f97"},"vehicle_type_id":"4","last_reported":1766088715,"current_range_meters":11200,"station_id":"","pricing_plan_id":"cebpf4jnsgd1na2vs0mg"},{"bike_id":"85f12ccf-5b46-4628-894a-c4095346a940","system_id":"levelo_inurba_marseille","lat":43.279512,"lon":5.410429,"is_reserved":false,"is_disabled":true,"rental_uris":{"android":"levelo://app?vid=85f12ccf-5b46-4628-894a-c4095346a940","ios":"levelo://app?vid=85f12ccf-5b46-4628-894a-c4095346a940"},"vehicle_type_id":"4","last_reported":1766088715,"current_range_meters":11200,"station_id":"ce4bhnp2rcd13ifvqh0g","pricing_plan_id":"cebpf4jnsgd1na2vs0mg"},{"bike_id":"cd60c715-682a-4454-b83f-a8d40937de73","system_id":"levelo_inurba_marseille","lat":43.28854,"lon":5.39311,"is_reserved":false,"is_disabled":false,"rental_uris":{"android":"levelo://app?vid=cd60c715-682a-4454-b83f-a8d40937de73","ios":"levelo://app?vid=cd60c715-682a-4454-b83f-a8d40937de73"},"vehicle_type_id":"4","last_reported":1766088715,"current_range_meters":11200,"station_id":"ce4bh2p2rcd13ifvqdi0","pricing_plan_id":"cebpf4jnsgd1na2vs0mg"},{"bike_id":"7b6a762b-314d-45df-8493-3ed793cbcd5b","system_id":"levelo_inurba_marseille","lat":43.290057,"lon":5.356142,"is_reserved":false,"is_disabled":false,"rental_uris":{"android":"levelo://app?vid=7b6a762b-314d-45df-8493-3ed793cbcd5b","ios":"levelo://app?vid=7b6a762b-314d-45df-8493-3ed793cbcd5b"},"vehicle_type_id":"4","last_reported":1766088715,"current_range_meters":11200,"station_id":"ce4bhb92rcd13ifvqen0","pricing_plan_id":"cebpf4jnsgd1na2vs0mg"},{"bike_id":"f5b4481f-e08e-4649-85dd-f9c7dba1192d","system_id":"levelo_inurba_marseille","lat":43.28788,"lon":5.38852,"is_reserved":false,"is_disabled":false,"rental_uris":{"android":"levelo://app?vid=f5b4481f-e08e-4649-85dd-f9c7dba1192d","ios":"levelo://app?vid=f5b4481f-e08e-4649-85dd-f9c7dba1192d"},"vehicle_type_id":"4","last_reported":1766088715,"current_range_meters":11200,"station_id":"","pricing_plan_id":"cebpf4jnsgd1na2vs0mg"},{"bike_id":"228ed5e4-a793-4f90-a46f-1e70b2793524","system_id":"levelo_inurba_marseille","lat":43.28626,"lon":5.39858,"is_reserved":false,"is_disabled":true,"rental_uris":{"android":"levelo://app?vid=228ed5e4-a793-4f90-a46f-1e70b2793524","ios":"levelo://app?vid=228ed5e4-a793-4f90-a46f-1e70b2793524"},"vehicle_type_id":"4","last_reported":1766088715,"current_range_meters":11200,"station_id":"st_d4a7ka997mjs738ck50g","pricing_plan_id":"cebpf4jnsgd1na2vs0mg"},{"bike_id":"c5365846-c619-4f12-8c92-97c9f9725a15","system_id":"levelo_inurba_marseille","lat":43.29511,"lon":5.37923,"is_reserved":false,"is_disabled":false,"rental_uris":{"android":"levelo://app?vid=c5365846-c619-4f12-8c92-97c9f9725a15","ios":"levelo://app?vid=c5365846-c619-4f12-8c92-97c9f9725a15"},"vehicle_type_id":"4","last_reported":1766088715,"current_range_meters":11200,"station_id":"","pricing_plan_id":"cebpf4jnsgd1na2vs0mg"},{"bike_id":"406ef59a-d66f-41e7-baf6-b1e43a08b0b0","system_id":"levelo_inurba_marseille","lat":43.286865,"lon":5.373892,"is_reserved":false,"is_disabled":false,"rental_uris":{"android":"levelo://app?vid=406ef59a-d66f-41e7-baf6-b1e43a08b0b0","ios":"levelo://app?vid=406ef59a-d66f-41e7-baf6-b1e43a08b0b0"},"vehicle_type_id":"4","last_reported":1766088715,"current_range_meters":11200,"station_id":"ce4bh3p2rcd13ifvqdq0","pricing_plan_id":"cebpf4jnsgd1na2vs0mg"},{"bike_id":"b24901ba-7c6b-44b9-89b5-4f83c5b2fe4d","system_id":"levelo_inurba_marseille","lat":43.29298,"lon":5.37462,"is_reserved":false,"is_disabled":false,"rental_uris":{"android":"levelo://app?vid=b24901ba-7c6b-44b9-89b5-4f83c5b2fe4d","ios":"levelo://app?vid=b24901ba-7c6b-44b9-89b5-4f83c5b2fe4d"},"vehicle_type_id":"4","last_reported":1766088715,"current_range_meters":11200,"station_id":"ce4bgi12rcd13ifvqb70","pricing_plan_id":"cebpf4jnsgd1na2vs0mg"},{"bike_id":"00e31a46-cc9b-4ef0-a380-e953998ccb42","system_id":"levelo_inurba_marseille","lat":43.294,"lon":5.43374,"is_reserved":false,"is_disabled":false,"rental_uris":{"android":"levelo://app?vid=00e31a46-cc9b-4ef0-a380-e953998ccb42","ios":"levelo://app?vid=00e31a46-cc9b-4ef0-a380-e953998ccb42"},"vehicle_type_id":"4","last_reported":1766088715,"current_range_meters":11200,"station_id":"","pricing_plan_id":"cebpf4jnsgd1na2vs0mg"},{"bike_id":"d824e173-e452-437a-aa07-2649c7e0a349","system_id":"levelo_inurba_marseille","lat":43.330231,"lon":5.390366,"is_reserved":false,"is_disabled":false,"rental_uris":{"android":"levelo://app?vid=d824e173-e452-437a-aa07-2649c7e0a349","ios":"levelo://app?vid=d824e173-e452-437a-aa07-2649c7e0a349"},"vehicle_type_id":"4","last_reported":1766088715,"current_range_meters":11200,"station_id":"ce4bhr92rcd13ifvqhrg","pricing_plan_id":"cebpf4jnsgd1na2vs0mg"},{"bike_id":"a6bb7fde-2db0-447e-8cac-38a0c3844ce6","system_id":"levelo_inurba_marseille","lat":43.27769,"lon":5.388129,"is_reserved":false,"is_disabled":false,"rental_uris":{"android":"levelo://app?vid=a6bb7fde-2db0-447e-8cac-38a0c3844ce6","ios":"levelo://app?vid=a6bb7fde-2db0-447e-8cac-38a0c3844ce6"},"vehicle_type_id":"4","last_reported":1766088715,"current_range_meters":11600,"station_id":"","pricing_plan_id":"cebpf4jnsgd1na2vs0mg"},{"bike_id":"5493cdc5-7629-4540-a62c-ac6638c0d679","system_id":"levelo_inurba_marseille","lat":43.29571,"lon":5.37506,"is_reserved":false,"is_disabled":false,"rental_uris":{"android":"levelo://app?vid=5493cdc5-7629-4540-a62c-ac6638c0d679","ios":"levelo://app?vid=5493cdc5-7629-4540-a62c-ac6638c0d679"},"vehicle_type_id":"4","last_reported":1766088715,"current_range_meters":11600,"station_id":"ce4bgh92rcd13ifvqb50","pricing_plan_id":"cebpf4jnsgd1na2vs0mg"},{"bike_id":"52b61354-da80-471d-a0ef-682891b3f0eb","system_id":"levelo_inurba_marseille","lat":43.24378,"lon":5.37107,"is_reserved":false,"is_disabled":true,"rental_uris":{"android":"levelo://app?vid=52b61354-da80-471d-a0ef-682891b3f0eb","ios":"levelo://app?vid=52b61354-da80-471d-a0ef-682891b3f0eb"},"vehicle_type_id":"4","last_reported":1766088715,"current_range_meters":11600,"station_id":"ce4bhhh2rcd13ifvqfk0","pricing_plan_id":"cebpf4jnsgd1na2vs0mg"},{"bike_id":"0d76f9ec-36de-4311-a1ef-897de10e0d0d","system_id":"levelo_inurba_marseille","lat":43.29828,"lon":5.44072,"is_reserved":false,"is_disabled":false,"rental_uris":{"android":"levelo://app?vid=0d76f9ec-36de-4311-a1ef-897de10e0d0d","ios":"levelo://app?vid=0d76f9ec-36de-4311-a1ef-897de10e0d0d"},"vehicle_type_id":"4","last_reported":1766088715,"current_range_meters":11600,"station_id":"st_d3jp68qikq2c7381ktn0","pricing_plan_id":"cebpf4jnsgd1na2vs0mg"},{"bike_id":"55e2666e-7fc1-4f40-a2e1-5f6eda32c223","system_id":"levelo_inurba_marseille","lat":43.2795,"lon":5.41056,"is_reserved":false,"is_disabled":false,"rental_uris":{"android":"levelo://app?vid=55e2666e-7fc1-4f40-a2e1-5f6eda32c223","ios":"levelo://app?vid=55e2666e-7fc1-4f40-a2e1-5f6eda32c223"},"vehicle_type_id":"4","last_reported":1766088715,"current_range_meters":11600,"station_id":"ce4bhnp2rcd13ifvqh0g","pricing_plan_id":"cebpf4jnsgd1na2vs0mg"},{"bike_id":"c63ccd62-9e0a-4e66-92ab-9a7e6a0ecf3e","system_id":"levelo_inurba_marseille","lat":43.28747,"lon":5.3895,"is_reserved":false,"is_disabled":false,"rental_uris":{"android":"levelo://app?vid=c63ccd62-9e0a-4e66-92ab-9a7e6a0ecf3e","ios":"levelo://app?vid=c63ccd62-9e0a-4e66-92ab-9a7e6a0ecf3e"},"vehicle_type_id":"4","last_reported":1766088715,"current_range_meters":11600,"station_id":"","pricing_plan_id":"cebpf4jnsgd1na2vs0mg"},{"bike_id":"5a5b07db-af89-4170-85d8-85a5d341ce51","system_id":"levelo_inurba_marseille","lat":43.28154,"lon":5.42641,"is_reserved":false,"is_disabled":false,"rental_uris":{"android":"levelo://app?vid=5a5b07db-af89-4170-85d8-85a5d341ce51","ios":"levelo://app?vid=5a5b07db-af89-4170-85d8-85a5d341ce51"},"vehicle_type_id":"4","last_reported":1766088715,"current_range_meters":11600,"station_id":"ce4bhnh2rcd13ifvqgug","pricing_plan_id":"cebpf4jnsgd1na2vs0mg"},{"bike_id":"374a0371-4968-4fe9-88a9-ac5ffa94b236","system_id":"levelo_inurba_marseille","lat":43.3145,"lon":5.45374,"is_reserved":false,"is_disabled":false,"rental_uris":{"android":"levelo://app?vid=374a0371-4968-4fe9-88a9-ac5ffa94b236","ios":"levelo://app?vid=374a0371-4968-4fe9-88a9-ac5ffa94b236"},"vehicle_type_id":"4","last_reported":1766088715,"current_range_meters":11600,"station_id":"","pricing_plan_id":"cebpf4jnsgd1na2vs0mg"},{"bike_id":"4e3be183-ed77-4e17-9420-24be7440fa2f","system_id":"levelo_inurba_marseille","lat":43.29293,"lon":5.37458,"is_reserved":false,"is_disabled":false,"rental_uris":{"android":"levelo://app?vid=4e3be183-ed77-4e17-9420-24be7440fa2f","ios":"levelo://app?vid=4e3be183-ed77-4e17-9420-24be7440fa2f"},"vehicle_type_id":"4","last_reported":1766088715,"current_range_meters":12000,"station_id":"ce4bgi12rcd13ifvqb70","pricing_plan_id":"cebpf4jnsgd1na2vs0mg"},{"bike_id":"c9117eea-c0d4-4ccb-a9f6-4615a8776959","system_id":"levelo_inurba_marseille","lat":43.29614,"lon":5.3768,"is_reserved":false,"is_disabled":false,"rental_uris":{"android":"levelo://app?vid=c9117eea-c0d4-4ccb-a9f6-4615a8776959","ios":"levelo://app?vid=c9117eea-c0d4-4ccb-a9f6-4615a8776959"},"vehicle_type_id":"4","last_reported":1766088715,"current_range_meters":12000,"station_id":"ce4bgi92rcd13ifvqb90","pricing_plan_id":"cebpf4jnsgd1na2vs0mg"},{"bike_id":"d50867a0-a974-4546-a28c-eba4c2e0b399","system_id":"levelo_inurba_marseille","lat":43.23187,"lon":5.35551,"is_reserved":false,"is_disabled":false,"rental_uris":{"android":"levelo://app?vid=d50867a0-a974-4546-a28c-eba4c2e0b399","ios":"levelo://app?vid=d50867a0-a974-4546-a28c-eba4c2e0b399"},"vehicle_type_id":"4","last_reported":1766088715,"current_range_meters":12000,"station_id":"ce4bhu92rcd13ifvqi70","pricing_plan_id":"cebpf4jnsgd1na2vs0mg"},{"bike_id":"405614b9-410a-460b-bbef-e3df05f27ba3","system_id":"levelo_inurba_marseille","lat":43.29184,"lon":5.39321,"is_reserved":false,"is_disabled":false,"rental_uris":{"android":"levelo://app?vid=405614b9-410a-460b-bbef-e3df05f27ba3","ios":"levelo://app?vid=405614b9-410a-460b-bbef-e3df05f27ba3"},"vehicle_type_id":"4","last_reported":1766088715,"current_range_meters":12000,"station_id":"ce4bh192rcd13ifvqdd0","pricing_plan_id":"cebpf4jnsgd1na2vs0mg"},{"bike_id":"1f8bf9e3-c9bd-4c05-9201-34f9580d25af","system_id":"levelo_inurba_marseille","lat":43.211945,"lon":5.350752,"is_reserved":false,"is_disabled":false,"rental_uris":{"android":"levelo://app?vid=1f8bf9e3-c9bd-4c05-9201-34f9580d25af","ios":"levelo://app?vid=1f8bf9e3-c9bd-4c05-9201-34f9580d25af"},"vehicle_type_id":"4","last_reported":1766088715,"current_range_meters":12000,"station_id":"st_cvj6sg6p6f1abm77japg","pricing_plan_id":"cebpf4jnsgd1na2vs0mg"},{"bike_id":"da0c886d-bf9d-46c9-ba41-bfd5ae0eda24","system_id":"levelo_inurba_marseille","lat":43.24167,"lon":5.36393,"is_reserved":false,"is_disabled":false,"rental_uris":{"android":"levelo://app?vid=da0c886d-bf9d-46c9-ba41-bfd5ae0eda24","ios":"levelo://app?vid=da0c886d-bf9d-46c9-ba41-bfd5ae0eda24"},"vehicle_type_id":"4","last_reported":1766088715,"current_range_meters":12000,"station_id":"cpo36qri1sfpv3e86is0","pricing_plan_id":"cebpf4jnsgd1na2vs0mg"},{"bike_id":"2512d3cf-3b6e-4050-9208-78ed96d102b7","system_id":"levelo_inurba_marseille","lat":43.29482,"lon":5.43288,"is_reserved":false,"is_disabled":false,"rental_uris":{"android":"levelo://app?vid=2512d3cf-3b6e-4050-9208-78ed96d102b7","ios":"levelo://app?vid=2512d3cf-3b6e-4050-9208-78ed96d102b7"},"vehicle_type_id":"4","last_reported":1766088715,"current_range_meters":12000,"station_id":"st_d3j5ugp08ojc73fj9d10","pricing_plan_id":"cebpf4jnsgd1na2vs0mg"},{"bike_id":"08465472-f37b-4c85-82a0-ad3a002fc573","system_id":"levelo_inurba_marseille","lat":43.29115,"lon":5.38144,"is_reserved":false,"is_disabled":false,"rental_uris":{"android":"levelo://app?vid=08465472-f37b-4c85-82a0-ad3a002fc573","ios":"levelo://app?vid=08465472-f37b-4c85-82a0-ad3a002fc573"},"vehicle_type_id":"4","last_reported":1766088715,"current_range_meters":12000,"station_id":"ce4bh512rcd13ifvqe2g","pricing_plan_id":"cebpf4jnsgd1na2vs0mg"},{"bike_id":"baa604eb-f81e-4058-8ec1-399f425db9df","system_id":"levelo_inurba_marseille","lat":43.29246,"lon":5.38439,"is_reserved":false,"is_disabled":false,"rental_uris":{"android":"levelo://app?vid=baa604eb-f81e-4058-8ec1-399f425db9df","ios":"levelo://app?vid=baa604eb-f81e-4058-8ec1-399f425db9df"},"vehicle_type_id":"4","last_reported":1766088715,"current_range_meters":12000,"station_id":"ce4bh692rcd13ifvqea0","pricing_plan_id":"cebpf4jnsgd1na2vs0mg"},{"bike_id":"f26253f6-7b55-49b3-b0c9-2211785f4244","system_id":"levelo_inurba_marseille","lat":43.30204,"lon":5.36616,"is_reserved":false,"is_disabled":false,"rental_uris":{"android":"levelo://app?vid=f26253f6-7b55-49b3-b0c9-2211785f4244","ios":"levelo://app?vid=f26253f6-7b55-49b3-b0c9-2211785f4244"},"vehicle_type_id":"4","last_reported":1766088715,"current_range_meters":12000,"station_id":"ce4bgrh2rcd13ifvqc8g","pricing_plan_id":"cebpf4jnsgd1na2vs0mg"},{"bike_id":"8168a14b-8ee0-4440-a4b9-9a46efc3b289","system_id":"levelo_inurba_marseille","lat":43.28941,"lon":5.363756,"is_reserved":false,"is_disabled":false,"rental_uris":{"android":"levelo://app?vid=8168a14b-8ee0-4440-a4b9-9a46efc3b289","ios":"levelo://app?vid=8168a14b-8ee0-4440-a4b9-9a46efc3b289"},"vehicle_type_id":"4","last_reported":1766088715,"current_range_meters":12000,"station_id":"ce4bhc92rcd13ifvqetg","pricing_plan_id":"cebpf4jnsgd1na2vs0mg"},{"bike_id":"5689bc8b-8280-4421-b3a3-b74084cc8c7d","system_id":"levelo_inurba_marseille","lat":43.30607,"lon":5.37223,"is_reserved":false,"is_disabled":false,"rental_uris":{"android":"levelo://app?vid=5689bc8b-8280-4421-b3a3-b74084cc8c7d","ios":"levelo://app?vid=5689bc8b-8280-4421-b3a3-b74084cc8c7d"},"vehicle_type_id":"4","last_reported":1766088715,"current_range_meters":12000,"station_id":"ce4bgqh2rcd13ifvqc4g","pricing_plan_id":"cebpf4jnsgd1na2vs0mg"},{"bike_id":"fade1f76-6248-43fe-aeb9-7f93aeff737b","system_id":"levelo_inurba_marseille","lat":43.2793,"lon":5.39571,"is_reserved":false,"is_disabled":true,"rental_uris":{"android":"levelo://app?vid=fade1f76-6248-43fe-aeb9-7f93aeff737b","ios":"levelo://app?vid=fade1f76-6248-43fe-aeb9-7f93aeff737b"},"vehicle_type_id":"4","last_reported":1766088715,"current_range_meters":12000,"station_id":"ce4bhf92rcd13ifvqf40","pricing_plan_id":"cebpf4jnsgd1na2vs0mg"},{"bike_id":"a663a1e9-000f-4f76-9823-54d90dfd1b05","system_id":"levelo_inurba_marseille","lat":43.27918,"lon":5.39582,"is_reserved":false,"is_disabled":false,"rental_uris":{"android":"levelo://app?vid=a663a1e9-000f-4f76-9823-54d90dfd1b05","ios":"levelo://app?vid=a663a1e9-000f-4f76-9823-54d90dfd1b05"},"vehicle_type_id":"4","last_reported":1766088715,"current_range_meters":12400,"station_id":"ce4bhf92rcd13ifvqf40","pricing_plan_id":"cebpf4jnsgd1na2vs0mg"},{"bike_id":"7d44b5c8-0233-43ab-bd89-dcdb2fc43b56","system_id":"levelo_inurba_marseille","lat":43.240697,"lon":5.377675,"is_reserved":false,"is_disabled":false,"rental_uris":{"android":"levelo://app?vid=7d44b5c8-0233-43ab-bd89-dcdb2fc43b56","ios":"levelo://app?vid=7d44b5c8-0233-43ab-bd89-dcdb2fc43b56"},"vehicle_type_id":"4","last_reported":1766088715,"current_range_meters":12400,"station_id":"","pricing_plan_id":"cebpf4jnsgd1na2vs0mg"},{"bike_id":"f8ebd501-fad9-48ed-a55d-564fc9324817","system_id":"levelo_inurba_marseille","lat":43.27948,"lon":5.41053,"is_reserved":false,"is_disabled":false,"rental_uris":{"android":"levelo://app?vid=f8ebd501-fad9-48ed-a55d-564fc9324817","ios":"levelo://app?vid=f8ebd501-fad9-48ed-a55d-564fc9324817"},"vehicle_type_id":"4","last_reported":1766088715,"current_range_meters":12400,"station_id":"ce4bhnp2rcd13ifvqh0g","pricing_plan_id":"cebpf4jnsgd1na2vs0mg"},{"bike_id":"31a8a530-d875-470f-bb82-c3f6f0a5a4e2","system_id":"levelo_inurba_marseille","lat":43.294879,"lon":5.432956,"is_reserved":false,"is_disabled":false,"rental_uris":{"android":"levelo://app?vid=31a8a530-d875-470f-bb82-c3f6f0a5a4e2","ios":"levelo://app?vid=31a8a530-d875-470f-bb82-c3f6f0a5a4e2"},"vehicle_type_id":"4","last_reported":1766088715,"current_range_meters":12400,"station_id":"st_d3j5ugp08ojc73fj9d10","pricing_plan_id":"cebpf4jnsgd1na2vs0mg"},{"bike_id":"e4f89ff3-91ee-4050-99bc-9fe4b4771266","system_id":"levelo_inurba_marseille","lat":43.30594,"lon":5.39349,"is_reserved":false,"is_disabled":false,"rental_uris":{"android":"levelo://app?vid=e4f89ff3-91ee-4050-99bc-9fe4b4771266","ios":"levelo://app?vid=e4f89ff3-91ee-4050-99bc-9fe4b4771266"},"vehicle_type_id":"4","last_reported":1766088715,"current_range_meters":12400,"station_id":"ce4bh0p2rcd13ifvqd80","pricing_plan_id":"cebpf4jnsgd1na2vs0mg"},{"bike_id":"1e07792f-4948-478a-b999-8908b21ab65f","system_id":"levelo_inurba_marseille","lat":43.3108,"lon":5.38352,"is_reserved":false,"is_disabled":false,"rental_uris":{"android":"levelo://app?vid=1e07792f-4948-478a-b999-8908b21ab65f","ios":"levelo://app?vid=1e07792f-4948-478a-b999-8908b21ab65f"},"vehicle_type_id":"4","last_reported":1766088715,"current_range_meters":12400,"station_id":"ce4bgv92rcd13ifvqcr0","pricing_plan_id":"cebpf4jnsgd1na2vs0mg"},{"bike_id":"9d060e63-4d7e-4e36-854f-af327ab0a4e9","system_id":"levelo_inurba_marseille","lat":43.24656,"lon":5.3817,"is_reserved":false,"is_disabled":false,"rental_uris":{"android":"levelo://app?vid=9d060e63-4d7e-4e36-854f-af327ab0a4e9","ios":"levelo://app?vid=9d060e63-4d7e-4e36-854f-af327ab0a4e9"},"vehicle_type_id":"4","last_reported":1766088715,"current_range_meters":12400,"station_id":"ce4bhih2rcd13ifvqfr0","pricing_plan_id":"cebpf4jnsgd1na2vs0mg"},{"bike_id":"96b1232f-5faa-469e-ad5d-4eb4315198e2","system_id":"levelo_inurba_marseille","lat":43.30376,"lon":5.42493,"is_reserved":false,"is_disabled":false,"rental_uris":{"android":"levelo://app?vid=96b1232f-5faa-469e-ad5d-4eb4315198e2","ios":"levelo://app?vid=96b1232f-5faa-469e-ad5d-4eb4315198e2"},"vehicle_type_id":"4","last_reported":1766088715,"current_range_meters":12400,"station_id":"ce4bhoh2rcd13ifvqh6g","pricing_plan_id":"cebpf4jnsgd1na2vs0mg"},{"bike_id":"771a735b-eed8-445f-b117-03b76e1ac7a2","system_id":"levelo_inurba_marseille","lat":43.31699,"lon":5.43705,"is_reserved":false,"is_disabled":false,"rental_uris":{"android":"levelo://app?vid=771a735b-eed8-445f-b117-03b76e1ac7a2","ios":"levelo://app?vid=771a735b-eed8-445f-b117-03b76e1ac7a2"},"vehicle_type_id":"4","last_reported":1766088715,"current_range_meters":12400,"station_id":"ce4bhp92rcd13ifvqhcg","pricing_plan_id":"cebpf4jnsgd1na2vs0mg"},{"bike_id":"b375d3a0-974b-4dc4-962f-50415bd26cd5","system_id":"levelo_inurba_marseille","lat":43.27399,"lon":5.39407,"is_reserved":false,"is_disabled":false,"rental_uris":{"android":"levelo://app?vid=b375d3a0-974b-4dc4-962f-50415bd26cd5","ios":"levelo://app?vid=b375d3a0-974b-4dc4-962f-50415bd26cd5"},"vehicle_type_id":"4","last_reported":1766088715,"current_range_meters":12800,"station_id":"ce4bhdp2rcd13ifvqf20","pricing_plan_id":"cebpf4jnsgd1na2vs0mg"},{"bike_id":"3600545b-6af9-4527-916c-36a9c126b47e","system_id":"levelo_inurba_marseille","lat":43.30115,"lon":5.3745,"is_reserved":false,"is_disabled":false,"rental_uris":{"android":"levelo://app?vid=3600545b-6af9-4527-916c-36a9c126b47e","ios":"levelo://app?vid=3600545b-6af9-4527-916c-36a9c126b47e"},"vehicle_type_id":"4","last_reported":1766088715,"current_range_meters":12800,"station_id":"ce4bgs92rcd13ifvqcc0","pricing_plan_id":"cebpf4jnsgd1na2vs0mg"},{"bike_id":"4218c3f6-4764-47cf-93fc-c76838aefb78","system_id":"levelo_inurba_marseille","lat":43.24165,"lon":5.36402,"is_reserved":false,"is_disabled":false,"rental_uris":{"android":"levelo://app?vid=4218c3f6-4764-47cf-93fc-c76838aefb78","ios":"levelo://app?vid=4218c3f6-4764-47cf-93fc-c76838aefb78"},"vehicle_type_id":"4","last_reported":1766088715,"current_range_meters":12800,"station_id":"cpo36qri1sfpv3e86is0","pricing_plan_id":"cebpf4jnsgd1na2vs0mg"},{"bike_id":"9f6c9975-15d6-48de-a383-d85662191ef8","system_id":"levelo_inurba_marseille","lat":43.21201,"lon":5.35073,"is_reserved":false,"is_disabled":false,"rental_uris":{"android":"levelo://app?vid=9f6c9975-15d6-48de-a383-d85662191ef8","ios":"levelo://app?vid=9f6c9975-15d6-48de-a383-d85662191ef8"},"vehicle_type_id":"4","last_reported":1766088715,"current_range_meters":12800,"station_id":"st_cvj6sg6p6f1abm77japg","pricing_plan_id":"cebpf4jnsgd1na2vs0mg"},{"bike_id":"54b699d7-65f2-4a7a-9f83-f79492606b86","system_id":"levelo_inurba_marseille","lat":43.30547,"lon":5.36547,"is_reserved":false,"is_disabled":false,"rental_uris":{"android":"levelo://app?vid=54b699d7-65f2-4a7a-9f83-f79492606b86","ios":"levelo://app?vid=54b699d7-65f2-4a7a-9f83-f79492606b86"},"vehicle_type_id":"4","last_reported":1766088715,"current_range_meters":12800,"station_id":"ce4bgs12rcd13ifvqcag","pricing_plan_id":"cebpf4jnsgd1na2vs0mg"},{"bike_id":"9ff8bbb5-b818-4aa0-a2cb-ebbc8fa50360","system_id":"levelo_inurba_marseille","lat":43.29258,"lon":5.38428,"is_reserved":false,"is_disabled":false,"rental_uris":{"android":"levelo://app?vid=9ff8bbb5-b818-4aa0-a2cb-ebbc8fa50360","ios":"levelo://app?vid=9ff8bbb5-b818-4aa0-a2cb-ebbc8fa50360"},"vehicle_type_id":"4","last_reported":1766088715,"current_range_meters":12800,"station_id":"ce4bh692rcd13ifvqea0","pricing_plan_id":"cebpf4jnsgd1na2vs0mg"},{"bike_id":"d0dd282f-2c05-49dd-834d-6d93cee6c88a","system_id":"levelo_inurba_marseille","lat":43.30203,"lon":5.36624,"is_reserved":false,"is_disabled":true,"rental_uris":{"android":"levelo://app?vid=d0dd282f-2c05-49dd-834d-6d93cee6c88a","ios":"levelo://app?vid=d0dd282f-2c05-49dd-834d-6d93cee6c88a"},"vehicle_type_id":"4","last_reported":1766088715,"current_range_meters":12800,"station_id":"ce4bgrh2rcd13ifvqc8g","pricing_plan_id":"cebpf4jnsgd1na2vs0mg"},{"bike_id":"85072c8d-ab2d-4eb2-8d4b-7c3514b4a572","system_id":"levelo_inurba_marseille","lat":43.29308,"lon":5.37173,"is_reserved":false,"is_disabled":false,"rental_uris":{"android":"levelo://app?vid=85072c8d-ab2d-4eb2-8d4b-7c3514b4a572","ios":"levelo://app?vid=85072c8d-ab2d-4eb2-8d4b-7c3514b4a572"},"vehicle_type_id":"4","last_reported":1766088715,"current_range_meters":12800,"station_id":"ce4bgh92rcd13ifvqb40","pricing_plan_id":"cebpf4jnsgd1na2vs0mg"},{"bike_id":"f3a4c2fd-c27a-4ca6-bbe5-3949d2a88808","system_id":"levelo_inurba_marseille","lat":43.2857,"lon":5.42986,"is_reserved":false,"is_disabled":false,"rental_uris":{"android":"levelo://app?vid=f3a4c2fd-c27a-4ca6-bbe5-3949d2a88808","ios":"levelo://app?vid=f3a4c2fd-c27a-4ca6-bbe5-3949d2a88808"},"vehicle_type_id":"4","last_reported":1766088715,"current_range_meters":12800,"station_id":"","pricing_plan_id":"cebpf4jnsgd1na2vs0mg"},{"bike_id":"08422ad5-c1e2-40b9-98a0-e243f4bba2b7","system_id":"levelo_inurba_marseille","lat":43.29256,"lon":5.38448,"is_reserved":false,"is_disabled":false,"rental_uris":{"android":"levelo://app?vid=08422ad5-c1e2-40b9-98a0-e243f4bba2b7","ios":"levelo://app?vid=08422ad5-c1e2-40b9-98a0-e243f4bba2b7"},"vehicle_type_id":"4","last_reported":1766088715,"current_range_meters":12800,"station_id":"ce4bh692rcd13ifvqea0","pricing_plan_id":"cebpf4jnsgd1na2vs0mg"},{"bike_id":"ddedb140-ab44-49b4-88fc-f6e9cbc01202","system_id":"levelo_inurba_marseille","lat":43.27819,"lon":5.39215,"is_reserved":false,"is_disabled":false,"rental_uris":{"android":"levelo://app?vid=ddedb140-ab44-49b4-88fc-f6e9cbc01202","ios":"levelo://app?vid=ddedb140-ab44-49b4-88fc-f6e9cbc01202"},"vehicle_type_id":"4","last_reported":1766088715,"current_range_meters":12800,"station_id":"ce4bhjp2rcd13ifvqga0","pricing_plan_id":"cebpf4jnsgd1na2vs0mg"},{"bike_id":"1f056b37-e3f2-4d39-81cb-848d585f8a47","system_id":"levelo_inurba_marseille","lat":43.24164,"lon":5.36403,"is_reserved":false,"is_disabled":false,"rental_uris":{"android":"levelo://app?vid=1f056b37-e3f2-4d39-81cb-848d585f8a47","ios":"levelo://app?vid=1f056b37-e3f2-4d39-81cb-848d585f8a47"},"vehicle_type_id":"4","last_reported":1766088715,"current_range_meters":12800,"station_id":"cpo36qri1sfpv3e86is0","pricing_plan_id":"cebpf4jnsgd1na2vs0mg"},{"bike_id":"caa296d3-3cc5-4a69-b445-5ef39d3f3433","system_id":"levelo_inurba_marseille","lat":43.28575,"lon":5.39495,"is_reserved":false,"is_disabled":false,"rental_uris":{"android":"levelo://app?vid=caa296d3-3cc5-4a69-b445-5ef39d3f3433","ios":"levelo://app?vid=caa296d3-3cc5-4a69-b445-5ef39d3f3433"},"vehicle_type_id":"4","last_reported":1766088715,"current_range_meters":13600,"station_id":"ce4bh292rcd13ifvqdg0","pricing_plan_id":"cebpf4jnsgd1na2vs0mg"},{"bike_id":"17e9b8ed-de5d-4622-9703-c9b06a9de431","system_id":"levelo_inurba_marseille","lat":43.299688,"lon":5.385162,"is_reserved":false,"is_disabled":false,"rental_uris":{"android":"levelo://app?vid=17e9b8ed-de5d-4622-9703-c9b06a9de431","ios":"levelo://app?vid=17e9b8ed-de5d-4622-9703-c9b06a9de431"},"vehicle_type_id":"4","last_reported":1766088715,"current_range_meters":13600,"station_id":"ce4bgj92rcd13ifvqbd0","pricing_plan_id":"cebpf4jnsgd1na2vs0mg"},{"bike_id":"33fb061b-cc0a-44e2-a90b-8eab16db9143","system_id":"levelo_inurba_marseille","lat":43.27964,"lon":5.41026,"is_reserved":false,"is_disabled":false,"rental_uris":{"android":"levelo://app?vid=33fb061b-cc0a-44e2-a90b-8eab16db9143","ios":"levelo://app?vid=33fb061b-cc0a-44e2-a90b-8eab16db9143"},"vehicle_type_id":"4","last_reported":1766088715,"current_range_meters":13600,"station_id":"ce4bhnp2rcd13ifvqh0g","pricing_plan_id":"cebpf4jnsgd1na2vs0mg"},{"bike_id":"59f1fab5-311c-4977-a8ef-40dc66d5d6c4","system_id":"levelo_inurba_marseille","lat":43.287005,"lon":5.399802,"is_reserved":false,"is_disabled":false,"rental_uris":{"android":"levelo://app?vid=59f1fab5-311c-4977-a8ef-40dc66d5d6c4","ios":"levelo://app?vid=59f1fab5-311c-4977-a8ef-40dc66d5d6c4"},"vehicle_type_id":"4","last_reported":1766088715,"current_range_meters":13600,"station_id":"ce4bho92rcd13ifvqh3g","pricing_plan_id":"cebpf4jnsgd1na2vs0mg"},{"bike_id":"0210ebe1-9910-474e-bf72-8ed9360aac2c","system_id":"levelo_inurba_marseille","lat":43.29524,"lon":5.3904,"is_reserved":false,"is_disabled":false,"rental_uris":{"android":"levelo://app?vid=0210ebe1-9910-474e-bf72-8ed9360aac2c","ios":"levelo://app?vid=0210ebe1-9910-474e-bf72-8ed9360aac2c"},"vehicle_type_id":"4","last_reported":1766088715,"current_range_meters":13600,"station_id":"ce4bh3p2rcd13ifvqdp0","pricing_plan_id":"cebpf4jnsgd1na2vs0mg"},{"bike_id":"17a49efb-d179-4b85-b20c-4afe87c0613f","system_id":"levelo_inurba_marseille","lat":43.31076,"lon":5.37185,"is_reserved":false,"is_disabled":true,"rental_uris":{"android":"levelo://app?vid=17a49efb-d179-4b85-b20c-4afe87c0613f","ios":"levelo://app?vid=17a49efb-d179-4b85-b20c-4afe87c0613f"},"vehicle_type_id":"4","last_reported":1766088715,"current_range_meters":13600,"station_id":"st_d4kl2rp97mjs73e7tdfg","pricing_plan_id":"cebpf4jnsgd1na2vs0mg"},{"bike_id":"1fe61e53-783b-4be3-86da-1e2214f6789d","system_id":"levelo_inurba_marseille","lat":43.29782,"lon":5.38038,"is_reserved":false,"is_disabled":false,"rental_uris":{"android":"levelo://app?vid=1fe61e53-783b-4be3-86da-1e2214f6789d","ios":"levelo://app?vid=1fe61e53-783b-4be3-86da-1e2214f6789d"},"vehicle_type_id":"4","last_reported":1766088715,"current_range_meters":13600,"station_id":"","pricing_plan_id":"cebpf4jnsgd1na2vs0mg"},{"bike_id":"00e6e0cf-1e19-464c-9057-69cf72c4f0c9","system_id":"levelo_inurba_marseille","lat":43.300936,"lon":5.390797,"is_reserved":false,"is_disabled":false,"rental_uris":{"android":"levelo://app?vid=00e6e0cf-1e19-464c-9057-69cf72c4f0c9","ios":"levelo://app?vid=00e6e0cf-1e19-464c-9057-69cf72c4f0c9"},"vehicle_type_id":"4","last_reported":1766088715,"current_range_meters":13600,"station_id":"ce4bh192rcd13ifvqdb0","pricing_plan_id":"cebpf4jnsgd1na2vs0mg"},{"bike_id":"23e7c582-afa0-448e-a3de-9a27a71904ef","system_id":"levelo_inurba_marseille","lat":43.29526,"lon":5.38545,"is_reserved":false,"is_disabled":false,"rental_uris":{"android":"levelo://app?vid=23e7c582-afa0-448e-a3de-9a27a71904ef","ios":"levelo://app?vid=23e7c582-afa0-448e-a3de-9a27a71904ef"},"vehicle_type_id":"4","last_reported":1766088715,"current_range_meters":13600,"station_id":"ce4bgih2rcd13ifvqba0","pricing_plan_id":"cebpf4jnsgd1na2vs0mg"},{"bike_id":"03c001c0-4e48-4933-888d-41fee8b60e49","system_id":"levelo_inurba_marseille","lat":43.29178,"lon":5.37133,"is_reserved":false,"is_disabled":false,"rental_uris":{"android":"levelo://app?vid=03c001c0-4e48-4933-888d-41fee8b60e49","ios":"levelo://app?vid=03c001c0-4e48-4933-888d-41fee8b60e49"},"vehicle_type_id":"4","last_reported":1766088715,"current_range_meters":14000,"station_id":"ce4bha92rcd13ifvqeh0","pricing_plan_id":"cebpf4jnsgd1na2vs0mg"},{"bike_id":"0a598fce-978f-4f90-b03f-b8be1902feff","system_id":"levelo_inurba_marseille","lat":43.31275,"lon":5.37811,"is_reserved":false,"is_disabled":false,"rental_uris":{"android":"levelo://app?vid=0a598fce-978f-4f90-b03f-b8be1902feff","ios":"levelo://app?vid=0a598fce-978f-4f90-b03f-b8be1902feff"},"vehicle_type_id":"4","last_reported":1766088715,"current_range_meters":14000,"station_id":"","pricing_plan_id":"cebpf4jnsgd1na2vs0mg"},{"bike_id":"b35bf390-3731-42ac-9e87-33947aeb4efc","system_id":"levelo_inurba_marseille","lat":43.3276,"lon":5.39223,"is_reserved":false,"is_disabled":false,"rental_uris":{"android":"levelo://app?vid=b35bf390-3731-42ac-9e87-33947aeb4efc","ios":"levelo://app?vid=b35bf390-3731-42ac-9e87-33947aeb4efc"},"vehicle_type_id":"4","last_reported":1766088715,"current_range_meters":14000,"station_id":"","pricing_plan_id":"cebpf4jnsgd1na2vs0mg"},{"bike_id":"413557ff-13d9-40fb-81ee-6ad5e7d92bea","system_id":"levelo_inurba_marseille","lat":43.21191,"lon":5.35067,"is_reserved":false,"is_disabled":false,"rental_uris":{"android":"levelo://app?vid=413557ff-13d9-40fb-81ee-6ad5e7d92bea","ios":"levelo://app?vid=413557ff-13d9-40fb-81ee-6ad5e7d92bea"},"vehicle_type_id":"4","last_reported":1766088715,"current_range_meters":14000,"station_id":"st_cvj6sg6p6f1abm77japg","pricing_plan_id":"cebpf4jnsgd1na2vs0mg"},{"bike_id":"dfbce69e-f6e8-4b7d-b65d-85deba113350","system_id":"levelo_inurba_marseille","lat":43.28264,"lon":5.35075,"is_reserved":false,"is_disabled":false,"rental_uris":{"android":"levelo://app?vid=dfbce69e-f6e8-4b7d-b65d-85deba113350","ios":"levelo://app?vid=dfbce69e-f6e8-4b7d-b65d-85deba113350"},"vehicle_type_id":"4","last_reported":1766088715,"current_range_meters":14000,"station_id":"ce4bhbp2rcd13ifvqerg","pricing_plan_id":"cebpf4jnsgd1na2vs0mg"},{"bike_id":"86a67333-af83-4198-8a36-92e28c5c763b","system_id":"levelo_inurba_marseille","lat":43.31494,"lon":5.37307,"is_reserved":false,"is_disabled":false,"rental_uris":{"android":"levelo://app?vid=86a67333-af83-4198-8a36-92e28c5c763b","ios":"levelo://app?vid=86a67333-af83-4198-8a36-92e28c5c763b"},"vehicle_type_id":"4","last_reported":1766088715,"current_range_meters":14000,"station_id":"ce4bgt12rcd13ifvqcd0","pricing_plan_id":"cebpf4jnsgd1na2vs0mg"},{"bike_id":"9b3ad9e9-6c8e-47dd-9f00-d7499ff2fa77","system_id":"levelo_inurba_marseille","lat":43.21184,"lon":5.35071,"is_reserved":false,"is_disabled":false,"rental_uris":{"android":"levelo://app?vid=9b3ad9e9-6c8e-47dd-9f00-d7499ff2fa77","ios":"levelo://app?vid=9b3ad9e9-6c8e-47dd-9f00-d7499ff2fa77"},"vehicle_type_id":"4","last_reported":1766088715,"current_range_meters":14000,"station_id":"st_cvj6sg6p6f1abm77japg","pricing_plan_id":"cebpf4jnsgd1na2vs0mg"},{"bike_id":"9f3c0044-3fd3-4dcb-bbd1-75f89d5cdde5","system_id":"levelo_inurba_marseille","lat":43.31359,"lon":5.38493,"is_reserved":false,"is_disabled":false,"rental_uris":{"android":"levelo://app?vid=9f3c0044-3fd3-4dcb-bbd1-75f89d5cdde5","ios":"levelo://app?vid=9f3c0044-3fd3-4dcb-bbd1-75f89d5cdde5"},"vehicle_type_id":"4","last_reported":1766088715,"current_range_meters":14400,"station_id":"ce4bgt92rcd13ifvqcf0","pricing_plan_id":"cebpf4jnsgd1na2vs0mg"},{"bike_id":"305412fd-41fd-4f48-b0ce-d25b5a7eb63f","system_id":"levelo_inurba_marseille","lat":43.34585,"lon":5.3819,"is_reserved":false,"is_disabled":false,"rental_uris":{"android":"levelo://app?vid=305412fd-41fd-4f48-b0ce-d25b5a7eb63f","ios":"levelo://app?vid=305412fd-41fd-4f48-b0ce-d25b5a7eb63f"},"vehicle_type_id":"4","last_reported":1766088715,"current_range_meters":14400,"station_id":"","pricing_plan_id":"cebpf4jnsgd1na2vs0mg"},{"bike_id":"b494c767-effb-47c2-9a4d-0fc429c1d80d","system_id":"levelo_inurba_marseille","lat":43.29582,"lon":5.37498,"is_reserved":false,"is_disabled":true,"rental_uris":{"android":"levelo://app?vid=b494c767-effb-47c2-9a4d-0fc429c1d80d","ios":"levelo://app?vid=b494c767-effb-47c2-9a4d-0fc429c1d80d"},"vehicle_type_id":"4","last_reported":1766088715,"current_range_meters":14400,"station_id":"","pricing_plan_id":"cebpf4jnsgd1na2vs0mg"},{"bike_id":"cf5eb2c1-c87d-4ae3-9256-41d8d82f1276","system_id":"levelo_inurba_marseille","lat":43.292278,"lon":5.360578,"is_reserved":false,"is_disabled":false,"rental_uris":{"android":"levelo://app?vid=cf5eb2c1-c87d-4ae3-9256-41d8d82f1276","ios":"levelo://app?vid=cf5eb2c1-c87d-4ae3-9256-41d8d82f1276"},"vehicle_type_id":"4","last_reported":1766088715,"current_range_meters":14400,"station_id":"ce4bhbh2rcd13ifvqeqg","pricing_plan_id":"cebpf4jnsgd1na2vs0mg"},{"bike_id":"3171c4f4-d5a9-4282-9d2c-df19a6022bc8","system_id":"levelo_inurba_marseille","lat":43.29051,"lon":5.35642,"is_reserved":false,"is_disabled":false,"rental_uris":{"android":"levelo://app?vid=3171c4f4-d5a9-4282-9d2c-df19a6022bc8","ios":"levelo://app?vid=3171c4f4-d5a9-4282-9d2c-df19a6022bc8"},"vehicle_type_id":"4","last_reported":1766088715,"current_range_meters":14400,"station_id":"","pricing_plan_id":"cebpf4jnsgd1na2vs0mg"},{"bike_id":"28e7ea25-d676-49ca-8be6-ac1c19bc94ea","system_id":"levelo_inurba_marseille","lat":43.33435,"lon":5.40056,"is_reserved":false,"is_disabled":false,"rental_uris":{"android":"levelo://app?vid=28e7ea25-d676-49ca-8be6-ac1c19bc94ea","ios":"levelo://app?vid=28e7ea25-d676-49ca-8be6-ac1c19bc94ea"},"vehicle_type_id":"4","last_reported":1766088715,"current_range_meters":14400,"station_id":"","pricing_plan_id":"cebpf4jnsgd1na2vs0mg"},{"bike_id":"b093a80d-0a24-4e3b-a0db-33694b46e7b2","system_id":"levelo_inurba_marseille","lat":43.28852,"lon":5.3931,"is_reserved":false,"is_disabled":false,"rental_uris":{"android":"levelo://app?vid=b093a80d-0a24-4e3b-a0db-33694b46e7b2","ios":"levelo://app?vid=b093a80d-0a24-4e3b-a0db-33694b46e7b2"},"vehicle_type_id":"4","last_reported":1766088715,"current_range_meters":14400,"station_id":"ce4bh2p2rcd13ifvqdi0","pricing_plan_id":"cebpf4jnsgd1na2vs0mg"},{"bike_id":"177968c2-b721-4f46-bce6-fdc7b22371d4","system_id":"levelo_inurba_marseille","lat":43.29974,"lon":5.3717,"is_reserved":false,"is_disabled":false,"rental_uris":{"android":"levelo://app?vid=177968c2-b721-4f46-bce6-fdc7b22371d4","ios":"levelo://app?vid=177968c2-b721-4f46-bce6-fdc7b22371d4"},"vehicle_type_id":"4","last_reported":1766088715,"current_range_meters":14400,"station_id":"ce4bgr92rcd13ifvqc7g","pricing_plan_id":"cebpf4jnsgd1na2vs0mg"},{"bike_id":"700442f5-a082-454e-8bc7-ab3bbb77bfce","system_id":"levelo_inurba_marseille","lat":43.266321,"lon":5.374511,"is_reserved":false,"is_disabled":false,"rental_uris":{"android":"levelo://app?vid=700442f5-a082-454e-8bc7-ab3bbb77bfce","ios":"levelo://app?vid=700442f5-a082-454e-8bc7-ab3bbb77bfce"},"vehicle_type_id":"4","last_reported":1766088715,"current_range_meters":14400,"station_id":"","pricing_plan_id":"cebpf4jnsgd1na2vs0mg"},{"bike_id":"9ce1842c-18fc-43eb-9262-95f8086e7650","system_id":"levelo_inurba_marseille","lat":43.27804,"lon":5.40722,"is_reserved":false,"is_disabled":false,"rental_uris":{"android":"levelo://app?vid=9ce1842c-18fc-43eb-9262-95f8086e7650","ios":"levelo://app?vid=9ce1842c-18fc-43eb-9262-95f8086e7650"},"vehicle_type_id":"4","last_reported":1766088715,"current_range_meters":14800,"station_id":"ce4bhnh2rcd13ifvqgtg","pricing_plan_id":"cebpf4jnsgd1na2vs0mg"},{"bike_id":"a3b1284a-c277-42d5-a210-0f554b0b78a5","system_id":"levelo_inurba_marseille","lat":43.28614,"lon":5.35106,"is_reserved":false,"is_disabled":false,"rental_uris":{"android":"levelo://app?vid=a3b1284a-c277-42d5-a210-0f554b0b78a5","ios":"levelo://app?vid=a3b1284a-c277-42d5-a210-0f554b0b78a5"},"vehicle_type_id":"4","last_reported":1766088715,"current_range_meters":14800,"station_id":"ce4bhch2rcd13ifvqeug","pricing_plan_id":"cebpf4jnsgd1na2vs0mg"},{"bike_id":"70353d19-d0ed-4bb9-bff6-9650be29d29c","system_id":"levelo_inurba_marseille","lat":43.29755,"lon":5.381215,"is_reserved":false,"is_disabled":false,"rental_uris":{"android":"levelo://app?vid=70353d19-d0ed-4bb9-bff6-9650be29d29c","ios":"levelo://app?vid=70353d19-d0ed-4bb9-bff6-9650be29d29c"},"vehicle_type_id":"4","last_reported":1766088715,"current_range_meters":14800,"station_id":"","pricing_plan_id":"cebpf4jnsgd1na2vs0mg"},{"bike_id":"2f416f89-8628-4241-b233-dd8c57827bfe","system_id":"levelo_inurba_marseille","lat":43.300469,"lon":5.389186,"is_reserved":false,"is_disabled":false,"rental_uris":{"android":"levelo://app?vid=2f416f89-8628-4241-b233-dd8c57827bfe","ios":"levelo://app?vid=2f416f89-8628-4241-b233-dd8c57827bfe"},"vehicle_type_id":"4","last_reported":1766088715,"current_range_meters":14800,"station_id":"ce4bgvh2rcd13ifvqcs0","pricing_plan_id":"cebpf4jnsgd1na2vs0mg"},{"bike_id":"8baf18d0-6725-4ba0-9f72-640cffab0f68","system_id":"levelo_inurba_marseille","lat":43.30131,"lon":5.398935,"is_reserved":false,"is_disabled":true,"rental_uris":{"android":"levelo://app?vid=8baf18d0-6725-4ba0-9f72-640cffab0f68","ios":"levelo://app?vid=8baf18d0-6725-4ba0-9f72-640cffab0f68"},"vehicle_type_id":"4","last_reported":1766088715,"current_range_meters":15200,"station_id":"ce4bh0h2rcd13ifvqd40","pricing_plan_id":"cebpf4jnsgd1na2vs0mg"},{"bike_id":"1b3e78af-6e11-4a00-8160-7be2836c0e75","system_id":"levelo_inurba_marseille","lat":43.26189,"lon":5.3745,"is_reserved":false,"is_disabled":true,"rental_uris":{"android":"levelo://app?vid=1b3e78af-6e11-4a00-8160-7be2836c0e75","ios":"levelo://app?vid=1b3e78af-6e11-4a00-8160-7be2836c0e75"},"vehicle_type_id":"4","last_reported":1766088715,"current_range_meters":15200,"station_id":"","pricing_plan_id":"cebpf4jnsgd1na2vs0mg"},{"bike_id":"00a29bb1-88ca-440d-9219-07d673c689ed","system_id":"levelo_inurba_marseille","lat":43.2981,"lon":5.36338,"is_reserved":false,"is_disabled":false,"rental_uris":{"android":"levelo://app?vid=00a29bb1-88ca-440d-9219-07d673c689ed","ios":"levelo://app?vid=00a29bb1-88ca-440d-9219-07d673c689ed"},"vehicle_type_id":"4","last_reported":1766088715,"current_range_meters":15200,"station_id":"","pricing_plan_id":"cebpf4jnsgd1na2vs0mg"},{"bike_id":"9aa8af62-5279-4e1e-9590-a787d63d1533","system_id":"levelo_inurba_marseille","lat":43.262274,"lon":5.404544,"is_reserved":false,"is_disabled":false,"rental_uris":{"android":"levelo://app?vid=9aa8af62-5279-4e1e-9590-a787d63d1533","ios":"levelo://app?vid=9aa8af62-5279-4e1e-9590-a787d63d1533"},"vehicle_type_id":"4","last_reported":1766088715,"current_range_meters":15200,"station_id":"ce4bhmh2rcd13ifvqgmg","pricing_plan_id":"cebpf4jnsgd1na2vs0mg"},{"bike_id":"966e94d9-344c-404e-902c-14690d69552f","system_id":"levelo_inurba_marseille","lat":43.29027,"lon":5.38644,"is_reserved":false,"is_disabled":false,"rental_uris":{"android":"levelo://app?vid=966e94d9-344c-404e-902c-14690d69552f","ios":"levelo://app?vid=966e94d9-344c-404e-902c-14690d69552f"},"vehicle_type_id":"4","last_reported":1766088715,"current_range_meters":15200,"station_id":"ce4bh4p2rcd13ifvqe0g","pricing_plan_id":"cebpf4jnsgd1na2vs0mg"},{"bike_id":"21a68bd6-9cc0-407c-b18d-d31ec42a87b6","system_id":"levelo_inurba_marseille","lat":43.289164,"lon":5.395975,"is_reserved":false,"is_disabled":false,"rental_uris":{"android":"levelo://app?vid=21a68bd6-9cc0-407c-b18d-d31ec42a87b6","ios":"levelo://app?vid=21a68bd6-9cc0-407c-b18d-d31ec42a87b6"},"vehicle_type_id":"4","last_reported":1766088715,"current_range_meters":15200,"station_id":"ce4bh3h2rcd13ifvqdn0","pricing_plan_id":"cebpf4jnsgd1na2vs0mg"},{"bike_id":"1facaedb-2577-4152-b305-daa9cc4d0811","system_id":"levelo_inurba_marseille","lat":43.25113,"lon":5.40316,"is_reserved":false,"is_disabled":false,"rental_uris":{"android":"levelo://app?vid=1facaedb-2577-4152-b305-daa9cc4d0811","ios":"levelo://app?vid=1facaedb-2577-4152-b305-daa9cc4d0811"},"vehicle_type_id":"4","last_reported":1766088715,"current_range_meters":16000,"station_id":"ce4bhlh2rcd13ifvqgig","pricing_plan_id":"cebpf4jnsgd1na2vs0mg"},{"bike_id":"76d5ddc5-e3a0-47ef-9de5-b98f09282fb1","system_id":"levelo_inurba_marseille","lat":43.31069,"lon":5.38345,"is_reserved":false,"is_disabled":false,"rental_uris":{"android":"levelo://app?vid=76d5ddc5-e3a0-47ef-9de5-b98f09282fb1","ios":"levelo://app?vid=76d5ddc5-e3a0-47ef-9de5-b98f09282fb1"},"vehicle_type_id":"4","last_reported":1766088715,"current_range_meters":16000,"station_id":"ce4bgv92rcd13ifvqcr0","pricing_plan_id":"cebpf4jnsgd1na2vs0mg"},{"bike_id":"128f68df-e6c8-471d-bf6e-3a9c347712de","system_id":"levelo_inurba_marseille","lat":43.29234,"lon":5.40898,"is_reserved":false,"is_disabled":false,"rental_uris":{"android":"levelo://app?vid=128f68df-e6c8-471d-bf6e-3a9c347712de","ios":"levelo://app?vid=128f68df-e6c8-471d-bf6e-3a9c347712de"},"vehicle_type_id":"4","last_reported":1766088715,"current_range_meters":16000,"station_id":"ce4bh192rcd13ifvqdc0","pricing_plan_id":"cebpf4jnsgd1na2vs0mg"},{"bike_id":"76fb7a73-a5f9-4340-855e-fcbbe13e759a","system_id":"levelo_inurba_marseille","lat":43.31858,"lon":5.39994,"is_reserved":false,"is_disabled":false,"rental_uris":{"android":"levelo://app?vid=76fb7a73-a5f9-4340-855e-fcbbe13e759a","ios":"levelo://app?vid=76fb7a73-a5f9-4340-855e-fcbbe13e759a"},"vehicle_type_id":"4","last_reported":1766088715,"current_range_meters":16000,"station_id":"","pricing_plan_id":"cebpf4jnsgd1na2vs0mg"},{"bike_id":"30df60d9-afa1-4ec6-ae98-845c99089db1","system_id":"levelo_inurba_marseille","lat":43.295835,"lon":5.375082,"is_reserved":false,"is_disabled":false,"rental_uris":{"android":"levelo://app?vid=30df60d9-afa1-4ec6-ae98-845c99089db1","ios":"levelo://app?vid=30df60d9-afa1-4ec6-ae98-845c99089db1"},"vehicle_type_id":"4","last_reported":1766088715,"current_range_meters":16000,"station_id":"","pricing_plan_id":"cebpf4jnsgd1na2vs0mg"},{"bike_id":"3ff50b8b-db30-4d22-9ce0-54825b03ea85","system_id":"levelo_inurba_marseille","lat":43.32098,"lon":5.3678,"is_reserved":false,"is_disabled":false,"rental_uris":{"android":"levelo://app?vid=3ff50b8b-db30-4d22-9ce0-54825b03ea85","ios":"levelo://app?vid=3ff50b8b-db30-4d22-9ce0-54825b03ea85"},"vehicle_type_id":"4","last_reported":1766088715,"current_range_meters":16000,"station_id":"ce4bhrh2rcd13ifvqhug","pricing_plan_id":"cebpf4jnsgd1na2vs0mg"},{"bike_id":"dcebbb45-765e-44b9-9596-1f8fdae0f25e","system_id":"levelo_inurba_marseille","lat":43.24648,"lon":5.38913,"is_reserved":false,"is_disabled":false,"rental_uris":{"android":"levelo://app?vid=dcebbb45-765e-44b9-9596-1f8fdae0f25e","ios":"levelo://app?vid=dcebbb45-765e-44b9-9596-1f8fdae0f25e"},"vehicle_type_id":"4","last_reported":1766088715,"current_range_meters":16000,"station_id":"ce4bhg12rcd13ifvqf60","pricing_plan_id":"cebpf4jnsgd1na2vs0mg"},{"bike_id":"15edc318-82fb-41ab-a7c7-a35d25a29861","system_id":"levelo_inurba_marseille","lat":43.292793,"lon":5.368632,"is_reserved":false,"is_disabled":false,"rental_uris":{"android":"levelo://app?vid=15edc318-82fb-41ab-a7c7-a35d25a29861","ios":"levelo://app?vid=15edc318-82fb-41ab-a7c7-a35d25a29861"},"vehicle_type_id":"4","last_reported":1766088715,"current_range_meters":16000,"station_id":"ce4bhbp2rcd13ifvqesg","pricing_plan_id":"cebpf4jnsgd1na2vs0mg"},{"bike_id":"d6bc7465-ed58-4731-8353-a1bf1c3037e6","system_id":"levelo_inurba_marseille","lat":43.26571,"lon":5.40316,"is_reserved":false,"is_disabled":false,"rental_uris":{"android":"levelo://app?vid=d6bc7465-ed58-4731-8353-a1bf1c3037e6","ios":"levelo://app?vid=d6bc7465-ed58-4731-8353-a1bf1c3037e6"},"vehicle_type_id":"4","last_reported":1766088715,"current_range_meters":16000,"station_id":"ce4bhmp2rcd13ifvqgng","pricing_plan_id":"cebpf4jnsgd1na2vs0mg"},{"bike_id":"d6888ab2-db65-443c-8d72-10589f53745a","system_id":"levelo_inurba_marseille","lat":43.29558,"lon":5.37488,"is_reserved":false,"is_disabled":true,"rental_uris":{"android":"levelo://app?vid=d6888ab2-db65-443c-8d72-10589f53745a","ios":"levelo://app?vid=d6888ab2-db65-443c-8d72-10589f53745a"},"vehicle_type_id":"4","last_reported":1766088715,"current_range_meters":16000,"station_id":"ce4bgh92rcd13ifvqb50","pricing_plan_id":"cebpf4jnsgd1na2vs0mg"},{"bike_id":"5d341061-9b09-404b-84a4-2c7b7bc08a7d","system_id":"levelo_inurba_marseille","lat":43.29631,"lon":5.3771,"is_reserved":false,"is_disabled":false,"rental_uris":{"android":"levelo://app?vid=5d341061-9b09-404b-84a4-2c7b7bc08a7d","ios":"levelo://app?vid=5d341061-9b09-404b-84a4-2c7b7bc08a7d"},"vehicle_type_id":"4","last_reported":1766088715,"current_range_meters":16000,"station_id":"ce4bgi92rcd13ifvqb90","pricing_plan_id":"cebpf4jnsgd1na2vs0mg"},{"bike_id":"5474fde9-5ed0-49e3-8fc7-9f89c5c20dfd","system_id":"levelo_inurba_marseille","lat":43.21186,"lon":5.35081,"is_reserved":false,"is_disabled":false,"rental_uris":{"android":"levelo://app?vid=5474fde9-5ed0-49e3-8fc7-9f89c5c20dfd","ios":"levelo://app?vid=5474fde9-5ed0-49e3-8fc7-9f89c5c20dfd"},"vehicle_type_id":"4","last_reported":1766088715,"current_range_meters":16000,"station_id":"st_cvj6sg6p6f1abm77japg","pricing_plan_id":"cebpf4jnsgd1na2vs0mg"},{"bike_id":"51850788-6d18-4067-a22e-183a3dbd8b5e","system_id":"levelo_inurba_marseille","lat":43.28638,"lon":5.35111,"is_reserved":false,"is_disabled":false,"rental_uris":{"android":"levelo://app?vid=51850788-6d18-4067-a22e-183a3dbd8b5e","ios":"levelo://app?vid=51850788-6d18-4067-a22e-183a3dbd8b5e"},"vehicle_type_id":"4","last_reported":1766088715,"current_range_meters":16000,"station_id":"ce4bhch2rcd13ifvqeug","pricing_plan_id":"cebpf4jnsgd1na2vs0mg"},{"bike_id":"be1fe72b-a15e-4859-a6bc-075de8199a78","system_id":"levelo_inurba_marseille","lat":43.31065,"lon":5.38348,"is_reserved":false,"is_disabled":false,"rental_uris":{"android":"levelo://app?vid=be1fe72b-a15e-4859-a6bc-075de8199a78","ios":"levelo://app?vid=be1fe72b-a15e-4859-a6bc-075de8199a78"},"vehicle_type_id":"4","last_reported":1766088715,"current_range_meters":16000,"station_id":"ce4bgv92rcd13ifvqcr0","pricing_plan_id":"cebpf4jnsgd1na2vs0mg"},{"bike_id":"689e1e25-96b9-418c-bbe1-0e8f9558c52f","system_id":"levelo_inurba_marseille","lat":43.31388,"lon":5.37688,"is_reserved":false,"is_disabled":false,"rental_uris":{"android":"levelo://app?vid=689e1e25-96b9-418c-bbe1-0e8f9558c52f","ios":"levelo://app?vid=689e1e25-96b9-418c-bbe1-0e8f9558c52f"},"vehicle_type_id":"4","last_reported":1766088715,"current_range_meters":16000,"station_id":"","pricing_plan_id":"cebpf4jnsgd1na2vs0mg"},{"bike_id":"eac629f1-3e88-42f0-8d6c-3d0b95f923e3","system_id":"levelo_inurba_marseille","lat":43.31527,"lon":5.38026,"is_reserved":false,"is_disabled":false,"rental_uris":{"android":"levelo://app?vid=eac629f1-3e88-42f0-8d6c-3d0b95f923e3","ios":"levelo://app?vid=eac629f1-3e88-42f0-8d6c-3d0b95f923e3"},"vehicle_type_id":"4","last_reported":1766088715,"current_range_meters":16000,"station_id":"ce4bhsp2rcd13ifvqi50","pricing_plan_id":"cebpf4jnsgd1na2vs0mg"},{"bike_id":"5726f472-6c40-42af-b719-63ad4dd74d25","system_id":"levelo_inurba_marseille","lat":43.31993,"lon":5.38146,"is_reserved":false,"is_disabled":false,"rental_uris":{"android":"levelo://app?vid=5726f472-6c40-42af-b719-63ad4dd74d25","ios":"levelo://app?vid=5726f472-6c40-42af-b719-63ad4dd74d25"},"vehicle_type_id":"4","last_reported":1766088715,"current_range_meters":16400,"station_id":"ce4bhr12rcd13ifvqhpg","pricing_plan_id":"cebpf4jnsgd1na2vs0mg"},{"bike_id":"34432b8d-ee07-4e27-948a-d025d4af86ca","system_id":"levelo_inurba_marseille","lat":43.29512,"lon":5.39377,"is_reserved":false,"is_disabled":false,"rental_uris":{"android":"levelo://app?vid=34432b8d-ee07-4e27-948a-d025d4af86ca","ios":"levelo://app?vid=34432b8d-ee07-4e27-948a-d025d4af86ca"},"vehicle_type_id":"4","last_reported":1766088715,"current_range_meters":16400,"station_id":"ce4bh292rcd13ifvqdf0","pricing_plan_id":"cebpf4jnsgd1na2vs0mg"},{"bike_id":"47b454cd-01f9-4de3-b129-3f7a7abb6370","system_id":"levelo_inurba_marseille","lat":43.29224,"lon":5.36069,"is_reserved":false,"is_disabled":false,"rental_uris":{"android":"levelo://app?vid=47b454cd-01f9-4de3-b129-3f7a7abb6370","ios":"levelo://app?vid=47b454cd-01f9-4de3-b129-3f7a7abb6370"},"vehicle_type_id":"4","last_reported":1766088715,"current_range_meters":16400,"station_id":"ce4bhbh2rcd13ifvqeqg","pricing_plan_id":"cebpf4jnsgd1na2vs0mg"},{"bike_id":"d783168f-15b2-4b2a-ad46-bc652bed9d53","system_id":"levelo_inurba_marseille","lat":43.30219,"lon":5.39462,"is_reserved":false,"is_disabled":false,"rental_uris":{"android":"levelo://app?vid=d783168f-15b2-4b2a-ad46-bc652bed9d53","ios":"levelo://app?vid=d783168f-15b2-4b2a-ad46-bc652bed9d53"},"vehicle_type_id":"4","last_reported":1766088715,"current_range_meters":16400,"station_id":"ce4bh0p2rcd13ifvqd70","pricing_plan_id":"cebpf4jnsgd1na2vs0mg"},{"bike_id":"ed0b0efc-7ff2-4ff0-8f38-23867c9755df","system_id":"levelo_inurba_marseille","lat":43.25342,"lon":5.42158,"is_reserved":false,"is_disabled":false,"rental_uris":{"android":"levelo://app?vid=ed0b0efc-7ff2-4ff0-8f38-23867c9755df","ios":"levelo://app?vid=ed0b0efc-7ff2-4ff0-8f38-23867c9755df"},"vehicle_type_id":"4","last_reported":1766088715,"current_range_meters":16400,"station_id":"st_d2m65c5bi1j21697t3ng","pricing_plan_id":"cebpf4jnsgd1na2vs0mg"},{"bike_id":"1c79eb29-135e-40c1-8651-901759d4aaa6","system_id":"levelo_inurba_marseille","lat":43.28579,"lon":5.35305,"is_reserved":false,"is_disabled":false,"rental_uris":{"android":"levelo://app?vid=1c79eb29-135e-40c1-8651-901759d4aaa6","ios":"levelo://app?vid=1c79eb29-135e-40c1-8651-901759d4aaa6"},"vehicle_type_id":"4","last_reported":1766088715,"current_range_meters":16400,"station_id":"","pricing_plan_id":"cebpf4jnsgd1na2vs0mg"},{"bike_id":"ec6401bf-06e9-4881-946b-649f2b1df2d1","system_id":"levelo_inurba_marseille","lat":43.25332,"lon":5.42159,"is_reserved":false,"is_disabled":false,"rental_uris":{"android":"levelo://app?vid=ec6401bf-06e9-4881-946b-649f2b1df2d1","ios":"levelo://app?vid=ec6401bf-06e9-4881-946b-649f2b1df2d1"},"vehicle_type_id":"4","last_reported":1766088715,"current_range_meters":16400,"station_id":"st_d2m65c5bi1j21697t3ng","pricing_plan_id":"cebpf4jnsgd1na2vs0mg"},{"bike_id":"b12c4caa-9d88-4cba-acda-9a8c909ff289","system_id":"levelo_inurba_marseille","lat":43.24183,"lon":5.39717,"is_reserved":false,"is_disabled":false,"rental_uris":{"android":"levelo://app?vid=b12c4caa-9d88-4cba-acda-9a8c909ff289","ios":"levelo://app?vid=b12c4caa-9d88-4cba-acda-9a8c909ff289"},"vehicle_type_id":"4","last_reported":1766088715,"current_range_meters":16400,"station_id":"ce4bhn12rcd13ifvqgpg","pricing_plan_id":"cebpf4jnsgd1na2vs0mg"},{"bike_id":"1b242f74-0031-42b6-9e71-062aba3f7d85","system_id":"levelo_inurba_marseille","lat":43.253322,"lon":5.421684,"is_reserved":false,"is_disabled":false,"rental_uris":{"android":"levelo://app?vid=1b242f74-0031-42b6-9e71-062aba3f7d85","ios":"levelo://app?vid=1b242f74-0031-42b6-9e71-062aba3f7d85"},"vehicle_type_id":"4","last_reported":1766088715,"current_range_meters":16400,"station_id":"st_d2m65c5bi1j21697t3ng","pricing_plan_id":"cebpf4jnsgd1na2vs0mg"},{"bike_id":"805c25ad-9714-4490-aa12-0cc039e8b2f0","system_id":"levelo_inurba_marseille","lat":43.28156,"lon":5.42641,"is_reserved":false,"is_disabled":false,"rental_uris":{"android":"levelo://app?vid=805c25ad-9714-4490-aa12-0cc039e8b2f0","ios":"levelo://app?vid=805c25ad-9714-4490-aa12-0cc039e8b2f0"},"vehicle_type_id":"4","last_reported":1766088715,"current_range_meters":16400,"station_id":"ce4bhnh2rcd13ifvqgug","pricing_plan_id":"cebpf4jnsgd1na2vs0mg"},{"bike_id":"1be5164d-a876-4b23-ad07-2a7bdb1636ec","system_id":"levelo_inurba_marseille","lat":43.255779,"lon":5.382323,"is_reserved":false,"is_disabled":false,"rental_uris":{"android":"levelo://app?vid=1be5164d-a876-4b23-ad07-2a7bdb1636ec","ios":"levelo://app?vid=1be5164d-a876-4b23-ad07-2a7bdb1636ec"},"vehicle_type_id":"4","last_reported":1766088715,"current_range_meters":16400,"station_id":"ce4bhih2rcd13ifvqfs0","pricing_plan_id":"cebpf4jnsgd1na2vs0mg"},{"bike_id":"8965bd2e-8152-488c-82f6-eca1ad732749","system_id":"levelo_inurba_marseille","lat":43.31288,"lon":5.40177,"is_reserved":false,"is_disabled":false,"rental_uris":{"android":"levelo://app?vid=8965bd2e-8152-488c-82f6-eca1ad732749","ios":"levelo://app?vid=8965bd2e-8152-488c-82f6-eca1ad732749"},"vehicle_type_id":"4","last_reported":1766088715,"current_range_meters":16400,"station_id":"ce4bh092rcd13ifvqd30","pricing_plan_id":"cebpf4jnsgd1na2vs0mg"},{"bike_id":"1d7a2ca0-8161-4459-b5d5-06113213bda9","system_id":"levelo_inurba_marseille","lat":43.23202,"lon":5.35536,"is_reserved":false,"is_disabled":false,"rental_uris":{"android":"levelo://app?vid=1d7a2ca0-8161-4459-b5d5-06113213bda9","ios":"levelo://app?vid=1d7a2ca0-8161-4459-b5d5-06113213bda9"},