{"last_updated":1687118797,"ttl":30,"version":"2.2","data":{"bikes":[{"bike_id":"c533cf2d-c706-43b5-be28-594ac882d959","system_id":"levelo_inurba_marseille","lat":43.314811,"lon":5.373104,"is_reserved":false,"is_disabled":false,"rental_uris":{"android":"levelo://app?vid=c533cf2d-c706-43b5-be28-594ac882d959","ios":"levelo://app?vid=c533cf2d-c706-43b5-be28-594ac882d959"},"vehicle_type_id":"4","last_reported":1687118797,"current_range_meters":4000,"station_id":"ce4bgt12rcd13ifvqcd0","pricing_plan_id":"free"},{"bike_id":"8726bc8a-6dfb-4cad-b866-e095bfe00b1b","system_id":"levelo_inurba_marseille","lat":43.3149,"lon":5.37303,"is_reserved":false,"is_disabled":false,"rental_uris":{"android":"levelo://app?vid=8726bc8a-6dfb-4cad-b866-e095bfe00b1b","ios":"levelo://app?vid=8726bc8a-6dfb-4cad-b866-e095bfe00b1b"},"vehicle_type_id":"4","last_reported":1687118797,"current_range_meters":5600,"station_id":"ce4bgt12rcd13ifvqcd0","pricing_plan_id":"free"},{"bike_id":"fff1a752-a0c3-4f30-b86b-9510f7ec9a1b","system_id":"levelo_inurba_marseille","lat":43.31486,"lon":5.37307,"is_reserved":false,"is_disabled":false,"rental_uris":{"android":"levelo://app?vid=fff1a752-a0c3-4f30-b86b-9510f7ec9a1b","ios":"levelo://app?vid=fff1a752-a0c3-4f30-b86b-9510f7ec9a1b"},"vehicle_type_id":"4","last_reported":1687118797,"current_range_meters":4800,"station_id":"ce4bgt12rcd13ifvqcd0","pricing_plan_id":"free"},{"bike_id":"e0d8f962-2c89-4362-af94-87bc34386507","system_id":"levelo_inurba_marseille","lat":43.314811,"lon":5.373103,"is_reserved":false,"is_disabled":false,"rental_uris":{"android":"levelo://app?vid=e0d8f962-2c89-4362-af94-87bc34386507","ios":"levelo://app?vid=e0d8f962-2c89-4362-af94-87bc34386507"},"vehicle_type_id":"4","last_reported":1687118797,"current_range_meters":13600,"station_id":"ce4bgt12rcd13ifvqcd0","pricing_plan_id":"free"},{"bike_id":"9c010ccd-71df-4eb6-916b-68947abfa074","system_id":"levelo_inurba_marseille","lat":43.314811,"lon":5.373103,"is_reserved":false,"is_disabled":false,"rental_uris":{"android":"levelo://app?vid=9c010ccd-71df-4eb6-916b-68947abfa074","ios":"levelo://app?vid=9c010ccd-71df-4eb6-916b-68947abfa074"},"vehicle_type_id":"4","last_reported":1687118797,"current_range_meters":30000,"station_id":"ce4bgt12rcd13ifvqcd0","pricing_plan_id":"free"},{"bike_id":"595b09ae-ade1-4d40-83eb-548895143d38","system_id":"levelo_inurba_marseille","lat":43.31493,"lon":5.37308,"is_reserved":false,"is_disabled":false,"rental_uris":{"android":"levelo://app?vid=595b09ae-ade1-4d40-83eb-548895143d38","ios":"levelo://app?vid=595b09ae-ade1-4d40-83eb-548895143d38"},"vehicle_type_id":"4","last_reported":1687118797,"current_range_meters":30800,"station_id":"ce4bgt12rcd13ifvqcd0","pricing_plan_id":"free"},{"bike_id":"bdd75690-a34c-41da-9b12-cf09de75e7b4","system_id":"levelo_inurba_marseille","lat":43.314811,"lon":5.373104,"is_reserved":false,"is_disabled":false,"rental_uris":{"android":"levelo://app?vid=bdd75690-a34c-41da-9b12-cf09de75e7b4","ios":"levelo://app?vid=bdd75690-a34c-41da-9b12-cf09de75e7b4"},"vehicle_type_id":"4","last_reported":1687118797,"current_range_meters":8000,"station_id":"ce4bgt12rcd13ifvqcd0","pricing_plan_id":"free"},{"bike_id":"ede9989b-ee63-4746-9a12-7354d19d40fc","system_id":"levelo_inurba_marseille","lat":43.314811,"lon":5.373103,"is_reserved":false,"is_disabled":false,"rental_uris":{"android":"levelo://app?vid=ede9989b-ee63-4746-9a12-7354d19d40fc","ios":"levelo://app?vid=ede9989b-ee63-4746-9a12-7354d19d40fc"},"vehicle_type_id":"4","last_reported":1687118797,"current_range_meters":29600,"station_id":"ce4bgt12rcd13ifvqcd0","pricing_plan_id":"free"},{"bike_id":"6bec84ab-8d2d-4df6-ba43-208b603a7a74","system_id":"levelo_inurba_marseille","lat":43.305706,"lon":5.365654,"is_reserved":false,"is_disabled":false,"rental_uris":{"android":"levelo://app?vid=6bec84ab-8d2d-4df6-ba43-208b603a7a74","ios":"levelo://app?vid=6bec84ab-8d2d-4df6-ba43-208b603a7a74"},"vehicle_type_id":"4","last_reported":1687118797,"current_range_meters":4800,"station_id":"ce4bgs12rcd13ifvqcag","pricing_plan_id":"free"},{"bike_id":"dae57fd1-19b4-4955-9cf5-ddc6b70a9fdf","system_id":"levelo_inurba_marseille","lat":43.305368,"lon":5.367343,"is_reserved":false,"is_disabled":false,"rental_uris":{"android":"levelo://app?vid=dae57fd1-19b4-4955-9cf5-ddc6b70a9fdf","ios":"levelo://app?vid=dae57fd1-19b4-4955-9cf5-ddc6b70a9fdf"},"vehicle_type_id":"4","last_reported":1687118797,"current_range_meters":9200,"station_id":"ce4bgrp2rcd13ifvqc9g","pricing_plan_id":"free"},{"bike_id":"47e6996c-d18a-483c-be14-bb4789c5a5d0","system_id":"levelo_inurba_marseille","lat":43.305989,"lon":5.37225,"is_reserved":false,"is_disabled":false,"rental_uris":{"android":"levelo://app?vid=47e6996c-d18a-483c-be14-bb4789c5a5d0","ios":"levelo://app?vid=47e6996c-d18a-483c-be14-bb4789c5a5d0"},"vehicle_type_id":"4","last_reported":1687118797,"current_range_meters":11600,"station_id":"ce4bgqh2rcd13ifvqc4g","pricing_plan_id":"free"},{"bike_id":"612ae939-a332-4e78-8447-93e3e426d025","system_id":"levelo_inurba_marseille","lat":43.311125,"lon":5.377624,"is_reserved":false,"is_disabled":false,"rental_uris":{"android":"levelo://app?vid=612ae939-a332-4e78-8447-93e3e426d025","ios":"levelo://app?vid=612ae939-a332-4e78-8447-93e3e426d025"},"vehicle_type_id":"4","last_reported":1687118797,"current_range_meters":26400,"station_id":"ce4bgt92rcd13ifvqcg0","pricing_plan_id":"free"},{"bike_id":"00d67e0c-817d-4e82-9f60-2683d1081085","system_id":"levelo_inurba_marseille","lat":43.311125,"lon":5.377624,"is_reserved":false,"is_disabled":false,"rental_uris":{"android":"levelo://app?vid=00d67e0c-817d-4e82-9f60-2683d1081085","ios":"levelo://app?vid=00d67e0c-817d-4e82-9f60-2683d1081085"},"vehicle_type_id":"4","last_reported":1687118797,"current_range_meters":26800,"station_id":"ce4bgt92rcd13ifvqcg0","pricing_plan_id":"free"},{"bike_id":"d641abf7-d3cb-4aea-b4ff-7755ea2ba3e7","system_id":"levelo_inurba_marseille","lat":43.311125,"lon":5.377624,"is_reserved":false,"is_disabled":false,"rental_uris":{"android":"levelo://app?vid=d641abf7-d3cb-4aea-b4ff-7755ea2ba3e7","ios":"levelo://app?vid=d641abf7-d3cb-4aea-b4ff-7755ea2ba3e7"},"vehicle_type_id":"4","last_reported":1687118797,"current_range_meters":3600,"station_id":"ce4bgt92rcd13ifvqcg0","pricing_plan_id":"free"},{"bike_id":"2424216c-0462-4ad0-b127-d0366c91b61c","system_id":"levelo_inurba_marseille","lat":43.317,"lon":5.37678,"is_reserved":false,"is_disabled":false,"rental_uris":{"android":"levelo://app?vid=2424216c-0462-4ad0-b127-d0366c91b61c","ios":"levelo://app?vid=2424216c-0462-4ad0-b127-d0366c91b61c"},"vehicle_type_id":"4","last_reported":1687118797,"current_range_meters":27200,"station_id":"","pricing_plan_id":"free"},{"bike_id":"b48459f9-b0d0-4408-a23f-f04fe16e41c6","system_id":"levelo_inurba_marseille","lat":43.317075,"lon":5.377367,"is_reserved":false,"is_disabled":false,"rental_uris":{"android":"levelo://app?vid=b48459f9-b0d0-4408-a23f-f04fe16e41c6","ios":"levelo://app?vid=b48459f9-b0d0-4408-a23f-f04fe16e41c6"},"vehicle_type_id":"4","last_reported":1687118797,"current_range_meters":30400,"station_id":"ce4bgth2rcd13ifvqch0","pricing_plan_id":"free"},{"bike_id":"93b1ca73-a652-4ca0-91f6-bc6dfbf56786","system_id":"levelo_inurba_marseille","lat":43.3019,"lon":5.36621,"is_reserved":false,"is_disabled":false,"rental_uris":{"android":"levelo://app?vid=93b1ca73-a652-4ca0-91f6-bc6dfbf56786","ios":"levelo://app?vid=93b1ca73-a652-4ca0-91f6-bc6dfbf56786"},"vehicle_type_id":"4","last_reported":1687118797,"current_range_meters":0,"station_id":"ce4bgrh2rcd13ifvqc8g","pricing_plan_id":"free"},{"bike_id":"ae33307b-fcd5-479b-9ae1-9002ed226c6e","system_id":"levelo_inurba_marseille","lat":43.308012,"lon":5.381511,"is_reserved":false,"is_disabled":false,"rental_uris":{"android":"levelo://app?vid=ae33307b-fcd5-479b-9ae1-9002ed226c6e","ios":"levelo://app?vid=ae33307b-fcd5-479b-9ae1-9002ed226c6e"},"vehicle_type_id":"4","last_reported":1687118797,"current_range_meters":28400,"station_id":"ce4bgt12rcd13ifvqce0","pricing_plan_id":"free"},{"bike_id":"43fc693e-f2a9-4aec-8fd9-d094bb02cb70","system_id":"levelo_inurba_marseille","lat":43.304606,"lon":5.379026,"is_reserved":false,"is_disabled":false,"rental_uris":{"android":"levelo://app?vid=43fc693e-f2a9-4aec-8fd9-d094bb02cb70","ios":"levelo://app?vid=43fc693e-f2a9-4aec-8fd9-d094bb02cb70"},"vehicle_type_id":"4","last_reported":1687118797,"current_range_meters":16400,"station_id":"ce4bgup2rcd13ifvqcn0","pricing_plan_id":"free"},{"bike_id":"f57c069b-cd1d-4c8d-80c2-a16d9f1ffb8e","system_id":"levelo_inurba_marseille","lat":43.301429,"lon":5.37413,"is_reserved":false,"is_disabled":false,"rental_uris":{"android":"levelo://app?vid=f57c069b-cd1d-4c8d-80c2-a16d9f1ffb8e","ios":"levelo://app?vid=f57c069b-cd1d-4c8d-80c2-a16d9f1ffb8e"},"vehicle_type_id":"4","last_reported":1687118797,"current_range_meters":4400,"station_id":"ce4bgs92rcd13ifvqcc0","pricing_plan_id":"free"},{"bike_id":"22ec79a2-041e-4962-9393-9f53e5324989","system_id":"levelo_inurba_marseille","lat":43.313571,"lon":5.384829,"is_reserved":false,"is_disabled":false,"rental_uris":{"android":"levelo://app?vid=22ec79a2-041e-4962-9393-9f53e5324989","ios":"levelo://app?vid=22ec79a2-041e-4962-9393-9f53e5324989"},"vehicle_type_id":"4","last_reported":1687118797,"current_range_meters":7200,"station_id":"ce4bgt92rcd13ifvqcf0","pricing_plan_id":"free"},{"bike_id":"f8c0ec2f-faf3-49e7-8214-af3727e4e895","system_id":"levelo_inurba_marseille","lat":43.298433,"lon":5.362774,"is_reserved":false,"is_disabled":false,"rental_uris":{"android":"levelo://app?vid=f8c0ec2f-faf3-49e7-8214-af3727e4e895","ios":"levelo://app?vid=f8c0ec2f-faf3-49e7-8214-af3727e4e895"},"vehicle_type_id":"4","last_reported":1687118797,"current_range_meters":28000,"station_id":"ce4bgpp2rcd13ifvqc3g","pricing_plan_id":"free"},{"bike_id":"76846244-2f88-4506-b45e-95de7d38b45d","system_id":"levelo_inurba_marseille","lat":43.297794,"lon":5.370888,"is_reserved":false,"is_disabled":false,"rental_uris":{"android":"levelo://app?vid=76846244-2f88-4506-b45e-95de7d38b45d","ios":"levelo://app?vid=76846244-2f88-4506-b45e-95de7d38b45d"},"vehicle_type_id":"4","last_reported":1687118797,"current_range_meters":31200,"station_id":"ce4bgop2rcd13ifvqc1g","pricing_plan_id":"free"},{"bike_id":"6d5ccf33-759a-4c7a-af82-9f67388b4177","system_id":"levelo_inurba_marseille","lat":43.32825,"lon":5.36683,"is_reserved":false,"is_disabled":false,"rental_uris":{"android":"levelo://app?vid=6d5ccf33-759a-4c7a-af82-9f67388b4177","ios":"levelo://app?vid=6d5ccf33-759a-4c7a-af82-9f67388b4177"},"vehicle_type_id":"4","last_reported":1687118797,"current_range_meters":29600,"station_id":"ce4bhs92rcd13ifvqi0g","pricing_plan_id":"free"},{"bike_id":"c4c82479-60a6-4390-8970-3229e3eebb9c","system_id":"levelo_inurba_marseille","lat":43.32827,"lon":5.36686,"is_reserved":false,"is_disabled":false,"rental_uris":{"android":"levelo://app?vid=c4c82479-60a6-4390-8970-3229e3eebb9c","ios":"levelo://app?vid=c4c82479-60a6-4390-8970-3229e3eebb9c"},"vehicle_type_id":"4","last_reported":1687118797,"current_range_meters":18000,"station_id":"ce4bhs92rcd13ifvqi0g","pricing_plan_id":"free"},{"bike_id":"27e857a0-6074-435d-85c0-7fc3761f1cbb","system_id":"levelo_inurba_marseille","lat":43.32828,"lon":5.36689,"is_reserved":false,"is_disabled":false,"rental_uris":{"android":"levelo://app?vid=27e857a0-6074-435d-85c0-7fc3761f1cbb","ios":"levelo://app?vid=27e857a0-6074-435d-85c0-7fc3761f1cbb"},"vehicle_type_id":"4","last_reported":1687118797,"current_range_meters":28800,"station_id":"ce4bhs92rcd13ifvqi0g","pricing_plan_id":"free"},{"bike_id":"731cce5d-c725-402d-b941-54910a08f036","system_id":"levelo_inurba_marseille","lat":43.32829,"lon":5.36688,"is_reserved":false,"is_disabled":false,"rental_uris":{"android":"levelo://app?vid=731cce5d-c725-402d-b941-54910a08f036","ios":"levelo://app?vid=731cce5d-c725-402d-b941-54910a08f036"},"vehicle_type_id":"4","last_reported":1687118797,"current_range_meters":28800,"station_id":"ce4bhs92rcd13ifvqi0g","pricing_plan_id":"free"},{"bike_id":"78911849-321a-41c5-b67b-eefecdab885b","system_id":"levelo_inurba_marseille","lat":43.32832,"lon":5.36693,"is_reserved":false,"is_disabled":false,"rental_uris":{"android":"levelo://app?vid=78911849-321a-41c5-b67b-eefecdab885b","ios":"levelo://app?vid=78911849-321a-41c5-b67b-eefecdab885b"},"vehicle_type_id":"4","last_reported":1687118797,"current_range_meters":6800,"station_id":"ce4bhs92rcd13ifvqi0g","pricing_plan_id":"free"},{"bike_id":"69bf5c29-7e5d-45c7-b1b2-514d42707ee7","system_id":"levelo_inurba_marseille","lat":43.32833,"lon":5.36686,"is_reserved":false,"is_disabled":false,"rental_uris":{"android":"levelo://app?vid=69bf5c29-7e5d-45c7-b1b2-514d42707ee7","ios":"levelo://app?vid=69bf5c29-7e5d-45c7-b1b2-514d42707ee7"},"vehicle_type_id":"4","last_reported":1687118797,"current_range_meters":29200,"station_id":"ce4bhs92rcd13ifvqi0g","pricing_plan_id":"free"},{"bike_id":"176f4894-d7fc-460e-aa5d-7c8c1e206dc3","system_id":"levelo_inurba_marseille","lat":43.297163,"lon":5.365866,"is_reserved":false,"is_disabled":false,"rental_uris":{"android":"levelo://app?vid=176f4894-d7fc-460e-aa5d-7c8c1e206dc3","ios":"levelo://app?vid=176f4894-d7fc-460e-aa5d-7c8c1e206dc3"},"vehicle_type_id":"4","last_reported":1687118797,"current_range_meters":9600,"station_id":"ce4bgn12rcd13ifvqbt0","pricing_plan_id":"free"},{"bike_id":"9e60ff88-fe04-4b70-9af4-05a83fe316c7","system_id":"levelo_inurba_marseille","lat":43.32836,"lon":5.36684,"is_reserved":false,"is_disabled":false,"rental_uris":{"android":"levelo://app?vid=9e60ff88-fe04-4b70-9af4-05a83fe316c7","ios":"levelo://app?vid=9e60ff88-fe04-4b70-9af4-05a83fe316c7"},"vehicle_type_id":"4","last_reported":1687118797,"current_range_meters":27600,"station_id":"ce4bhs92rcd13ifvqi0g","pricing_plan_id":"free"},{"bike_id":"c4bcecdc-2f5f-4f49-9ccb-6d3ce9762454","system_id":"levelo_inurba_marseille","lat":43.297774,"lon":5.370875,"is_reserved":false,"is_disabled":false,"rental_uris":{"android":"levelo://app?vid=c4bcecdc-2f5f-4f49-9ccb-6d3ce9762454","ios":"levelo://app?vid=c4bcecdc-2f5f-4f49-9ccb-6d3ce9762454"},"vehicle_type_id":"4","last_reported":1687118797,"current_range_meters":6800,"station_id":"ce4bgop2rcd13ifvqc1g","pricing_plan_id":"free"},{"bike_id":"5b5833c5-612b-4b11-be6b-84af8d7e02d4","system_id":"levelo_inurba_marseille","lat":43.2968,"lon":5.37291,"is_reserved":false,"is_disabled":false,"rental_uris":{"android":"levelo://app?vid=5b5833c5-612b-4b11-be6b-84af8d7e02d4","ios":"levelo://app?vid=5b5833c5-612b-4b11-be6b-84af8d7e02d4"},"vehicle_type_id":"4","last_reported":1687118797,"current_range_meters":15200,"station_id":"ce4bgk12rcd13ifvqbj0","pricing_plan_id":"free"},{"bike_id":"d538997a-02fb-4934-8679-8dddcd07ddda","system_id":"levelo_inurba_marseille","lat":43.296129,"lon":5.370777,"is_reserved":false,"is_disabled":false,"rental_uris":{"android":"levelo://app?vid=d538997a-02fb-4934-8679-8dddcd07ddda","ios":"levelo://app?vid=d538997a-02fb-4934-8679-8dddcd07ddda"},"vehicle_type_id":"4","last_reported":1687118797,"current_range_meters":24400,"station_id":"ce4bgnh2rcd13ifvqc0g","pricing_plan_id":"free"},{"bike_id":"88d0330c-5bb0-4a19-9b65-d4683b42e015","system_id":"levelo_inurba_marseille","lat":43.29683,"lon":5.36046,"is_reserved":false,"is_disabled":false,"rental_uris":{"android":"levelo://app?vid=88d0330c-5bb0-4a19-9b65-d4683b42e015","ios":"levelo://app?vid=88d0330c-5bb0-4a19-9b65-d4683b42e015"},"vehicle_type_id":"4","last_reported":1687118797,"current_range_meters":1600,"station_id":"","pricing_plan_id":"free"},{"bike_id":"6f084e32-7c3f-437c-83fb-6d722314de4f","system_id":"levelo_inurba_marseille","lat":43.2962,"lon":5.37155,"is_reserved":false,"is_disabled":false,"rental_uris":{"android":"levelo://app?vid=6f084e32-7c3f-437c-83fb-6d722314de4f","ios":"levelo://app?vid=6f084e32-7c3f-437c-83fb-6d722314de4f"},"vehicle_type_id":"4","last_reported":1687118797,"current_range_meters":8800,"station_id":"","pricing_plan_id":"free"},{"bike_id":"24f41ca5-b432-4feb-a0c8-a15026b97306","system_id":"levelo_inurba_marseille","lat":43.296131,"lon":5.370773,"is_reserved":false,"is_disabled":false,"rental_uris":{"android":"levelo://app?vid=24f41ca5-b432-4feb-a0c8-a15026b97306","ios":"levelo://app?vid=24f41ca5-b432-4feb-a0c8-a15026b97306"},"vehicle_type_id":"4","last_reported":1687118797,"current_range_meters":11200,"station_id":"ce4bgnh2rcd13ifvqc0g","pricing_plan_id":"free"},{"bike_id":"2f4ffc9a-a396-4289-8339-052543e2ed97","system_id":"levelo_inurba_marseille","lat":43.29904,"lon":5.38154,"is_reserved":false,"is_disabled":false,"rental_uris":{"android":"levelo://app?vid=2f4ffc9a-a396-4289-8339-052543e2ed97","ios":"levelo://app?vid=2f4ffc9a-a396-4289-8339-052543e2ed97"},"vehicle_type_id":"4","last_reported":1687118797,"current_range_meters":0,"station_id":"ce4bgj12rcd13ifvqbc0","pricing_plan_id":"free"},{"bike_id":"f364d0c6-92d7-4b33-b236-8ea3b0396522","system_id":"levelo_inurba_marseille","lat":43.304278,"lon":5.388868,"is_reserved":false,"is_disabled":false,"rental_uris":{"android":"levelo://app?vid=f364d0c6-92d7-4b33-b236-8ea3b0396522","ios":"levelo://app?vid=f364d0c6-92d7-4b33-b236-8ea3b0396522"},"vehicle_type_id":"4","last_reported":1687118797,"current_range_meters":0,"station_id":"ce4bgk12rcd13ifvqbi0","pricing_plan_id":"free"},{"bike_id":"250c8a96-8498-4211-b8f3-1b00a8d1fbaf","system_id":"levelo_inurba_marseille","lat":43.296477,"lon":5.37768,"is_reserved":false,"is_disabled":false,"rental_uris":{"android":"levelo://app?vid=250c8a96-8498-4211-b8f3-1b00a8d1fbaf","ios":"levelo://app?vid=250c8a96-8498-4211-b8f3-1b00a8d1fbaf"},"vehicle_type_id":"4","last_reported":1687118797,"current_range_meters":11600,"station_id":"","pricing_plan_id":"free"},{"bike_id":"aef27c84-baef-4fb8-84aa-e12b37616ad6","system_id":"levelo_inurba_marseille","lat":43.30434,"lon":5.38903,"is_reserved":false,"is_disabled":false,"rental_uris":{"android":"levelo://app?vid=aef27c84-baef-4fb8-84aa-e12b37616ad6","ios":"levelo://app?vid=aef27c84-baef-4fb8-84aa-e12b37616ad6"},"vehicle_type_id":"4","last_reported":1687118797,"current_range_meters":31200,"station_id":"ce4bgk12rcd13ifvqbi0","pricing_plan_id":"free"},{"bike_id":"eb56f040-d7e3-440c-9d05-82afe187dd21","system_id":"levelo_inurba_marseille","lat":43.299707,"lon":5.384859,"is_reserved":false,"is_disabled":false,"rental_uris":{"android":"levelo://app?vid=eb56f040-d7e3-440c-9d05-82afe187dd21","ios":"levelo://app?vid=eb56f040-d7e3-440c-9d05-82afe187dd21"},"vehicle_type_id":"4","last_reported":1687118797,"current_range_meters":28000,"station_id":"ce4bgj92rcd13ifvqbd0","pricing_plan_id":"free"},{"bike_id":"bb335696-9086-470f-9c5f-1244bc2e0b8f","system_id":"levelo_inurba_marseille","lat":43.299717,"lon":5.384845,"is_reserved":false,"is_disabled":false,"rental_uris":{"android":"levelo://app?vid=bb335696-9086-470f-9c5f-1244bc2e0b8f","ios":"levelo://app?vid=bb335696-9086-470f-9c5f-1244bc2e0b8f"},"vehicle_type_id":"4","last_reported":1687118797,"current_range_meters":29600,"station_id":"ce4bgj92rcd13ifvqbd0","pricing_plan_id":"free"},{"bike_id":"64bf5995-e1cd-400c-b4dd-97956e1f681e","system_id":"levelo_inurba_marseille","lat":43.32367,"lon":5.388836,"is_reserved":false,"is_disabled":false,"rental_uris":{"android":"levelo://app?vid=64bf5995-e1cd-400c-b4dd-97956e1f681e","ios":"levelo://app?vid=64bf5995-e1cd-400c-b4dd-97956e1f681e"},"vehicle_type_id":"4","last_reported":1687118797,"current_range_meters":8000,"station_id":"ce4bhqp2rcd13ifvqhog","pricing_plan_id":"free"},{"bike_id":"0100a688-6eac-43d0-bf90-97c080a6e462","system_id":"levelo_inurba_marseille","lat":43.32367,"lon":5.388836,"is_reserved":false,"is_disabled":false,"rental_uris":{"android":"levelo://app?vid=0100a688-6eac-43d0-bf90-97c080a6e462","ios":"levelo://app?vid=0100a688-6eac-43d0-bf90-97c080a6e462"},"vehicle_type_id":"4","last_reported":1687118797,"current_range_meters":15600,"station_id":"ce4bhqp2rcd13ifvqhog","pricing_plan_id":"free"},{"bike_id":"d852f6e7-92f3-42a5-90b9-92d33ffa9a5c","system_id":"levelo_inurba_marseille","lat":43.32367,"lon":5.388836,"is_reserved":false,"is_disabled":false,"rental_uris":{"android":"levelo://app?vid=d852f6e7-92f3-42a5-90b9-92d33ffa9a5c","ios":"levelo://app?vid=d852f6e7-92f3-42a5-90b9-92d33ffa9a5c"},"vehicle_type_id":"4","last_reported":1687118797,"current_range_meters":15200,"station_id":"ce4bhqp2rcd13ifvqhog","pricing_plan_id":"free"},{"bike_id":"9ff5e686-c760-4fee-b5de-d5d0394be428","system_id":"levelo_inurba_marseille","lat":43.32367,"lon":5.388836,"is_reserved":false,"is_disabled":false,"rental_uris":{"android":"levelo://app?vid=9ff5e686-c760-4fee-b5de-d5d0394be428","ios":"levelo://app?vid=9ff5e686-c760-4fee-b5de-d5d0394be428"},"vehicle_type_id":"4","last_reported":1687118797,"current_range_meters":10800,"station_id":"ce4bhqp2rcd13ifvqhog","pricing_plan_id":"free"},{"bike_id":"c25bbca6-334a-48c9-b2aa-c69eb97c9d81","system_id":"levelo_inurba_marseille","lat":43.32367,"lon":5.388836,"is_reserved":false,"is_disabled":false,"rental_uris":{"android":"levelo://app?vid=c25bbca6-334a-48c9-b2aa-c69eb97c9d81","ios":"levelo://app?vid=c25bbca6-334a-48c9-b2aa-c69eb97c9d81"},"vehicle_type_id":"4","last_reported":1687118797,"current_range_meters":28400,"station_id":"ce4bhqp2rcd13ifvqhog","pricing_plan_id":"free"},{"bike_id":"1e11da75-1535-40c4-868f-d72b4ce5af75","system_id":"levelo_inurba_marseille","lat":43.29602,"lon":5.381084,"is_reserved":false,"is_disabled":false,"rental_uris":{"android":"levelo://app?vid=1e11da75-1535-40c4-868f-d72b4ce5af75","ios":"levelo://app?vid=1e11da75-1535-40c4-868f-d72b4ce5af75"},"vehicle_type_id":"4","last_reported":1687118797,"current_range_meters":0,"station_id":"ce4bgl12rcd13ifvqbo0","pricing_plan_id":"free"},{"bike_id":"e31ec2ca-8119-4fb2-b04d-24ccd598e38a","system_id":"levelo_inurba_marseille","lat":43.293249,"lon":5.371578,"is_reserved":false,"is_disabled":false,"rental_uris":{"android":"levelo://app?vid=e31ec2ca-8119-4fb2-b04d-24ccd598e38a","ios":"levelo://app?vid=e31ec2ca-8119-4fb2-b04d-24ccd598e38a"},"vehicle_type_id":"4","last_reported":1687118797,"current_range_meters":0,"station_id":"ce4bgh92rcd13ifvqb40","pricing_plan_id":"free"},{"bike_id":"406b4150-2ef2-4ee3-ab19-9ff8124b635b","system_id":"levelo_inurba_marseille","lat":43.302992,"lon":5.392136,"is_reserved":false,"is_disabled":false,"rental_uris":{"android":"levelo://app?vid=406b4150-2ef2-4ee3-ab19-9ff8124b635b","ios":"levelo://app?vid=406b4150-2ef2-4ee3-ab19-9ff8124b635b"},"vehicle_type_id":"4","last_reported":1687118797,"current_range_meters":0,"station_id":"ce4bgkh2rcd13ifvqbk0","pricing_plan_id":"free"},{"bike_id":"65f21cf4-0b7b-4219-a0d9-ba2923652687","system_id":"levelo_inurba_marseille","lat":43.2936,"lon":5.37835,"is_reserved":false,"is_disabled":false,"rental_uris":{"android":"levelo://app?vid=65f21cf4-0b7b-4219-a0d9-ba2923652687","ios":"levelo://app?vid=65f21cf4-0b7b-4219-a0d9-ba2923652687"},"vehicle_type_id":"4","last_reported":1687118797,"current_range_meters":6000,"station_id":"ce4bgjh2rcd13ifvqbf0","pricing_plan_id":"free"},{"bike_id":"02401813-cfd7-45a7-a153-0e9255cc48d1","system_id":"levelo_inurba_marseille","lat":43.300852,"lon":5.390859,"is_reserved":false,"is_disabled":false,"rental_uris":{"android":"levelo://app?vid=02401813-cfd7-45a7-a153-0e9255cc48d1","ios":"levelo://app?vid=02401813-cfd7-45a7-a153-0e9255cc48d1"},"vehicle_type_id":"4","last_reported":1687118797,"current_range_meters":26800,"station_id":"ce4bh192rcd13ifvqdb0","pricing_plan_id":"free"},{"bike_id":"a7d9af29-6144-4f17-8459-43951f833536","system_id":"levelo_inurba_marseille","lat":43.292311,"lon":5.360731,"is_reserved":false,"is_disabled":false,"rental_uris":{"android":"levelo://app?vid=a7d9af29-6144-4f17-8459-43951f833536","ios":"levelo://app?vid=a7d9af29-6144-4f17-8459-43951f833536"},"vehicle_type_id":"4","last_reported":1687118797,"current_range_meters":0,"station_id":"ce4bhbh2rcd13ifvqeqg","pricing_plan_id":"free"},{"bike_id":"cc13bdda-2b6b-46c1-a3fa-41b0360d597c","system_id":"levelo_inurba_marseille","lat":43.30085,"lon":5.390856,"is_reserved":false,"is_disabled":false,"rental_uris":{"android":"levelo://app?vid=cc13bdda-2b6b-46c1-a3fa-41b0360d597c","ios":"levelo://app?vid=cc13bdda-2b6b-46c1-a3fa-41b0360d597c"},"vehicle_type_id":"4","last_reported":1687118797,"current_range_meters":12400,"station_id":"ce4bh192rcd13ifvqdb0","pricing_plan_id":"free"},{"bike_id":"c0818495-d4c6-4d12-ad92-f8d981e1a031","system_id":"levelo_inurba_marseille","lat":43.300852,"lon":5.390859,"is_reserved":false,"is_disabled":false,"rental_uris":{"android":"levelo://app?vid=c0818495-d4c6-4d12-ad92-f8d981e1a031","ios":"levelo://app?vid=c0818495-d4c6-4d12-ad92-f8d981e1a031"},"vehicle_type_id":"4","last_reported":1687118797,"current_range_meters":16000,"station_id":"ce4bh192rcd13ifvqdb0","pricing_plan_id":"free"},{"bike_id":"eaf9320f-08d0-412e-9001-ad5d233332ce","system_id":"levelo_inurba_marseille","lat":43.30085,"lon":5.390856,"is_reserved":false,"is_disabled":false,"rental_uris":{"android":"levelo://app?vid=eaf9320f-08d0-412e-9001-ad5d233332ce","ios":"levelo://app?vid=eaf9320f-08d0-412e-9001-ad5d233332ce"},"vehicle_type_id":"4","last_reported":1687118797,"current_range_meters":16000,"station_id":"ce4bh192rcd13ifvqdb0","pricing_plan_id":"free"},{"bike_id":"f566c84e-7972-4f76-9d0f-b6c764ecb224","system_id":"levelo_inurba_marseille","lat":43.30094,"lon":5.39083,"is_reserved":false,"is_disabled":false,"rental_uris":{"android":"levelo://app?vid=f566c84e-7972-4f76-9d0f-b6c764ecb224","ios":"levelo://app?vid=f566c84e-7972-4f76-9d0f-b6c764ecb224"},"vehicle_type_id":"4","last_reported":1687118797,"current_range_meters":31200,"station_id":"ce4bh192rcd13ifvqdb0","pricing_plan_id":"free"},{"bike_id":"ef3a4ba8-2bf8-42e3-9420-16136fb749a0","system_id":"levelo_inurba_marseille","lat":43.300852,"lon":5.390859,"is_reserved":false,"is_disabled":false,"rental_uris":{"android":"levelo://app?vid=ef3a4ba8-2bf8-42e3-9420-16136fb749a0","ios":"levelo://app?vid=ef3a4ba8-2bf8-42e3-9420-16136fb749a0"},"vehicle_type_id":"4","last_reported":1687118797,"current_range_meters":2800,"station_id":"ce4bh192rcd13ifvqdb0","pricing_plan_id":"free"},{"bike_id":"c40d2f6a-9a3c-4d8d-ac76-4c297512856c","system_id":"levelo_inurba_marseille","lat":43.300852,"lon":5.390859,"is_reserved":false,"is_disabled":false,"rental_uris":{"android":"levelo://app?vid=c40d2f6a-9a3c-4d8d-ac76-4c297512856c","ios":"levelo://app?vid=c40d2f6a-9a3c-4d8d-ac76-4c297512856c"},"vehicle_type_id":"4","last_reported":1687118797,"current_range_meters":31600,"station_id":"ce4bh192rcd13ifvqdb0","pricing_plan_id":"free"},{"bike_id":"be06d994-222f-436e-8e27-c8c383608dfc","system_id":"levelo_inurba_marseille","lat":43.300852,"lon":5.390859,"is_reserved":false,"is_disabled":false,"rental_uris":{"android":"levelo://app?vid=be06d994-222f-436e-8e27-c8c383608dfc","ios":"levelo://app?vid=be06d994-222f-436e-8e27-c8c383608dfc"},"vehicle_type_id":"4","last_reported":1687118797,"current_range_meters":4000,"station_id":"ce4bh192rcd13ifvqdb0","pricing_plan_id":"free"},{"bike_id":"f99e9929-8072-4af1-bf79-5cf6bf4bfb6c","system_id":"levelo_inurba_marseille","lat":43.298764,"lon":5.388973,"is_reserved":false,"is_disabled":false,"rental_uris":{"android":"levelo://app?vid=f99e9929-8072-4af1-bf79-5cf6bf4bfb6c","ios":"levelo://app?vid=f99e9929-8072-4af1-bf79-5cf6bf4bfb6c"},"vehicle_type_id":"4","last_reported":1687118797,"current_range_meters":23600,"station_id":"ce4bh392rcd13ifvqdl0","pricing_plan_id":"free"},{"bike_id":"88386ebd-226d-492b-8435-1913c73fe49e","system_id":"levelo_inurba_marseille","lat":43.292663,"lon":5.376394,"is_reserved":false,"is_disabled":false,"rental_uris":{"android":"levelo://app?vid=88386ebd-226d-492b-8435-1913c73fe49e","ios":"levelo://app?vid=88386ebd-226d-492b-8435-1913c73fe49e"},"vehicle_type_id":"4","last_reported":1687118797,"current_range_meters":11200,"station_id":"ce4bgi12rcd13ifvqb80","pricing_plan_id":"free"},{"bike_id":"af6eb183-e933-4bf6-b7a6-2c01ee41f1dc","system_id":"levelo_inurba_marseille","lat":43.29126,"lon":5.36966,"is_reserved":false,"is_disabled":false,"rental_uris":{"android":"levelo://app?vid=af6eb183-e933-4bf6-b7a6-2c01ee41f1dc","ios":"levelo://app?vid=af6eb183-e933-4bf6-b7a6-2c01ee41f1dc"},"vehicle_type_id":"4","last_reported":1687118797,"current_range_meters":18800,"station_id":"ce4bhap2rcd13ifvqek0","pricing_plan_id":"free"},{"bike_id":"f90825ef-b2cc-4750-97eb-6f2da5f9dfa8","system_id":"levelo_inurba_marseille","lat":43.29191,"lon":5.35759,"is_reserved":false,"is_disabled":false,"rental_uris":{"android":"levelo://app?vid=f90825ef-b2cc-4750-97eb-6f2da5f9dfa8","ios":"levelo://app?vid=f90825ef-b2cc-4750-97eb-6f2da5f9dfa8"},"vehicle_type_id":"4","last_reported":1687118797,"current_range_meters":22800,"station_id":"","pricing_plan_id":"free"},{"bike_id":"cc6ba174-ab48-4797-bf34-ece8c1d3a4ce","system_id":"levelo_inurba_marseille","lat":43.29529,"lon":5.385581,"is_reserved":false,"is_disabled":false,"rental_uris":{"android":"levelo://app?vid=cc6ba174-ab48-4797-bf34-ece8c1d3a4ce","ios":"levelo://app?vid=cc6ba174-ab48-4797-bf34-ece8c1d3a4ce"},"vehicle_type_id":"4","last_reported":1687118797,"current_range_meters":400,"station_id":"ce4bgih2rcd13ifvqba0","pricing_plan_id":"free"},{"bike_id":"71921e74-80f7-4a85-b4ca-4b6a7500cbce","system_id":"levelo_inurba_marseille","lat":43.29529,"lon":5.385581,"is_reserved":false,"is_disabled":false,"rental_uris":{"android":"levelo://app?vid=71921e74-80f7-4a85-b4ca-4b6a7500cbce","ios":"levelo://app?vid=71921e74-80f7-4a85-b4ca-4b6a7500cbce"},"vehicle_type_id":"4","last_reported":1687118797,"current_range_meters":5200,"station_id":"ce4bgih2rcd13ifvqba0","pricing_plan_id":"free"},{"bike_id":"1cc67c90-7004-4757-8701-415cbd0d8708","system_id":"levelo_inurba_marseille","lat":43.29529,"lon":5.385581,"is_reserved":false,"is_disabled":false,"rental_uris":{"android":"levelo://app?vid=1cc67c90-7004-4757-8701-415cbd0d8708","ios":"levelo://app?vid=1cc67c90-7004-4757-8701-415cbd0d8708"},"vehicle_type_id":"4","last_reported":1687118797,"current_range_meters":11600,"station_id":"ce4bgih2rcd13ifvqba0","pricing_plan_id":"free"},{"bike_id":"05b6c305-a9a9-4675-8906-98cf654385e2","system_id":"levelo_inurba_marseille","lat":43.29529,"lon":5.385581,"is_reserved":false,"is_disabled":false,"rental_uris":{"android":"levelo://app?vid=05b6c305-a9a9-4675-8906-98cf654385e2","ios":"levelo://app?vid=05b6c305-a9a9-4675-8906-98cf654385e2"},"vehicle_type_id":"4","last_reported":1687118797,"current_range_meters":2400,"station_id":"ce4bgih2rcd13ifvqba0","pricing_plan_id":"free"},{"bike_id":"af2d9344-5e4c-4018-b756-33be978187e8","system_id":"levelo_inurba_marseille","lat":43.302008,"lon":5.394694,"is_reserved":false,"is_disabled":false,"rental_uris":{"android":"levelo://app?vid=af2d9344-5e4c-4018-b756-33be978187e8","ios":"levelo://app?vid=af2d9344-5e4c-4018-b756-33be978187e8"},"vehicle_type_id":"4","last_reported":1687118797,"current_range_meters":20800,"station_id":"ce4bh0p2rcd13ifvqd70","pricing_plan_id":"free"},{"bike_id":"0c7cff5a-29b4-4171-95cb-7d37a0618004","system_id":"levelo_inurba_marseille","lat":43.290631,"lon":5.359244,"is_reserved":false,"is_disabled":false,"rental_uris":{"android":"levelo://app?vid=0c7cff5a-29b4-4171-95cb-7d37a0618004","ios":"levelo://app?vid=0c7cff5a-29b4-4171-95cb-7d37a0618004"},"vehicle_type_id":"4","last_reported":1687118797,"current_range_meters":1200,"station_id":"ce4bha92rcd13ifvqeg0","pricing_plan_id":"free"},{"bike_id":"d7ef5769-c429-4a6c-8d15-c22de140f751","system_id":"levelo_inurba_marseille","lat":43.28938,"lon":5.3664,"is_reserved":false,"is_disabled":false,"rental_uris":{"android":"levelo://app?vid=d7ef5769-c429-4a6c-8d15-c22de140f751","ios":"levelo://app?vid=d7ef5769-c429-4a6c-8d15-c22de140f751"},"vehicle_type_id":"4","last_reported":1687118797,"current_range_meters":22400,"station_id":"ce4bhap2rcd13ifvqek0","pricing_plan_id":"free"},{"bike_id":"18ab3de0-1956-4970-ba3c-4e94ff9719cc","system_id":"levelo_inurba_marseille","lat":43.292663,"lon":5.376394,"is_reserved":false,"is_disabled":false,"rental_uris":{"android":"levelo://app?vid=18ab3de0-1956-4970-ba3c-4e94ff9719cc","ios":"levelo://app?vid=18ab3de0-1956-4970-ba3c-4e94ff9719cc"},"vehicle_type_id":"4","last_reported":1687118797,"current_range_meters":14000,"station_id":"ce4bgi12rcd13ifvqb80","pricing_plan_id":"free"},{"bike_id":"85b8cb1e-56e1-4a11-920c-910541b8de73","system_id":"levelo_inurba_marseille","lat":43.292642,"lon":5.384254,"is_reserved":false,"is_disabled":false,"rental_uris":{"android":"levelo://app?vid=85b8cb1e-56e1-4a11-920c-910541b8de73","ios":"levelo://app?vid=85b8cb1e-56e1-4a11-920c-910541b8de73"},"vehicle_type_id":"4","last_reported":1687118797,"current_range_meters":24800,"station_id":"ce4bh692rcd13ifvqea0","pricing_plan_id":"free"},{"bike_id":"38eb09af-7166-42b9-865e-84246929498f","system_id":"levelo_inurba_marseille","lat":43.292644,"lon":5.384257,"is_reserved":false,"is_disabled":false,"rental_uris":{"android":"levelo://app?vid=38eb09af-7166-42b9-865e-84246929498f","ios":"levelo://app?vid=38eb09af-7166-42b9-865e-84246929498f"},"vehicle_type_id":"4","last_reported":1687118797,"current_range_meters":31200,"station_id":"ce4bh692rcd13ifvqea0","pricing_plan_id":"free"},{"bike_id":"cc0995ff-3714-4d3a-bea8-3c303ecbc614","system_id":"levelo_inurba_marseille","lat":43.33045,"lon":5.38919,"is_reserved":false,"is_disabled":false,"rental_uris":{"android":"levelo://app?vid=cc0995ff-3714-4d3a-bea8-3c303ecbc614","ios":"levelo://app?vid=cc0995ff-3714-4d3a-bea8-3c303ecbc614"},"vehicle_type_id":"4","last_reported":1687118797,"current_range_meters":12800,"station_id":"ce4bhr92rcd13ifvqhrg","pricing_plan_id":"free"},{"bike_id":"fa7622c7-3954-4bf9-90d9-54761a59ea9c","system_id":"levelo_inurba_marseille","lat":43.290104,"lon":5.356111,"is_reserved":false,"is_disabled":false,"rental_uris":{"android":"levelo://app?vid=fa7622c7-3954-4bf9-90d9-54761a59ea9c","ios":"levelo://app?vid=fa7622c7-3954-4bf9-90d9-54761a59ea9c"},"vehicle_type_id":"4","last_reported":1687118797,"current_range_meters":0,"station_id":"ce4bhb92rcd13ifvqen0","pricing_plan_id":"free"},{"bike_id":"87148897-8e68-4503-9c87-b5aa09d101fa","system_id":"levelo_inurba_marseille","lat":43.290995,"lon":5.381361,"is_reserved":false,"is_disabled":false,"rental_uris":{"android":"levelo://app?vid=87148897-8e68-4503-9c87-b5aa09d101fa","ios":"levelo://app?vid=87148897-8e68-4503-9c87-b5aa09d101fa"},"vehicle_type_id":"4","last_reported":1687118797,"current_range_meters":13600,"station_id":"ce4bh512rcd13ifvqe2g","pricing_plan_id":"free"},{"bike_id":"a399df8a-bed0-4512-8846-c37e7fb7e326","system_id":"levelo_inurba_marseille","lat":43.290995,"lon":5.381361,"is_reserved":false,"is_disabled":false,"rental_uris":{"android":"levelo://app?vid=a399df8a-bed0-4512-8846-c37e7fb7e326","ios":"levelo://app?vid=a399df8a-bed0-4512-8846-c37e7fb7e326"},"vehicle_type_id":"4","last_reported":1687118797,"current_range_meters":0,"station_id":"ce4bh512rcd13ifvqe2g","pricing_plan_id":"free"},{"bike_id":"b21ba8fc-65c2-4e4c-b506-ad3460c86413","system_id":"levelo_inurba_marseille","lat":43.29012,"lon":5.37864,"is_reserved":false,"is_disabled":false,"rental_uris":{"android":"levelo://app?vid=b21ba8fc-65c2-4e4c-b506-ad3460c86413","ios":"levelo://app?vid=b21ba8fc-65c2-4e4c-b506-ad3460c86413"},"vehicle_type_id":"4","last_reported":1687118797,"current_range_meters":2400,"station_id":"","pricing_plan_id":"free"},{"bike_id":"b9b44b37-7edf-4ab6-8685-17eb58a26dbc","system_id":"levelo_inurba_marseille","lat":43.295169,"lon":5.390426,"is_reserved":false,"is_disabled":false,"rental_uris":{"android":"levelo://app?vid=b9b44b37-7edf-4ab6-8685-17eb58a26dbc","ios":"levelo://app?vid=b9b44b37-7edf-4ab6-8685-17eb58a26dbc"},"vehicle_type_id":"4","last_reported":1687118797,"current_range_meters":29200,"station_id":"ce4bh3p2rcd13ifvqdp0","pricing_plan_id":"free"},{"bike_id":"266b593b-beab-48cf-aea9-3b6425d1f0d3","system_id":"levelo_inurba_marseille","lat":43.28967,"lon":5.37839,"is_reserved":false,"is_disabled":false,"rental_uris":{"android":"levelo://app?vid=266b593b-beab-48cf-aea9-3b6425d1f0d3","ios":"levelo://app?vid=266b593b-beab-48cf-aea9-3b6425d1f0d3"},"vehicle_type_id":"4","last_reported":1687118797,"current_range_meters":28800,"station_id":"ce4bh9p2rcd13ifvqed0","pricing_plan_id":"free"},{"bike_id":"cd0bd656-aea9-4fd2-8165-3f34771f950e","system_id":"levelo_inurba_marseille","lat":43.29022,"lon":5.38132,"is_reserved":false,"is_disabled":false,"rental_uris":{"android":"levelo://app?vid=cd0bd656-aea9-4fd2-8165-3f34771f950e","ios":"levelo://app?vid=cd0bd656-aea9-4fd2-8165-3f34771f950e"},"vehicle_type_id":"4","last_reported":1687118797,"current_range_meters":23600,"station_id":"ce4bh4p2rcd13ifvqe1g","pricing_plan_id":"free"},{"bike_id":"c0fb8083-e02d-4dec-b1b9-fa095e6c5b75","system_id":"levelo_inurba_marseille","lat":43.337396,"lon":5.374526,"is_reserved":false,"is_disabled":false,"rental_uris":{"android":"levelo://app?vid=c0fb8083-e02d-4dec-b1b9-fa095e6c5b75","ios":"levelo://app?vid=c0fb8083-e02d-4dec-b1b9-fa095e6c5b75"},"vehicle_type_id":"4","last_reported":1687118797,"current_range_meters":0,"station_id":"ce4bhp92rcd13ifvqhag","pricing_plan_id":"free"},{"bike_id":"1f97df4b-48e4-4e19-abf7-bf3b661dc111","system_id":"levelo_inurba_marseille","lat":43.309371,"lon":5.401449,"is_reserved":false,"is_disabled":false,"rental_uris":{"android":"levelo://app?vid=1f97df4b-48e4-4e19-abf7-bf3b661dc111","ios":"levelo://app?vid=1f97df4b-48e4-4e19-abf7-bf3b661dc111"},"vehicle_type_id":"4","last_reported":1687118797,"current_range_meters":1600,"station_id":"ce4bgvp2rcd13ifvqct0","pricing_plan_id":"free"},{"bike_id":"41a8749b-6d93-4d1b-8e52-c5f60f65ae7c","system_id":"levelo_inurba_marseille","lat":43.33752,"lon":5.37443,"is_reserved":false,"is_disabled":false,"rental_uris":{"android":"levelo://app?vid=41a8749b-6d93-4d1b-8e52-c5f60f65ae7c","ios":"levelo://app?vid=41a8749b-6d93-4d1b-8e52-c5f60f65ae7c"},"vehicle_type_id":"4","last_reported":1687118797,"current_range_meters":26000,"station_id":"","pricing_plan_id":"free"},{"bike_id":"afafa601-6d27-4c98-b45c-ad8d2a211861","system_id":"levelo_inurba_marseille","lat":43.286591,"lon":5.363346,"is_reserved":false,"is_disabled":false,"rental_uris":{"android":"levelo://app?vid=afafa601-6d27-4c98-b45c-ad8d2a211861","ios":"levelo://app?vid=afafa601-6d27-4c98-b45c-ad8d2a211861"},"vehicle_type_id":"4","last_reported":1687118797,"current_range_meters":17200,"station_id":"ce4bhah2rcd13ifvqej0","pricing_plan_id":"free"},{"bike_id":"6d2252fb-ae61-4dc1-a81d-9045f21498f7","system_id":"levelo_inurba_marseille","lat":43.287,"lon":5.37394,"is_reserved":false,"is_disabled":false,"rental_uris":{"android":"levelo://app?vid=6d2252fb-ae61-4dc1-a81d-9045f21498f7","ios":"levelo://app?vid=6d2252fb-ae61-4dc1-a81d-9045f21498f7"},"vehicle_type_id":"4","last_reported":1687118797,"current_range_meters":9200,"station_id":"ce4bh3p2rcd13ifvqdq0","pricing_plan_id":"free"},{"bike_id":"d0101cf9-8a66-4182-a838-3c7a4be51fe8","system_id":"levelo_inurba_marseille","lat":43.28699,"lon":5.37391,"is_reserved":false,"is_disabled":false,"rental_uris":{"android":"levelo://app?vid=d0101cf9-8a66-4182-a838-3c7a4be51fe8","ios":"levelo://app?vid=d0101cf9-8a66-4182-a838-3c7a4be51fe8"},"vehicle_type_id":"4","last_reported":1687118797,"current_range_meters":22400,"station_id":"ce4bh3p2rcd13ifvqdq0","pricing_plan_id":"free"},{"bike_id":"6419555d-a5fa-4e58-8ffc-653801ae2719","system_id":"levelo_inurba_marseille","lat":43.287,"lon":5.37407,"is_reserved":false,"is_disabled":false,"rental_uris":{"android":"levelo://app?vid=6419555d-a5fa-4e58-8ffc-653801ae2719","ios":"levelo://app?vid=6419555d-a5fa-4e58-8ffc-653801ae2719"},"vehicle_type_id":"4","last_reported":1687118797,"current_range_meters":5200,"station_id":"ce4bh3p2rcd13ifvqdq0","pricing_plan_id":"free"},{"bike_id":"4990af2e-1302-48a0-9b1b-f5ddaa6f1560","system_id":"levelo_inurba_marseille","lat":43.295196,"lon":5.39397,"is_reserved":false,"is_disabled":false,"rental_uris":{"android":"levelo://app?vid=4990af2e-1302-48a0-9b1b-f5ddaa6f1560","ios":"levelo://app?vid=4990af2e-1302-48a0-9b1b-f5ddaa6f1560"},"vehicle_type_id":"4","last_reported":1687118797,"current_range_meters":6000,"station_id":"ce4bh292rcd13ifvqdf0","pricing_plan_id":"free"},{"bike_id":"3ab39635-e10c-41e6-b55f-8b8042a0e8cb","system_id":"levelo_inurba_marseille","lat":43.295194,"lon":5.39397,"is_reserved":false,"is_disabled":false,"rental_uris":{"android":"levelo://app?vid=3ab39635-e10c-41e6-b55f-8b8042a0e8cb","ios":"levelo://app?vid=3ab39635-e10c-41e6-b55f-8b8042a0e8cb"},"vehicle_type_id":"4","last_reported":1687118797,"current_range_meters":12800,"station_id":"ce4bh292rcd13ifvqdf0","pricing_plan_id":"free"},{"bike_id":"66b3d11c-c06d-4d15-93c6-593481dcfc40","system_id":"levelo_inurba_marseille","lat":43.295194,"lon":5.39397,"is_reserved":false,"is_disabled":false,"rental_uris":{"android":"levelo://app?vid=66b3d11c-c06d-4d15-93c6-593481dcfc40","ios":"levelo://app?vid=66b3d11c-c06d-4d15-93c6-593481dcfc40"},"vehicle_type_id":"4","last_reported":1687118797,"current_range_meters":10400,"station_id":"ce4bh292rcd13ifvqdf0","pricing_plan_id":"free"},{"bike_id":"7fcc5a10-fa9f-42b8-873f-09cc8236c680","system_id":"levelo_inurba_marseille","lat":43.30259,"lon":5.40073,"is_reserved":false,"is_disabled":false,"rental_uris":{"android":"levelo://app?vid=7fcc5a10-fa9f-42b8-873f-09cc8236c680","ios":"levelo://app?vid=7fcc5a10-fa9f-42b8-873f-09cc8236c680"},"vehicle_type_id":"4","last_reported":1687118797,"current_range_meters":0,"station_id":"ce4bgvh2rcd13ifvqcs0","pricing_plan_id":"free"},{"bike_id":"c68f5399-aaf0-40e1-b636-b2672cdc9ea5","system_id":"levelo_inurba_marseille","lat":43.286039,"lon":5.370681,"is_reserved":false,"is_disabled":false,"rental_uris":{"android":"levelo://app?vid=c68f5399-aaf0-40e1-b636-b2672cdc9ea5","ios":"levelo://app?vid=c68f5399-aaf0-40e1-b636-b2672cdc9ea5"},"vehicle_type_id":"4","last_reported":1687118797,"current_range_meters":19200,"station_id":"ce4bht12rcd13ifvqi60","pricing_plan_id":"free"},{"bike_id":"e0a63683-8694-4db9-82de-94a64980e610","system_id":"levelo_inurba_marseille","lat":43.316517,"lon":5.404375,"is_reserved":false,"is_disabled":false,"rental_uris":{"android":"levelo://app?vid=e0a63683-8694-4db9-82de-94a64980e610","ios":"levelo://app?vid=e0a63683-8694-4db9-82de-94a64980e610"},"vehicle_type_id":"4","last_reported":1687118797,"current_range_meters":24000,"station_id":"ce4bh012rcd13ifvqd00","pricing_plan_id":"free"},{"bike_id":"b7e731f4-887b-46ed-ae73-86e7bcffbcb7","system_id":"levelo_inurba_marseille","lat":43.31649,"lon":5.40434,"is_reserved":false,"is_disabled":false,"rental_uris":{"android":"levelo://app?vid=b7e731f4-887b-46ed-ae73-86e7bcffbcb7","ios":"levelo://app?vid=b7e731f4-887b-46ed-ae73-86e7bcffbcb7"},"vehicle_type_id":"4","last_reported":1687118797,"current_range_meters":0,"station_id":"ce4bh012rcd13ifvqd00","pricing_plan_id":"free"},{"bike_id":"e3a510cc-1443-4912-9519-6a98b3569237","system_id":"levelo_inurba_marseille","lat":43.284534,"lon":5.358662,"is_reserved":false,"is_disabled":false,"rental_uris":{"android":"levelo://app?vid=e3a510cc-1443-4912-9519-6a98b3569237","ios":"levelo://app?vid=e3a510cc-1443-4912-9519-6a98b3569237"},"vehicle_type_id":"4","last_reported":1687118797,"current_range_meters":6800,"station_id":"ce4bhah2rcd13ifvqei0","pricing_plan_id":"free"},{"bike_id":"cfb74004-faba-4031-b764-a6184595f83a","system_id":"levelo_inurba_marseille","lat":43.284534,"lon":5.358662,"is_reserved":false,"is_disabled":false,"rental_uris":{"android":"levelo://app?vid=cfb74004-faba-4031-b764-a6184595f83a","ios":"levelo://app?vid=cfb74004-faba-4031-b764-a6184595f83a"},"vehicle_type_id":"4","last_reported":1687118797,"current_range_meters":4400,"station_id":"ce4bhah2rcd13ifvqei0","pricing_plan_id":"free"},{"bike_id":"68a5f972-63ea-45b6-9d89-79381f0cf4d4","system_id":"levelo_inurba_marseille","lat":43.294314,"lon":5.397498,"is_reserved":false,"is_disabled":false,"rental_uris":{"android":"levelo://app?vid=68a5f972-63ea-45b6-9d89-79381f0cf4d4","ios":"levelo://app?vid=68a5f972-63ea-45b6-9d89-79381f0cf4d4"},"vehicle_type_id":"4","last_reported":1687118797,"current_range_meters":7200,"station_id":"ce4bh3h2rcd13ifvqdo0","pricing_plan_id":"free"},{"bike_id":"516919e9-1f5d-439d-b3de-c8bf2051222b","system_id":"levelo_inurba_marseille","lat":43.285848,"lon":5.350787,"is_reserved":false,"is_disabled":false,"rental_uris":{"android":"levelo://app?vid=516919e9-1f5d-439d-b3de-c8bf2051222b","ios":"levelo://app?vid=516919e9-1f5d-439d-b3de-c8bf2051222b"},"vehicle_type_id":"4","last_reported":1687118797,"current_range_meters":22800,"station_id":"ce4bhch2rcd13ifvqeug","pricing_plan_id":"free"},{"bike_id":"c9a648fe-5f41-4b32-b990-6ce78c422302","system_id":"levelo_inurba_marseille","lat":43.285848,"lon":5.350787,"is_reserved":false,"is_disabled":false,"rental_uris":{"android":"levelo://app?vid=c9a648fe-5f41-4b32-b990-6ce78c422302","ios":"levelo://app?vid=c9a648fe-5f41-4b32-b990-6ce78c422302"},"vehicle_type_id":"4","last_reported":1687118797,"current_range_meters":15600,"station_id":"ce4bhch2rcd13ifvqeug","pricing_plan_id":"free"},{"bike_id":"a5cd82ff-6ea8-4f2b-a79f-801d84a9fa4a","system_id":"levelo_inurba_marseille","lat":43.28614,"lon":5.35102,"is_reserved":false,"is_disabled":false,"rental_uris":{"android":"levelo://app?vid=a5cd82ff-6ea8-4f2b-a79f-801d84a9fa4a","ios":"levelo://app?vid=a5cd82ff-6ea8-4f2b-a79f-801d84a9fa4a"},"vehicle_type_id":"4","last_reported":1687118797,"current_range_meters":30800,"station_id":"ce4bhch2rcd13ifvqeug","pricing_plan_id":"free"},{"bike_id":"0d460904-4886-4cba-8941-0b0fbad433c8","system_id":"levelo_inurba_marseille","lat":43.285848,"lon":5.350787,"is_reserved":false,"is_disabled":false,"rental_uris":{"android":"levelo://app?vid=0d460904-4886-4cba-8941-0b0fbad433c8","ios":"levelo://app?vid=0d460904-4886-4cba-8941-0b0fbad433c8"},"vehicle_type_id":"4","last_reported":1687118797,"current_range_meters":30000,"station_id":"ce4bhch2rcd13ifvqeug","pricing_plan_id":"free"},{"bike_id":"7c75671e-8353-4c4c-9c77-101f058d24b5","system_id":"levelo_inurba_marseille","lat":43.285848,"lon":5.350787,"is_reserved":false,"is_disabled":false,"rental_uris":{"android":"levelo://app?vid=7c75671e-8353-4c4c-9c77-101f058d24b5","ios":"levelo://app?vid=7c75671e-8353-4c4c-9c77-101f058d24b5"},"vehicle_type_id":"4","last_reported":1687118797,"current_range_meters":3200,"station_id":"ce4bhch2rcd13ifvqeug","pricing_plan_id":"free"},{"bike_id":"fd3b84ec-be9f-4d50-bf43-58d44f8b5fbb","system_id":"levelo_inurba_marseille","lat":43.283998,"lon":5.375062,"is_reserved":false,"is_disabled":false,"rental_uris":{"android":"levelo://app?vid=fd3b84ec-be9f-4d50-bf43-58d44f8b5fbb","ios":"levelo://app?vid=fd3b84ec-be9f-4d50-bf43-58d44f8b5fbb"},"vehicle_type_id":"4","last_reported":1687118797,"current_range_meters":18000,"station_id":"ce4bh412rcd13ifvqds0","pricing_plan_id":"free"},{"bike_id":"0c622936-96bc-4b82-b074-36b20e288107","system_id":"levelo_inurba_marseille","lat":43.283998,"lon":5.375062,"is_reserved":false,"is_disabled":false,"rental_uris":{"android":"levelo://app?vid=0c622936-96bc-4b82-b074-36b20e288107","ios":"levelo://app?vid=0c622936-96bc-4b82-b074-36b20e288107"},"vehicle_type_id":"4","last_reported":1687118797,"current_range_meters":15200,"station_id":"ce4bh412rcd13ifvqds0","pricing_plan_id":"free"},{"bike_id":"899c7ee9-8c2f-47b9-b79b-ac02987e1d6a","system_id":"levelo_inurba_marseille","lat":43.283998,"lon":5.375062,"is_reserved":false,"is_disabled":false,"rental_uris":{"android":"levelo://app?vid=899c7ee9-8c2f-47b9-b79b-ac02987e1d6a","ios":"levelo://app?vid=899c7ee9-8c2f-47b9-b79b-ac02987e1d6a"},"vehicle_type_id":"4","last_reported":1687118797,"current_range_meters":5200,"station_id":"ce4bh412rcd13ifvqds0","pricing_plan_id":"free"},{"bike_id":"43275ef6-770c-4f0e-926c-1c3aecd7abec","system_id":"levelo_inurba_marseille","lat":43.287909,"lon":5.390554,"is_reserved":false,"is_disabled":false,"rental_uris":{"android":"levelo://app?vid=43275ef6-770c-4f0e-926c-1c3aecd7abec","ios":"levelo://app?vid=43275ef6-770c-4f0e-926c-1c3aecd7abec"},"vehicle_type_id":"4","last_reported":1687118797,"current_range_meters":11600,"station_id":"","pricing_plan_id":"free"},{"bike_id":"536b47a7-25f9-49cb-9608-1b3c49b68cf4","system_id":"levelo_inurba_marseille","lat":43.33726,"lon":5.39191,"is_reserved":false,"is_disabled":false,"rental_uris":{"android":"levelo://app?vid=536b47a7-25f9-49cb-9608-1b3c49b68cf4","ios":"levelo://app?vid=536b47a7-25f9-49cb-9608-1b3c49b68cf4"},"vehicle_type_id":"4","last_reported":1687118797,"current_range_meters":8800,"station_id":"","pricing_plan_id":"free"},{"bike_id":"00b4d942-d645-4a17-a320-9c02b5ecca68","system_id":"levelo_inurba_marseille","lat":43.288501,"lon":5.393087,"is_reserved":false,"is_disabled":false,"rental_uris":{"android":"levelo://app?vid=00b4d942-d645-4a17-a320-9c02b5ecca68","ios":"levelo://app?vid=00b4d942-d645-4a17-a320-9c02b5ecca68"},"vehicle_type_id":"4","last_reported":1687118797,"current_range_meters":20800,"station_id":"ce4bh2p2rcd13ifvqdi0","pricing_plan_id":"free"},{"bike_id":"551a3b29-3c9d-4b99-880b-a83ae69d5201","system_id":"levelo_inurba_marseille","lat":43.284219,"lon":5.3497,"is_reserved":false,"is_disabled":false,"rental_uris":{"android":"levelo://app?vid=551a3b29-3c9d-4b99-880b-a83ae69d5201","ios":"levelo://app?vid=551a3b29-3c9d-4b99-880b-a83ae69d5201"},"vehicle_type_id":"4","last_reported":1687118797,"current_range_meters":0,"station_id":"ce4bhbh2rcd13ifvqepg","pricing_plan_id":"free"},{"bike_id":"16e5fedd-6e86-436a-a0a2-72c7cd60a6ea","system_id":"levelo_inurba_marseille","lat":43.32181,"lon":5.40784,"is_reserved":false,"is_disabled":false,"rental_uris":{"android":"levelo://app?vid=16e5fedd-6e86-436a-a0a2-72c7cd60a6ea","ios":"levelo://app?vid=16e5fedd-6e86-436a-a0a2-72c7cd60a6ea"},"vehicle_type_id":"4","last_reported":1687118797,"current_range_meters":31200,"station_id":"","pricing_plan_id":"free"},{"bike_id":"9cb04988-5590-4994-b3f0-e94df8993350","system_id":"levelo_inurba_marseille","lat":43.289363,"lon":5.396322,"is_reserved":false,"is_disabled":false,"rental_uris":{"android":"levelo://app?vid=9cb04988-5590-4994-b3f0-e94df8993350","ios":"levelo://app?vid=9cb04988-5590-4994-b3f0-e94df8993350"},"vehicle_type_id":"4","last_reported":1687118797,"current_range_meters":4400,"station_id":"ce4bh3h2rcd13ifvqdn0","pricing_plan_id":"free"},{"bike_id":"fc99f331-a54d-417b-8d49-8a7992bc7569","system_id":"levelo_inurba_marseille","lat":43.292724,"lon":5.401131,"is_reserved":false,"is_disabled":false,"rental_uris":{"android":"levelo://app?vid=fc99f331-a54d-417b-8d49-8a7992bc7569","ios":"levelo://app?vid=fc99f331-a54d-417b-8d49-8a7992bc7569"},"vehicle_type_id":"4","last_reported":1687118797,"current_range_meters":28800,"station_id":"ce4bh312rcd13ifvqdk0","pricing_plan_id":"free"},{"bike_id":"130598c9-ca24-4f99-b031-f56235a920a3","system_id":"levelo_inurba_marseille","lat":43.292724,"lon":5.401131,"is_reserved":false,"is_disabled":false,"rental_uris":{"android":"levelo://app?vid=130598c9-ca24-4f99-b031-f56235a920a3","ios":"levelo://app?vid=130598c9-ca24-4f99-b031-f56235a920a3"},"vehicle_type_id":"4","last_reported":1687118797,"current_range_meters":18000,"station_id":"ce4bh312rcd13ifvqdk0","pricing_plan_id":"free"},{"bike_id":"32721545-66aa-479d-ae22-18661fa37c5f","system_id":"levelo_inurba_marseille","lat":43.282754,"lon":5.350519,"is_reserved":false,"is_disabled":false,"rental_uris":{"android":"levelo://app?vid=32721545-66aa-479d-ae22-18661fa37c5f","ios":"levelo://app?vid=32721545-66aa-479d-ae22-18661fa37c5f"},"vehicle_type_id":"4","last_reported":1687118797,"current_range_meters":5600,"station_id":"ce4bhbp2rcd13ifvqerg","pricing_plan_id":"free"},{"bike_id":"aff9eaaf-e2a5-4a9b-803a-8af8b6c4403b","system_id":"levelo_inurba_marseille","lat":43.280382,"lon":5.369291,"is_reserved":false,"is_disabled":false,"rental_uris":{"android":"levelo://app?vid=aff9eaaf-e2a5-4a9b-803a-8af8b6c4403b","ios":"levelo://app?vid=aff9eaaf-e2a5-4a9b-803a-8af8b6c4403b"},"vehicle_type_id":"4","last_reported":1687118797,"current_range_meters":15600,"station_id":"ce4bha12rcd13ifvqef0","pricing_plan_id":"free"},{"bike_id":"46eb29ba-ab8d-492f-8f04-16415aa2c203","system_id":"levelo_inurba_marseille","lat":43.28036,"lon":5.36954,"is_reserved":false,"is_disabled":false,"rental_uris":{"android":"levelo://app?vid=46eb29ba-ab8d-492f-8f04-16415aa2c203","ios":"levelo://app?vid=46eb29ba-ab8d-492f-8f04-16415aa2c203"},"vehicle_type_id":"4","last_reported":1687118797,"current_range_meters":8400,"station_id":"ce4bha12rcd13ifvqef0","pricing_plan_id":"free"},{"bike_id":"ec065b0e-a4b8-4ec6-9aa8-3b4006c1fe1d","system_id":"levelo_inurba_marseille","lat":43.280382,"lon":5.369291,"is_reserved":false,"is_disabled":false,"rental_uris":{"android":"levelo://app?vid=ec065b0e-a4b8-4ec6-9aa8-3b4006c1fe1d","ios":"levelo://app?vid=ec065b0e-a4b8-4ec6-9aa8-3b4006c1fe1d"},"vehicle_type_id":"4","last_reported":1687118797,"current_range_meters":800,"station_id":"ce4bha12rcd13ifvqef0","pricing_plan_id":"free"},{"bike_id":"0efde5b2-515d-455b-8c08-9062c8639f64","system_id":"levelo_inurba_marseille","lat":43.28107,"lon":5.37832,"is_reserved":false,"is_disabled":false,"rental_uris":{"android":"levelo://app?vid=0efde5b2-515d-455b-8c08-9062c8639f64","ios":"levelo://app?vid=0efde5b2-515d-455b-8c08-9062c8639f64"},"vehicle_type_id":"4","last_reported":1687118797,"current_range_meters":19200,"station_id":"ce4bha12rcd13ifvqee0","pricing_plan_id":"free"},{"bike_id":"ca2bfd0d-fe20-4a3a-8052-73fe35cdbd57","system_id":"levelo_inurba_marseille","lat":43.28106,"lon":5.37838,"is_reserved":false,"is_disabled":false,"rental_uris":{"android":"levelo://app?vid=ca2bfd0d-fe20-4a3a-8052-73fe35cdbd57","ios":"levelo://app?vid=ca2bfd0d-fe20-4a3a-8052-73fe35cdbd57"},"vehicle_type_id":"4","last_reported":1687118797,"current_range_meters":1600,"station_id":"ce4bha12rcd13ifvqee0","pricing_plan_id":"free"},{"bike_id":"32a09671-1aed-41c1-bfd1-d4395a83d527","system_id":"levelo_inurba_marseille","lat":43.296263,"lon":5.40601,"is_reserved":false,"is_disabled":false,"rental_uris":{"android":"levelo://app?vid=32a09671-1aed-41c1-bfd1-d4395a83d527","ios":"levelo://app?vid=32a09671-1aed-41c1-bfd1-d4395a83d527"},"vehicle_type_id":"4","last_reported":1687118797,"current_range_meters":9600,"station_id":"ce4bh0h2rcd13ifvqd60","pricing_plan_id":"free"},{"bike_id":"40192752-f84b-4518-9806-7de42e4caf74","system_id":"levelo_inurba_marseille","lat":43.296263,"lon":5.40601,"is_reserved":false,"is_disabled":false,"rental_uris":{"android":"levelo://app?vid=40192752-f84b-4518-9806-7de42e4caf74","ios":"levelo://app?vid=40192752-f84b-4518-9806-7de42e4caf74"},"vehicle_type_id":"4","last_reported":1687118797,"current_range_meters":2000,"station_id":"ce4bh0h2rcd13ifvqd60","pricing_plan_id":"free"},{"bike_id":"ebe7d400-9ed0-4908-9d91-18239527bd57","system_id":"levelo_inurba_marseille","lat":43.296263,"lon":5.40601,"is_reserved":false,"is_disabled":false,"rental_uris":{"android":"levelo://app?vid=ebe7d400-9ed0-4908-9d91-18239527bd57","ios":"levelo://app?vid=ebe7d400-9ed0-4908-9d91-18239527bd57"},"vehicle_type_id":"4","last_reported":1687118797,"current_range_meters":10800,"station_id":"ce4bh0h2rcd13ifvqd60","pricing_plan_id":"free"},{"bike_id":"648101bc-86e0-41e9-bbaf-66860879cd19","system_id":"levelo_inurba_marseille","lat":43.296263,"lon":5.40601,"is_reserved":false,"is_disabled":false,"rental_uris":{"android":"levelo://app?vid=648101bc-86e0-41e9-bbaf-66860879cd19","ios":"levelo://app?vid=648101bc-86e0-41e9-bbaf-66860879cd19"},"vehicle_type_id":"4","last_reported":1687118797,"current_range_meters":4400,"station_id":"ce4bh0h2rcd13ifvqd60","pricing_plan_id":"free"},{"bike_id":"eafebf99-7dc4-40ae-9d9e-a83fdddb1dda","system_id":"levelo_inurba_marseille","lat":43.296263,"lon":5.40601,"is_reserved":false,"is_disabled":false,"rental_uris":{"android":"levelo://app?vid=eafebf99-7dc4-40ae-9d9e-a83fdddb1dda","ios":"levelo://app?vid=eafebf99-7dc4-40ae-9d9e-a83fdddb1dda"},"vehicle_type_id":"4","last_reported":1687118797,"current_range_meters":1600,"station_id":"ce4bh0h2rcd13ifvqd60","pricing_plan_id":"free"},{"bike_id":"39764aba-65d6-4520-90e1-dc1539ee0adc","system_id":"levelo_inurba_marseille","lat":43.29632,"lon":5.40598,"is_reserved":false,"is_disabled":false,"rental_uris":{"android":"levelo://app?vid=39764aba-65d6-4520-90e1-dc1539ee0adc","ios":"levelo://app?vid=39764aba-65d6-4520-90e1-dc1539ee0adc"},"vehicle_type_id":"4","last_reported":1687118797,"current_range_meters":23600,"station_id":"ce4bh0h2rcd13ifvqd60","pricing_plan_id":"free"},{"bike_id":"c7e4199f-cf79-4df7-a5bf-1f4e146111bc","system_id":"levelo_inurba_marseille","lat":43.296263,"lon":5.40601,"is_reserved":false,"is_disabled":false,"rental_uris":{"android":"levelo://app?vid=c7e4199f-cf79-4df7-a5bf-1f4e146111bc","ios":"levelo://app?vid=c7e4199f-cf79-4df7-a5bf-1f4e146111bc"},"vehicle_type_id":"4","last_reported":1687118797,"current_range_meters":31200,"station_id":"ce4bh0h2rcd13ifvqd60","pricing_plan_id":"free"},{"bike_id":"e7607c34-2658-48c5-8894-429c92362894","system_id":"levelo_inurba_marseille","lat":43.285742,"lon":5.395004,"is_reserved":false,"is_disabled":false,"rental_uris":{"android":"levelo://app?vid=e7607c34-2658-48c5-8894-429c92362894","ios":"levelo://app?vid=e7607c34-2658-48c5-8894-429c92362894"},"vehicle_type_id":"4","last_reported":1687118797,"current_range_meters":12800,"station_id":"ce4bh292rcd13ifvqdg0","pricing_plan_id":"free"},{"bike_id":"67d93348-79be-43a6-83c5-1989ce8c59f4","system_id":"levelo_inurba_marseille","lat":43.28573,"lon":5.394992,"is_reserved":false,"is_disabled":false,"rental_uris":{"android":"levelo://app?vid=67d93348-79be-43a6-83c5-1989ce8c59f4","ios":"levelo://app?vid=67d93348-79be-43a6-83c5-1989ce8c59f4"},"vehicle_type_id":"4","last_reported":1687118797,"current_range_meters":3200,"station_id":"ce4bh292rcd13ifvqdg0","pricing_plan_id":"free"},{"bike_id":"d5f50fab-c603-43a1-a119-2b2f0dc9e030","system_id":"levelo_inurba_marseille","lat":43.28573,"lon":5.394992,"is_reserved":false,"is_disabled":false,"rental_uris":{"android":"levelo://app?vid=d5f50fab-c603-43a1-a119-2b2f0dc9e030","ios":"levelo://app?vid=d5f50fab-c603-43a1-a119-2b2f0dc9e030"},"vehicle_type_id":"4","last_reported":1687118797,"current_range_meters":24000,"station_id":"ce4bh292rcd13ifvqdg0","pricing_plan_id":"free"},{"bike_id":"d2b3ecfe-0ae3-4066-b081-e363446d152c","system_id":"levelo_inurba_marseille","lat":43.28573,"lon":5.394992,"is_reserved":false,"is_disabled":false,"rental_uris":{"android":"levelo://app?vid=d2b3ecfe-0ae3-4066-b081-e363446d152c","ios":"levelo://app?vid=d2b3ecfe-0ae3-4066-b081-e363446d152c"},"vehicle_type_id":"4","last_reported":1687118797,"current_range_meters":24800,"station_id":"ce4bh292rcd13ifvqdg0","pricing_plan_id":"free"},{"bike_id":"d852f400-3f6d-410c-b0a0-e8cefa552d0b","system_id":"levelo_inurba_marseille","lat":43.28567,"lon":5.39512,"is_reserved":false,"is_disabled":false,"rental_uris":{"android":"levelo://app?vid=d852f400-3f6d-410c-b0a0-e8cefa552d0b","ios":"levelo://app?vid=d852f400-3f6d-410c-b0a0-e8cefa552d0b"},"vehicle_type_id":"4","last_reported":1687118797,"current_range_meters":8000,"station_id":"","pricing_plan_id":"free"},{"bike_id":"c46f2cfc-3b2b-45a0-b8d8-1ca12a55d16f","system_id":"levelo_inurba_marseille","lat":43.287154,"lon":5.399979,"is_reserved":false,"is_disabled":false,"rental_uris":{"android":"levelo://app?vid=c46f2cfc-3b2b-45a0-b8d8-1ca12a55d16f","ios":"levelo://app?vid=c46f2cfc-3b2b-45a0-b8d8-1ca12a55d16f"},"vehicle_type_id":"4","last_reported":1687118797,"current_range_meters":13600,"station_id":"ce4bho92rcd13ifvqh3g","pricing_plan_id":"free"},{"bike_id":"16203ba4-744c-44b5-ad33-b8466ab7cd92","system_id":"levelo_inurba_marseille","lat":43.287154,"lon":5.399979,"is_reserved":false,"is_disabled":false,"rental_uris":{"android":"levelo://app?vid=16203ba4-744c-44b5-ad33-b8466ab7cd92","ios":"levelo://app?vid=16203ba4-744c-44b5-ad33-b8466ab7cd92"},"vehicle_type_id":"4","last_reported":1687118797,"current_range_meters":23600,"station_id":"ce4bho92rcd13ifvqh3g","pricing_plan_id":"free"},{"bike_id":"2f37cdab-a426-42c6-8301-ff43998d9e5b","system_id":"levelo_inurba_marseille","lat":43.27908,"lon":5.38286,"is_reserved":false,"is_disabled":false,"rental_uris":{"android":"levelo://app?vid=2f37cdab-a426-42c6-8301-ff43998d9e5b","ios":"levelo://app?vid=2f37cdab-a426-42c6-8301-ff43998d9e5b"},"vehicle_type_id":"4","last_reported":1687118797,"current_range_meters":15200,"station_id":"ce4bha12rcd13ifvqee0","pricing_plan_id":"free"},{"bike_id":"f225ae8b-ed7b-4b2c-8a46-dcd20f872f30","system_id":"levelo_inurba_marseille","lat":43.320045,"lon":5.415046,"is_reserved":false,"is_disabled":false,"rental_uris":{"android":"levelo://app?vid=f225ae8b-ed7b-4b2c-8a46-dcd20f872f30","ios":"levelo://app?vid=f225ae8b-ed7b-4b2c-8a46-dcd20f872f30"},"vehicle_type_id":"4","last_reported":1687118797,"current_range_meters":1200,"station_id":"ce4bhq92rcd13ifvqhkg","pricing_plan_id":"free"},{"bike_id":"92dc1495-34b5-4657-a5d4-73d7f3b7312c","system_id":"levelo_inurba_marseille","lat":43.320045,"lon":5.415046,"is_reserved":false,"is_disabled":false,"rental_uris":{"android":"levelo://app?vid=92dc1495-34b5-4657-a5d4-73d7f3b7312c","ios":"levelo://app?vid=92dc1495-34b5-4657-a5d4-73d7f3b7312c"},"vehicle_type_id":"4","last_reported":1687118797,"current_range_meters":29600,"station_id":"ce4bhq92rcd13ifvqhkg","pricing_plan_id":"free"},{"bike_id":"eb0fcea3-537a-4b31-8f8c-7e0c86036aef","system_id":"levelo_inurba_marseille","lat":43.27975,"lon":5.38747,"is_reserved":false,"is_disabled":false,"rental_uris":{"android":"levelo://app?vid=eb0fcea3-537a-4b31-8f8c-7e0c86036aef","ios":"levelo://app?vid=eb0fcea3-537a-4b31-8f8c-7e0c86036aef"},"vehicle_type_id":"4","last_reported":1687118797,"current_range_meters":3600,"station_id":"ce4bhg12rcd13ifvqf80","pricing_plan_id":"free"},{"bike_id":"cf6657fc-312c-494a-834e-bcb8103bdbad","system_id":"levelo_inurba_marseille","lat":43.279742,"lon":5.38744,"is_reserved":false,"is_disabled":false,"rental_uris":{"android":"levelo://app?vid=cf6657fc-312c-494a-834e-bcb8103bdbad","ios":"levelo://app?vid=cf6657fc-312c-494a-834e-bcb8103bdbad"},"vehicle_type_id":"4","last_reported":1687118797,"current_range_meters":19600,"station_id":"ce4bhg12rcd13ifvqf80","pricing_plan_id":"free"},{"bike_id":"757d3d08-bc89-49ec-a9a9-844a3c6432c0","system_id":"levelo_inurba_marseille","lat":43.292571,"lon":5.409107,"is_reserved":false,"is_disabled":false,"rental_uris":{"android":"levelo://app?vid=757d3d08-bc89-49ec-a9a9-844a3c6432c0","ios":"levelo://app?vid=757d3d08-bc89-49ec-a9a9-844a3c6432c0"},"vehicle_type_id":"4","last_reported":1687118797,"current_range_meters":1200,"station_id":"ce4bh192rcd13ifvqdc0","pricing_plan_id":"free"},{"bike_id":"4ac80e76-3fe5-46ad-b804-842aa9a91cbf","system_id":"levelo_inurba_marseille","lat":43.292571,"lon":5.409107,"is_reserved":false,"is_disabled":false,"rental_uris":{"android":"levelo://app?vid=4ac80e76-3fe5-46ad-b804-842aa9a91cbf","ios":"levelo://app?vid=4ac80e76-3fe5-46ad-b804-842aa9a91cbf"},"vehicle_type_id":"4","last_reported":1687118797,"current_range_meters":800,"station_id":"ce4bh192rcd13ifvqdc0","pricing_plan_id":"free"},{"bike_id":"24d3400b-0cbf-4513-8e62-481bc2c24d3d","system_id":"levelo_inurba_marseille","lat":43.292571,"lon":5.409107,"is_reserved":false,"is_disabled":false,"rental_uris":{"android":"levelo://app?vid=24d3400b-0cbf-4513-8e62-481bc2c24d3d","ios":"levelo://app?vid=24d3400b-0cbf-4513-8e62-481bc2c24d3d"},"vehicle_type_id":"4","last_reported":1687118797,"current_range_meters":1200,"station_id":"ce4bh192rcd13ifvqdc0","pricing_plan_id":"free"},{"bike_id":"ee58c7e6-f031-4e15-a6ee-b6ccdccfbce0","system_id":"levelo_inurba_marseille","lat":43.292571,"lon":5.409107,"is_reserved":false,"is_disabled":false,"rental_uris":{"android":"levelo://app?vid=ee58c7e6-f031-4e15-a6ee-b6ccdccfbce0","ios":"levelo://app?vid=ee58c7e6-f031-4e15-a6ee-b6ccdccfbce0"},"vehicle_type_id":"4","last_reported":1687118797,"current_range_meters":5200,"station_id":"ce4bh192rcd13ifvqdc0","pricing_plan_id":"free"},{"bike_id":"c5700ada-6505-4afb-9e19-1b128c240c5c","system_id":"levelo_inurba_marseille","lat":43.292571,"lon":5.409107,"is_reserved":false,"is_disabled":false,"rental_uris":{"android":"levelo://app?vid=c5700ada-6505-4afb-9e19-1b128c240c5c","ios":"levelo://app?vid=c5700ada-6505-4afb-9e19-1b128c240c5c"},"vehicle_type_id":"4","last_reported":1687118797,"current_range_meters":6400,"station_id":"ce4bh192rcd13ifvqdc0","pricing_plan_id":"free"},{"bike_id":"f3c266f2-b110-4e76-afb8-70d063259de9","system_id":"levelo_inurba_marseille","lat":43.292571,"lon":5.409107,"is_reserved":false,"is_disabled":false,"rental_uris":{"android":"levelo://app?vid=f3c266f2-b110-4e76-afb8-70d063259de9","ios":"levelo://app?vid=f3c266f2-b110-4e76-afb8-70d063259de9"},"vehicle_type_id":"4","last_reported":1687118797,"current_range_meters":0,"station_id":"ce4bh192rcd13ifvqdc0","pricing_plan_id":"free"},{"bike_id":"d6ff23ef-5f51-41c3-be12-6a99cef30a64","system_id":"levelo_inurba_marseille","lat":43.292571,"lon":5.409107,"is_reserved":false,"is_disabled":false,"rental_uris":{"android":"levelo://app?vid=d6ff23ef-5f51-41c3-be12-6a99cef30a64","ios":"levelo://app?vid=d6ff23ef-5f51-41c3-be12-6a99cef30a64"},"vehicle_type_id":"4","last_reported":1687118797,"current_range_meters":4400,"station_id":"ce4bh192rcd13ifvqdc0","pricing_plan_id":"free"},{"bike_id":"301ea7ec-72d3-4784-abaf-df71e2aa6d25","system_id":"levelo_inurba_marseille","lat":43.280784,"lon":5.396622,"is_reserved":false,"is_disabled":false,"rental_uris":{"android":"levelo://app?vid=301ea7ec-72d3-4784-abaf-df71e2aa6d25","ios":"levelo://app?vid=301ea7ec-72d3-4784-abaf-df71e2aa6d25"},"vehicle_type_id":"4","last_reported":1687118797,"current_range_meters":2800,"station_id":"ce4bho12rcd13ifvqh2g","pricing_plan_id":"free"},{"bike_id":"1c2a2c9b-1c38-43ce-a176-92d387b5a3a7","system_id":"levelo_inurba_marseille","lat":43.303837,"lon":5.418724,"is_reserved":false,"is_disabled":false,"rental_uris":{"android":"levelo://app?vid=1c2a2c9b-1c38-43ce-a176-92d387b5a3a7","ios":"levelo://app?vid=1c2a2c9b-1c38-43ce-a176-92d387b5a3a7"},"vehicle_type_id":"4","last_reported":1687118797,"current_range_meters":0,"station_id":"ce4bhop2rcd13ifvqh7g","pricing_plan_id":"free"},{"bike_id":"3a2e1a00-5180-42ce-8009-33c532669596","system_id":"levelo_inurba_marseille","lat":43.30357,"lon":5.41884,"is_reserved":false,"is_disabled":false,"rental_uris":{"android":"levelo://app?vid=3a2e1a00-5180-42ce-8009-33c532669596","ios":"levelo://app?vid=3a2e1a00-5180-42ce-8009-33c532669596"},"vehicle_type_id":"4","last_reported":1687118797,"current_range_meters":0,"station_id":"","pricing_plan_id":"free"},{"bike_id":"0babd893-e732-4b9a-a620-cdc3469f009d","system_id":"levelo_inurba_marseille","lat":43.278401,"lon":5.392152,"is_reserved":false,"is_disabled":false,"rental_uris":{"android":"levelo://app?vid=0babd893-e732-4b9a-a620-cdc3469f009d","ios":"levelo://app?vid=0babd893-e732-4b9a-a620-cdc3469f009d"},"vehicle_type_id":"4","last_reported":1687118797,"current_range_meters":4000,"station_id":"ce4bhjp2rcd13ifvqga0","pricing_plan_id":"free"},{"bike_id":"be005a11-3ba0-4e95-8a2e-4263f84d7c27","system_id":"levelo_inurba_marseille","lat":43.275625,"lon":5.384392,"is_reserved":false,"is_disabled":false,"rental_uris":{"android":"levelo://app?vid=be005a11-3ba0-4e95-8a2e-4263f84d7c27","ios":"levelo://app?vid=be005a11-3ba0-4e95-8a2e-4263f84d7c27"},"vehicle_type_id":"4","last_reported":1687118797,"current_range_meters":4400,"station_id":"ce4bhh92rcd13ifvqfi0","pricing_plan_id":"free"},{"bike_id":"6275aaca-a354-407f-be44-df40f2969d44","system_id":"levelo_inurba_marseille","lat":43.273613,"lon":5.362705,"is_reserved":false,"is_disabled":false,"rental_uris":{"android":"levelo://app?vid=6275aaca-a354-407f-be44-df40f2969d44","ios":"levelo://app?vid=6275aaca-a354-407f-be44-df40f2969d44"},"vehicle_type_id":"4","last_reported":1687118797,"current_range_meters":31600,"station_id":"ce4bhbh2rcd13ifvqeo0","pricing_plan_id":"free"},{"bike_id":"813cea3e-ab33-42bf-acb5-e4e9a30c73ae","system_id":"levelo_inurba_marseille","lat":43.31727,"lon":5.42394,"is_reserved":false,"is_disabled":false,"rental_uris":{"android":"levelo://app?vid=813cea3e-ab33-42bf-acb5-e4e9a30c73ae","ios":"levelo://app?vid=813cea3e-ab33-42bf-acb5-e4e9a30c73ae"},"vehicle_type_id":"4","last_reported":1687118797,"current_range_meters":29600,"station_id":"ce4bhp92rcd13ifvqhbg","pricing_plan_id":"free"},{"bike_id":"20e8f190-4e19-4145-b845-ce40c9c38835","system_id":"levelo_inurba_marseille","lat":43.310785,"lon":5.424305,"is_reserved":false,"is_disabled":false,"rental_uris":{"android":"levelo://app?vid=20e8f190-4e19-4145-b845-ce40c9c38835","ios":"levelo://app?vid=20e8f190-4e19-4145-b845-ce40c9c38835"},"vehicle_type_id":"4","last_reported":1687118797,"current_range_meters":11600,"station_id":"ce4bhp92rcd13ifvqhag","pricing_plan_id":"free"},{"bike_id":"c9118ee2-e487-41b2-adb4-b8e2b83b57d2","system_id":"levelo_inurba_marseille","lat":43.310785,"lon":5.424305,"is_reserved":false,"is_disabled":false,"rental_uris":{"android":"levelo://app?vid=c9118ee2-e487-41b2-adb4-b8e2b83b57d2","ios":"levelo://app?vid=c9118ee2-e487-41b2-adb4-b8e2b83b57d2"},"vehicle_type_id":"4","last_reported":1687118797,"current_range_meters":31600,"station_id":"ce4bhp92rcd13ifvqhag","pricing_plan_id":"free"},{"bike_id":"1bbc16c6-313d-47a9-9d70-688a3f786f03","system_id":"levelo_inurba_marseille","lat":43.33612,"lon":5.410321,"is_reserved":false,"is_disabled":false,"rental_uris":{"android":"levelo://app?vid=1bbc16c6-313d-47a9-9d70-688a3f786f03","ios":"levelo://app?vid=1bbc16c6-313d-47a9-9d70-688a3f786f03"},"vehicle_type_id":"4","last_reported":1687118797,"current_range_meters":17200,"station_id":"ce4bhqh2rcd13ifvqhmg","pricing_plan_id":"free"},{"bike_id":"a670ef55-fa28-46ef-be87-f2b252cb9a4f","system_id":"levelo_inurba_marseille","lat":43.2743,"lon":5.39413,"is_reserved":false,"is_disabled":false,"rental_uris":{"android":"levelo://app?vid=a670ef55-fa28-46ef-be87-f2b252cb9a4f","ios":"levelo://app?vid=a670ef55-fa28-46ef-be87-f2b252cb9a4f"},"vehicle_type_id":"4","last_reported":1687118797,"current_range_meters":2400,"station_id":"","pricing_plan_id":"free"},{"bike_id":"f82c4e0b-ce86-4de4-962b-f266d6ba506e","system_id":"levelo_inurba_marseille","lat":43.273129,"lon":5.390725,"is_reserved":false,"is_disabled":false,"rental_uris":{"android":"levelo://app?vid=f82c4e0b-ce86-4de4-962b-f266d6ba506e","ios":"levelo://app?vid=f82c4e0b-ce86-4de4-962b-f266d6ba506e"},"vehicle_type_id":"4","last_reported":1687118797,"current_range_meters":28400,"station_id":"ce4bhgp2rcd13ifvqfe0","pricing_plan_id":"free"},{"bike_id":"0d1dab6f-24cd-4058-ac25-f587ea616740","system_id":"levelo_inurba_marseille","lat":43.295511,"lon":5.422926,"is_reserved":false,"is_disabled":false,"rental_uris":{"android":"levelo://app?vid=0d1dab6f-24cd-4058-ac25-f587ea616740","ios":"levelo://app?vid=0d1dab6f-24cd-4058-ac25-f587ea616740"},"vehicle_type_id":"4","last_reported":1687118797,"current_range_meters":19200,"station_id":"ce4bhph2rcd13ifvqhdg","pricing_plan_id":"free"},{"bike_id":"1e3907f7-0059-4e21-9755-00c3d406392e","system_id":"levelo_inurba_marseille","lat":43.272116,"lon":5.391763,"is_reserved":false,"is_disabled":false,"rental_uris":{"android":"levelo://app?vid=1e3907f7-0059-4e21-9755-00c3d406392e","ios":"levelo://app?vid=1e3907f7-0059-4e21-9755-00c3d406392e"},"vehicle_type_id":"4","last_reported":1687118797,"current_range_meters":31200,"station_id":"ce4bhhp2rcd13ifvqfm0","pricing_plan_id":"free"},{"bike_id":"eb7bdf05-0fcd-4597-b1b8-3c3cb7682f27","system_id":"levelo_inurba_marseille","lat":43.278128,"lon":5.407195,"is_reserved":false,"is_disabled":false,"rental_uris":{"android":"levelo://app?vid=eb7bdf05-0fcd-4597-b1b8-3c3cb7682f27","ios":"levelo://app?vid=eb7bdf05-0fcd-4597-b1b8-3c3cb7682f27"},"vehicle_type_id":"4","last_reported":1687118797,"current_range_meters":4000,"station_id":"ce4bhnh2rcd13ifvqgtg","pricing_plan_id":"free"},{"bike_id":"e76d87c2-2b9e-49fa-9da1-67a2f138a5b4","system_id":"levelo_inurba_marseille","lat":43.26685,"lon":5.38268,"is_reserved":false,"is_disabled":false,"rental_uris":{"android":"levelo://app?vid=e76d87c2-2b9e-49fa-9da1-67a2f138a5b4","ios":"levelo://app?vid=e76d87c2-2b9e-49fa-9da1-67a2f138a5b4"},"vehicle_type_id":"4","last_reported":1687118797,"current_range_meters":29600,"station_id":"ce4bhg92rcd13ifvqf90","pricing_plan_id":"free"},{"bike_id":"9227a35a-b1d7-4067-b247-de249b895727","system_id":"levelo_inurba_marseille","lat":43.26681,"lon":5.382694,"is_reserved":false,"is_disabled":false,"rental_uris":{"android":"levelo://app?vid=9227a35a-b1d7-4067-b247-de249b895727","ios":"levelo://app?vid=9227a35a-b1d7-4067-b247-de249b895727"},"vehicle_type_id":"4","last_reported":1687118797,"current_range_meters":6800,"station_id":"ce4bhg92rcd13ifvqf90","pricing_plan_id":"free"},{"bike_id":"80d3b165-e131-4209-ba53-befb109d105d","system_id":"levelo_inurba_marseille","lat":43.26681,"lon":5.382694,"is_reserved":false,"is_disabled":false,"rental_uris":{"android":"levelo://app?vid=80d3b165-e131-4209-ba53-befb109d105d","ios":"levelo://app?vid=80d3b165-e131-4209-ba53-befb109d105d"},"vehicle_type_id":"4","last_reported":1687118797,"current_range_meters":20000,"station_id":"ce4bhg92rcd13ifvqf90","pricing_plan_id":"free"},{"bike_id":"c0eb1fd9-f42f-4c8b-ba57-ddf8a7ab4550","system_id":"levelo_inurba_marseille","lat":43.26681,"lon":5.382694,"is_reserved":false,"is_disabled":false,"rental_uris":{"android":"levelo://app?vid=c0eb1fd9-f42f-4c8b-ba57-ddf8a7ab4550","ios":"levelo://app?vid=c0eb1fd9-f42f-4c8b-ba57-ddf8a7ab4550"},"vehicle_type_id":"4","last_reported":1687118797,"current_range_meters":20400,"station_id":"ce4bhg92rcd13ifvqf90","pricing_plan_id":"free"},{"bike_id":"2cc79cf9-bec1-4444-9b4d-dd5c0ec59b62","system_id":"levelo_inurba_marseille","lat":43.26681,"lon":5.382694,"is_reserved":false,"is_disabled":false,"rental_uris":{"android":"levelo://app?vid=2cc79cf9-bec1-4444-9b4d-dd5c0ec59b62","ios":"levelo://app?vid=2cc79cf9-bec1-4444-9b4d-dd5c0ec59b62"},"vehicle_type_id":"4","last_reported":1687118797,"current_range_meters":8000,"station_id":"ce4bhg92rcd13ifvqf90","pricing_plan_id":"free"},{"bike_id":"777f4b71-b492-4bc1-a6e9-1d4f74aa6180","system_id":"levelo_inurba_marseille","lat":43.26681,"lon":5.38268,"is_reserved":false,"is_disabled":false,"rental_uris":{"android":"levelo://app?vid=777f4b71-b492-4bc1-a6e9-1d4f74aa6180","ios":"levelo://app?vid=777f4b71-b492-4bc1-a6e9-1d4f74aa6180"},"vehicle_type_id":"4","last_reported":1687118797,"current_range_meters":25600,"station_id":"ce4bhg92rcd13ifvqf90","pricing_plan_id":"free"},{"bike_id":"3fb25529-8b2f-4757-a92d-b51c6ebb175d","system_id":"levelo_inurba_marseille","lat":43.26432,"lon":5.37376,"is_reserved":false,"is_disabled":false,"rental_uris":{"android":"levelo://app?vid=3fb25529-8b2f-4757-a92d-b51c6ebb175d","ios":"levelo://app?vid=3fb25529-8b2f-4757-a92d-b51c6ebb175d"},"vehicle_type_id":"4","last_reported":1687118797,"current_range_meters":31200,"station_id":"","pricing_plan_id":"free"},{"bike_id":"86a14e2e-58d2-4985-b111-862d81a669e0","system_id":"levelo_inurba_marseille","lat":43.27996,"lon":5.416624,"is_reserved":false,"is_disabled":false,"rental_uris":{"android":"levelo://app?vid=86a14e2e-58d2-4985-b111-862d81a669e0","ios":"levelo://app?vid=86a14e2e-58d2-4985-b111-862d81a669e0"},"vehicle_type_id":"4","last_reported":1687118797,"current_range_meters":23600,"station_id":"ce4bho12rcd13ifvqh1g","pricing_plan_id":"free"},{"bike_id":"28ede2e2-6921-41f8-82cf-8146c27e2335","system_id":"levelo_inurba_marseille","lat":43.27996,"lon":5.416624,"is_reserved":false,"is_disabled":false,"rental_uris":{"android":"levelo://app?vid=28ede2e2-6921-41f8-82cf-8146c27e2335","ios":"levelo://app?vid=28ede2e2-6921-41f8-82cf-8146c27e2335"},"vehicle_type_id":"4","last_reported":1687118797,"current_range_meters":3600,"station_id":"ce4bho12rcd13ifvqh1g","pricing_plan_id":"free"},{"bike_id":"090565ab-ff31-4e8c-b18e-f59a41382894","system_id":"levelo_inurba_marseille","lat":43.27996,"lon":5.416624,"is_reserved":false,"is_disabled":false,"rental_uris":{"android":"levelo://app?vid=090565ab-ff31-4e8c-b18e-f59a41382894","ios":"levelo://app?vid=090565ab-ff31-4e8c-b18e-f59a41382894"},"vehicle_type_id":"4","last_reported":1687118797,"current_range_meters":9200,"station_id":"ce4bho12rcd13ifvqh1g","pricing_plan_id":"free"},{"bike_id":"cfba2fbe-9ed5-423f-b411-8d6c38451715","system_id":"levelo_inurba_marseille","lat":43.27996,"lon":5.41666,"is_reserved":false,"is_disabled":false,"rental_uris":{"android":"levelo://app?vid=cfba2fbe-9ed5-423f-b411-8d6c38451715","ios":"levelo://app?vid=cfba2fbe-9ed5-423f-b411-8d6c38451715"},"vehicle_type_id":"4","last_reported":1687118797,"current_range_meters":20400,"station_id":"ce4bho12rcd13ifvqh1g","pricing_plan_id":"free"},{"bike_id":"3987290e-fd4b-4f2b-81c0-57fca98f9cde","system_id":"levelo_inurba_marseille","lat":43.267966,"lon":5.393976,"is_reserved":false,"is_disabled":false,"rental_uris":{"android":"levelo://app?vid=3987290e-fd4b-4f2b-81c0-57fca98f9cde","ios":"levelo://app?vid=3987290e-fd4b-4f2b-81c0-57fca98f9cde"},"vehicle_type_id":"4","last_reported":1687118797,"current_range_meters":30000,"station_id":"ce4bhh12rcd13ifvqfg0","pricing_plan_id":"free"},{"bike_id":"e09ee2df-5eb5-400b-b4e8-a2efdba018fe","system_id":"levelo_inurba_marseille","lat":43.308,"lon":5.43518,"is_reserved":false,"is_disabled":false,"rental_uris":{"android":"levelo://app?vid=e09ee2df-5eb5-400b-b4e8-a2efdba018fe","ios":"levelo://app?vid=e09ee2df-5eb5-400b-b4e8-a2efdba018fe"},"vehicle_type_id":"4","last_reported":1687118797,"current_range_meters":2800,"station_id":"ce4bhph2rcd13ifvqheg","pricing_plan_id":"free"},{"bike_id":"935a4aec-1547-4073-a330-9bf4a8e0fb00","system_id":"levelo_inurba_marseille","lat":43.30798,"lon":5.43525,"is_reserved":false,"is_disabled":false,"rental_uris":{"android":"levelo://app?vid=935a4aec-1547-4073-a330-9bf4a8e0fb00","ios":"levelo://app?vid=935a4aec-1547-4073-a330-9bf4a8e0fb00"},"vehicle_type_id":"4","last_reported":1687118797,"current_range_meters":22000,"station_id":"ce4bhph2rcd13ifvqheg","pricing_plan_id":"free"},{"bike_id":"cda28a23-f977-444e-be81-0c35c0e3524a","system_id":"levelo_inurba_marseille","lat":43.30837,"lon":5.43557,"is_reserved":false,"is_disabled":false,"rental_uris":{"android":"levelo://app?vid=cda28a23-f977-444e-be81-0c35c0e3524a","ios":"levelo://app?vid=cda28a23-f977-444e-be81-0c35c0e3524a"},"vehicle_type_id":"4","last_reported":1687118797,"current_range_meters":0,"station_id":"","pricing_plan_id":"free"},{"bike_id":"a22e5cdd-17c8-4f21-853c-03ca220d8771","system_id":"levelo_inurba_marseille","lat":43.26196,"lon":5.37438,"is_reserved":false,"is_disabled":false,"rental_uris":{"android":"levelo://app?vid=a22e5cdd-17c8-4f21-853c-03ca220d8771","ios":"levelo://app?vid=a22e5cdd-17c8-4f21-853c-03ca220d8771"},"vehicle_type_id":"4","last_reported":1687118797,"current_range_meters":31200,"station_id":"ce4bhgp2rcd13ifvqfc0","pricing_plan_id":"free"},{"bike_id":"6759c212-f145-4b5a-a15f-3a56cbc771ac","system_id":"levelo_inurba_marseille","lat":43.261782,"lon":5.374515,"is_reserved":false,"is_disabled":false,"rental_uris":{"android":"levelo://app?vid=6759c212-f145-4b5a-a15f-3a56cbc771ac","ios":"levelo://app?vid=6759c212-f145-4b5a-a15f-3a56cbc771ac"},"vehicle_type_id":"4","last_reported":1687118797,"current_range_meters":1200,"station_id":"ce4bhgp2rcd13ifvqfc0","pricing_plan_id":"free"},{"bike_id":"ef256acd-8d84-4584-a8a1-2fe521c9d445","system_id":"levelo_inurba_marseille","lat":43.261782,"lon":5.374515,"is_reserved":false,"is_disabled":false,"rental_uris":{"android":"levelo://app?vid=ef256acd-8d84-4584-a8a1-2fe521c9d445","ios":"levelo://app?vid=ef256acd-8d84-4584-a8a1-2fe521c9d445"},"vehicle_type_id":"4","last_reported":1687118797,"current_range_meters":20800,"station_id":"ce4bhgp2rcd13ifvqfc0","pricing_plan_id":"free"},{"bike_id":"3548173a-c6d6-4104-9d24-d210d754eae1","system_id":"levelo_inurba_marseille","lat":43.261782,"lon":5.374515,"is_reserved":false,"is_disabled":false,"rental_uris":{"android":"levelo://app?vid=3548173a-c6d6-4104-9d24-d210d754eae1","ios":"levelo://app?vid=3548173a-c6d6-4104-9d24-d210d754eae1"},"vehicle_type_id":"4","last_reported":1687118797,"current_range_meters":5600,"station_id":"ce4bhgp2rcd13ifvqfc0","pricing_plan_id":"free"},{"bike_id":"737eff8a-6f3e-4323-9dfb-23fb4ad54d9e","system_id":"levelo_inurba_marseille","lat":43.26183,"lon":5.37444,"is_reserved":false,"is_disabled":false,"rental_uris":{"android":"levelo://app?vid=737eff8a-6f3e-4323-9dfb-23fb4ad54d9e","ios":"levelo://app?vid=737eff8a-6f3e-4323-9dfb-23fb4ad54d9e"},"vehicle_type_id":"4","last_reported":1687118797,"current_range_meters":29200,"station_id":"ce4bhgp2rcd13ifvqfc0","pricing_plan_id":"free"},{"bike_id":"72c93a2b-9eaf-4635-82fd-ea94f8300d5c","system_id":"levelo_inurba_marseille","lat":43.31711,"lon":5.43705,"is_reserved":false,"is_disabled":false,"rental_uris":{"android":"levelo://app?vid=72c93a2b-9eaf-4635-82fd-ea94f8300d5c","ios":"levelo://app?vid=72c93a2b-9eaf-4635-82fd-ea94f8300d5c"},"vehicle_type_id":"4","last_reported":1687118797,"current_range_meters":22400,"station_id":"ce4bhp92rcd13ifvqhcg","pricing_plan_id":"free"},{"bike_id":"9bf905c2-7b41-48ec-bfc6-155ec656c7ee","system_id":"levelo_inurba_marseille","lat":43.317104,"lon":5.436818,"is_reserved":false,"is_disabled":false,"rental_uris":{"android":"levelo://app?vid=9bf905c2-7b41-48ec-bfc6-155ec656c7ee","ios":"levelo://app?vid=9bf905c2-7b41-48ec-bfc6-155ec656c7ee"},"vehicle_type_id":"4","last_reported":1687118797,"current_range_meters":31200,"station_id":"ce4bhp92rcd13ifvqhcg","pricing_plan_id":"free"},{"bike_id":"54129b2c-244f-4a91-8890-f12b5f0e7a95","system_id":"levelo_inurba_marseille","lat":43.317104,"lon":5.436818,"is_reserved":false,"is_disabled":false,"rental_uris":{"android":"levelo://app?vid=54129b2c-244f-4a91-8890-f12b5f0e7a95","ios":"levelo://app?vid=54129b2c-244f-4a91-8890-f12b5f0e7a95"},"vehicle_type_id":"4","last_reported":1687118797,"current_range_meters":7200,"station_id":"ce4bhp92rcd13ifvqhcg","pricing_plan_id":"free"},{"bike_id":"fc7bd63b-73f7-401f-8c62-5b0338652175","system_id":"levelo_inurba_marseille","lat":43.26214,"lon":5.37919,"is_reserved":false,"is_disabled":false,"rental_uris":{"android":"levelo://app?vid=fc7bd63b-73f7-401f-8c62-5b0338652175","ios":"levelo://app?vid=fc7bd63b-73f7-401f-8c62-5b0338652175"},"vehicle_type_id":"4","last_reported":1687118797,"current_range_meters":12400,"station_id":"ce4bhjp2rcd13ifvqg90","pricing_plan_id":"free"},{"bike_id":"3550cf27-7e6d-4b89-9e0b-30d92a3f1988","system_id":"levelo_inurba_marseille","lat":43.26214,"lon":5.37926,"is_reserved":false,"is_disabled":false,"rental_uris":{"android":"levelo://app?vid=3550cf27-7e6d-4b89-9e0b-30d92a3f1988","ios":"levelo://app?vid=3550cf27-7e6d-4b89-9e0b-30d92a3f1988"},"vehicle_type_id":"4","last_reported":1687118797,"current_range_meters":31200,"station_id":"ce4bhjp2rcd13ifvqg90","pricing_plan_id":"free"},{"bike_id":"df937aa2-e5ca-492d-b726-b96bea986152","system_id":"levelo_inurba_marseille","lat":43.26213,"lon":5.37922,"is_reserved":false,"is_disabled":false,"rental_uris":{"android":"levelo://app?vid=df937aa2-e5ca-492d-b726-b96bea986152","ios":"levelo://app?vid=df937aa2-e5ca-492d-b726-b96bea986152"},"vehicle_type_id":"4","last_reported":1687118797,"current_range_meters":11600,"station_id":"ce4bhjp2rcd13ifvqg90","pricing_plan_id":"free"},{"bike_id":"c946daf2-5581-4b50-94b3-ad69d30f204d","system_id":"levelo_inurba_marseille","lat":43.262135,"lon":5.379262,"is_reserved":false,"is_disabled":false,"rental_uris":{"android":"levelo://app?vid=c946daf2-5581-4b50-94b3-ad69d30f204d","ios":"levelo://app?vid=c946daf2-5581-4b50-94b3-ad69d30f204d"},"vehicle_type_id":"4","last_reported":1687118797,"current_range_meters":11600,"station_id":"ce4bhjp2rcd13ifvqg90","pricing_plan_id":"free"},{"bike_id":"ddf5275b-ae97-4120-9de2-5166c65ab873","system_id":"levelo_inurba_marseille","lat":43.26212,"lon":5.3792,"is_reserved":false,"is_disabled":false,"rental_uris":{"android":"levelo://app?vid=ddf5275b-ae97-4120-9de2-5166c65ab873","ios":"levelo://app?vid=ddf5275b-ae97-4120-9de2-5166c65ab873"},"vehicle_type_id":"4","last_reported":1687118797,"current_range_meters":31200,"station_id":"ce4bhjp2rcd13ifvqg90","pricing_plan_id":"free"},{"bike_id":"7e62eef8-7ea4-42f8-87ba-4097c26363bb","system_id":"levelo_inurba_marseille","lat":43.26213,"lon":5.37929,"is_reserved":false,"is_disabled":false,"rental_uris":{"android":"levelo://app?vid=7e62eef8-7ea4-42f8-87ba-4097c26363bb","ios":"levelo://app?vid=7e62eef8-7ea4-42f8-87ba-4097c26363bb"},"vehicle_type_id":"4","last_reported":1687118797,"current_range_meters":6800,"station_id":"ce4bhjp2rcd13ifvqg90","pricing_plan_id":"free"},{"bike_id":"76e1c873-036c-4884-b45e-02a107f007b1","system_id":"levelo_inurba_marseille","lat":43.26212,"lon":5.37923,"is_reserved":false,"is_disabled":false,"rental_uris":{"android":"levelo://app?vid=76e1c873-036c-4884-b45e-02a107f007b1","ios":"levelo://app?vid=76e1c873-036c-4884-b45e-02a107f007b1"},"vehicle_type_id":"4","last_reported":1687118797,"current_range_meters":31200,"station_id":"ce4bhjp2rcd13ifvqg90","pricing_plan_id":"free"},{"bike_id":"f1ab7711-710b-4353-8066-0674123a7482","system_id":"levelo_inurba_marseille","lat":43.26212,"lon":5.37924,"is_reserved":false,"is_disabled":false,"rental_uris":{"android":"levelo://app?vid=f1ab7711-710b-4353-8066-0674123a7482","ios":"levelo://app?vid=f1ab7711-710b-4353-8066-0674123a7482"},"vehicle_type_id":"4","last_reported":1687118797,"current_range_meters":20400,"station_id":"ce4bhjp2rcd13ifvqg90","pricing_plan_id":"free"},{"bike_id":"e96a64f3-07cb-45e5-a9e2-76966b0746f5","system_id":"levelo_inurba_marseille","lat":43.26211,"lon":5.37919,"is_reserved":false,"is_disabled":false,"rental_uris":{"android":"levelo://app?vid=e96a64f3-07cb-45e5-a9e2-76966b0746f5","ios":"levelo://app?vid=e96a64f3-07cb-45e5-a9e2-76966b0746f5"},"vehicle_type_id":"4","last_reported":1687118797,"current_range_meters":25200,"station_id":"ce4bhjp2rcd13ifvqg90","pricing_plan_id":"free"},{"bike_id":"d54b6070-f92d-46b7-9d8e-dd2a2c443c43","system_id":"levelo_inurba_marseille","lat":43.26212,"lon":5.37928,"is_reserved":false,"is_disabled":false,"rental_uris":{"android":"levelo://app?vid=d54b6070-f92d-46b7-9d8e-dd2a2c443c43","ios":"levelo://app?vid=d54b6070-f92d-46b7-9d8e-dd2a2c443c43"},"vehicle_type_id":"4","last_reported":1687118797,"current_range_meters":19200,"station_id":"ce4bhjp2rcd13ifvqg90","pricing_plan_id":"free"},{"bike_id":"0531736f-8d2d-4926-9ba0-8853709f3afa","system_id":"levelo_inurba_marseille","lat":43.26211,"lon":5.37927,"is_reserved":false,"is_disabled":false,"rental_uris":{"android":"levelo://app?vid=0531736f-8d2d-4926-9ba0-8853709f3afa","ios":"levelo://app?vid=0531736f-8d2d-4926-9ba0-8853709f3afa"},"vehicle_type_id":"4","last_reported":1687118797,"current_range_meters":9200,"station_id":"ce4bhjp2rcd13ifvqg90","pricing_plan_id":"free"},{"bike_id":"b353b798-e889-4861-a62e-7f8dce0c4b66","system_id":"levelo_inurba_marseille","lat":43.26211,"lon":5.37929,"is_reserved":false,"is_disabled":false,"rental_uris":{"android":"levelo://app?vid=b353b798-e889-4861-a62e-7f8dce0c4b66","ios":"levelo://app?vid=b353b798-e889-4861-a62e-7f8dce0c4b66"},"vehicle_type_id":"4","last_reported":1687118797,"current_range_meters":24000,"station_id":"ce4bhjp2rcd13ifvqg90","pricing_plan_id":"free"},{"bike_id":"df5d3469-5fc9-4609-8e68-89374d07e24a","system_id":"levelo_inurba_marseille","lat":43.2621,"lon":5.37924,"is_reserved":false,"is_disabled":false,"rental_uris":{"android":"levelo://app?vid=df5d3469-5fc9-4609-8e68-89374d07e24a","ios":"levelo://app?vid=df5d3469-5fc9-4609-8e68-89374d07e24a"},"vehicle_type_id":"4","last_reported":1687118797,"current_range_meters":0,"station_id":"ce4bhjp2rcd13ifvqg90","pricing_plan_id":"free"},{"bike_id":"1b32d6aa-b30d-45ea-9285-88dc8a39ebcc","system_id":"levelo_inurba_marseille","lat":43.2621,"lon":5.37926,"is_reserved":false,"is_disabled":false,"rental_uris":{"android":"levelo://app?vid=1b32d6aa-b30d-45ea-9285-88dc8a39ebcc","ios":"levelo://app?vid=1b32d6aa-b30d-45ea-9285-88dc8a39ebcc"},"vehicle_type_id":"4","last_reported":1687118797,"current_range_meters":18800,"station_id":"ce4bhjp2rcd13ifvqg90","pricing_plan_id":"free"},{"bike_id":"bfce0a8a-377b-40a8-b89b-d4d178818a55","system_id":"levelo_inurba_marseille","lat":43.2621,"lon":5.37928,"is_reserved":false,"is_disabled":false,"rental_uris":{"android":"levelo://app?vid=bfce0a8a-377b-40a8-b89b-d4d178818a55","ios":"levelo://app?vid=bfce0a8a-377b-40a8-b89b-d4d178818a55"},"vehicle_type_id":"4","last_reported":1687118797,"current_range_meters":400,"station_id":"ce4bhjp2rcd13ifvqg90","pricing_plan_id":"free"},{"bike_id":"ef5dbf20-3dc5-425a-b05b-6f6cdc409ba8","system_id":"levelo_inurba_marseille","lat":43.26209,"lon":5.37926,"is_reserved":false,"is_disabled":false,"rental_uris":{"android":"levelo://app?vid=ef5dbf20-3dc5-425a-b05b-6f6cdc409ba8","ios":"levelo://app?vid=ef5dbf20-3dc5-425a-b05b-6f6cdc409ba8"},"vehicle_type_id":"4","last_reported":1687118797,"current_range_meters":24800,"station_id":"ce4bhjp2rcd13ifvqg90","pricing_plan_id":"free"},{"bike_id":"5a12dbb4-e9b5-4d43-abdc-8fc43f29ddcd","system_id":"levelo_inurba_marseille","lat":43.26209,"lon":5.37928,"is_reserved":false,"is_disabled":false,"rental_uris":{"android":"levelo://app?vid=5a12dbb4-e9b5-4d43-abdc-8fc43f29ddcd","ios":"levelo://app?vid=5a12dbb4-e9b5-4d43-abdc-8fc43f29ddcd"},"vehicle_type_id":"4","last_reported":1687118797,"current_range_meters":16800,"station_id":"ce4bhjp2rcd13ifvqg90","pricing_plan_id":"free"},{"bike_id":"a5e999ca-5f3c-4ad6-a4ca-02aa81b8247f","system_id":"levelo_inurba_marseille","lat":43.26208,"lon":5.37921,"is_reserved":false,"is_disabled":false,"rental_uris":{"android":"levelo://app?vid=a5e999ca-5f3c-4ad6-a4ca-02aa81b8247f","ios":"levelo://app?vid=a5e999ca-5f3c-4ad6-a4ca-02aa81b8247f"},"vehicle_type_id":"4","last_reported":1687118797,"current_range_meters":14800,"station_id":"ce4bhjp2rcd13ifvqg90","pricing_plan_id":"free"},{"bike_id":"2468fa3b-11a7-4887-9be2-f6e527838d7d","system_id":"levelo_inurba_marseille","lat":43.26208,"lon":5.37922,"is_reserved":false,"is_disabled":false,"rental_uris":{"android":"levelo://app?vid=2468fa3b-11a7-4887-9be2-f6e527838d7d","ios":"levelo://app?vid=2468fa3b-11a7-4887-9be2-f6e527838d7d"},"vehicle_type_id":"4","last_reported":1687118797,"current_range_meters":22800,"station_id":"ce4bhjp2rcd13ifvqg90","pricing_plan_id":"free"},{"bike_id":"9242fce0-e2d6-4b22-a886-b74159888c34","system_id":"levelo_inurba_marseille","lat":43.26208,"lon":5.37923,"is_reserved":false,"is_disabled":false,"rental_uris":{"android":"levelo://app?vid=9242fce0-e2d6-4b22-a886-b74159888c34","ios":"levelo://app?vid=9242fce0-e2d6-4b22-a886-b74159888c34"},"vehicle_type_id":"4","last_reported":1687118797,"current_range_meters":18800,"station_id":"ce4bhjp2rcd13ifvqg90","pricing_plan_id":"free"},{"bike_id":"8bd42547-bbd1-45e7-9d41-b4cc9c5b76b8","system_id":"levelo_inurba_marseille","lat":43.26208,"lon":5.379249,"is_reserved":false,"is_disabled":false,"rental_uris":{"android":"levelo://app?vid=8bd42547-bbd1-45e7-9d41-b4cc9c5b76b8","ios":"levelo://app?vid=8bd42547-bbd1-45e7-9d41-b4cc9c5b76b8"},"vehicle_type_id":"4","last_reported":1687118797,"current_range_meters":13200,"station_id":"ce4bhjp2rcd13ifvqg90","pricing_plan_id":"free"},{"bike_id":"b0935a74-0fe0-4b4a-8051-c179e2e05a72","system_id":"levelo_inurba_marseille","lat":43.26208,"lon":5.37925,"is_reserved":false,"is_disabled":false,"rental_uris":{"android":"levelo://app?vid=b0935a74-0fe0-4b4a-8051-c179e2e05a72","ios":"levelo://app?vid=b0935a74-0fe0-4b4a-8051-c179e2e05a72"},"vehicle_type_id":"4","last_reported":1687118797,"current_range_meters":26000,"station_id":"ce4bhjp2rcd13ifvqg90","pricing_plan_id":"free"},{"bike_id":"c97c56e9-5352-4102-b685-b5690dd175eb","system_id":"levelo_inurba_marseille","lat":43.26208,"lon":5.37926,"is_reserved":false,"is_disabled":false,"rental_uris":{"android":"levelo://app?vid=c97c56e9-5352-4102-b685-b5690dd175eb","ios":"levelo://app?vid=c97c56e9-5352-4102-b685-b5690dd175eb"},"vehicle_type_id":"4","last_reported":1687118797,"current_range_meters":28000,"station_id":"ce4bhjp2rcd13ifvqg90","pricing_plan_id":"free"},{"bike_id":"7e3f11d8-2b2d-4027-b513-3b1fa7e427fb","system_id":"levelo_inurba_marseille","lat":43.26207,"lon":5.37919,"is_reserved":false,"is_disabled":false,"rental_uris":{"android":"levelo://app?vid=7e3f11d8-2b2d-4027-b513-3b1fa7e427fb","ios":"levelo://app?vid=7e3f11d8-2b2d-4027-b513-3b1fa7e427fb"},"vehicle_type_id":"4","last_reported":1687118797,"current_range_meters":22400,"station_id":"ce4bhjp2rcd13ifvqg90","pricing_plan_id":"free"},{"bike_id":"225d7332-cba1-4ddb-9cb0-9cd8ad5ce47a","system_id":"levelo_inurba_marseille","lat":43.26208,"lon":5.37927,"is_reserved":false,"is_disabled":false,"rental_uris":{"android":"levelo://app?vid=225d7332-cba1-4ddb-9cb0-9cd8ad5ce47a","ios":"levelo://app?vid=225d7332-cba1-4ddb-9cb0-9cd8ad5ce47a"},"vehicle_type_id":"4","last_reported":1687118797,"current_range_meters":13600,"station_id":"ce4bhjp2rcd13ifvqg90","pricing_plan_id":"free"},{"bike_id":"79d9ae4d-571c-45f1-b1bd-9f9b008a4af2","system_id":"levelo_inurba_marseille","lat":43.26208,"lon":5.37928,"is_reserved":false,"is_disabled":false,"rental_uris":{"android":"levelo://app?vid=79d9ae4d-571c-45f1-b1bd-9f9b008a4af2","ios":"levelo://app?vid=79d9ae4d-571c-45f1-b1bd-9f9b008a4af2"},"vehicle_type_id":"4","last_reported":1687118797,"current_range_meters":31200,"station_id":"ce4bhjp2rcd13ifvqg90","pricing_plan_id":"free"},{"bike_id":"5a5ec0d3-95f6-49f0-891b-57641d5e3e08","system_id":"levelo_inurba_marseille","lat":43.262077,"lon":5.379263,"is_reserved":false,"is_disabled":false,"rental_uris":{"android":"levelo://app?vid=5a5ec0d3-95f6-49f0-891b-57641d5e3e08","ios":"levelo://app?vid=5a5ec0d3-95f6-49f0-891b-57641d5e3e08"},"vehicle_type_id":"4","last_reported":1687118797,"current_range_meters":13600,"station_id":"ce4bhjp2rcd13ifvqg90","pricing_plan_id":"free"},{"bike_id":"b565cc05-4131-442b-a318-fc0277dba6de","system_id":"levelo_inurba_marseille","lat":43.262072,"lon":5.379253,"is_reserved":false,"is_disabled":false,"rental_uris":{"android":"levelo://app?vid=b565cc05-4131-442b-a318-fc0277dba6de","ios":"levelo://app?vid=b565cc05-4131-442b-a318-fc0277dba6de"},"vehicle_type_id":"4","last_reported":1687118797,"current_range_meters":9600,"station_id":"ce4bhjp2rcd13ifvqg90","pricing_plan_id":"free"},{"bike_id":"4e6f9afc-9701-4fa6-be84-70ff7aea75a1","system_id":"levelo_inurba_marseille","lat":43.26207,"lon":5.37928,"is_reserved":false,"is_disabled":false,"rental_uris":{"android":"levelo://app?vid=4e6f9afc-9701-4fa6-be84-70ff7aea75a1","ios":"levelo://app?vid=4e6f9afc-9701-4fa6-be84-70ff7aea75a1"},"vehicle_type_id":"4","last_reported":1687118797,"current_range_meters":30400,"station_id":"ce4bhjp2rcd13ifvqg90","pricing_plan_id":"free"},{"bike_id":"5df8c538-dccf-496a-8562-cbed2b2120d4","system_id":"levelo_inurba_marseille","lat":43.26207,"lon":5.37928,"is_reserved":false,"is_disabled":false,"rental_uris":{"android":"levelo://app?vid=5df8c538-dccf-496a-8562-cbed2b2120d4","ios":"levelo://app?vid=5df8c538-dccf-496a-8562-cbed2b2120d4"},"vehicle_type_id":"4","last_reported":1687118797,"current_range_meters":9600,"station_id":"ce4bhjp2rcd13ifvqg90","pricing_plan_id":"free"},{"bike_id":"5a7902d3-82dd-4af2-ac66-540c0b72ed54","system_id":"levelo_inurba_marseille","lat":43.26207,"lon":5.37928,"is_reserved":false,"is_disabled":false,"rental_uris":{"android":"levelo://app?vid=5a7902d3-82dd-4af2-ac66-540c0b72ed54","ios":"levelo://app?vid=5a7902d3-82dd-4af2-ac66-540c0b72ed54"},"vehicle_type_id":"4","last_reported":1687118797,"current_range_meters":31200,"station_id":"ce4bhjp2rcd13ifvqg90","pricing_plan_id":"free"},{"bike_id":"4f3865cb-5c93-4b02-af96-405243cc878a","system_id":"levelo_inurba_marseille","lat":43.26207,"lon":5.37929,"is_reserved":false,"is_disabled":false,"rental_uris":{"android":"levelo://app?vid=4f3865cb-5c93-4b02-af96-405243cc878a","ios":"levelo://app?vid=4f3865cb-5c93-4b02-af96-405243cc878a"},"vehicle_type_id":"4","last_reported":1687118797,"current_range_meters":25600,"station_id":"ce4bhjp2rcd13ifvqg90","pricing_plan_id":"free"},{"bike_id":"c4b425e8-72a1-4548-9a79-200f4348cd59","system_id":"levelo_inurba_marseille","lat":43.26206,"lon":5.37923,"is_reserved":false,"is_disabled":false,"rental_uris":{"android":"levelo://app?vid=c4b425e8-72a1-4548-9a79-200f4348cd59","ios":"levelo://app?vid=c4b425e8-72a1-4548-9a79-200f4348cd59"},"vehicle_type_id":"4","last_reported":1687118797,"current_range_meters":5200,"station_id":"ce4bhjp2rcd13ifvqg90","pricing_plan_id":"free"},{"bike_id":"cf861f45-a4df-4d03-8b9b-8ec50b197908","system_id":"levelo_inurba_marseille","lat":43.26202,"lon":5.379299,"is_reserved":false,"is_disabled":false,"rental_uris":{"android":"levelo://app?vid=cf861f45-a4df-4d03-8b9b-8ec50b197908","ios":"levelo://app?vid=cf861f45-a4df-4d03-8b9b-8ec50b197908"},"vehicle_type_id":"4","last_reported":1687118797,"current_range_meters":28800,"station_id":"ce4bhjp2rcd13ifvqg90","pricing_plan_id":"free"},{"bike_id":"01321b60-db16-4b5b-99c9-3f6c40fc557c","system_id":"levelo_inurba_marseille","lat":43.26206,"lon":5.37926,"is_reserved":false,"is_disabled":false,"rental_uris":{"android":"levelo://app?vid=01321b60-db16-4b5b-99c9-3f6c40fc557c","ios":"levelo://app?vid=01321b60-db16-4b5b-99c9-3f6c40fc557c"},"vehicle_type_id":"4","last_reported":1687118797,"current_range_meters":6400,"station_id":"ce4bhjp2rcd13ifvqg90","pricing_plan_id":"free"},{"bike_id":"98ebd77c-56e3-4a4c-bc02-3016ce73cc07","system_id":"levelo_inurba_marseille","lat":43.26206,"lon":5.37927,"is_reserved":false,"is_disabled":false,"rental_uris":{"android":"levelo://app?vid=98ebd77c-56e3-4a4c-bc02-3016ce73cc07","ios":"levelo://app?vid=98ebd77c-56e3-4a4c-bc02-3016ce73cc07"},"vehicle_type_id":"4","last_reported":1687118797,"current_range_meters":20400,"station_id":"ce4bhjp2rcd13ifvqg90","pricing_plan_id":"free"},{"bike_id":"e13c36f8-cda0-4fa4-bc94-48fac04bcfcc","system_id":"levelo_inurba_marseille","lat":43.26205,"lon":5.3792,"is_reserved":false,"is_disabled":false,"rental_uris":{"android":"levelo://app?vid=e13c36f8-cda0-4fa4-bc94-48fac04bcfcc","ios":"levelo://app?vid=e13c36f8-cda0-4fa4-bc94-48fac04bcfcc"},"vehicle_type_id":"4","last_reported":1687118797,"current_range_meters":31200,"station_id":"ce4bhjp2rcd13ifvqg90","pricing_plan_id":"free"},{"bike_id":"8081bf1c-8398-4271-bc8a-0c53b16bfae6","system_id":"levelo_inurba_marseille","lat":43.26206,"lon":5.37929,"is_reserved":false,"is_disabled":false,"rental_uris":{"android":"levelo://app?vid=8081bf1c-8398-4271-bc8a-0c53b16bfae6","ios":"levelo://app?vid=8081bf1c-8398-4271-bc8a-0c53b16bfae6"},"vehicle_type_id":"4","last_reported":1687118797,"current_range_meters":16000,"station_id":"ce4bhjp2rcd13ifvqg90","pricing_plan_id":"free"},{"bike_id":"c30fbcd2-2556-43fd-92fc-47b98954db22","system_id":"levelo_inurba_marseille","lat":43.26206,"lon":5.37931,"is_reserved":false,"is_disabled":false,"rental_uris":{"android":"levelo://app?vid=c30fbcd2-2556-43fd-92fc-47b98954db22","ios":"levelo://app?vid=c30fbcd2-2556-43fd-92fc-47b98954db22"},"vehicle_type_id":"4","last_reported":1687118797,"current_range_meters":23200,"station_id":"ce4bhjp2rcd13ifvqg90","pricing_plan_id":"free"},{"bike_id":"16784008-a3d3-454d-9ffe-5cd8b620a76b","system_id":"levelo_inurba_marseille","lat":43.26205,"lon":5.37926,"is_reserved":false,"is_disabled":false,"rental_uris":{"android":"levelo://app?vid=16784008-a3d3-454d-9ffe-5cd8b620a76b","ios":"levelo://app?vid=16784008-a3d3-454d-9ffe-5cd8b620a76b"},"vehicle_type_id":"4","last_reported":1687118797,"current_range_meters":8000,"station_id":"ce4bhjp2rcd13ifvqg90","pricing_plan_id":"free"},{"bike_id":"0a938d4c-4899-4f5a-bdc3-9246531bf0dc","system_id":"levelo_inurba_marseille","lat":43.262059,"lon":5.379335,"is_reserved":false,"is_disabled":false,"rental_uris":{"android":"levelo://app?vid=0a938d4c-4899-4f5a-bdc3-9246531bf0dc","ios":"levelo://app?vid=0a938d4c-4899-4f5a-bdc3-9246531bf0dc"},"vehicle_type_id":"4","last_reported":1687118797,"current_range_meters":10800,"station_id":"ce4bhjp2rcd13ifvqg90","pricing_plan_id":"free"},