{"last_updated":1679332022,"ttl":30,"version":"2.2","data":{"bikes":[{"bike_id":"6dc208cf-c15e-4ac8-b7d6-fd30cf1433a5","system_id":"levelo_inurba_marseille","lat":43.31359,"lon":5.370845,"is_reserved":false,"is_disabled":false,"rental_uris":{"android":"levelo://app?vid=6dc208cf-c15e-4ac8-b7d6-fd30cf1433a5","ios":"levelo://app?vid=6dc208cf-c15e-4ac8-b7d6-fd30cf1433a5"},"vehicle_type_id":"4","last_reported":1679332023,"current_range_meters":0,"station_id":"","pricing_plan_id":"free"},{"bike_id":"5bed14fe-bf8c-4239-b05b-34f9b94f73ed","system_id":"levelo_inurba_marseille","lat":43.309076,"lon":5.368465,"is_reserved":false,"is_disabled":false,"rental_uris":{"android":"levelo://app?vid=5bed14fe-bf8c-4239-b05b-34f9b94f73ed","ios":"levelo://app?vid=5bed14fe-bf8c-4239-b05b-34f9b94f73ed"},"vehicle_type_id":"4","last_reported":1679332023,"current_range_meters":24000,"station_id":"ce4bgn92rcd13ifvqbvg","pricing_plan_id":"free"},{"bike_id":"a8b30905-afc8-447e-a7a6-716a3d055f21","system_id":"levelo_inurba_marseille","lat":43.30184,"lon":5.366219,"is_reserved":false,"is_disabled":false,"rental_uris":{"android":"levelo://app?vid=a8b30905-afc8-447e-a7a6-716a3d055f21","ios":"levelo://app?vid=a8b30905-afc8-447e-a7a6-716a3d055f21"},"vehicle_type_id":"4","last_reported":1679332023,"current_range_meters":0,"station_id":"ce4bgrh2rcd13ifvqc8g","pricing_plan_id":"free"},{"bike_id":"ca786670-e883-44fc-a766-b9f0982bb804","system_id":"levelo_inurba_marseille","lat":43.3133,"lon":5.382195,"is_reserved":false,"is_disabled":false,"rental_uris":{"android":"levelo://app?vid=ca786670-e883-44fc-a766-b9f0982bb804","ios":"levelo://app?vid=ca786670-e883-44fc-a766-b9f0982bb804"},"vehicle_type_id":"4","last_reported":1679332023,"current_range_meters":0,"station_id":"","pricing_plan_id":"free"},{"bike_id":"db27bf6f-7056-4dee-91b8-907f96a50e22","system_id":"levelo_inurba_marseille","lat":43.304606,"lon":5.379026,"is_reserved":false,"is_disabled":false,"rental_uris":{"android":"levelo://app?vid=db27bf6f-7056-4dee-91b8-907f96a50e22","ios":"levelo://app?vid=db27bf6f-7056-4dee-91b8-907f96a50e22"},"vehicle_type_id":"4","last_reported":1679332023,"current_range_meters":29600,"station_id":"ce4bgup2rcd13ifvqcn0","pricing_plan_id":"free"},{"bike_id":"3126e456-863a-433a-851a-881b66505223","system_id":"levelo_inurba_marseille","lat":43.304606,"lon":5.379026,"is_reserved":false,"is_disabled":false,"rental_uris":{"android":"levelo://app?vid=3126e456-863a-433a-851a-881b66505223","ios":"levelo://app?vid=3126e456-863a-433a-851a-881b66505223"},"vehicle_type_id":"4","last_reported":1679332023,"current_range_meters":30400,"station_id":"ce4bgup2rcd13ifvqcn0","pricing_plan_id":"free"},{"bike_id":"53b5053d-27aa-415d-b39d-fa7f69b5e690","system_id":"levelo_inurba_marseille","lat":43.304606,"lon":5.379026,"is_reserved":false,"is_disabled":false,"rental_uris":{"android":"levelo://app?vid=53b5053d-27aa-415d-b39d-fa7f69b5e690","ios":"levelo://app?vid=53b5053d-27aa-415d-b39d-fa7f69b5e690"},"vehicle_type_id":"4","last_reported":1679332023,"current_range_meters":30800,"station_id":"ce4bgup2rcd13ifvqcn0","pricing_plan_id":"free"},{"bike_id":"46b4c708-41e9-49ac-8d5e-97d6d2ab0f9c","system_id":"levelo_inurba_marseille","lat":43.30143,"lon":5.37413,"is_reserved":false,"is_disabled":false,"rental_uris":{"android":"levelo://app?vid=46b4c708-41e9-49ac-8d5e-97d6d2ab0f9c","ios":"levelo://app?vid=46b4c708-41e9-49ac-8d5e-97d6d2ab0f9c"},"vehicle_type_id":"4","last_reported":1679332023,"current_range_meters":0,"station_id":"ce4bgs92rcd13ifvqcc0","pricing_plan_id":"free"},{"bike_id":"7acc1667-d46c-4848-bab0-2da91894b623","system_id":"levelo_inurba_marseille","lat":43.31365,"lon":5.38485,"is_reserved":false,"is_disabled":false,"rental_uris":{"android":"levelo://app?vid=7acc1667-d46c-4848-bab0-2da91894b623","ios":"levelo://app?vid=7acc1667-d46c-4848-bab0-2da91894b623"},"vehicle_type_id":"4","last_reported":1679332023,"current_range_meters":12400,"station_id":"","pricing_plan_id":"free"},{"bike_id":"aabd802c-ae38-4f61-bfd0-5a6cc3558d4a","system_id":"levelo_inurba_marseille","lat":43.31359,"lon":5.38493,"is_reserved":false,"is_disabled":false,"rental_uris":{"android":"levelo://app?vid=aabd802c-ae38-4f61-bfd0-5a6cc3558d4a","ios":"levelo://app?vid=aabd802c-ae38-4f61-bfd0-5a6cc3558d4a"},"vehicle_type_id":"4","last_reported":1679332023,"current_range_meters":0,"station_id":"ce4bgt92rcd13ifvqcf0","pricing_plan_id":"free"},{"bike_id":"1839f2c3-67be-4ce8-badd-61a29e4cf8af","system_id":"levelo_inurba_marseille","lat":43.306223,"lon":5.383255,"is_reserved":false,"is_disabled":false,"rental_uris":{"android":"levelo://app?vid=1839f2c3-67be-4ce8-badd-61a29e4cf8af","ios":"levelo://app?vid=1839f2c3-67be-4ce8-badd-61a29e4cf8af"},"vehicle_type_id":"4","last_reported":1679332023,"current_range_meters":1600,"station_id":"","pricing_plan_id":"free"},{"bike_id":"01ffe7dd-532b-4f21-bec2-d405fecda320","system_id":"levelo_inurba_marseille","lat":43.32575,"lon":5.37456,"is_reserved":false,"is_disabled":false,"rental_uris":{"android":"levelo://app?vid=01ffe7dd-532b-4f21-bec2-d405fecda320","ios":"levelo://app?vid=01ffe7dd-532b-4f21-bec2-d405fecda320"},"vehicle_type_id":"4","last_reported":1679332023,"current_range_meters":12000,"station_id":"","pricing_plan_id":"free"},{"bike_id":"f305b560-d16a-4612-8100-5dcb87352813","system_id":"levelo_inurba_marseille","lat":43.298433,"lon":5.362774,"is_reserved":false,"is_disabled":false,"rental_uris":{"android":"levelo://app?vid=f305b560-d16a-4612-8100-5dcb87352813","ios":"levelo://app?vid=f305b560-d16a-4612-8100-5dcb87352813"},"vehicle_type_id":"4","last_reported":1679332023,"current_range_meters":31600,"station_id":"ce4bgpp2rcd13ifvqc3g","pricing_plan_id":"free"},{"bike_id":"da559938-c2fd-408a-b61d-eddeb0401649","system_id":"levelo_inurba_marseille","lat":43.297897,"lon":5.370993,"is_reserved":false,"is_disabled":false,"rental_uris":{"android":"levelo://app?vid=da559938-c2fd-408a-b61d-eddeb0401649","ios":"levelo://app?vid=da559938-c2fd-408a-b61d-eddeb0401649"},"vehicle_type_id":"4","last_reported":1679332023,"current_range_meters":15600,"station_id":"","pricing_plan_id":"free"},{"bike_id":"3f5f063f-9333-465c-847b-9813a1af56cd","system_id":"levelo_inurba_marseille","lat":43.29782,"lon":5.37096,"is_reserved":false,"is_disabled":false,"rental_uris":{"android":"levelo://app?vid=3f5f063f-9333-465c-847b-9813a1af56cd","ios":"levelo://app?vid=3f5f063f-9333-465c-847b-9813a1af56cd"},"vehicle_type_id":"4","last_reported":1679332023,"current_range_meters":6800,"station_id":"ce4bgop2rcd13ifvqc1g","pricing_plan_id":"free"},{"bike_id":"daba5f0c-ac6a-47ff-93f2-39f7ea05cca7","system_id":"levelo_inurba_marseille","lat":43.328371,"lon":5.366909,"is_reserved":false,"is_disabled":false,"rental_uris":{"android":"levelo://app?vid=daba5f0c-ac6a-47ff-93f2-39f7ea05cca7","ios":"levelo://app?vid=daba5f0c-ac6a-47ff-93f2-39f7ea05cca7"},"vehicle_type_id":"4","last_reported":1679332023,"current_range_meters":9200,"station_id":"ce4bhs92rcd13ifvqi0g","pricing_plan_id":"free"},{"bike_id":"da663c6c-25d1-4d26-8b3f-959e65c080f7","system_id":"levelo_inurba_marseille","lat":43.328371,"lon":5.366909,"is_reserved":false,"is_disabled":false,"rental_uris":{"android":"levelo://app?vid=da663c6c-25d1-4d26-8b3f-959e65c080f7","ios":"levelo://app?vid=da663c6c-25d1-4d26-8b3f-959e65c080f7"},"vehicle_type_id":"4","last_reported":1679332023,"current_range_meters":3600,"station_id":"ce4bhs92rcd13ifvqi0g","pricing_plan_id":"free"},{"bike_id":"1d6fc4c2-ca8b-4616-99d3-6c4abbd1264f","system_id":"levelo_inurba_marseille","lat":43.328371,"lon":5.366909,"is_reserved":false,"is_disabled":false,"rental_uris":{"android":"levelo://app?vid=1d6fc4c2-ca8b-4616-99d3-6c4abbd1264f","ios":"levelo://app?vid=1d6fc4c2-ca8b-4616-99d3-6c4abbd1264f"},"vehicle_type_id":"4","last_reported":1679332023,"current_range_meters":8800,"station_id":"ce4bhs92rcd13ifvqi0g","pricing_plan_id":"free"},{"bike_id":"9c1ebb94-6bf1-4264-aa9c-b8703ff8a0cd","system_id":"levelo_inurba_marseille","lat":43.328371,"lon":5.366909,"is_reserved":false,"is_disabled":false,"rental_uris":{"android":"levelo://app?vid=9c1ebb94-6bf1-4264-aa9c-b8703ff8a0cd","ios":"levelo://app?vid=9c1ebb94-6bf1-4264-aa9c-b8703ff8a0cd"},"vehicle_type_id":"4","last_reported":1679332023,"current_range_meters":3200,"station_id":"ce4bhs92rcd13ifvqi0g","pricing_plan_id":"free"},{"bike_id":"818edbfc-91cb-4113-9969-2f0e6c59a4c2","system_id":"levelo_inurba_marseille","lat":43.29711,"lon":5.37678,"is_reserved":false,"is_disabled":false,"rental_uris":{"android":"levelo://app?vid=818edbfc-91cb-4113-9969-2f0e6c59a4c2","ios":"levelo://app?vid=818edbfc-91cb-4113-9969-2f0e6c59a4c2"},"vehicle_type_id":"4","last_reported":1679332023,"current_range_meters":0,"station_id":"ce4bgkh2rcd13ifvqbl0","pricing_plan_id":"free"},{"bike_id":"ef056ae6-c80f-4377-81c5-d7b5f430bde0","system_id":"levelo_inurba_marseille","lat":43.31768,"lon":5.3901,"is_reserved":false,"is_disabled":false,"rental_uris":{"android":"levelo://app?vid=ef056ae6-c80f-4377-81c5-d7b5f430bde0","ios":"levelo://app?vid=ef056ae6-c80f-4377-81c5-d7b5f430bde0"},"vehicle_type_id":"4","last_reported":1679332023,"current_range_meters":17600,"station_id":"ce4bhqp2rcd13ifvqhng","pricing_plan_id":"free"},{"bike_id":"43391664-88f3-4120-9ae5-96c86844f772","system_id":"levelo_inurba_marseille","lat":43.31759,"lon":5.39016,"is_reserved":false,"is_disabled":false,"rental_uris":{"android":"levelo://app?vid=43391664-88f3-4120-9ae5-96c86844f772","ios":"levelo://app?vid=43391664-88f3-4120-9ae5-96c86844f772"},"vehicle_type_id":"4","last_reported":1679332023,"current_range_meters":4400,"station_id":"ce4bhqp2rcd13ifvqhng","pricing_plan_id":"free"},{"bike_id":"c1acd80c-52a0-40de-8011-743c17934687","system_id":"levelo_inurba_marseille","lat":43.30434,"lon":5.38889,"is_reserved":false,"is_disabled":false,"rental_uris":{"android":"levelo://app?vid=c1acd80c-52a0-40de-8011-743c17934687","ios":"levelo://app?vid=c1acd80c-52a0-40de-8011-743c17934687"},"vehicle_type_id":"4","last_reported":1679332023,"current_range_meters":24400,"station_id":"ce4bgk12rcd13ifvqbi0","pricing_plan_id":"free"},{"bike_id":"75ef2b6a-8921-4861-b18f-2010e27463c3","system_id":"levelo_inurba_marseille","lat":43.29563,"lon":5.37519,"is_reserved":false,"is_disabled":false,"rental_uris":{"android":"levelo://app?vid=75ef2b6a-8921-4861-b18f-2010e27463c3","ios":"levelo://app?vid=75ef2b6a-8921-4861-b18f-2010e27463c3"},"vehicle_type_id":"4","last_reported":1679332023,"current_range_meters":15200,"station_id":"","pricing_plan_id":"free"},{"bike_id":"031c2d0e-05fd-44b2-b602-e4f77861cd84","system_id":"levelo_inurba_marseille","lat":43.32367,"lon":5.388836,"is_reserved":false,"is_disabled":false,"rental_uris":{"android":"levelo://app?vid=031c2d0e-05fd-44b2-b602-e4f77861cd84","ios":"levelo://app?vid=031c2d0e-05fd-44b2-b602-e4f77861cd84"},"vehicle_type_id":"4","last_reported":1679332023,"current_range_meters":9200,"station_id":"ce4bhqp2rcd13ifvqhog","pricing_plan_id":"free"},{"bike_id":"2294b026-98bc-4878-bf16-fa98f2d135b4","system_id":"levelo_inurba_marseille","lat":43.32368,"lon":5.38884,"is_reserved":false,"is_disabled":false,"rental_uris":{"android":"levelo://app?vid=2294b026-98bc-4878-bf16-fa98f2d135b4","ios":"levelo://app?vid=2294b026-98bc-4878-bf16-fa98f2d135b4"},"vehicle_type_id":"4","last_reported":1679332023,"current_range_meters":1200,"station_id":"ce4bhqp2rcd13ifvqhog","pricing_plan_id":"free"},{"bike_id":"156281c9-fed6-41cd-88e2-8448477ebebb","system_id":"levelo_inurba_marseille","lat":43.32367,"lon":5.388836,"is_reserved":false,"is_disabled":false,"rental_uris":{"android":"levelo://app?vid=156281c9-fed6-41cd-88e2-8448477ebebb","ios":"levelo://app?vid=156281c9-fed6-41cd-88e2-8448477ebebb"},"vehicle_type_id":"4","last_reported":1679332023,"current_range_meters":0,"station_id":"ce4bhqp2rcd13ifvqhog","pricing_plan_id":"free"},{"bike_id":"e9c0b177-88aa-430c-a6f4-813de22ad819","system_id":"levelo_inurba_marseille","lat":43.293009,"lon":5.374584,"is_reserved":false,"is_disabled":false,"rental_uris":{"android":"levelo://app?vid=e9c0b177-88aa-430c-a6f4-813de22ad819","ios":"levelo://app?vid=e9c0b177-88aa-430c-a6f4-813de22ad819"},"vehicle_type_id":"4","last_reported":1679332023,"current_range_meters":9600,"station_id":"ce4bgi12rcd13ifvqb70","pricing_plan_id":"free"},{"bike_id":"d3c4a819-7362-4249-9d23-c6ad0095d13f","system_id":"levelo_inurba_marseille","lat":43.300852,"lon":5.390859,"is_reserved":false,"is_disabled":false,"rental_uris":{"android":"levelo://app?vid=d3c4a819-7362-4249-9d23-c6ad0095d13f","ios":"levelo://app?vid=d3c4a819-7362-4249-9d23-c6ad0095d13f"},"vehicle_type_id":"4","last_reported":1679332023,"current_range_meters":4800,"station_id":"ce4bh192rcd13ifvqdb0","pricing_plan_id":"free"},{"bike_id":"47321c12-dfed-4bf7-a2e8-7fa52b0a4fca","system_id":"levelo_inurba_marseille","lat":43.300852,"lon":5.390859,"is_reserved":false,"is_disabled":false,"rental_uris":{"android":"levelo://app?vid=47321c12-dfed-4bf7-a2e8-7fa52b0a4fca","ios":"levelo://app?vid=47321c12-dfed-4bf7-a2e8-7fa52b0a4fca"},"vehicle_type_id":"4","last_reported":1679332023,"current_range_meters":800,"station_id":"ce4bh192rcd13ifvqdb0","pricing_plan_id":"free"},{"bike_id":"6632ffa5-8bbd-4192-8b71-09ba2b5564d9","system_id":"levelo_inurba_marseille","lat":43.313291,"lon":5.396838,"is_reserved":false,"is_disabled":false,"rental_uris":{"android":"levelo://app?vid=6632ffa5-8bbd-4192-8b71-09ba2b5564d9","ios":"levelo://app?vid=6632ffa5-8bbd-4192-8b71-09ba2b5564d9"},"vehicle_type_id":"4","last_reported":1679332023,"current_range_meters":20000,"station_id":"ce4bgvp2rcd13ifvqcu0","pricing_plan_id":"free"},{"bike_id":"b1ee2c08-ff00-4e2e-a125-80daf79020d4","system_id":"levelo_inurba_marseille","lat":43.291671,"lon":5.371575,"is_reserved":false,"is_disabled":false,"rental_uris":{"android":"levelo://app?vid=b1ee2c08-ff00-4e2e-a125-80daf79020d4","ios":"levelo://app?vid=b1ee2c08-ff00-4e2e-a125-80daf79020d4"},"vehicle_type_id":"4","last_reported":1679332023,"current_range_meters":8800,"station_id":"ce4bha92rcd13ifvqeh0","pricing_plan_id":"free"},{"bike_id":"d2447533-0eff-4e01-b71a-9aa7ed3da875","system_id":"levelo_inurba_marseille","lat":43.298764,"lon":5.388973,"is_reserved":false,"is_disabled":false,"rental_uris":{"android":"levelo://app?vid=d2447533-0eff-4e01-b71a-9aa7ed3da875","ios":"levelo://app?vid=d2447533-0eff-4e01-b71a-9aa7ed3da875"},"vehicle_type_id":"4","last_reported":1679332023,"current_range_meters":11200,"station_id":"ce4bh392rcd13ifvqdl0","pricing_plan_id":"free"},{"bike_id":"bfd8ab51-170e-40a8-a2c7-d72c0423fb49","system_id":"levelo_inurba_marseille","lat":43.32504,"lon":5.39119,"is_reserved":false,"is_disabled":false,"rental_uris":{"android":"levelo://app?vid=bfd8ab51-170e-40a8-a2c7-d72c0423fb49","ios":"levelo://app?vid=bfd8ab51-170e-40a8-a2c7-d72c0423fb49"},"vehicle_type_id":"4","last_reported":1679332023,"current_range_meters":16400,"station_id":"","pricing_plan_id":"free"},{"bike_id":"dc46f849-62cf-47d9-993c-25d51a98d655","system_id":"levelo_inurba_marseille","lat":43.280708,"lon":5.505521,"is_reserved":false,"is_disabled":false,"rental_uris":{"android":"levelo://app?vid=dc46f849-62cf-47d9-993c-25d51a98d655","ios":"levelo://app?vid=dc46f849-62cf-47d9-993c-25d51a98d655"},"vehicle_type_id":"4","last_reported":1679332023,"current_range_meters":800,"station_id":"","pricing_plan_id":"free"},{"bike_id":"59eb55e4-283d-45ab-ae43-3bcbb892a745","system_id":"levelo_inurba_marseille","lat":43.29529,"lon":5.385581,"is_reserved":false,"is_disabled":false,"rental_uris":{"android":"levelo://app?vid=59eb55e4-283d-45ab-ae43-3bcbb892a745","ios":"levelo://app?vid=59eb55e4-283d-45ab-ae43-3bcbb892a745"},"vehicle_type_id":"4","last_reported":1679332023,"current_range_meters":10400,"station_id":"ce4bgih2rcd13ifvqba0","pricing_plan_id":"free"},{"bike_id":"8d414ea4-ff33-443a-844f-c6bf0ed9384c","system_id":"levelo_inurba_marseille","lat":43.29529,"lon":5.385581,"is_reserved":false,"is_disabled":false,"rental_uris":{"android":"levelo://app?vid=8d414ea4-ff33-443a-844f-c6bf0ed9384c","ios":"levelo://app?vid=8d414ea4-ff33-443a-844f-c6bf0ed9384c"},"vehicle_type_id":"4","last_reported":1679332023,"current_range_meters":14800,"station_id":"ce4bgih2rcd13ifvqba0","pricing_plan_id":"free"},{"bike_id":"45afa451-61d8-4405-91d1-0a73e401942e","system_id":"levelo_inurba_marseille","lat":43.30209,"lon":5.39461,"is_reserved":false,"is_disabled":false,"rental_uris":{"android":"levelo://app?vid=45afa451-61d8-4405-91d1-0a73e401942e","ios":"levelo://app?vid=45afa451-61d8-4405-91d1-0a73e401942e"},"vehicle_type_id":"4","last_reported":1679332023,"current_range_meters":8800,"station_id":"ce4bh0p2rcd13ifvqd70","pricing_plan_id":"free"},{"bike_id":"e5266100-c1df-404c-8e6d-68f8e8b14fec","system_id":"levelo_inurba_marseille","lat":43.290327,"lon":5.375711,"is_reserved":false,"is_disabled":false,"rental_uris":{"android":"levelo://app?vid=e5266100-c1df-404c-8e6d-68f8e8b14fec","ios":"levelo://app?vid=e5266100-c1df-404c-8e6d-68f8e8b14fec"},"vehicle_type_id":"4","last_reported":1679332023,"current_range_meters":0,"station_id":"ce4bh692rcd13ifvqe90","pricing_plan_id":"free"},{"bike_id":"a6f7ea1a-28eb-4317-99c0-b5f109fb07ba","system_id":"levelo_inurba_marseille","lat":43.294198,"lon":5.3863,"is_reserved":false,"is_disabled":false,"rental_uris":{"android":"levelo://app?vid=a6f7ea1a-28eb-4317-99c0-b5f109fb07ba","ios":"levelo://app?vid=a6f7ea1a-28eb-4317-99c0-b5f109fb07ba"},"vehicle_type_id":"4","last_reported":1679332023,"current_range_meters":20000,"station_id":"ce4bh2h2rcd13ifvqdh0","pricing_plan_id":"free"},{"bike_id":"1ffa9fe7-1b18-4598-aa6d-cc11a3339390","system_id":"levelo_inurba_marseille","lat":43.294162,"lon":5.386292,"is_reserved":false,"is_disabled":false,"rental_uris":{"android":"levelo://app?vid=1ffa9fe7-1b18-4598-aa6d-cc11a3339390","ios":"levelo://app?vid=1ffa9fe7-1b18-4598-aa6d-cc11a3339390"},"vehicle_type_id":"4","last_reported":1679332023,"current_range_meters":6800,"station_id":"ce4bh2h2rcd13ifvqdh0","pricing_plan_id":"free"},{"bike_id":"c23528d3-c143-4a38-8954-176aac82ec89","system_id":"levelo_inurba_marseille","lat":43.28942,"lon":5.36633,"is_reserved":false,"is_disabled":false,"rental_uris":{"android":"levelo://app?vid=c23528d3-c143-4a38-8954-176aac82ec89","ios":"levelo://app?vid=c23528d3-c143-4a38-8954-176aac82ec89"},"vehicle_type_id":"4","last_reported":1679332023,"current_range_meters":16000,"station_id":"","pricing_plan_id":"free"},{"bike_id":"b9c3ce21-3d69-4ee0-90f0-907ff2a6555f","system_id":"levelo_inurba_marseille","lat":43.292721,"lon":5.384525,"is_reserved":false,"is_disabled":false,"rental_uris":{"android":"levelo://app?vid=b9c3ce21-3d69-4ee0-90f0-907ff2a6555f","ios":"levelo://app?vid=b9c3ce21-3d69-4ee0-90f0-907ff2a6555f"},"vehicle_type_id":"4","last_reported":1679332023,"current_range_meters":8000,"station_id":"ce4bh692rcd13ifvqea0","pricing_plan_id":"free"},{"bike_id":"ce047452-0524-457b-a341-338daa5ab47c","system_id":"levelo_inurba_marseille","lat":43.29259,"lon":5.38441,"is_reserved":false,"is_disabled":false,"rental_uris":{"android":"levelo://app?vid=ce047452-0524-457b-a341-338daa5ab47c","ios":"levelo://app?vid=ce047452-0524-457b-a341-338daa5ab47c"},"vehicle_type_id":"4","last_reported":1679332023,"current_range_meters":0,"station_id":"ce4bh692rcd13ifvqea0","pricing_plan_id":"free"},{"bike_id":"be64964e-8039-4efb-af57-43eb7da88bb5","system_id":"levelo_inurba_marseille","lat":43.290104,"lon":5.356111,"is_reserved":false,"is_disabled":false,"rental_uris":{"android":"levelo://app?vid=be64964e-8039-4efb-af57-43eb7da88bb5","ios":"levelo://app?vid=be64964e-8039-4efb-af57-43eb7da88bb5"},"vehicle_type_id":"4","last_reported":1679332023,"current_range_meters":12800,"station_id":"ce4bhb92rcd13ifvqen0","pricing_plan_id":"free"},{"bike_id":"b1fd6745-b6dd-4883-a4f2-bb234ac3b3b4","system_id":"levelo_inurba_marseille","lat":43.290104,"lon":5.356111,"is_reserved":false,"is_disabled":false,"rental_uris":{"android":"levelo://app?vid=b1fd6745-b6dd-4883-a4f2-bb234ac3b3b4","ios":"levelo://app?vid=b1fd6745-b6dd-4883-a4f2-bb234ac3b3b4"},"vehicle_type_id":"4","last_reported":1679332023,"current_range_meters":17600,"station_id":"ce4bhb92rcd13ifvqen0","pricing_plan_id":"free"},{"bike_id":"c10c9430-99c6-4585-adaf-d1f7438fcb8e","system_id":"levelo_inurba_marseille","lat":43.330442,"lon":5.389148,"is_reserved":false,"is_disabled":false,"rental_uris":{"android":"levelo://app?vid=c10c9430-99c6-4585-adaf-d1f7438fcb8e","ios":"levelo://app?vid=c10c9430-99c6-4585-adaf-d1f7438fcb8e"},"vehicle_type_id":"4","last_reported":1679332023,"current_range_meters":2400,"station_id":"ce4bhr92rcd13ifvqhrg","pricing_plan_id":"free"},{"bike_id":"0a0be556-e235-4b25-8ceb-1d9c720f5896","system_id":"levelo_inurba_marseille","lat":43.290104,"lon":5.356111,"is_reserved":false,"is_disabled":false,"rental_uris":{"android":"levelo://app?vid=0a0be556-e235-4b25-8ceb-1d9c720f5896","ios":"levelo://app?vid=0a0be556-e235-4b25-8ceb-1d9c720f5896"},"vehicle_type_id":"4","last_reported":1679332023,"current_range_meters":8400,"station_id":"ce4bhb92rcd13ifvqen0","pricing_plan_id":"free"},{"bike_id":"bc4bca56-4911-4572-b6de-c2ee3f8345c9","system_id":"levelo_inurba_marseille","lat":43.290104,"lon":5.356111,"is_reserved":false,"is_disabled":false,"rental_uris":{"android":"levelo://app?vid=bc4bca56-4911-4572-b6de-c2ee3f8345c9","ios":"levelo://app?vid=bc4bca56-4911-4572-b6de-c2ee3f8345c9"},"vehicle_type_id":"4","last_reported":1679332023,"current_range_meters":4800,"station_id":"ce4bhb92rcd13ifvqen0","pricing_plan_id":"free"},{"bike_id":"49256d0d-a848-4cf9-91c8-59fca47a5a80","system_id":"levelo_inurba_marseille","lat":43.289777,"lon":5.378413,"is_reserved":false,"is_disabled":false,"rental_uris":{"android":"levelo://app?vid=49256d0d-a848-4cf9-91c8-59fca47a5a80","ios":"levelo://app?vid=49256d0d-a848-4cf9-91c8-59fca47a5a80"},"vehicle_type_id":"4","last_reported":1679332023,"current_range_meters":0,"station_id":"","pricing_plan_id":"free"},{"bike_id":"3eed6fc3-b431-4ad0-bab8-738a737c4a54","system_id":"levelo_inurba_marseille","lat":43.3375,"lon":5.37482,"is_reserved":false,"is_disabled":false,"rental_uris":{"android":"levelo://app?vid=3eed6fc3-b431-4ad0-bab8-738a737c4a54","ios":"levelo://app?vid=3eed6fc3-b431-4ad0-bab8-738a737c4a54"},"vehicle_type_id":"4","last_reported":1679332023,"current_range_meters":0,"station_id":"","pricing_plan_id":"free"},{"bike_id":"afb07530-8999-41ca-bbde-22d38dcbdf4d","system_id":"levelo_inurba_marseille","lat":43.306457,"lon":5.400866,"is_reserved":false,"is_disabled":false,"rental_uris":{"android":"levelo://app?vid=afb07530-8999-41ca-bbde-22d38dcbdf4d","ios":"levelo://app?vid=afb07530-8999-41ca-bbde-22d38dcbdf4d"},"vehicle_type_id":"4","last_reported":1679332023,"current_range_meters":4400,"station_id":"","pricing_plan_id":"free"},{"bike_id":"1ae20845-2abc-4a3d-975b-2cf19a6bfef9","system_id":"levelo_inurba_marseille","lat":43.301117,"lon":5.398795,"is_reserved":false,"is_disabled":false,"rental_uris":{"android":"levelo://app?vid=1ae20845-2abc-4a3d-975b-2cf19a6bfef9","ios":"levelo://app?vid=1ae20845-2abc-4a3d-975b-2cf19a6bfef9"},"vehicle_type_id":"4","last_reported":1679332023,"current_range_meters":14800,"station_id":"ce4bh0h2rcd13ifvqd40","pricing_plan_id":"free"},{"bike_id":"d00f5909-5f81-4c65-aef8-59159b5a2628","system_id":"levelo_inurba_marseille","lat":43.295427,"lon":5.393774,"is_reserved":false,"is_disabled":false,"rental_uris":{"android":"levelo://app?vid=d00f5909-5f81-4c65-aef8-59159b5a2628","ios":"levelo://app?vid=d00f5909-5f81-4c65-aef8-59159b5a2628"},"vehicle_type_id":"4","last_reported":1679332023,"current_range_meters":21200,"station_id":"ce4bh212rcd13ifvqde0","pricing_plan_id":"free"},{"bike_id":"29e10933-f6d1-456d-8be9-d26e469f218a","system_id":"levelo_inurba_marseille","lat":43.286593,"lon":5.363346,"is_reserved":false,"is_disabled":false,"rental_uris":{"android":"levelo://app?vid=29e10933-f6d1-456d-8be9-d26e469f218a","ios":"levelo://app?vid=29e10933-f6d1-456d-8be9-d26e469f218a"},"vehicle_type_id":"4","last_reported":1679332023,"current_range_meters":8000,"station_id":"ce4bhah2rcd13ifvqej0","pricing_plan_id":"free"},{"bike_id":"4d14b25a-baed-4b2a-85b4-4d2c46ccc793","system_id":"levelo_inurba_marseille","lat":43.302759,"lon":5.400793,"is_reserved":false,"is_disabled":false,"rental_uris":{"android":"levelo://app?vid=4d14b25a-baed-4b2a-85b4-4d2c46ccc793","ios":"levelo://app?vid=4d14b25a-baed-4b2a-85b4-4d2c46ccc793"},"vehicle_type_id":"4","last_reported":1679332023,"current_range_meters":30400,"station_id":"ce4bgvh2rcd13ifvqcs0","pricing_plan_id":"free"},{"bike_id":"2bdd7b90-a6e7-44d9-8b59-81fa5f8b4877","system_id":"levelo_inurba_marseille","lat":43.302375,"lon":5.400565,"is_reserved":false,"is_disabled":false,"rental_uris":{"android":"levelo://app?vid=2bdd7b90-a6e7-44d9-8b59-81fa5f8b4877","ios":"levelo://app?vid=2bdd7b90-a6e7-44d9-8b59-81fa5f8b4877"},"vehicle_type_id":"4","last_reported":1679332023,"current_range_meters":24800,"station_id":"","pricing_plan_id":"free"},{"bike_id":"61e17c13-78b9-4597-85a9-3bd7621898dd","system_id":"levelo_inurba_marseille","lat":43.300749,"lon":5.399592,"is_reserved":false,"is_disabled":false,"rental_uris":{"android":"levelo://app?vid=61e17c13-78b9-4597-85a9-3bd7621898dd","ios":"levelo://app?vid=61e17c13-78b9-4597-85a9-3bd7621898dd"},"vehicle_type_id":"4","last_reported":1679332023,"current_range_meters":0,"station_id":"","pricing_plan_id":"free"},{"bike_id":"56503b67-2a15-4229-80fd-2cac6f5ccc68","system_id":"levelo_inurba_marseille","lat":43.302512,"lon":5.400721,"is_reserved":false,"is_disabled":false,"rental_uris":{"android":"levelo://app?vid=56503b67-2a15-4229-80fd-2cac6f5ccc68","ios":"levelo://app?vid=56503b67-2a15-4229-80fd-2cac6f5ccc68"},"vehicle_type_id":"4","last_reported":1679332023,"current_range_meters":26000,"station_id":"","pricing_plan_id":"free"},{"bike_id":"80bb57ac-01fd-4eeb-af81-2db7dd40233a","system_id":"levelo_inurba_marseille","lat":43.302759,"lon":5.400793,"is_reserved":false,"is_disabled":false,"rental_uris":{"android":"levelo://app?vid=80bb57ac-01fd-4eeb-af81-2db7dd40233a","ios":"levelo://app?vid=80bb57ac-01fd-4eeb-af81-2db7dd40233a"},"vehicle_type_id":"4","last_reported":1679332023,"current_range_meters":800,"station_id":"ce4bgvh2rcd13ifvqcs0","pricing_plan_id":"free"},{"bike_id":"a3ee29bc-da09-483b-829f-a2f706dbbefb","system_id":"levelo_inurba_marseille","lat":43.28717,"lon":5.37929,"is_reserved":false,"is_disabled":false,"rental_uris":{"android":"levelo://app?vid=a3ee29bc-da09-483b-829f-a2f706dbbefb","ios":"levelo://app?vid=a3ee29bc-da09-483b-829f-a2f706dbbefb"},"vehicle_type_id":"4","last_reported":1679332023,"current_range_meters":7200,"station_id":"ce4bh9p2rcd13ifvqec0","pricing_plan_id":"free"},{"bike_id":"3c7fba74-577f-4a76-94c5-87b30975995c","system_id":"levelo_inurba_marseille","lat":43.316517,"lon":5.404375,"is_reserved":false,"is_disabled":false,"rental_uris":{"android":"levelo://app?vid=3c7fba74-577f-4a76-94c5-87b30975995c","ios":"levelo://app?vid=3c7fba74-577f-4a76-94c5-87b30975995c"},"vehicle_type_id":"4","last_reported":1679332023,"current_range_meters":19600,"station_id":"ce4bh012rcd13ifvqd00","pricing_plan_id":"free"},{"bike_id":"d2546720-a56d-47a3-b3ce-cdbfde1ec8a2","system_id":"levelo_inurba_marseille","lat":43.316517,"lon":5.404375,"is_reserved":false,"is_disabled":false,"rental_uris":{"android":"levelo://app?vid=d2546720-a56d-47a3-b3ce-cdbfde1ec8a2","ios":"levelo://app?vid=d2546720-a56d-47a3-b3ce-cdbfde1ec8a2"},"vehicle_type_id":"4","last_reported":1679332023,"current_range_meters":8400,"station_id":"ce4bh012rcd13ifvqd00","pricing_plan_id":"free"},{"bike_id":"002b91b3-19d5-4bb0-a2dc-67590f590a28","system_id":"levelo_inurba_marseille","lat":43.284645,"lon":5.358915,"is_reserved":false,"is_disabled":false,"rental_uris":{"android":"levelo://app?vid=002b91b3-19d5-4bb0-a2dc-67590f590a28","ios":"levelo://app?vid=002b91b3-19d5-4bb0-a2dc-67590f590a28"},"vehicle_type_id":"4","last_reported":1679332023,"current_range_meters":0,"station_id":"","pricing_plan_id":"free"},{"bike_id":"10f30465-8648-4e76-851a-7c947b485606","system_id":"levelo_inurba_marseille","lat":43.28464,"lon":5.35882,"is_reserved":false,"is_disabled":false,"rental_uris":{"android":"levelo://app?vid=10f30465-8648-4e76-851a-7c947b485606","ios":"levelo://app?vid=10f30465-8648-4e76-851a-7c947b485606"},"vehicle_type_id":"4","last_reported":1679332023,"current_range_meters":22000,"station_id":"","pricing_plan_id":"free"},{"bike_id":"006bb0b1-cd64-4348-b93e-c32db1b960c4","system_id":"levelo_inurba_marseille","lat":43.28461,"lon":5.35884,"is_reserved":false,"is_disabled":false,"rental_uris":{"android":"levelo://app?vid=006bb0b1-cd64-4348-b93e-c32db1b960c4","ios":"levelo://app?vid=006bb0b1-cd64-4348-b93e-c32db1b960c4"},"vehicle_type_id":"4","last_reported":1679332023,"current_range_meters":11200,"station_id":"","pricing_plan_id":"free"},{"bike_id":"7f44b848-4801-47f0-bf9d-bfdeb6f35470","system_id":"levelo_inurba_marseille","lat":43.284584,"lon":5.358934,"is_reserved":false,"is_disabled":false,"rental_uris":{"android":"levelo://app?vid=7f44b848-4801-47f0-bf9d-bfdeb6f35470","ios":"levelo://app?vid=7f44b848-4801-47f0-bf9d-bfdeb6f35470"},"vehicle_type_id":"4","last_reported":1679332023,"current_range_meters":7200,"station_id":"","pricing_plan_id":"free"},{"bike_id":"76d481b0-ece4-4b32-87f7-6fe6c15e1c02","system_id":"levelo_inurba_marseille","lat":43.295713,"lon":5.399639,"is_reserved":false,"is_disabled":false,"rental_uris":{"android":"levelo://app?vid=76d481b0-ece4-4b32-87f7-6fe6c15e1c02","ios":"levelo://app?vid=76d481b0-ece4-4b32-87f7-6fe6c15e1c02"},"vehicle_type_id":"4","last_reported":1679332023,"current_range_meters":28800,"station_id":"ce4bh312rcd13ifvqdj0","pricing_plan_id":"free"},{"bike_id":"6124e393-3760-440d-9317-5c8e8640b8c2","system_id":"levelo_inurba_marseille","lat":43.295704,"lon":5.399725,"is_reserved":false,"is_disabled":false,"rental_uris":{"android":"levelo://app?vid=6124e393-3760-440d-9317-5c8e8640b8c2","ios":"levelo://app?vid=6124e393-3760-440d-9317-5c8e8640b8c2"},"vehicle_type_id":"4","last_reported":1679332023,"current_range_meters":11600,"station_id":"","pricing_plan_id":"free"},{"bike_id":"e5725ef8-b8b1-4492-a11d-0f97d5402c7e","system_id":"levelo_inurba_marseille","lat":43.295713,"lon":5.399639,"is_reserved":false,"is_disabled":false,"rental_uris":{"android":"levelo://app?vid=e5725ef8-b8b1-4492-a11d-0f97d5402c7e","ios":"levelo://app?vid=e5725ef8-b8b1-4492-a11d-0f97d5402c7e"},"vehicle_type_id":"4","last_reported":1679332023,"current_range_meters":28800,"station_id":"ce4bh312rcd13ifvqdj0","pricing_plan_id":"free"},{"bike_id":"4a1f2d95-a126-42ba-a42c-98541c663edb","system_id":"levelo_inurba_marseille","lat":43.295713,"lon":5.399639,"is_reserved":false,"is_disabled":false,"rental_uris":{"android":"levelo://app?vid=4a1f2d95-a126-42ba-a42c-98541c663edb","ios":"levelo://app?vid=4a1f2d95-a126-42ba-a42c-98541c663edb"},"vehicle_type_id":"4","last_reported":1679332023,"current_range_meters":16000,"station_id":"ce4bh312rcd13ifvqdj0","pricing_plan_id":"free"},{"bike_id":"d9fbba47-b02a-470c-b665-5ef72dca8265","system_id":"levelo_inurba_marseille","lat":43.32333,"lon":5.40621,"is_reserved":false,"is_disabled":false,"rental_uris":{"android":"levelo://app?vid=d9fbba47-b02a-470c-b665-5ef72dca8265","ios":"levelo://app?vid=d9fbba47-b02a-470c-b665-5ef72dca8265"},"vehicle_type_id":"4","last_reported":1679332023,"current_range_meters":0,"station_id":"","pricing_plan_id":"free"},{"bike_id":"a38a8991-d607-4321-aa4c-c49c4c92ac06","system_id":"levelo_inurba_marseille","lat":43.288497,"lon":5.393089,"is_reserved":false,"is_disabled":false,"rental_uris":{"android":"levelo://app?vid=a38a8991-d607-4321-aa4c-c49c4c92ac06","ios":"levelo://app?vid=a38a8991-d607-4321-aa4c-c49c4c92ac06"},"vehicle_type_id":"4","last_reported":1679332023,"current_range_meters":29600,"station_id":"ce4bh2p2rcd13ifvqdi0","pricing_plan_id":"free"},{"bike_id":"334a0070-6e30-4530-9b05-82e171e65986","system_id":"levelo_inurba_marseille","lat":43.288497,"lon":5.393089,"is_reserved":false,"is_disabled":false,"rental_uris":{"android":"levelo://app?vid=334a0070-6e30-4530-9b05-82e171e65986","ios":"levelo://app?vid=334a0070-6e30-4530-9b05-82e171e65986"},"vehicle_type_id":"4","last_reported":1679332023,"current_range_meters":28400,"station_id":"ce4bh2p2rcd13ifvqdi0","pricing_plan_id":"free"},{"bike_id":"5585f202-f074-4e2c-8317-9b40acd01d3b","system_id":"levelo_inurba_marseille","lat":43.288497,"lon":5.393089,"is_reserved":false,"is_disabled":false,"rental_uris":{"android":"levelo://app?vid=5585f202-f074-4e2c-8317-9b40acd01d3b","ios":"levelo://app?vid=5585f202-f074-4e2c-8317-9b40acd01d3b"},"vehicle_type_id":"4","last_reported":1679332023,"current_range_meters":30400,"station_id":"ce4bh2p2rcd13ifvqdi0","pricing_plan_id":"free"},{"bike_id":"0ab4f3af-265b-4ca6-880b-ce63086335fb","system_id":"levelo_inurba_marseille","lat":43.288501,"lon":5.393087,"is_reserved":false,"is_disabled":false,"rental_uris":{"android":"levelo://app?vid=0ab4f3af-265b-4ca6-880b-ce63086335fb","ios":"levelo://app?vid=0ab4f3af-265b-4ca6-880b-ce63086335fb"},"vehicle_type_id":"4","last_reported":1679332023,"current_range_meters":31600,"station_id":"ce4bh2p2rcd13ifvqdi0","pricing_plan_id":"free"},{"bike_id":"6d7be15c-8e63-4478-bf81-137950fce502","system_id":"levelo_inurba_marseille","lat":43.288501,"lon":5.393087,"is_reserved":false,"is_disabled":false,"rental_uris":{"android":"levelo://app?vid=6d7be15c-8e63-4478-bf81-137950fce502","ios":"levelo://app?vid=6d7be15c-8e63-4478-bf81-137950fce502"},"vehicle_type_id":"4","last_reported":1679332023,"current_range_meters":26800,"station_id":"ce4bh2p2rcd13ifvqdi0","pricing_plan_id":"free"},{"bike_id":"a12f062d-9d3f-4f34-8c4d-7be0df83b721","system_id":"levelo_inurba_marseille","lat":43.288497,"lon":5.393089,"is_reserved":false,"is_disabled":false,"rental_uris":{"android":"levelo://app?vid=a12f062d-9d3f-4f34-8c4d-7be0df83b721","ios":"levelo://app?vid=a12f062d-9d3f-4f34-8c4d-7be0df83b721"},"vehicle_type_id":"4","last_reported":1679332023,"current_range_meters":10000,"station_id":"ce4bh2p2rcd13ifvqdi0","pricing_plan_id":"free"},{"bike_id":"7299efc4-806f-433e-bee5-5f85211e7384","system_id":"levelo_inurba_marseille","lat":43.288501,"lon":5.393087,"is_reserved":false,"is_disabled":false,"rental_uris":{"android":"levelo://app?vid=7299efc4-806f-433e-bee5-5f85211e7384","ios":"levelo://app?vid=7299efc4-806f-433e-bee5-5f85211e7384"},"vehicle_type_id":"4","last_reported":1679332023,"current_range_meters":29200,"station_id":"ce4bh2p2rcd13ifvqdi0","pricing_plan_id":"free"},{"bike_id":"2f056c91-0089-4f9a-aeaa-89b0b3f8dd2e","system_id":"levelo_inurba_marseille","lat":43.288497,"lon":5.393089,"is_reserved":false,"is_disabled":false,"rental_uris":{"android":"levelo://app?vid=2f056c91-0089-4f9a-aeaa-89b0b3f8dd2e","ios":"levelo://app?vid=2f056c91-0089-4f9a-aeaa-89b0b3f8dd2e"},"vehicle_type_id":"4","last_reported":1679332023,"current_range_meters":24800,"station_id":"ce4bh2p2rcd13ifvqdi0","pricing_plan_id":"free"},{"bike_id":"478bddde-f771-4375-8fbc-93281eea6c53","system_id":"levelo_inurba_marseille","lat":43.288501,"lon":5.393087,"is_reserved":false,"is_disabled":false,"rental_uris":{"android":"levelo://app?vid=478bddde-f771-4375-8fbc-93281eea6c53","ios":"levelo://app?vid=478bddde-f771-4375-8fbc-93281eea6c53"},"vehicle_type_id":"4","last_reported":1679332023,"current_range_meters":17200,"station_id":"ce4bh2p2rcd13ifvqdi0","pricing_plan_id":"free"},{"bike_id":"5af44542-e52c-4b15-a0b4-0a513dba0933","system_id":"levelo_inurba_marseille","lat":43.288501,"lon":5.393087,"is_reserved":false,"is_disabled":false,"rental_uris":{"android":"levelo://app?vid=5af44542-e52c-4b15-a0b4-0a513dba0933","ios":"levelo://app?vid=5af44542-e52c-4b15-a0b4-0a513dba0933"},"vehicle_type_id":"4","last_reported":1679332023,"current_range_meters":28800,"station_id":"ce4bh2p2rcd13ifvqdi0","pricing_plan_id":"free"},{"bike_id":"fe4be6d3-996b-4a10-a27f-0e586c13bc7e","system_id":"levelo_inurba_marseille","lat":43.32405,"lon":5.40672,"is_reserved":false,"is_disabled":false,"rental_uris":{"android":"levelo://app?vid=fe4be6d3-996b-4a10-a27f-0e586c13bc7e","ios":"levelo://app?vid=fe4be6d3-996b-4a10-a27f-0e586c13bc7e"},"vehicle_type_id":"4","last_reported":1679332023,"current_range_meters":5200,"station_id":"","pricing_plan_id":"free"},{"bike_id":"218bf5be-3a8b-43a2-acec-fbe4a6c34b85","system_id":"levelo_inurba_marseille","lat":43.292724,"lon":5.401131,"is_reserved":false,"is_disabled":false,"rental_uris":{"android":"levelo://app?vid=218bf5be-3a8b-43a2-acec-fbe4a6c34b85","ios":"levelo://app?vid=218bf5be-3a8b-43a2-acec-fbe4a6c34b85"},"vehicle_type_id":"4","last_reported":1679332023,"current_range_meters":15200,"station_id":"ce4bh312rcd13ifvqdk0","pricing_plan_id":"free"},{"bike_id":"be7fa38a-991a-429d-a732-5698f3145061","system_id":"levelo_inurba_marseille","lat":43.282754,"lon":5.350519,"is_reserved":false,"is_disabled":false,"rental_uris":{"android":"levelo://app?vid=be7fa38a-991a-429d-a732-5698f3145061","ios":"levelo://app?vid=be7fa38a-991a-429d-a732-5698f3145061"},"vehicle_type_id":"4","last_reported":1679332023,"current_range_meters":28800,"station_id":"ce4bhbp2rcd13ifvqerg","pricing_plan_id":"free"},{"bike_id":"c0ffd17c-2475-4307-b522-aa97fcae3192","system_id":"levelo_inurba_marseille","lat":43.282744,"lon":5.350533,"is_reserved":false,"is_disabled":false,"rental_uris":{"android":"levelo://app?vid=c0ffd17c-2475-4307-b522-aa97fcae3192","ios":"levelo://app?vid=c0ffd17c-2475-4307-b522-aa97fcae3192"},"vehicle_type_id":"4","last_reported":1679332023,"current_range_meters":0,"station_id":"ce4bhbp2rcd13ifvqerg","pricing_plan_id":"free"},{"bike_id":"0ad2e10a-4b00-4a05-90f4-e502fb0e9549","system_id":"levelo_inurba_marseille","lat":43.292724,"lon":5.401131,"is_reserved":false,"is_disabled":false,"rental_uris":{"android":"levelo://app?vid=0ad2e10a-4b00-4a05-90f4-e502fb0e9549","ios":"levelo://app?vid=0ad2e10a-4b00-4a05-90f4-e502fb0e9549"},"vehicle_type_id":"4","last_reported":1679332023,"current_range_meters":16400,"station_id":"ce4bh312rcd13ifvqdk0","pricing_plan_id":"free"},{"bike_id":"fa8c68f6-78f2-4cc6-8aa5-134761a4a530","system_id":"levelo_inurba_marseille","lat":43.280382,"lon":5.369291,"is_reserved":false,"is_disabled":false,"rental_uris":{"android":"levelo://app?vid=fa8c68f6-78f2-4cc6-8aa5-134761a4a530","ios":"levelo://app?vid=fa8c68f6-78f2-4cc6-8aa5-134761a4a530"},"vehicle_type_id":"4","last_reported":1679332023,"current_range_meters":6400,"station_id":"ce4bha12rcd13ifvqef0","pricing_plan_id":"free"},{"bike_id":"5f5f88f9-549f-4d44-8ccb-5c1caf42ec18","system_id":"levelo_inurba_marseille","lat":43.280382,"lon":5.369291,"is_reserved":false,"is_disabled":false,"rental_uris":{"android":"levelo://app?vid=5f5f88f9-549f-4d44-8ccb-5c1caf42ec18","ios":"levelo://app?vid=5f5f88f9-549f-4d44-8ccb-5c1caf42ec18"},"vehicle_type_id":"4","last_reported":1679332023,"current_range_meters":5600,"station_id":"ce4bha12rcd13ifvqef0","pricing_plan_id":"free"},{"bike_id":"204b206c-c117-48c8-bf55-27ad60df8cb2","system_id":"levelo_inurba_marseille","lat":43.280382,"lon":5.369291,"is_reserved":false,"is_disabled":false,"rental_uris":{"android":"levelo://app?vid=204b206c-c117-48c8-bf55-27ad60df8cb2","ios":"levelo://app?vid=204b206c-c117-48c8-bf55-27ad60df8cb2"},"vehicle_type_id":"4","last_reported":1679332023,"current_range_meters":1200,"station_id":"ce4bha12rcd13ifvqef0","pricing_plan_id":"free"},{"bike_id":"0eb470d2-2072-4e8e-87e0-0a2aa97b1fce","system_id":"levelo_inurba_marseille","lat":43.281125,"lon":5.378295,"is_reserved":false,"is_disabled":false,"rental_uris":{"android":"levelo://app?vid=0eb470d2-2072-4e8e-87e0-0a2aa97b1fce","ios":"levelo://app?vid=0eb470d2-2072-4e8e-87e0-0a2aa97b1fce"},"vehicle_type_id":"4","last_reported":1679332023,"current_range_meters":17200,"station_id":"","pricing_plan_id":"free"},{"bike_id":"f7a4133b-bfe2-47a9-a9fd-dc7bc43f8903","system_id":"levelo_inurba_marseille","lat":43.281044,"lon":5.378308,"is_reserved":false,"is_disabled":false,"rental_uris":{"android":"levelo://app?vid=f7a4133b-bfe2-47a9-a9fd-dc7bc43f8903","ios":"levelo://app?vid=f7a4133b-bfe2-47a9-a9fd-dc7bc43f8903"},"vehicle_type_id":"4","last_reported":1679332023,"current_range_meters":2000,"station_id":"ce4bha12rcd13ifvqee0","pricing_plan_id":"free"},{"bike_id":"e18731dd-1c9f-4370-a859-2e307977428c","system_id":"levelo_inurba_marseille","lat":43.288155,"lon":5.39664,"is_reserved":false,"is_disabled":false,"rental_uris":{"android":"levelo://app?vid=e18731dd-1c9f-4370-a859-2e307977428c","ios":"levelo://app?vid=e18731dd-1c9f-4370-a859-2e307977428c"},"vehicle_type_id":"4","last_reported":1679332023,"current_range_meters":0,"station_id":"","pricing_plan_id":"free"},{"bike_id":"872b393e-64dd-4851-9e05-4b2c04114412","system_id":"levelo_inurba_marseille","lat":43.281044,"lon":5.378308,"is_reserved":false,"is_disabled":false,"rental_uris":{"android":"levelo://app?vid=872b393e-64dd-4851-9e05-4b2c04114412","ios":"levelo://app?vid=872b393e-64dd-4851-9e05-4b2c04114412"},"vehicle_type_id":"4","last_reported":1679332023,"current_range_meters":15200,"station_id":"ce4bha12rcd13ifvqee0","pricing_plan_id":"free"},{"bike_id":"739161b9-3a8b-41b6-a635-9ed88fe08381","system_id":"levelo_inurba_marseille","lat":43.296384,"lon":5.406035,"is_reserved":false,"is_disabled":false,"rental_uris":{"android":"levelo://app?vid=739161b9-3a8b-41b6-a635-9ed88fe08381","ios":"levelo://app?vid=739161b9-3a8b-41b6-a635-9ed88fe08381"},"vehicle_type_id":"4","last_reported":1679332023,"current_range_meters":20400,"station_id":"","pricing_plan_id":"free"},{"bike_id":"10d58a2f-5e2c-4641-8f4a-5b86f3e69976","system_id":"levelo_inurba_marseille","lat":43.281044,"lon":5.378308,"is_reserved":false,"is_disabled":false,"rental_uris":{"android":"levelo://app?vid=10d58a2f-5e2c-4641-8f4a-5b86f3e69976","ios":"levelo://app?vid=10d58a2f-5e2c-4641-8f4a-5b86f3e69976"},"vehicle_type_id":"4","last_reported":1679332023,"current_range_meters":11600,"station_id":"ce4bha12rcd13ifvqee0","pricing_plan_id":"free"},{"bike_id":"d2a94937-6f4e-4433-9d7b-d6000bb7fd45","system_id":"levelo_inurba_marseille","lat":43.28703,"lon":5.39982,"is_reserved":false,"is_disabled":false,"rental_uris":{"android":"levelo://app?vid=d2a94937-6f4e-4433-9d7b-d6000bb7fd45","ios":"levelo://app?vid=d2a94937-6f4e-4433-9d7b-d6000bb7fd45"},"vehicle_type_id":"4","last_reported":1679332023,"current_range_meters":25600,"station_id":"ce4bho92rcd13ifvqh3g","pricing_plan_id":"free"},{"bike_id":"216bbd80-3357-4d13-be06-17ec9bd2533f","system_id":"levelo_inurba_marseille","lat":43.287154,"lon":5.399979,"is_reserved":false,"is_disabled":false,"rental_uris":{"android":"levelo://app?vid=216bbd80-3357-4d13-be06-17ec9bd2533f","ios":"levelo://app?vid=216bbd80-3357-4d13-be06-17ec9bd2533f"},"vehicle_type_id":"4","last_reported":1679332023,"current_range_meters":0,"station_id":"ce4bho92rcd13ifvqh3g","pricing_plan_id":"free"},{"bike_id":"ad2d9aa0-1fa0-4f2f-a89f-4093ffdfc508","system_id":"levelo_inurba_marseille","lat":43.325233,"lon":5.414318,"is_reserved":false,"is_disabled":false,"rental_uris":{"android":"levelo://app?vid=ad2d9aa0-1fa0-4f2f-a89f-4093ffdfc508","ios":"levelo://app?vid=ad2d9aa0-1fa0-4f2f-a89f-4093ffdfc508"},"vehicle_type_id":"4","last_reported":1679332023,"current_range_meters":26400,"station_id":"ce4bhq12rcd13ifvqhhg","pricing_plan_id":"free"},{"bike_id":"c1a1f601-e783-4363-a174-df877adaff16","system_id":"levelo_inurba_marseille","lat":43.27618,"lon":5.361009,"is_reserved":false,"is_disabled":false,"rental_uris":{"android":"levelo://app?vid=c1a1f601-e783-4363-a174-df877adaff16","ios":"levelo://app?vid=c1a1f601-e783-4363-a174-df877adaff16"},"vehicle_type_id":"4","last_reported":1679332023,"current_range_meters":2400,"station_id":"ce4bgj92rcd13ifvqbe0","pricing_plan_id":"free"},{"bike_id":"bc912d33-6685-48a7-a0a3-30a2da36b1e7","system_id":"levelo_inurba_marseille","lat":43.28184,"lon":5.39711,"is_reserved":false,"is_disabled":false,"rental_uris":{"android":"levelo://app?vid=bc912d33-6685-48a7-a0a3-30a2da36b1e7","ios":"levelo://app?vid=bc912d33-6685-48a7-a0a3-30a2da36b1e7"},"vehicle_type_id":"4","last_reported":1679332023,"current_range_meters":9200,"station_id":"","pricing_plan_id":"free"},{"bike_id":"20343fe4-9864-4ffc-863f-e5eb5014aefd","system_id":"levelo_inurba_marseille","lat":43.273613,"lon":5.362705,"is_reserved":false,"is_disabled":false,"rental_uris":{"android":"levelo://app?vid=20343fe4-9864-4ffc-863f-e5eb5014aefd","ios":"levelo://app?vid=20343fe4-9864-4ffc-863f-e5eb5014aefd"},"vehicle_type_id":"4","last_reported":1679332023,"current_range_meters":4800,"station_id":"ce4bhbh2rcd13ifvqeo0","pricing_plan_id":"free"},{"bike_id":"c0823da3-822f-4887-be96-81c7ee982bf1","system_id":"levelo_inurba_marseille","lat":43.276771,"lon":5.388799,"is_reserved":false,"is_disabled":false,"rental_uris":{"android":"levelo://app?vid=c0823da3-822f-4887-be96-81c7ee982bf1","ios":"levelo://app?vid=c0823da3-822f-4887-be96-81c7ee982bf1"},"vehicle_type_id":"4","last_reported":1679332023,"current_range_meters":0,"station_id":"ce4bhi12rcd13ifvqfo0","pricing_plan_id":"free"},{"bike_id":"aeafa6ca-45ac-404d-a470-87e2a93e5fb1","system_id":"levelo_inurba_marseille","lat":43.276769,"lon":5.388787,"is_reserved":false,"is_disabled":false,"rental_uris":{"android":"levelo://app?vid=aeafa6ca-45ac-404d-a470-87e2a93e5fb1","ios":"levelo://app?vid=aeafa6ca-45ac-404d-a470-87e2a93e5fb1"},"vehicle_type_id":"4","last_reported":1679332023,"current_range_meters":0,"station_id":"ce4bhi12rcd13ifvqfo0","pricing_plan_id":"free"},{"bike_id":"64828b6e-4c29-403f-ae35-25c6063f7319","system_id":"levelo_inurba_marseille","lat":43.317121,"lon":5.423936,"is_reserved":false,"is_disabled":false,"rental_uris":{"android":"levelo://app?vid=64828b6e-4c29-403f-ae35-25c6063f7319","ios":"levelo://app?vid=64828b6e-4c29-403f-ae35-25c6063f7319"},"vehicle_type_id":"4","last_reported":1679332023,"current_range_meters":28400,"station_id":"ce4bhp92rcd13ifvqhbg","pricing_plan_id":"free"},{"bike_id":"c3f0c6fa-20bc-4bbd-88e0-66b0b3a4b218","system_id":"levelo_inurba_marseille","lat":43.304096,"lon":5.425385,"is_reserved":false,"is_disabled":false,"rental_uris":{"android":"levelo://app?vid=c3f0c6fa-20bc-4bbd-88e0-66b0b3a4b218","ios":"levelo://app?vid=c3f0c6fa-20bc-4bbd-88e0-66b0b3a4b218"},"vehicle_type_id":"4","last_reported":1679332023,"current_range_meters":0,"station_id":"ce4bhoh2rcd13ifvqh6g","pricing_plan_id":"free"},{"bike_id":"8ec625a4-5b7d-492f-a0dc-7c182ee77ae6","system_id":"levelo_inurba_marseille","lat":43.27231,"lon":5.39098,"is_reserved":false,"is_disabled":false,"rental_uris":{"android":"levelo://app?vid=8ec625a4-5b7d-492f-a0dc-7c182ee77ae6","ios":"levelo://app?vid=8ec625a4-5b7d-492f-a0dc-7c182ee77ae6"},"vehicle_type_id":"4","last_reported":1679332023,"current_range_meters":6400,"station_id":"ce4bhb92rcd13ifvqen0","pricing_plan_id":"free"},{"bike_id":"fbf35a42-c046-41a5-88e3-c631163e8202","system_id":"levelo_inurba_marseille","lat":43.27199,"lon":5.39189,"is_reserved":false,"is_disabled":false,"rental_uris":{"android":"levelo://app?vid=fbf35a42-c046-41a5-88e3-c631163e8202","ios":"levelo://app?vid=fbf35a42-c046-41a5-88e3-c631163e8202"},"vehicle_type_id":"4","last_reported":1679332023,"current_range_meters":2000,"station_id":"","pricing_plan_id":"free"},{"bike_id":"40dc78bf-e821-4a18-96e1-b251d9c57379","system_id":"levelo_inurba_marseille","lat":43.278128,"lon":5.407195,"is_reserved":false,"is_disabled":false,"rental_uris":{"android":"levelo://app?vid=40dc78bf-e821-4a18-96e1-b251d9c57379","ios":"levelo://app?vid=40dc78bf-e821-4a18-96e1-b251d9c57379"},"vehicle_type_id":"4","last_reported":1679332023,"current_range_meters":5600,"station_id":"ce4bhnh2rcd13ifvqgtg","pricing_plan_id":"free"},{"bike_id":"8c7e39e0-138d-415f-a5f5-16a99b8c22fd","system_id":"levelo_inurba_marseille","lat":43.265714,"lon":5.372891,"is_reserved":false,"is_disabled":false,"rental_uris":{"android":"levelo://app?vid=8c7e39e0-138d-415f-a5f5-16a99b8c22fd","ios":"levelo://app?vid=8c7e39e0-138d-415f-a5f5-16a99b8c22fd"},"vehicle_type_id":"4","last_reported":1679332023,"current_range_meters":16400,"station_id":"ce4bhg12rcd13ifvqf70","pricing_plan_id":"free"},{"bike_id":"a9c5d820-7461-4f81-915e-ec7ae5754cfe","system_id":"levelo_inurba_marseille","lat":43.26681,"lon":5.382694,"is_reserved":false,"is_disabled":false,"rental_uris":{"android":"levelo://app?vid=a9c5d820-7461-4f81-915e-ec7ae5754cfe","ios":"levelo://app?vid=a9c5d820-7461-4f81-915e-ec7ae5754cfe"},"vehicle_type_id":"4","last_reported":1679332023,"current_range_meters":7200,"station_id":"ce4bhg92rcd13ifvqf90","pricing_plan_id":"free"},{"bike_id":"de3d6aa8-6b4c-4d5a-83f1-815f7e07ddab","system_id":"levelo_inurba_marseille","lat":43.26681,"lon":5.382694,"is_reserved":false,"is_disabled":false,"rental_uris":{"android":"levelo://app?vid=de3d6aa8-6b4c-4d5a-83f1-815f7e07ddab","ios":"levelo://app?vid=de3d6aa8-6b4c-4d5a-83f1-815f7e07ddab"},"vehicle_type_id":"4","last_reported":1679332023,"current_range_meters":0,"station_id":"ce4bhg92rcd13ifvqf90","pricing_plan_id":"free"},{"bike_id":"44ac868d-6d76-4aeb-99d1-b781b17e3edb","system_id":"levelo_inurba_marseille","lat":43.26763,"lon":5.39131,"is_reserved":false,"is_disabled":false,"rental_uris":{"android":"levelo://app?vid=44ac868d-6d76-4aeb-99d1-b781b17e3edb","ios":"levelo://app?vid=44ac868d-6d76-4aeb-99d1-b781b17e3edb"},"vehicle_type_id":"4","last_reported":1679332023,"current_range_meters":0,"station_id":"","pricing_plan_id":"free"},{"bike_id":"d24e5fe6-02d0-4cec-8d18-c6c4bc117187","system_id":"levelo_inurba_marseille","lat":43.26785,"lon":5.39411,"is_reserved":false,"is_disabled":false,"rental_uris":{"android":"levelo://app?vid=d24e5fe6-02d0-4cec-8d18-c6c4bc117187","ios":"levelo://app?vid=d24e5fe6-02d0-4cec-8d18-c6c4bc117187"},"vehicle_type_id":"4","last_reported":1679332023,"current_range_meters":16400,"station_id":"","pricing_plan_id":"free"},{"bike_id":"925bfd30-0931-430e-a657-412b4d3e4e8b","system_id":"levelo_inurba_marseille","lat":43.30808,"lon":5.43526,"is_reserved":false,"is_disabled":false,"rental_uris":{"android":"levelo://app?vid=925bfd30-0931-430e-a657-412b4d3e4e8b","ios":"levelo://app?vid=925bfd30-0931-430e-a657-412b4d3e4e8b"},"vehicle_type_id":"4","last_reported":1679332023,"current_range_meters":0,"station_id":"ce4bhph2rcd13ifvqheg","pricing_plan_id":"free"},{"bike_id":"a168b2f8-3df5-4873-ab1c-8dc079412dad","system_id":"levelo_inurba_marseille","lat":43.261782,"lon":5.374515,"is_reserved":false,"is_disabled":false,"rental_uris":{"android":"levelo://app?vid=a168b2f8-3df5-4873-ab1c-8dc079412dad","ios":"levelo://app?vid=a168b2f8-3df5-4873-ab1c-8dc079412dad"},"vehicle_type_id":"4","last_reported":1679332023,"current_range_meters":0,"station_id":"ce4bhgp2rcd13ifvqfc0","pricing_plan_id":"free"},{"bike_id":"a0dfa36c-ed60-497d-b504-1f6695676458","system_id":"levelo_inurba_marseille","lat":43.268075,"lon":5.40256,"is_reserved":false,"is_disabled":false,"rental_uris":{"android":"levelo://app?vid=a0dfa36c-ed60-497d-b504-1f6695676458","ios":"levelo://app?vid=a0dfa36c-ed60-497d-b504-1f6695676458"},"vehicle_type_id":"4","last_reported":1679332023,"current_range_meters":0,"station_id":"ce501612rcd8frsf0b60","pricing_plan_id":"free"},{"bike_id":"b19993cc-a3ef-452e-ba89-9048b086a365","system_id":"levelo_inurba_marseille","lat":43.260219,"lon":5.37546,"is_reserved":false,"is_disabled":false,"rental_uris":{"android":"levelo://app?vid=b19993cc-a3ef-452e-ba89-9048b086a365","ios":"levelo://app?vid=b19993cc-a3ef-452e-ba89-9048b086a365"},"vehicle_type_id":"4","last_reported":1679332023,"current_range_meters":10800,"station_id":"ce4bhgh2rcd13ifvqfa0","pricing_plan_id":"free"},{"bike_id":"b22e9f30-a2ce-44d9-a98f-33b1562aa780","system_id":"levelo_inurba_marseille","lat":43.260219,"lon":5.37546,"is_reserved":false,"is_disabled":false,"rental_uris":{"android":"levelo://app?vid=b22e9f30-a2ce-44d9-a98f-33b1562aa780","ios":"levelo://app?vid=b22e9f30-a2ce-44d9-a98f-33b1562aa780"},"vehicle_type_id":"4","last_reported":1679332023,"current_range_meters":12800,"station_id":"ce4bhgh2rcd13ifvqfa0","pricing_plan_id":"free"},{"bike_id":"9e3043a0-62cc-43b7-a488-f3ad2f9f071b","system_id":"levelo_inurba_marseille","lat":43.29246,"lon":5.44135,"is_reserved":false,"is_disabled":false,"rental_uris":{"android":"levelo://app?vid=9e3043a0-62cc-43b7-a488-f3ad2f9f071b","ios":"levelo://app?vid=9e3043a0-62cc-43b7-a488-f3ad2f9f071b"},"vehicle_type_id":"4","last_reported":1679332023,"current_range_meters":14000,"station_id":"","pricing_plan_id":"free"},{"bike_id":"083c915b-d68d-4138-882b-8329d67a6f6b","system_id":"levelo_inurba_marseille","lat":43.255756,"lon":5.382303,"is_reserved":false,"is_disabled":false,"rental_uris":{"android":"levelo://app?vid=083c915b-d68d-4138-882b-8329d67a6f6b","ios":"levelo://app?vid=083c915b-d68d-4138-882b-8329d67a6f6b"},"vehicle_type_id":"4","last_reported":1679332023,"current_range_meters":12000,"station_id":"ce4bhih2rcd13ifvqfs0","pricing_plan_id":"free"},{"bike_id":"959dee58-ddef-4503-bae1-736f67aa1d48","system_id":"levelo_inurba_marseille","lat":43.25581,"lon":5.38227,"is_reserved":false,"is_disabled":false,"rental_uris":{"android":"levelo://app?vid=959dee58-ddef-4503-bae1-736f67aa1d48","ios":"levelo://app?vid=959dee58-ddef-4503-bae1-736f67aa1d48"},"vehicle_type_id":"4","last_reported":1679332023,"current_range_meters":2800,"station_id":"ce4bhih2rcd13ifvqfs0","pricing_plan_id":"free"},{"bike_id":"40e5b4d3-2460-4a79-be79-aa4090c6fdcc","system_id":"levelo_inurba_marseille","lat":43.25504,"lon":5.37654,"is_reserved":false,"is_disabled":false,"rental_uris":{"android":"levelo://app?vid=40e5b4d3-2460-4a79-be79-aa4090c6fdcc","ios":"levelo://app?vid=40e5b4d3-2460-4a79-be79-aa4090c6fdcc"},"vehicle_type_id":"4","last_reported":1679332023,"current_range_meters":10400,"station_id":"ce4bhh12rcd13ifvqff0","pricing_plan_id":"free"},{"bike_id":"d5c5e56a-0ef4-4b24-8588-3599bfc03755","system_id":"levelo_inurba_marseille","lat":43.254945,"lon":5.376454,"is_reserved":false,"is_disabled":false,"rental_uris":{"android":"levelo://app?vid=d5c5e56a-0ef4-4b24-8588-3599bfc03755","ios":"levelo://app?vid=d5c5e56a-0ef4-4b24-8588-3599bfc03755"},"vehicle_type_id":"4","last_reported":1679332023,"current_range_meters":22400,"station_id":"ce4bhh12rcd13ifvqff0","pricing_plan_id":"free"},{"bike_id":"a14424bf-d804-4d18-a51a-ac5bb7da191c","system_id":"levelo_inurba_marseille","lat":43.25497,"lon":5.3765,"is_reserved":false,"is_disabled":false,"rental_uris":{"android":"levelo://app?vid=a14424bf-d804-4d18-a51a-ac5bb7da191c","ios":"levelo://app?vid=a14424bf-d804-4d18-a51a-ac5bb7da191c"},"vehicle_type_id":"4","last_reported":1679332023,"current_range_meters":7200,"station_id":"ce4bhh12rcd13ifvqff0","pricing_plan_id":"free"},{"bike_id":"99832aae-bfe1-4f2a-acfd-8d0cc6890c29","system_id":"levelo_inurba_marseille","lat":43.270721,"lon":5.422764,"is_reserved":false,"is_disabled":false,"rental_uris":{"android":"levelo://app?vid=99832aae-bfe1-4f2a-acfd-8d0cc6890c29","ios":"levelo://app?vid=99832aae-bfe1-4f2a-acfd-8d0cc6890c29"},"vehicle_type_id":"4","last_reported":1679332023,"current_range_meters":14000,"station_id":"ce4bhk92rcd13ifvqgb0","pricing_plan_id":"free"},{"bike_id":"5a843b9d-4323-43f0-b3d1-3b3c0827a4c7","system_id":"levelo_inurba_marseille","lat":43.25102,"lon":5.403214,"is_reserved":false,"is_disabled":false,"rental_uris":{"android":"levelo://app?vid=5a843b9d-4323-43f0-b3d1-3b3c0827a4c7","ios":"levelo://app?vid=5a843b9d-4323-43f0-b3d1-3b3c0827a4c7"},"vehicle_type_id":"4","last_reported":1679332023,"current_range_meters":13200,"station_id":"ce4bhlh2rcd13ifvqgig","pricing_plan_id":"free"},{"bike_id":"485e91c6-2a4e-4257-a6c2-7b29905df2a0","system_id":"levelo_inurba_marseille","lat":43.250023,"lon":5.38919,"is_reserved":false,"is_disabled":false,"rental_uris":{"android":"levelo://app?vid=485e91c6-2a4e-4257-a6c2-7b29905df2a0","ios":"levelo://app?vid=485e91c6-2a4e-4257-a6c2-7b29905df2a0"},"vehicle_type_id":"4","last_reported":1679332023,"current_range_meters":0,"station_id":"ce4bhgp2rcd13ifvqfd0","pricing_plan_id":"free"},{"bike_id":"9f874239-4565-4123-9ecd-4c0f60dae4b6","system_id":"levelo_inurba_marseille","lat":43.250009,"lon":5.389195,"is_reserved":false,"is_disabled":false,"rental_uris":{"android":"levelo://app?vid=9f874239-4565-4123-9ecd-4c0f60dae4b6","ios":"levelo://app?vid=9f874239-4565-4123-9ecd-4c0f60dae4b6"},"vehicle_type_id":"4","last_reported":1679332023,"current_range_meters":20800,"station_id":"ce4bhgp2rcd13ifvqfd0","pricing_plan_id":"free"},{"bike_id":"b92e14cc-1248-4532-b309-e07c46c97f77","system_id":"levelo_inurba_marseille","lat":43.24778,"lon":5.37545,"is_reserved":false,"is_disabled":false,"rental_uris":{"android":"levelo://app?vid=b92e14cc-1248-4532-b309-e07c46c97f77","ios":"levelo://app?vid=b92e14cc-1248-4532-b309-e07c46c97f77"},"vehicle_type_id":"4","last_reported":1679332023,"current_range_meters":0,"station_id":"","pricing_plan_id":"free"},{"bike_id":"b936aadb-e9b1-4b61-a2ed-aa3bc17abc13","system_id":"levelo_inurba_marseille","lat":43.24693,"lon":5.382096,"is_reserved":false,"is_disabled":false,"rental_uris":{"android":"levelo://app?vid=b936aadb-e9b1-4b61-a2ed-aa3bc17abc13","ios":"levelo://app?vid=b936aadb-e9b1-4b61-a2ed-aa3bc17abc13"},"vehicle_type_id":"4","last_reported":1679332023,"current_range_meters":27200,"station_id":"ce4bhih2rcd13ifvqfr0","pricing_plan_id":"free"},{"bike_id":"34e90f73-3c87-405a-b0ba-b30d6274cbfd","system_id":"levelo_inurba_marseille","lat":43.24693,"lon":5.382096,"is_reserved":false,"is_disabled":false,"rental_uris":{"android":"levelo://app?vid=34e90f73-3c87-405a-b0ba-b30d6274cbfd","ios":"levelo://app?vid=34e90f73-3c87-405a-b0ba-b30d6274cbfd"},"vehicle_type_id":"4","last_reported":1679332023,"current_range_meters":6400,"station_id":"ce4bhih2rcd13ifvqfr0","pricing_plan_id":"free"},{"bike_id":"8aae130e-21c0-4604-8c13-111e8a44c591","system_id":"levelo_inurba_marseille","lat":43.25119,"lon":5.40316,"is_reserved":false,"is_disabled":false,"rental_uris":{"android":"levelo://app?vid=8aae130e-21c0-4604-8c13-111e8a44c591","ios":"levelo://app?vid=8aae130e-21c0-4604-8c13-111e8a44c591"},"vehicle_type_id":"4","last_reported":1679332023,"current_range_meters":3200,"station_id":"","pricing_plan_id":"free"},{"bike_id":"c64d4ed7-c5fa-4808-aced-52671e273c97","system_id":"levelo_inurba_marseille","lat":43.24693,"lon":5.382096,"is_reserved":false,"is_disabled":false,"rental_uris":{"android":"levelo://app?vid=c64d4ed7-c5fa-4808-aced-52671e273c97","ios":"levelo://app?vid=c64d4ed7-c5fa-4808-aced-52671e273c97"},"vehicle_type_id":"4","last_reported":1679332023,"current_range_meters":28800,"station_id":"ce4bhih2rcd13ifvqfr0","pricing_plan_id":"free"},{"bike_id":"c10ef0c9-1a16-4f6a-b040-c3dc21fa1e8b","system_id":"levelo_inurba_marseille","lat":43.24693,"lon":5.382096,"is_reserved":false,"is_disabled":false,"rental_uris":{"android":"levelo://app?vid=c10ef0c9-1a16-4f6a-b040-c3dc21fa1e8b","ios":"levelo://app?vid=c10ef0c9-1a16-4f6a-b040-c3dc21fa1e8b"},"vehicle_type_id":"4","last_reported":1679332023,"current_range_meters":0,"station_id":"ce4bhih2rcd13ifvqfr0","pricing_plan_id":"free"},{"bike_id":"7983650d-9df7-4454-9b08-9dc56b60e637","system_id":"levelo_inurba_marseille","lat":43.25102,"lon":5.403214,"is_reserved":false,"is_disabled":false,"rental_uris":{"android":"levelo://app?vid=7983650d-9df7-4454-9b08-9dc56b60e637","ios":"levelo://app?vid=7983650d-9df7-4454-9b08-9dc56b60e637"},"vehicle_type_id":"4","last_reported":1679332023,"current_range_meters":10800,"station_id":"ce4bhlh2rcd13ifvqgig","pricing_plan_id":"free"},{"bike_id":"f736ea85-a11e-4a8c-ae15-90bd4eba6129","system_id":"levelo_inurba_marseille","lat":43.2511,"lon":5.40327,"is_reserved":false,"is_disabled":false,"rental_uris":{"android":"levelo://app?vid=f736ea85-a11e-4a8c-ae15-90bd4eba6129","ios":"levelo://app?vid=f736ea85-a11e-4a8c-ae15-90bd4eba6129"},"vehicle_type_id":"4","last_reported":1679332023,"current_range_meters":0,"station_id":"ce4bhlh2rcd13ifvqgig","pricing_plan_id":"free"},{"bike_id":"fd9e73d4-dfc4-4c46-ab11-13a60dfb3770","system_id":"levelo_inurba_marseille","lat":43.25104,"lon":5.40323,"is_reserved":false,"is_disabled":false,"rental_uris":{"android":"levelo://app?vid=fd9e73d4-dfc4-4c46-ab11-13a60dfb3770","ios":"levelo://app?vid=fd9e73d4-dfc4-4c46-ab11-13a60dfb3770"},"vehicle_type_id":"4","last_reported":1679332023,"current_range_meters":12400,"station_id":"ce4bhlh2rcd13ifvqgig","pricing_plan_id":"free"},{"bike_id":"83654f32-8bc9-4987-ae3d-c668b6fb7f5b","system_id":"levelo_inurba_marseille","lat":43.24648,"lon":5.38894,"is_reserved":false,"is_disabled":false,"rental_uris":{"android":"levelo://app?vid=83654f32-8bc9-4987-ae3d-c668b6fb7f5b","ios":"levelo://app?vid=83654f32-8bc9-4987-ae3d-c668b6fb7f5b"},"vehicle_type_id":"4","last_reported":1679332023,"current_range_meters":13600,"station_id":"","pricing_plan_id":"free"},{"bike_id":"8b09751f-7a62-46fc-867d-0d3fc8b207ae","system_id":"levelo_inurba_marseille","lat":43.239588,"lon":5.366238,"is_reserved":false,"is_disabled":false,"rental_uris":{"android":"levelo://app?vid=8b09751f-7a62-46fc-867d-0d3fc8b207ae","ios":"levelo://app?vid=8b09751f-7a62-46fc-867d-0d3fc8b207ae"},"vehicle_type_id":"4","last_reported":1679332023,"current_range_meters":13600,"station_id":"ce4bhi12rcd13ifvqfp0","pricing_plan_id":"free"},{"bike_id":"7c5e16d5-fad4-4db9-bb2c-bfbf82913f97","system_id":"levelo_inurba_marseille","lat":43.239588,"lon":5.366238,"is_reserved":false,"is_disabled":false,"rental_uris":{"android":"levelo://app?vid=7c5e16d5-fad4-4db9-bb2c-bfbf82913f97","ios":"levelo://app?vid=7c5e16d5-fad4-4db9-bb2c-bfbf82913f97"},"vehicle_type_id":"4","last_reported":1679332023,"current_range_meters":7200,"station_id":"ce4bhi12rcd13ifvqfp0","pricing_plan_id":"free"},{"bike_id":"bdfa30e6-9d63-4bf2-9c50-958fe0d27020","system_id":"levelo_inurba_marseille","lat":43.239588,"lon":5.366238,"is_reserved":false,"is_disabled":false,"rental_uris":{"android":"levelo://app?vid=bdfa30e6-9d63-4bf2-9c50-958fe0d27020","ios":"levelo://app?vid=bdfa30e6-9d63-4bf2-9c50-958fe0d27020"},"vehicle_type_id":"4","last_reported":1679332023,"current_range_meters":13200,"station_id":"ce4bhi12rcd13ifvqfp0","pricing_plan_id":"free"},{"bike_id":"421fcd3e-2858-472e-a7e1-3daf615760c9","system_id":"levelo_inurba_marseille","lat":43.23967,"lon":5.36629,"is_reserved":false,"is_disabled":false,"rental_uris":{"android":"levelo://app?vid=421fcd3e-2858-472e-a7e1-3daf615760c9","ios":"levelo://app?vid=421fcd3e-2858-472e-a7e1-3daf615760c9"},"vehicle_type_id":"4","last_reported":1679332023,"current_range_meters":18800,"station_id":"ce4bhi12rcd13ifvqfp0","pricing_plan_id":"free"},{"bike_id":"d11557f4-6baf-46ef-afd8-fd0980cc9152","system_id":"levelo_inurba_marseille","lat":43.239588,"lon":5.366238,"is_reserved":false,"is_disabled":false,"rental_uris":{"android":"levelo://app?vid=d11557f4-6baf-46ef-afd8-fd0980cc9152","ios":"levelo://app?vid=d11557f4-6baf-46ef-afd8-fd0980cc9152"},"vehicle_type_id":"4","last_reported":1679332023,"current_range_meters":21600,"station_id":"ce4bhi12rcd13ifvqfp0","pricing_plan_id":"free"},{"bike_id":"ac76eb5f-b644-46bf-ac06-8619b89abf25","system_id":"levelo_inurba_marseille","lat":43.231919,"lon":5.355532,"is_reserved":false,"is_disabled":false,"rental_uris":{"android":"levelo://app?vid=ac76eb5f-b644-46bf-ac06-8619b89abf25","ios":"levelo://app?vid=ac76eb5f-b644-46bf-ac06-8619b89abf25"},"vehicle_type_id":"4","last_reported":1679332023,"current_range_meters":31600,"station_id":"ce4bhu92rcd13ifvqi70","pricing_plan_id":"free"},{"bike_id":"2ecc6902-f03f-46e2-8e14-c77d302da126","system_id":"levelo_inurba_marseille","lat":43.23193,"lon":5.35546,"is_reserved":false,"is_disabled":false,"rental_uris":{"android":"levelo://app?vid=2ecc6902-f03f-46e2-8e14-c77d302da126","ios":"levelo://app?vid=2ecc6902-f03f-46e2-8e14-c77d302da126"},"vehicle_type_id":"4","last_reported":1679332023,"current_range_meters":16000,"station_id":"ce4bhu92rcd13ifvqi70","pricing_plan_id":"free"}]}}