{"last_updated":1714766923,"ttl":30,"version":"2.2","data":{"bikes":[{"bike_id":"98ae3155-780f-470b-a5ed-f52a352d6d9f","system_id":"levelo_inurba_marseille","lat":43.31331,"lon":5.36704,"is_reserved":false,"is_disabled":false,"rental_uris":{"android":"levelo://app?vid=98ae3155-780f-470b-a5ed-f52a352d6d9f","ios":"levelo://app?vid=98ae3155-780f-470b-a5ed-f52a352d6d9f"},"vehicle_type_id":"4","last_reported":1714766923,"current_range_meters":0,"station_id":"ce4bgr92rcd13ifvqc6g","pricing_plan_id":"cebpf4jnsgd1na2vs0mg"},{"bike_id":"5b1f1b4c-2974-4048-aa20-287910aae1fc","system_id":"levelo_inurba_marseille","lat":43.313391,"lon":5.36706,"is_reserved":false,"is_disabled":false,"rental_uris":{"android":"levelo://app?vid=5b1f1b4c-2974-4048-aa20-287910aae1fc","ios":"levelo://app?vid=5b1f1b4c-2974-4048-aa20-287910aae1fc"},"vehicle_type_id":"4","last_reported":1714766923,"current_range_meters":12800,"station_id":"ce4bgr92rcd13ifvqc6g","pricing_plan_id":"cebpf4jnsgd1na2vs0mg"},{"bike_id":"58ab08b2-25c6-4a79-bf5b-f26a4b7a3525","system_id":"levelo_inurba_marseille","lat":43.31341,"lon":5.367098,"is_reserved":false,"is_disabled":false,"rental_uris":{"android":"levelo://app?vid=58ab08b2-25c6-4a79-bf5b-f26a4b7a3525","ios":"levelo://app?vid=58ab08b2-25c6-4a79-bf5b-f26a4b7a3525"},"vehicle_type_id":"4","last_reported":1714766923,"current_range_meters":31200,"station_id":"ce4bgr92rcd13ifvqc6g","pricing_plan_id":"cebpf4jnsgd1na2vs0mg"},{"bike_id":"3be9b431-4565-4d96-a316-cff5066ac895","system_id":"levelo_inurba_marseille","lat":43.312239,"lon":5.368562,"is_reserved":false,"is_disabled":false,"rental_uris":{"android":"levelo://app?vid=3be9b431-4565-4d96-a316-cff5066ac895","ios":"levelo://app?vid=3be9b431-4565-4d96-a316-cff5066ac895"},"vehicle_type_id":"4","last_reported":1714766923,"current_range_meters":13600,"station_id":"ce4bgl92rcd13ifvqbq0","pricing_plan_id":"cebpf4jnsgd1na2vs0mg"},{"bike_id":"9017aa00-2132-4eb8-b904-e5ec9da67dbe","system_id":"levelo_inurba_marseille","lat":43.309076,"lon":5.368465,"is_reserved":false,"is_disabled":false,"rental_uris":{"android":"levelo://app?vid=9017aa00-2132-4eb8-b904-e5ec9da67dbe","ios":"levelo://app?vid=9017aa00-2132-4eb8-b904-e5ec9da67dbe"},"vehicle_type_id":"4","last_reported":1714766923,"current_range_meters":3200,"station_id":"ce4bgn92rcd13ifvqbvg","pricing_plan_id":"cebpf4jnsgd1na2vs0mg"},{"bike_id":"852ca2d3-efe1-4ff1-b13d-d8906c42f389","system_id":"levelo_inurba_marseille","lat":43.314811,"lon":5.373103,"is_reserved":false,"is_disabled":false,"rental_uris":{"android":"levelo://app?vid=852ca2d3-efe1-4ff1-b13d-d8906c42f389","ios":"levelo://app?vid=852ca2d3-efe1-4ff1-b13d-d8906c42f389"},"vehicle_type_id":"4","last_reported":1714766923,"current_range_meters":3600,"station_id":"ce4bgt12rcd13ifvqcd0","pricing_plan_id":"cebpf4jnsgd1na2vs0mg"},{"bike_id":"b14478fe-e3ca-446c-8534-f9feb68f54d0","system_id":"levelo_inurba_marseille","lat":43.314811,"lon":5.373103,"is_reserved":false,"is_disabled":false,"rental_uris":{"android":"levelo://app?vid=b14478fe-e3ca-446c-8534-f9feb68f54d0","ios":"levelo://app?vid=b14478fe-e3ca-446c-8534-f9feb68f54d0"},"vehicle_type_id":"4","last_reported":1714766923,"current_range_meters":21600,"station_id":"ce4bgt12rcd13ifvqcd0","pricing_plan_id":"cebpf4jnsgd1na2vs0mg"},{"bike_id":"7d51ecaf-2654-4d14-b18e-27e612e12b32","system_id":"levelo_inurba_marseille","lat":43.314811,"lon":5.373103,"is_reserved":false,"is_disabled":false,"rental_uris":{"android":"levelo://app?vid=7d51ecaf-2654-4d14-b18e-27e612e12b32","ios":"levelo://app?vid=7d51ecaf-2654-4d14-b18e-27e612e12b32"},"vehicle_type_id":"4","last_reported":1714766923,"current_range_meters":17600,"station_id":"ce4bgt12rcd13ifvqcd0","pricing_plan_id":"cebpf4jnsgd1na2vs0mg"},{"bike_id":"f484057d-25f9-4f72-8d2f-7b3a9b962718","system_id":"levelo_inurba_marseille","lat":43.309034,"lon":5.371783,"is_reserved":false,"is_disabled":false,"rental_uris":{"android":"levelo://app?vid=f484057d-25f9-4f72-8d2f-7b3a9b962718","ios":"levelo://app?vid=f484057d-25f9-4f72-8d2f-7b3a9b962718"},"vehicle_type_id":"4","last_reported":1714766923,"current_range_meters":0,"station_id":"ce4bguh2rcd13ifvqckg","pricing_plan_id":"cebpf4jnsgd1na2vs0mg"},{"bike_id":"7be61336-76bd-4e57-b73f-49e91af258ac","system_id":"levelo_inurba_marseille","lat":43.31428,"lon":5.374469,"is_reserved":false,"is_disabled":false,"rental_uris":{"android":"levelo://app?vid=7be61336-76bd-4e57-b73f-49e91af258ac","ios":"levelo://app?vid=7be61336-76bd-4e57-b73f-49e91af258ac"},"vehicle_type_id":"4","last_reported":1714766923,"current_range_meters":2800,"station_id":"","pricing_plan_id":"cebpf4jnsgd1na2vs0mg"},{"bike_id":"de6c8cad-677a-41d8-90ad-acef4138fd1d","system_id":"levelo_inurba_marseille","lat":43.305368,"lon":5.367343,"is_reserved":false,"is_disabled":false,"rental_uris":{"android":"levelo://app?vid=de6c8cad-677a-41d8-90ad-acef4138fd1d","ios":"levelo://app?vid=de6c8cad-677a-41d8-90ad-acef4138fd1d"},"vehicle_type_id":"4","last_reported":1714766923,"current_range_meters":0,"station_id":"ce4bgrp2rcd13ifvqc9g","pricing_plan_id":"cebpf4jnsgd1na2vs0mg"},{"bike_id":"469c901f-1d47-439c-a6d9-3eb39f352939","system_id":"levelo_inurba_marseille","lat":43.305368,"lon":5.367343,"is_reserved":false,"is_disabled":false,"rental_uris":{"android":"levelo://app?vid=469c901f-1d47-439c-a6d9-3eb39f352939","ios":"levelo://app?vid=469c901f-1d47-439c-a6d9-3eb39f352939"},"vehicle_type_id":"4","last_reported":1714766923,"current_range_meters":2000,"station_id":"ce4bgrp2rcd13ifvqc9g","pricing_plan_id":"cebpf4jnsgd1na2vs0mg"},{"bike_id":"f4278bea-a82b-4381-8055-e707fc09c7e0","system_id":"levelo_inurba_marseille","lat":43.305269,"lon":5.365356,"is_reserved":false,"is_disabled":false,"rental_uris":{"android":"levelo://app?vid=f4278bea-a82b-4381-8055-e707fc09c7e0","ios":"levelo://app?vid=f4278bea-a82b-4381-8055-e707fc09c7e0"},"vehicle_type_id":"4","last_reported":1714766923,"current_range_meters":0,"station_id":"ce4bgs12rcd13ifvqcag","pricing_plan_id":"cebpf4jnsgd1na2vs0mg"},{"bike_id":"9e7cc7c5-9c06-4cf4-9998-9eb7e9db2013","system_id":"levelo_inurba_marseille","lat":43.305712,"lon":5.365641,"is_reserved":false,"is_disabled":false,"rental_uris":{"android":"levelo://app?vid=9e7cc7c5-9c06-4cf4-9998-9eb7e9db2013","ios":"levelo://app?vid=9e7cc7c5-9c06-4cf4-9998-9eb7e9db2013"},"vehicle_type_id":"4","last_reported":1714766923,"current_range_meters":4000,"station_id":"ce4bgs12rcd13ifvqcag","pricing_plan_id":"cebpf4jnsgd1na2vs0mg"},{"bike_id":"01e44f83-63b1-4724-b9bd-21d54e84548d","system_id":"levelo_inurba_marseille","lat":43.305989,"lon":5.37225,"is_reserved":false,"is_disabled":false,"rental_uris":{"android":"levelo://app?vid=01e44f83-63b1-4724-b9bd-21d54e84548d","ios":"levelo://app?vid=01e44f83-63b1-4724-b9bd-21d54e84548d"},"vehicle_type_id":"4","last_reported":1714766923,"current_range_meters":5600,"station_id":"ce4bgqh2rcd13ifvqc4g","pricing_plan_id":"cebpf4jnsgd1na2vs0mg"},{"bike_id":"330d6f48-479a-40d9-a9ee-ef44b4c0b527","system_id":"levelo_inurba_marseille","lat":43.305989,"lon":5.37225,"is_reserved":false,"is_disabled":false,"rental_uris":{"android":"levelo://app?vid=330d6f48-479a-40d9-a9ee-ef44b4c0b527","ios":"levelo://app?vid=330d6f48-479a-40d9-a9ee-ef44b4c0b527"},"vehicle_type_id":"4","last_reported":1714766923,"current_range_meters":10000,"station_id":"ce4bgqh2rcd13ifvqc4g","pricing_plan_id":"cebpf4jnsgd1na2vs0mg"},{"bike_id":"f2bc3bc6-88d7-43c8-99ea-abdbefdce151","system_id":"levelo_inurba_marseille","lat":43.305989,"lon":5.37225,"is_reserved":false,"is_disabled":false,"rental_uris":{"android":"levelo://app?vid=f2bc3bc6-88d7-43c8-99ea-abdbefdce151","ios":"levelo://app?vid=f2bc3bc6-88d7-43c8-99ea-abdbefdce151"},"vehicle_type_id":"4","last_reported":1714766923,"current_range_meters":0,"station_id":"ce4bgqh2rcd13ifvqc4g","pricing_plan_id":"cebpf4jnsgd1na2vs0mg"},{"bike_id":"1b48f2de-cf36-4f67-8bd2-efcbe215c9d4","system_id":"levelo_inurba_marseille","lat":43.305989,"lon":5.37225,"is_reserved":false,"is_disabled":false,"rental_uris":{"android":"levelo://app?vid=1b48f2de-cf36-4f67-8bd2-efcbe215c9d4","ios":"levelo://app?vid=1b48f2de-cf36-4f67-8bd2-efcbe215c9d4"},"vehicle_type_id":"4","last_reported":1714766923,"current_range_meters":23200,"station_id":"ce4bgqh2rcd13ifvqc4g","pricing_plan_id":"cebpf4jnsgd1na2vs0mg"},{"bike_id":"b86359a0-b192-404a-81e2-5e8bb528d818","system_id":"levelo_inurba_marseille","lat":43.311131,"lon":5.377651,"is_reserved":false,"is_disabled":false,"rental_uris":{"android":"levelo://app?vid=b86359a0-b192-404a-81e2-5e8bb528d818","ios":"levelo://app?vid=b86359a0-b192-404a-81e2-5e8bb528d818"},"vehicle_type_id":"4","last_reported":1714766923,"current_range_meters":10400,"station_id":"ce4bgt92rcd13ifvqcg0","pricing_plan_id":"cebpf4jnsgd1na2vs0mg"},{"bike_id":"1690ade3-f258-4077-9c3c-0a858ba89d0e","system_id":"levelo_inurba_marseille","lat":43.31114,"lon":5.37777,"is_reserved":false,"is_disabled":false,"rental_uris":{"android":"levelo://app?vid=1690ade3-f258-4077-9c3c-0a858ba89d0e","ios":"levelo://app?vid=1690ade3-f258-4077-9c3c-0a858ba89d0e"},"vehicle_type_id":"4","last_reported":1714766923,"current_range_meters":0,"station_id":"ce4bgt92rcd13ifvqcg0","pricing_plan_id":"cebpf4jnsgd1na2vs0mg"},{"bike_id":"3cd5781e-9c7c-47ad-b39e-6da7ec1b5dbb","system_id":"levelo_inurba_marseille","lat":43.30773,"lon":5.3765,"is_reserved":false,"is_disabled":false,"rental_uris":{"android":"levelo://app?vid=3cd5781e-9c7c-47ad-b39e-6da7ec1b5dbb","ios":"levelo://app?vid=3cd5781e-9c7c-47ad-b39e-6da7ec1b5dbb"},"vehicle_type_id":"4","last_reported":1714766923,"current_range_meters":0,"station_id":"ce4bgv92rcd13ifvqcq0","pricing_plan_id":"cebpf4jnsgd1na2vs0mg"},{"bike_id":"0f58c79c-5a4d-4dcd-9d8c-32ef5e58bca1","system_id":"levelo_inurba_marseille","lat":43.31226,"lon":5.37967,"is_reserved":false,"is_disabled":false,"rental_uris":{"android":"levelo://app?vid=0f58c79c-5a4d-4dcd-9d8c-32ef5e58bca1","ios":"levelo://app?vid=0f58c79c-5a4d-4dcd-9d8c-32ef5e58bca1"},"vehicle_type_id":"4","last_reported":1714766923,"current_range_meters":2800,"station_id":"","pricing_plan_id":"cebpf4jnsgd1na2vs0mg"},{"bike_id":"a385efa6-fbac-453b-bf28-52e5f5ce83ac","system_id":"levelo_inurba_marseille","lat":43.303046,"lon":5.368981,"is_reserved":false,"is_disabled":false,"rental_uris":{"android":"levelo://app?vid=a385efa6-fbac-453b-bf28-52e5f5ce83ac","ios":"levelo://app?vid=a385efa6-fbac-453b-bf28-52e5f5ce83ac"},"vehicle_type_id":"4","last_reported":1714766923,"current_range_meters":11200,"station_id":"ce4bgqh2rcd13ifvqc5g","pricing_plan_id":"cebpf4jnsgd1na2vs0mg"},{"bike_id":"843a2394-f12b-430a-94a5-9de3545f59fd","system_id":"levelo_inurba_marseille","lat":43.315293,"lon":5.380349,"is_reserved":false,"is_disabled":false,"rental_uris":{"android":"levelo://app?vid=843a2394-f12b-430a-94a5-9de3545f59fd","ios":"levelo://app?vid=843a2394-f12b-430a-94a5-9de3545f59fd"},"vehicle_type_id":"4","last_reported":1714766923,"current_range_meters":31200,"station_id":"ce4bhsp2rcd13ifvqi50","pricing_plan_id":"cebpf4jnsgd1na2vs0mg"},{"bike_id":"bc56b1fc-fdaa-405b-8ab7-76d1696e5de8","system_id":"levelo_inurba_marseille","lat":43.315289,"lon":5.380349,"is_reserved":false,"is_disabled":false,"rental_uris":{"android":"levelo://app?vid=bc56b1fc-fdaa-405b-8ab7-76d1696e5de8","ios":"levelo://app?vid=bc56b1fc-fdaa-405b-8ab7-76d1696e5de8"},"vehicle_type_id":"4","last_reported":1714766923,"current_range_meters":30400,"station_id":"ce4bhsp2rcd13ifvqi50","pricing_plan_id":"cebpf4jnsgd1na2vs0mg"},{"bike_id":"eb0d1368-85cd-4a98-9542-b8265b052419","system_id":"levelo_inurba_marseille","lat":43.315289,"lon":5.380349,"is_reserved":false,"is_disabled":false,"rental_uris":{"android":"levelo://app?vid=eb0d1368-85cd-4a98-9542-b8265b052419","ios":"levelo://app?vid=eb0d1368-85cd-4a98-9542-b8265b052419"},"vehicle_type_id":"4","last_reported":1714766923,"current_range_meters":31200,"station_id":"ce4bhsp2rcd13ifvqi50","pricing_plan_id":"cebpf4jnsgd1na2vs0mg"},{"bike_id":"998272b4-3a8a-43d1-8102-7f21194a824f","system_id":"levelo_inurba_marseille","lat":43.315293,"lon":5.380349,"is_reserved":false,"is_disabled":false,"rental_uris":{"android":"levelo://app?vid=998272b4-3a8a-43d1-8102-7f21194a824f","ios":"levelo://app?vid=998272b4-3a8a-43d1-8102-7f21194a824f"},"vehicle_type_id":"4","last_reported":1714766923,"current_range_meters":6800,"station_id":"ce4bhsp2rcd13ifvqi50","pricing_plan_id":"cebpf4jnsgd1na2vs0mg"},{"bike_id":"670f43b4-9a95-4676-82c8-1db91f2b5c85","system_id":"levelo_inurba_marseille","lat":43.309039,"lon":5.371797,"is_reserved":false,"is_disabled":false,"rental_uris":{"android":"levelo://app?vid=670f43b4-9a95-4676-82c8-1db91f2b5c85","ios":"levelo://app?vid=670f43b4-9a95-4676-82c8-1db91f2b5c85"},"vehicle_type_id":"4","last_reported":1714766923,"current_range_meters":11200,"station_id":"ce4bguh2rcd13ifvqckg","pricing_plan_id":"cebpf4jnsgd1na2vs0mg"},{"bike_id":"18fbdcd3-5529-4c31-b143-e62ae4bf9ae2","system_id":"levelo_inurba_marseille","lat":43.301939,"lon":5.366286,"is_reserved":false,"is_disabled":false,"rental_uris":{"android":"levelo://app?vid=18fbdcd3-5529-4c31-b143-e62ae4bf9ae2","ios":"levelo://app?vid=18fbdcd3-5529-4c31-b143-e62ae4bf9ae2"},"vehicle_type_id":"4","last_reported":1714766923,"current_range_meters":8400,"station_id":"ce4bgrh2rcd13ifvqc8g","pricing_plan_id":"cebpf4jnsgd1na2vs0mg"},{"bike_id":"da3abb79-2fff-43f5-9992-1cfae8f4dced","system_id":"levelo_inurba_marseille","lat":43.301939,"lon":5.366286,"is_reserved":false,"is_disabled":false,"rental_uris":{"android":"levelo://app?vid=da3abb79-2fff-43f5-9992-1cfae8f4dced","ios":"levelo://app?vid=da3abb79-2fff-43f5-9992-1cfae8f4dced"},"vehicle_type_id":"4","last_reported":1714766923,"current_range_meters":7600,"station_id":"ce4bgrh2rcd13ifvqc8g","pricing_plan_id":"cebpf4jnsgd1na2vs0mg"},{"bike_id":"c119fd4a-1f7c-46b8-9212-ed7974ab23be","system_id":"levelo_inurba_marseille","lat":43.301939,"lon":5.366286,"is_reserved":false,"is_disabled":false,"rental_uris":{"android":"levelo://app?vid=c119fd4a-1f7c-46b8-9212-ed7974ab23be","ios":"levelo://app?vid=c119fd4a-1f7c-46b8-9212-ed7974ab23be"},"vehicle_type_id":"4","last_reported":1714766923,"current_range_meters":28000,"station_id":"ce4bgrh2rcd13ifvqc8g","pricing_plan_id":"cebpf4jnsgd1na2vs0mg"},{"bike_id":"28462361-7047-4b98-96ca-bcfd70a6a89b","system_id":"levelo_inurba_marseille","lat":43.308012,"lon":5.381511,"is_reserved":false,"is_disabled":false,"rental_uris":{"android":"levelo://app?vid=28462361-7047-4b98-96ca-bcfd70a6a89b","ios":"levelo://app?vid=28462361-7047-4b98-96ca-bcfd70a6a89b"},"vehicle_type_id":"4","last_reported":1714766923,"current_range_meters":5200,"station_id":"ce4bgt12rcd13ifvqce0","pricing_plan_id":"cebpf4jnsgd1na2vs0mg"},{"bike_id":"bbf5118e-d69b-4dac-aaf6-f2cf0f3a692f","system_id":"levelo_inurba_marseille","lat":43.308012,"lon":5.381511,"is_reserved":false,"is_disabled":false,"rental_uris":{"android":"levelo://app?vid=bbf5118e-d69b-4dac-aaf6-f2cf0f3a692f","ios":"levelo://app?vid=bbf5118e-d69b-4dac-aaf6-f2cf0f3a692f"},"vehicle_type_id":"4","last_reported":1714766923,"current_range_meters":14400,"station_id":"ce4bgt12rcd13ifvqce0","pricing_plan_id":"cebpf4jnsgd1na2vs0mg"},{"bike_id":"f6793b88-2243-454a-9d7a-dae3e81dbb62","system_id":"levelo_inurba_marseille","lat":43.308012,"lon":5.381511,"is_reserved":false,"is_disabled":false,"rental_uris":{"android":"levelo://app?vid=f6793b88-2243-454a-9d7a-dae3e81dbb62","ios":"levelo://app?vid=f6793b88-2243-454a-9d7a-dae3e81dbb62"},"vehicle_type_id":"4","last_reported":1714766923,"current_range_meters":12800,"station_id":"ce4bgt12rcd13ifvqce0","pricing_plan_id":"cebpf4jnsgd1na2vs0mg"},{"bike_id":"7424d312-8042-46a7-93a1-0f2b2bca3a05","system_id":"levelo_inurba_marseille","lat":43.308012,"lon":5.381511,"is_reserved":false,"is_disabled":false,"rental_uris":{"android":"levelo://app?vid=7424d312-8042-46a7-93a1-0f2b2bca3a05","ios":"levelo://app?vid=7424d312-8042-46a7-93a1-0f2b2bca3a05"},"vehicle_type_id":"4","last_reported":1714766923,"current_range_meters":0,"station_id":"ce4bgt12rcd13ifvqce0","pricing_plan_id":"cebpf4jnsgd1na2vs0mg"},{"bike_id":"865c1a52-28be-4081-b828-c226738ceca2","system_id":"levelo_inurba_marseille","lat":43.304659,"lon":5.378889,"is_reserved":false,"is_disabled":false,"rental_uris":{"android":"levelo://app?vid=865c1a52-28be-4081-b828-c226738ceca2","ios":"levelo://app?vid=865c1a52-28be-4081-b828-c226738ceca2"},"vehicle_type_id":"4","last_reported":1714766923,"current_range_meters":0,"station_id":"ce4bgup2rcd13ifvqcn0","pricing_plan_id":"cebpf4jnsgd1na2vs0mg"},{"bike_id":"98a177cc-0a65-43ba-a311-5643c54c0a4f","system_id":"levelo_inurba_marseille","lat":43.308012,"lon":5.381511,"is_reserved":false,"is_disabled":false,"rental_uris":{"android":"levelo://app?vid=98a177cc-0a65-43ba-a311-5643c54c0a4f","ios":"levelo://app?vid=98a177cc-0a65-43ba-a311-5643c54c0a4f"},"vehicle_type_id":"4","last_reported":1714766923,"current_range_meters":16000,"station_id":"ce4bgt12rcd13ifvqce0","pricing_plan_id":"cebpf4jnsgd1na2vs0mg"},{"bike_id":"b451744d-c160-4e84-a640-4d46a22da055","system_id":"levelo_inurba_marseille","lat":43.304606,"lon":5.379026,"is_reserved":false,"is_disabled":false,"rental_uris":{"android":"levelo://app?vid=b451744d-c160-4e84-a640-4d46a22da055","ios":"levelo://app?vid=b451744d-c160-4e84-a640-4d46a22da055"},"vehicle_type_id":"4","last_reported":1714766923,"current_range_meters":0,"station_id":"ce4bgup2rcd13ifvqcn0","pricing_plan_id":"cebpf4jnsgd1na2vs0mg"},{"bike_id":"3e92a06d-8c66-4da7-9a35-2f24e385cffa","system_id":"levelo_inurba_marseille","lat":43.304606,"lon":5.379026,"is_reserved":false,"is_disabled":false,"rental_uris":{"android":"levelo://app?vid=3e92a06d-8c66-4da7-9a35-2f24e385cffa","ios":"levelo://app?vid=3e92a06d-8c66-4da7-9a35-2f24e385cffa"},"vehicle_type_id":"4","last_reported":1714766923,"current_range_meters":2000,"station_id":"ce4bgup2rcd13ifvqcn0","pricing_plan_id":"cebpf4jnsgd1na2vs0mg"},{"bike_id":"ad04809a-58ef-4c55-bfba-4a69c17afd33","system_id":"levelo_inurba_marseille","lat":43.32474,"lon":5.36563,"is_reserved":false,"is_disabled":false,"rental_uris":{"android":"levelo://app?vid=ad04809a-58ef-4c55-bfba-4a69c17afd33","ios":"levelo://app?vid=ad04809a-58ef-4c55-bfba-4a69c17afd33"},"vehicle_type_id":"4","last_reported":1714766923,"current_range_meters":24000,"station_id":"ce4bhs12rcd13ifvqhvg","pricing_plan_id":"cebpf4jnsgd1na2vs0mg"},{"bike_id":"f1810f30-de1d-43db-99e3-9ac794fc962f","system_id":"levelo_inurba_marseille","lat":43.32478,"lon":5.3656,"is_reserved":false,"is_disabled":false,"rental_uris":{"android":"levelo://app?vid=f1810f30-de1d-43db-99e3-9ac794fc962f","ios":"levelo://app?vid=f1810f30-de1d-43db-99e3-9ac794fc962f"},"vehicle_type_id":"4","last_reported":1714766923,"current_range_meters":0,"station_id":"ce4bhs12rcd13ifvqhvg","pricing_plan_id":"cebpf4jnsgd1na2vs0mg"},{"bike_id":"dff9f089-e9ad-49de-be1b-ef405955dfcc","system_id":"levelo_inurba_marseille","lat":43.32478,"lon":5.36556,"is_reserved":false,"is_disabled":false,"rental_uris":{"android":"levelo://app?vid=dff9f089-e9ad-49de-be1b-ef405955dfcc","ios":"levelo://app?vid=dff9f089-e9ad-49de-be1b-ef405955dfcc"},"vehicle_type_id":"4","last_reported":1714766923,"current_range_meters":7600,"station_id":"ce4bhs12rcd13ifvqhvg","pricing_plan_id":"cebpf4jnsgd1na2vs0mg"},{"bike_id":"e0baa39e-cffd-4823-bd93-a1ffe73b5a4c","system_id":"levelo_inurba_marseille","lat":43.32479,"lon":5.36567,"is_reserved":false,"is_disabled":false,"rental_uris":{"android":"levelo://app?vid=e0baa39e-cffd-4823-bd93-a1ffe73b5a4c","ios":"levelo://app?vid=e0baa39e-cffd-4823-bd93-a1ffe73b5a4c"},"vehicle_type_id":"4","last_reported":1714766923,"current_range_meters":0,"station_id":"ce4bhs12rcd13ifvqhvg","pricing_plan_id":"cebpf4jnsgd1na2vs0mg"},{"bike_id":"8bfbedd1-ce45-4313-b336-4cd6308fff65","system_id":"levelo_inurba_marseille","lat":43.32481,"lon":5.36554,"is_reserved":false,"is_disabled":false,"rental_uris":{"android":"levelo://app?vid=8bfbedd1-ce45-4313-b336-4cd6308fff65","ios":"levelo://app?vid=8bfbedd1-ce45-4313-b336-4cd6308fff65"},"vehicle_type_id":"4","last_reported":1714766923,"current_range_meters":22800,"station_id":"ce4bhs12rcd13ifvqhvg","pricing_plan_id":"cebpf4jnsgd1na2vs0mg"},{"bike_id":"46ddee76-99a1-44b8-8282-c8d365225419","system_id":"levelo_inurba_marseille","lat":43.324771,"lon":5.36557,"is_reserved":false,"is_disabled":false,"rental_uris":{"android":"levelo://app?vid=46ddee76-99a1-44b8-8282-c8d365225419","ios":"levelo://app?vid=46ddee76-99a1-44b8-8282-c8d365225419"},"vehicle_type_id":"4","last_reported":1714766923,"current_range_meters":3600,"station_id":"ce4bhs12rcd13ifvqhvg","pricing_plan_id":"cebpf4jnsgd1na2vs0mg"},{"bike_id":"4ecf1310-b05d-4109-8ee3-de0bb58656b7","system_id":"levelo_inurba_marseille","lat":43.324771,"lon":5.36557,"is_reserved":false,"is_disabled":false,"rental_uris":{"android":"levelo://app?vid=4ecf1310-b05d-4109-8ee3-de0bb58656b7","ios":"levelo://app?vid=4ecf1310-b05d-4109-8ee3-de0bb58656b7"},"vehicle_type_id":"4","last_reported":1714766923,"current_range_meters":9200,"station_id":"ce4bhs12rcd13ifvqhvg","pricing_plan_id":"cebpf4jnsgd1na2vs0mg"},{"bike_id":"f28f163f-e430-42e0-9a98-a276f532d3b2","system_id":"levelo_inurba_marseille","lat":43.32491,"lon":5.36568,"is_reserved":false,"is_disabled":false,"rental_uris":{"android":"levelo://app?vid=f28f163f-e430-42e0-9a98-a276f532d3b2","ios":"levelo://app?vid=f28f163f-e430-42e0-9a98-a276f532d3b2"},"vehicle_type_id":"4","last_reported":1714766923,"current_range_meters":3600,"station_id":"ce4bhs12rcd13ifvqhvg","pricing_plan_id":"cebpf4jnsgd1na2vs0mg"},{"bike_id":"792d6004-fe79-4255-b5aa-876c877353b5","system_id":"levelo_inurba_marseille","lat":43.310804,"lon":5.38359,"is_reserved":false,"is_disabled":false,"rental_uris":{"android":"levelo://app?vid=792d6004-fe79-4255-b5aa-876c877353b5","ios":"levelo://app?vid=792d6004-fe79-4255-b5aa-876c877353b5"},"vehicle_type_id":"4","last_reported":1714766923,"current_range_meters":2800,"station_id":"ce4bgv92rcd13ifvqcr0","pricing_plan_id":"cebpf4jnsgd1na2vs0mg"},{"bike_id":"a2349dc4-5160-497d-b4da-6d15e2ba2c88","system_id":"levelo_inurba_marseille","lat":43.310804,"lon":5.38359,"is_reserved":false,"is_disabled":false,"rental_uris":{"android":"levelo://app?vid=a2349dc4-5160-497d-b4da-6d15e2ba2c88","ios":"levelo://app?vid=a2349dc4-5160-497d-b4da-6d15e2ba2c88"},"vehicle_type_id":"4","last_reported":1714766923,"current_range_meters":0,"station_id":"ce4bgv92rcd13ifvqcr0","pricing_plan_id":"cebpf4jnsgd1na2vs0mg"},{"bike_id":"e8abf879-fab1-433a-9910-13fd46a76e73","system_id":"levelo_inurba_marseille","lat":43.310804,"lon":5.38359,"is_reserved":false,"is_disabled":false,"rental_uris":{"android":"levelo://app?vid=e8abf879-fab1-433a-9910-13fd46a76e73","ios":"levelo://app?vid=e8abf879-fab1-433a-9910-13fd46a76e73"},"vehicle_type_id":"4","last_reported":1714766923,"current_range_meters":3200,"station_id":"ce4bgv92rcd13ifvqcr0","pricing_plan_id":"cebpf4jnsgd1na2vs0mg"},{"bike_id":"f17cfd94-11d4-44e4-87f3-90fedad27810","system_id":"levelo_inurba_marseille","lat":43.301429,"lon":5.37413,"is_reserved":false,"is_disabled":false,"rental_uris":{"android":"levelo://app?vid=f17cfd94-11d4-44e4-87f3-90fedad27810","ios":"levelo://app?vid=f17cfd94-11d4-44e4-87f3-90fedad27810"},"vehicle_type_id":"4","last_reported":1714766923,"current_range_meters":26000,"station_id":"ce4bgs92rcd13ifvqcc0","pricing_plan_id":"cebpf4jnsgd1na2vs0mg"},{"bike_id":"bfb5273c-9031-48eb-a2b7-34acd4c02283","system_id":"levelo_inurba_marseille","lat":43.301429,"lon":5.37413,"is_reserved":false,"is_disabled":false,"rental_uris":{"android":"levelo://app?vid=bfb5273c-9031-48eb-a2b7-34acd4c02283","ios":"levelo://app?vid=bfb5273c-9031-48eb-a2b7-34acd4c02283"},"vehicle_type_id":"4","last_reported":1714766923,"current_range_meters":0,"station_id":"ce4bgs92rcd13ifvqcc0","pricing_plan_id":"cebpf4jnsgd1na2vs0mg"},{"bike_id":"0d08a466-6e9f-49b7-8f58-29ada7342f71","system_id":"levelo_inurba_marseille","lat":43.31997,"lon":5.38147,"is_reserved":false,"is_disabled":false,"rental_uris":{"android":"levelo://app?vid=0d08a466-6e9f-49b7-8f58-29ada7342f71","ios":"levelo://app?vid=0d08a466-6e9f-49b7-8f58-29ada7342f71"},"vehicle_type_id":"4","last_reported":1714766923,"current_range_meters":8400,"station_id":"ce4bhr12rcd13ifvqhpg","pricing_plan_id":"cebpf4jnsgd1na2vs0mg"},{"bike_id":"c7c2b076-94b8-4d5a-9e9d-ddbc88b041ec","system_id":"levelo_inurba_marseille","lat":43.32001,"lon":5.38152,"is_reserved":false,"is_disabled":false,"rental_uris":{"android":"levelo://app?vid=c7c2b076-94b8-4d5a-9e9d-ddbc88b041ec","ios":"levelo://app?vid=c7c2b076-94b8-4d5a-9e9d-ddbc88b041ec"},"vehicle_type_id":"4","last_reported":1714766923,"current_range_meters":13600,"station_id":"ce4bhr12rcd13ifvqhpg","pricing_plan_id":"cebpf4jnsgd1na2vs0mg"},{"bike_id":"3dddbc1d-c376-46ac-a9cc-5af704b413b9","system_id":"levelo_inurba_marseille","lat":43.313571,"lon":5.384829,"is_reserved":false,"is_disabled":false,"rental_uris":{"android":"levelo://app?vid=3dddbc1d-c376-46ac-a9cc-5af704b413b9","ios":"levelo://app?vid=3dddbc1d-c376-46ac-a9cc-5af704b413b9"},"vehicle_type_id":"4","last_reported":1714766923,"current_range_meters":24400,"station_id":"ce4bgt92rcd13ifvqcf0","pricing_plan_id":"cebpf4jnsgd1na2vs0mg"},{"bike_id":"77bc6bc3-7cf5-4a37-9694-ca7ba0523327","system_id":"levelo_inurba_marseille","lat":43.299366,"lon":5.365628,"is_reserved":false,"is_disabled":false,"rental_uris":{"android":"levelo://app?vid=77bc6bc3-7cf5-4a37-9694-ca7ba0523327","ios":"levelo://app?vid=77bc6bc3-7cf5-4a37-9694-ca7ba0523327"},"vehicle_type_id":"4","last_reported":1714766923,"current_range_meters":0,"station_id":"ce4bgm92rcd13ifvqbr0","pricing_plan_id":"cebpf4jnsgd1na2vs0mg"},{"bike_id":"f580990b-c83a-4f0b-9f8c-5c5a2410c7c8","system_id":"levelo_inurba_marseille","lat":43.299724,"lon":5.371829,"is_reserved":false,"is_disabled":false,"rental_uris":{"android":"levelo://app?vid=f580990b-c83a-4f0b-9f8c-5c5a2410c7c8","ios":"levelo://app?vid=f580990b-c83a-4f0b-9f8c-5c5a2410c7c8"},"vehicle_type_id":"4","last_reported":1714766923,"current_range_meters":22800,"station_id":"ce4bgr92rcd13ifvqc7g","pricing_plan_id":"cebpf4jnsgd1na2vs0mg"},{"bike_id":"690dfbe3-f0f4-4457-97ac-6d2e2e3b686f","system_id":"levelo_inurba_marseille","lat":43.299724,"lon":5.371829,"is_reserved":false,"is_disabled":false,"rental_uris":{"android":"levelo://app?vid=690dfbe3-f0f4-4457-97ac-6d2e2e3b686f","ios":"levelo://app?vid=690dfbe3-f0f4-4457-97ac-6d2e2e3b686f"},"vehicle_type_id":"4","last_reported":1714766923,"current_range_meters":9600,"station_id":"ce4bgr92rcd13ifvqc7g","pricing_plan_id":"cebpf4jnsgd1na2vs0mg"},{"bike_id":"aad9d247-e24e-4321-ae1e-a98defd3cc2c","system_id":"levelo_inurba_marseille","lat":43.29974,"lon":5.37166,"is_reserved":false,"is_disabled":false,"rental_uris":{"android":"levelo://app?vid=aad9d247-e24e-4321-ae1e-a98defd3cc2c","ios":"levelo://app?vid=aad9d247-e24e-4321-ae1e-a98defd3cc2c"},"vehicle_type_id":"4","last_reported":1714766923,"current_range_meters":7200,"station_id":"ce4bgr92rcd13ifvqc7g","pricing_plan_id":"cebpf4jnsgd1na2vs0mg"},{"bike_id":"3d80d2be-8f71-4619-ae54-084585452ff5","system_id":"levelo_inurba_marseille","lat":43.299718,"lon":5.371835,"is_reserved":false,"is_disabled":false,"rental_uris":{"android":"levelo://app?vid=3d80d2be-8f71-4619-ae54-084585452ff5","ios":"levelo://app?vid=3d80d2be-8f71-4619-ae54-084585452ff5"},"vehicle_type_id":"4","last_reported":1714766923,"current_range_meters":8000,"station_id":"ce4bgr92rcd13ifvqc7g","pricing_plan_id":"cebpf4jnsgd1na2vs0mg"},{"bike_id":"34baa4d6-a523-496d-b988-eda377da6b9b","system_id":"levelo_inurba_marseille","lat":43.304606,"lon":5.379026,"is_reserved":false,"is_disabled":false,"rental_uris":{"android":"levelo://app?vid=34baa4d6-a523-496d-b988-eda377da6b9b","ios":"levelo://app?vid=34baa4d6-a523-496d-b988-eda377da6b9b"},"vehicle_type_id":"4","last_reported":1714766923,"current_range_meters":28800,"station_id":"ce4bgup2rcd13ifvqcn0","pricing_plan_id":"cebpf4jnsgd1na2vs0mg"},{"bike_id":"65613381-a804-44b6-9435-a552b7dae75d","system_id":"levelo_inurba_marseille","lat":43.298433,"lon":5.362774,"is_reserved":false,"is_disabled":false,"rental_uris":{"android":"levelo://app?vid=65613381-a804-44b6-9435-a552b7dae75d","ios":"levelo://app?vid=65613381-a804-44b6-9435-a552b7dae75d"},"vehicle_type_id":"4","last_reported":1714766923,"current_range_meters":26800,"station_id":"ce4bgpp2rcd13ifvqc3g","pricing_plan_id":"cebpf4jnsgd1na2vs0mg"},{"bike_id":"1b45a14a-a789-4a8c-9d99-063d14e88a2b","system_id":"levelo_inurba_marseille","lat":43.298433,"lon":5.362774,"is_reserved":false,"is_disabled":false,"rental_uris":{"android":"levelo://app?vid=1b45a14a-a789-4a8c-9d99-063d14e88a2b","ios":"levelo://app?vid=1b45a14a-a789-4a8c-9d99-063d14e88a2b"},"vehicle_type_id":"4","last_reported":1714766923,"current_range_meters":0,"station_id":"ce4bgpp2rcd13ifvqc3g","pricing_plan_id":"cebpf4jnsgd1na2vs0mg"},{"bike_id":"dc2d3a4f-8e5d-4420-8162-33ae06b66bd6","system_id":"levelo_inurba_marseille","lat":43.305364,"lon":5.384119,"is_reserved":false,"is_disabled":false,"rental_uris":{"android":"levelo://app?vid=dc2d3a4f-8e5d-4420-8162-33ae06b66bd6","ios":"levelo://app?vid=dc2d3a4f-8e5d-4420-8162-33ae06b66bd6"},"vehicle_type_id":"4","last_reported":1714766923,"current_range_meters":27600,"station_id":"ce4bgg92rcd13ifvqb30","pricing_plan_id":"cebpf4jnsgd1na2vs0mg"},{"bike_id":"81593ba3-953e-4e84-91dc-bb0ae27140d1","system_id":"levelo_inurba_marseille","lat":43.305364,"lon":5.384119,"is_reserved":false,"is_disabled":false,"rental_uris":{"android":"levelo://app?vid=81593ba3-953e-4e84-91dc-bb0ae27140d1","ios":"levelo://app?vid=81593ba3-953e-4e84-91dc-bb0ae27140d1"},"vehicle_type_id":"4","last_reported":1714766923,"current_range_meters":14000,"station_id":"ce4bgg92rcd13ifvqb30","pricing_plan_id":"cebpf4jnsgd1na2vs0mg"},{"bike_id":"e93d916f-46b1-43b2-bbed-a2dbcf96f0c4","system_id":"levelo_inurba_marseille","lat":43.299243,"lon":5.37481,"is_reserved":false,"is_disabled":false,"rental_uris":{"android":"levelo://app?vid=e93d916f-46b1-43b2-bbed-a2dbcf96f0c4","ios":"levelo://app?vid=e93d916f-46b1-43b2-bbed-a2dbcf96f0c4"},"vehicle_type_id":"4","last_reported":1714766923,"current_range_meters":2400,"station_id":"ce4bgjh2rcd13ifvqbg0","pricing_plan_id":"cebpf4jnsgd1na2vs0mg"},{"bike_id":"73065751-57c3-487f-a44f-db9f4baaf30a","system_id":"levelo_inurba_marseille","lat":43.299243,"lon":5.37481,"is_reserved":false,"is_disabled":false,"rental_uris":{"android":"levelo://app?vid=73065751-57c3-487f-a44f-db9f4baaf30a","ios":"levelo://app?vid=73065751-57c3-487f-a44f-db9f4baaf30a"},"vehicle_type_id":"4","last_reported":1714766923,"current_range_meters":31600,"station_id":"ce4bgjh2rcd13ifvqbg0","pricing_plan_id":"cebpf4jnsgd1na2vs0mg"},{"bike_id":"eb421157-6de9-47f7-b2a5-5ae88ce632f3","system_id":"levelo_inurba_marseille","lat":43.311722,"lon":5.387247,"is_reserved":false,"is_disabled":false,"rental_uris":{"android":"levelo://app?vid=eb421157-6de9-47f7-b2a5-5ae88ce632f3","ios":"levelo://app?vid=eb421157-6de9-47f7-b2a5-5ae88ce632f3"},"vehicle_type_id":"4","last_reported":1714766923,"current_range_meters":19200,"station_id":"ce4bgv12rcd13ifvqcp0","pricing_plan_id":"cebpf4jnsgd1na2vs0mg"},{"bike_id":"3eb9fd1c-b9a6-4dfa-9ebd-a68a697484c0","system_id":"levelo_inurba_marseille","lat":43.311722,"lon":5.387247,"is_reserved":false,"is_disabled":false,"rental_uris":{"android":"levelo://app?vid=3eb9fd1c-b9a6-4dfa-9ebd-a68a697484c0","ios":"levelo://app?vid=3eb9fd1c-b9a6-4dfa-9ebd-a68a697484c0"},"vehicle_type_id":"4","last_reported":1714766923,"current_range_meters":29200,"station_id":"ce4bgv12rcd13ifvqcp0","pricing_plan_id":"cebpf4jnsgd1na2vs0mg"},{"bike_id":"bf4acb4c-d38a-427d-940e-57842c74ee30","system_id":"levelo_inurba_marseille","lat":43.3118,"lon":5.38715,"is_reserved":false,"is_disabled":false,"rental_uris":{"android":"levelo://app?vid=bf4acb4c-d38a-427d-940e-57842c74ee30","ios":"levelo://app?vid=bf4acb4c-d38a-427d-940e-57842c74ee30"},"vehicle_type_id":"4","last_reported":1714766923,"current_range_meters":6000,"station_id":"ce4bgv12rcd13ifvqcp0","pricing_plan_id":"cebpf4jnsgd1na2vs0mg"},{"bike_id":"982d5251-bf6a-4a9c-bebb-13273f6b98a1","system_id":"levelo_inurba_marseille","lat":43.31179,"lon":5.38715,"is_reserved":false,"is_disabled":false,"rental_uris":{"android":"levelo://app?vid=982d5251-bf6a-4a9c-bebb-13273f6b98a1","ios":"levelo://app?vid=982d5251-bf6a-4a9c-bebb-13273f6b98a1"},"vehicle_type_id":"4","last_reported":1714766923,"current_range_meters":0,"station_id":"ce4bgv12rcd13ifvqcp0","pricing_plan_id":"cebpf4jnsgd1na2vs0mg"},{"bike_id":"a1c8dcb4-18aa-420d-b0de-dc9af6fe06c1","system_id":"levelo_inurba_marseille","lat":43.311722,"lon":5.387247,"is_reserved":false,"is_disabled":false,"rental_uris":{"android":"levelo://app?vid=a1c8dcb4-18aa-420d-b0de-dc9af6fe06c1","ios":"levelo://app?vid=a1c8dcb4-18aa-420d-b0de-dc9af6fe06c1"},"vehicle_type_id":"4","last_reported":1714766923,"current_range_meters":28800,"station_id":"ce4bgv12rcd13ifvqcp0","pricing_plan_id":"cebpf4jnsgd1na2vs0mg"},{"bike_id":"3d4d792b-8cdf-4380-8ce0-4952c066a680","system_id":"levelo_inurba_marseille","lat":43.3117,"lon":5.38716,"is_reserved":false,"is_disabled":false,"rental_uris":{"android":"levelo://app?vid=3d4d792b-8cdf-4380-8ce0-4952c066a680","ios":"levelo://app?vid=3d4d792b-8cdf-4380-8ce0-4952c066a680"},"vehicle_type_id":"4","last_reported":1714766923,"current_range_meters":12000,"station_id":"ce4bgv12rcd13ifvqcp0","pricing_plan_id":"cebpf4jnsgd1na2vs0mg"},{"bike_id":"f57c5394-ec7b-4a15-8394-3af297f455a5","system_id":"levelo_inurba_marseille","lat":43.31179,"lon":5.38717,"is_reserved":false,"is_disabled":false,"rental_uris":{"android":"levelo://app?vid=f57c5394-ec7b-4a15-8394-3af297f455a5","ios":"levelo://app?vid=f57c5394-ec7b-4a15-8394-3af297f455a5"},"vehicle_type_id":"4","last_reported":1714766923,"current_range_meters":2000,"station_id":"ce4bgv12rcd13ifvqcp0","pricing_plan_id":"cebpf4jnsgd1na2vs0mg"},{"bike_id":"b2c16f7f-eff4-4e48-89d5-71c4b16ad800","system_id":"levelo_inurba_marseille","lat":43.31169,"lon":5.38717,"is_reserved":false,"is_disabled":false,"rental_uris":{"android":"levelo://app?vid=b2c16f7f-eff4-4e48-89d5-71c4b16ad800","ios":"levelo://app?vid=b2c16f7f-eff4-4e48-89d5-71c4b16ad800"},"vehicle_type_id":"4","last_reported":1714766923,"current_range_meters":4000,"station_id":"ce4bgv12rcd13ifvqcp0","pricing_plan_id":"cebpf4jnsgd1na2vs0mg"},{"bike_id":"a503e4e0-0384-4a8a-bd62-3dde581bcbc7","system_id":"levelo_inurba_marseille","lat":43.299243,"lon":5.374807,"is_reserved":false,"is_disabled":false,"rental_uris":{"android":"levelo://app?vid=a503e4e0-0384-4a8a-bd62-3dde581bcbc7","ios":"levelo://app?vid=a503e4e0-0384-4a8a-bd62-3dde581bcbc7"},"vehicle_type_id":"4","last_reported":1714766923,"current_range_meters":5200,"station_id":"ce4bgjh2rcd13ifvqbg0","pricing_plan_id":"cebpf4jnsgd1na2vs0mg"},{"bike_id":"f63b10e4-0334-466b-b9cd-48b8f613663f","system_id":"levelo_inurba_marseille","lat":43.311722,"lon":5.387247,"is_reserved":false,"is_disabled":false,"rental_uris":{"android":"levelo://app?vid=f63b10e4-0334-466b-b9cd-48b8f613663f","ios":"levelo://app?vid=f63b10e4-0334-466b-b9cd-48b8f613663f"},"vehicle_type_id":"4","last_reported":1714766923,"current_range_meters":19600,"station_id":"ce4bgv12rcd13ifvqcp0","pricing_plan_id":"cebpf4jnsgd1na2vs0mg"},{"bike_id":"2c151509-d2db-45b6-ad74-d94c018a9753","system_id":"levelo_inurba_marseille","lat":43.311722,"lon":5.387247,"is_reserved":false,"is_disabled":false,"rental_uris":{"android":"levelo://app?vid=2c151509-d2db-45b6-ad74-d94c018a9753","ios":"levelo://app?vid=2c151509-d2db-45b6-ad74-d94c018a9753"},"vehicle_type_id":"4","last_reported":1714766923,"current_range_meters":24000,"station_id":"ce4bgv12rcd13ifvqcp0","pricing_plan_id":"cebpf4jnsgd1na2vs0mg"},{"bike_id":"6dfb0795-2a7c-4296-a525-1b26621bf791","system_id":"levelo_inurba_marseille","lat":43.311722,"lon":5.387247,"is_reserved":false,"is_disabled":false,"rental_uris":{"android":"levelo://app?vid=6dfb0795-2a7c-4296-a525-1b26621bf791","ios":"levelo://app?vid=6dfb0795-2a7c-4296-a525-1b26621bf791"},"vehicle_type_id":"4","last_reported":1714766923,"current_range_meters":4000,"station_id":"ce4bgv12rcd13ifvqcp0","pricing_plan_id":"cebpf4jnsgd1na2vs0mg"},{"bike_id":"77aaeb51-e4ab-4731-845b-a5d9b3fa3250","system_id":"levelo_inurba_marseille","lat":43.311722,"lon":5.387247,"is_reserved":false,"is_disabled":false,"rental_uris":{"android":"levelo://app?vid=77aaeb51-e4ab-4731-845b-a5d9b3fa3250","ios":"levelo://app?vid=77aaeb51-e4ab-4731-845b-a5d9b3fa3250"},"vehicle_type_id":"4","last_reported":1714766923,"current_range_meters":16800,"station_id":"ce4bgv12rcd13ifvqcp0","pricing_plan_id":"cebpf4jnsgd1na2vs0mg"},{"bike_id":"cdbf8647-cc31-4e65-b83c-1cb41989b6eb","system_id":"levelo_inurba_marseille","lat":43.299243,"lon":5.37481,"is_reserved":false,"is_disabled":false,"rental_uris":{"android":"levelo://app?vid=cdbf8647-cc31-4e65-b83c-1cb41989b6eb","ios":"levelo://app?vid=cdbf8647-cc31-4e65-b83c-1cb41989b6eb"},"vehicle_type_id":"4","last_reported":1714766923,"current_range_meters":4800,"station_id":"ce4bgjh2rcd13ifvqbg0","pricing_plan_id":"cebpf4jnsgd1na2vs0mg"},{"bike_id":"67a77d0a-ffff-4bde-9839-a5c73f026ffb","system_id":"levelo_inurba_marseille","lat":43.29807,"lon":5.36326,"is_reserved":false,"is_disabled":false,"rental_uris":{"android":"levelo://app?vid=67a77d0a-ffff-4bde-9839-a5c73f026ffb","ios":"levelo://app?vid=67a77d0a-ffff-4bde-9839-a5c73f026ffb"},"vehicle_type_id":"4","last_reported":1714766923,"current_range_meters":0,"station_id":"","pricing_plan_id":"cebpf4jnsgd1na2vs0mg"},{"bike_id":"6d9ebd2f-77bc-435c-8759-475831492500","system_id":"levelo_inurba_marseille","lat":43.311686,"lon":5.387393,"is_reserved":false,"is_disabled":false,"rental_uris":{"android":"levelo://app?vid=6d9ebd2f-77bc-435c-8759-475831492500","ios":"levelo://app?vid=6d9ebd2f-77bc-435c-8759-475831492500"},"vehicle_type_id":"4","last_reported":1714766923,"current_range_meters":0,"station_id":"ce4bgv12rcd13ifvqcp0","pricing_plan_id":"cebpf4jnsgd1na2vs0mg"},{"bike_id":"975b2274-c065-404b-9277-3804d073a593","system_id":"levelo_inurba_marseille","lat":43.311722,"lon":5.387247,"is_reserved":false,"is_disabled":false,"rental_uris":{"android":"levelo://app?vid=975b2274-c065-404b-9277-3804d073a593","ios":"levelo://app?vid=975b2274-c065-404b-9277-3804d073a593"},"vehicle_type_id":"4","last_reported":1714766923,"current_range_meters":13200,"station_id":"ce4bgv12rcd13ifvqcp0","pricing_plan_id":"cebpf4jnsgd1na2vs0mg"},{"bike_id":"c7897f93-193e-47e7-8e78-2ae117357995","system_id":"levelo_inurba_marseille","lat":43.297924,"lon":5.37104,"is_reserved":false,"is_disabled":false,"rental_uris":{"android":"levelo://app?vid=c7897f93-193e-47e7-8e78-2ae117357995","ios":"levelo://app?vid=c7897f93-193e-47e7-8e78-2ae117357995"},"vehicle_type_id":"4","last_reported":1714766923,"current_range_meters":12800,"station_id":"ce4bgop2rcd13ifvqc1g","pricing_plan_id":"cebpf4jnsgd1na2vs0mg"},{"bike_id":"723ab91d-b6d3-43be-8524-74ec8622a35f","system_id":"levelo_inurba_marseille","lat":43.311722,"lon":5.387247,"is_reserved":false,"is_disabled":false,"rental_uris":{"android":"levelo://app?vid=723ab91d-b6d3-43be-8524-74ec8622a35f","ios":"levelo://app?vid=723ab91d-b6d3-43be-8524-74ec8622a35f"},"vehicle_type_id":"4","last_reported":1714766923,"current_range_meters":10800,"station_id":"ce4bgv12rcd13ifvqcp0","pricing_plan_id":"cebpf4jnsgd1na2vs0mg"},{"bike_id":"9b60ed01-4f96-4a1a-b222-c50a986b5533","system_id":"levelo_inurba_marseille","lat":43.297774,"lon":5.370875,"is_reserved":false,"is_disabled":false,"rental_uris":{"android":"levelo://app?vid=9b60ed01-4f96-4a1a-b222-c50a986b5533","ios":"levelo://app?vid=9b60ed01-4f96-4a1a-b222-c50a986b5533"},"vehicle_type_id":"4","last_reported":1714766923,"current_range_meters":16400,"station_id":"ce4bgop2rcd13ifvqc1g","pricing_plan_id":"cebpf4jnsgd1na2vs0mg"},{"bike_id":"419a2b5c-4238-4e2c-8bf0-24105af66f38","system_id":"levelo_inurba_marseille","lat":43.32289,"lon":5.38266,"is_reserved":false,"is_disabled":false,"rental_uris":{"android":"levelo://app?vid=419a2b5c-4238-4e2c-8bf0-24105af66f38","ios":"levelo://app?vid=419a2b5c-4238-4e2c-8bf0-24105af66f38"},"vehicle_type_id":"4","last_reported":1714766923,"current_range_meters":8000,"station_id":"ce4bhr12rcd13ifvqhqg","pricing_plan_id":"cebpf4jnsgd1na2vs0mg"},{"bike_id":"69fde129-74e3-4f3c-a0f7-dac086e4a3ae","system_id":"levelo_inurba_marseille","lat":43.3229,"lon":5.38268,"is_reserved":false,"is_disabled":false,"rental_uris":{"android":"levelo://app?vid=69fde129-74e3-4f3c-a0f7-dac086e4a3ae","ios":"levelo://app?vid=69fde129-74e3-4f3c-a0f7-dac086e4a3ae"},"vehicle_type_id":"4","last_reported":1714766923,"current_range_meters":13200,"station_id":"ce4bhr12rcd13ifvqhqg","pricing_plan_id":"cebpf4jnsgd1na2vs0mg"},{"bike_id":"ee5d5f57-aa9f-4035-ad0b-fffa8eb347a1","system_id":"levelo_inurba_marseille","lat":43.322886,"lon":5.382704,"is_reserved":false,"is_disabled":false,"rental_uris":{"android":"levelo://app?vid=ee5d5f57-aa9f-4035-ad0b-fffa8eb347a1","ios":"levelo://app?vid=ee5d5f57-aa9f-4035-ad0b-fffa8eb347a1"},"vehicle_type_id":"4","last_reported":1714766923,"current_range_meters":24800,"station_id":"ce4bhr12rcd13ifvqhqg","pricing_plan_id":"cebpf4jnsgd1na2vs0mg"},{"bike_id":"20e0b06a-25d4-4137-9fd3-d07bb00f838c","system_id":"levelo_inurba_marseille","lat":43.322872,"lon":5.382756,"is_reserved":false,"is_disabled":false,"rental_uris":{"android":"levelo://app?vid=20e0b06a-25d4-4137-9fd3-d07bb00f838c","ios":"levelo://app?vid=20e0b06a-25d4-4137-9fd3-d07bb00f838c"},"vehicle_type_id":"4","last_reported":1714766923,"current_range_meters":30000,"station_id":"ce4bhr12rcd13ifvqhqg","pricing_plan_id":"cebpf4jnsgd1na2vs0mg"},{"bike_id":"bf05c7e9-e88e-4c69-88f7-f629dd1b5787","system_id":"levelo_inurba_marseille","lat":43.322872,"lon":5.382756,"is_reserved":false,"is_disabled":false,"rental_uris":{"android":"levelo://app?vid=bf05c7e9-e88e-4c69-88f7-f629dd1b5787","ios":"levelo://app?vid=bf05c7e9-e88e-4c69-88f7-f629dd1b5787"},"vehicle_type_id":"4","last_reported":1714766923,"current_range_meters":0,"station_id":"ce4bhr12rcd13ifvqhqg","pricing_plan_id":"cebpf4jnsgd1na2vs0mg"},{"bike_id":"c9bf4c43-0b1e-451c-9f87-db938bb1468e","system_id":"levelo_inurba_marseille","lat":43.32292,"lon":5.38273,"is_reserved":false,"is_disabled":false,"rental_uris":{"android":"levelo://app?vid=c9bf4c43-0b1e-451c-9f87-db938bb1468e","ios":"levelo://app?vid=c9bf4c43-0b1e-451c-9f87-db938bb1468e"},"vehicle_type_id":"4","last_reported":1714766923,"current_range_meters":800,"station_id":"ce4bhr12rcd13ifvqhqg","pricing_plan_id":"cebpf4jnsgd1na2vs0mg"},{"bike_id":"d15c365d-48f4-41ec-8a15-8c93a9cf008b","system_id":"levelo_inurba_marseille","lat":43.322872,"lon":5.382756,"is_reserved":false,"is_disabled":false,"rental_uris":{"android":"levelo://app?vid=d15c365d-48f4-41ec-8a15-8c93a9cf008b","ios":"levelo://app?vid=d15c365d-48f4-41ec-8a15-8c93a9cf008b"},"vehicle_type_id":"4","last_reported":1714766923,"current_range_meters":29600,"station_id":"ce4bhr12rcd13ifvqhqg","pricing_plan_id":"cebpf4jnsgd1na2vs0mg"},{"bike_id":"14eddade-44a2-4c4b-8f32-fc2a6ba4aa96","system_id":"levelo_inurba_marseille","lat":43.3229,"lon":5.38279,"is_reserved":false,"is_disabled":false,"rental_uris":{"android":"levelo://app?vid=14eddade-44a2-4c4b-8f32-fc2a6ba4aa96","ios":"levelo://app?vid=14eddade-44a2-4c4b-8f32-fc2a6ba4aa96"},"vehicle_type_id":"4","last_reported":1714766923,"current_range_meters":2800,"station_id":"ce4bhr12rcd13ifvqhqg","pricing_plan_id":"cebpf4jnsgd1na2vs0mg"},{"bike_id":"24bfce79-49c0-4d56-bbb7-b05564436c1b","system_id":"levelo_inurba_marseille","lat":43.322872,"lon":5.382756,"is_reserved":false,"is_disabled":false,"rental_uris":{"android":"levelo://app?vid=24bfce79-49c0-4d56-bbb7-b05564436c1b","ios":"levelo://app?vid=24bfce79-49c0-4d56-bbb7-b05564436c1b"},"vehicle_type_id":"4","last_reported":1714766923,"current_range_meters":25200,"station_id":"ce4bhr12rcd13ifvqhqg","pricing_plan_id":"cebpf4jnsgd1na2vs0mg"},{"bike_id":"8b303e9d-5a8b-4c2e-80f8-98b826dacbc7","system_id":"levelo_inurba_marseille","lat":43.297163,"lon":5.365866,"is_reserved":false,"is_disabled":false,"rental_uris":{"android":"levelo://app?vid=8b303e9d-5a8b-4c2e-80f8-98b826dacbc7","ios":"levelo://app?vid=8b303e9d-5a8b-4c2e-80f8-98b826dacbc7"},"vehicle_type_id":"4","last_reported":1714766923,"current_range_meters":22000,"station_id":"ce4bgn12rcd13ifvqbt0","pricing_plan_id":"cebpf4jnsgd1na2vs0mg"},{"bike_id":"65916734-a429-442c-9fc1-0978abe57a70","system_id":"levelo_inurba_marseille","lat":43.29706,"lon":5.36628,"is_reserved":false,"is_disabled":false,"rental_uris":{"android":"levelo://app?vid=65916734-a429-442c-9fc1-0978abe57a70","ios":"levelo://app?vid=65916734-a429-442c-9fc1-0978abe57a70"},"vehicle_type_id":"4","last_reported":1714766923,"current_range_meters":0,"station_id":"ce4bgn12rcd13ifvqbt0","pricing_plan_id":"cebpf4jnsgd1na2vs0mg"},{"bike_id":"04fe8196-9e30-49b2-b05b-e0bf419bf2f6","system_id":"levelo_inurba_marseille","lat":43.297163,"lon":5.365866,"is_reserved":false,"is_disabled":false,"rental_uris":{"android":"levelo://app?vid=04fe8196-9e30-49b2-b05b-e0bf419bf2f6","ios":"levelo://app?vid=04fe8196-9e30-49b2-b05b-e0bf419bf2f6"},"vehicle_type_id":"4","last_reported":1714766923,"current_range_meters":5200,"station_id":"ce4bgn12rcd13ifvqbt0","pricing_plan_id":"cebpf4jnsgd1na2vs0mg"},{"bike_id":"dd3f082d-2ad0-49db-bed6-5a58bad266cd","system_id":"levelo_inurba_marseille","lat":43.29677,"lon":5.37225,"is_reserved":false,"is_disabled":false,"rental_uris":{"android":"levelo://app?vid=dd3f082d-2ad0-49db-bed6-5a58bad266cd","ios":"levelo://app?vid=dd3f082d-2ad0-49db-bed6-5a58bad266cd"},"vehicle_type_id":"4","last_reported":1714766923,"current_range_meters":8800,"station_id":"ce4bgk12rcd13ifvqbj0","pricing_plan_id":"cebpf4jnsgd1na2vs0mg"},{"bike_id":"dbf1c4d5-52be-4687-9e00-8be712ea7ea7","system_id":"levelo_inurba_marseille","lat":43.296875,"lon":5.372873,"is_reserved":false,"is_disabled":false,"rental_uris":{"android":"levelo://app?vid=dbf1c4d5-52be-4687-9e00-8be712ea7ea7","ios":"levelo://app?vid=dbf1c4d5-52be-4687-9e00-8be712ea7ea7"},"vehicle_type_id":"4","last_reported":1714766923,"current_range_meters":16000,"station_id":"ce4bgk12rcd13ifvqbj0","pricing_plan_id":"cebpf4jnsgd1na2vs0mg"},{"bike_id":"c4a37b6d-af57-4d50-bf14-a8f31bf660f0","system_id":"levelo_inurba_marseille","lat":43.2968,"lon":5.37291,"is_reserved":false,"is_disabled":false,"rental_uris":{"android":"levelo://app?vid=c4a37b6d-af57-4d50-bf14-a8f31bf660f0","ios":"levelo://app?vid=c4a37b6d-af57-4d50-bf14-a8f31bf660f0"},"vehicle_type_id":"4","last_reported":1714766923,"current_range_meters":2800,"station_id":"ce4bgk12rcd13ifvqbj0","pricing_plan_id":"cebpf4jnsgd1na2vs0mg"},{"bike_id":"9664bcf4-fbaa-430b-81e9-4561bf64d15b","system_id":"levelo_inurba_marseille","lat":43.2959,"lon":5.36738,"is_reserved":false,"is_disabled":false,"rental_uris":{"android":"levelo://app?vid=9664bcf4-fbaa-430b-81e9-4561bf64d15b","ios":"levelo://app?vid=9664bcf4-fbaa-430b-81e9-4561bf64d15b"},"vehicle_type_id":"4","last_reported":1714766923,"current_range_meters":2000,"station_id":"ce4bgph2rcd13ifvqc2g","pricing_plan_id":"cebpf4jnsgd1na2vs0mg"},{"bike_id":"799ed014-d606-4142-b311-8e523f4d3ac7","system_id":"levelo_inurba_marseille","lat":43.296129,"lon":5.370777,"is_reserved":false,"is_disabled":false,"rental_uris":{"android":"levelo://app?vid=799ed014-d606-4142-b311-8e523f4d3ac7","ios":"levelo://app?vid=799ed014-d606-4142-b311-8e523f4d3ac7"},"vehicle_type_id":"4","last_reported":1714766923,"current_range_meters":12400,"station_id":"ce4bgnh2rcd13ifvqc0g","pricing_plan_id":"cebpf4jnsgd1na2vs0mg"},{"bike_id":"02de5e50-1756-4978-958a-b5c2bc0559b2","system_id":"levelo_inurba_marseille","lat":43.29573,"lon":5.367355,"is_reserved":false,"is_disabled":false,"rental_uris":{"android":"levelo://app?vid=02de5e50-1756-4978-958a-b5c2bc0559b2","ios":"levelo://app?vid=02de5e50-1756-4978-958a-b5c2bc0559b2"},"vehicle_type_id":"4","last_reported":1714766923,"current_range_meters":26000,"station_id":"ce4bgph2rcd13ifvqc2g","pricing_plan_id":"cebpf4jnsgd1na2vs0mg"},{"bike_id":"20d99301-0dfe-4fa2-a8b1-05297836445f","system_id":"levelo_inurba_marseille","lat":43.337168,"lon":5.391825,"is_reserved":false,"is_disabled":false,"rental_uris":{"android":"levelo://app?vid=20d99301-0dfe-4fa2-a8b1-05297836445f","ios":"levelo://app?vid=20d99301-0dfe-4fa2-a8b1-05297836445f"},"vehicle_type_id":"4","last_reported":1714766923,"current_range_meters":28800,"station_id":"ce4bhr92rcd13ifvqhsg","pricing_plan_id":"cebpf4jnsgd1na2vs0mg"},{"bike_id":"f3778696-af6d-4024-9260-ea8d9e037f71","system_id":"levelo_inurba_marseille","lat":43.29731,"lon":5.376817,"is_reserved":false,"is_disabled":false,"rental_uris":{"android":"levelo://app?vid=f3778696-af6d-4024-9260-ea8d9e037f71","ios":"levelo://app?vid=f3778696-af6d-4024-9260-ea8d9e037f71"},"vehicle_type_id":"4","last_reported":1714766923,"current_range_meters":0,"station_id":"ce4bgkh2rcd13ifvqbl0","pricing_plan_id":"cebpf4jnsgd1na2vs0mg"},{"bike_id":"ef1073a4-f76a-44e1-be38-97d7d483c7bd","system_id":"levelo_inurba_marseille","lat":43.296935,"lon":5.376544,"is_reserved":false,"is_disabled":false,"rental_uris":{"android":"levelo://app?vid=ef1073a4-f76a-44e1-be38-97d7d483c7bd","ios":"levelo://app?vid=ef1073a4-f76a-44e1-be38-97d7d483c7bd"},"vehicle_type_id":"4","last_reported":1714766923,"current_range_meters":12400,"station_id":"ce4bgkh2rcd13ifvqbl0","pricing_plan_id":"cebpf4jnsgd1na2vs0mg"},{"bike_id":"8b00b7bd-3104-4685-a0c9-04d46b3df88f","system_id":"levelo_inurba_marseille","lat":43.299028,"lon":5.381509,"is_reserved":false,"is_disabled":false,"rental_uris":{"android":"levelo://app?vid=8b00b7bd-3104-4685-a0c9-04d46b3df88f","ios":"levelo://app?vid=8b00b7bd-3104-4685-a0c9-04d46b3df88f"},"vehicle_type_id":"4","last_reported":1714766923,"current_range_meters":11600,"station_id":"ce4bgj12rcd13ifvqbc0","pricing_plan_id":"cebpf4jnsgd1na2vs0mg"},{"bike_id":"37ab038f-55c5-4171-96a7-c701412ee27d","system_id":"levelo_inurba_marseille","lat":43.299028,"lon":5.381509,"is_reserved":false,"is_disabled":false,"rental_uris":{"android":"levelo://app?vid=37ab038f-55c5-4171-96a7-c701412ee27d","ios":"levelo://app?vid=37ab038f-55c5-4171-96a7-c701412ee27d"},"vehicle_type_id":"4","last_reported":1714766923,"current_range_meters":15200,"station_id":"ce4bgj12rcd13ifvqbc0","pricing_plan_id":"cebpf4jnsgd1na2vs0mg"},{"bike_id":"8e4f65cd-2f84-4c65-ba3f-9a3d6ba17e29","system_id":"levelo_inurba_marseille","lat":43.30946,"lon":5.39028,"is_reserved":false,"is_disabled":false,"rental_uris":{"android":"levelo://app?vid=8e4f65cd-2f84-4c65-ba3f-9a3d6ba17e29","ios":"levelo://app?vid=8e4f65cd-2f84-4c65-ba3f-9a3d6ba17e29"},"vehicle_type_id":"4","last_reported":1714766923,"current_range_meters":19200,"station_id":"ce4bgup2rcd13ifvqco0","pricing_plan_id":"cebpf4jnsgd1na2vs0mg"},{"bike_id":"a34d74ef-a6a7-4808-a930-918780ebe96e","system_id":"levelo_inurba_marseille","lat":43.30943,"lon":5.39033,"is_reserved":false,"is_disabled":false,"rental_uris":{"android":"levelo://app?vid=a34d74ef-a6a7-4808-a930-918780ebe96e","ios":"levelo://app?vid=a34d74ef-a6a7-4808-a930-918780ebe96e"},"vehicle_type_id":"4","last_reported":1714766923,"current_range_meters":14800,"station_id":"ce4bgup2rcd13ifvqco0","pricing_plan_id":"cebpf4jnsgd1na2vs0mg"},{"bike_id":"5037ecba-f260-41f1-a68e-ccd0373520dc","system_id":"levelo_inurba_marseille","lat":43.30952,"lon":5.39036,"is_reserved":false,"is_disabled":false,"rental_uris":{"android":"levelo://app?vid=5037ecba-f260-41f1-a68e-ccd0373520dc","ios":"levelo://app?vid=5037ecba-f260-41f1-a68e-ccd0373520dc"},"vehicle_type_id":"4","last_reported":1714766923,"current_range_meters":0,"station_id":"ce4bgup2rcd13ifvqco0","pricing_plan_id":"cebpf4jnsgd1na2vs0mg"},{"bike_id":"fceb21a6-1f62-40eb-b594-29106a0795a8","system_id":"levelo_inurba_marseille","lat":43.30951,"lon":5.39036,"is_reserved":false,"is_disabled":false,"rental_uris":{"android":"levelo://app?vid=fceb21a6-1f62-40eb-b594-29106a0795a8","ios":"levelo://app?vid=fceb21a6-1f62-40eb-b594-29106a0795a8"},"vehicle_type_id":"4","last_reported":1714766923,"current_range_meters":400,"station_id":"ce4bgup2rcd13ifvqco0","pricing_plan_id":"cebpf4jnsgd1na2vs0mg"},{"bike_id":"6d0bbb40-6144-4146-98c7-0b20b838643d","system_id":"levelo_inurba_marseille","lat":43.309589,"lon":5.390258,"is_reserved":false,"is_disabled":false,"rental_uris":{"android":"levelo://app?vid=6d0bbb40-6144-4146-98c7-0b20b838643d","ios":"levelo://app?vid=6d0bbb40-6144-4146-98c7-0b20b838643d"},"vehicle_type_id":"4","last_reported":1714766923,"current_range_meters":0,"station_id":"ce4bgup2rcd13ifvqco0","pricing_plan_id":"cebpf4jnsgd1na2vs0mg"},{"bike_id":"cf2baef7-6e4d-47b9-b868-2a7b79595e3c","system_id":"levelo_inurba_marseille","lat":43.309589,"lon":5.390258,"is_reserved":false,"is_disabled":false,"rental_uris":{"android":"levelo://app?vid=cf2baef7-6e4d-47b9-b868-2a7b79595e3c","ios":"levelo://app?vid=cf2baef7-6e4d-47b9-b868-2a7b79595e3c"},"vehicle_type_id":"4","last_reported":1714766923,"current_range_meters":5600,"station_id":"ce4bgup2rcd13ifvqco0","pricing_plan_id":"cebpf4jnsgd1na2vs0mg"},{"bike_id":"5169375b-ced1-4f18-9b25-5277502716b8","system_id":"levelo_inurba_marseille","lat":43.309589,"lon":5.390258,"is_reserved":false,"is_disabled":false,"rental_uris":{"android":"levelo://app?vid=5169375b-ced1-4f18-9b25-5277502716b8","ios":"levelo://app?vid=5169375b-ced1-4f18-9b25-5277502716b8"},"vehicle_type_id":"4","last_reported":1714766923,"current_range_meters":0,"station_id":"ce4bgup2rcd13ifvqco0","pricing_plan_id":"cebpf4jnsgd1na2vs0mg"},{"bike_id":"3c90a462-ef48-47bc-abe7-01b2eb120ca0","system_id":"levelo_inurba_marseille","lat":43.309589,"lon":5.390258,"is_reserved":false,"is_disabled":false,"rental_uris":{"android":"levelo://app?vid=3c90a462-ef48-47bc-abe7-01b2eb120ca0","ios":"levelo://app?vid=3c90a462-ef48-47bc-abe7-01b2eb120ca0"},"vehicle_type_id":"4","last_reported":1714766923,"current_range_meters":18800,"station_id":"ce4bgup2rcd13ifvqco0","pricing_plan_id":"cebpf4jnsgd1na2vs0mg"},{"bike_id":"55c5249e-3c8c-4d3d-beab-23e8a675eb9e","system_id":"levelo_inurba_marseille","lat":43.309589,"lon":5.390258,"is_reserved":false,"is_disabled":false,"rental_uris":{"android":"levelo://app?vid=55c5249e-3c8c-4d3d-beab-23e8a675eb9e","ios":"levelo://app?vid=55c5249e-3c8c-4d3d-beab-23e8a675eb9e"},"vehicle_type_id":"4","last_reported":1714766923,"current_range_meters":12000,"station_id":"ce4bgup2rcd13ifvqco0","pricing_plan_id":"cebpf4jnsgd1na2vs0mg"},{"bike_id":"5d576dd6-a3d9-4f39-862d-32a62960696f","system_id":"levelo_inurba_marseille","lat":43.30937,"lon":5.39047,"is_reserved":false,"is_disabled":false,"rental_uris":{"android":"levelo://app?vid=5d576dd6-a3d9-4f39-862d-32a62960696f","ios":"levelo://app?vid=5d576dd6-a3d9-4f39-862d-32a62960696f"},"vehicle_type_id":"4","last_reported":1714766923,"current_range_meters":0,"station_id":"ce4bgup2rcd13ifvqco0","pricing_plan_id":"cebpf4jnsgd1na2vs0mg"},{"bike_id":"f07c31bf-e804-4ba5-bff5-8b7e8c678293","system_id":"levelo_inurba_marseille","lat":43.309589,"lon":5.390258,"is_reserved":false,"is_disabled":false,"rental_uris":{"android":"levelo://app?vid=f07c31bf-e804-4ba5-bff5-8b7e8c678293","ios":"levelo://app?vid=f07c31bf-e804-4ba5-bff5-8b7e8c678293"},"vehicle_type_id":"4","last_reported":1714766923,"current_range_meters":28800,"station_id":"ce4bgup2rcd13ifvqco0","pricing_plan_id":"cebpf4jnsgd1na2vs0mg"},{"bike_id":"19c805ae-ee4f-4033-9eb8-f861c71be742","system_id":"levelo_inurba_marseille","lat":43.296596,"lon":5.376329,"is_reserved":false,"is_disabled":false,"rental_uris":{"android":"levelo://app?vid=19c805ae-ee4f-4033-9eb8-f861c71be742","ios":"levelo://app?vid=19c805ae-ee4f-4033-9eb8-f861c71be742"},"vehicle_type_id":"4","last_reported":1714766923,"current_range_meters":3600,"station_id":"","pricing_plan_id":"cebpf4jnsgd1na2vs0mg"},{"bike_id":"c32ee75c-98ad-4424-af67-c22fe3ed9a30","system_id":"levelo_inurba_marseille","lat":43.317557,"lon":5.390173,"is_reserved":false,"is_disabled":false,"rental_uris":{"android":"levelo://app?vid=c32ee75c-98ad-4424-af67-c22fe3ed9a30","ios":"levelo://app?vid=c32ee75c-98ad-4424-af67-c22fe3ed9a30"},"vehicle_type_id":"4","last_reported":1714766923,"current_range_meters":6800,"station_id":"ce4bhqp2rcd13ifvqhng","pricing_plan_id":"cebpf4jnsgd1na2vs0mg"},{"bike_id":"ab93d5a7-3561-4382-aeed-7b46cbcc19d1","system_id":"levelo_inurba_marseille","lat":43.31757,"lon":5.39016,"is_reserved":false,"is_disabled":false,"rental_uris":{"android":"levelo://app?vid=ab93d5a7-3561-4382-aeed-7b46cbcc19d1","ios":"levelo://app?vid=ab93d5a7-3561-4382-aeed-7b46cbcc19d1"},"vehicle_type_id":"4","last_reported":1714766923,"current_range_meters":12800,"station_id":"ce4bhqp2rcd13ifvqhng","pricing_plan_id":"cebpf4jnsgd1na2vs0mg"},{"bike_id":"165cfbcc-b269-4f37-8842-fda900dbaa6e","system_id":"levelo_inurba_marseille","lat":43.317557,"lon":5.390173,"is_reserved":false,"is_disabled":false,"rental_uris":{"android":"levelo://app?vid=165cfbcc-b269-4f37-8842-fda900dbaa6e","ios":"levelo://app?vid=165cfbcc-b269-4f37-8842-fda900dbaa6e"},"vehicle_type_id":"4","last_reported":1714766923,"current_range_meters":18000,"station_id":"ce4bhqp2rcd13ifvqhng","pricing_plan_id":"cebpf4jnsgd1na2vs0mg"},{"bike_id":"8342e0a4-f969-42e3-bab6-635654b6e385","system_id":"levelo_inurba_marseille","lat":43.317557,"lon":5.390173,"is_reserved":false,"is_disabled":false,"rental_uris":{"android":"levelo://app?vid=8342e0a4-f969-42e3-bab6-635654b6e385","ios":"levelo://app?vid=8342e0a4-f969-42e3-bab6-635654b6e385"},"vehicle_type_id":"4","last_reported":1714766923,"current_range_meters":15600,"station_id":"ce4bhqp2rcd13ifvqhng","pricing_plan_id":"cebpf4jnsgd1na2vs0mg"},{"bike_id":"ce69f143-0cb3-4e36-995e-37d60055d325","system_id":"levelo_inurba_marseille","lat":43.317557,"lon":5.390173,"is_reserved":false,"is_disabled":false,"rental_uris":{"android":"levelo://app?vid=ce69f143-0cb3-4e36-995e-37d60055d325","ios":"levelo://app?vid=ce69f143-0cb3-4e36-995e-37d60055d325"},"vehicle_type_id":"4","last_reported":1714766923,"current_range_meters":13600,"station_id":"ce4bhqp2rcd13ifvqhng","pricing_plan_id":"cebpf4jnsgd1na2vs0mg"},{"bike_id":"faf594fe-6442-4e3d-8bf9-52889a83cc0f","system_id":"levelo_inurba_marseille","lat":43.317557,"lon":5.390173,"is_reserved":false,"is_disabled":false,"rental_uris":{"android":"levelo://app?vid=faf594fe-6442-4e3d-8bf9-52889a83cc0f","ios":"levelo://app?vid=faf594fe-6442-4e3d-8bf9-52889a83cc0f"},"vehicle_type_id":"4","last_reported":1714766923,"current_range_meters":28400,"station_id":"ce4bhqp2rcd13ifvqhng","pricing_plan_id":"cebpf4jnsgd1na2vs0mg"},{"bike_id":"3f8869ab-9ec3-47e0-b114-b27821d34dc5","system_id":"levelo_inurba_marseille","lat":43.31754,"lon":5.39028,"is_reserved":false,"is_disabled":false,"rental_uris":{"android":"levelo://app?vid=3f8869ab-9ec3-47e0-b114-b27821d34dc5","ios":"levelo://app?vid=3f8869ab-9ec3-47e0-b114-b27821d34dc5"},"vehicle_type_id":"4","last_reported":1714766923,"current_range_meters":3200,"station_id":"ce4bhqp2rcd13ifvqhng","pricing_plan_id":"cebpf4jnsgd1na2vs0mg"},{"bike_id":"539d7af2-1600-4ca5-83a2-bff063ac75c6","system_id":"levelo_inurba_marseille","lat":43.298037,"lon":5.381066,"is_reserved":false,"is_disabled":false,"rental_uris":{"android":"levelo://app?vid=539d7af2-1600-4ca5-83a2-bff063ac75c6","ios":"levelo://app?vid=539d7af2-1600-4ca5-83a2-bff063ac75c6"},"vehicle_type_id":"4","last_reported":1714766923,"current_range_meters":29200,"station_id":"ce4bgip2rcd13ifvqbb0","pricing_plan_id":"cebpf4jnsgd1na2vs0mg"},{"bike_id":"92e93d77-299f-4b22-a887-36cd728e8b7f","system_id":"levelo_inurba_marseille","lat":43.298037,"lon":5.381066,"is_reserved":false,"is_disabled":false,"rental_uris":{"android":"levelo://app?vid=92e93d77-299f-4b22-a887-36cd728e8b7f","ios":"levelo://app?vid=92e93d77-299f-4b22-a887-36cd728e8b7f"},"vehicle_type_id":"4","last_reported":1714766923,"current_range_meters":7600,"station_id":"ce4bgip2rcd13ifvqbb0","pricing_plan_id":"cebpf4jnsgd1na2vs0mg"},{"bike_id":"9cb48519-0246-4de5-a463-a4def55f423f","system_id":"levelo_inurba_marseille","lat":43.298037,"lon":5.381066,"is_reserved":false,"is_disabled":false,"rental_uris":{"android":"levelo://app?vid=9cb48519-0246-4de5-a463-a4def55f423f","ios":"levelo://app?vid=9cb48519-0246-4de5-a463-a4def55f423f"},"vehicle_type_id":"4","last_reported":1714766923,"current_range_meters":28400,"station_id":"ce4bgip2rcd13ifvqbb0","pricing_plan_id":"cebpf4jnsgd1na2vs0mg"},{"bike_id":"49053dd0-0da2-4a91-bdd6-585744692152","system_id":"levelo_inurba_marseille","lat":43.298037,"lon":5.381066,"is_reserved":false,"is_disabled":false,"rental_uris":{"android":"levelo://app?vid=49053dd0-0da2-4a91-bdd6-585744692152","ios":"levelo://app?vid=49053dd0-0da2-4a91-bdd6-585744692152"},"vehicle_type_id":"4","last_reported":1714766923,"current_range_meters":23600,"station_id":"ce4bgip2rcd13ifvqbb0","pricing_plan_id":"cebpf4jnsgd1na2vs0mg"},{"bike_id":"9b592056-1eef-42d1-9674-d2035a4cd224","system_id":"levelo_inurba_marseille","lat":43.298037,"lon":5.381066,"is_reserved":false,"is_disabled":false,"rental_uris":{"android":"levelo://app?vid=9b592056-1eef-42d1-9674-d2035a4cd224","ios":"levelo://app?vid=9b592056-1eef-42d1-9674-d2035a4cd224"},"vehicle_type_id":"4","last_reported":1714766923,"current_range_meters":8400,"station_id":"ce4bgip2rcd13ifvqbb0","pricing_plan_id":"cebpf4jnsgd1na2vs0mg"},{"bike_id":"13f751ea-6ae4-4264-b338-981d2d198a06","system_id":"levelo_inurba_marseille","lat":43.298037,"lon":5.381066,"is_reserved":false,"is_disabled":false,"rental_uris":{"android":"levelo://app?vid=13f751ea-6ae4-4264-b338-981d2d198a06","ios":"levelo://app?vid=13f751ea-6ae4-4264-b338-981d2d198a06"},"vehicle_type_id":"4","last_reported":1714766923,"current_range_meters":5200,"station_id":"ce4bgip2rcd13ifvqbb0","pricing_plan_id":"cebpf4jnsgd1na2vs0mg"},{"bike_id":"ef26d188-901b-4219-b91a-fdbfc226d518","system_id":"levelo_inurba_marseille","lat":43.2979,"lon":5.38083,"is_reserved":false,"is_disabled":false,"rental_uris":{"android":"levelo://app?vid=ef26d188-901b-4219-b91a-fdbfc226d518","ios":"levelo://app?vid=ef26d188-901b-4219-b91a-fdbfc226d518"},"vehicle_type_id":"4","last_reported":1714766923,"current_range_meters":0,"station_id":"ce4bgip2rcd13ifvqbb0","pricing_plan_id":"cebpf4jnsgd1na2vs0mg"},{"bike_id":"8a63d4a6-f949-44da-88ca-6c565d9ffb1e","system_id":"levelo_inurba_marseille","lat":43.298037,"lon":5.381066,"is_reserved":false,"is_disabled":false,"rental_uris":{"android":"levelo://app?vid=8a63d4a6-f949-44da-88ca-6c565d9ffb1e","ios":"levelo://app?vid=8a63d4a6-f949-44da-88ca-6c565d9ffb1e"},"vehicle_type_id":"4","last_reported":1714766923,"current_range_meters":3600,"station_id":"ce4bgip2rcd13ifvqbb0","pricing_plan_id":"cebpf4jnsgd1na2vs0mg"},{"bike_id":"d0678491-783b-40a9-8f95-b1510b84603c","system_id":"levelo_inurba_marseille","lat":43.298037,"lon":5.381066,"is_reserved":false,"is_disabled":false,"rental_uris":{"android":"levelo://app?vid=d0678491-783b-40a9-8f95-b1510b84603c","ios":"levelo://app?vid=d0678491-783b-40a9-8f95-b1510b84603c"},"vehicle_type_id":"4","last_reported":1714766923,"current_range_meters":23600,"station_id":"ce4bgip2rcd13ifvqbb0","pricing_plan_id":"cebpf4jnsgd1na2vs0mg"},{"bike_id":"c22dc194-c93e-4159-b984-0a0ba81af1a5","system_id":"levelo_inurba_marseille","lat":43.298037,"lon":5.381066,"is_reserved":false,"is_disabled":false,"rental_uris":{"android":"levelo://app?vid=c22dc194-c93e-4159-b984-0a0ba81af1a5","ios":"levelo://app?vid=c22dc194-c93e-4159-b984-0a0ba81af1a5"},"vehicle_type_id":"4","last_reported":1714766923,"current_range_meters":7200,"station_id":"ce4bgip2rcd13ifvqbb0","pricing_plan_id":"cebpf4jnsgd1na2vs0mg"},{"bike_id":"0e8733b4-a7b7-4ccd-afb6-eea6fe27a420","system_id":"levelo_inurba_marseille","lat":43.295748,"lon":5.37522,"is_reserved":false,"is_disabled":false,"rental_uris":{"android":"levelo://app?vid=0e8733b4-a7b7-4ccd-afb6-eea6fe27a420","ios":"levelo://app?vid=0e8733b4-a7b7-4ccd-afb6-eea6fe27a420"},"vehicle_type_id":"4","last_reported":1714766923,"current_range_meters":10000,"station_id":"ce4bgh92rcd13ifvqb50","pricing_plan_id":"cebpf4jnsgd1na2vs0mg"},{"bike_id":"672f0f6f-c7fa-4190-ab46-91733231da8d","system_id":"levelo_inurba_marseille","lat":43.296263,"lon":5.377094,"is_reserved":false,"is_disabled":false,"rental_uris":{"android":"levelo://app?vid=672f0f6f-c7fa-4190-ab46-91733231da8d","ios":"levelo://app?vid=672f0f6f-c7fa-4190-ab46-91733231da8d"},"vehicle_type_id":"4","last_reported":1714766923,"current_range_meters":31600,"station_id":"ce4bgi92rcd13ifvqb90","pricing_plan_id":"cebpf4jnsgd1na2vs0mg"},{"bike_id":"ca6e7cf5-555a-46ac-ae0a-97e465345f7c","system_id":"levelo_inurba_marseille","lat":43.295748,"lon":5.37522,"is_reserved":false,"is_disabled":false,"rental_uris":{"android":"levelo://app?vid=ca6e7cf5-555a-46ac-ae0a-97e465345f7c","ios":"levelo://app?vid=ca6e7cf5-555a-46ac-ae0a-97e465345f7c"},"vehicle_type_id":"4","last_reported":1714766923,"current_range_meters":3200,"station_id":"ce4bgh92rcd13ifvqb50","pricing_plan_id":"cebpf4jnsgd1na2vs0mg"},{"bike_id":"913dea5f-a787-428a-be80-a36c4004307a","system_id":"levelo_inurba_marseille","lat":43.298037,"lon":5.381066,"is_reserved":false,"is_disabled":false,"rental_uris":{"android":"levelo://app?vid=913dea5f-a787-428a-be80-a36c4004307a","ios":"levelo://app?vid=913dea5f-a787-428a-be80-a36c4004307a"},"vehicle_type_id":"4","last_reported":1714766923,"current_range_meters":4000,"station_id":"ce4bgip2rcd13ifvqbb0","pricing_plan_id":"cebpf4jnsgd1na2vs0mg"},{"bike_id":"1b3aa247-6955-4f01-bade-a8d519af0cd4","system_id":"levelo_inurba_marseille","lat":43.298037,"lon":5.381066,"is_reserved":false,"is_disabled":false,"rental_uris":{"android":"levelo://app?vid=1b3aa247-6955-4f01-bade-a8d519af0cd4","ios":"levelo://app?vid=1b3aa247-6955-4f01-bade-a8d519af0cd4"},"vehicle_type_id":"4","last_reported":1714766923,"current_range_meters":21200,"station_id":"ce4bgip2rcd13ifvqbb0","pricing_plan_id":"cebpf4jnsgd1na2vs0mg"},{"bike_id":"7fc58230-8ec3-4827-9bbf-28115e196007","system_id":"levelo_inurba_marseille","lat":43.297844,"lon":5.381042,"is_reserved":false,"is_disabled":false,"rental_uris":{"android":"levelo://app?vid=7fc58230-8ec3-4827-9bbf-28115e196007","ios":"levelo://app?vid=7fc58230-8ec3-4827-9bbf-28115e196007"},"vehicle_type_id":"4","last_reported":1714766923,"current_range_meters":0,"station_id":"ce4bgip2rcd13ifvqbb0","pricing_plan_id":"cebpf4jnsgd1na2vs0mg"},{"bike_id":"6fc4cb40-0dd0-47c5-ae87-094b73526475","system_id":"levelo_inurba_marseille","lat":43.29622,"lon":5.37712,"is_reserved":false,"is_disabled":false,"rental_uris":{"android":"levelo://app?vid=6fc4cb40-0dd0-47c5-ae87-094b73526475","ios":"levelo://app?vid=6fc4cb40-0dd0-47c5-ae87-094b73526475"},"vehicle_type_id":"4","last_reported":1714766923,"current_range_meters":26000,"station_id":"","pricing_plan_id":"cebpf4jnsgd1na2vs0mg"},{"bike_id":"97e25cf7-1889-4a2d-b560-a5e773b269c5","system_id":"levelo_inurba_marseille","lat":43.295748,"lon":5.37522,"is_reserved":false,"is_disabled":false,"rental_uris":{"android":"levelo://app?vid=97e25cf7-1889-4a2d-b560-a5e773b269c5","ios":"levelo://app?vid=97e25cf7-1889-4a2d-b560-a5e773b269c5"},"vehicle_type_id":"4","last_reported":1714766923,"current_range_meters":10800,"station_id":"ce4bgh92rcd13ifvqb50","pricing_plan_id":"cebpf4jnsgd1na2vs0mg"},{"bike_id":"5bda5023-2e83-41cc-b503-6b18d3895b03","system_id":"levelo_inurba_marseille","lat":43.29618,"lon":5.37715,"is_reserved":false,"is_disabled":false,"rental_uris":{"android":"levelo://app?vid=5bda5023-2e83-41cc-b503-6b18d3895b03","ios":"levelo://app?vid=5bda5023-2e83-41cc-b503-6b18d3895b03"},"vehicle_type_id":"4","last_reported":1714766923,"current_range_meters":26800,"station_id":"ce4bgi92rcd13ifvqb90","pricing_plan_id":"cebpf4jnsgd1na2vs0mg"},{"bike_id":"16bc41f9-ba40-4222-8d70-8762e953159b","system_id":"levelo_inurba_marseille","lat":43.296263,"lon":5.377094,"is_reserved":false,"is_disabled":false,"rental_uris":{"android":"levelo://app?vid=16bc41f9-ba40-4222-8d70-8762e953159b","ios":"levelo://app?vid=16bc41f9-ba40-4222-8d70-8762e953159b"},"vehicle_type_id":"4","last_reported":1714766923,"current_range_meters":28000,"station_id":"ce4bgi92rcd13ifvqb90","pricing_plan_id":"cebpf4jnsgd1na2vs0mg"},{"bike_id":"53a5bda9-a344-4033-966b-c1eeef70e9e4","system_id":"levelo_inurba_marseille","lat":43.295748,"lon":5.37522,"is_reserved":false,"is_disabled":false,"rental_uris":{"android":"levelo://app?vid=53a5bda9-a344-4033-966b-c1eeef70e9e4","ios":"levelo://app?vid=53a5bda9-a344-4033-966b-c1eeef70e9e4"},"vehicle_type_id":"4","last_reported":1714766923,"current_range_meters":30000,"station_id":"ce4bgh92rcd13ifvqb50","pricing_plan_id":"cebpf4jnsgd1na2vs0mg"},{"bike_id":"763eec22-e430-421a-92e5-f7bca7556873","system_id":"levelo_inurba_marseille","lat":43.298037,"lon":5.381066,"is_reserved":false,"is_disabled":false,"rental_uris":{"android":"levelo://app?vid=763eec22-e430-421a-92e5-f7bca7556873","ios":"levelo://app?vid=763eec22-e430-421a-92e5-f7bca7556873"},"vehicle_type_id":"4","last_reported":1714766923,"current_range_meters":16800,"station_id":"ce4bgip2rcd13ifvqbb0","pricing_plan_id":"cebpf4jnsgd1na2vs0mg"},{"bike_id":"0a76f591-e235-4850-b31b-3c8958e379da","system_id":"levelo_inurba_marseille","lat":43.29531,"lon":5.37489,"is_reserved":false,"is_disabled":false,"rental_uris":{"android":"levelo://app?vid=0a76f591-e235-4850-b31b-3c8958e379da","ios":"levelo://app?vid=0a76f591-e235-4850-b31b-3c8958e379da"},"vehicle_type_id":"4","last_reported":1714766923,"current_range_meters":7600,"station_id":"","pricing_plan_id":"cebpf4jnsgd1na2vs0mg"},{"bike_id":"f8f6fc85-6b77-4a75-9289-495190a720b5","system_id":"levelo_inurba_marseille","lat":43.299724,"lon":5.384848,"is_reserved":false,"is_disabled":false,"rental_uris":{"android":"levelo://app?vid=f8f6fc85-6b77-4a75-9289-495190a720b5","ios":"levelo://app?vid=f8f6fc85-6b77-4a75-9289-495190a720b5"},"vehicle_type_id":"4","last_reported":1714766923,"current_range_meters":13200,"station_id":"ce4bgj92rcd13ifvqbd0","pricing_plan_id":"cebpf4jnsgd1na2vs0mg"},{"bike_id":"e1f28ee9-ebd4-4ce6-94f5-db49df6f89ca","system_id":"levelo_inurba_marseille","lat":43.295279,"lon":5.375048,"is_reserved":false,"is_disabled":false,"rental_uris":{"android":"levelo://app?vid=e1f28ee9-ebd4-4ce6-94f5-db49df6f89ca","ios":"levelo://app?vid=e1f28ee9-ebd4-4ce6-94f5-db49df6f89ca"},"vehicle_type_id":"4","last_reported":1714766923,"current_range_meters":11600,"station_id":"ce4bgkp2rcd13ifvqbmg","pricing_plan_id":"cebpf4jnsgd1na2vs0mg"},{"bike_id":"a3204bd6-4571-492a-85a9-ef50aefde94d","system_id":"levelo_inurba_marseille","lat":43.295279,"lon":5.375048,"is_reserved":false,"is_disabled":false,"rental_uris":{"android":"levelo://app?vid=a3204bd6-4571-492a-85a9-ef50aefde94d","ios":"levelo://app?vid=a3204bd6-4571-492a-85a9-ef50aefde94d"},"vehicle_type_id":"4","last_reported":1714766923,"current_range_meters":0,"station_id":"ce4bgkp2rcd13ifvqbmg","pricing_plan_id":"cebpf4jnsgd1na2vs0mg"},{"bike_id":"9d8c5811-38f7-45c3-83b9-fde46415794c","system_id":"levelo_inurba_marseille","lat":43.29971,"lon":5.38492,"is_reserved":false,"is_disabled":false,"rental_uris":{"android":"levelo://app?vid=9d8c5811-38f7-45c3-83b9-fde46415794c","ios":"levelo://app?vid=9d8c5811-38f7-45c3-83b9-fde46415794c"},"vehicle_type_id":"4","last_reported":1714766923,"current_range_meters":0,"station_id":"ce4bgj92rcd13ifvqbd0","pricing_plan_id":"cebpf4jnsgd1na2vs0mg"},{"bike_id":"626776db-d3b5-43eb-8ccf-1ea6bf57dd04","system_id":"levelo_inurba_marseille","lat":43.295279,"lon":5.375048,"is_reserved":false,"is_disabled":false,"rental_uris":{"android":"levelo://app?vid=626776db-d3b5-43eb-8ccf-1ea6bf57dd04","ios":"levelo://app?vid=626776db-d3b5-43eb-8ccf-1ea6bf57dd04"},"vehicle_type_id":"4","last_reported":1714766923,"current_range_meters":29200,"station_id":"ce4bgkp2rcd13ifvqbmg","pricing_plan_id":"cebpf4jnsgd1na2vs0mg"},{"bike_id":"31187173-2e4a-4c58-b12d-97e78f8ca28d","system_id":"levelo_inurba_marseille","lat":43.295279,"lon":5.375048,"is_reserved":false,"is_disabled":false,"rental_uris":{"android":"levelo://app?vid=31187173-2e4a-4c58-b12d-97e78f8ca28d","ios":"levelo://app?vid=31187173-2e4a-4c58-b12d-97e78f8ca28d"},"vehicle_type_id":"4","last_reported":1714766923,"current_range_meters":28000,"station_id":"ce4bgkp2rcd13ifvqbmg","pricing_plan_id":"cebpf4jnsgd1na2vs0mg"},{"bike_id":"8fe65db5-5310-4a11-835a-aad76fe61872","system_id":"levelo_inurba_marseille","lat":43.295279,"lon":5.375048,"is_reserved":false,"is_disabled":false,"rental_uris":{"android":"levelo://app?vid=8fe65db5-5310-4a11-835a-aad76fe61872","ios":"levelo://app?vid=8fe65db5-5310-4a11-835a-aad76fe61872"},"vehicle_type_id":"4","last_reported":1714766923,"current_range_meters":19600,"station_id":"ce4bgkp2rcd13ifvqbmg","pricing_plan_id":"cebpf4jnsgd1na2vs0mg"},{"bike_id":"22b37f3b-f64d-4a7f-bd47-1f4bb120655c","system_id":"levelo_inurba_marseille","lat":43.31405,"lon":5.3927,"is_reserved":false,"is_disabled":false,"rental_uris":{"android":"levelo://app?vid=22b37f3b-f64d-4a7f-bd47-1f4bb120655c","ios":"levelo://app?vid=22b37f3b-f64d-4a7f-bd47-1f4bb120655c"},"vehicle_type_id":"4","last_reported":1714766923,"current_range_meters":3600,"station_id":"","pricing_plan_id":"cebpf4jnsgd1na2vs0mg"},{"bike_id":"ec5399c7-4bcf-4957-ae0c-f370694eaab6","system_id":"levelo_inurba_marseille","lat":43.32362,"lon":5.38882,"is_reserved":false,"is_disabled":false,"rental_uris":{"android":"levelo://app?vid=ec5399c7-4bcf-4957-ae0c-f370694eaab6","ios":"levelo://app?vid=ec5399c7-4bcf-4957-ae0c-f370694eaab6"},"vehicle_type_id":"4","last_reported":1714766923,"current_range_meters":400,"station_id":"ce4bhqp2rcd13ifvqhog","pricing_plan_id":"cebpf4jnsgd1na2vs0mg"},{"bike_id":"49a533d5-c290-4cbb-bab2-0e7642cb3903","system_id":"levelo_inurba_marseille","lat":43.32362,"lon":5.38887,"is_reserved":false,"is_disabled":false,"rental_uris":{"android":"levelo://app?vid=49a533d5-c290-4cbb-bab2-0e7642cb3903","ios":"levelo://app?vid=49a533d5-c290-4cbb-bab2-0e7642cb3903"},"vehicle_type_id":"4","last_reported":1714766923,"current_range_meters":0,"station_id":"ce4bhqp2rcd13ifvqhog","pricing_plan_id":"cebpf4jnsgd1na2vs0mg"},{"bike_id":"ac8668e1-e249-40ea-b0e6-d73636acbb50","system_id":"levelo_inurba_marseille","lat":43.32367,"lon":5.388836,"is_reserved":false,"is_disabled":false,"rental_uris":{"android":"levelo://app?vid=ac8668e1-e249-40ea-b0e6-d73636acbb50","ios":"levelo://app?vid=ac8668e1-e249-40ea-b0e6-d73636acbb50"},"vehicle_type_id":"4","last_reported":1714766923,"current_range_meters":0,"station_id":"ce4bhqp2rcd13ifvqhog","pricing_plan_id":"cebpf4jnsgd1na2vs0mg"},{"bike_id":"48151189-ca5c-42a5-914a-1f363fba7703","system_id":"levelo_inurba_marseille","lat":43.32367,"lon":5.388836,"is_reserved":false,"is_disabled":false,"rental_uris":{"android":"levelo://app?vid=48151189-ca5c-42a5-914a-1f363fba7703","ios":"levelo://app?vid=48151189-ca5c-42a5-914a-1f363fba7703"},"vehicle_type_id":"4","last_reported":1714766923,"current_range_meters":16000,"station_id":"ce4bhqp2rcd13ifvqhog","pricing_plan_id":"cebpf4jnsgd1na2vs0mg"},{"bike_id":"e0053895-d9cc-4d86-bb5c-6b31f9558a81","system_id":"levelo_inurba_marseille","lat":43.29594,"lon":5.38096,"is_reserved":false,"is_disabled":false,"rental_uris":{"android":"levelo://app?vid=e0053895-d9cc-4d86-bb5c-6b31f9558a81","ios":"levelo://app?vid=e0053895-d9cc-4d86-bb5c-6b31f9558a81"},"vehicle_type_id":"4","last_reported":1714766923,"current_range_meters":3200,"station_id":"ce4bgl12rcd13ifvqbo0","pricing_plan_id":"cebpf4jnsgd1na2vs0mg"},{"bike_id":"aae40c6d-f645-49e7-bcb8-1cff2e165f7c","system_id":"levelo_inurba_marseille","lat":43.29595,"lon":5.380993,"is_reserved":false,"is_disabled":false,"rental_uris":{"android":"levelo://app?vid=aae40c6d-f645-49e7-bcb8-1cff2e165f7c","ios":"levelo://app?vid=aae40c6d-f645-49e7-bcb8-1cff2e165f7c"},"vehicle_type_id":"4","last_reported":1714766923,"current_range_meters":14000,"station_id":"ce4bgl12rcd13ifvqbo0","pricing_plan_id":"cebpf4jnsgd1na2vs0mg"},{"bike_id":"a0880a74-b1a2-4c09-a3b6-bdb61e5c304d","system_id":"levelo_inurba_marseille","lat":43.29602,"lon":5.381084,"is_reserved":false,"is_disabled":false,"rental_uris":{"android":"levelo://app?vid=a0880a74-b1a2-4c09-a3b6-bdb61e5c304d","ios":"levelo://app?vid=a0880a74-b1a2-4c09-a3b6-bdb61e5c304d"},"vehicle_type_id":"4","last_reported":1714766923,"current_range_meters":29200,"station_id":"ce4bgl12rcd13ifvqbo0","pricing_plan_id":"cebpf4jnsgd1na2vs0mg"},{"bike_id":"75441038-3c74-4582-b863-df9ed801b04d","system_id":"levelo_inurba_marseille","lat":43.29591,"lon":5.38104,"is_reserved":false,"is_disabled":false,"rental_uris":{"android":"levelo://app?vid=75441038-3c74-4582-b863-df9ed801b04d","ios":"levelo://app?vid=75441038-3c74-4582-b863-df9ed801b04d"},"vehicle_type_id":"4","last_reported":1714766923,"current_range_meters":18400,"station_id":"ce4bgl12rcd13ifvqbo0","pricing_plan_id":"cebpf4jnsgd1na2vs0mg"},{"bike_id":"797f33ab-6816-4034-9cc0-137813fb7adf","system_id":"levelo_inurba_marseille","lat":43.293249,"lon":5.371578,"is_reserved":false,"is_disabled":false,"rental_uris":{"android":"levelo://app?vid=797f33ab-6816-4034-9cc0-137813fb7adf","ios":"levelo://app?vid=797f33ab-6816-4034-9cc0-137813fb7adf"},"vehicle_type_id":"4","last_reported":1714766923,"current_range_meters":11200,"station_id":"ce4bgh92rcd13ifvqb40","pricing_plan_id":"cebpf4jnsgd1na2vs0mg"},{"bike_id":"25aca6e2-aa58-4eeb-8a38-b1b628f4abfc","system_id":"levelo_inurba_marseille","lat":43.29317,"lon":5.37174,"is_reserved":false,"is_disabled":false,"rental_uris":{"android":"levelo://app?vid=25aca6e2-aa58-4eeb-8a38-b1b628f4abfc","ios":"levelo://app?vid=25aca6e2-aa58-4eeb-8a38-b1b628f4abfc"},"vehicle_type_id":"4","last_reported":1714766923,"current_range_meters":11200,"station_id":"ce4bgh92rcd13ifvqb40","pricing_plan_id":"cebpf4jnsgd1na2vs0mg"},{"bike_id":"e88dd12d-f19a-45f0-a59d-d2b01261138f","system_id":"levelo_inurba_marseille","lat":43.293249,"lon":5.371578,"is_reserved":false,"is_disabled":false,"rental_uris":{"android":"levelo://app?vid=e88dd12d-f19a-45f0-a59d-d2b01261138f","ios":"levelo://app?vid=e88dd12d-f19a-45f0-a59d-d2b01261138f"},"vehicle_type_id":"4","last_reported":1714766923,"current_range_meters":14800,"station_id":"ce4bgh92rcd13ifvqb40","pricing_plan_id":"cebpf4jnsgd1na2vs0mg"},{"bike_id":"a53b4e41-337e-4792-b0f2-9740d2ad867b","system_id":"levelo_inurba_marseille","lat":43.29315,"lon":5.37186,"is_reserved":false,"is_disabled":false,"rental_uris":{"android":"levelo://app?vid=a53b4e41-337e-4792-b0f2-9740d2ad867b","ios":"levelo://app?vid=a53b4e41-337e-4792-b0f2-9740d2ad867b"},"vehicle_type_id":"4","last_reported":1714766923,"current_range_meters":0,"station_id":"ce4bgh92rcd13ifvqb40","pricing_plan_id":"cebpf4jnsgd1na2vs0mg"},{"bike_id":"4d0b2878-e701-4e8c-8643-68cd9810e9fc","system_id":"levelo_inurba_marseille","lat":43.292749,"lon":5.368398,"is_reserved":false,"is_disabled":false,"rental_uris":{"android":"levelo://app?vid=4d0b2878-e701-4e8c-8643-68cd9810e9fc","ios":"levelo://app?vid=4d0b2878-e701-4e8c-8643-68cd9810e9fc"},"vehicle_type_id":"4","last_reported":1714766923,"current_range_meters":14800,"station_id":"ce4bhbp2rcd13ifvqesg","pricing_plan_id":"cebpf4jnsgd1na2vs0mg"},{"bike_id":"12f2b0e7-d427-41c0-bc9d-c4da780bb370","system_id":"levelo_inurba_marseille","lat":43.29311,"lon":5.37181,"is_reserved":false,"is_disabled":false,"rental_uris":{"android":"levelo://app?vid=12f2b0e7-d427-41c0-bc9d-c4da780bb370","ios":"levelo://app?vid=12f2b0e7-d427-41c0-bc9d-c4da780bb370"},"vehicle_type_id":"4","last_reported":1714766923,"current_range_meters":0,"station_id":"ce4bgh92rcd13ifvqb40","pricing_plan_id":"cebpf4jnsgd1na2vs0mg"},{"bike_id":"53b5ec49-3f67-4385-a9a8-05f896e02e03","system_id":"levelo_inurba_marseille","lat":43.29311,"lon":5.37189,"is_reserved":false,"is_disabled":false,"rental_uris":{"android":"levelo://app?vid=53b5ec49-3f67-4385-a9a8-05f896e02e03","ios":"levelo://app?vid=53b5ec49-3f67-4385-a9a8-05f896e02e03"},"vehicle_type_id":"4","last_reported":1714766923,"current_range_meters":0,"station_id":"ce4bgh92rcd13ifvqb40","pricing_plan_id":"cebpf4jnsgd1na2vs0mg"},{"bike_id":"69aa5d1e-a279-4db5-a135-4a72155a99de","system_id":"levelo_inurba_marseille","lat":43.29309,"lon":5.3718,"is_reserved":false,"is_disabled":false,"rental_uris":{"android":"levelo://app?vid=69aa5d1e-a279-4db5-a135-4a72155a99de","ios":"levelo://app?vid=69aa5d1e-a279-4db5-a135-4a72155a99de"},"vehicle_type_id":"4","last_reported":1714766923,"current_range_meters":6000,"station_id":"ce4bgh92rcd13ifvqb40","pricing_plan_id":"cebpf4jnsgd1na2vs0mg"},{"bike_id":"5088975e-b178-48c6-801f-4dd8aa4cdfdd","system_id":"levelo_inurba_marseille","lat":43.29308,"lon":5.37177,"is_reserved":false,"is_disabled":false,"rental_uris":{"android":"levelo://app?vid=5088975e-b178-48c6-801f-4dd8aa4cdfdd","ios":"levelo://app?vid=5088975e-b178-48c6-801f-4dd8aa4cdfdd"},"vehicle_type_id":"4","last_reported":1714766923,"current_range_meters":800,"station_id":"ce4bgh92rcd13ifvqb40","pricing_plan_id":"cebpf4jnsgd1na2vs0mg"},{"bike_id":"5483a3a3-18ac-4cb9-ab65-526d79d42500","system_id":"levelo_inurba_marseille","lat":43.29308,"lon":5.371855,"is_reserved":false,"is_disabled":false,"rental_uris":{"android":"levelo://app?vid=5483a3a3-18ac-4cb9-ab65-526d79d42500","ios":"levelo://app?vid=5483a3a3-18ac-4cb9-ab65-526d79d42500"},"vehicle_type_id":"4","last_reported":1714766923,"current_range_meters":4800,"station_id":"ce4bgh92rcd13ifvqb40","pricing_plan_id":"cebpf4jnsgd1na2vs0mg"},{"bike_id":"476c1b27-3faf-46ac-b8e1-8f7fd832c94e","system_id":"levelo_inurba_marseille","lat":43.293049,"lon":5.371722,"is_reserved":false,"is_disabled":false,"rental_uris":{"android":"levelo://app?vid=476c1b27-3faf-46ac-b8e1-8f7fd832c94e","ios":"levelo://app?vid=476c1b27-3faf-46ac-b8e1-8f7fd832c94e"},"vehicle_type_id":"4","last_reported":1714766923,"current_range_meters":800,"station_id":"ce4bgh92rcd13ifvqb40","pricing_plan_id":"cebpf4jnsgd1na2vs0mg"},{"bike_id":"0707b84e-00af-4fbb-8228-f280cb261bc0","system_id":"levelo_inurba_marseille","lat":43.292749,"lon":5.368398,"is_reserved":false,"is_disabled":false,"rental_uris":{"android":"levelo://app?vid=0707b84e-00af-4fbb-8228-f280cb261bc0","ios":"levelo://app?vid=0707b84e-00af-4fbb-8228-f280cb261bc0"},"vehicle_type_id":"4","last_reported":1714766923,"current_range_meters":0,"station_id":"ce4bhbp2rcd13ifvqesg","pricing_plan_id":"cebpf4jnsgd1na2vs0mg"},{"bike_id":"e7a956d6-2f85-48a5-ab33-c2422e6aad63","system_id":"levelo_inurba_marseille","lat":43.292749,"lon":5.368402,"is_reserved":false,"is_disabled":false,"rental_uris":{"android":"levelo://app?vid=e7a956d6-2f85-48a5-ab33-c2422e6aad63","ios":"levelo://app?vid=e7a956d6-2f85-48a5-ab33-c2422e6aad63"},"vehicle_type_id":"4","last_reported":1714766923,"current_range_meters":24400,"station_id":"ce4bhbp2rcd13ifvqesg","pricing_plan_id":"cebpf4jnsgd1na2vs0mg"},{"bike_id":"1b623e33-6c71-4c88-9b9a-c9a357180e8b","system_id":"levelo_inurba_marseille","lat":43.29274,"lon":5.36846,"is_reserved":false,"is_disabled":false,"rental_uris":{"android":"levelo://app?vid=1b623e33-6c71-4c88-9b9a-c9a357180e8b","ios":"levelo://app?vid=1b623e33-6c71-4c88-9b9a-c9a357180e8b"},"vehicle_type_id":"4","last_reported":1714766923,"current_range_meters":3200,"station_id":"ce4bhbp2rcd13ifvqesg","pricing_plan_id":"cebpf4jnsgd1na2vs0mg"},{"bike_id":"fda48e49-eae9-4203-8d7a-e31285ee5b8f","system_id":"levelo_inurba_marseille","lat":43.292992,"lon":5.371708,"is_reserved":false,"is_disabled":false,"rental_uris":{"android":"levelo://app?vid=fda48e49-eae9-4203-8d7a-e31285ee5b8f","ios":"levelo://app?vid=fda48e49-eae9-4203-8d7a-e31285ee5b8f"},"vehicle_type_id":"4","last_reported":1714766923,"current_range_meters":5200,"station_id":"ce4bgh92rcd13ifvqb40","pricing_plan_id":"cebpf4jnsgd1na2vs0mg"},{"bike_id":"fdc72370-5d5a-42ac-8dcf-9e183228cfcf","system_id":"levelo_inurba_marseille","lat":43.292707,"lon":5.368534,"is_reserved":false,"is_disabled":false,"rental_uris":{"android":"levelo://app?vid=fdc72370-5d5a-42ac-8dcf-9e183228cfcf","ios":"levelo://app?vid=fdc72370-5d5a-42ac-8dcf-9e183228cfcf"},"vehicle_type_id":"4","last_reported":1714766923,"current_range_meters":0,"station_id":"ce4bhbp2rcd13ifvqesg","pricing_plan_id":"cebpf4jnsgd1na2vs0mg"},{"bike_id":"e966b79c-08ec-4e39-9097-4c6bc5299c2e","system_id":"levelo_inurba_marseille","lat":43.295748,"lon":5.37522,"is_reserved":false,"is_disabled":false,"rental_uris":{"android":"levelo://app?vid=e966b79c-08ec-4e39-9097-4c6bc5299c2e","ios":"levelo://app?vid=e966b79c-08ec-4e39-9097-4c6bc5299c2e"},"vehicle_type_id":"4","last_reported":1714766923,"current_range_meters":25200,"station_id":"ce4bgh92rcd13ifvqb50","pricing_plan_id":"cebpf4jnsgd1na2vs0mg"},{"bike_id":"09f7cb5d-9edd-47d2-a04e-f1b90dc48fc4","system_id":"levelo_inurba_marseille","lat":43.292703,"lon":5.36851,"is_reserved":false,"is_disabled":false,"rental_uris":{"android":"levelo://app?vid=09f7cb5d-9edd-47d2-a04e-f1b90dc48fc4","ios":"levelo://app?vid=09f7cb5d-9edd-47d2-a04e-f1b90dc48fc4"},"vehicle_type_id":"4","last_reported":1714766923,"current_range_meters":29600,"station_id":"ce4bhbp2rcd13ifvqesg","pricing_plan_id":"cebpf4jnsgd1na2vs0mg"},{"bike_id":"8c019f50-011e-4d1e-be6e-0b104f044a0c","system_id":"levelo_inurba_marseille","lat":43.2927,"lon":5.36848,"is_reserved":false,"is_disabled":false,"rental_uris":{"android":"levelo://app?vid=8c019f50-011e-4d1e-be6e-0b104f044a0c","ios":"levelo://app?vid=8c019f50-011e-4d1e-be6e-0b104f044a0c"},"vehicle_type_id":"4","last_reported":1714766923,"current_range_meters":29600,"station_id":"ce4bhbp2rcd13ifvqesg","pricing_plan_id":"cebpf4jnsgd1na2vs0mg"},{"bike_id":"551359c4-2795-4afc-8716-9e98060d20e8","system_id":"levelo_inurba_marseille","lat":43.2927,"lon":5.36855,"is_reserved":false,"is_disabled":false,"rental_uris":{"android":"levelo://app?vid=551359c4-2795-4afc-8716-9e98060d20e8","ios":"levelo://app?vid=551359c4-2795-4afc-8716-9e98060d20e8"},"vehicle_type_id":"4","last_reported":1714766923,"current_range_meters":2800,"station_id":"ce4bhbp2rcd13ifvqesg","pricing_plan_id":"cebpf4jnsgd1na2vs0mg"},{"bike_id":"66a78025-f6f8-416a-8b8d-41b4e3d02d72","system_id":"levelo_inurba_marseille","lat":43.292749,"lon":5.368402,"is_reserved":false,"is_disabled":false,"rental_uris":{"android":"levelo://app?vid=66a78025-f6f8-416a-8b8d-41b4e3d02d72","ios":"levelo://app?vid=66a78025-f6f8-416a-8b8d-41b4e3d02d72"},"vehicle_type_id":"4","last_reported":1714766923,"current_range_meters":6800,"station_id":"ce4bhbp2rcd13ifvqesg","pricing_plan_id":"cebpf4jnsgd1na2vs0mg"},{"bike_id":"b3bb1d1d-ca6c-4c04-9a39-ba9d720066bb","system_id":"levelo_inurba_marseille","lat":43.292749,"lon":5.368398,"is_reserved":false,"is_disabled":false,"rental_uris":{"android":"levelo://app?vid=b3bb1d1d-ca6c-4c04-9a39-ba9d720066bb","ios":"levelo://app?vid=b3bb1d1d-ca6c-4c04-9a39-ba9d720066bb"},"vehicle_type_id":"4","last_reported":1714766923,"current_range_meters":800,"station_id":"ce4bhbp2rcd13ifvqesg","pricing_plan_id":"cebpf4jnsgd1na2vs0mg"},{"bike_id":"bc4426e5-5f71-43f1-98c5-546c7dbcd59f","system_id":"levelo_inurba_marseille","lat":43.293038,"lon":5.37458,"is_reserved":false,"is_disabled":false,"rental_uris":{"android":"levelo://app?vid=bc4426e5-5f71-43f1-98c5-546c7dbcd59f","ios":"levelo://app?vid=bc4426e5-5f71-43f1-98c5-546c7dbcd59f"},"vehicle_type_id":"4","last_reported":1714766923,"current_range_meters":1200,"station_id":"ce4bgi12rcd13ifvqb70","pricing_plan_id":"cebpf4jnsgd1na2vs0mg"},{"bike_id":"2e8123f2-3b3e-43c0-8576-2306a4280e8d","system_id":"levelo_inurba_marseille","lat":43.293036,"lon":5.374598,"is_reserved":false,"is_disabled":false,"rental_uris":{"android":"levelo://app?vid=2e8123f2-3b3e-43c0-8576-2306a4280e8d","ios":"levelo://app?vid=2e8123f2-3b3e-43c0-8576-2306a4280e8d"},"vehicle_type_id":"4","last_reported":1714766923,"current_range_meters":800,"station_id":"ce4bgi12rcd13ifvqb70","pricing_plan_id":"cebpf4jnsgd1na2vs0mg"},{"bike_id":"b836a2dd-0d44-43e5-a7b1-174a251e9557","system_id":"levelo_inurba_marseille","lat":43.293009,"lon":5.374584,"is_reserved":false,"is_disabled":false,"rental_uris":{"android":"levelo://app?vid=b836a2dd-0d44-43e5-a7b1-174a251e9557","ios":"levelo://app?vid=b836a2dd-0d44-43e5-a7b1-174a251e9557"},"vehicle_type_id":"4","last_reported":1714766923,"current_range_meters":0,"station_id":"ce4bgi12rcd13ifvqb70","pricing_plan_id":"cebpf4jnsgd1na2vs0mg"},{"bike_id":"db6c3aef-d07a-4267-a92b-3c89e4c900f6","system_id":"levelo_inurba_marseille","lat":43.305994,"lon":5.393687,"is_reserved":false,"is_disabled":false,"rental_uris":{"android":"levelo://app?vid=db6c3aef-d07a-4267-a92b-3c89e4c900f6","ios":"levelo://app?vid=db6c3aef-d07a-4267-a92b-3c89e4c900f6"},"vehicle_type_id":"4","last_reported":1714766923,"current_range_meters":32000,"station_id":"ce4bh0p2rcd13ifvqd80","pricing_plan_id":"cebpf4jnsgd1na2vs0mg"},{"bike_id":"524a2c11-6145-45f0-b7b6-b150f16d8baa","system_id":"levelo_inurba_marseille","lat":43.29299,"lon":5.37467,"is_reserved":false,"is_disabled":false,"rental_uris":{"android":"levelo://app?vid=524a2c11-6145-45f0-b7b6-b150f16d8baa","ios":"levelo://app?vid=524a2c11-6145-45f0-b7b6-b150f16d8baa"},"vehicle_type_id":"4","last_reported":1714766923,"current_range_meters":0,"station_id":"ce4bgi12rcd13ifvqb70","pricing_plan_id":"cebpf4jnsgd1na2vs0mg"},{"bike_id":"a4081ede-088d-44fa-94a4-f111ac0eec65","system_id":"levelo_inurba_marseille","lat":43.305994,"lon":5.393687,"is_reserved":false,"is_disabled":false,"rental_uris":{"android":"levelo://app?vid=a4081ede-088d-44fa-94a4-f111ac0eec65","ios":"levelo://app?vid=a4081ede-088d-44fa-94a4-f111ac0eec65"},"vehicle_type_id":"4","last_reported":1714766923,"current_range_meters":19600,"station_id":"ce4bh0p2rcd13ifvqd80","pricing_plan_id":"cebpf4jnsgd1na2vs0mg"},{"bike_id":"8c2188b8-cf18-44bf-aef1-0323e287f090","system_id":"levelo_inurba_marseille","lat":43.29297,"lon":5.37459,"is_reserved":false,"is_disabled":false,"rental_uris":{"android":"levelo://app?vid=8c2188b8-cf18-44bf-aef1-0323e287f090","ios":"levelo://app?vid=8c2188b8-cf18-44bf-aef1-0323e287f090"},"vehicle_type_id":"4","last_reported":1714766923,"current_range_meters":400,"station_id":"ce4bgi12rcd13ifvqb70","pricing_plan_id":"cebpf4jnsgd1na2vs0mg"},{"bike_id":"c5d8eec8-8334-4a5d-ac12-be0dc5a934dc","system_id":"levelo_inurba_marseille","lat":43.305994,"lon":5.393687,"is_reserved":false,"is_disabled":false,"rental_uris":{"android":"levelo://app?vid=c5d8eec8-8334-4a5d-ac12-be0dc5a934dc","ios":"levelo://app?vid=c5d8eec8-8334-4a5d-ac12-be0dc5a934dc"},"vehicle_type_id":"4","last_reported":1714766923,"current_range_meters":5200,"station_id":"ce4bh0p2rcd13ifvqd80","pricing_plan_id":"cebpf4jnsgd1na2vs0mg"},{"bike_id":"5b091a54-bbf6-4407-b759-689f549d9749","system_id":"levelo_inurba_marseille","lat":43.29296,"lon":5.3746,"is_reserved":false,"is_disabled":false,"rental_uris":{"android":"levelo://app?vid=5b091a54-bbf6-4407-b759-689f549d9749","ios":"levelo://app?vid=5b091a54-bbf6-4407-b759-689f549d9749"},"vehicle_type_id":"4","last_reported":1714766923,"current_range_meters":16800,"station_id":"ce4bgi12rcd13ifvqb70","pricing_plan_id":"cebpf4jnsgd1na2vs0mg"},{"bike_id":"92e2558a-73b7-4650-903e-e6862c2448e1","system_id":"levelo_inurba_marseille","lat":43.29295,"lon":5.37456,"is_reserved":false,"is_disabled":false,"rental_uris":{"android":"levelo://app?vid=92e2558a-73b7-4650-903e-e6862c2448e1","ios":"levelo://app?vid=92e2558a-73b7-4650-903e-e6862c2448e1"},"vehicle_type_id":"4","last_reported":1714766923,"current_range_meters":7200,"station_id":"ce4bgi12rcd13ifvqb70","pricing_plan_id":"cebpf4jnsgd1na2vs0mg"},{"bike_id":"07c06a74-ef8f-4e8c-8023-6a3b33ba97be","system_id":"levelo_inurba_marseille","lat":43.30591,"lon":5.39357,"is_reserved":false,"is_disabled":false,"rental_uris":{"android":"levelo://app?vid=07c06a74-ef8f-4e8c-8023-6a3b33ba97be","ios":"levelo://app?vid=07c06a74-ef8f-4e8c-8023-6a3b33ba97be"},"vehicle_type_id":"4","last_reported":1714766923,"current_range_meters":9600,"station_id":"ce4bh0p2rcd13ifvqd80","pricing_plan_id":"cebpf4jnsgd1na2vs0mg"},{"bike_id":"e53013c1-0e4e-44d8-87fd-20b5c3c4507c","system_id":"levelo_inurba_marseille","lat":43.293009,"lon":5.374584,"is_reserved":false,"is_disabled":false,"rental_uris":{"android":"levelo://app?vid=e53013c1-0e4e-44d8-87fd-20b5c3c4507c","ios":"levelo://app?vid=e53013c1-0e4e-44d8-87fd-20b5c3c4507c"},"vehicle_type_id":"4","last_reported":1714766923,"current_range_meters":30800,"station_id":"ce4bgi12rcd13ifvqb70","pricing_plan_id":"cebpf4jnsgd1na2vs0mg"},{"bike_id":"52d73bc6-7c6f-4bb0-aae7-b4df46eb2256","system_id":"levelo_inurba_marseille","lat":43.29294,"lon":5.37457,"is_reserved":false,"is_disabled":false,"rental_uris":{"android":"levelo://app?vid=52d73bc6-7c6f-4bb0-aae7-b4df46eb2256","ios":"levelo://app?vid=52d73bc6-7c6f-4bb0-aae7-b4df46eb2256"},"vehicle_type_id":"4","last_reported":1714766923,"current_range_meters":0,"station_id":"ce4bgi12rcd13ifvqb70","pricing_plan_id":"cebpf4jnsgd1na2vs0mg"},{"bike_id":"cc1be3ab-74c2-4fdb-a37a-50f5489cb8dd","system_id":"levelo_inurba_marseille","lat":43.29293,"lon":5.37462,"is_reserved":false,"is_disabled":false,"rental_uris":{"android":"levelo://app?vid=cc1be3ab-74c2-4fdb-a37a-50f5489cb8dd","ios":"levelo://app?vid=cc1be3ab-74c2-4fdb-a37a-50f5489cb8dd"},"vehicle_type_id":"4","last_reported":1714766923,"current_range_meters":12400,"station_id":"ce4bgi12rcd13ifvqb70","pricing_plan_id":"cebpf4jnsgd1na2vs0mg"},{"bike_id":"90e72029-b5c6-4d09-8859-27d58680a89f","system_id":"levelo_inurba_marseille","lat":43.292931,"lon":5.374631,"is_reserved":false,"is_disabled":false,"rental_uris":{"android":"levelo://app?vid=90e72029-b5c6-4d09-8859-27d58680a89f","ios":"levelo://app?vid=90e72029-b5c6-4d09-8859-27d58680a89f"},"vehicle_type_id":"4","last_reported":1714766923,"current_range_meters":18000,"station_id":"ce4bgi12rcd13ifvqb70","pricing_plan_id":"cebpf4jnsgd1na2vs0mg"},{"bike_id":"5abd9e7f-1d2d-4e55-956a-a2acfe801790","system_id":"levelo_inurba_marseille","lat":43.292925,"lon":5.374629,"is_reserved":false,"is_disabled":false,"rental_uris":{"android":"levelo://app?vid=5abd9e7f-1d2d-4e55-956a-a2acfe801790","ios":"levelo://app?vid=5abd9e7f-1d2d-4e55-956a-a2acfe801790"},"vehicle_type_id":"4","last_reported":1714766923,"current_range_meters":14000,"station_id":"","pricing_plan_id":"cebpf4jnsgd1na2vs0mg"},{"bike_id":"34fa10c6-d45a-4937-a046-3453f1fc824e","system_id":"levelo_inurba_marseille","lat":43.29291,"lon":5.37458,"is_reserved":false,"is_disabled":false,"rental_uris":{"android":"levelo://app?vid=34fa10c6-d45a-4937-a046-3453f1fc824e","ios":"levelo://app?vid=34fa10c6-d45a-4937-a046-3453f1fc824e"},"vehicle_type_id":"4","last_reported":1714766923,"current_range_meters":1200,"station_id":"ce4bgi12rcd13ifvqb70","pricing_plan_id":"cebpf4jnsgd1na2vs0mg"},{"bike_id":"24cb9de5-4b7b-4360-a5ce-912a816d44e1","system_id":"levelo_inurba_marseille","lat":43.293009,"lon":5.374584,"is_reserved":false,"is_disabled":false,"rental_uris":{"android":"levelo://app?vid=24cb9de5-4b7b-4360-a5ce-912a816d44e1","ios":"levelo://app?vid=24cb9de5-4b7b-4360-a5ce-912a816d44e1"},"vehicle_type_id":"4","last_reported":1714766923,"current_range_meters":24000,"station_id":"ce4bgi12rcd13ifvqb70","pricing_plan_id":"cebpf4jnsgd1na2vs0mg"},{"bike_id":"3b9d08bb-1b55-42a6-afe7-eb04ae251396","system_id":"levelo_inurba_marseille","lat":43.292895,"lon":5.374628,"is_reserved":false,"is_disabled":false,"rental_uris":{"android":"levelo://app?vid=3b9d08bb-1b55-42a6-afe7-eb04ae251396","ios":"levelo://app?vid=3b9d08bb-1b55-42a6-afe7-eb04ae251396"},"vehicle_type_id":"4","last_reported":1714766923,"current_range_meters":0,"station_id":"ce4bgi12rcd13ifvqb70","pricing_plan_id":"cebpf4jnsgd1na2vs0mg"},{"bike_id":"7ea080f1-f0b7-4eac-a590-c3ed41dd19a7","system_id":"levelo_inurba_marseille","lat":43.303002,"lon":5.392142,"is_reserved":false,"is_disabled":false,"rental_uris":{"android":"levelo://app?vid=7ea080f1-f0b7-4eac-a590-c3ed41dd19a7","ios":"levelo://app?vid=7ea080f1-f0b7-4eac-a590-c3ed41dd19a7"},"vehicle_type_id":"4","last_reported":1714766923,"current_range_meters":27200,"station_id":"ce4bgkh2rcd13ifvqbk0","pricing_plan_id":"cebpf4jnsgd1na2vs0mg"},{"bike_id":"2b07842a-0158-4390-a09c-304539433090","system_id":"levelo_inurba_marseille","lat":43.29279,"lon":5.3746,"is_reserved":false,"is_disabled":false,"rental_uris":{"android":"levelo://app?vid=2b07842a-0158-4390-a09c-304539433090","ios":"levelo://app?vid=2b07842a-0158-4390-a09c-304539433090"},"vehicle_type_id":"4","last_reported":1714766923,"current_range_meters":5600,"station_id":"ce4bgi12rcd13ifvqb70","pricing_plan_id":"cebpf4jnsgd1na2vs0mg"},{"bike_id":"643a23a5-39ff-4b77-a331-0969cfc33ee1","system_id":"levelo_inurba_marseille","lat":43.30085,"lon":5.390856,"is_reserved":false,"is_disabled":false,"rental_uris":{"android":"levelo://app?vid=643a23a5-39ff-4b77-a331-0969cfc33ee1","ios":"levelo://app?vid=643a23a5-39ff-4b77-a331-0969cfc33ee1"},"vehicle_type_id":"4","last_reported":1714766923,"current_range_meters":22800,"station_id":"ce4bh192rcd13ifvqdb0","pricing_plan_id":"cebpf4jnsgd1na2vs0mg"},{"bike_id":"1cc1c012-9a16-43b9-bcce-71fc5f93ade5","system_id":"levelo_inurba_marseille","lat":43.2936,"lon":5.37835,"is_reserved":false,"is_disabled":false,"rental_uris":{"android":"levelo://app?vid=1cc1c012-9a16-43b9-bcce-71fc5f93ade5","ios":"levelo://app?vid=1cc1c012-9a16-43b9-bcce-71fc5f93ade5"},"vehicle_type_id":"4","last_reported":1714766923,"current_range_meters":29200,"station_id":"ce4bgjh2rcd13ifvqbf0","pricing_plan_id":"cebpf4jnsgd1na2vs0mg"},{"bike_id":"97aac9d8-b562-443b-953b-4d5aa3d6deba","system_id":"levelo_inurba_marseille","lat":43.2936,"lon":5.37835,"is_reserved":false,"is_disabled":false,"rental_uris":{"android":"levelo://app?vid=97aac9d8-b562-443b-953b-4d5aa3d6deba","ios":"levelo://app?vid=97aac9d8-b562-443b-953b-4d5aa3d6deba"},"vehicle_type_id":"4","last_reported":1714766923,"current_range_meters":1600,"station_id":"ce4bgjh2rcd13ifvqbf0","pricing_plan_id":"cebpf4jnsgd1na2vs0mg"},{"bike_id":"97d1ca0f-5513-49aa-b598-8f72950138a2","system_id":"levelo_inurba_marseille","lat":43.29274,"lon":5.37484,"is_reserved":false,"is_disabled":false,"rental_uris":{"android":"levelo://app?vid=97d1ca0f-5513-49aa-b598-8f72950138a2","ios":"levelo://app?vid=97d1ca0f-5513-49aa-b598-8f72950138a2"},"vehicle_type_id":"4","last_reported":1714766923,"current_range_meters":17200,"station_id":"ce4bgi12rcd13ifvqb70","pricing_plan_id":"cebpf4jnsgd1na2vs0mg"},{"bike_id":"970e1aca-6111-490f-b79f-2aee43c2406f","system_id":"levelo_inurba_marseille","lat":43.2936,"lon":5.37835,"is_reserved":false,"is_disabled":false,"rental_uris":{"android":"levelo://app?vid=970e1aca-6111-490f-b79f-2aee43c2406f","ios":"levelo://app?vid=970e1aca-6111-490f-b79f-2aee43c2406f"},"vehicle_type_id":"4","last_reported":1714766923,"current_range_meters":18400,"station_id":"ce4bgjh2rcd13ifvqbf0","pricing_plan_id":"cebpf4jnsgd1na2vs0mg"},{"bike_id":"a681395b-591d-48a7-8bf6-3c1b92c30039","system_id":"levelo_inurba_marseille","lat":43.293634,"lon":5.37852,"is_reserved":false,"is_disabled":false,"rental_uris":{"android":"levelo://app?vid=a681395b-591d-48a7-8bf6-3c1b92c30039","ios":"levelo://app?vid=a681395b-591d-48a7-8bf6-3c1b92c30039"},"vehicle_type_id":"4","last_reported":1714766923,"current_range_meters":0,"station_id":"ce4bgjh2rcd13ifvqbf0","pricing_plan_id":"cebpf4jnsgd1na2vs0mg"},{"bike_id":"249b0327-e35e-4a98-986a-f1e1e611748e","system_id":"levelo_inurba_marseille","lat":43.2936,"lon":5.37835,"is_reserved":false,"is_disabled":false,"rental_uris":{"android":"levelo://app?vid=249b0327-e35e-4a98-986a-f1e1e611748e","ios":"levelo://app?vid=249b0327-e35e-4a98-986a-f1e1e611748e"},"vehicle_type_id":"4","last_reported":1714766923,"current_range_meters":24400,"station_id":"ce4bgjh2rcd13ifvqbf0","pricing_plan_id":"cebpf4jnsgd1na2vs0mg"},{"bike_id":"d48ee1e6-032e-4ed2-9d28-1f230473f0e4","system_id":"levelo_inurba_marseille","lat":43.2936,"lon":5.37835,"is_reserved":false,"is_disabled":false,"rental_uris":{"android":"levelo://app?vid=d48ee1e6-032e-4ed2-9d28-1f230473f0e4","ios":"levelo://app?vid=d48ee1e6-032e-4ed2-9d28-1f230473f0e4"},"vehicle_type_id":"4","last_reported":1714766923,"current_range_meters":27200,"station_id":"ce4bgjh2rcd13ifvqbf0","pricing_plan_id":"cebpf4jnsgd1na2vs0mg"},