{"last_updated":1702127236,"ttl":30,"version":"2.2","data":{"bikes":[{"bike_id":"d83fabb5-b3a5-42a1-8df9-1f40affb7eb0","system_id":"levelo_inurba_marseille","lat":43.312239,"lon":5.368562,"is_reserved":false,"is_disabled":false,"rental_uris":{"android":"levelo://app?vid=d83fabb5-b3a5-42a1-8df9-1f40affb7eb0","ios":"levelo://app?vid=d83fabb5-b3a5-42a1-8df9-1f40affb7eb0"},"vehicle_type_id":"4","last_reported":1702127237,"current_range_meters":30800,"station_id":"ce4bgl92rcd13ifvqbq0","pricing_plan_id":"free"},{"bike_id":"27a87876-664f-4fc9-b3b9-17809f9cf1e0","system_id":"levelo_inurba_marseille","lat":43.312239,"lon":5.368562,"is_reserved":false,"is_disabled":false,"rental_uris":{"android":"levelo://app?vid=27a87876-664f-4fc9-b3b9-17809f9cf1e0","ios":"levelo://app?vid=27a87876-664f-4fc9-b3b9-17809f9cf1e0"},"vehicle_type_id":"4","last_reported":1702127237,"current_range_meters":12800,"station_id":"ce4bgl92rcd13ifvqbq0","pricing_plan_id":"free"},{"bike_id":"350522dc-755b-4c6b-8054-8a5d7ed1ac27","system_id":"levelo_inurba_marseille","lat":43.30907,"lon":5.36853,"is_reserved":false,"is_disabled":false,"rental_uris":{"android":"levelo://app?vid=350522dc-755b-4c6b-8054-8a5d7ed1ac27","ios":"levelo://app?vid=350522dc-755b-4c6b-8054-8a5d7ed1ac27"},"vehicle_type_id":"4","last_reported":1702127237,"current_range_meters":26400,"station_id":"ce4bgn92rcd13ifvqbvg","pricing_plan_id":"free"},{"bike_id":"394c46c8-aeb1-4079-8a61-c2c910f2da89","system_id":"levelo_inurba_marseille","lat":43.314811,"lon":5.373103,"is_reserved":false,"is_disabled":false,"rental_uris":{"android":"levelo://app?vid=394c46c8-aeb1-4079-8a61-c2c910f2da89","ios":"levelo://app?vid=394c46c8-aeb1-4079-8a61-c2c910f2da89"},"vehicle_type_id":"4","last_reported":1702127237,"current_range_meters":10800,"station_id":"ce4bgt12rcd13ifvqcd0","pricing_plan_id":"free"},{"bike_id":"a7a0c15b-17af-4b93-84b2-27e363990af8","system_id":"levelo_inurba_marseille","lat":43.30555,"lon":5.36537,"is_reserved":false,"is_disabled":false,"rental_uris":{"android":"levelo://app?vid=a7a0c15b-17af-4b93-84b2-27e363990af8","ios":"levelo://app?vid=a7a0c15b-17af-4b93-84b2-27e363990af8"},"vehicle_type_id":"4","last_reported":1702127237,"current_range_meters":13600,"station_id":"ce4bgs12rcd13ifvqcag","pricing_plan_id":"free"},{"bike_id":"e50a0d9c-af0a-4e60-b6b7-2f9fc9cf5c58","system_id":"levelo_inurba_marseille","lat":43.31697,"lon":5.37679,"is_reserved":false,"is_disabled":false,"rental_uris":{"android":"levelo://app?vid=e50a0d9c-af0a-4e60-b6b7-2f9fc9cf5c58","ios":"levelo://app?vid=e50a0d9c-af0a-4e60-b6b7-2f9fc9cf5c58"},"vehicle_type_id":"4","last_reported":1702127237,"current_range_meters":22800,"station_id":"ce4bgth2rcd13ifvqch0","pricing_plan_id":"free"},{"bike_id":"79842378-9294-41b0-88bb-0ec01524f830","system_id":"levelo_inurba_marseille","lat":43.304606,"lon":5.379026,"is_reserved":false,"is_disabled":false,"rental_uris":{"android":"levelo://app?vid=79842378-9294-41b0-88bb-0ec01524f830","ios":"levelo://app?vid=79842378-9294-41b0-88bb-0ec01524f830"},"vehicle_type_id":"4","last_reported":1702127237,"current_range_meters":0,"station_id":"ce4bgup2rcd13ifvqcn0","pricing_plan_id":"free"},{"bike_id":"1206e2bc-4177-408c-8189-aca08028b865","system_id":"levelo_inurba_marseille","lat":43.32477,"lon":5.3656,"is_reserved":false,"is_disabled":false,"rental_uris":{"android":"levelo://app?vid=1206e2bc-4177-408c-8189-aca08028b865","ios":"levelo://app?vid=1206e2bc-4177-408c-8189-aca08028b865"},"vehicle_type_id":"4","last_reported":1702127237,"current_range_meters":7600,"station_id":"ce4bhs12rcd13ifvqhvg","pricing_plan_id":"free"},{"bike_id":"d0bafe7a-eac7-4a2e-ace5-2a17e9844de0","system_id":"levelo_inurba_marseille","lat":43.301429,"lon":5.37413,"is_reserved":false,"is_disabled":false,"rental_uris":{"android":"levelo://app?vid=d0bafe7a-eac7-4a2e-ace5-2a17e9844de0","ios":"levelo://app?vid=d0bafe7a-eac7-4a2e-ace5-2a17e9844de0"},"vehicle_type_id":"4","last_reported":1702127237,"current_range_meters":5600,"station_id":"ce4bgs92rcd13ifvqcc0","pricing_plan_id":"free"},{"bike_id":"6dbbfdb9-b23a-4868-a355-11f4266a55a1","system_id":"levelo_inurba_marseille","lat":43.30143,"lon":5.37413,"is_reserved":false,"is_disabled":false,"rental_uris":{"android":"levelo://app?vid=6dbbfdb9-b23a-4868-a355-11f4266a55a1","ios":"levelo://app?vid=6dbbfdb9-b23a-4868-a355-11f4266a55a1"},"vehicle_type_id":"4","last_reported":1702127237,"current_range_meters":11600,"station_id":"ce4bgs92rcd13ifvqcc0","pricing_plan_id":"free"},{"bike_id":"d50f7976-9aae-4aa8-a0ed-ae61ed80cb70","system_id":"levelo_inurba_marseille","lat":43.302784,"lon":5.377158,"is_reserved":false,"is_disabled":false,"rental_uris":{"android":"levelo://app?vid=d50f7976-9aae-4aa8-a0ed-ae61ed80cb70","ios":"levelo://app?vid=d50f7976-9aae-4aa8-a0ed-ae61ed80cb70"},"vehicle_type_id":"4","last_reported":1702127237,"current_range_meters":18800,"station_id":"ce4bguh2rcd13ifvqcj0","pricing_plan_id":"free"},{"bike_id":"3068584b-c7ef-44a5-ab84-b8551b63cc72","system_id":"levelo_inurba_marseille","lat":43.30143,"lon":5.37413,"is_reserved":false,"is_disabled":false,"rental_uris":{"android":"levelo://app?vid=3068584b-c7ef-44a5-ab84-b8551b63cc72","ios":"levelo://app?vid=3068584b-c7ef-44a5-ab84-b8551b63cc72"},"vehicle_type_id":"4","last_reported":1702127237,"current_range_meters":26400,"station_id":"ce4bgs92rcd13ifvqcc0","pricing_plan_id":"free"},{"bike_id":"31e8ab99-8547-4479-a26e-e85f1d8e556e","system_id":"levelo_inurba_marseille","lat":43.302784,"lon":5.377158,"is_reserved":false,"is_disabled":false,"rental_uris":{"android":"levelo://app?vid=31e8ab99-8547-4479-a26e-e85f1d8e556e","ios":"levelo://app?vid=31e8ab99-8547-4479-a26e-e85f1d8e556e"},"vehicle_type_id":"4","last_reported":1702127237,"current_range_meters":28000,"station_id":"ce4bguh2rcd13ifvqcj0","pricing_plan_id":"free"},{"bike_id":"25a5fa43-01c9-4809-9f28-48d84a126c67","system_id":"levelo_inurba_marseille","lat":43.301429,"lon":5.37413,"is_reserved":false,"is_disabled":false,"rental_uris":{"android":"levelo://app?vid=25a5fa43-01c9-4809-9f28-48d84a126c67","ios":"levelo://app?vid=25a5fa43-01c9-4809-9f28-48d84a126c67"},"vehicle_type_id":"4","last_reported":1702127237,"current_range_meters":18400,"station_id":"ce4bgs92rcd13ifvqcc0","pricing_plan_id":"free"},{"bike_id":"f0ace676-01f6-4165-90f5-72899600b9a8","system_id":"levelo_inurba_marseille","lat":43.30143,"lon":5.37413,"is_reserved":false,"is_disabled":false,"rental_uris":{"android":"levelo://app?vid=f0ace676-01f6-4165-90f5-72899600b9a8","ios":"levelo://app?vid=f0ace676-01f6-4165-90f5-72899600b9a8"},"vehicle_type_id":"4","last_reported":1702127237,"current_range_meters":16000,"station_id":"ce4bgs92rcd13ifvqcc0","pricing_plan_id":"free"},{"bike_id":"384c4b9c-cd77-413e-a3c0-ee0dd75913d6","system_id":"levelo_inurba_marseille","lat":43.31992,"lon":5.38162,"is_reserved":false,"is_disabled":false,"rental_uris":{"android":"levelo://app?vid=384c4b9c-cd77-413e-a3c0-ee0dd75913d6","ios":"levelo://app?vid=384c4b9c-cd77-413e-a3c0-ee0dd75913d6"},"vehicle_type_id":"4","last_reported":1702127237,"current_range_meters":13600,"station_id":"ce4bhr12rcd13ifvqhpg","pricing_plan_id":"free"},{"bike_id":"bc5fbb97-360a-4591-ac4b-df0879d1eab4","system_id":"levelo_inurba_marseille","lat":43.31356,"lon":5.38493,"is_reserved":false,"is_disabled":false,"rental_uris":{"android":"levelo://app?vid=bc5fbb97-360a-4591-ac4b-df0879d1eab4","ios":"levelo://app?vid=bc5fbb97-360a-4591-ac4b-df0879d1eab4"},"vehicle_type_id":"4","last_reported":1702127237,"current_range_meters":24000,"station_id":"ce4bgt92rcd13ifvqcf0","pricing_plan_id":"free"},{"bike_id":"ae1036a4-48ad-4b36-9786-f0f69447bc23","system_id":"levelo_inurba_marseille","lat":43.311662,"lon":5.386928,"is_reserved":false,"is_disabled":false,"rental_uris":{"android":"levelo://app?vid=ae1036a4-48ad-4b36-9786-f0f69447bc23","ios":"levelo://app?vid=ae1036a4-48ad-4b36-9786-f0f69447bc23"},"vehicle_type_id":"4","last_reported":1702127237,"current_range_meters":17600,"station_id":"ce4bgv12rcd13ifvqcp0","pricing_plan_id":"free"},{"bike_id":"517a3a1f-f268-4dd1-9bee-61d30231fdc1","system_id":"levelo_inurba_marseille","lat":43.3054,"lon":5.38428,"is_reserved":false,"is_disabled":false,"rental_uris":{"android":"levelo://app?vid=517a3a1f-f268-4dd1-9bee-61d30231fdc1","ios":"levelo://app?vid=517a3a1f-f268-4dd1-9bee-61d30231fdc1"},"vehicle_type_id":"4","last_reported":1702127237,"current_range_meters":18800,"station_id":"ce4bgg92rcd13ifvqb30","pricing_plan_id":"free"},{"bike_id":"71db54f0-604e-4087-b4ce-aae9580974df","system_id":"levelo_inurba_marseille","lat":43.305364,"lon":5.384119,"is_reserved":false,"is_disabled":false,"rental_uris":{"android":"levelo://app?vid=71db54f0-604e-4087-b4ce-aae9580974df","ios":"levelo://app?vid=71db54f0-604e-4087-b4ce-aae9580974df"},"vehicle_type_id":"4","last_reported":1702127237,"current_range_meters":26800,"station_id":"ce4bgg92rcd13ifvqb30","pricing_plan_id":"free"},{"bike_id":"03c4c06c-dfea-4baf-a845-a054749ccc36","system_id":"levelo_inurba_marseille","lat":43.298433,"lon":5.362774,"is_reserved":false,"is_disabled":false,"rental_uris":{"android":"levelo://app?vid=03c4c06c-dfea-4baf-a845-a054749ccc36","ios":"levelo://app?vid=03c4c06c-dfea-4baf-a845-a054749ccc36"},"vehicle_type_id":"4","last_reported":1702127237,"current_range_meters":31200,"station_id":"ce4bgpp2rcd13ifvqc3g","pricing_plan_id":"free"},{"bike_id":"894ac799-73c3-4eb2-886f-f1b36456c485","system_id":"levelo_inurba_marseille","lat":43.298433,"lon":5.362774,"is_reserved":false,"is_disabled":false,"rental_uris":{"android":"levelo://app?vid=894ac799-73c3-4eb2-886f-f1b36456c485","ios":"levelo://app?vid=894ac799-73c3-4eb2-886f-f1b36456c485"},"vehicle_type_id":"4","last_reported":1702127237,"current_range_meters":30000,"station_id":"ce4bgpp2rcd13ifvqc3g","pricing_plan_id":"free"},{"bike_id":"358df3c2-8cbe-4d31-bd47-bad192091104","system_id":"levelo_inurba_marseille","lat":43.297784,"lon":5.371121,"is_reserved":false,"is_disabled":false,"rental_uris":{"android":"levelo://app?vid=358df3c2-8cbe-4d31-bd47-bad192091104","ios":"levelo://app?vid=358df3c2-8cbe-4d31-bd47-bad192091104"},"vehicle_type_id":"4","last_reported":1702127237,"current_range_meters":25600,"station_id":"ce4bgop2rcd13ifvqc1g","pricing_plan_id":"free"},{"bike_id":"d04bedf3-fa0d-476a-afc0-f8735ca347d1","system_id":"levelo_inurba_marseille","lat":43.322921,"lon":5.38269,"is_reserved":false,"is_disabled":false,"rental_uris":{"android":"levelo://app?vid=d04bedf3-fa0d-476a-afc0-f8735ca347d1","ios":"levelo://app?vid=d04bedf3-fa0d-476a-afc0-f8735ca347d1"},"vehicle_type_id":"4","last_reported":1702127237,"current_range_meters":21600,"station_id":"ce4bhr12rcd13ifvqhqg","pricing_plan_id":"free"},{"bike_id":"38f1223e-a214-4eb0-9b54-a70de861d11b","system_id":"levelo_inurba_marseille","lat":43.322872,"lon":5.382756,"is_reserved":false,"is_disabled":false,"rental_uris":{"android":"levelo://app?vid=38f1223e-a214-4eb0-9b54-a70de861d11b","ios":"levelo://app?vid=38f1223e-a214-4eb0-9b54-a70de861d11b"},"vehicle_type_id":"4","last_reported":1702127237,"current_range_meters":22400,"station_id":"ce4bhr12rcd13ifvqhqg","pricing_plan_id":"free"},{"bike_id":"c7434962-efe8-4461-8be2-21b47b98f22c","system_id":"levelo_inurba_marseille","lat":43.32296,"lon":5.38281,"is_reserved":false,"is_disabled":false,"rental_uris":{"android":"levelo://app?vid=c7434962-efe8-4461-8be2-21b47b98f22c","ios":"levelo://app?vid=c7434962-efe8-4461-8be2-21b47b98f22c"},"vehicle_type_id":"4","last_reported":1702127237,"current_range_meters":15600,"station_id":"ce4bhr12rcd13ifvqhqg","pricing_plan_id":"free"},{"bike_id":"6ac675f1-e0be-498c-ad2f-b742a949d4b0","system_id":"levelo_inurba_marseille","lat":43.298218,"lon":5.374416,"is_reserved":false,"is_disabled":false,"rental_uris":{"android":"levelo://app?vid=6ac675f1-e0be-498c-ad2f-b742a949d4b0","ios":"levelo://app?vid=6ac675f1-e0be-498c-ad2f-b742a949d4b0"},"vehicle_type_id":"4","last_reported":1702127237,"current_range_meters":2000,"station_id":"","pricing_plan_id":"free"},{"bike_id":"8152aa9f-d323-476d-b021-9abe496e2dfd","system_id":"levelo_inurba_marseille","lat":43.328371,"lon":5.366909,"is_reserved":false,"is_disabled":false,"rental_uris":{"android":"levelo://app?vid=8152aa9f-d323-476d-b021-9abe496e2dfd","ios":"levelo://app?vid=8152aa9f-d323-476d-b021-9abe496e2dfd"},"vehicle_type_id":"4","last_reported":1702127237,"current_range_meters":18800,"station_id":"ce4bhs92rcd13ifvqi0g","pricing_plan_id":"free"},{"bike_id":"e0a4a2dd-db29-4701-ac54-494d34da2cf6","system_id":"levelo_inurba_marseille","lat":43.2968,"lon":5.37291,"is_reserved":false,"is_disabled":false,"rental_uris":{"android":"levelo://app?vid=e0a4a2dd-db29-4701-ac54-494d34da2cf6","ios":"levelo://app?vid=e0a4a2dd-db29-4701-ac54-494d34da2cf6"},"vehicle_type_id":"4","last_reported":1702127237,"current_range_meters":27200,"station_id":"ce4bgk12rcd13ifvqbj0","pricing_plan_id":"free"},{"bike_id":"92dc65d6-6823-4de3-93d4-056f738f090c","system_id":"levelo_inurba_marseille","lat":43.316538,"lon":5.38954,"is_reserved":false,"is_disabled":false,"rental_uris":{"android":"levelo://app?vid=92dc65d6-6823-4de3-93d4-056f738f090c","ios":"levelo://app?vid=92dc65d6-6823-4de3-93d4-056f738f090c"},"vehicle_type_id":"4","last_reported":1702127237,"current_range_meters":0,"station_id":"","pricing_plan_id":"free"},{"bike_id":"e821fb9c-bac1-4b1b-88ea-f26b2614d50b","system_id":"levelo_inurba_marseille","lat":43.299028,"lon":5.381509,"is_reserved":false,"is_disabled":false,"rental_uris":{"android":"levelo://app?vid=e821fb9c-bac1-4b1b-88ea-f26b2614d50b","ios":"levelo://app?vid=e821fb9c-bac1-4b1b-88ea-f26b2614d50b"},"vehicle_type_id":"4","last_reported":1702127237,"current_range_meters":16800,"station_id":"ce4bgj12rcd13ifvqbc0","pricing_plan_id":"free"},{"bike_id":"27458693-7bed-4026-8815-abeeb08b7869","system_id":"levelo_inurba_marseille","lat":43.2971,"lon":5.37689,"is_reserved":false,"is_disabled":false,"rental_uris":{"android":"levelo://app?vid=27458693-7bed-4026-8815-abeeb08b7869","ios":"levelo://app?vid=27458693-7bed-4026-8815-abeeb08b7869"},"vehicle_type_id":"4","last_reported":1702127237,"current_range_meters":20800,"station_id":"ce4bgkh2rcd13ifvqbl0","pricing_plan_id":"free"},{"bike_id":"9caf4048-058d-49ee-9568-e2c1c5bc9032","system_id":"levelo_inurba_marseille","lat":43.296935,"lon":5.376544,"is_reserved":false,"is_disabled":false,"rental_uris":{"android":"levelo://app?vid=9caf4048-058d-49ee-9568-e2c1c5bc9032","ios":"levelo://app?vid=9caf4048-058d-49ee-9568-e2c1c5bc9032"},"vehicle_type_id":"4","last_reported":1702127237,"current_range_meters":0,"station_id":"ce4bgkh2rcd13ifvqbl0","pricing_plan_id":"free"},{"bike_id":"0c676743-daed-411e-85c7-3b270775446d","system_id":"levelo_inurba_marseille","lat":43.309589,"lon":5.390258,"is_reserved":false,"is_disabled":false,"rental_uris":{"android":"levelo://app?vid=0c676743-daed-411e-85c7-3b270775446d","ios":"levelo://app?vid=0c676743-daed-411e-85c7-3b270775446d"},"vehicle_type_id":"4","last_reported":1702127237,"current_range_meters":20400,"station_id":"ce4bgup2rcd13ifvqco0","pricing_plan_id":"free"},{"bike_id":"3a6592af-6ed2-4dce-8931-15dbc24050f7","system_id":"levelo_inurba_marseille","lat":43.309589,"lon":5.390258,"is_reserved":false,"is_disabled":false,"rental_uris":{"android":"levelo://app?vid=3a6592af-6ed2-4dce-8931-15dbc24050f7","ios":"levelo://app?vid=3a6592af-6ed2-4dce-8931-15dbc24050f7"},"vehicle_type_id":"4","last_reported":1702127237,"current_range_meters":31200,"station_id":"ce4bgup2rcd13ifvqco0","pricing_plan_id":"free"},{"bike_id":"5b661087-2af5-427c-a0a6-a9110a6e6825","system_id":"levelo_inurba_marseille","lat":43.29812,"lon":5.38096,"is_reserved":false,"is_disabled":false,"rental_uris":{"android":"levelo://app?vid=5b661087-2af5-427c-a0a6-a9110a6e6825","ios":"levelo://app?vid=5b661087-2af5-427c-a0a6-a9110a6e6825"},"vehicle_type_id":"4","last_reported":1702127237,"current_range_meters":24400,"station_id":"ce4bgip2rcd13ifvqbb0","pricing_plan_id":"free"},{"bike_id":"8c5483f2-a4d6-4f6f-b631-6e29a38ddcb7","system_id":"levelo_inurba_marseille","lat":43.298037,"lon":5.381066,"is_reserved":false,"is_disabled":false,"rental_uris":{"android":"levelo://app?vid=8c5483f2-a4d6-4f6f-b631-6e29a38ddcb7","ios":"levelo://app?vid=8c5483f2-a4d6-4f6f-b631-6e29a38ddcb7"},"vehicle_type_id":"4","last_reported":1702127237,"current_range_meters":1200,"station_id":"ce4bgip2rcd13ifvqbb0","pricing_plan_id":"free"},{"bike_id":"6ce562b8-1fbd-4822-9c4e-849f03fcf456","system_id":"levelo_inurba_marseille","lat":43.304274,"lon":5.388873,"is_reserved":false,"is_disabled":false,"rental_uris":{"android":"levelo://app?vid=6ce562b8-1fbd-4822-9c4e-849f03fcf456","ios":"levelo://app?vid=6ce562b8-1fbd-4822-9c4e-849f03fcf456"},"vehicle_type_id":"4","last_reported":1702127237,"current_range_meters":10400,"station_id":"ce4bgk12rcd13ifvqbi0","pricing_plan_id":"free"},{"bike_id":"45de54e8-9572-49e2-9429-a800602f174f","system_id":"levelo_inurba_marseille","lat":43.304274,"lon":5.388873,"is_reserved":false,"is_disabled":false,"rental_uris":{"android":"levelo://app?vid=45de54e8-9572-49e2-9429-a800602f174f","ios":"levelo://app?vid=45de54e8-9572-49e2-9429-a800602f174f"},"vehicle_type_id":"4","last_reported":1702127237,"current_range_meters":12800,"station_id":"ce4bgk12rcd13ifvqbi0","pricing_plan_id":"free"},{"bike_id":"e377860c-3697-414e-a979-38b0006a2f12","system_id":"levelo_inurba_marseille","lat":43.304274,"lon":5.388873,"is_reserved":false,"is_disabled":false,"rental_uris":{"android":"levelo://app?vid=e377860c-3697-414e-a979-38b0006a2f12","ios":"levelo://app?vid=e377860c-3697-414e-a979-38b0006a2f12"},"vehicle_type_id":"4","last_reported":1702127237,"current_range_meters":2800,"station_id":"ce4bgk12rcd13ifvqbi0","pricing_plan_id":"free"},{"bike_id":"9c23af57-068e-424a-b658-1609d792bd61","system_id":"levelo_inurba_marseille","lat":43.304274,"lon":5.388873,"is_reserved":false,"is_disabled":false,"rental_uris":{"android":"levelo://app?vid=9c23af57-068e-424a-b658-1609d792bd61","ios":"levelo://app?vid=9c23af57-068e-424a-b658-1609d792bd61"},"vehicle_type_id":"4","last_reported":1702127237,"current_range_meters":27200,"station_id":"ce4bgk12rcd13ifvqbi0","pricing_plan_id":"free"},{"bike_id":"47f395e4-f939-4a77-947e-e6be1cbdbda8","system_id":"levelo_inurba_marseille","lat":43.296263,"lon":5.377094,"is_reserved":false,"is_disabled":false,"rental_uris":{"android":"levelo://app?vid=47f395e4-f939-4a77-947e-e6be1cbdbda8","ios":"levelo://app?vid=47f395e4-f939-4a77-947e-e6be1cbdbda8"},"vehicle_type_id":"4","last_reported":1702127237,"current_range_meters":14800,"station_id":"ce4bgi92rcd13ifvqb90","pricing_plan_id":"free"},{"bike_id":"b897f863-e5e4-46bd-9cee-48e4d17a5912","system_id":"levelo_inurba_marseille","lat":43.296263,"lon":5.377094,"is_reserved":false,"is_disabled":false,"rental_uris":{"android":"levelo://app?vid=b897f863-e5e4-46bd-9cee-48e4d17a5912","ios":"levelo://app?vid=b897f863-e5e4-46bd-9cee-48e4d17a5912"},"vehicle_type_id":"4","last_reported":1702127237,"current_range_meters":4000,"station_id":"ce4bgi92rcd13ifvqb90","pricing_plan_id":"free"},{"bike_id":"ad845dc0-76be-4bbd-89f0-763737ef6c04","system_id":"levelo_inurba_marseille","lat":43.299707,"lon":5.384859,"is_reserved":false,"is_disabled":false,"rental_uris":{"android":"levelo://app?vid=ad845dc0-76be-4bbd-89f0-763737ef6c04","ios":"levelo://app?vid=ad845dc0-76be-4bbd-89f0-763737ef6c04"},"vehicle_type_id":"4","last_reported":1702127237,"current_range_meters":25600,"station_id":"ce4bgj92rcd13ifvqbd0","pricing_plan_id":"free"},{"bike_id":"2a189c6e-35f8-4e8a-bafb-de84a5ba4608","system_id":"levelo_inurba_marseille","lat":43.299724,"lon":5.384848,"is_reserved":false,"is_disabled":false,"rental_uris":{"android":"levelo://app?vid=2a189c6e-35f8-4e8a-bafb-de84a5ba4608","ios":"levelo://app?vid=2a189c6e-35f8-4e8a-bafb-de84a5ba4608"},"vehicle_type_id":"4","last_reported":1702127237,"current_range_meters":21600,"station_id":"ce4bgj92rcd13ifvqbd0","pricing_plan_id":"free"},{"bike_id":"9d1d5b45-c27e-42a6-a15e-5a2767aef33c","system_id":"levelo_inurba_marseille","lat":43.299724,"lon":5.384848,"is_reserved":false,"is_disabled":false,"rental_uris":{"android":"levelo://app?vid=9d1d5b45-c27e-42a6-a15e-5a2767aef33c","ios":"levelo://app?vid=9d1d5b45-c27e-42a6-a15e-5a2767aef33c"},"vehicle_type_id":"4","last_reported":1702127237,"current_range_meters":28000,"station_id":"ce4bgj92rcd13ifvqbd0","pricing_plan_id":"free"},{"bike_id":"53719d19-20f6-4119-9533-63342ab45586","system_id":"levelo_inurba_marseille","lat":43.29596,"lon":5.38099,"is_reserved":false,"is_disabled":false,"rental_uris":{"android":"levelo://app?vid=53719d19-20f6-4119-9533-63342ab45586","ios":"levelo://app?vid=53719d19-20f6-4119-9533-63342ab45586"},"vehicle_type_id":"4","last_reported":1702127237,"current_range_meters":20400,"station_id":"ce4bgl12rcd13ifvqbo0","pricing_plan_id":"free"},{"bike_id":"3edb7cdb-958e-4d7e-a77c-efb7d2141c86","system_id":"levelo_inurba_marseille","lat":43.293259,"lon":5.371586,"is_reserved":false,"is_disabled":false,"rental_uris":{"android":"levelo://app?vid=3edb7cdb-958e-4d7e-a77c-efb7d2141c86","ios":"levelo://app?vid=3edb7cdb-958e-4d7e-a77c-efb7d2141c86"},"vehicle_type_id":"4","last_reported":1702127237,"current_range_meters":27200,"station_id":"ce4bgh92rcd13ifvqb40","pricing_plan_id":"free"},{"bike_id":"865e6f76-d3fa-49f2-bdaf-79caecc08502","system_id":"levelo_inurba_marseille","lat":43.29309,"lon":5.37183,"is_reserved":false,"is_disabled":false,"rental_uris":{"android":"levelo://app?vid=865e6f76-d3fa-49f2-bdaf-79caecc08502","ios":"levelo://app?vid=865e6f76-d3fa-49f2-bdaf-79caecc08502"},"vehicle_type_id":"4","last_reported":1702127237,"current_range_meters":30000,"station_id":"ce4bgh92rcd13ifvqb40","pricing_plan_id":"free"},{"bike_id":"45f38ae0-3406-41b4-94ec-c62c9545775a","system_id":"levelo_inurba_marseille","lat":43.29266,"lon":5.36842,"is_reserved":false,"is_disabled":false,"rental_uris":{"android":"levelo://app?vid=45f38ae0-3406-41b4-94ec-c62c9545775a","ios":"levelo://app?vid=45f38ae0-3406-41b4-94ec-c62c9545775a"},"vehicle_type_id":"4","last_reported":1702127237,"current_range_meters":20800,"station_id":"ce4bhbp2rcd13ifvqesg","pricing_plan_id":"free"},{"bike_id":"4b21fd58-3384-4105-bb82-fab05bfbf10c","system_id":"levelo_inurba_marseille","lat":43.305994,"lon":5.393687,"is_reserved":false,"is_disabled":false,"rental_uris":{"android":"levelo://app?vid=4b21fd58-3384-4105-bb82-fab05bfbf10c","ios":"levelo://app?vid=4b21fd58-3384-4105-bb82-fab05bfbf10c"},"vehicle_type_id":"4","last_reported":1702127237,"current_range_meters":0,"station_id":"ce4bh0p2rcd13ifvqd80","pricing_plan_id":"free"},{"bike_id":"b786eb2a-8d5c-42d5-a0f9-2f635443496b","system_id":"levelo_inurba_marseille","lat":43.29376,"lon":5.37856,"is_reserved":false,"is_disabled":false,"rental_uris":{"android":"levelo://app?vid=b786eb2a-8d5c-42d5-a0f9-2f635443496b","ios":"levelo://app?vid=b786eb2a-8d5c-42d5-a0f9-2f635443496b"},"vehicle_type_id":"4","last_reported":1702127237,"current_range_meters":27200,"station_id":"ce4bgjh2rcd13ifvqbf0","pricing_plan_id":"free"},{"bike_id":"24d6f9f5-ca8f-48d5-9c9b-e0e8bfa47fa0","system_id":"levelo_inurba_marseille","lat":43.302992,"lon":5.392136,"is_reserved":false,"is_disabled":false,"rental_uris":{"android":"levelo://app?vid=24d6f9f5-ca8f-48d5-9c9b-e0e8bfa47fa0","ios":"levelo://app?vid=24d6f9f5-ca8f-48d5-9c9b-e0e8bfa47fa0"},"vehicle_type_id":"4","last_reported":1702127237,"current_range_meters":20400,"station_id":"ce4bgkh2rcd13ifvqbk0","pricing_plan_id":"free"},{"bike_id":"4a08653b-6fa6-49e7-a77d-cc3cf8d10bc7","system_id":"levelo_inurba_marseille","lat":43.300852,"lon":5.390859,"is_reserved":false,"is_disabled":false,"rental_uris":{"android":"levelo://app?vid=4a08653b-6fa6-49e7-a77d-cc3cf8d10bc7","ios":"levelo://app?vid=4a08653b-6fa6-49e7-a77d-cc3cf8d10bc7"},"vehicle_type_id":"4","last_reported":1702127237,"current_range_meters":24400,"station_id":"ce4bh192rcd13ifvqdb0","pricing_plan_id":"free"},{"bike_id":"121f65d3-1d88-46a7-b671-7141d88dbbdc","system_id":"levelo_inurba_marseille","lat":43.300852,"lon":5.390859,"is_reserved":false,"is_disabled":false,"rental_uris":{"android":"levelo://app?vid=121f65d3-1d88-46a7-b671-7141d88dbbdc","ios":"levelo://app?vid=121f65d3-1d88-46a7-b671-7141d88dbbdc"},"vehicle_type_id":"4","last_reported":1702127237,"current_range_meters":17200,"station_id":"ce4bh192rcd13ifvqdb0","pricing_plan_id":"free"},{"bike_id":"ffe8e861-9583-46be-9da3-462d5c1037ee","system_id":"levelo_inurba_marseille","lat":43.29258,"lon":5.37618,"is_reserved":false,"is_disabled":false,"rental_uris":{"android":"levelo://app?vid=ffe8e861-9583-46be-9da3-462d5c1037ee","ios":"levelo://app?vid=ffe8e861-9583-46be-9da3-462d5c1037ee"},"vehicle_type_id":"4","last_reported":1702127237,"current_range_meters":11200,"station_id":"ce4bgi12rcd13ifvqb80","pricing_plan_id":"free"},{"bike_id":"3a9400bc-b304-45da-b516-b7d1269f0143","system_id":"levelo_inurba_marseille","lat":43.291666,"lon":5.371483,"is_reserved":false,"is_disabled":false,"rental_uris":{"android":"levelo://app?vid=3a9400bc-b304-45da-b516-b7d1269f0143","ios":"levelo://app?vid=3a9400bc-b304-45da-b516-b7d1269f0143"},"vehicle_type_id":"4","last_reported":1702127237,"current_range_meters":19200,"station_id":"ce4bha92rcd13ifvqeh0","pricing_plan_id":"free"},{"bike_id":"8393f41e-62c4-4e32-bbc4-6026b4380973","system_id":"levelo_inurba_marseille","lat":43.2988,"lon":5.38914,"is_reserved":false,"is_disabled":false,"rental_uris":{"android":"levelo://app?vid=8393f41e-62c4-4e32-bbc4-6026b4380973","ios":"levelo://app?vid=8393f41e-62c4-4e32-bbc4-6026b4380973"},"vehicle_type_id":"4","last_reported":1702127237,"current_range_meters":15600,"station_id":"","pricing_plan_id":"free"},{"bike_id":"8f233572-e1a1-4fe4-b9b5-83a7122e22ba","system_id":"levelo_inurba_marseille","lat":43.29867,"lon":5.38906,"is_reserved":false,"is_disabled":false,"rental_uris":{"android":"levelo://app?vid=8f233572-e1a1-4fe4-b9b5-83a7122e22ba","ios":"levelo://app?vid=8f233572-e1a1-4fe4-b9b5-83a7122e22ba"},"vehicle_type_id":"4","last_reported":1702127237,"current_range_meters":29200,"station_id":"","pricing_plan_id":"free"},{"bike_id":"dd95cb8d-51f5-4193-b322-e02ee70f044e","system_id":"levelo_inurba_marseille","lat":43.313291,"lon":5.396838,"is_reserved":false,"is_disabled":false,"rental_uris":{"android":"levelo://app?vid=dd95cb8d-51f5-4193-b322-e02ee70f044e","ios":"levelo://app?vid=dd95cb8d-51f5-4193-b322-e02ee70f044e"},"vehicle_type_id":"4","last_reported":1702127237,"current_range_meters":22800,"station_id":"ce4bgvp2rcd13ifvqcu0","pricing_plan_id":"free"},{"bike_id":"f1907808-434c-4b30-829d-901d1cfb8a2a","system_id":"levelo_inurba_marseille","lat":43.31333,"lon":5.39693,"is_reserved":false,"is_disabled":false,"rental_uris":{"android":"levelo://app?vid=f1907808-434c-4b30-829d-901d1cfb8a2a","ios":"levelo://app?vid=f1907808-434c-4b30-829d-901d1cfb8a2a"},"vehicle_type_id":"4","last_reported":1702127237,"current_range_meters":15600,"station_id":"ce4bgvp2rcd13ifvqcu0","pricing_plan_id":"free"},{"bike_id":"25370a0e-e806-4f5e-a418-6aeaa4287291","system_id":"levelo_inurba_marseille","lat":43.29187,"lon":5.35797,"is_reserved":false,"is_disabled":false,"rental_uris":{"android":"levelo://app?vid=25370a0e-e806-4f5e-a418-6aeaa4287291","ios":"levelo://app?vid=25370a0e-e806-4f5e-a418-6aeaa4287291"},"vehicle_type_id":"4","last_reported":1702127237,"current_range_meters":16800,"station_id":"ce4bhb12rcd13ifvqel0","pricing_plan_id":"free"},{"bike_id":"2695bb14-ea9b-406e-a2c7-d735f3e576b2","system_id":"levelo_inurba_marseille","lat":43.31327,"lon":5.397,"is_reserved":false,"is_disabled":false,"rental_uris":{"android":"levelo://app?vid=2695bb14-ea9b-406e-a2c7-d735f3e576b2","ios":"levelo://app?vid=2695bb14-ea9b-406e-a2c7-d735f3e576b2"},"vehicle_type_id":"4","last_reported":1702127237,"current_range_meters":25600,"station_id":"ce4bgvp2rcd13ifvqcu0","pricing_plan_id":"free"},{"bike_id":"6e947a69-a7f6-440c-abcb-c45a425a1a64","system_id":"levelo_inurba_marseille","lat":43.309038,"lon":5.396546,"is_reserved":false,"is_disabled":false,"rental_uris":{"android":"levelo://app?vid=6e947a69-a7f6-440c-abcb-c45a425a1a64","ios":"levelo://app?vid=6e947a69-a7f6-440c-abcb-c45a425a1a64"},"vehicle_type_id":"4","last_reported":1702127237,"current_range_meters":26400,"station_id":"ce4bh012rcd13ifvqcv0","pricing_plan_id":"free"},{"bike_id":"6f991561-c92b-4cce-b0d7-8314d3a2963b","system_id":"levelo_inurba_marseille","lat":43.31325,"lon":5.39717,"is_reserved":false,"is_disabled":false,"rental_uris":{"android":"levelo://app?vid=6f991561-c92b-4cce-b0d7-8314d3a2963b","ios":"levelo://app?vid=6f991561-c92b-4cce-b0d7-8314d3a2963b"},"vehicle_type_id":"4","last_reported":1702127237,"current_range_meters":4400,"station_id":"ce4bgvp2rcd13ifvqcu0","pricing_plan_id":"free"},{"bike_id":"0356aa15-7305-456d-96a8-c35634ca181a","system_id":"levelo_inurba_marseille","lat":43.290327,"lon":5.375711,"is_reserved":false,"is_disabled":false,"rental_uris":{"android":"levelo://app?vid=0356aa15-7305-456d-96a8-c35634ca181a","ios":"levelo://app?vid=0356aa15-7305-456d-96a8-c35634ca181a"},"vehicle_type_id":"4","last_reported":1702127237,"current_range_meters":12000,"station_id":"ce4bh692rcd13ifvqe90","pricing_plan_id":"free"},{"bike_id":"b07f5068-2d82-4369-82f5-7e89b10a3319","system_id":"levelo_inurba_marseille","lat":43.28947,"lon":5.36414,"is_reserved":false,"is_disabled":false,"rental_uris":{"android":"levelo://app?vid=b07f5068-2d82-4369-82f5-7e89b10a3319","ios":"levelo://app?vid=b07f5068-2d82-4369-82f5-7e89b10a3319"},"vehicle_type_id":"4","last_reported":1702127237,"current_range_meters":27200,"station_id":"ce4bhc92rcd13ifvqetg","pricing_plan_id":"free"},{"bike_id":"b2d061ef-578a-474c-8f49-ca8daa7e16ed","system_id":"levelo_inurba_marseille","lat":43.289447,"lon":5.364024,"is_reserved":false,"is_disabled":false,"rental_uris":{"android":"levelo://app?vid=b2d061ef-578a-474c-8f49-ca8daa7e16ed","ios":"levelo://app?vid=b2d061ef-578a-474c-8f49-ca8daa7e16ed"},"vehicle_type_id":"4","last_reported":1702127237,"current_range_meters":12800,"station_id":"ce4bhc92rcd13ifvqetg","pricing_plan_id":"free"},{"bike_id":"a02a1b20-1fb1-4951-988a-77389649024d","system_id":"levelo_inurba_marseille","lat":43.289259,"lon":5.366364,"is_reserved":false,"is_disabled":false,"rental_uris":{"android":"levelo://app?vid=a02a1b20-1fb1-4951-988a-77389649024d","ios":"levelo://app?vid=a02a1b20-1fb1-4951-988a-77389649024d"},"vehicle_type_id":"4","last_reported":1702127237,"current_range_meters":12000,"station_id":"","pricing_plan_id":"free"},{"bike_id":"d7fda77e-32b9-4e17-b6f7-bffc99e17dda","system_id":"levelo_inurba_marseille","lat":43.304296,"lon":5.397513,"is_reserved":false,"is_disabled":false,"rental_uris":{"android":"levelo://app?vid=d7fda77e-32b9-4e17-b6f7-bffc99e17dda","ios":"levelo://app?vid=d7fda77e-32b9-4e17-b6f7-bffc99e17dda"},"vehicle_type_id":"4","last_reported":1702127237,"current_range_meters":23600,"station_id":"ce4bh092rcd13ifvqd20","pricing_plan_id":"free"},{"bike_id":"41668285-764b-4def-86b6-cf5f9ef0fabd","system_id":"levelo_inurba_marseille","lat":43.292642,"lon":5.384254,"is_reserved":false,"is_disabled":false,"rental_uris":{"android":"levelo://app?vid=41668285-764b-4def-86b6-cf5f9ef0fabd","ios":"levelo://app?vid=41668285-764b-4def-86b6-cf5f9ef0fabd"},"vehicle_type_id":"4","last_reported":1702127237,"current_range_meters":8800,"station_id":"ce4bh692rcd13ifvqea0","pricing_plan_id":"free"},{"bike_id":"24caf306-de12-4e75-8960-d2998fe8604c","system_id":"levelo_inurba_marseille","lat":43.330442,"lon":5.389148,"is_reserved":false,"is_disabled":false,"rental_uris":{"android":"levelo://app?vid=24caf306-de12-4e75-8960-d2998fe8604c","ios":"levelo://app?vid=24caf306-de12-4e75-8960-d2998fe8604c"},"vehicle_type_id":"4","last_reported":1702127237,"current_range_meters":25600,"station_id":"ce4bhr92rcd13ifvqhrg","pricing_plan_id":"free"},{"bike_id":"2e88e13c-7428-48af-b505-578a0527a393","system_id":"levelo_inurba_marseille","lat":43.330462,"lon":5.38928,"is_reserved":false,"is_disabled":false,"rental_uris":{"android":"levelo://app?vid=2e88e13c-7428-48af-b505-578a0527a393","ios":"levelo://app?vid=2e88e13c-7428-48af-b505-578a0527a393"},"vehicle_type_id":"4","last_reported":1702127237,"current_range_meters":13200,"station_id":"ce4bhr92rcd13ifvqhrg","pricing_plan_id":"free"},{"bike_id":"fdeec22b-b589-4c55-8630-2798053446f5","system_id":"levelo_inurba_marseille","lat":43.29525,"lon":5.39039,"is_reserved":false,"is_disabled":false,"rental_uris":{"android":"levelo://app?vid=fdeec22b-b589-4c55-8630-2798053446f5","ios":"levelo://app?vid=fdeec22b-b589-4c55-8630-2798053446f5"},"vehicle_type_id":"4","last_reported":1702127237,"current_range_meters":15600,"station_id":"ce4bh3p2rcd13ifvqdp0","pricing_plan_id":"free"},{"bike_id":"e10998d4-75b9-4aaf-972d-8aa037ad5244","system_id":"levelo_inurba_marseille","lat":43.30935,"lon":5.40145,"is_reserved":false,"is_disabled":false,"rental_uris":{"android":"levelo://app?vid=e10998d4-75b9-4aaf-972d-8aa037ad5244","ios":"levelo://app?vid=e10998d4-75b9-4aaf-972d-8aa037ad5244"},"vehicle_type_id":"4","last_reported":1702127237,"current_range_meters":28000,"station_id":"ce4bgvp2rcd13ifvqct0","pricing_plan_id":"free"},{"bike_id":"6d4ce353-a672-40b8-8c3c-1e9561ea460c","system_id":"levelo_inurba_marseille","lat":43.306412,"lon":5.401035,"is_reserved":false,"is_disabled":false,"rental_uris":{"android":"levelo://app?vid=6d4ce353-a672-40b8-8c3c-1e9561ea460c","ios":"levelo://app?vid=6d4ce353-a672-40b8-8c3c-1e9561ea460c"},"vehicle_type_id":"4","last_reported":1702127237,"current_range_meters":3200,"station_id":"ce4bh112rcd13ifvqda0","pricing_plan_id":"free"},{"bike_id":"64758691-c470-4262-a009-182ea219fb32","system_id":"levelo_inurba_marseille","lat":43.306412,"lon":5.401035,"is_reserved":false,"is_disabled":false,"rental_uris":{"android":"levelo://app?vid=64758691-c470-4262-a009-182ea219fb32","ios":"levelo://app?vid=64758691-c470-4262-a009-182ea219fb32"},"vehicle_type_id":"4","last_reported":1702127237,"current_range_meters":27200,"station_id":"ce4bh112rcd13ifvqda0","pricing_plan_id":"free"},{"bike_id":"f5415e55-ee48-48ad-ac75-5b30ddaaf24b","system_id":"levelo_inurba_marseille","lat":43.337663,"lon":5.374572,"is_reserved":false,"is_disabled":false,"rental_uris":{"android":"levelo://app?vid=f5415e55-ee48-48ad-ac75-5b30ddaaf24b","ios":"levelo://app?vid=f5415e55-ee48-48ad-ac75-5b30ddaaf24b"},"vehicle_type_id":"4","last_reported":1702127237,"current_range_meters":27600,"station_id":"","pricing_plan_id":"free"},{"bike_id":"0f672cc4-d8c9-4d66-bc6c-ca42a5cef680","system_id":"levelo_inurba_marseille","lat":43.30649,"lon":5.40096,"is_reserved":false,"is_disabled":false,"rental_uris":{"android":"levelo://app?vid=0f672cc4-d8c9-4d66-bc6c-ca42a5cef680","ios":"levelo://app?vid=0f672cc4-d8c9-4d66-bc6c-ca42a5cef680"},"vehicle_type_id":"4","last_reported":1702127237,"current_range_meters":27200,"station_id":"ce4bh112rcd13ifvqda0","pricing_plan_id":"free"},{"bike_id":"f1c752bd-483d-4ee8-ab18-15831140f996","system_id":"levelo_inurba_marseille","lat":43.28727,"lon":5.36078,"is_reserved":false,"is_disabled":false,"rental_uris":{"android":"levelo://app?vid=f1c752bd-483d-4ee8-ab18-15831140f996","ios":"levelo://app?vid=f1c752bd-483d-4ee8-ab18-15831140f996"},"vehicle_type_id":"4","last_reported":1702127237,"current_range_meters":14400,"station_id":"cki0cbj6b192h4jlfktg","pricing_plan_id":"free"},{"bike_id":"cb97f872-a384-40e3-b6d0-239bf4316522","system_id":"levelo_inurba_marseille","lat":43.298681,"lon":5.397225,"is_reserved":false,"is_disabled":false,"rental_uris":{"android":"levelo://app?vid=cb97f872-a384-40e3-b6d0-239bf4316522","ios":"levelo://app?vid=cb97f872-a384-40e3-b6d0-239bf4316522"},"vehicle_type_id":"4","last_reported":1702127237,"current_range_meters":2800,"station_id":"ce4bh0h2rcd13ifvqd50","pricing_plan_id":"free"},{"bike_id":"d541ccd3-dea0-42a1-93c0-f311ea483131","system_id":"levelo_inurba_marseille","lat":43.29026,"lon":5.38649,"is_reserved":false,"is_disabled":false,"rental_uris":{"android":"levelo://app?vid=d541ccd3-dea0-42a1-93c0-f311ea483131","ios":"levelo://app?vid=d541ccd3-dea0-42a1-93c0-f311ea483131"},"vehicle_type_id":"4","last_reported":1702127237,"current_range_meters":6000,"station_id":"ce4bh4p2rcd13ifvqe0g","pricing_plan_id":"free"},{"bike_id":"327994c3-8266-4aa2-abb1-8cbe424cf205","system_id":"levelo_inurba_marseille","lat":43.302759,"lon":5.400793,"is_reserved":false,"is_disabled":false,"rental_uris":{"android":"levelo://app?vid=327994c3-8266-4aa2-abb1-8cbe424cf205","ios":"levelo://app?vid=327994c3-8266-4aa2-abb1-8cbe424cf205"},"vehicle_type_id":"4","last_reported":1702127237,"current_range_meters":31200,"station_id":"ce4bgvh2rcd13ifvqcs0","pricing_plan_id":"free"},{"bike_id":"9f0e4d0f-6bc8-48e1-b976-f2cbd2f0b294","system_id":"levelo_inurba_marseille","lat":43.302759,"lon":5.400793,"is_reserved":false,"is_disabled":false,"rental_uris":{"android":"levelo://app?vid=9f0e4d0f-6bc8-48e1-b976-f2cbd2f0b294","ios":"levelo://app?vid=9f0e4d0f-6bc8-48e1-b976-f2cbd2f0b294"},"vehicle_type_id":"4","last_reported":1702127237,"current_range_meters":30800,"station_id":"ce4bgvh2rcd13ifvqcs0","pricing_plan_id":"free"},{"bike_id":"11827d9c-dab2-4e6e-a8a5-19328753934f","system_id":"levelo_inurba_marseille","lat":43.286039,"lon":5.370681,"is_reserved":false,"is_disabled":false,"rental_uris":{"android":"levelo://app?vid=11827d9c-dab2-4e6e-a8a5-19328753934f","ios":"levelo://app?vid=11827d9c-dab2-4e6e-a8a5-19328753934f"},"vehicle_type_id":"4","last_reported":1702127237,"current_range_meters":17200,"station_id":"ce4bht12rcd13ifvqi60","pricing_plan_id":"free"},{"bike_id":"49658399-508d-489c-8ecf-17152ba09692","system_id":"levelo_inurba_marseille","lat":43.286039,"lon":5.370679,"is_reserved":false,"is_disabled":false,"rental_uris":{"android":"levelo://app?vid=49658399-508d-489c-8ecf-17152ba09692","ios":"levelo://app?vid=49658399-508d-489c-8ecf-17152ba09692"},"vehicle_type_id":"4","last_reported":1702127237,"current_range_meters":26800,"station_id":"ce4bht12rcd13ifvqi60","pricing_plan_id":"free"},{"bike_id":"afe5739c-aaf1-4357-8876-520531bebe38","system_id":"levelo_inurba_marseille","lat":43.291994,"lon":5.392907,"is_reserved":false,"is_disabled":false,"rental_uris":{"android":"levelo://app?vid=afe5739c-aaf1-4357-8876-520531bebe38","ios":"levelo://app?vid=afe5739c-aaf1-4357-8876-520531bebe38"},"vehicle_type_id":"4","last_reported":1702127237,"current_range_meters":10400,"station_id":"ce4bh192rcd13ifvqdd0","pricing_plan_id":"free"},{"bike_id":"94099249-0ba8-4239-9308-6b77fe0cbc14","system_id":"levelo_inurba_marseille","lat":43.284538,"lon":5.358657,"is_reserved":false,"is_disabled":false,"rental_uris":{"android":"levelo://app?vid=94099249-0ba8-4239-9308-6b77fe0cbc14","ios":"levelo://app?vid=94099249-0ba8-4239-9308-6b77fe0cbc14"},"vehicle_type_id":"4","last_reported":1702127237,"current_range_meters":20800,"station_id":"ce4bhah2rcd13ifvqei0","pricing_plan_id":"free"},{"bike_id":"dae5783b-e4e9-4109-9719-0791a63f15c7","system_id":"levelo_inurba_marseille","lat":43.28613,"lon":5.35101,"is_reserved":false,"is_disabled":false,"rental_uris":{"android":"levelo://app?vid=dae5783b-e4e9-4109-9719-0791a63f15c7","ios":"levelo://app?vid=dae5783b-e4e9-4109-9719-0791a63f15c7"},"vehicle_type_id":"4","last_reported":1702127237,"current_range_meters":17200,"station_id":"ce4bhch2rcd13ifvqeug","pricing_plan_id":"free"},{"bike_id":"5248917e-2f81-49f7-8265-17191b3bf6d2","system_id":"levelo_inurba_marseille","lat":43.285856,"lon":5.350771,"is_reserved":false,"is_disabled":false,"rental_uris":{"android":"levelo://app?vid=5248917e-2f81-49f7-8265-17191b3bf6d2","ios":"levelo://app?vid=5248917e-2f81-49f7-8265-17191b3bf6d2"},"vehicle_type_id":"4","last_reported":1702127237,"current_range_meters":18800,"station_id":"ce4bhch2rcd13ifvqeug","pricing_plan_id":"free"},{"bike_id":"a74a3878-4eea-4074-b70f-591ba450338d","system_id":"levelo_inurba_marseille","lat":43.28612,"lon":5.35101,"is_reserved":false,"is_disabled":false,"rental_uris":{"android":"levelo://app?vid=a74a3878-4eea-4074-b70f-591ba450338d","ios":"levelo://app?vid=a74a3878-4eea-4074-b70f-591ba450338d"},"vehicle_type_id":"4","last_reported":1702127237,"current_range_meters":28400,"station_id":"ce4bhch2rcd13ifvqeug","pricing_plan_id":"free"},{"bike_id":"728134e5-a508-4f42-b639-c80502ea78f9","system_id":"levelo_inurba_marseille","lat":43.28612,"lon":5.35095,"is_reserved":false,"is_disabled":false,"rental_uris":{"android":"levelo://app?vid=728134e5-a508-4f42-b639-c80502ea78f9","ios":"levelo://app?vid=728134e5-a508-4f42-b639-c80502ea78f9"},"vehicle_type_id":"4","last_reported":1702127237,"current_range_meters":30400,"station_id":"ce4bhch2rcd13ifvqeug","pricing_plan_id":"free"},{"bike_id":"6d209839-caa7-4eb7-8e27-430f1fc1c770","system_id":"levelo_inurba_marseille","lat":43.286595,"lon":5.386795,"is_reserved":false,"is_disabled":false,"rental_uris":{"android":"levelo://app?vid=6d209839-caa7-4eb7-8e27-430f1fc1c770","ios":"levelo://app?vid=6d209839-caa7-4eb7-8e27-430f1fc1c770"},"vehicle_type_id":"4","last_reported":1702127237,"current_range_meters":26400,"station_id":"ce4bh492rcd13ifvqdug","pricing_plan_id":"free"},{"bike_id":"efe9d2cc-d0eb-4e85-b313-6bf62b4d4d4c","system_id":"levelo_inurba_marseille","lat":43.33717,"lon":5.391857,"is_reserved":false,"is_disabled":false,"rental_uris":{"android":"levelo://app?vid=efe9d2cc-d0eb-4e85-b313-6bf62b4d4d4c","ios":"levelo://app?vid=efe9d2cc-d0eb-4e85-b313-6bf62b4d4d4c"},"vehicle_type_id":"4","last_reported":1702127237,"current_range_meters":0,"station_id":"ce4bhr92rcd13ifvqhsg","pricing_plan_id":"free"},{"bike_id":"a17b2009-e91a-4c48-96c3-a3a58be4d5c0","system_id":"levelo_inurba_marseille","lat":43.317557,"lon":5.390173,"is_reserved":false,"is_disabled":false,"rental_uris":{"android":"levelo://app?vid=a17b2009-e91a-4c48-96c3-a3a58be4d5c0","ios":"levelo://app?vid=a17b2009-e91a-4c48-96c3-a3a58be4d5c0"},"vehicle_type_id":"4","last_reported":1702127237,"current_range_meters":29200,"station_id":"ce4bhqp2rcd13ifvqhng","pricing_plan_id":"free"},{"bike_id":"6f35cf5f-cbf3-4c4a-86ee-f04a3b5f12ff","system_id":"levelo_inurba_marseille","lat":43.284219,"lon":5.3497,"is_reserved":false,"is_disabled":false,"rental_uris":{"android":"levelo://app?vid=6f35cf5f-cbf3-4c4a-86ee-f04a3b5f12ff","ios":"levelo://app?vid=6f35cf5f-cbf3-4c4a-86ee-f04a3b5f12ff"},"vehicle_type_id":"4","last_reported":1702127237,"current_range_meters":31200,"station_id":"ce4bhbh2rcd13ifvqepg","pricing_plan_id":"free"},{"bike_id":"4e0ec372-fdf7-4c73-bffd-eba15a5b4ecd","system_id":"levelo_inurba_marseille","lat":43.28271,"lon":5.35082,"is_reserved":false,"is_disabled":false,"rental_uris":{"android":"levelo://app?vid=4e0ec372-fdf7-4c73-bffd-eba15a5b4ecd","ios":"levelo://app?vid=4e0ec372-fdf7-4c73-bffd-eba15a5b4ecd"},"vehicle_type_id":"4","last_reported":1702127237,"current_range_meters":0,"station_id":"ce4bhbp2rcd13ifvqerg","pricing_plan_id":"free"},{"bike_id":"152a8999-7cf8-4d62-80bf-cfba43126857","system_id":"levelo_inurba_marseille","lat":43.28268,"lon":5.350645,"is_reserved":false,"is_disabled":false,"rental_uris":{"android":"levelo://app?vid=152a8999-7cf8-4d62-80bf-cfba43126857","ios":"levelo://app?vid=152a8999-7cf8-4d62-80bf-cfba43126857"},"vehicle_type_id":"4","last_reported":1702127237,"current_range_meters":20000,"station_id":"ce4bhbp2rcd13ifvqerg","pricing_plan_id":"free"},{"bike_id":"0b6c72e8-d874-41ce-92de-caa9f97cf950","system_id":"levelo_inurba_marseille","lat":43.29041,"lon":5.399634,"is_reserved":false,"is_disabled":false,"rental_uris":{"android":"levelo://app?vid=0b6c72e8-d874-41ce-92de-caa9f97cf950","ios":"levelo://app?vid=0b6c72e8-d874-41ce-92de-caa9f97cf950"},"vehicle_type_id":"4","last_reported":1702127237,"current_range_meters":28400,"station_id":"ce4bh392rcd13ifvqdm0","pricing_plan_id":"free"},{"bike_id":"e52ddfd6-0ddd-4c7b-ab34-3c7fe5c2aaef","system_id":"levelo_inurba_marseille","lat":43.32657,"lon":5.40992,"is_reserved":false,"is_disabled":false,"rental_uris":{"android":"levelo://app?vid=e52ddfd6-0ddd-4c7b-ab34-3c7fe5c2aaef","ios":"levelo://app?vid=e52ddfd6-0ddd-4c7b-ab34-3c7fe5c2aaef"},"vehicle_type_id":"4","last_reported":1702127237,"current_range_meters":31200,"station_id":"ce4bhpp2rcd13ifvqhgg","pricing_plan_id":"free"},{"bike_id":"5e578afd-3e4d-4841-96fa-cf1bf643d8d9","system_id":"levelo_inurba_marseille","lat":43.326605,"lon":5.409903,"is_reserved":false,"is_disabled":false,"rental_uris":{"android":"levelo://app?vid=5e578afd-3e4d-4841-96fa-cf1bf643d8d9","ios":"levelo://app?vid=5e578afd-3e4d-4841-96fa-cf1bf643d8d9"},"vehicle_type_id":"4","last_reported":1702127237,"current_range_meters":24000,"station_id":"ce4bhpp2rcd13ifvqhgg","pricing_plan_id":"free"},{"bike_id":"7a9fb01b-b016-466f-aef9-6c1b020d151b","system_id":"levelo_inurba_marseille","lat":43.304188,"lon":5.412904,"is_reserved":false,"is_disabled":false,"rental_uris":{"android":"levelo://app?vid=7a9fb01b-b016-466f-aef9-6c1b020d151b","ios":"levelo://app?vid=7a9fb01b-b016-466f-aef9-6c1b020d151b"},"vehicle_type_id":"4","last_reported":1702127237,"current_range_meters":28400,"station_id":"ce4bhop2rcd13ifvqh8g","pricing_plan_id":"free"},{"bike_id":"74b50d08-1687-4d16-a3b3-f8fc09add96f","system_id":"levelo_inurba_marseille","lat":43.304188,"lon":5.412904,"is_reserved":false,"is_disabled":false,"rental_uris":{"android":"levelo://app?vid=74b50d08-1687-4d16-a3b3-f8fc09add96f","ios":"levelo://app?vid=74b50d08-1687-4d16-a3b3-f8fc09add96f"},"vehicle_type_id":"4","last_reported":1702127237,"current_range_meters":20000,"station_id":"ce4bhop2rcd13ifvqh8g","pricing_plan_id":"free"},{"bike_id":"738cd730-feab-4ea0-a05c-c3b863b85e61","system_id":"levelo_inurba_marseille","lat":43.299579,"lon":5.413255,"is_reserved":false,"is_disabled":false,"rental_uris":{"android":"levelo://app?vid=738cd730-feab-4ea0-a05c-c3b863b85e61","ios":"levelo://app?vid=738cd730-feab-4ea0-a05c-c3b863b85e61"},"vehicle_type_id":"4","last_reported":1702127237,"current_range_meters":28800,"station_id":"ce4bhp12rcd13ifvqh9g","pricing_plan_id":"free"},{"bike_id":"a0a0b529-70cf-4224-a14b-5aa20a88796e","system_id":"levelo_inurba_marseille","lat":43.299577,"lon":5.413277,"is_reserved":false,"is_disabled":false,"rental_uris":{"android":"levelo://app?vid=a0a0b529-70cf-4224-a14b-5aa20a88796e","ios":"levelo://app?vid=a0a0b529-70cf-4224-a14b-5aa20a88796e"},"vehicle_type_id":"4","last_reported":1702127237,"current_range_meters":8800,"station_id":"ce4bhp12rcd13ifvqh9g","pricing_plan_id":"free"},{"bike_id":"55ae2e29-85d1-4f8a-b75b-bcf006a6e214","system_id":"levelo_inurba_marseille","lat":43.320652,"lon":5.415443,"is_reserved":false,"is_disabled":false,"rental_uris":{"android":"levelo://app?vid=55ae2e29-85d1-4f8a-b75b-bcf006a6e214","ios":"levelo://app?vid=55ae2e29-85d1-4f8a-b75b-bcf006a6e214"},"vehicle_type_id":"4","last_reported":1702127237,"current_range_meters":12800,"station_id":"ce4bhq92rcd13ifvqhkg","pricing_plan_id":"free"},{"bike_id":"a2d28845-0785-400e-80da-978d1a191048","system_id":"levelo_inurba_marseille","lat":43.299577,"lon":5.413277,"is_reserved":false,"is_disabled":false,"rental_uris":{"android":"levelo://app?vid=a2d28845-0785-400e-80da-978d1a191048","ios":"levelo://app?vid=a2d28845-0785-400e-80da-978d1a191048"},"vehicle_type_id":"4","last_reported":1702127237,"current_range_meters":30400,"station_id":"ce4bhp12rcd13ifvqh9g","pricing_plan_id":"free"},{"bike_id":"5294db22-f1e0-48a4-94fd-f8160edc7bb7","system_id":"levelo_inurba_marseille","lat":43.280784,"lon":5.396622,"is_reserved":false,"is_disabled":false,"rental_uris":{"android":"levelo://app?vid=5294db22-f1e0-48a4-94fd-f8160edc7bb7","ios":"levelo://app?vid=5294db22-f1e0-48a4-94fd-f8160edc7bb7"},"vehicle_type_id":"4","last_reported":1702127237,"current_range_meters":31200,"station_id":"ce4bho12rcd13ifvqh2g","pricing_plan_id":"free"},{"bike_id":"c36ae27f-e0f3-456e-ba05-65e3af21b179","system_id":"levelo_inurba_marseille","lat":43.33612,"lon":5.410321,"is_reserved":false,"is_disabled":false,"rental_uris":{"android":"levelo://app?vid=c36ae27f-e0f3-456e-ba05-65e3af21b179","ios":"levelo://app?vid=c36ae27f-e0f3-456e-ba05-65e3af21b179"},"vehicle_type_id":"4","last_reported":1702127237,"current_range_meters":2400,"station_id":"ce4bhqh2rcd13ifvqhmg","pricing_plan_id":"free"},{"bike_id":"5e6df0e0-08b1-496e-a8c3-c039305d41ce","system_id":"levelo_inurba_marseille","lat":43.276771,"lon":5.388799,"is_reserved":false,"is_disabled":false,"rental_uris":{"android":"levelo://app?vid=5e6df0e0-08b1-496e-a8c3-c039305d41ce","ios":"levelo://app?vid=5e6df0e0-08b1-496e-a8c3-c039305d41ce"},"vehicle_type_id":"4","last_reported":1702127237,"current_range_meters":26000,"station_id":"ce4bhi12rcd13ifvqfo0","pricing_plan_id":"free"},{"bike_id":"224c7a07-16ff-42c3-b186-01a891eff3a4","system_id":"levelo_inurba_marseille","lat":43.295523,"lon":5.422926,"is_reserved":false,"is_disabled":false,"rental_uris":{"android":"levelo://app?vid=224c7a07-16ff-42c3-b186-01a891eff3a4","ios":"levelo://app?vid=224c7a07-16ff-42c3-b186-01a891eff3a4"},"vehicle_type_id":"4","last_reported":1702127237,"current_range_meters":28000,"station_id":"ce4bhph2rcd13ifvqhdg","pricing_plan_id":"free"},{"bike_id":"b32ce51f-7f78-43aa-bf73-ac58e4bdc27a","system_id":"levelo_inurba_marseille","lat":43.317121,"lon":5.423936,"is_reserved":false,"is_disabled":false,"rental_uris":{"android":"levelo://app?vid=b32ce51f-7f78-43aa-bf73-ac58e4bdc27a","ios":"levelo://app?vid=b32ce51f-7f78-43aa-bf73-ac58e4bdc27a"},"vehicle_type_id":"4","last_reported":1702127237,"current_range_meters":23200,"station_id":"ce4bhp92rcd13ifvqhbg","pricing_plan_id":"free"},{"bike_id":"fce8ef5a-0f61-4cfb-b8bb-9e1b28bf23ad","system_id":"levelo_inurba_marseille","lat":43.317121,"lon":5.423936,"is_reserved":false,"is_disabled":false,"rental_uris":{"android":"levelo://app?vid=fce8ef5a-0f61-4cfb-b8bb-9e1b28bf23ad","ios":"levelo://app?vid=fce8ef5a-0f61-4cfb-b8bb-9e1b28bf23ad"},"vehicle_type_id":"4","last_reported":1702127237,"current_range_meters":28000,"station_id":"ce4bhp92rcd13ifvqhbg","pricing_plan_id":"free"},{"bike_id":"b5e520e0-8911-4af3-a2d4-7d3ed4e4e33e","system_id":"levelo_inurba_marseille","lat":43.31712,"lon":5.424,"is_reserved":false,"is_disabled":false,"rental_uris":{"android":"levelo://app?vid=b5e520e0-8911-4af3-a2d4-7d3ed4e4e33e","ios":"levelo://app?vid=b5e520e0-8911-4af3-a2d4-7d3ed4e4e33e"},"vehicle_type_id":"4","last_reported":1702127237,"current_range_meters":10400,"station_id":"ce4bhp92rcd13ifvqhbg","pricing_plan_id":"free"},{"bike_id":"02791883-a925-42a0-9dd3-b7193f6a574b","system_id":"levelo_inurba_marseille","lat":43.31712,"lon":5.424,"is_reserved":false,"is_disabled":false,"rental_uris":{"android":"levelo://app?vid=02791883-a925-42a0-9dd3-b7193f6a574b","ios":"levelo://app?vid=02791883-a925-42a0-9dd3-b7193f6a574b"},"vehicle_type_id":"4","last_reported":1702127237,"current_range_meters":4400,"station_id":"ce4bhp92rcd13ifvqhbg","pricing_plan_id":"free"},{"bike_id":"88e59060-d458-48a8-8abe-8a1913097d92","system_id":"levelo_inurba_marseille","lat":43.31716,"lon":5.42402,"is_reserved":false,"is_disabled":false,"rental_uris":{"android":"levelo://app?vid=88e59060-d458-48a8-8abe-8a1913097d92","ios":"levelo://app?vid=88e59060-d458-48a8-8abe-8a1913097d92"},"vehicle_type_id":"4","last_reported":1702127237,"current_range_meters":25200,"station_id":"ce4bhp92rcd13ifvqhbg","pricing_plan_id":"free"},{"bike_id":"fc4bcc5b-5f4e-42a1-8cca-78d5c651475f","system_id":"levelo_inurba_marseille","lat":43.317121,"lon":5.423936,"is_reserved":false,"is_disabled":false,"rental_uris":{"android":"levelo://app?vid=fc4bcc5b-5f4e-42a1-8cca-78d5c651475f","ios":"levelo://app?vid=fc4bcc5b-5f4e-42a1-8cca-78d5c651475f"},"vehicle_type_id":"4","last_reported":1702127237,"current_range_meters":28400,"station_id":"ce4bhp92rcd13ifvqhbg","pricing_plan_id":"free"},{"bike_id":"80038031-3601-4c51-b66a-c6c9131d41d1","system_id":"levelo_inurba_marseille","lat":43.310785,"lon":5.424305,"is_reserved":false,"is_disabled":false,"rental_uris":{"android":"levelo://app?vid=80038031-3601-4c51-b66a-c6c9131d41d1","ios":"levelo://app?vid=80038031-3601-4c51-b66a-c6c9131d41d1"},"vehicle_type_id":"4","last_reported":1702127237,"current_range_meters":30400,"station_id":"ce4bhp92rcd13ifvqhag","pricing_plan_id":"free"},{"bike_id":"e6ff414d-6f05-44d2-b7c6-4a89a6fc64e2","system_id":"levelo_inurba_marseille","lat":43.31079,"lon":5.42429,"is_reserved":false,"is_disabled":false,"rental_uris":{"android":"levelo://app?vid=e6ff414d-6f05-44d2-b7c6-4a89a6fc64e2","ios":"levelo://app?vid=e6ff414d-6f05-44d2-b7c6-4a89a6fc64e2"},"vehicle_type_id":"4","last_reported":1702127237,"current_range_meters":5200,"station_id":"ce4bhp92rcd13ifvqhag","pricing_plan_id":"free"},{"bike_id":"e7bd1e73-4f86-473d-905c-a7b0f3d6ad8a","system_id":"levelo_inurba_marseille","lat":43.31723,"lon":5.42405,"is_reserved":false,"is_disabled":false,"rental_uris":{"android":"levelo://app?vid=e7bd1e73-4f86-473d-905c-a7b0f3d6ad8a","ios":"levelo://app?vid=e7bd1e73-4f86-473d-905c-a7b0f3d6ad8a"},"vehicle_type_id":"4","last_reported":1702127237,"current_range_meters":17200,"station_id":"ce4bhp92rcd13ifvqhbg","pricing_plan_id":"free"},{"bike_id":"48e3df08-57dc-434d-a06c-f6f751cd351f","system_id":"levelo_inurba_marseille","lat":43.310785,"lon":5.424305,"is_reserved":false,"is_disabled":false,"rental_uris":{"android":"levelo://app?vid=48e3df08-57dc-434d-a06c-f6f751cd351f","ios":"levelo://app?vid=48e3df08-57dc-434d-a06c-f6f751cd351f"},"vehicle_type_id":"4","last_reported":1702127237,"current_range_meters":20000,"station_id":"ce4bhp92rcd13ifvqhag","pricing_plan_id":"free"},{"bike_id":"28c358cd-65b8-428a-bf47-330ba1df4c05","system_id":"levelo_inurba_marseille","lat":43.340804,"lon":5.410219,"is_reserved":false,"is_disabled":false,"rental_uris":{"android":"levelo://app?vid=28c358cd-65b8-428a-bf47-330ba1df4c05","ios":"levelo://app?vid=28c358cd-65b8-428a-bf47-330ba1df4c05"},"vehicle_type_id":"4","last_reported":1702127237,"current_range_meters":15200,"station_id":"ce4bhqh2rcd13ifvqhlg","pricing_plan_id":"free"},{"bike_id":"bb44d672-6361-4aec-a338-e7e700472c9f","system_id":"levelo_inurba_marseille","lat":43.340804,"lon":5.410219,"is_reserved":false,"is_disabled":false,"rental_uris":{"android":"levelo://app?vid=bb44d672-6361-4aec-a338-e7e700472c9f","ios":"levelo://app?vid=bb44d672-6361-4aec-a338-e7e700472c9f"},"vehicle_type_id":"4","last_reported":1702127237,"current_range_meters":26800,"station_id":"ce4bhqh2rcd13ifvqhlg","pricing_plan_id":"free"},{"bike_id":"63133364-316e-458e-b234-bbd4926c63fc","system_id":"levelo_inurba_marseille","lat":43.27583,"lon":5.39474,"is_reserved":false,"is_disabled":false,"rental_uris":{"android":"levelo://app?vid=63133364-316e-458e-b234-bbd4926c63fc","ios":"levelo://app?vid=63133364-316e-458e-b234-bbd4926c63fc"},"vehicle_type_id":"4","last_reported":1702127237,"current_range_meters":8000,"station_id":"","pricing_plan_id":"free"},{"bike_id":"9718bb9d-7494-4861-a02a-3bf781adb03a","system_id":"levelo_inurba_marseille","lat":43.273125,"lon":5.390731,"is_reserved":false,"is_disabled":false,"rental_uris":{"android":"levelo://app?vid=9718bb9d-7494-4861-a02a-3bf781adb03a","ios":"levelo://app?vid=9718bb9d-7494-4861-a02a-3bf781adb03a"},"vehicle_type_id":"4","last_reported":1702127237,"current_range_meters":27600,"station_id":"ce4bhgp2rcd13ifvqfe0","pricing_plan_id":"free"},{"bike_id":"44574cd2-c892-43f9-8a3d-fe5302531250","system_id":"levelo_inurba_marseille","lat":43.27426,"lon":5.39411,"is_reserved":false,"is_disabled":false,"rental_uris":{"android":"levelo://app?vid=44574cd2-c892-43f9-8a3d-fe5302531250","ios":"levelo://app?vid=44574cd2-c892-43f9-8a3d-fe5302531250"},"vehicle_type_id":"4","last_reported":1702127237,"current_range_meters":6800,"station_id":"ce4bhdp2rcd13ifvqf20","pricing_plan_id":"free"},{"bike_id":"85fbd9aa-ffbc-4d35-ae34-4f6af8b034f5","system_id":"levelo_inurba_marseille","lat":43.30414,"lon":5.42539,"is_reserved":false,"is_disabled":false,"rental_uris":{"android":"levelo://app?vid=85fbd9aa-ffbc-4d35-ae34-4f6af8b034f5","ios":"levelo://app?vid=85fbd9aa-ffbc-4d35-ae34-4f6af8b034f5"},"vehicle_type_id":"4","last_reported":1702127237,"current_range_meters":21200,"station_id":"ce4bhoh2rcd13ifvqh6g","pricing_plan_id":"free"},{"bike_id":"fc6794cf-495d-453d-b822-fc2923d07b21","system_id":"levelo_inurba_marseille","lat":43.30413,"lon":5.42544,"is_reserved":false,"is_disabled":false,"rental_uris":{"android":"levelo://app?vid=fc6794cf-495d-453d-b822-fc2923d07b21","ios":"levelo://app?vid=fc6794cf-495d-453d-b822-fc2923d07b21"},"vehicle_type_id":"4","last_reported":1702127237,"current_range_meters":10800,"station_id":"ce4bhoh2rcd13ifvqh6g","pricing_plan_id":"free"},{"bike_id":"4f9e48a0-eacd-4e63-bd3c-330b19e5c041","system_id":"levelo_inurba_marseille","lat":43.295511,"lon":5.422926,"is_reserved":false,"is_disabled":false,"rental_uris":{"android":"levelo://app?vid=4f9e48a0-eacd-4e63-bd3c-330b19e5c041","ios":"levelo://app?vid=4f9e48a0-eacd-4e63-bd3c-330b19e5c041"},"vehicle_type_id":"4","last_reported":1702127237,"current_range_meters":31200,"station_id":"ce4bhph2rcd13ifvqhdg","pricing_plan_id":"free"},{"bike_id":"8f021145-48f8-459b-aef0-f8921e18b0a0","system_id":"levelo_inurba_marseille","lat":43.27214,"lon":5.3925,"is_reserved":false,"is_disabled":false,"rental_uris":{"android":"levelo://app?vid=8f021145-48f8-459b-aef0-f8921e18b0a0","ios":"levelo://app?vid=8f021145-48f8-459b-aef0-f8921e18b0a0"},"vehicle_type_id":"4","last_reported":1702127237,"current_range_meters":1600,"station_id":"","pricing_plan_id":"free"},{"bike_id":"a298972b-0b5a-4397-ad88-26002a39541a","system_id":"levelo_inurba_marseille","lat":43.278128,"lon":5.407195,"is_reserved":false,"is_disabled":false,"rental_uris":{"android":"levelo://app?vid=a298972b-0b5a-4397-ad88-26002a39541a","ios":"levelo://app?vid=a298972b-0b5a-4397-ad88-26002a39541a"},"vehicle_type_id":"4","last_reported":1702127237,"current_range_meters":27200,"station_id":"ce4bhnh2rcd13ifvqgtg","pricing_plan_id":"free"},{"bike_id":"ebb25d80-ff21-4f65-8e06-2d6b1feeb823","system_id":"levelo_inurba_marseille","lat":43.269467,"lon":5.386439,"is_reserved":false,"is_disabled":false,"rental_uris":{"android":"levelo://app?vid=ebb25d80-ff21-4f65-8e06-2d6b1feeb823","ios":"levelo://app?vid=ebb25d80-ff21-4f65-8e06-2d6b1feeb823"},"vehicle_type_id":"4","last_reported":1702127237,"current_range_meters":26400,"station_id":"ce4bhh92rcd13ifvqfh0","pricing_plan_id":"free"},{"bike_id":"c3d21cb1-1898-4478-abca-8c78cb4da517","system_id":"levelo_inurba_marseille","lat":43.27947,"lon":5.41044,"is_reserved":false,"is_disabled":false,"rental_uris":{"android":"levelo://app?vid=c3d21cb1-1898-4478-abca-8c78cb4da517","ios":"levelo://app?vid=c3d21cb1-1898-4478-abca-8c78cb4da517"},"vehicle_type_id":"4","last_reported":1702127237,"current_range_meters":25200,"station_id":"ce4bhnp2rcd13ifvqh0g","pricing_plan_id":"free"},{"bike_id":"b7c0f57a-8562-421f-8f92-7e016097b935","system_id":"levelo_inurba_marseille","lat":43.279451,"lon":5.410513,"is_reserved":false,"is_disabled":false,"rental_uris":{"android":"levelo://app?vid=b7c0f57a-8562-421f-8f92-7e016097b935","ios":"levelo://app?vid=b7c0f57a-8562-421f-8f92-7e016097b935"},"vehicle_type_id":"4","last_reported":1702127237,"current_range_meters":30400,"station_id":"ce4bhnp2rcd13ifvqh0g","pricing_plan_id":"free"},{"bike_id":"8bc1561c-ab6b-4965-8f69-bc2e9126303e","system_id":"levelo_inurba_marseille","lat":43.27941,"lon":5.41056,"is_reserved":false,"is_disabled":false,"rental_uris":{"android":"levelo://app?vid=8bc1561c-ab6b-4965-8f69-bc2e9126303e","ios":"levelo://app?vid=8bc1561c-ab6b-4965-8f69-bc2e9126303e"},"vehicle_type_id":"4","last_reported":1702127237,"current_range_meters":4000,"station_id":"ce4bhnp2rcd13ifvqh0g","pricing_plan_id":"free"},{"bike_id":"d744221c-1d53-418f-88d0-05bbd78b88a8","system_id":"levelo_inurba_marseille","lat":43.27986,"lon":5.4162,"is_reserved":false,"is_disabled":false,"rental_uris":{"android":"levelo://app?vid=d744221c-1d53-418f-88d0-05bbd78b88a8","ios":"levelo://app?vid=d744221c-1d53-418f-88d0-05bbd78b88a8"},"vehicle_type_id":"4","last_reported":1702127237,"current_range_meters":13600,"station_id":"ce4bho12rcd13ifvqh1g","pricing_plan_id":"free"},{"bike_id":"19cc942f-ece9-40d3-8083-cccfba7fe5b1","system_id":"levelo_inurba_marseille","lat":43.279881,"lon":5.416579,"is_reserved":false,"is_disabled":false,"rental_uris":{"android":"levelo://app?vid=19cc942f-ece9-40d3-8083-cccfba7fe5b1","ios":"levelo://app?vid=19cc942f-ece9-40d3-8083-cccfba7fe5b1"},"vehicle_type_id":"4","last_reported":1702127237,"current_range_meters":3200,"station_id":"ce4bho12rcd13ifvqh1g","pricing_plan_id":"free"},{"bike_id":"953e4af0-c270-490b-8a35-21adbad82a34","system_id":"levelo_inurba_marseille","lat":43.308051,"lon":5.43527,"is_reserved":false,"is_disabled":false,"rental_uris":{"android":"levelo://app?vid=953e4af0-c270-490b-8a35-21adbad82a34","ios":"levelo://app?vid=953e4af0-c270-490b-8a35-21adbad82a34"},"vehicle_type_id":"4","last_reported":1702127237,"current_range_meters":22000,"station_id":"ce4bhph2rcd13ifvqheg","pricing_plan_id":"free"},{"bike_id":"59d183a5-be71-4a68-84a4-d1b5cd49eb3c","system_id":"levelo_inurba_marseille","lat":43.265712,"lon":5.390159,"is_reserved":false,"is_disabled":false,"rental_uris":{"android":"levelo://app?vid=59d183a5-be71-4a68-84a4-d1b5cd49eb3c","ios":"levelo://app?vid=59d183a5-be71-4a68-84a4-d1b5cd49eb3c"},"vehicle_type_id":"4","last_reported":1702127237,"current_range_meters":19200,"station_id":"","pricing_plan_id":"free"},{"bike_id":"5a3d0bc1-50c6-4b8d-9afd-4bd71c487b10","system_id":"levelo_inurba_marseille","lat":43.26949,"lon":5.40262,"is_reserved":false,"is_disabled":false,"rental_uris":{"android":"levelo://app?vid=5a3d0bc1-50c6-4b8d-9afd-4bd71c487b10","ios":"levelo://app?vid=5a3d0bc1-50c6-4b8d-9afd-4bd71c487b10"},"vehicle_type_id":"4","last_reported":1702127237,"current_range_meters":20400,"station_id":"cjm6bp8fraef2m0cb0m0","pricing_plan_id":"free"},{"bike_id":"2d0dff6e-116f-437d-a5b5-a8cb42c057ac","system_id":"levelo_inurba_marseille","lat":43.26949,"lon":5.40262,"is_reserved":false,"is_disabled":false,"rental_uris":{"android":"levelo://app?vid=2d0dff6e-116f-437d-a5b5-a8cb42c057ac","ios":"levelo://app?vid=2d0dff6e-116f-437d-a5b5-a8cb42c057ac"},"vehicle_type_id":"4","last_reported":1702127237,"current_range_meters":6400,"station_id":"cjm6bp8fraef2m0cb0m0","pricing_plan_id":"free"},{"bike_id":"2ed859a4-0b62-4f8d-bc75-1a55b7c9aa70","system_id":"levelo_inurba_marseille","lat":43.2694,"lon":5.40249,"is_reserved":false,"is_disabled":false,"rental_uris":{"android":"levelo://app?vid=2ed859a4-0b62-4f8d-bc75-1a55b7c9aa70","ios":"levelo://app?vid=2ed859a4-0b62-4f8d-bc75-1a55b7c9aa70"},"vehicle_type_id":"4","last_reported":1702127237,"current_range_meters":15600,"station_id":"cjm6bp8fraef2m0cb0m0","pricing_plan_id":"free"},{"bike_id":"644d4821-bbb4-4599-853c-a62186b9155b","system_id":"levelo_inurba_marseille","lat":43.317104,"lon":5.436818,"is_reserved":false,"is_disabled":false,"rental_uris":{"android":"levelo://app?vid=644d4821-bbb4-4599-853c-a62186b9155b","ios":"levelo://app?vid=644d4821-bbb4-4599-853c-a62186b9155b"},"vehicle_type_id":"4","last_reported":1702127237,"current_range_meters":6000,"station_id":"ce4bhp92rcd13ifvqhcg","pricing_plan_id":"free"},{"bike_id":"10bd98e0-d0a2-4a25-a407-cc97034aa68c","system_id":"levelo_inurba_marseille","lat":43.31713,"lon":5.43702,"is_reserved":false,"is_disabled":false,"rental_uris":{"android":"levelo://app?vid=10bd98e0-d0a2-4a25-a407-cc97034aa68c","ios":"levelo://app?vid=10bd98e0-d0a2-4a25-a407-cc97034aa68c"},"vehicle_type_id":"4","last_reported":1702127237,"current_range_meters":7200,"station_id":"ce4bhp92rcd13ifvqhcg","pricing_plan_id":"free"},{"bike_id":"3b2d4f90-1617-43d7-8846-712b04edc48a","system_id":"levelo_inurba_marseille","lat":43.271368,"lon":5.40928,"is_reserved":false,"is_disabled":false,"rental_uris":{"android":"levelo://app?vid=3b2d4f90-1617-43d7-8846-712b04edc48a","ios":"levelo://app?vid=3b2d4f90-1617-43d7-8846-712b04edc48a"},"vehicle_type_id":"4","last_reported":1702127237,"current_range_meters":24000,"station_id":"ce4bhl12rcd13ifvqgf0","pricing_plan_id":"free"},{"bike_id":"5a17aa54-625e-476c-b187-8ee6a4f3548c","system_id":"levelo_inurba_marseille","lat":43.267959,"lon":5.402687,"is_reserved":false,"is_disabled":false,"rental_uris":{"android":"levelo://app?vid=5a17aa54-625e-476c-b187-8ee6a4f3548c","ios":"levelo://app?vid=5a17aa54-625e-476c-b187-8ee6a4f3548c"},"vehicle_type_id":"4","last_reported":1702127237,"current_range_meters":14000,"station_id":"ce501612rcd8frsf0b60","pricing_plan_id":"free"},{"bike_id":"2cd90db9-b508-45af-afd0-5b4b8fae22ee","system_id":"levelo_inurba_marseille","lat":43.298768,"lon":5.43643,"is_reserved":false,"is_disabled":false,"rental_uris":{"android":"levelo://app?vid=2cd90db9-b508-45af-afd0-5b4b8fae22ee","ios":"levelo://app?vid=2cd90db9-b508-45af-afd0-5b4b8fae22ee"},"vehicle_type_id":"4","last_reported":1702127237,"current_range_meters":28800,"station_id":"ce4bhpp2rcd13ifvqhfg","pricing_plan_id":"free"},{"bike_id":"5215ad78-0811-4492-88ee-04afc35bf3a5","system_id":"levelo_inurba_marseille","lat":43.298768,"lon":5.43643,"is_reserved":false,"is_disabled":false,"rental_uris":{"android":"levelo://app?vid=5215ad78-0811-4492-88ee-04afc35bf3a5","ios":"levelo://app?vid=5215ad78-0811-4492-88ee-04afc35bf3a5"},"vehicle_type_id":"4","last_reported":1702127237,"current_range_meters":31200,"station_id":"ce4bhpp2rcd13ifvqhfg","pricing_plan_id":"free"},{"bike_id":"6b17b896-99f2-456b-929e-df3811eeb274","system_id":"levelo_inurba_marseille","lat":43.298768,"lon":5.43643,"is_reserved":false,"is_disabled":false,"rental_uris":{"android":"levelo://app?vid=6b17b896-99f2-456b-929e-df3811eeb274","ios":"levelo://app?vid=6b17b896-99f2-456b-929e-df3811eeb274"},"vehicle_type_id":"4","last_reported":1702127237,"current_range_meters":28800,"station_id":"ce4bhpp2rcd13ifvqhfg","pricing_plan_id":"free"},{"bike_id":"70c52fa1-91be-4fbd-9217-7a0c668f9310","system_id":"levelo_inurba_marseille","lat":43.298989,"lon":5.436646,"is_reserved":false,"is_disabled":false,"rental_uris":{"android":"levelo://app?vid=70c52fa1-91be-4fbd-9217-7a0c668f9310","ios":"levelo://app?vid=70c52fa1-91be-4fbd-9217-7a0c668f9310"},"vehicle_type_id":"4","last_reported":1702127237,"current_range_meters":25600,"station_id":"ce4bhpp2rcd13ifvqhfg","pricing_plan_id":"free"},{"bike_id":"4f68f183-a711-4386-a731-e8ea8e2f115e","system_id":"levelo_inurba_marseille","lat":43.298768,"lon":5.43643,"is_reserved":false,"is_disabled":false,"rental_uris":{"android":"levelo://app?vid=4f68f183-a711-4386-a731-e8ea8e2f115e","ios":"levelo://app?vid=4f68f183-a711-4386-a731-e8ea8e2f115e"},"vehicle_type_id":"4","last_reported":1702127237,"current_range_meters":26000,"station_id":"ce4bhpp2rcd13ifvqhfg","pricing_plan_id":"free"},{"bike_id":"c16ba598-e268-423a-ba8d-6002d2a98117","system_id":"levelo_inurba_marseille","lat":43.298768,"lon":5.43643,"is_reserved":false,"is_disabled":false,"rental_uris":{"android":"levelo://app?vid=c16ba598-e268-423a-ba8d-6002d2a98117","ios":"levelo://app?vid=c16ba598-e268-423a-ba8d-6002d2a98117"},"vehicle_type_id":"4","last_reported":1702127237,"current_range_meters":31200,"station_id":"ce4bhpp2rcd13ifvqhfg","pricing_plan_id":"free"},{"bike_id":"ca4db8a8-5b98-4b78-bc3d-514f38028a3d","system_id":"levelo_inurba_marseille","lat":43.298768,"lon":5.43643,"is_reserved":false,"is_disabled":false,"rental_uris":{"android":"levelo://app?vid=ca4db8a8-5b98-4b78-bc3d-514f38028a3d","ios":"levelo://app?vid=ca4db8a8-5b98-4b78-bc3d-514f38028a3d"},"vehicle_type_id":"4","last_reported":1702127237,"current_range_meters":31200,"station_id":"ce4bhpp2rcd13ifvqhfg","pricing_plan_id":"free"},{"bike_id":"83e2018e-7127-4415-8bbf-2e347a9c6750","system_id":"levelo_inurba_marseille","lat":43.29896,"lon":5.43673,"is_reserved":false,"is_disabled":false,"rental_uris":{"android":"levelo://app?vid=83e2018e-7127-4415-8bbf-2e347a9c6750","ios":"levelo://app?vid=83e2018e-7127-4415-8bbf-2e347a9c6750"},"vehicle_type_id":"4","last_reported":1702127237,"current_range_meters":0,"station_id":"ce4bhpp2rcd13ifvqhfg","pricing_plan_id":"free"},{"bike_id":"a9d155e7-2be4-4c1d-b4bf-7335025a2db7","system_id":"levelo_inurba_marseille","lat":43.260225,"lon":5.375455,"is_reserved":false,"is_disabled":false,"rental_uris":{"android":"levelo://app?vid=a9d155e7-2be4-4c1d-b4bf-7335025a2db7","ios":"levelo://app?vid=a9d155e7-2be4-4c1d-b4bf-7335025a2db7"},"vehicle_type_id":"4","last_reported":1702127237,"current_range_meters":22000,"station_id":"ce4bhgh2rcd13ifvqfa0","pricing_plan_id":"free"},{"bike_id":"bbb1bbdb-1f39-4fc1-a995-064ebbeacecb","system_id":"levelo_inurba_marseille","lat":43.281548,"lon":5.42643,"is_reserved":false,"is_disabled":false,"rental_uris":{"android":"levelo://app?vid=bbb1bbdb-1f39-4fc1-a995-064ebbeacecb","ios":"levelo://app?vid=bbb1bbdb-1f39-4fc1-a995-064ebbeacecb"},"vehicle_type_id":"4","last_reported":1702127237,"current_range_meters":31600,"station_id":"ce4bhnh2rcd13ifvqgug","pricing_plan_id":"free"},{"bike_id":"2d70b9fc-8d42-4ce5-98c1-cdfca249cc2c","system_id":"levelo_inurba_marseille","lat":43.2815,"lon":5.4264,"is_reserved":false,"is_disabled":false,"rental_uris":{"android":"levelo://app?vid=2d70b9fc-8d42-4ce5-98c1-cdfca249cc2c","ios":"levelo://app?vid=2d70b9fc-8d42-4ce5-98c1-cdfca249cc2c"},"vehicle_type_id":"4","last_reported":1702127237,"current_range_meters":28000,"station_id":"ce4bhnh2rcd13ifvqgug","pricing_plan_id":"free"},{"bike_id":"cc061701-acdc-445a-8647-0f986cfa3766","system_id":"levelo_inurba_marseille","lat":43.281548,"lon":5.42643,"is_reserved":false,"is_disabled":false,"rental_uris":{"android":"levelo://app?vid=cc061701-acdc-445a-8647-0f986cfa3766","ios":"levelo://app?vid=cc061701-acdc-445a-8647-0f986cfa3766"},"vehicle_type_id":"4","last_reported":1702127237,"current_range_meters":24800,"station_id":"ce4bhnh2rcd13ifvqgug","pricing_plan_id":"free"},{"bike_id":"f56607a5-8c0d-4214-a86e-b954d1fd309d","system_id":"levelo_inurba_marseille","lat":43.28153,"lon":5.42646,"is_reserved":false,"is_disabled":false,"rental_uris":{"android":"levelo://app?vid=f56607a5-8c0d-4214-a86e-b954d1fd309d","ios":"levelo://app?vid=f56607a5-8c0d-4214-a86e-b954d1fd309d"},"vehicle_type_id":"4","last_reported":1702127237,"current_range_meters":0,"station_id":"ce4bhnh2rcd13ifvqgug","pricing_plan_id":"free"},{"bike_id":"aa7eabec-ba21-4bd7-b085-1a3cc7a8cf6e","system_id":"levelo_inurba_marseille","lat":43.281548,"lon":5.42643,"is_reserved":false,"is_disabled":false,"rental_uris":{"android":"levelo://app?vid=aa7eabec-ba21-4bd7-b085-1a3cc7a8cf6e","ios":"levelo://app?vid=aa7eabec-ba21-4bd7-b085-1a3cc7a8cf6e"},"vehicle_type_id":"4","last_reported":1702127237,"current_range_meters":26400,"station_id":"ce4bhnh2rcd13ifvqgug","pricing_plan_id":"free"},{"bike_id":"f47234aa-aa00-4ef2-b2e6-b0d70a3c4c73","system_id":"levelo_inurba_marseille","lat":43.26092,"lon":5.39762,"is_reserved":false,"is_disabled":false,"rental_uris":{"android":"levelo://app?vid=f47234aa-aa00-4ef2-b2e6-b0d70a3c4c73","ios":"levelo://app?vid=f47234aa-aa00-4ef2-b2e6-b0d70a3c4c73"},"vehicle_type_id":"4","last_reported":1702127237,"current_range_meters":20000,"station_id":"","pricing_plan_id":"free"},{"bike_id":"2adb88a4-74d0-46b2-ae77-8c0e33681861","system_id":"levelo_inurba_marseille","lat":43.275028,"lon":5.424534,"is_reserved":false,"is_disabled":false,"rental_uris":{"android":"levelo://app?vid=2adb88a4-74d0-46b2-ae77-8c0e33681861","ios":"levelo://app?vid=2adb88a4-74d0-46b2-ae77-8c0e33681861"},"vehicle_type_id":"4","last_reported":1702127237,"current_range_meters":26000,"station_id":"ce4bhn92rcd13ifvqgrg","pricing_plan_id":"free"},{"bike_id":"b14b1a51-314d-4fa3-86d8-82093a450427","system_id":"levelo_inurba_marseille","lat":43.25583,"lon":5.3823,"is_reserved":false,"is_disabled":false,"rental_uris":{"android":"levelo://app?vid=b14b1a51-314d-4fa3-86d8-82093a450427","ios":"levelo://app?vid=b14b1a51-314d-4fa3-86d8-82093a450427"},"vehicle_type_id":"4","last_reported":1702127237,"current_range_meters":26000,"station_id":"ce4bhih2rcd13ifvqfs0","pricing_plan_id":"free"},{"bike_id":"f3f6be61-baad-4495-8fd0-1dbdafe17116","system_id":"levelo_inurba_marseille","lat":43.25583,"lon":5.38231,"is_reserved":false,"is_disabled":false,"rental_uris":{"android":"levelo://app?vid=f3f6be61-baad-4495-8fd0-1dbdafe17116","ios":"levelo://app?vid=f3f6be61-baad-4495-8fd0-1dbdafe17116"},"vehicle_type_id":"4","last_reported":1702127237,"current_range_meters":21200,"station_id":"ce4bhih2rcd13ifvqfs0","pricing_plan_id":"free"},{"bike_id":"33c9e621-da35-4fb1-93af-a61ad0b052b7","system_id":"levelo_inurba_marseille","lat":43.270721,"lon":5.422764,"is_reserved":false,"is_disabled":false,"rental_uris":{"android":"levelo://app?vid=33c9e621-da35-4fb1-93af-a61ad0b052b7","ios":"levelo://app?vid=33c9e621-da35-4fb1-93af-a61ad0b052b7"},"vehicle_type_id":"4","last_reported":1702127237,"current_range_meters":6400,"station_id":"ce4bhk92rcd13ifvqgb0","pricing_plan_id":"free"},{"bike_id":"2365b20a-ac0b-4f9e-b151-ef4bdf9a013e","system_id":"levelo_inurba_marseille","lat":43.258658,"lon":5.398935,"is_reserved":false,"is_disabled":false,"rental_uris":{"android":"levelo://app?vid=2365b20a-ac0b-4f9e-b151-ef4bdf9a013e","ios":"levelo://app?vid=2365b20a-ac0b-4f9e-b151-ef4bdf9a013e"},"vehicle_type_id":"4","last_reported":1702127237,"current_range_meters":13600,"station_id":"ce4bhl92rcd13ifvqghg","pricing_plan_id":"free"},{"bike_id":"a284a7b9-963d-4f35-8ee8-4c7c3dc16ca9","system_id":"levelo_inurba_marseille","lat":43.2479,"lon":5.374457,"is_reserved":false,"is_disabled":false,"rental_uris":{"android":"levelo://app?vid=a284a7b9-963d-4f35-8ee8-4c7c3dc16ca9","ios":"levelo://app?vid=a284a7b9-963d-4f35-8ee8-4c7c3dc16ca9"},"vehicle_type_id":"4","last_reported":1702127237,"current_range_meters":21600,"station_id":"ce4bhgh2rcd13ifvqfb0","pricing_plan_id":"free"},{"bike_id":"30dbc88f-d31f-47cc-92ee-8456241555ea","system_id":"levelo_inurba_marseille","lat":43.250966,"lon":5.395186,"is_reserved":false,"is_disabled":false,"rental_uris":{"android":"levelo://app?vid=30dbc88f-d31f-47cc-92ee-8456241555ea","ios":"levelo://app?vid=30dbc88f-d31f-47cc-92ee-8456241555ea"},"vehicle_type_id":"4","last_reported":1702127237,"current_range_meters":16800,"station_id":"ce4bhm12rcd13ifvqgkg","pricing_plan_id":"free"},{"bike_id":"78696aca-06d9-49f9-9293-33a83801b154","system_id":"levelo_inurba_marseille","lat":43.25102,"lon":5.403214,"is_reserved":false,"is_disabled":false,"rental_uris":{"android":"levelo://app?vid=78696aca-06d9-49f9-9293-33a83801b154","ios":"levelo://app?vid=78696aca-06d9-49f9-9293-33a83801b154"},"vehicle_type_id":"4","last_reported":1702127237,"current_range_meters":27200,"station_id":"ce4bhlh2rcd13ifvqgig","pricing_plan_id":"free"},{"bike_id":"509b34b0-7cbd-4ab1-93ca-91c44bd35242","system_id":"levelo_inurba_marseille","lat":43.25102,"lon":5.403214,"is_reserved":false,"is_disabled":false,"rental_uris":{"android":"levelo://app?vid=509b34b0-7cbd-4ab1-93ca-91c44bd35242","ios":"levelo://app?vid=509b34b0-7cbd-4ab1-93ca-91c44bd35242"},"vehicle_type_id":"4","last_reported":1702127237,"current_range_meters":16400,"station_id":"ce4bhlh2rcd13ifvqgig","pricing_plan_id":"free"},{"bike_id":"800bb316-5c52-4f6c-b032-d7ca60606e8f","system_id":"levelo_inurba_marseille","lat":43.269467,"lon":5.386439,"is_reserved":false,"is_disabled":false,"rental_uris":{"android":"levelo://app?vid=800bb316-5c52-4f6c-b032-d7ca60606e8f","ios":"levelo://app?vid=800bb316-5c52-4f6c-b032-d7ca60606e8f"},"vehicle_type_id":"4","last_reported":1702127237,"current_range_meters":21600,"station_id":"ce4bhh92rcd13ifvqfh0","pricing_plan_id":"free"},{"bike_id":"af2e8d93-4d36-41d6-b193-03489080a08c","system_id":"levelo_inurba_marseille","lat":43.246461,"lon":5.389014,"is_reserved":false,"is_disabled":false,"rental_uris":{"android":"levelo://app?vid=af2e8d93-4d36-41d6-b193-03489080a08c","ios":"levelo://app?vid=af2e8d93-4d36-41d6-b193-03489080a08c"},"vehicle_type_id":"4","last_reported":1702127237,"current_range_meters":25600,"station_id":"ce4bhg12rcd13ifvqf60","pricing_plan_id":"free"},{"bike_id":"9af390f3-7880-4e03-9cbd-f6352325ab91","system_id":"levelo_inurba_marseille","lat":43.243884,"lon":5.370737,"is_reserved":false,"is_disabled":false,"rental_uris":{"android":"levelo://app?vid=9af390f3-7880-4e03-9cbd-f6352325ab91","ios":"levelo://app?vid=9af390f3-7880-4e03-9cbd-f6352325ab91"},"vehicle_type_id":"4","last_reported":1702127237,"current_range_meters":25600,"station_id":"ce4bhhh2rcd13ifvqfk0","pricing_plan_id":"free"},{"bike_id":"8640e6d3-0baa-43c0-b79e-bcdf555fbaee","system_id":"levelo_inurba_marseille","lat":43.24393,"lon":5.3706,"is_reserved":false,"is_disabled":false,"rental_uris":{"android":"levelo://app?vid=8640e6d3-0baa-43c0-b79e-bcdf555fbaee","ios":"levelo://app?vid=8640e6d3-0baa-43c0-b79e-bcdf555fbaee"},"vehicle_type_id":"4","last_reported":1702127237,"current_range_meters":17200,"station_id":"ce4bhhh2rcd13ifvqfk0","pricing_plan_id":"free"},{"bike_id":"04d57d73-8e0d-489d-9d5e-ae5cece2cc67","system_id":"levelo_inurba_marseille","lat":43.243884,"lon":5.370736,"is_reserved":false,"is_disabled":false,"rental_uris":{"android":"levelo://app?vid=04d57d73-8e0d-489d-9d5e-ae5cece2cc67","ios":"levelo://app?vid=04d57d73-8e0d-489d-9d5e-ae5cece2cc67"},"vehicle_type_id":"4","last_reported":1702127237,"current_range_meters":31200,"station_id":"ce4bhhh2rcd13ifvqfk0","pricing_plan_id":"free"},{"bike_id":"63180fff-13b6-4cf7-86fb-69e4105586c7","system_id":"levelo_inurba_marseille","lat":43.243884,"lon":5.370737,"is_reserved":false,"is_disabled":false,"rental_uris":{"android":"levelo://app?vid=63180fff-13b6-4cf7-86fb-69e4105586c7","ios":"levelo://app?vid=63180fff-13b6-4cf7-86fb-69e4105586c7"},"vehicle_type_id":"4","last_reported":1702127237,"current_range_meters":8400,"station_id":"ce4bhhh2rcd13ifvqfk0","pricing_plan_id":"free"},{"bike_id":"098bd4db-40aa-4319-89b5-cb8dda945159","system_id":"levelo_inurba_marseille","lat":43.243884,"lon":5.370737,"is_reserved":false,"is_disabled":false,"rental_uris":{"android":"levelo://app?vid=098bd4db-40aa-4319-89b5-cb8dda945159","ios":"levelo://app?vid=098bd4db-40aa-4319-89b5-cb8dda945159"},"vehicle_type_id":"4","last_reported":1702127237,"current_range_meters":18800,"station_id":"ce4bhhh2rcd13ifvqfk0","pricing_plan_id":"free"},{"bike_id":"8d373f6e-76b4-42e4-8b95-647136288427","system_id":"levelo_inurba_marseille","lat":43.243884,"lon":5.370736,"is_reserved":false,"is_disabled":false,"rental_uris":{"android":"levelo://app?vid=8d373f6e-76b4-42e4-8b95-647136288427","ios":"levelo://app?vid=8d373f6e-76b4-42e4-8b95-647136288427"},"vehicle_type_id":"4","last_reported":1702127237,"current_range_meters":14000,"station_id":"ce4bhhh2rcd13ifvqfk0","pricing_plan_id":"free"},{"bike_id":"55a5ae15-12cc-4022-803c-86fe1b483f36","system_id":"levelo_inurba_marseille","lat":43.24543,"lon":5.39523,"is_reserved":false,"is_disabled":false,"rental_uris":{"android":"levelo://app?vid=55a5ae15-12cc-4022-803c-86fe1b483f36","ios":"levelo://app?vid=55a5ae15-12cc-4022-803c-86fe1b483f36"},"vehicle_type_id":"4","last_reported":1702127237,"current_range_meters":12000,"station_id":"ce4bhlp2rcd13ifvqgjg","pricing_plan_id":"free"},{"bike_id":"f3af0f29-c6b3-45f1-8540-3a752563e91b","system_id":"levelo_inurba_marseille","lat":43.23969,"lon":5.36623,"is_reserved":false,"is_disabled":false,"rental_uris":{"android":"levelo://app?vid=f3af0f29-c6b3-45f1-8540-3a752563e91b","ios":"levelo://app?vid=f3af0f29-c6b3-45f1-8540-3a752563e91b"},"vehicle_type_id":"4","last_reported":1702127237,"current_range_meters":10400,"station_id":"ce4bhi12rcd13ifvqfp0","pricing_plan_id":"free"},{"bike_id":"ee7d9f3a-4947-4ac7-867e-bdca862e5b32","system_id":"levelo_inurba_marseille","lat":43.23966,"lon":5.36632,"is_reserved":false,"is_disabled":false,"rental_uris":{"android":"levelo://app?vid=ee7d9f3a-4947-4ac7-867e-bdca862e5b32","ios":"levelo://app?vid=ee7d9f3a-4947-4ac7-867e-bdca862e5b32"},"vehicle_type_id":"4","last_reported":1702127237,"current_range_meters":8800,"station_id":"ce4bhi12rcd13ifvqfp0","pricing_plan_id":"free"},{"bike_id":"5556d4b5-d5a4-4e4e-ac5d-8d166c4bc703","system_id":"levelo_inurba_marseille","lat":43.239588,"lon":5.366238,"is_reserved":false,"is_disabled":false,"rental_uris":{"android":"levelo://app?vid=5556d4b5-d5a4-4e4e-ac5d-8d166c4bc703","ios":"levelo://app?vid=5556d4b5-d5a4-4e4e-ac5d-8d166c4bc703"},"vehicle_type_id":"4","last_reported":1702127237,"current_range_meters":30400,"station_id":"ce4bhi12rcd13ifvqfp0","pricing_plan_id":"free"},{"bike_id":"208cb776-a405-4cfc-b37c-62a9f5f271db","system_id":"levelo_inurba_marseille","lat":43.239588,"lon":5.366238,"is_reserved":false,"is_disabled":false,"rental_uris":{"android":"levelo://app?vid=208cb776-a405-4cfc-b37c-62a9f5f271db","ios":"levelo://app?vid=208cb776-a405-4cfc-b37c-62a9f5f271db"},"vehicle_type_id":"4","last_reported":1702127237,"current_range_meters":27200,"station_id":"ce4bhi12rcd13ifvqfp0","pricing_plan_id":"free"},{"bike_id":"589ec893-735f-452b-a5bb-60186a5dfc56","system_id":"levelo_inurba_marseille","lat":43.239588,"lon":5.366238,"is_reserved":false,"is_disabled":false,"rental_uris":{"android":"levelo://app?vid=589ec893-735f-452b-a5bb-60186a5dfc56","ios":"levelo://app?vid=589ec893-735f-452b-a5bb-60186a5dfc56"},"vehicle_type_id":"4","last_reported":1702127237,"current_range_meters":28400,"station_id":"ce4bhi12rcd13ifvqfp0","pricing_plan_id":"free"},{"bike_id":"672c6cd8-9645-4cc4-aa67-0c93b12465a8","system_id":"levelo_inurba_marseille","lat":43.239588,"lon":5.366238,"is_reserved":false,"is_disabled":false,"rental_uris":{"android":"levelo://app?vid=672c6cd8-9645-4cc4-aa67-0c93b12465a8","ios":"levelo://app?vid=672c6cd8-9645-4cc4-aa67-0c93b12465a8"},"vehicle_type_id":"4","last_reported":1702127237,"current_range_meters":31600,"station_id":"ce4bhi12rcd13ifvqfp0","pricing_plan_id":"free"},{"bike_id":"20e60c2a-236d-462b-b89f-10cb02e0e201","system_id":"levelo_inurba_marseille","lat":43.239588,"lon":5.366238,"is_reserved":false,"is_disabled":false,"rental_uris":{"android":"levelo://app?vid=20e60c2a-236d-462b-b89f-10cb02e0e201","ios":"levelo://app?vid=20e60c2a-236d-462b-b89f-10cb02e0e201"},"vehicle_type_id":"4","last_reported":1702127237,"current_range_meters":26000,"station_id":"ce4bhi12rcd13ifvqfp0","pricing_plan_id":"free"},{"bike_id":"050d8aac-9b85-4551-8447-adc8f9ec1235","system_id":"levelo_inurba_marseille","lat":43.241789,"lon":5.397348,"is_reserved":false,"is_disabled":false,"rental_uris":{"android":"levelo://app?vid=050d8aac-9b85-4551-8447-adc8f9ec1235","ios":"levelo://app?vid=050d8aac-9b85-4551-8447-adc8f9ec1235"},"vehicle_type_id":"4","last_reported":1702127237,"current_range_meters":24000,"station_id":"ce4bhn12rcd13ifvqgpg","pricing_plan_id":"free"},{"bike_id":"75aadd81-f2b3-486b-8b13-ef85fe43ff80","system_id":"levelo_inurba_marseille","lat":43.241782,"lon":5.397261,"is_reserved":false,"is_disabled":false,"rental_uris":{"android":"levelo://app?vid=75aadd81-f2b3-486b-8b13-ef85fe43ff80","ios":"levelo://app?vid=75aadd81-f2b3-486b-8b13-ef85fe43ff80"},"vehicle_type_id":"4","last_reported":1702127237,"current_range_meters":5600,"station_id":"ce4bhn12rcd13ifvqgpg","pricing_plan_id":"free"},{"bike_id":"529449ae-9bd0-4a42-b2ad-b913b1c62c25","system_id":"levelo_inurba_marseille","lat":43.23195,"lon":5.3555,"is_reserved":false,"is_disabled":false,"rental_uris":{"android":"levelo://app?vid=529449ae-9bd0-4a42-b2ad-b913b1c62c25","ios":"levelo://app?vid=529449ae-9bd0-4a42-b2ad-b913b1c62c25"},"vehicle_type_id":"4","last_reported":1702127237,"current_range_meters":14400,"station_id":"ce4bhu92rcd13ifvqi70","pricing_plan_id":"free"},{"bike_id":"bc30196d-481a-46dc-a914-cfd942fdc26d","system_id":"levelo_inurba_marseille","lat":43.23194,"lon":5.35546,"is_reserved":false,"is_disabled":false,"rental_uris":{"android":"levelo://app?vid=bc30196d-481a-46dc-a914-cfd942fdc26d","ios":"levelo://app?vid=bc30196d-481a-46dc-a914-cfd942fdc26d"},"vehicle_type_id":"4","last_reported":1702127237,"current_range_meters":12400,"station_id":"ce4bhu92rcd13ifvqi70","pricing_plan_id":"free"},{"bike_id":"e2a9694a-4e0c-4ac1-9545-06aa318d77c1","system_id":"levelo_inurba_marseille","lat":43.23189,"lon":5.3999,"is_reserved":false,"is_disabled":false,"rental_uris":{"android":"levelo://app?vid=e2a9694a-4e0c-4ac1-9545-06aa318d77c1","ios":"levelo://app?vid=e2a9694a-4e0c-4ac1-9545-06aa318d77c1"},"vehicle_type_id":"4","last_reported":1702127237,"current_range_meters":18800,"station_id":"ce4bhn12rcd13ifvqgqg","pricing_plan_id":"free"},{"bike_id":"af9b8b7f-91c5-49c9-8004-c3c91224e249","system_id":"levelo_inurba_marseille","lat":43.231794,"lon":5.400052,"is_reserved":false,"is_disabled":false,"rental_uris":{"android":"levelo://app?vid=af9b8b7f-91c5-49c9-8004-c3c91224e249","ios":"levelo://app?vid=af9b8b7f-91c5-49c9-8004-c3c91224e249"},"vehicle_type_id":"4","last_reported":1702127237,"current_range_meters":28800,"station_id":"ce4bhn12rcd13ifvqgqg","pricing_plan_id":"free"},{"bike_id":"d860a2ea-ec2b-4ef7-96bc-9c4e8ddc47fe","system_id":"levelo_inurba_marseille","lat":43.231794,"lon":5.400052,"is_reserved":false,"is_disabled":false,"rental_uris":{"android":"levelo://app?vid=d860a2ea-ec2b-4ef7-96bc-9c4e8ddc47fe","ios":"levelo://app?vid=d860a2ea-ec2b-4ef7-96bc-9c4e8ddc47fe"},"vehicle_type_id":"4","last_reported":1702127237,"current_range_meters":27600,"station_id":"ce4bhn12rcd13ifvqgqg","pricing_plan_id":"free"}]}}