{"last_updated":1733044154,"ttl":60,"version":"2.2","data":{"bikes":[{"bike_id":"d0adae0d-5139-4c37-b759-c780aa93d035","system_id":"levelo_inurba_marseille","lat":43.31534,"lon":5.38028,"is_reserved":false,"is_disabled":false,"rental_uris":{"android":"levelo://app?vid=d0adae0d-5139-4c37-b759-c780aa93d035","ios":"levelo://app?vid=d0adae0d-5139-4c37-b759-c780aa93d035"},"vehicle_type_id":"4","last_reported":1733044154,"current_range_meters":39200,"station_id":"ce4bhsp2rcd13ifvqi50","pricing_plan_id":"cebpf4jnsgd1na2vs0mg"},{"bike_id":"9eb9ee9b-532a-4e66-9337-6742bfb3d802","system_id":"levelo_inurba_marseille","lat":43.27989,"lon":5.41652,"is_reserved":false,"is_disabled":true,"rental_uris":{"android":"levelo://app?vid=9eb9ee9b-532a-4e66-9337-6742bfb3d802","ios":"levelo://app?vid=9eb9ee9b-532a-4e66-9337-6742bfb3d802"},"vehicle_type_id":"4","last_reported":1733044154,"current_range_meters":31200,"station_id":"ce4bho12rcd13ifvqh1g","pricing_plan_id":"cebpf4jnsgd1na2vs0mg"},{"bike_id":"b856c8b4-412d-4c25-bdd4-e6b29aed04cb","system_id":"levelo_inurba_marseille","lat":43.22935,"lon":5.35378,"is_reserved":false,"is_disabled":false,"rental_uris":{"android":"levelo://app?vid=b856c8b4-412d-4c25-bdd4-e6b29aed04cb","ios":"levelo://app?vid=b856c8b4-412d-4c25-bdd4-e6b29aed04cb"},"vehicle_type_id":"4","last_reported":1733044154,"current_range_meters":39200,"station_id":"cpo3532slgdg3j2ikp40","pricing_plan_id":"cebpf4jnsgd1na2vs0mg"},{"bike_id":"9b6ff415-e1a1-452d-aa55-894e5cf90b61","system_id":"levelo_inurba_marseille","lat":43.262,"lon":5.37927,"is_reserved":false,"is_disabled":false,"rental_uris":{"android":"levelo://app?vid=9b6ff415-e1a1-452d-aa55-894e5cf90b61","ios":"levelo://app?vid=9b6ff415-e1a1-452d-aa55-894e5cf90b61"},"vehicle_type_id":"4","last_reported":1733044154,"current_range_meters":24000,"station_id":"ce4bhjp2rcd13ifvqg90","pricing_plan_id":"cebpf4jnsgd1na2vs0mg"},{"bike_id":"2e4eedc6-a505-4f40-8439-9b49e1b3bdd7","system_id":"levelo_inurba_marseille","lat":43.29422,"lon":5.38619,"is_reserved":false,"is_disabled":false,"rental_uris":{"android":"levelo://app?vid=2e4eedc6-a505-4f40-8439-9b49e1b3bdd7","ios":"levelo://app?vid=2e4eedc6-a505-4f40-8439-9b49e1b3bdd7"},"vehicle_type_id":"4","last_reported":1733044154,"current_range_meters":23200,"station_id":"ce4bh2h2rcd13ifvqdh0","pricing_plan_id":"cebpf4jnsgd1na2vs0mg"},{"bike_id":"7c2f5026-8e41-43e5-86a3-f20271746f98","system_id":"levelo_inurba_marseille","lat":43.28461,"lon":5.35892,"is_reserved":false,"is_disabled":false,"rental_uris":{"android":"levelo://app?vid=7c2f5026-8e41-43e5-86a3-f20271746f98","ios":"levelo://app?vid=7c2f5026-8e41-43e5-86a3-f20271746f98"},"vehicle_type_id":"4","last_reported":1733044154,"current_range_meters":39200,"station_id":"ce4bhah2rcd13ifvqei0","pricing_plan_id":"cebpf4jnsgd1na2vs0mg"},{"bike_id":"790a34a4-12ca-4fff-94f4-df476875eae0","system_id":"levelo_inurba_marseille","lat":43.23188,"lon":5.39995,"is_reserved":false,"is_disabled":false,"rental_uris":{"android":"levelo://app?vid=790a34a4-12ca-4fff-94f4-df476875eae0","ios":"levelo://app?vid=790a34a4-12ca-4fff-94f4-df476875eae0"},"vehicle_type_id":"4","last_reported":1733044154,"current_range_meters":20400,"station_id":"ce4bhn12rcd13ifvqgqg","pricing_plan_id":"cebpf4jnsgd1na2vs0mg"},{"bike_id":"92f0d863-2ad1-43c3-baae-270b71087465","system_id":"levelo_inurba_marseille","lat":43.27365,"lon":5.36251,"is_reserved":false,"is_disabled":false,"rental_uris":{"android":"levelo://app?vid=92f0d863-2ad1-43c3-baae-270b71087465","ios":"levelo://app?vid=92f0d863-2ad1-43c3-baae-270b71087465"},"vehicle_type_id":"4","last_reported":1733044154,"current_range_meters":25600,"station_id":"ce4bhbh2rcd13ifvqeo0","pricing_plan_id":"cebpf4jnsgd1na2vs0mg"},{"bike_id":"b65688fa-b1c3-40d7-a238-e0b81dcc7be7","system_id":"levelo_inurba_marseille","lat":43.23187,"lon":5.39976,"is_reserved":false,"is_disabled":false,"rental_uris":{"android":"levelo://app?vid=b65688fa-b1c3-40d7-a238-e0b81dcc7be7","ios":"levelo://app?vid=b65688fa-b1c3-40d7-a238-e0b81dcc7be7"},"vehicle_type_id":"4","last_reported":1733044154,"current_range_meters":3200,"station_id":"ce4bhn12rcd13ifvqgqg","pricing_plan_id":"cebpf4jnsgd1na2vs0mg"},{"bike_id":"5b811d3a-cae0-4f12-9af9-b5fb1f651755","system_id":"levelo_inurba_marseille","lat":43.25113,"lon":5.40347,"is_reserved":false,"is_disabled":false,"rental_uris":{"android":"levelo://app?vid=5b811d3a-cae0-4f12-9af9-b5fb1f651755","ios":"levelo://app?vid=5b811d3a-cae0-4f12-9af9-b5fb1f651755"},"vehicle_type_id":"4","last_reported":1733044154,"current_range_meters":36400,"station_id":"ce4bhlh2rcd13ifvqgig","pricing_plan_id":"cebpf4jnsgd1na2vs0mg"},{"bike_id":"3f7d1b83-7fbe-4b4b-b621-09fc8c3dc4a5","system_id":"levelo_inurba_marseille","lat":43.33605,"lon":5.41028,"is_reserved":false,"is_disabled":false,"rental_uris":{"android":"levelo://app?vid=3f7d1b83-7fbe-4b4b-b621-09fc8c3dc4a5","ios":"levelo://app?vid=3f7d1b83-7fbe-4b4b-b621-09fc8c3dc4a5"},"vehicle_type_id":"4","last_reported":1733044154,"current_range_meters":28400,"station_id":"ce4bhqh2rcd13ifvqhmg","pricing_plan_id":"cebpf4jnsgd1na2vs0mg"},{"bike_id":"967e9a74-8d35-43a8-bb3f-b2f2942f3b6d","system_id":"levelo_inurba_marseille","lat":43.30546,"lon":5.36693,"is_reserved":false,"is_disabled":true,"rental_uris":{"android":"levelo://app?vid=967e9a74-8d35-43a8-bb3f-b2f2942f3b6d","ios":"levelo://app?vid=967e9a74-8d35-43a8-bb3f-b2f2942f3b6d"},"vehicle_type_id":"4","last_reported":1733044154,"current_range_meters":36400,"station_id":"ce4bgrp2rcd13ifvqc9g","pricing_plan_id":"cebpf4jnsgd1na2vs0mg"},{"bike_id":"966791e8-cdff-4838-a42b-c9b609a533a7","system_id":"levelo_inurba_marseille","lat":43.27448,"lon":5.40059,"is_reserved":false,"is_disabled":true,"rental_uris":{"android":"levelo://app?vid=966791e8-cdff-4838-a42b-c9b609a533a7","ios":"levelo://app?vid=966791e8-cdff-4838-a42b-c9b609a533a7"},"vehicle_type_id":"4","last_reported":1733044154,"current_range_meters":0,"station_id":"","pricing_plan_id":"cebpf4jnsgd1na2vs0mg"},{"bike_id":"7974306f-50f1-4979-96e6-42a3a669c81a","system_id":"levelo_inurba_marseille","lat":43.32,"lon":5.38148,"is_reserved":false,"is_disabled":false,"rental_uris":{"android":"levelo://app?vid=7974306f-50f1-4979-96e6-42a3a669c81a","ios":"levelo://app?vid=7974306f-50f1-4979-96e6-42a3a669c81a"},"vehicle_type_id":"4","last_reported":1733044154,"current_range_meters":7200,"station_id":"ce4bhr12rcd13ifvqhpg","pricing_plan_id":"cebpf4jnsgd1na2vs0mg"},{"bike_id":"950f0f61-2f5c-492f-8f8c-4a0c56c50709","system_id":"levelo_inurba_marseille","lat":43.29983,"lon":5.37189,"is_reserved":false,"is_disabled":false,"rental_uris":{"android":"levelo://app?vid=950f0f61-2f5c-492f-8f8c-4a0c56c50709","ios":"levelo://app?vid=950f0f61-2f5c-492f-8f8c-4a0c56c50709"},"vehicle_type_id":"4","last_reported":1733044154,"current_range_meters":19200,"station_id":"ce4bgr92rcd13ifvqc7g","pricing_plan_id":"cebpf4jnsgd1na2vs0mg"},{"bike_id":"5be68619-c627-4c46-8416-df5f9a6439df","system_id":"levelo_inurba_marseille","lat":43.26941,"lon":5.40249,"is_reserved":false,"is_disabled":false,"rental_uris":{"android":"levelo://app?vid=5be68619-c627-4c46-8416-df5f9a6439df","ios":"levelo://app?vid=5be68619-c627-4c46-8416-df5f9a6439df"},"vehicle_type_id":"4","last_reported":1733044154,"current_range_meters":38000,"station_id":"cjm6bp8fraef2m0cb0m0","pricing_plan_id":"cebpf4jnsgd1na2vs0mg"},{"bike_id":"43f9c61c-c596-4948-9deb-58c7701e78f9","system_id":"levelo_inurba_marseille","lat":43.33613,"lon":5.41031,"is_reserved":false,"is_disabled":false,"rental_uris":{"android":"levelo://app?vid=43f9c61c-c596-4948-9deb-58c7701e78f9","ios":"levelo://app?vid=43f9c61c-c596-4948-9deb-58c7701e78f9"},"vehicle_type_id":"4","last_reported":1733044154,"current_range_meters":38400,"station_id":"ce4bhqh2rcd13ifvqhmg","pricing_plan_id":"cebpf4jnsgd1na2vs0mg"},{"bike_id":"ee3c4318-4146-4fe4-86b0-fc0b9ce70693","system_id":"levelo_inurba_marseille","lat":43.23066,"lon":5.35492,"is_reserved":false,"is_disabled":false,"rental_uris":{"android":"levelo://app?vid=ee3c4318-4146-4fe4-86b0-fc0b9ce70693","ios":"levelo://app?vid=ee3c4318-4146-4fe4-86b0-fc0b9ce70693"},"vehicle_type_id":"4","last_reported":1733044154,"current_range_meters":30800,"station_id":"cpo3342slgdg3j2ifvpg","pricing_plan_id":"cebpf4jnsgd1na2vs0mg"},{"bike_id":"124f06fb-64b7-451d-bd38-84866709eeee","system_id":"levelo_inurba_marseille","lat":43.24068,"lon":5.37755,"is_reserved":false,"is_disabled":false,"rental_uris":{"android":"levelo://app?vid=124f06fb-64b7-451d-bd38-84866709eeee","ios":"levelo://app?vid=124f06fb-64b7-451d-bd38-84866709eeee"},"vehicle_type_id":"4","last_reported":1733044154,"current_range_meters":38400,"station_id":"ce4bhnp2rcd13ifvqgvg","pricing_plan_id":"cebpf4jnsgd1na2vs0mg"},{"bike_id":"e060a3cd-cc0c-48f2-8b72-35fdb3ebc967","system_id":"levelo_inurba_marseille","lat":43.301408,"lon":5.374185,"is_reserved":false,"is_disabled":false,"rental_uris":{"android":"levelo://app?vid=e060a3cd-cc0c-48f2-8b72-35fdb3ebc967","ios":"levelo://app?vid=e060a3cd-cc0c-48f2-8b72-35fdb3ebc967"},"vehicle_type_id":"4","last_reported":1733044154,"current_range_meters":17600,"station_id":"ce4bgs92rcd13ifvqcc0","pricing_plan_id":"cebpf4jnsgd1na2vs0mg"},{"bike_id":"bbe63c49-f9d4-4d01-a90b-d71e29ad9f67","system_id":"levelo_inurba_marseille","lat":43.24651,"lon":5.38898,"is_reserved":false,"is_disabled":true,"rental_uris":{"android":"levelo://app?vid=bbe63c49-f9d4-4d01-a90b-d71e29ad9f67","ios":"levelo://app?vid=bbe63c49-f9d4-4d01-a90b-d71e29ad9f67"},"vehicle_type_id":"4","last_reported":1733044154,"current_range_meters":0,"station_id":"ce4bhg12rcd13ifvqf60","pricing_plan_id":"cebpf4jnsgd1na2vs0mg"},{"bike_id":"34553e4f-2bbe-4e94-8740-7b5a4682f76a","system_id":"levelo_inurba_marseille","lat":43.31124,"lon":5.37767,"is_reserved":false,"is_disabled":true,"rental_uris":{"android":"levelo://app?vid=34553e4f-2bbe-4e94-8740-7b5a4682f76a","ios":"levelo://app?vid=34553e4f-2bbe-4e94-8740-7b5a4682f76a"},"vehicle_type_id":"4","last_reported":1733044154,"current_range_meters":36800,"station_id":"ce4bgt92rcd13ifvqcg0","pricing_plan_id":"cebpf4jnsgd1na2vs0mg"},{"bike_id":"c7124f38-3d56-473c-9e8b-76061f1c5a09","system_id":"levelo_inurba_marseille","lat":43.27066,"lon":5.42268,"is_reserved":false,"is_disabled":false,"rental_uris":{"android":"levelo://app?vid=c7124f38-3d56-473c-9e8b-76061f1c5a09","ios":"levelo://app?vid=c7124f38-3d56-473c-9e8b-76061f1c5a09"},"vehicle_type_id":"4","last_reported":1733044154,"current_range_meters":36800,"station_id":"ce4bhk92rcd13ifvqgb0","pricing_plan_id":"cebpf4jnsgd1na2vs0mg"},{"bike_id":"bc349d87-33fa-417a-b576-c9e08ccf7a4b","system_id":"levelo_inurba_marseille","lat":43.30963,"lon":5.39032,"is_reserved":false,"is_disabled":false,"rental_uris":{"android":"levelo://app?vid=bc349d87-33fa-417a-b576-c9e08ccf7a4b","ios":"levelo://app?vid=bc349d87-33fa-417a-b576-c9e08ccf7a4b"},"vehicle_type_id":"4","last_reported":1733044154,"current_range_meters":38400,"station_id":"ce4bgup2rcd13ifvqco0","pricing_plan_id":"cebpf4jnsgd1na2vs0mg"},{"bike_id":"923e0682-9417-4cf9-a4f0-0c31bc00dbd7","system_id":"levelo_inurba_marseille","lat":43.31275,"lon":5.40171,"is_reserved":false,"is_disabled":false,"rental_uris":{"android":"levelo://app?vid=923e0682-9417-4cf9-a4f0-0c31bc00dbd7","ios":"levelo://app?vid=923e0682-9417-4cf9-a4f0-0c31bc00dbd7"},"vehicle_type_id":"4","last_reported":1733044154,"current_range_meters":38800,"station_id":"ce4bh092rcd13ifvqd30","pricing_plan_id":"cebpf4jnsgd1na2vs0mg"},{"bike_id":"b0bd4cdf-7308-45f0-8e99-a0d5811907ff","system_id":"levelo_inurba_marseille","lat":43.25424,"lon":5.38156,"is_reserved":false,"is_disabled":true,"rental_uris":{"android":"levelo://app?vid=b0bd4cdf-7308-45f0-8e99-a0d5811907ff","ios":"levelo://app?vid=b0bd4cdf-7308-45f0-8e99-a0d5811907ff"},"vehicle_type_id":"4","last_reported":1733044154,"current_range_meters":0,"station_id":"","pricing_plan_id":"cebpf4jnsgd1na2vs0mg"},{"bike_id":"de1c482b-f44e-4cf8-a9d1-e367d542d92f","system_id":"levelo_inurba_marseille","lat":43.3117,"lon":5.3873,"is_reserved":false,"is_disabled":false,"rental_uris":{"android":"levelo://app?vid=de1c482b-f44e-4cf8-a9d1-e367d542d92f","ios":"levelo://app?vid=de1c482b-f44e-4cf8-a9d1-e367d542d92f"},"vehicle_type_id":"4","last_reported":1733044154,"current_range_meters":28800,"station_id":"ce4bgv12rcd13ifvqcp0","pricing_plan_id":"cebpf4jnsgd1na2vs0mg"},{"bike_id":"666302fc-6302-41f8-b710-165386bd17a3","system_id":"levelo_inurba_marseille","lat":43.33728,"lon":5.39185,"is_reserved":false,"is_disabled":true,"rental_uris":{"android":"levelo://app?vid=666302fc-6302-41f8-b710-165386bd17a3","ios":"levelo://app?vid=666302fc-6302-41f8-b710-165386bd17a3"},"vehicle_type_id":"4","last_reported":1733044154,"current_range_meters":6000,"station_id":"ce4bhr92rcd13ifvqhsg","pricing_plan_id":"cebpf4jnsgd1na2vs0mg"},{"bike_id":"13524a14-22cf-4bf8-8f14-4a456aa051d3","system_id":"levelo_inurba_marseille","lat":43.29043,"lon":5.39951,"is_reserved":false,"is_disabled":false,"rental_uris":{"android":"levelo://app?vid=13524a14-22cf-4bf8-8f14-4a456aa051d3","ios":"levelo://app?vid=13524a14-22cf-4bf8-8f14-4a456aa051d3"},"vehicle_type_id":"4","last_reported":1733044154,"current_range_meters":36000,"station_id":"ce4bh392rcd13ifvqdm0","pricing_plan_id":"cebpf4jnsgd1na2vs0mg"},{"bike_id":"f0ca66be-c5fa-4f1d-8e2b-9450ca0243d7","system_id":"levelo_inurba_marseille","lat":43.30151,"lon":5.38083,"is_reserved":false,"is_disabled":true,"rental_uris":{"android":"levelo://app?vid=f0ca66be-c5fa-4f1d-8e2b-9450ca0243d7","ios":"levelo://app?vid=f0ca66be-c5fa-4f1d-8e2b-9450ca0243d7"},"vehicle_type_id":"4","last_reported":1733044154,"current_range_meters":34000,"station_id":"ce4bgjp2rcd13ifvqbh0","pricing_plan_id":"cebpf4jnsgd1na2vs0mg"},{"bike_id":"21e63416-2bf9-4519-965f-264ac2187b74","system_id":"levelo_inurba_marseille","lat":43.28669,"lon":5.36336,"is_reserved":false,"is_disabled":false,"rental_uris":{"android":"levelo://app?vid=21e63416-2bf9-4519-965f-264ac2187b74","ios":"levelo://app?vid=21e63416-2bf9-4519-965f-264ac2187b74"},"vehicle_type_id":"4","last_reported":1733044154,"current_range_meters":10000,"station_id":"ce4bhah2rcd13ifvqej0","pricing_plan_id":"cebpf4jnsgd1na2vs0mg"},{"bike_id":"6f7949e1-de87-4a49-8620-fec27e04447f","system_id":"levelo_inurba_marseille","lat":43.33728,"lon":5.39209,"is_reserved":false,"is_disabled":false,"rental_uris":{"android":"levelo://app?vid=6f7949e1-de87-4a49-8620-fec27e04447f","ios":"levelo://app?vid=6f7949e1-de87-4a49-8620-fec27e04447f"},"vehicle_type_id":"4","last_reported":1733044154,"current_range_meters":24800,"station_id":"ce4bhr92rcd13ifvqhsg","pricing_plan_id":"cebpf4jnsgd1na2vs0mg"},{"bike_id":"c552ed6d-0761-488e-8878-bf569826bb18","system_id":"levelo_inurba_marseille","lat":43.28457,"lon":5.35887,"is_reserved":false,"is_disabled":false,"rental_uris":{"android":"levelo://app?vid=c552ed6d-0761-488e-8878-bf569826bb18","ios":"levelo://app?vid=c552ed6d-0761-488e-8878-bf569826bb18"},"vehicle_type_id":"4","last_reported":1733044154,"current_range_meters":12400,"station_id":"ce4bhah2rcd13ifvqei0","pricing_plan_id":"cebpf4jnsgd1na2vs0mg"},{"bike_id":"0ab56b62-cd2a-493d-953e-82cb24bea823","system_id":"levelo_inurba_marseille","lat":43.2582,"lon":5.3943,"is_reserved":false,"is_disabled":false,"rental_uris":{"android":"levelo://app?vid=0ab56b62-cd2a-493d-953e-82cb24bea823","ios":"levelo://app?vid=0ab56b62-cd2a-493d-953e-82cb24bea823"},"vehicle_type_id":"4","last_reported":1733044154,"current_range_meters":38800,"station_id":"ce4bhip2rcd13ifvqft0","pricing_plan_id":"cebpf4jnsgd1na2vs0mg"},{"bike_id":"7066298c-8444-4dbb-8e5a-afa45f0890f5","system_id":"levelo_inurba_marseille","lat":43.28852,"lon":5.39319,"is_reserved":false,"is_disabled":true,"rental_uris":{"android":"levelo://app?vid=7066298c-8444-4dbb-8e5a-afa45f0890f5","ios":"levelo://app?vid=7066298c-8444-4dbb-8e5a-afa45f0890f5"},"vehicle_type_id":"4","last_reported":1733044154,"current_range_meters":8800,"station_id":"ce4bh2p2rcd13ifvqdi0","pricing_plan_id":"cebpf4jnsgd1na2vs0mg"},{"bike_id":"79da6e11-068f-4f85-891a-bf5d6033ae1b","system_id":"levelo_inurba_marseille","lat":43.291939,"lon":5.393177,"is_reserved":false,"is_disabled":true,"rental_uris":{"android":"levelo://app?vid=79da6e11-068f-4f85-891a-bf5d6033ae1b","ios":"levelo://app?vid=79da6e11-068f-4f85-891a-bf5d6033ae1b"},"vehicle_type_id":"4","last_reported":1733044154,"current_range_meters":19200,"station_id":"ce4bh192rcd13ifvqdd0","pricing_plan_id":"cebpf4jnsgd1na2vs0mg"},{"bike_id":"5a5a955a-9e88-4d2b-a8bf-3790d418dca4","system_id":"levelo_inurba_marseille","lat":43.30977,"lon":5.46196,"is_reserved":false,"is_disabled":false,"rental_uris":{"android":"levelo://app?vid=5a5a955a-9e88-4d2b-a8bf-3790d418dca4","ios":"levelo://app?vid=5a5a955a-9e88-4d2b-a8bf-3790d418dca4"},"vehicle_type_id":"4","last_reported":1733044154,"current_range_meters":24000,"station_id":"","pricing_plan_id":"cebpf4jnsgd1na2vs0mg"},{"bike_id":"60b56983-4dd0-4c43-a512-0e9952841805","system_id":"levelo_inurba_marseille","lat":43.3237,"lon":5.38889,"is_reserved":false,"is_disabled":false,"rental_uris":{"android":"levelo://app?vid=60b56983-4dd0-4c43-a512-0e9952841805","ios":"levelo://app?vid=60b56983-4dd0-4c43-a512-0e9952841805"},"vehicle_type_id":"4","last_reported":1733044154,"current_range_meters":14000,"station_id":"ce4bhqp2rcd13ifvqhog","pricing_plan_id":"cebpf4jnsgd1na2vs0mg"},{"bike_id":"7d098495-e5b5-491b-a9e9-957e8d1e6f31","system_id":"levelo_inurba_marseille","lat":43.29198,"lon":5.35809,"is_reserved":false,"is_disabled":false,"rental_uris":{"android":"levelo://app?vid=7d098495-e5b5-491b-a9e9-957e8d1e6f31","ios":"levelo://app?vid=7d098495-e5b5-491b-a9e9-957e8d1e6f31"},"vehicle_type_id":"4","last_reported":1733044154,"current_range_meters":12800,"station_id":"ce4bhb12rcd13ifvqel0","pricing_plan_id":"cebpf4jnsgd1na2vs0mg"},{"bike_id":"adcf561a-8a88-4c37-b670-89abb02d4d5c","system_id":"levelo_inurba_marseille","lat":43.308886,"lon":5.39639,"is_reserved":false,"is_disabled":false,"rental_uris":{"android":"levelo://app?vid=adcf561a-8a88-4c37-b670-89abb02d4d5c","ios":"levelo://app?vid=adcf561a-8a88-4c37-b670-89abb02d4d5c"},"vehicle_type_id":"4","last_reported":1733044154,"current_range_meters":38400,"station_id":"ce4bh012rcd13ifvqcv0","pricing_plan_id":"cebpf4jnsgd1na2vs0mg"},{"bike_id":"114e0915-573b-4faa-a468-a394c2bf69cb","system_id":"levelo_inurba_marseille","lat":43.32657,"lon":5.40996,"is_reserved":false,"is_disabled":false,"rental_uris":{"android":"levelo://app?vid=114e0915-573b-4faa-a468-a394c2bf69cb","ios":"levelo://app?vid=114e0915-573b-4faa-a468-a394c2bf69cb"},"vehicle_type_id":"4","last_reported":1733044154,"current_range_meters":16400,"station_id":"ce4bhpp2rcd13ifvqhgg","pricing_plan_id":"cebpf4jnsgd1na2vs0mg"},{"bike_id":"10d99a64-4dc3-4cfa-a61b-329ba859eee6","system_id":"levelo_inurba_marseille","lat":43.313298,"lon":5.396907,"is_reserved":false,"is_disabled":false,"rental_uris":{"android":"levelo://app?vid=10d99a64-4dc3-4cfa-a61b-329ba859eee6","ios":"levelo://app?vid=10d99a64-4dc3-4cfa-a61b-329ba859eee6"},"vehicle_type_id":"4","last_reported":1733044154,"current_range_meters":10000,"station_id":"ce4bgvp2rcd13ifvqcu0","pricing_plan_id":"cebpf4jnsgd1na2vs0mg"},{"bike_id":"2e741d69-fd4e-4c10-b025-4e7a51d280c7","system_id":"levelo_inurba_marseille","lat":43.31081,"lon":5.42434,"is_reserved":false,"is_disabled":false,"rental_uris":{"android":"levelo://app?vid=2e741d69-fd4e-4c10-b025-4e7a51d280c7","ios":"levelo://app?vid=2e741d69-fd4e-4c10-b025-4e7a51d280c7"},"vehicle_type_id":"4","last_reported":1733044154,"current_range_meters":9200,"station_id":"ce4bhp92rcd13ifvqhag","pricing_plan_id":"cebpf4jnsgd1na2vs0mg"},{"bike_id":"a0f85c10-8e22-402d-b0a6-d224b35a3b53","system_id":"levelo_inurba_marseille","lat":43.25823,"lon":5.39431,"is_reserved":false,"is_disabled":false,"rental_uris":{"android":"levelo://app?vid=a0f85c10-8e22-402d-b0a6-d224b35a3b53","ios":"levelo://app?vid=a0f85c10-8e22-402d-b0a6-d224b35a3b53"},"vehicle_type_id":"4","last_reported":1733044154,"current_range_meters":39200,"station_id":"ce4bhip2rcd13ifvqft0","pricing_plan_id":"cebpf4jnsgd1na2vs0mg"},{"bike_id":"7cccf4b6-e305-406f-aa1d-0998f168efc1","system_id":"levelo_inurba_marseille","lat":43.27898,"lon":5.38002,"is_reserved":false,"is_disabled":false,"rental_uris":{"android":"levelo://app?vid=7cccf4b6-e305-406f-aa1d-0998f168efc1","ios":"levelo://app?vid=7cccf4b6-e305-406f-aa1d-0998f168efc1"},"vehicle_type_id":"4","last_reported":1733044154,"current_range_meters":39200,"station_id":"ce4bhf92rcd13ifvqf50","pricing_plan_id":"cebpf4jnsgd1na2vs0mg"},{"bike_id":"7e34e2cc-7262-4633-b6ee-8a75aae8a374","system_id":"levelo_inurba_marseille","lat":43.29004,"lon":5.35622,"is_reserved":false,"is_disabled":false,"rental_uris":{"android":"levelo://app?vid=7e34e2cc-7262-4633-b6ee-8a75aae8a374","ios":"levelo://app?vid=7e34e2cc-7262-4633-b6ee-8a75aae8a374"},"vehicle_type_id":"4","last_reported":1733044154,"current_range_meters":36800,"station_id":"ce4bhb92rcd13ifvqen0","pricing_plan_id":"cebpf4jnsgd1na2vs0mg"},{"bike_id":"7d8d506b-f7cd-454d-83a7-afde1b506237","system_id":"levelo_inurba_marseille","lat":43.30463,"lon":5.37898,"is_reserved":false,"is_disabled":false,"rental_uris":{"android":"levelo://app?vid=7d8d506b-f7cd-454d-83a7-afde1b506237","ios":"levelo://app?vid=7d8d506b-f7cd-454d-83a7-afde1b506237"},"vehicle_type_id":"4","last_reported":1733044154,"current_range_meters":38400,"station_id":"ce4bgup2rcd13ifvqcn0","pricing_plan_id":"cebpf4jnsgd1na2vs0mg"},{"bike_id":"7ed2229e-6e77-42d8-826e-e15ec9f33077","system_id":"levelo_inurba_marseille","lat":43.26688,"lon":5.38275,"is_reserved":false,"is_disabled":true,"rental_uris":{"android":"levelo://app?vid=7ed2229e-6e77-42d8-826e-e15ec9f33077","ios":"levelo://app?vid=7ed2229e-6e77-42d8-826e-e15ec9f33077"},"vehicle_type_id":"4","last_reported":1733044154,"current_range_meters":17200,"station_id":"ce4bhg92rcd13ifvqf90","pricing_plan_id":"cebpf4jnsgd1na2vs0mg"},{"bike_id":"8fdf0680-166b-4766-a655-d02e84d131fa","system_id":"levelo_inurba_marseille","lat":43.30053,"lon":5.38733,"is_reserved":false,"is_disabled":true,"rental_uris":{"android":"levelo://app?vid=8fdf0680-166b-4766-a655-d02e84d131fa","ios":"levelo://app?vid=8fdf0680-166b-4766-a655-d02e84d131fa"},"vehicle_type_id":"4","last_reported":1733044154,"current_range_meters":38800,"station_id":"ce4bghh2rcd13ifvqb60","pricing_plan_id":"cebpf4jnsgd1na2vs0mg"},{"bike_id":"c2aaed70-11e4-4a23-aa57-d972bdbe69eb","system_id":"levelo_inurba_marseille","lat":43.25116,"lon":5.40342,"is_reserved":false,"is_disabled":false,"rental_uris":{"android":"levelo://app?vid=c2aaed70-11e4-4a23-aa57-d972bdbe69eb","ios":"levelo://app?vid=c2aaed70-11e4-4a23-aa57-d972bdbe69eb"},"vehicle_type_id":"4","last_reported":1733044154,"current_range_meters":16400,"station_id":"ce4bhlh2rcd13ifvqgig","pricing_plan_id":"cebpf4jnsgd1na2vs0mg"},{"bike_id":"64cbfd6a-4a4e-4d37-982c-18402a201eee","system_id":"levelo_inurba_marseille","lat":43.2866,"lon":5.36351,"is_reserved":false,"is_disabled":true,"rental_uris":{"android":"levelo://app?vid=64cbfd6a-4a4e-4d37-982c-18402a201eee","ios":"levelo://app?vid=64cbfd6a-4a4e-4d37-982c-18402a201eee"},"vehicle_type_id":"4","last_reported":1733044154,"current_range_meters":17600,"station_id":"ce4bhah2rcd13ifvqej0","pricing_plan_id":"cebpf4jnsgd1na2vs0mg"},{"bike_id":"c0054edb-5a8c-4cde-93a6-194d063ea63c","system_id":"levelo_inurba_marseille","lat":43.26197,"lon":5.37926,"is_reserved":false,"is_disabled":false,"rental_uris":{"android":"levelo://app?vid=c0054edb-5a8c-4cde-93a6-194d063ea63c","ios":"levelo://app?vid=c0054edb-5a8c-4cde-93a6-194d063ea63c"},"vehicle_type_id":"4","last_reported":1733044154,"current_range_meters":38800,"station_id":"ce4bhjp2rcd13ifvqg90","pricing_plan_id":"cebpf4jnsgd1na2vs0mg"},{"bike_id":"4bcd7f67-5301-4c19-9988-68f6dfdbe02d","system_id":"levelo_inurba_marseille","lat":43.30945,"lon":5.39031,"is_reserved":false,"is_disabled":false,"rental_uris":{"android":"levelo://app?vid=4bcd7f67-5301-4c19-9988-68f6dfdbe02d","ios":"levelo://app?vid=4bcd7f67-5301-4c19-9988-68f6dfdbe02d"},"vehicle_type_id":"4","last_reported":1733044154,"current_range_meters":35200,"station_id":"ce4bgup2rcd13ifvqco0","pricing_plan_id":"cebpf4jnsgd1na2vs0mg"},{"bike_id":"23842e29-7ef4-4c74-a24a-f49a16dd91c4","system_id":"levelo_inurba_marseille","lat":43.29922,"lon":5.37463,"is_reserved":false,"is_disabled":false,"rental_uris":{"android":"levelo://app?vid=23842e29-7ef4-4c74-a24a-f49a16dd91c4","ios":"levelo://app?vid=23842e29-7ef4-4c74-a24a-f49a16dd91c4"},"vehicle_type_id":"4","last_reported":1733044154,"current_range_meters":23200,"station_id":"ce4bgjh2rcd13ifvqbg0","pricing_plan_id":"cebpf4jnsgd1na2vs0mg"},{"bike_id":"3ab4c64b-a573-471d-9dc1-aa13385ed60a","system_id":"levelo_inurba_marseille","lat":43.32635,"lon":5.40958,"is_reserved":false,"is_disabled":false,"rental_uris":{"android":"levelo://app?vid=3ab4c64b-a573-471d-9dc1-aa13385ed60a","ios":"levelo://app?vid=3ab4c64b-a573-471d-9dc1-aa13385ed60a"},"vehicle_type_id":"4","last_reported":1733044154,"current_range_meters":38800,"station_id":"ce4bhpp2rcd13ifvqhgg","pricing_plan_id":"cebpf4jnsgd1na2vs0mg"},{"bike_id":"1aa61925-f4ba-4fd5-b1de-08db522586c3","system_id":"levelo_inurba_marseille","lat":43.27058,"lon":5.40256,"is_reserved":false,"is_disabled":false,"rental_uris":{"android":"levelo://app?vid=1aa61925-f4ba-4fd5-b1de-08db522586c3","ios":"levelo://app?vid=1aa61925-f4ba-4fd5-b1de-08db522586c3"},"vehicle_type_id":"4","last_reported":1733044154,"current_range_meters":38400,"station_id":"ce4bhk92rcd13ifvqgc0","pricing_plan_id":"cebpf4jnsgd1na2vs0mg"},{"bike_id":"c9e44c9e-70a7-45ae-a508-d1d682ec5c50","system_id":"levelo_inurba_marseille","lat":43.30264,"lon":5.40077,"is_reserved":false,"is_disabled":false,"rental_uris":{"android":"levelo://app?vid=c9e44c9e-70a7-45ae-a508-d1d682ec5c50","ios":"levelo://app?vid=c9e44c9e-70a7-45ae-a508-d1d682ec5c50"},"vehicle_type_id":"4","last_reported":1733044154,"current_range_meters":38400,"station_id":"ce4bgvh2rcd13ifvqcs0","pricing_plan_id":"cebpf4jnsgd1na2vs0mg"},{"bike_id":"694ada16-62be-4cd2-822e-a4599887121c","system_id":"levelo_inurba_marseille","lat":43.23191,"lon":5.35554,"is_reserved":false,"is_disabled":false,"rental_uris":{"android":"levelo://app?vid=694ada16-62be-4cd2-822e-a4599887121c","ios":"levelo://app?vid=694ada16-62be-4cd2-822e-a4599887121c"},"vehicle_type_id":"4","last_reported":1733044154,"current_range_meters":32000,"station_id":"ce4bhu92rcd13ifvqi70","pricing_plan_id":"cebpf4jnsgd1na2vs0mg"},{"bike_id":"00ca1a40-c8bb-4849-b9e3-9eaf800364d7","system_id":"levelo_inurba_marseille","lat":43.30143,"lon":5.38065,"is_reserved":false,"is_disabled":false,"rental_uris":{"android":"levelo://app?vid=00ca1a40-c8bb-4849-b9e3-9eaf800364d7","ios":"levelo://app?vid=00ca1a40-c8bb-4849-b9e3-9eaf800364d7"},"vehicle_type_id":"4","last_reported":1733044154,"current_range_meters":9200,"station_id":"ce4bgjp2rcd13ifvqbh0","pricing_plan_id":"cebpf4jnsgd1na2vs0mg"},{"bike_id":"67fa2a9e-eed8-4ed6-bdd8-7d1023a52b4e","system_id":"levelo_inurba_marseille","lat":43.2694,"lon":5.3892,"is_reserved":false,"is_disabled":true,"rental_uris":{"android":"levelo://app?vid=67fa2a9e-eed8-4ed6-bdd8-7d1023a52b4e","ios":"levelo://app?vid=67fa2a9e-eed8-4ed6-bdd8-7d1023a52b4e"},"vehicle_type_id":"4","last_reported":1733044154,"current_range_meters":6800,"station_id":"ce4bhhh2rcd13ifvqfl0","pricing_plan_id":"cebpf4jnsgd1na2vs0mg"},{"bike_id":"c8537d05-a067-41ab-8139-dc89a2af92b1","system_id":"levelo_inurba_marseille","lat":43.31888,"lon":5.40732,"is_reserved":false,"is_disabled":false,"rental_uris":{"android":"levelo://app?vid=c8537d05-a067-41ab-8139-dc89a2af92b1","ios":"levelo://app?vid=c8537d05-a067-41ab-8139-dc89a2af92b1"},"vehicle_type_id":"4","last_reported":1733044154,"current_range_meters":17600,"station_id":"ce4bhq12rcd13ifvqhig","pricing_plan_id":"cebpf4jnsgd1na2vs0mg"},{"bike_id":"d7152440-00fe-4015-a4ef-ed6a3f005a38","system_id":"levelo_inurba_marseille","lat":43.23183,"lon":5.39979,"is_reserved":false,"is_disabled":true,"rental_uris":{"android":"levelo://app?vid=d7152440-00fe-4015-a4ef-ed6a3f005a38","ios":"levelo://app?vid=d7152440-00fe-4015-a4ef-ed6a3f005a38"},"vehicle_type_id":"4","last_reported":1733044154,"current_range_meters":0,"station_id":"ce4bhn12rcd13ifvqgqg","pricing_plan_id":"cebpf4jnsgd1na2vs0mg"},{"bike_id":"63b88c79-0720-4bd4-a533-a32e448da3b4","system_id":"levelo_inurba_marseille","lat":43.30147,"lon":5.38787,"is_reserved":false,"is_disabled":false,"rental_uris":{"android":"levelo://app?vid=63b88c79-0720-4bd4-a533-a32e448da3b4","ios":"levelo://app?vid=63b88c79-0720-4bd4-a533-a32e448da3b4"},"vehicle_type_id":"4","last_reported":1733044154,"current_range_meters":28000,"station_id":"","pricing_plan_id":"cebpf4jnsgd1na2vs0mg"},{"bike_id":"f8c9b462-874a-46cf-9e07-e89e0f8792ee","system_id":"levelo_inurba_marseille","lat":43.30481,"lon":5.37893,"is_reserved":false,"is_disabled":false,"rental_uris":{"android":"levelo://app?vid=f8c9b462-874a-46cf-9e07-e89e0f8792ee","ios":"levelo://app?vid=f8c9b462-874a-46cf-9e07-e89e0f8792ee"},"vehicle_type_id":"4","last_reported":1733044154,"current_range_meters":29600,"station_id":"ce4bgup2rcd13ifvqcn0","pricing_plan_id":"cebpf4jnsgd1na2vs0mg"},{"bike_id":"60d0d009-d791-4c47-9ce7-ec77d17beb97","system_id":"levelo_inurba_marseille","lat":43.29252,"lon":5.40904,"is_reserved":false,"is_disabled":false,"rental_uris":{"android":"levelo://app?vid=60d0d009-d791-4c47-9ce7-ec77d17beb97","ios":"levelo://app?vid=60d0d009-d791-4c47-9ce7-ec77d17beb97"},"vehicle_type_id":"4","last_reported":1733044154,"current_range_meters":8400,"station_id":"ce4bh192rcd13ifvqdc0","pricing_plan_id":"cebpf4jnsgd1na2vs0mg"},{"bike_id":"db859837-cb21-41ca-b64b-3ebed09d2649","system_id":"levelo_inurba_marseille","lat":43.26685,"lon":5.38275,"is_reserved":false,"is_disabled":false,"rental_uris":{"android":"levelo://app?vid=db859837-cb21-41ca-b64b-3ebed09d2649","ios":"levelo://app?vid=db859837-cb21-41ca-b64b-3ebed09d2649"},"vehicle_type_id":"4","last_reported":1733044154,"current_range_meters":38000,"station_id":"ce4bhg92rcd13ifvqf90","pricing_plan_id":"cebpf4jnsgd1na2vs0mg"},{"bike_id":"cce025e4-7c3c-43a5-8266-b8071aef3c28","system_id":"levelo_inurba_marseille","lat":43.23193,"lon":5.35557,"is_reserved":false,"is_disabled":false,"rental_uris":{"android":"levelo://app?vid=cce025e4-7c3c-43a5-8266-b8071aef3c28","ios":"levelo://app?vid=cce025e4-7c3c-43a5-8266-b8071aef3c28"},"vehicle_type_id":"4","last_reported":1733044154,"current_range_meters":28400,"station_id":"ce4bhu92rcd13ifvqi70","pricing_plan_id":"cebpf4jnsgd1na2vs0mg"},{"bike_id":"f8968860-9ebe-425f-866f-a253a48101dd","system_id":"levelo_inurba_marseille","lat":43.2846,"lon":5.35888,"is_reserved":false,"is_disabled":false,"rental_uris":{"android":"levelo://app?vid=f8968860-9ebe-425f-866f-a253a48101dd","ios":"levelo://app?vid=f8968860-9ebe-425f-866f-a253a48101dd"},"vehicle_type_id":"4","last_reported":1733044154,"current_range_meters":33200,"station_id":"ce4bhah2rcd13ifvqei0","pricing_plan_id":"cebpf4jnsgd1na2vs0mg"},{"bike_id":"bc749360-3ce4-4dd6-a0ac-83aa82c323a7","system_id":"levelo_inurba_marseille","lat":43.28152,"lon":5.42632,"is_reserved":false,"is_disabled":true,"rental_uris":{"android":"levelo://app?vid=bc749360-3ce4-4dd6-a0ac-83aa82c323a7","ios":"levelo://app?vid=bc749360-3ce4-4dd6-a0ac-83aa82c323a7"},"vehicle_type_id":"4","last_reported":1733044154,"current_range_meters":30800,"station_id":"ce4bhnh2rcd13ifvqgug","pricing_plan_id":"cebpf4jnsgd1na2vs0mg"},{"bike_id":"b4803738-cbdc-42ef-ae2a-3353041567fd","system_id":"levelo_inurba_marseille","lat":43.28469,"lon":5.38423,"is_reserved":false,"is_disabled":false,"rental_uris":{"android":"levelo://app?vid=b4803738-cbdc-42ef-ae2a-3353041567fd","ios":"levelo://app?vid=b4803738-cbdc-42ef-ae2a-3353041567fd"},"vehicle_type_id":"4","last_reported":1733044154,"current_range_meters":19200,"station_id":"ce4bh512rcd13ifvqe3g","pricing_plan_id":"cebpf4jnsgd1na2vs0mg"},{"bike_id":"0c121fdf-68e5-4b36-b3e7-e4c85e4a5bd4","system_id":"levelo_inurba_marseille","lat":43.2481,"lon":5.37455,"is_reserved":false,"is_disabled":false,"rental_uris":{"android":"levelo://app?vid=0c121fdf-68e5-4b36-b3e7-e4c85e4a5bd4","ios":"levelo://app?vid=0c121fdf-68e5-4b36-b3e7-e4c85e4a5bd4"},"vehicle_type_id":"4","last_reported":1733044154,"current_range_meters":38400,"station_id":"ce4bhgh2rcd13ifvqfb0","pricing_plan_id":"cebpf4jnsgd1na2vs0mg"},{"bike_id":"4d4c884f-6933-49c0-8899-f9856d90f44d","system_id":"levelo_inurba_marseille","lat":43.29748,"lon":5.37971,"is_reserved":false,"is_disabled":true,"rental_uris":{"android":"levelo://app?vid=4d4c884f-6933-49c0-8899-f9856d90f44d","ios":"levelo://app?vid=4d4c884f-6933-49c0-8899-f9856d90f44d"},"vehicle_type_id":"4","last_reported":1733044154,"current_range_meters":0,"station_id":"","pricing_plan_id":"cebpf4jnsgd1na2vs0mg"},{"bike_id":"49383f8c-5e0c-4bb5-aa2b-e1c81f4536f3","system_id":"levelo_inurba_marseille","lat":43.32294,"lon":5.38261,"is_reserved":false,"is_disabled":false,"rental_uris":{"android":"levelo://app?vid=49383f8c-5e0c-4bb5-aa2b-e1c81f4536f3","ios":"levelo://app?vid=49383f8c-5e0c-4bb5-aa2b-e1c81f4536f3"},"vehicle_type_id":"4","last_reported":1733044154,"current_range_meters":26000,"station_id":"ce4bhr12rcd13ifvqhqg","pricing_plan_id":"cebpf4jnsgd1na2vs0mg"},{"bike_id":"362acf97-9e8f-4c3e-8574-4958ae2ff74f","system_id":"levelo_inurba_marseille","lat":43.26179,"lon":5.42079,"is_reserved":false,"is_disabled":false,"rental_uris":{"android":"levelo://app?vid=362acf97-9e8f-4c3e-8574-4958ae2ff74f","ios":"levelo://app?vid=362acf97-9e8f-4c3e-8574-4958ae2ff74f"},"vehicle_type_id":"4","last_reported":1733044154,"current_range_meters":28000,"station_id":"","pricing_plan_id":"cebpf4jnsgd1na2vs0mg"},{"bike_id":"b3442046-6338-4dce-a840-cc4fb86d40ac","system_id":"levelo_inurba_marseille","lat":43.318942,"lon":5.407253,"is_reserved":false,"is_disabled":false,"rental_uris":{"android":"levelo://app?vid=b3442046-6338-4dce-a840-cc4fb86d40ac","ios":"levelo://app?vid=b3442046-6338-4dce-a840-cc4fb86d40ac"},"vehicle_type_id":"4","last_reported":1733044154,"current_range_meters":20400,"station_id":"ce4bhq12rcd13ifvqhig","pricing_plan_id":"cebpf4jnsgd1na2vs0mg"},{"bike_id":"c6fd581e-fb92-4619-ac86-89d0d8c3fccf","system_id":"levelo_inurba_marseille","lat":43.28664,"lon":5.36341,"is_reserved":false,"is_disabled":false,"rental_uris":{"android":"levelo://app?vid=c6fd581e-fb92-4619-ac86-89d0d8c3fccf","ios":"levelo://app?vid=c6fd581e-fb92-4619-ac86-89d0d8c3fccf"},"vehicle_type_id":"4","last_reported":1733044154,"current_range_meters":16800,"station_id":"ce4bhah2rcd13ifvqej0","pricing_plan_id":"cebpf4jnsgd1na2vs0mg"},{"bike_id":"9009be37-c6b1-406b-b0a8-fbab355f715e","system_id":"levelo_inurba_marseille","lat":43.33763,"lon":5.37495,"is_reserved":false,"is_disabled":false,"rental_uris":{"android":"levelo://app?vid=9009be37-c6b1-406b-b0a8-fbab355f715e","ios":"levelo://app?vid=9009be37-c6b1-406b-b0a8-fbab355f715e"},"vehicle_type_id":"4","last_reported":1733044154,"current_range_meters":32800,"station_id":"","pricing_plan_id":"cebpf4jnsgd1na2vs0mg"},{"bike_id":"e6de8d66-256e-4bd7-a6eb-ece49b048c9e","system_id":"levelo_inurba_marseille","lat":43.31233,"lon":5.36853,"is_reserved":false,"is_disabled":false,"rental_uris":{"android":"levelo://app?vid=e6de8d66-256e-4bd7-a6eb-ece49b048c9e","ios":"levelo://app?vid=e6de8d66-256e-4bd7-a6eb-ece49b048c9e"},"vehicle_type_id":"4","last_reported":1733044154,"current_range_meters":39200,"station_id":"ce4bgl92rcd13ifvqbq0","pricing_plan_id":"cebpf4jnsgd1na2vs0mg"},{"bike_id":"b7b33697-14a7-4110-9b8b-4194e6ef5f3f","system_id":"levelo_inurba_marseille","lat":43.27278,"lon":5.39204,"is_reserved":false,"is_disabled":true,"rental_uris":{"android":"levelo://app?vid=b7b33697-14a7-4110-9b8b-4194e6ef5f3f","ios":"levelo://app?vid=b7b33697-14a7-4110-9b8b-4194e6ef5f3f"},"vehicle_type_id":"4","last_reported":1733044154,"current_range_meters":0,"station_id":"","pricing_plan_id":"cebpf4jnsgd1na2vs0mg"},{"bike_id":"21f03c6a-ebe9-409b-984c-2eca288774e4","system_id":"levelo_inurba_marseille","lat":43.29375,"lon":5.37863,"is_reserved":false,"is_disabled":false,"rental_uris":{"android":"levelo://app?vid=21f03c6a-ebe9-409b-984c-2eca288774e4","ios":"levelo://app?vid=21f03c6a-ebe9-409b-984c-2eca288774e4"},"vehicle_type_id":"4","last_reported":1733044154,"current_range_meters":15200,"station_id":"ce4bgjh2rcd13ifvqbf0","pricing_plan_id":"cebpf4jnsgd1na2vs0mg"},{"bike_id":"ac49fba4-30df-4893-b052-7d9d76fd86a2","system_id":"levelo_inurba_marseille","lat":43.2925,"lon":5.38435,"is_reserved":false,"is_disabled":true,"rental_uris":{"android":"levelo://app?vid=ac49fba4-30df-4893-b052-7d9d76fd86a2","ios":"levelo://app?vid=ac49fba4-30df-4893-b052-7d9d76fd86a2"},"vehicle_type_id":"4","last_reported":1733044154,"current_range_meters":12400,"station_id":"ce4bh692rcd13ifvqea0","pricing_plan_id":"cebpf4jnsgd1na2vs0mg"},{"bike_id":"a3d540a5-c9e8-4c92-9399-ec0baac57a71","system_id":"levelo_inurba_marseille","lat":43.29537,"lon":5.3854,"is_reserved":false,"is_disabled":true,"rental_uris":{"android":"levelo://app?vid=a3d540a5-c9e8-4c92-9399-ec0baac57a71","ios":"levelo://app?vid=a3d540a5-c9e8-4c92-9399-ec0baac57a71"},"vehicle_type_id":"4","last_reported":1733044154,"current_range_meters":34800,"station_id":"ce4bgih2rcd13ifvqba0","pricing_plan_id":"cebpf4jnsgd1na2vs0mg"},{"bike_id":"f8c96851-0afb-4e76-963e-6a283010bcce","system_id":"levelo_inurba_marseille","lat":43.25724,"lon":5.41104,"is_reserved":false,"is_disabled":false,"rental_uris":{"android":"levelo://app?vid=f8c96851-0afb-4e76-963e-6a283010bcce","ios":"levelo://app?vid=f8c96851-0afb-4e76-963e-6a283010bcce"},"vehicle_type_id":"4","last_reported":1733044154,"current_range_meters":11200,"station_id":"ce4bhkp2rcd13ifvqgd0","pricing_plan_id":"cebpf4jnsgd1na2vs0mg"},{"bike_id":"c4c16ff2-0fb1-42b1-a0b0-ad2253165d06","system_id":"levelo_inurba_marseille","lat":43.30541,"lon":5.38418,"is_reserved":false,"is_disabled":false,"rental_uris":{"android":"levelo://app?vid=c4c16ff2-0fb1-42b1-a0b0-ad2253165d06","ios":"levelo://app?vid=c4c16ff2-0fb1-42b1-a0b0-ad2253165d06"},"vehicle_type_id":"4","last_reported":1733044154,"current_range_meters":39200,"station_id":"ce4bgg92rcd13ifvqb30","pricing_plan_id":"cebpf4jnsgd1na2vs0mg"},{"bike_id":"3abdb507-aca9-41cf-ab5c-c13fb795c3a0","system_id":"levelo_inurba_marseille","lat":43.2842,"lon":5.34989,"is_reserved":false,"is_disabled":true,"rental_uris":{"android":"levelo://app?vid=3abdb507-aca9-41cf-ab5c-c13fb795c3a0","ios":"levelo://app?vid=3abdb507-aca9-41cf-ab5c-c13fb795c3a0"},"vehicle_type_id":"4","last_reported":1733044154,"current_range_meters":0,"station_id":"ce4bhbh2rcd13ifvqepg","pricing_plan_id":"cebpf4jnsgd1na2vs0mg"},{"bike_id":"9e4a8ddf-edda-4e09-8182-0d36f93e35f0","system_id":"levelo_inurba_marseille","lat":43.30145,"lon":5.37413,"is_reserved":false,"is_disabled":false,"rental_uris":{"android":"levelo://app?vid=9e4a8ddf-edda-4e09-8182-0d36f93e35f0","ios":"levelo://app?vid=9e4a8ddf-edda-4e09-8182-0d36f93e35f0"},"vehicle_type_id":"4","last_reported":1733044154,"current_range_meters":34000,"station_id":"ce4bgs92rcd13ifvqcc0","pricing_plan_id":"cebpf4jnsgd1na2vs0mg"},{"bike_id":"7fda7038-d61c-405a-a660-6de6859d9497","system_id":"levelo_inurba_marseille","lat":43.32659,"lon":5.40987,"is_reserved":false,"is_disabled":false,"rental_uris":{"android":"levelo://app?vid=7fda7038-d61c-405a-a660-6de6859d9497","ios":"levelo://app?vid=7fda7038-d61c-405a-a660-6de6859d9497"},"vehicle_type_id":"4","last_reported":1733044154,"current_range_meters":39200,"station_id":"ce4bhpp2rcd13ifvqhgg","pricing_plan_id":"cebpf4jnsgd1na2vs0mg"},{"bike_id":"97b35c0e-7e77-4f0a-83fa-58fbc99a2959","system_id":"levelo_inurba_marseille","lat":43.337444,"lon":5.374475,"is_reserved":false,"is_disabled":false,"rental_uris":{"android":"levelo://app?vid=97b35c0e-7e77-4f0a-83fa-58fbc99a2959","ios":"levelo://app?vid=97b35c0e-7e77-4f0a-83fa-58fbc99a2959"},"vehicle_type_id":"4","last_reported":1733044154,"current_range_meters":31200,"station_id":"","pricing_plan_id":"cebpf4jnsgd1na2vs0mg"},{"bike_id":"90e6624d-f15b-40a9-aa21-66d0047fb8c0","system_id":"levelo_inurba_marseille","lat":43.3377,"lon":5.37429,"is_reserved":false,"is_disabled":false,"rental_uris":{"android":"levelo://app?vid=90e6624d-f15b-40a9-aa21-66d0047fb8c0","ios":"levelo://app?vid=90e6624d-f15b-40a9-aa21-66d0047fb8c0"},"vehicle_type_id":"4","last_reported":1733044154,"current_range_meters":6400,"station_id":"","pricing_plan_id":"cebpf4jnsgd1na2vs0mg"},{"bike_id":"76490f10-0bdc-4c56-9a17-8d7fa1908fdd","system_id":"levelo_inurba_marseille","lat":43.2582,"lon":5.39417,"is_reserved":false,"is_disabled":false,"rental_uris":{"android":"levelo://app?vid=76490f10-0bdc-4c56-9a17-8d7fa1908fdd","ios":"levelo://app?vid=76490f10-0bdc-4c56-9a17-8d7fa1908fdd"},"vehicle_type_id":"4","last_reported":1733044154,"current_range_meters":35200,"station_id":"ce4bhip2rcd13ifvqft0","pricing_plan_id":"cebpf4jnsgd1na2vs0mg"},{"bike_id":"d940e3b2-a0c9-4d18-a219-6ff079cc4dd2","system_id":"levelo_inurba_marseille","lat":43.30605,"lon":5.37209,"is_reserved":false,"is_disabled":false,"rental_uris":{"android":"levelo://app?vid=d940e3b2-a0c9-4d18-a219-6ff079cc4dd2","ios":"levelo://app?vid=d940e3b2-a0c9-4d18-a219-6ff079cc4dd2"},"vehicle_type_id":"4","last_reported":1733044154,"current_range_meters":38400,"station_id":"ce4bgqh2rcd13ifvqc4g","pricing_plan_id":"cebpf4jnsgd1na2vs0mg"},{"bike_id":"314d1365-c0f9-4b36-8299-e279909a774d","system_id":"levelo_inurba_marseille","lat":43.31214,"lon":5.36859,"is_reserved":false,"is_disabled":true,"rental_uris":{"android":"levelo://app?vid=314d1365-c0f9-4b36-8299-e279909a774d","ios":"levelo://app?vid=314d1365-c0f9-4b36-8299-e279909a774d"},"vehicle_type_id":"4","last_reported":1733044154,"current_range_meters":0,"station_id":"ce4bgl92rcd13ifvqbq0","pricing_plan_id":"cebpf4jnsgd1na2vs0mg"},{"bike_id":"c4e5279c-8597-4610-8585-502e60022764","system_id":"levelo_inurba_marseille","lat":43.25111,"lon":5.40326,"is_reserved":false,"is_disabled":false,"rental_uris":{"android":"levelo://app?vid=c4e5279c-8597-4610-8585-502e60022764","ios":"levelo://app?vid=c4e5279c-8597-4610-8585-502e60022764"},"vehicle_type_id":"4","last_reported":1733044154,"current_range_meters":10000,"station_id":"ce4bhlh2rcd13ifvqgig","pricing_plan_id":"cebpf4jnsgd1na2vs0mg"},{"bike_id":"574bb0c5-70fe-48c7-8696-31ba5958adec","system_id":"levelo_inurba_marseille","lat":43.29276,"lon":5.36841,"is_reserved":false,"is_disabled":false,"rental_uris":{"android":"levelo://app?vid=574bb0c5-70fe-48c7-8696-31ba5958adec","ios":"levelo://app?vid=574bb0c5-70fe-48c7-8696-31ba5958adec"},"vehicle_type_id":"4","last_reported":1733044154,"current_range_meters":24800,"station_id":"ce4bhbp2rcd13ifvqesg","pricing_plan_id":"cebpf4jnsgd1na2vs0mg"},{"bike_id":"256ed7b4-aff1-4687-9338-98ca1590cf7b","system_id":"levelo_inurba_marseille","lat":43.33769,"lon":5.37424,"is_reserved":false,"is_disabled":false,"rental_uris":{"android":"levelo://app?vid=256ed7b4-aff1-4687-9338-98ca1590cf7b","ios":"levelo://app?vid=256ed7b4-aff1-4687-9338-98ca1590cf7b"},"vehicle_type_id":"4","last_reported":1733044154,"current_range_meters":18800,"station_id":"","pricing_plan_id":"cebpf4jnsgd1na2vs0mg"},{"bike_id":"fd3b7ed7-cae6-419a-a5f6-e5eda0442a53","system_id":"levelo_inurba_marseille","lat":43.25492,"lon":5.37648,"is_reserved":false,"is_disabled":false,"rental_uris":{"android":"levelo://app?vid=fd3b7ed7-cae6-419a-a5f6-e5eda0442a53","ios":"levelo://app?vid=fd3b7ed7-cae6-419a-a5f6-e5eda0442a53"},"vehicle_type_id":"4","last_reported":1733044154,"current_range_meters":38000,"station_id":"ce4bhh12rcd13ifvqff0","pricing_plan_id":"cebpf4jnsgd1na2vs0mg"},{"bike_id":"064861a6-5a15-4e22-bc40-26ea165590ab","system_id":"levelo_inurba_marseille","lat":43.29195,"lon":5.39321,"is_reserved":false,"is_disabled":true,"rental_uris":{"android":"levelo://app?vid=064861a6-5a15-4e22-bc40-26ea165590ab","ios":"levelo://app?vid=064861a6-5a15-4e22-bc40-26ea165590ab"},"vehicle_type_id":"4","last_reported":1733044154,"current_range_meters":24800,"station_id":"ce4bh192rcd13ifvqdd0","pricing_plan_id":"cebpf4jnsgd1na2vs0mg"},{"bike_id":"83187be1-7efa-435e-ae9b-74201cb4dec3","system_id":"levelo_inurba_marseille","lat":43.26685,"lon":5.38274,"is_reserved":false,"is_disabled":true,"rental_uris":{"android":"levelo://app?vid=83187be1-7efa-435e-ae9b-74201cb4dec3","ios":"levelo://app?vid=83187be1-7efa-435e-ae9b-74201cb4dec3"},"vehicle_type_id":"4","last_reported":1733044154,"current_range_meters":38400,"station_id":"ce4bhg92rcd13ifvqf90","pricing_plan_id":"cebpf4jnsgd1na2vs0mg"},{"bike_id":"09ed15d7-8c69-4be4-b485-46e6ba08aaf9","system_id":"levelo_inurba_marseille","lat":43.31891,"lon":5.40728,"is_reserved":false,"is_disabled":false,"rental_uris":{"android":"levelo://app?vid=09ed15d7-8c69-4be4-b485-46e6ba08aaf9","ios":"levelo://app?vid=09ed15d7-8c69-4be4-b485-46e6ba08aaf9"},"vehicle_type_id":"4","last_reported":1733044154,"current_range_meters":12000,"station_id":"ce4bhq12rcd13ifvqhig","pricing_plan_id":"cebpf4jnsgd1na2vs0mg"},{"bike_id":"e8fa7be1-2407-41a7-b843-e7c70f1917ef","system_id":"levelo_inurba_marseille","lat":43.27611,"lon":5.36109,"is_reserved":false,"is_disabled":true,"rental_uris":{"android":"levelo://app?vid=e8fa7be1-2407-41a7-b843-e7c70f1917ef","ios":"levelo://app?vid=e8fa7be1-2407-41a7-b843-e7c70f1917ef"},"vehicle_type_id":"4","last_reported":1733044154,"current_range_meters":0,"station_id":"ce4bgj92rcd13ifvqbe0","pricing_plan_id":"cebpf4jnsgd1na2vs0mg"},{"bike_id":"63b1c1fe-3df7-4c6e-a161-8f98eafd0209","system_id":"levelo_inurba_marseille","lat":43.26198,"lon":5.37932,"is_reserved":false,"is_disabled":false,"rental_uris":{"android":"levelo://app?vid=63b1c1fe-3df7-4c6e-a161-8f98eafd0209","ios":"levelo://app?vid=63b1c1fe-3df7-4c6e-a161-8f98eafd0209"},"vehicle_type_id":"4","last_reported":1733044154,"current_range_meters":35200,"station_id":"ce4bhjp2rcd13ifvqg90","pricing_plan_id":"cebpf4jnsgd1na2vs0mg"},{"bike_id":"0bc3b5e8-65cb-4f30-9fd7-1e22402dc7eb","system_id":"levelo_inurba_marseille","lat":43.30888,"lon":5.39628,"is_reserved":false,"is_disabled":false,"rental_uris":{"android":"levelo://app?vid=0bc3b5e8-65cb-4f30-9fd7-1e22402dc7eb","ios":"levelo://app?vid=0bc3b5e8-65cb-4f30-9fd7-1e22402dc7eb"},"vehicle_type_id":"4","last_reported":1733044154,"current_range_meters":10000,"station_id":"ce4bh012rcd13ifvqcv0","pricing_plan_id":"cebpf4jnsgd1na2vs0mg"},{"bike_id":"a4404dac-00c5-4861-a1ae-6d042a4030f1","system_id":"levelo_inurba_marseille","lat":43.33761,"lon":5.37425,"is_reserved":false,"is_disabled":false,"rental_uris":{"android":"levelo://app?vid=a4404dac-00c5-4861-a1ae-6d042a4030f1","ios":"levelo://app?vid=a4404dac-00c5-4861-a1ae-6d042a4030f1"},"vehicle_type_id":"4","last_reported":1733044154,"current_range_meters":3600,"station_id":"","pricing_plan_id":"cebpf4jnsgd1na2vs0mg"},{"bike_id":"4c0c3b2b-5f7d-4de3-a282-4907faa58b67","system_id":"levelo_inurba_marseille","lat":43.30614,"lon":5.37198,"is_reserved":false,"is_disabled":false,"rental_uris":{"android":"levelo://app?vid=4c0c3b2b-5f7d-4de3-a282-4907faa58b67","ios":"levelo://app?vid=4c0c3b2b-5f7d-4de3-a282-4907faa58b67"},"vehicle_type_id":"4","last_reported":1733044154,"current_range_meters":38800,"station_id":"ce4bgqh2rcd13ifvqc4g","pricing_plan_id":"cebpf4jnsgd1na2vs0mg"},{"bike_id":"f447017a-0658-4440-99b9-36b1ab0f2428","system_id":"levelo_inurba_marseille","lat":43.25825,"lon":5.39426,"is_reserved":false,"is_disabled":false,"rental_uris":{"android":"levelo://app?vid=f447017a-0658-4440-99b9-36b1ab0f2428","ios":"levelo://app?vid=f447017a-0658-4440-99b9-36b1ab0f2428"},"vehicle_type_id":"4","last_reported":1733044154,"current_range_meters":38000,"station_id":"ce4bhip2rcd13ifvqft0","pricing_plan_id":"cebpf4jnsgd1na2vs0mg"},{"bike_id":"a98950b6-7027-4bf8-b943-d211a2d8db6d","system_id":"levelo_inurba_marseille","lat":43.27057,"lon":5.40262,"is_reserved":false,"is_disabled":false,"rental_uris":{"android":"levelo://app?vid=a98950b6-7027-4bf8-b943-d211a2d8db6d","ios":"levelo://app?vid=a98950b6-7027-4bf8-b943-d211a2d8db6d"},"vehicle_type_id":"4","last_reported":1733044154,"current_range_meters":4000,"station_id":"ce4bhk92rcd13ifvqgc0","pricing_plan_id":"cebpf4jnsgd1na2vs0mg"},{"bike_id":"ae110baa-6fa5-463d-9c19-2aa3237d6213","system_id":"levelo_inurba_marseille","lat":43.23197,"lon":5.3555,"is_reserved":false,"is_disabled":false,"rental_uris":{"android":"levelo://app?vid=ae110baa-6fa5-463d-9c19-2aa3237d6213","ios":"levelo://app?vid=ae110baa-6fa5-463d-9c19-2aa3237d6213"},"vehicle_type_id":"4","last_reported":1733044154,"current_range_meters":21600,"station_id":"ce4bhu92rcd13ifvqi70","pricing_plan_id":"cebpf4jnsgd1na2vs0mg"},{"bike_id":"eb84d778-f8b0-4aba-be39-7acc8e4527fc","system_id":"levelo_inurba_marseille","lat":43.25112,"lon":5.40331,"is_reserved":false,"is_disabled":false,"rental_uris":{"android":"levelo://app?vid=eb84d778-f8b0-4aba-be39-7acc8e4527fc","ios":"levelo://app?vid=eb84d778-f8b0-4aba-be39-7acc8e4527fc"},"vehicle_type_id":"4","last_reported":1733044154,"current_range_meters":38400,"station_id":"ce4bhlh2rcd13ifvqgig","pricing_plan_id":"cebpf4jnsgd1na2vs0mg"},{"bike_id":"a380d86a-cfde-492f-9e21-44023492cfba","system_id":"levelo_inurba_marseille","lat":43.31713,"lon":5.43703,"is_reserved":false,"is_disabled":false,"rental_uris":{"android":"levelo://app?vid=a380d86a-cfde-492f-9e21-44023492cfba","ios":"levelo://app?vid=a380d86a-cfde-492f-9e21-44023492cfba"},"vehicle_type_id":"4","last_reported":1733044154,"current_range_meters":38000,"station_id":"ce4bhp92rcd13ifvqhcg","pricing_plan_id":"cebpf4jnsgd1na2vs0mg"},{"bike_id":"9700beae-0fbf-4e58-beda-d02b6fed27fe","system_id":"levelo_inurba_marseille","lat":43.33771,"lon":5.3742,"is_reserved":false,"is_disabled":false,"rental_uris":{"android":"levelo://app?vid=9700beae-0fbf-4e58-beda-d02b6fed27fe","ios":"levelo://app?vid=9700beae-0fbf-4e58-beda-d02b6fed27fe"},"vehicle_type_id":"4","last_reported":1733044154,"current_range_meters":36000,"station_id":"","pricing_plan_id":"cebpf4jnsgd1na2vs0mg"},{"bike_id":"3cc4d579-9245-4e6b-97f3-fd7834f044d6","system_id":"levelo_inurba_marseille","lat":43.28161,"lon":5.42646,"is_reserved":false,"is_disabled":false,"rental_uris":{"android":"levelo://app?vid=3cc4d579-9245-4e6b-97f3-fd7834f044d6","ios":"levelo://app?vid=3cc4d579-9245-4e6b-97f3-fd7834f044d6"},"vehicle_type_id":"4","last_reported":1733044154,"current_range_meters":30800,"station_id":"ce4bhnh2rcd13ifvqgug","pricing_plan_id":"cebpf4jnsgd1na2vs0mg"},{"bike_id":"3d678357-a4fc-472f-ad86-438716ed68e2","system_id":"levelo_inurba_marseille","lat":43.29799,"lon":5.40404,"is_reserved":false,"is_disabled":false,"rental_uris":{"android":"levelo://app?vid=3d678357-a4fc-472f-ad86-438716ed68e2","ios":"levelo://app?vid=3d678357-a4fc-472f-ad86-438716ed68e2"},"vehicle_type_id":"4","last_reported":1733044154,"current_range_meters":11200,"station_id":"ce4bh112rcd13ifvqd90","pricing_plan_id":"cebpf4jnsgd1na2vs0mg"},{"bike_id":"af12a5f9-720e-4019-987d-3779fe2b91a2","system_id":"levelo_inurba_marseille","lat":43.30827,"lon":5.37395,"is_reserved":false,"is_disabled":true,"rental_uris":{"android":"levelo://app?vid=af12a5f9-720e-4019-987d-3779fe2b91a2","ios":"levelo://app?vid=af12a5f9-720e-4019-987d-3779fe2b91a2"},"vehicle_type_id":"4","last_reported":1733044154,"current_range_meters":1200,"station_id":"","pricing_plan_id":"cebpf4jnsgd1na2vs0mg"},{"bike_id":"b1fb2dba-bfa9-4cd7-a438-ec21bfc31d25","system_id":"levelo_inurba_marseille","lat":43.29768,"lon":5.42166,"is_reserved":false,"is_disabled":false,"rental_uris":{"android":"levelo://app?vid=b1fb2dba-bfa9-4cd7-a438-ec21bfc31d25","ios":"levelo://app?vid=b1fb2dba-bfa9-4cd7-a438-ec21bfc31d25"},"vehicle_type_id":"4","last_reported":1733044154,"current_range_meters":25600,"station_id":"","pricing_plan_id":"cebpf4jnsgd1na2vs0mg"},{"bike_id":"8f8d646c-06cd-41e6-8fcb-2077bf93c819","system_id":"levelo_inurba_marseille","lat":43.29968,"lon":5.37164,"is_reserved":false,"is_disabled":false,"rental_uris":{"android":"levelo://app?vid=8f8d646c-06cd-41e6-8fcb-2077bf93c819","ios":"levelo://app?vid=8f8d646c-06cd-41e6-8fcb-2077bf93c819"},"vehicle_type_id":"4","last_reported":1733044154,"current_range_meters":34000,"station_id":"ce4bgr92rcd13ifvqc7g","pricing_plan_id":"cebpf4jnsgd1na2vs0mg"},{"bike_id":"00b68fff-a71b-4715-936d-be92a85c25d5","system_id":"levelo_inurba_marseille","lat":43.2871,"lon":5.36097,"is_reserved":false,"is_disabled":false,"rental_uris":{"android":"levelo://app?vid=00b68fff-a71b-4715-936d-be92a85c25d5","ios":"levelo://app?vid=00b68fff-a71b-4715-936d-be92a85c25d5"},"vehicle_type_id":"4","last_reported":1733044154,"current_range_meters":38800,"station_id":"cki0cbj6b192h4jlfktg","pricing_plan_id":"cebpf4jnsgd1na2vs0mg"},{"bike_id":"e8aaf989-f7c7-4f92-9039-2cedc59abe88","system_id":"levelo_inurba_marseille","lat":43.25388,"lon":5.41848,"is_reserved":false,"is_disabled":false,"rental_uris":{"android":"levelo://app?vid=e8aaf989-f7c7-4f92-9039-2cedc59abe88","ios":"levelo://app?vid=e8aaf989-f7c7-4f92-9039-2cedc59abe88"},"vehicle_type_id":"4","last_reported":1733044154,"current_range_meters":29600,"station_id":"","pricing_plan_id":"cebpf4jnsgd1na2vs0mg"},{"bike_id":"a81f0370-9437-4c42-a8c8-3783fbcc99f5","system_id":"levelo_inurba_marseille","lat":43.2606,"lon":5.39396,"is_reserved":false,"is_disabled":false,"rental_uris":{"android":"levelo://app?vid=a81f0370-9437-4c42-a8c8-3783fbcc99f5","ios":"levelo://app?vid=a81f0370-9437-4c42-a8c8-3783fbcc99f5"},"vehicle_type_id":"4","last_reported":1733044154,"current_range_meters":24800,"station_id":"ce4bhh92rcd13ifvqfj0","pricing_plan_id":"cebpf4jnsgd1na2vs0mg"},{"bike_id":"2b82be2b-842c-4809-901e-1b13d7fde033","system_id":"levelo_inurba_marseille","lat":43.28155,"lon":5.42635,"is_reserved":false,"is_disabled":true,"rental_uris":{"android":"levelo://app?vid=2b82be2b-842c-4809-901e-1b13d7fde033","ios":"levelo://app?vid=2b82be2b-842c-4809-901e-1b13d7fde033"},"vehicle_type_id":"4","last_reported":1733044154,"current_range_meters":2000,"station_id":"ce4bhnh2rcd13ifvqgug","pricing_plan_id":"cebpf4jnsgd1na2vs0mg"},{"bike_id":"4a2be555-d056-454c-bed3-fe781ba86f8e","system_id":"levelo_inurba_marseille","lat":43.25886,"lon":5.39954,"is_reserved":false,"is_disabled":true,"rental_uris":{"android":"levelo://app?vid=4a2be555-d056-454c-bed3-fe781ba86f8e","ios":"levelo://app?vid=4a2be555-d056-454c-bed3-fe781ba86f8e"},"vehicle_type_id":"4","last_reported":1733044154,"current_range_meters":0,"station_id":"","pricing_plan_id":"cebpf4jnsgd1na2vs0mg"},{"bike_id":"eacb3da0-55ef-4a95-b0e4-9d37b8f127fa","system_id":"levelo_inurba_marseille","lat":43.30416,"lon":5.39744,"is_reserved":false,"is_disabled":false,"rental_uris":{"android":"levelo://app?vid=eacb3da0-55ef-4a95-b0e4-9d37b8f127fa","ios":"levelo://app?vid=eacb3da0-55ef-4a95-b0e4-9d37b8f127fa"},"vehicle_type_id":"4","last_reported":1733044154,"current_range_meters":39200,"station_id":"ce4bh092rcd13ifvqd20","pricing_plan_id":"cebpf4jnsgd1na2vs0mg"},{"bike_id":"f0fc9aa9-c9d1-48e5-a9e2-c792dd60843e","system_id":"levelo_inurba_marseille","lat":43.29622,"lon":5.37168,"is_reserved":false,"is_disabled":false,"rental_uris":{"android":"levelo://app?vid=f0fc9aa9-c9d1-48e5-a9e2-c792dd60843e","ios":"levelo://app?vid=f0fc9aa9-c9d1-48e5-a9e2-c792dd60843e"},"vehicle_type_id":"4","last_reported":1733044154,"current_range_meters":39200,"station_id":"ce4bgnh2rcd13ifvqc0g","pricing_plan_id":"cebpf4jnsgd1na2vs0mg"},{"bike_id":"bdaf15ef-30a6-43fb-b654-b47fa5d101b0","system_id":"levelo_inurba_marseille","lat":43.23191,"lon":5.35558,"is_reserved":false,"is_disabled":false,"rental_uris":{"android":"levelo://app?vid=bdaf15ef-30a6-43fb-b654-b47fa5d101b0","ios":"levelo://app?vid=bdaf15ef-30a6-43fb-b654-b47fa5d101b0"},"vehicle_type_id":"4","last_reported":1733044154,"current_range_meters":38800,"station_id":"ce4bhu92rcd13ifvqi70","pricing_plan_id":"cebpf4jnsgd1na2vs0mg"},{"bike_id":"3514cf32-f5b9-4ece-ad78-2fbb554b81b6","system_id":"levelo_inurba_marseille","lat":43.25009,"lon":5.38918,"is_reserved":false,"is_disabled":false,"rental_uris":{"android":"levelo://app?vid=3514cf32-f5b9-4ece-ad78-2fbb554b81b6","ios":"levelo://app?vid=3514cf32-f5b9-4ece-ad78-2fbb554b81b6"},"vehicle_type_id":"4","last_reported":1733044154,"current_range_meters":19600,"station_id":"ce4bhgp2rcd13ifvqfd0","pricing_plan_id":"cebpf4jnsgd1na2vs0mg"},{"bike_id":"41329919-d8a6-4529-9c36-e6723e50ee60","system_id":"levelo_inurba_marseille","lat":43.30304,"lon":5.392065,"is_reserved":false,"is_disabled":true,"rental_uris":{"android":"levelo://app?vid=41329919-d8a6-4529-9c36-e6723e50ee60","ios":"levelo://app?vid=41329919-d8a6-4529-9c36-e6723e50ee60"},"vehicle_type_id":"4","last_reported":1733044154,"current_range_meters":30800,"station_id":"ce4bgkh2rcd13ifvqbk0","pricing_plan_id":"cebpf4jnsgd1na2vs0mg"},{"bike_id":"3ec2af63-7cba-4635-8a69-907574b70c71","system_id":"levelo_inurba_marseille","lat":43.23194,"lon":5.35555,"is_reserved":false,"is_disabled":false,"rental_uris":{"android":"levelo://app?vid=3ec2af63-7cba-4635-8a69-907574b70c71","ios":"levelo://app?vid=3ec2af63-7cba-4635-8a69-907574b70c71"},"vehicle_type_id":"4","last_reported":1733044154,"current_range_meters":39200,"station_id":"ce4bhu92rcd13ifvqi70","pricing_plan_id":"cebpf4jnsgd1na2vs0mg"},{"bike_id":"72a6ae14-ff81-4592-b7f6-c6c309b5f127","system_id":"levelo_inurba_marseille","lat":43.25504,"lon":5.37648,"is_reserved":false,"is_disabled":false,"rental_uris":{"android":"levelo://app?vid=72a6ae14-ff81-4592-b7f6-c6c309b5f127","ios":"levelo://app?vid=72a6ae14-ff81-4592-b7f6-c6c309b5f127"},"vehicle_type_id":"4","last_reported":1733044154,"current_range_meters":31200,"station_id":"ce4bhh12rcd13ifvqff0","pricing_plan_id":"cebpf4jnsgd1na2vs0mg"},{"bike_id":"f91c92a9-381f-4b6d-80c7-72d43980fc46","system_id":"levelo_inurba_marseille","lat":43.27068,"lon":5.42272,"is_reserved":false,"is_disabled":false,"rental_uris":{"android":"levelo://app?vid=f91c92a9-381f-4b6d-80c7-72d43980fc46","ios":"levelo://app?vid=f91c92a9-381f-4b6d-80c7-72d43980fc46"},"vehicle_type_id":"4","last_reported":1733044154,"current_range_meters":38800,"station_id":"ce4bhk92rcd13ifvqgb0","pricing_plan_id":"cebpf4jnsgd1na2vs0mg"},{"bike_id":"000b518d-442b-4752-8b9a-e2fc3654d286","system_id":"levelo_inurba_marseille","lat":43.29451,"lon":5.39754,"is_reserved":false,"is_disabled":true,"rental_uris":{"android":"levelo://app?vid=000b518d-442b-4752-8b9a-e2fc3654d286","ios":"levelo://app?vid=000b518d-442b-4752-8b9a-e2fc3654d286"},"vehicle_type_id":"4","last_reported":1733044154,"current_range_meters":17200,"station_id":"ce4bh3h2rcd13ifvqdo0","pricing_plan_id":"cebpf4jnsgd1na2vs0mg"},{"bike_id":"e36c7284-fef6-4d0c-9b81-2d7bf519cd53","system_id":"levelo_inurba_marseille","lat":43.28459,"lon":5.35885,"is_reserved":false,"is_disabled":false,"rental_uris":{"android":"levelo://app?vid=e36c7284-fef6-4d0c-9b81-2d7bf519cd53","ios":"levelo://app?vid=e36c7284-fef6-4d0c-9b81-2d7bf519cd53"},"vehicle_type_id":"4","last_reported":1733044154,"current_range_meters":9200,"station_id":"ce4bhah2rcd13ifvqei0","pricing_plan_id":"cebpf4jnsgd1na2vs0mg"},{"bike_id":"0f87cd88-4544-4bea-8a03-96998f957fbe","system_id":"levelo_inurba_marseille","lat":43.30437,"lon":5.38894,"is_reserved":false,"is_disabled":true,"rental_uris":{"android":"levelo://app?vid=0f87cd88-4544-4bea-8a03-96998f957fbe","ios":"levelo://app?vid=0f87cd88-4544-4bea-8a03-96998f957fbe"},"vehicle_type_id":"4","last_reported":1733044154,"current_range_meters":0,"station_id":"ce4bgk12rcd13ifvqbi0","pricing_plan_id":"cebpf4jnsgd1na2vs0mg"},{"bike_id":"dd286089-a453-43dc-a80c-4c3f6f42092c","system_id":"levelo_inurba_marseille","lat":43.29624,"lon":5.37164,"is_reserved":false,"is_disabled":false,"rental_uris":{"android":"levelo://app?vid=dd286089-a453-43dc-a80c-4c3f6f42092c","ios":"levelo://app?vid=dd286089-a453-43dc-a80c-4c3f6f42092c"},"vehicle_type_id":"4","last_reported":1733044154,"current_range_meters":38800,"station_id":"ce4bgnh2rcd13ifvqc0g","pricing_plan_id":"cebpf4jnsgd1na2vs0mg"},{"bike_id":"f1f635b4-0a6b-4ee6-903a-41289ec89338","system_id":"levelo_inurba_marseille","lat":43.28109,"lon":5.37838,"is_reserved":false,"is_disabled":false,"rental_uris":{"android":"levelo://app?vid=f1f635b4-0a6b-4ee6-903a-41289ec89338","ios":"levelo://app?vid=f1f635b4-0a6b-4ee6-903a-41289ec89338"},"vehicle_type_id":"4","last_reported":1733044154,"current_range_meters":14400,"station_id":"ce4bha12rcd13ifvqee0","pricing_plan_id":"cebpf4jnsgd1na2vs0mg"},{"bike_id":"f8fbba96-238c-4d39-8a28-6a51f5b83e5f","system_id":"levelo_inurba_marseille","lat":43.30902,"lon":5.36843,"is_reserved":false,"is_disabled":false,"rental_uris":{"android":"levelo://app?vid=f8fbba96-238c-4d39-8a28-6a51f5b83e5f","ios":"levelo://app?vid=f8fbba96-238c-4d39-8a28-6a51f5b83e5f"},"vehicle_type_id":"4","last_reported":1733044154,"current_range_meters":38400,"station_id":"ce4bgn92rcd13ifvqbvg","pricing_plan_id":"cebpf4jnsgd1na2vs0mg"},{"bike_id":"d9b65755-777a-471e-af75-f95e32f0a46b","system_id":"levelo_inurba_marseille","lat":43.308836,"lon":5.371944,"is_reserved":false,"is_disabled":false,"rental_uris":{"android":"levelo://app?vid=d9b65755-777a-471e-af75-f95e32f0a46b","ios":"levelo://app?vid=d9b65755-777a-471e-af75-f95e32f0a46b"},"vehicle_type_id":"4","last_reported":1733044154,"current_range_meters":36000,"station_id":"ce4bguh2rcd13ifvqckg","pricing_plan_id":"cebpf4jnsgd1na2vs0mg"},{"bike_id":"f90c55ca-bd64-494b-972d-6e3fa8cd7868","system_id":"levelo_inurba_marseille","lat":43.28152,"lon":5.42638,"is_reserved":false,"is_disabled":false,"rental_uris":{"android":"levelo://app?vid=f90c55ca-bd64-494b-972d-6e3fa8cd7868","ios":"levelo://app?vid=f90c55ca-bd64-494b-972d-6e3fa8cd7868"},"vehicle_type_id":"4","last_reported":1733044154,"current_range_meters":39200,"station_id":"ce4bhnh2rcd13ifvqgug","pricing_plan_id":"cebpf4jnsgd1na2vs0mg"},{"bike_id":"06e6470a-e7c6-43e1-8faf-2131a4d6a529","system_id":"levelo_inurba_marseille","lat":43.23185,"lon":5.39977,"is_reserved":false,"is_disabled":false,"rental_uris":{"android":"levelo://app?vid=06e6470a-e7c6-43e1-8faf-2131a4d6a529","ios":"levelo://app?vid=06e6470a-e7c6-43e1-8faf-2131a4d6a529"},"vehicle_type_id":"4","last_reported":1733044154,"current_range_meters":39200,"station_id":"ce4bhn12rcd13ifvqgqg","pricing_plan_id":"cebpf4jnsgd1na2vs0mg"},{"bike_id":"6d8772e0-ce0f-4ed1-ba3d-d03384e956b3","system_id":"levelo_inurba_marseille","lat":43.29187,"lon":5.35809,"is_reserved":false,"is_disabled":false,"rental_uris":{"android":"levelo://app?vid=6d8772e0-ce0f-4ed1-ba3d-d03384e956b3","ios":"levelo://app?vid=6d8772e0-ce0f-4ed1-ba3d-d03384e956b3"},"vehicle_type_id":"4","last_reported":1733044154,"current_range_meters":39200,"station_id":"ce4bhb12rcd13ifvqel0","pricing_plan_id":"cebpf4jnsgd1na2vs0mg"},{"bike_id":"fbe816da-d659-4158-b433-dfaba8e29b1d","system_id":"levelo_inurba_marseille","lat":43.32476,"lon":5.36567,"is_reserved":false,"is_disabled":false,"rental_uris":{"android":"levelo://app?vid=fbe816da-d659-4158-b433-dfaba8e29b1d","ios":"levelo://app?vid=fbe816da-d659-4158-b433-dfaba8e29b1d"},"vehicle_type_id":"4","last_reported":1733044154,"current_range_meters":26800,"station_id":"ce4bhs12rcd13ifvqhvg","pricing_plan_id":"cebpf4jnsgd1na2vs0mg"},{"bike_id":"b535dfd0-ec01-4a13-996f-71245b6113cc","system_id":"levelo_inurba_marseille","lat":43.27979,"lon":5.4123,"is_reserved":false,"is_disabled":true,"rental_uris":{"android":"levelo://app?vid=b535dfd0-ec01-4a13-996f-71245b6113cc","ios":"levelo://app?vid=b535dfd0-ec01-4a13-996f-71245b6113cc"},"vehicle_type_id":"4","last_reported":1733044154,"current_range_meters":0,"station_id":"","pricing_plan_id":"cebpf4jnsgd1na2vs0mg"},{"bike_id":"3509e33d-c67e-427e-8254-df53d2cef4bd","system_id":"levelo_inurba_marseille","lat":43.27901,"lon":5.38002,"is_reserved":false,"is_disabled":false,"rental_uris":{"android":"levelo://app?vid=3509e33d-c67e-427e-8254-df53d2cef4bd","ios":"levelo://app?vid=3509e33d-c67e-427e-8254-df53d2cef4bd"},"vehicle_type_id":"4","last_reported":1733044154,"current_range_meters":10800,"station_id":"ce4bhf92rcd13ifvqf50","pricing_plan_id":"cebpf4jnsgd1na2vs0mg"},{"bike_id":"39b3f021-df75-4cd6-8b4e-a707899d7c80","system_id":"levelo_inurba_marseille","lat":43.281,"lon":5.37834,"is_reserved":false,"is_disabled":false,"rental_uris":{"android":"levelo://app?vid=39b3f021-df75-4cd6-8b4e-a707899d7c80","ios":"levelo://app?vid=39b3f021-df75-4cd6-8b4e-a707899d7c80"},"vehicle_type_id":"4","last_reported":1733044154,"current_range_meters":11600,"station_id":"ce4bha12rcd13ifvqee0","pricing_plan_id":"cebpf4jnsgd1na2vs0mg"},{"bike_id":"40434932-5dd8-42e9-b12e-d6e766c8ecf2","system_id":"levelo_inurba_marseille","lat":43.29843,"lon":5.36263,"is_reserved":false,"is_disabled":false,"rental_uris":{"android":"levelo://app?vid=40434932-5dd8-42e9-b12e-d6e766c8ecf2","ios":"levelo://app?vid=40434932-5dd8-42e9-b12e-d6e766c8ecf2"},"vehicle_type_id":"4","last_reported":1733044154,"current_range_meters":9600,"station_id":"ce4bgpp2rcd13ifvqc3g","pricing_plan_id":"cebpf4jnsgd1na2vs0mg"},{"bike_id":"b642d79a-bd2c-495a-acdd-099583f67bf5","system_id":"levelo_inurba_marseille","lat":43.32292,"lon":5.38274,"is_reserved":false,"is_disabled":false,"rental_uris":{"android":"levelo://app?vid=b642d79a-bd2c-495a-acdd-099583f67bf5","ios":"levelo://app?vid=b642d79a-bd2c-495a-acdd-099583f67bf5"},"vehicle_type_id":"4","last_reported":1733044154,"current_range_meters":27200,"station_id":"ce4bhr12rcd13ifvqhqg","pricing_plan_id":"cebpf4jnsgd1na2vs0mg"},{"bike_id":"f1b713d6-3626-4544-8000-fcacd6baab4f","system_id":"levelo_inurba_marseille","lat":43.30889,"lon":5.39653,"is_reserved":false,"is_disabled":false,"rental_uris":{"android":"levelo://app?vid=f1b713d6-3626-4544-8000-fcacd6baab4f","ios":"levelo://app?vid=f1b713d6-3626-4544-8000-fcacd6baab4f"},"vehicle_type_id":"4","last_reported":1733044154,"current_range_meters":27200,"station_id":"ce4bh012rcd13ifvqcv0","pricing_plan_id":"cebpf4jnsgd1na2vs0mg"},{"bike_id":"aad4be0a-2a0d-4e6a-bfa0-4d4086eb2d91","system_id":"levelo_inurba_marseille","lat":43.23157,"lon":5.43705,"is_reserved":false,"is_disabled":false,"rental_uris":{"android":"levelo://app?vid=aad4be0a-2a0d-4e6a-bfa0-4d4086eb2d91","ios":"levelo://app?vid=aad4be0a-2a0d-4e6a-bfa0-4d4086eb2d91"},"vehicle_type_id":"4","last_reported":1733044154,"current_range_meters":38000,"station_id":"ce4bhmp2rcd13ifvqgog","pricing_plan_id":"cebpf4jnsgd1na2vs0mg"},{"bike_id":"2ebf3b3c-662f-41a2-b8dc-68990b8b5b78","system_id":"levelo_inurba_marseille","lat":43.27075,"lon":5.4228,"is_reserved":false,"is_disabled":false,"rental_uris":{"android":"levelo://app?vid=2ebf3b3c-662f-41a2-b8dc-68990b8b5b78","ios":"levelo://app?vid=2ebf3b3c-662f-41a2-b8dc-68990b8b5b78"},"vehicle_type_id":"4","last_reported":1733044154,"current_range_meters":11600,"station_id":"ce4bhk92rcd13ifvqgb0","pricing_plan_id":"cebpf4jnsgd1na2vs0mg"},{"bike_id":"5b9d6f48-f6d1-42ec-91ce-2705b20346f7","system_id":"levelo_inurba_marseille","lat":43.2763,"lon":5.36115,"is_reserved":false,"is_disabled":true,"rental_uris":{"android":"levelo://app?vid=5b9d6f48-f6d1-42ec-91ce-2705b20346f7","ios":"levelo://app?vid=5b9d6f48-f6d1-42ec-91ce-2705b20346f7"},"vehicle_type_id":"4","last_reported":1733044154,"current_range_meters":0,"station_id":"ce4bgj92rcd13ifvqbe0","pricing_plan_id":"cebpf4jnsgd1na2vs0mg"},{"bike_id":"dfae53f2-2072-45ad-83ba-eb288c672871","system_id":"levelo_inurba_marseille","lat":43.30887,"lon":5.37178,"is_reserved":false,"is_disabled":false,"rental_uris":{"android":"levelo://app?vid=dfae53f2-2072-45ad-83ba-eb288c672871","ios":"levelo://app?vid=dfae53f2-2072-45ad-83ba-eb288c672871"},"vehicle_type_id":"4","last_reported":1733044154,"current_range_meters":39200,"station_id":"ce4bguh2rcd13ifvqckg","pricing_plan_id":"cebpf4jnsgd1na2vs0mg"},{"bike_id":"0174841e-8011-4a7b-bd18-480101bee765","system_id":"levelo_inurba_marseille","lat":43.23958,"lon":5.36623,"is_reserved":false,"is_disabled":true,"rental_uris":{"android":"levelo://app?vid=0174841e-8011-4a7b-bd18-480101bee765","ios":"levelo://app?vid=0174841e-8011-4a7b-bd18-480101bee765"},"vehicle_type_id":"4","last_reported":1733044154,"current_range_meters":0,"station_id":"ce4bhi12rcd13ifvqfp0","pricing_plan_id":"cebpf4jnsgd1na2vs0mg"},{"bike_id":"abd4e240-4cd5-4da9-aa24-21ea9f0b636e","system_id":"levelo_inurba_marseille","lat":43.30142,"lon":5.39853,"is_reserved":false,"is_disabled":false,"rental_uris":{"android":"levelo://app?vid=abd4e240-4cd5-4da9-aa24-21ea9f0b636e","ios":"levelo://app?vid=abd4e240-4cd5-4da9-aa24-21ea9f0b636e"},"vehicle_type_id":"4","last_reported":1733044154,"current_range_meters":24800,"station_id":"ce4bh0h2rcd13ifvqd40","pricing_plan_id":"cebpf4jnsgd1na2vs0mg"},{"bike_id":"3132d82f-5a0a-422f-b9c5-4430ddcd57fd","system_id":"levelo_inurba_marseille","lat":43.28853,"lon":5.39311,"is_reserved":false,"is_disabled":false,"rental_uris":{"android":"levelo://app?vid=3132d82f-5a0a-422f-b9c5-4430ddcd57fd","ios":"levelo://app?vid=3132d82f-5a0a-422f-b9c5-4430ddcd57fd"},"vehicle_type_id":"4","last_reported":1733044154,"current_range_meters":24400,"station_id":"ce4bh2p2rcd13ifvqdi0","pricing_plan_id":"cebpf4jnsgd1na2vs0mg"},{"bike_id":"a233b25b-869e-422b-bf5e-63d3d8ff686f","system_id":"levelo_inurba_marseille","lat":43.30929,"lon":5.40143,"is_reserved":false,"is_disabled":true,"rental_uris":{"android":"levelo://app?vid=a233b25b-869e-422b-bf5e-63d3d8ff686f","ios":"levelo://app?vid=a233b25b-869e-422b-bf5e-63d3d8ff686f"},"vehicle_type_id":"4","last_reported":1733044154,"current_range_meters":37600,"station_id":"ce4bgvp2rcd13ifvqct0","pricing_plan_id":"cebpf4jnsgd1na2vs0mg"},{"bike_id":"ca06fb5f-11e1-4d8e-8f6e-d8bf571b0044","system_id":"levelo_inurba_marseille","lat":43.31118,"lon":5.3844,"is_reserved":false,"is_disabled":false,"rental_uris":{"android":"levelo://app?vid=ca06fb5f-11e1-4d8e-8f6e-d8bf571b0044","ios":"levelo://app?vid=ca06fb5f-11e1-4d8e-8f6e-d8bf571b0044"},"vehicle_type_id":"4","last_reported":1733044154,"current_range_meters":16400,"station_id":"","pricing_plan_id":"cebpf4jnsgd1na2vs0mg"},{"bike_id":"d3d123b9-bf77-4e17-859d-89236002e59e","system_id":"levelo_inurba_marseille","lat":43.32356,"lon":5.36757,"is_reserved":false,"is_disabled":false,"rental_uris":{"android":"levelo://app?vid=d3d123b9-bf77-4e17-859d-89236002e59e","ios":"levelo://app?vid=d3d123b9-bf77-4e17-859d-89236002e59e"},"vehicle_type_id":"4","last_reported":1733044154,"current_range_meters":6000,"station_id":"ce4bhsh2rcd13ifvqi2g","pricing_plan_id":"cebpf4jnsgd1na2vs0mg"},{"bike_id":"0533f051-87f1-4451-b063-6e24b57e0d4f","system_id":"levelo_inurba_marseille","lat":43.29722,"lon":5.366,"is_reserved":false,"is_disabled":false,"rental_uris":{"android":"levelo://app?vid=0533f051-87f1-4451-b063-6e24b57e0d4f","ios":"levelo://app?vid=0533f051-87f1-4451-b063-6e24b57e0d4f"},"vehicle_type_id":"4","last_reported":1733044154,"current_range_meters":39200,"station_id":"ce4bgn12rcd13ifvqbt0","pricing_plan_id":"cebpf4jnsgd1na2vs0mg"},{"bike_id":"7db095fe-335f-455d-9456-2582bbc72d93","system_id":"levelo_inurba_marseille","lat":43.29906,"lon":5.4369,"is_reserved":false,"is_disabled":false,"rental_uris":{"android":"levelo://app?vid=7db095fe-335f-455d-9456-2582bbc72d93","ios":"levelo://app?vid=7db095fe-335f-455d-9456-2582bbc72d93"},"vehicle_type_id":"4","last_reported":1733044154,"current_range_meters":18800,"station_id":"ce4bhpp2rcd13ifvqhfg","pricing_plan_id":"cebpf4jnsgd1na2vs0mg"},{"bike_id":"a61e9bdc-1cbf-472b-ab42-8c2f22e6e1a6","system_id":"levelo_inurba_marseille","lat":43.29626,"lon":5.37729,"is_reserved":false,"is_disabled":false,"rental_uris":{"android":"levelo://app?vid=a61e9bdc-1cbf-472b-ab42-8c2f22e6e1a6","ios":"levelo://app?vid=a61e9bdc-1cbf-472b-ab42-8c2f22e6e1a6"},"vehicle_type_id":"4","last_reported":1733044154,"current_range_meters":38800,"station_id":"ce4bgi92rcd13ifvqb90","pricing_plan_id":"cebpf4jnsgd1na2vs0mg"},{"bike_id":"ddbda7d5-c035-4416-b36b-d29a627465ea","system_id":"levelo_inurba_marseille","lat":43.25006,"lon":5.38922,"is_reserved":false,"is_disabled":false,"rental_uris":{"android":"levelo://app?vid=ddbda7d5-c035-4416-b36b-d29a627465ea","ios":"levelo://app?vid=ddbda7d5-c035-4416-b36b-d29a627465ea"},"vehicle_type_id":"4","last_reported":1733044154,"current_range_meters":40000,"station_id":"ce4bhgp2rcd13ifvqfd0","pricing_plan_id":"cebpf4jnsgd1na2vs0mg"},{"bike_id":"95d72828-3312-4aff-bc4e-fb947427dc28","system_id":"levelo_inurba_marseille","lat":43.30907,"lon":5.36844,"is_reserved":false,"is_disabled":false,"rental_uris":{"android":"levelo://app?vid=95d72828-3312-4aff-bc4e-fb947427dc28","ios":"levelo://app?vid=95d72828-3312-4aff-bc4e-fb947427dc28"},"vehicle_type_id":"4","last_reported":1733044154,"current_range_meters":38800,"station_id":"ce4bgn92rcd13ifvqbvg","pricing_plan_id":"cebpf4jnsgd1na2vs0mg"},{"bike_id":"936c1587-a2e2-4ba6-b45d-aae2e4b4059b","system_id":"levelo_inurba_marseille","lat":43.32043,"lon":5.41539,"is_reserved":false,"is_disabled":false,"rental_uris":{"android":"levelo://app?vid=936c1587-a2e2-4ba6-b45d-aae2e4b4059b","ios":"levelo://app?vid=936c1587-a2e2-4ba6-b45d-aae2e4b4059b"},"vehicle_type_id":"4","last_reported":1733044154,"current_range_meters":39200,"station_id":"ce4bhq92rcd13ifvqhkg","pricing_plan_id":"cebpf4jnsgd1na2vs0mg"},{"bike_id":"bab2c541-cee6-43ec-9133-02677927cda0","system_id":"levelo_inurba_marseille","lat":43.30138,"lon":5.37421,"is_reserved":false,"is_disabled":false,"rental_uris":{"android":"levelo://app?vid=bab2c541-cee6-43ec-9133-02677927cda0","ios":"levelo://app?vid=bab2c541-cee6-43ec-9133-02677927cda0"},"vehicle_type_id":"4","last_reported":1733044154,"current_range_meters":30800,"station_id":"ce4bgs92rcd13ifvqcc0","pricing_plan_id":"cebpf4jnsgd1na2vs0mg"},{"bike_id":"42dff1c4-6053-46d6-ab14-2b44877e8b55","system_id":"levelo_inurba_marseille","lat":43.28443,"lon":5.39188,"is_reserved":false,"is_disabled":true,"rental_uris":{"android":"levelo://app?vid=42dff1c4-6053-46d6-ab14-2b44877e8b55","ios":"levelo://app?vid=42dff1c4-6053-46d6-ab14-2b44877e8b55"},"vehicle_type_id":"4","last_reported":1733044154,"current_range_meters":38000,"station_id":"ce4bhoh2rcd13ifvqh5g","pricing_plan_id":"cebpf4jnsgd1na2vs0mg"},{"bike_id":"27d13c7a-6338-48dc-81dd-618b3e4ff60b","system_id":"levelo_inurba_marseille","lat":43.28355,"lon":5.38638,"is_reserved":false,"is_disabled":true,"rental_uris":{"android":"levelo://app?vid=27d13c7a-6338-48dc-81dd-618b3e4ff60b","ios":"levelo://app?vid=27d13c7a-6338-48dc-81dd-618b3e4ff60b"},"vehicle_type_id":"4","last_reported":1733044154,"current_range_meters":36000,"station_id":"ce4bh492rcd13ifvqdvg","pricing_plan_id":"cebpf4jnsgd1na2vs0mg"},{"bike_id":"4c8314eb-3d1a-47ee-9e78-736f194ad865","system_id":"levelo_inurba_marseille","lat":43.260659,"lon":5.393921,"is_reserved":false,"is_disabled":false,"rental_uris":{"android":"levelo://app?vid=4c8314eb-3d1a-47ee-9e78-736f194ad865","ios":"levelo://app?vid=4c8314eb-3d1a-47ee-9e78-736f194ad865"},"vehicle_type_id":"4","last_reported":1733044154,"current_range_meters":10800,"station_id":"ce4bhh92rcd13ifvqfj0","pricing_plan_id":"cebpf4jnsgd1na2vs0mg"},{"bike_id":"13151158-c4ba-49c7-a920-9a61c5dd56f2","system_id":"levelo_inurba_marseille","lat":43.23954,"lon":5.36633,"is_reserved":false,"is_disabled":true,"rental_uris":{"android":"levelo://app?vid=13151158-c4ba-49c7-a920-9a61c5dd56f2","ios":"levelo://app?vid=13151158-c4ba-49c7-a920-9a61c5dd56f2"},"vehicle_type_id":"4","last_reported":1733044154,"current_range_meters":0,"station_id":"ce4bhi12rcd13ifvqfp0","pricing_plan_id":"cebpf4jnsgd1na2vs0mg"},{"bike_id":"3a2a429d-f97f-4da3-84a2-299e2f335f2b","system_id":"levelo_inurba_marseille","lat":43.29275,"lon":5.36851,"is_reserved":false,"is_disabled":false,"rental_uris":{"android":"levelo://app?vid=3a2a429d-f97f-4da3-84a2-299e2f335f2b","ios":"levelo://app?vid=3a2a429d-f97f-4da3-84a2-299e2f335f2b"},"vehicle_type_id":"4","last_reported":1733044154,"current_range_meters":38000,"station_id":"ce4bhbp2rcd13ifvqesg","pricing_plan_id":"cebpf4jnsgd1na2vs0mg"},{"bike_id":"acf4a756-d86a-4aba-99d9-8148b7db3378","system_id":"levelo_inurba_marseille","lat":43.27996,"lon":5.39981,"is_reserved":false,"is_disabled":true,"rental_uris":{"android":"levelo://app?vid=acf4a756-d86a-4aba-99d9-8148b7db3378","ios":"levelo://app?vid=acf4a756-d86a-4aba-99d9-8148b7db3378"},"vehicle_type_id":"4","last_reported":1733044154,"current_range_meters":0,"station_id":"ce4bho92rcd13ifvqh4g","pricing_plan_id":"cebpf4jnsgd1na2vs0mg"},{"bike_id":"4018fb8f-45f3-45d0-a054-90a03257f3a3","system_id":"levelo_inurba_marseille","lat":43.28331,"lon":5.40524,"is_reserved":false,"is_disabled":false,"rental_uris":{"android":"levelo://app?vid=4018fb8f-45f3-45d0-a054-90a03257f3a3","ios":"levelo://app?vid=4018fb8f-45f3-45d0-a054-90a03257f3a3"},"vehicle_type_id":"4","last_reported":1733044154,"current_range_meters":24000,"station_id":"","pricing_plan_id":"cebpf4jnsgd1na2vs0mg"},{"bike_id":"00380040-c3b4-4225-abdf-20f91c43c884","system_id":"levelo_inurba_marseille","lat":43.27896,"lon":5.38025,"is_reserved":false,"is_disabled":false,"rental_uris":{"android":"levelo://app?vid=00380040-c3b4-4225-abdf-20f91c43c884","ios":"levelo://app?vid=00380040-c3b4-4225-abdf-20f91c43c884"},"vehicle_type_id":"4","last_reported":1733044154,"current_range_meters":8400,"station_id":"ce4bhf92rcd13ifvqf50","pricing_plan_id":"cebpf4jnsgd1na2vs0mg"},{"bike_id":"18299652-2a9d-4717-aa6c-9d08b0165b52","system_id":"levelo_inurba_marseille","lat":43.33024,"lon":5.39038,"is_reserved":false,"is_disabled":false,"rental_uris":{"android":"levelo://app?vid=18299652-2a9d-4717-aa6c-9d08b0165b52","ios":"levelo://app?vid=18299652-2a9d-4717-aa6c-9d08b0165b52"},"vehicle_type_id":"4","last_reported":1733044154,"current_range_meters":38800,"station_id":"ce4bhr92rcd13ifvqhrg","pricing_plan_id":"cebpf4jnsgd1na2vs0mg"},{"bike_id":"e583fbe0-0561-4674-b1d5-a7f38707bfaf","system_id":"levelo_inurba_marseille","lat":43.29256,"lon":5.40906,"is_reserved":false,"is_disabled":false,"rental_uris":{"android":"levelo://app?vid=e583fbe0-0561-4674-b1d5-a7f38707bfaf","ios":"levelo://app?vid=e583fbe0-0561-4674-b1d5-a7f38707bfaf"},"vehicle_type_id":"4","last_reported":1733044154,"current_range_meters":8000,"station_id":"ce4bh192rcd13ifvqdc0","pricing_plan_id":"cebpf4jnsgd1na2vs0mg"},{"bike_id":"e0161261-fd33-45e3-8038-51d77778a6b0","system_id":"levelo_inurba_marseille","lat":43.30651,"lon":5.40074,"is_reserved":false,"is_disabled":true,"rental_uris":{"android":"levelo://app?vid=e0161261-fd33-45e3-8038-51d77778a6b0","ios":"levelo://app?vid=e0161261-fd33-45e3-8038-51d77778a6b0"},"vehicle_type_id":"4","last_reported":1733044154,"current_range_meters":36800,"station_id":"ce4bh112rcd13ifvqda0","pricing_plan_id":"cebpf4jnsgd1na2vs0mg"},{"bike_id":"1c60f751-c76e-427a-9405-56fb50489dfd","system_id":"levelo_inurba_marseille","lat":43.30911,"lon":5.36848,"is_reserved":false,"is_disabled":false,"rental_uris":{"android":"levelo://app?vid=1c60f751-c76e-427a-9405-56fb50489dfd","ios":"levelo://app?vid=1c60f751-c76e-427a-9405-56fb50489dfd"},"vehicle_type_id":"4","last_reported":1733044154,"current_range_meters":38400,"station_id":"ce4bgn92rcd13ifvqbvg","pricing_plan_id":"cebpf4jnsgd1na2vs0mg"},{"bike_id":"f4d19859-dbfb-4982-b796-c8007145699f","system_id":"levelo_inurba_marseille","lat":43.28619,"lon":5.35099,"is_reserved":false,"is_disabled":false,"rental_uris":{"android":"levelo://app?vid=f4d19859-dbfb-4982-b796-c8007145699f","ios":"levelo://app?vid=f4d19859-dbfb-4982-b796-c8007145699f"},"vehicle_type_id":"4","last_reported":1733044154,"current_range_meters":16000,"station_id":"ce4bhch2rcd13ifvqeug","pricing_plan_id":"cebpf4jnsgd1na2vs0mg"},{"bike_id":"748823b5-89d6-4a52-bcc0-c1c0a4beb5f8","system_id":"levelo_inurba_marseille","lat":43.3088,"lon":5.39633,"is_reserved":false,"is_disabled":false,"rental_uris":{"android":"levelo://app?vid=748823b5-89d6-4a52-bcc0-c1c0a4beb5f8","ios":"levelo://app?vid=748823b5-89d6-4a52-bcc0-c1c0a4beb5f8"},"vehicle_type_id":"4","last_reported":1733044154,"current_range_meters":38400,"station_id":"ce4bh012rcd13ifvqcv0","pricing_plan_id":"cebpf4jnsgd1na2vs0mg"},{"bike_id":"e5dcc371-a5fc-416f-b7b7-078bac09ada1","system_id":"levelo_inurba_marseille","lat":43.29257,"lon":5.36864,"is_reserved":false,"is_disabled":false,"rental_uris":{"android":"levelo://app?vid=e5dcc371-a5fc-416f-b7b7-078bac09ada1","ios":"levelo://app?vid=e5dcc371-a5fc-416f-b7b7-078bac09ada1"},"vehicle_type_id":"4","last_reported":1733044154,"current_range_meters":26800,"station_id":"ce4bhbp2rcd13ifvqesg","pricing_plan_id":"cebpf4jnsgd1na2vs0mg"},{"bike_id":"bfb856cf-7615-4aa7-a7e4-859a62ce8248","system_id":"levelo_inurba_marseille","lat":43.33766,"lon":5.37428,"is_reserved":false,"is_disabled":false,"rental_uris":{"android":"levelo://app?vid=bfb856cf-7615-4aa7-a7e4-859a62ce8248","ios":"levelo://app?vid=bfb856cf-7615-4aa7-a7e4-859a62ce8248"},"vehicle_type_id":"4","last_reported":1733044154,"current_range_meters":12000,"station_id":"","pricing_plan_id":"cebpf4jnsgd1na2vs0mg"},{"bike_id":"29283b72-b5e0-4c46-8811-89331fd7b8d3","system_id":"levelo_inurba_marseille","lat":43.29791,"lon":5.38115,"is_reserved":false,"is_disabled":false,"rental_uris":{"android":"levelo://app?vid=29283b72-b5e0-4c46-8811-89331fd7b8d3","ios":"levelo://app?vid=29283b72-b5e0-4c46-8811-89331fd7b8d3"},"vehicle_type_id":"4","last_reported":1733044154,"current_range_meters":24800,"station_id":"ce4bgip2rcd13ifvqbb0","pricing_plan_id":"cebpf4jnsgd1na2vs0mg"},{"bike_id":"d6cfaa6e-efba-454d-bd60-99d64378f220","system_id":"levelo_inurba_marseille","lat":43.3056,"lon":5.3655,"is_reserved":false,"is_disabled":false,"rental_uris":{"android":"levelo://app?vid=d6cfaa6e-efba-454d-bd60-99d64378f220","ios":"levelo://app?vid=d6cfaa6e-efba-454d-bd60-99d64378f220"},"vehicle_type_id":"4","last_reported":1733044154,"current_range_meters":29600,"station_id":"ce4bgs12rcd13ifvqcag","pricing_plan_id":"cebpf4jnsgd1na2vs0mg"},{"bike_id":"68f984c9-51a6-4902-b463-f264f9fe3444","system_id":"levelo_inurba_marseille","lat":43.32542,"lon":5.41441,"is_reserved":false,"is_disabled":false,"rental_uris":{"android":"levelo://app?vid=68f984c9-51a6-4902-b463-f264f9fe3444","ios":"levelo://app?vid=68f984c9-51a6-4902-b463-f264f9fe3444"},"vehicle_type_id":"4","last_reported":1733044154,"current_range_meters":38400,"station_id":"ce4bhq12rcd13ifvqhhg","pricing_plan_id":"cebpf4jnsgd1na2vs0mg"},{"bike_id":"f6406f66-5153-40ce-bc97-7cea00959e6b","system_id":"levelo_inurba_marseille","lat":43.31269,"lon":5.40152,"is_reserved":false,"is_disabled":true,"rental_uris":{"android":"levelo://app?vid=f6406f66-5153-40ce-bc97-7cea00959e6b","ios":"levelo://app?vid=f6406f66-5153-40ce-bc97-7cea00959e6b"},"vehicle_type_id":"4","last_reported":1733044154,"current_range_meters":0,"station_id":"ce4bh092rcd13ifvqd30","pricing_plan_id":"cebpf4jnsgd1na2vs0mg"},{"bike_id":"e6980240-8a89-45b9-99d9-a7b5e71b5658","system_id":"levelo_inurba_marseille","lat":43.29051,"lon":5.39938,"is_reserved":false,"is_disabled":false,"rental_uris":{"android":"levelo://app?vid=e6980240-8a89-45b9-99d9-a7b5e71b5658","ios":"levelo://app?vid=e6980240-8a89-45b9-99d9-a7b5e71b5658"},"vehicle_type_id":"4","last_reported":1733044154,"current_range_meters":38000,"station_id":"ce4bh392rcd13ifvqdm0","pricing_plan_id":"cebpf4jnsgd1na2vs0mg"},{"bike_id":"ce20c844-7914-4b0b-b70c-e7bdec0d808d","system_id":"levelo_inurba_marseille","lat":43.259372,"lon":5.409007,"is_reserved":false,"is_disabled":false,"rental_uris":{"android":"levelo://app?vid=ce20c844-7914-4b0b-b70c-e7bdec0d808d","ios":"levelo://app?vid=ce20c844-7914-4b0b-b70c-e7bdec0d808d"},"vehicle_type_id":"4","last_reported":1733044154,"current_range_meters":13600,"station_id":"ce4bhm92rcd13ifvqglg","pricing_plan_id":"cebpf4jnsgd1na2vs0mg"},{"bike_id":"e6d3d061-6cef-4ef8-8617-2120150fda9b","system_id":"levelo_inurba_marseille","lat":43.28361,"lon":5.38628,"is_reserved":false,"is_disabled":true,"rental_uris":{"android":"levelo://app?vid=e6d3d061-6cef-4ef8-8617-2120150fda9b","ios":"levelo://app?vid=e6d3d061-6cef-4ef8-8617-2120150fda9b"},"vehicle_type_id":"4","last_reported":1733044154,"current_range_meters":12800,"station_id":"ce4bh492rcd13ifvqdvg","pricing_plan_id":"cebpf4jnsgd1na2vs0mg"},{"bike_id":"58f5d99c-c01f-4bd1-ac20-b06556b13d63","system_id":"levelo_inurba_marseille","lat":43.30808,"lon":5.43522,"is_reserved":false,"is_disabled":false,"rental_uris":{"android":"levelo://app?vid=58f5d99c-c01f-4bd1-ac20-b06556b13d63","ios":"levelo://app?vid=58f5d99c-c01f-4bd1-ac20-b06556b13d63"},"vehicle_type_id":"4","last_reported":1733044154,"current_range_meters":10800,"station_id":"ce4bhph2rcd13ifvqheg","pricing_plan_id":"cebpf4jnsgd1na2vs0mg"},{"bike_id":"e48715d5-5e4f-448a-9704-784ee3ea3c25","system_id":"levelo_inurba_marseille","lat":43.249991,"lon":5.38936,"is_reserved":false,"is_disabled":false,"rental_uris":{"android":"levelo://app?vid=e48715d5-5e4f-448a-9704-784ee3ea3c25","ios":"levelo://app?vid=e48715d5-5e4f-448a-9704-784ee3ea3c25"},"vehicle_type_id":"4","last_reported":1733044154,"current_range_meters":9200,"station_id":"ce4bhgp2rcd13ifvqfd0","pricing_plan_id":"cebpf4jnsgd1na2vs0mg"},{"bike_id":"5cfec5ab-e5a4-4a92-894d-086de0bfc295","system_id":"levelo_inurba_marseille","lat":43.24802,"lon":5.37451,"is_reserved":false,"is_disabled":false,"rental_uris":{"android":"levelo://app?vid=5cfec5ab-e5a4-4a92-894d-086de0bfc295","ios":"levelo://app?vid=5cfec5ab-e5a4-4a92-894d-086de0bfc295"},"vehicle_type_id":"4","last_reported":1733044154,"current_range_meters":39200,"station_id":"ce4bhgh2rcd13ifvqfb0","pricing_plan_id":"cebpf4jnsgd1na2vs0mg"},{"bike_id":"f8d592a2-1761-4fc2-ae68-7688d9a28c14","system_id":"levelo_inurba_marseille","lat":43.27977,"lon":5.38724,"is_reserved":false,"is_disabled":true,"rental_uris":{"android":"levelo://app?vid=f8d592a2-1761-4fc2-ae68-7688d9a28c14","ios":"levelo://app?vid=f8d592a2-1761-4fc2-ae68-7688d9a28c14"},"vehicle_type_id":"4","last_reported":1733044154,"current_range_meters":0,"station_id":"ce4bhg12rcd13ifvqf80","pricing_plan_id":"cebpf4jnsgd1na2vs0mg"},{"bike_id":"240953f0-b7b0-454b-a5ce-7cb6500cf7ea","system_id":"levelo_inurba_marseille","lat":43.25089,"lon":5.39525,"is_reserved":false,"is_disabled":false,"rental_uris":{"android":"levelo://app?vid=240953f0-b7b0-454b-a5ce-7cb6500cf7ea","ios":"levelo://app?vid=240953f0-b7b0-454b-a5ce-7cb6500cf7ea"},"vehicle_type_id":"4","last_reported":1733044154,"current_range_meters":38000,"station_id":"ce4bhm12rcd13ifvqgkg","pricing_plan_id":"cebpf4jnsgd1na2vs0mg"},{"bike_id":"5e1e37c0-8410-4b39-b3ea-c00fd6371bc5","system_id":"levelo_inurba_marseille","lat":43.31758,"lon":5.36741,"is_reserved":false,"is_disabled":false,"rental_uris":{"android":"levelo://app?vid=5e1e37c0-8410-4b39-b3ea-c00fd6371bc5","ios":"levelo://app?vid=5e1e37c0-8410-4b39-b3ea-c00fd6371bc5"},"vehicle_type_id":"4","last_reported":1733044154,"current_range_meters":38800,"station_id":"","pricing_plan_id":"cebpf4jnsgd1na2vs0mg"},{"bike_id":"7dc2caec-37b5-482a-abad-d1d2f62e7e82","system_id":"levelo_inurba_marseille","lat":43.31261,"lon":5.37011,"is_reserved":false,"is_disabled":true,"rental_uris":{"android":"levelo://app?vid=7dc2caec-37b5-482a-abad-d1d2f62e7e82","ios":"levelo://app?vid=7dc2caec-37b5-482a-abad-d1d2f62e7e82"},"vehicle_type_id":"4","last_reported":1733044154,"current_range_meters":0,"station_id":"","pricing_plan_id":"cebpf4jnsgd1na2vs0mg"},{"bike_id":"91a889c2-d50e-47cd-8a8e-f2c145221a50","system_id":"levelo_inurba_marseille","lat":43.28658,"lon":5.36358,"is_reserved":false,"is_disabled":false,"rental_uris":{"android":"levelo://app?vid=91a889c2-d50e-47cd-8a8e-f2c145221a50","ios":"levelo://app?vid=91a889c2-d50e-47cd-8a8e-f2c145221a50"},"vehicle_type_id":"4","last_reported":1733044154,"current_range_meters":38000,"station_id":"ce4bhah2rcd13ifvqej0","pricing_plan_id":"cebpf4jnsgd1na2vs0mg"},{"bike_id":"d096a05a-f487-4e0d-9d29-6cd024c7c698","system_id":"levelo_inurba_marseille","lat":43.25003,"lon":5.3893,"is_reserved":false,"is_disabled":false,"rental_uris":{"android":"levelo://app?vid=d096a05a-f487-4e0d-9d29-6cd024c7c698","ios":"levelo://app?vid=d096a05a-f487-4e0d-9d29-6cd024c7c698"},"vehicle_type_id":"4","last_reported":1733044154,"current_range_meters":32000,"station_id":"ce4bhgp2rcd13ifvqfd0","pricing_plan_id":"cebpf4jnsgd1na2vs0mg"},{"bike_id":"9dd1fc98-a89e-437a-b707-6eb8b3c899e8","system_id":"levelo_inurba_marseille","lat":43.29042,"lon":5.35924,"is_reserved":false,"is_disabled":true,"rental_uris":{"android":"levelo://app?vid=9dd1fc98-a89e-437a-b707-6eb8b3c899e8","ios":"levelo://app?vid=9dd1fc98-a89e-437a-b707-6eb8b3c899e8"},"vehicle_type_id":"4","last_reported":1733044154,"current_range_meters":0,"station_id":"ce4bha92rcd13ifvqeg0","pricing_plan_id":"cebpf4jnsgd1na2vs0mg"},{"bike_id":"28a82196-100a-4883-b98e-31aeb1068b5e","system_id":"levelo_inurba_marseille","lat":43.296898,"lon":5.362547,"is_reserved":false,"is_disabled":false,"rental_uris":{"android":"levelo://app?vid=28a82196-100a-4883-b98e-31aeb1068b5e","ios":"levelo://app?vid=28a82196-100a-4883-b98e-31aeb1068b5e"},"vehicle_type_id":"4","last_reported":1733044154,"current_range_meters":33600,"station_id":"","pricing_plan_id":"cebpf4jnsgd1na2vs0mg"},{"bike_id":"aea6b7a8-fa3c-4842-89c6-693b08a99724","system_id":"levelo_inurba_marseille","lat":43.33771,"lon":5.37425,"is_reserved":false,"is_disabled":false,"rental_uris":{"android":"levelo://app?vid=aea6b7a8-fa3c-4842-89c6-693b08a99724","ios":"levelo://app?vid=aea6b7a8-fa3c-4842-89c6-693b08a99724"},"vehicle_type_id":"4","last_reported":1733044154,"current_range_meters":38800,"station_id":"","pricing_plan_id":"cebpf4jnsgd1na2vs0mg"},{"bike_id":"2b1b614c-c07a-46d9-abd3-6e17ee8872cb","system_id":"levelo_inurba_marseille","lat":43.28858,"lon":5.35839,"is_reserved":false,"is_disabled":false,"rental_uris":{"android":"levelo://app?vid=2b1b614c-c07a-46d9-abd3-6e17ee8872cb","ios":"levelo://app?vid=2b1b614c-c07a-46d9-abd3-6e17ee8872cb"},"vehicle_type_id":"4","last_reported":1733044154,"current_range_meters":32000,"station_id":"ce4bhb12rcd13ifvqem0","pricing_plan_id":"cebpf4jnsgd1na2vs0mg"},{"bike_id":"88c7bf8e-4811-46fd-b06d-1e00a7503400","system_id":"levelo_inurba_marseille","lat":43.25105,"lon":5.40319,"is_reserved":false,"is_disabled":true,"rental_uris":{"android":"levelo://app?vid=88c7bf8e-4811-46fd-b06d-1e00a7503400","ios":"levelo://app?vid=88c7bf8e-4811-46fd-b06d-1e00a7503400"},"vehicle_type_id":"4","last_reported":1733044154,"current_range_meters":0,"station_id":"ce4bhlh2rcd13ifvqgig","pricing_plan_id":"cebpf4jnsgd1na2vs0mg"},{"bike_id":"ff90587f-4b59-47e3-82d7-9ecb2f1bc4ef","system_id":"levelo_inurba_marseille","lat":43.32339,"lon":5.40616,"is_reserved":false,"is_disabled":false,"rental_uris":{"android":"levelo://app?vid=ff90587f-4b59-47e3-82d7-9ecb2f1bc4ef","ios":"levelo://app?vid=ff90587f-4b59-47e3-82d7-9ecb2f1bc4ef"},"vehicle_type_id":"4","last_reported":1733044154,"current_range_meters":38800,"station_id":"ce4bhq92rcd13ifvqhjg","pricing_plan_id":"cebpf4jnsgd1na2vs0mg"},{"bike_id":"1b4091b4-9da5-4e08-a623-15bd0eb83e75","system_id":"levelo_inurba_marseille","lat":43.29303,"lon":5.37183,"is_reserved":false,"is_disabled":true,"rental_uris":{"android":"levelo://app?vid=1b4091b4-9da5-4e08-a623-15bd0eb83e75","ios":"levelo://app?vid=1b4091b4-9da5-4e08-a623-15bd0eb83e75"},"vehicle_type_id":"4","last_reported":1733044154,"current_range_meters":7200,"station_id":"ce4bgh92rcd13ifvqb40","pricing_plan_id":"cebpf4jnsgd1na2vs0mg"},{"bike_id":"d943d960-7d9b-4964-9228-20089cd21664","system_id":"levelo_inurba_marseille","lat":43.32898,"lon":5.36439,"is_reserved":false,"is_disabled":false,"rental_uris":{"android":"levelo://app?vid=d943d960-7d9b-4964-9228-20089cd21664","ios":"levelo://app?vid=d943d960-7d9b-4964-9228-20089cd21664"},"vehicle_type_id":"4","last_reported":1733044154,"current_range_meters":16400,"station_id":"","pricing_plan_id":"cebpf4jnsgd1na2vs0mg"},{"bike_id":"01dd0f6c-5d7c-4e63-a161-668f65657b81","system_id":"levelo_inurba_marseille","lat":43.2293,"lon":5.35381,"is_reserved":false,"is_disabled":false,"rental_uris":{"android":"levelo://app?vid=01dd0f6c-5d7c-4e63-a161-668f65657b81","ios":"levelo://app?vid=01dd0f6c-5d7c-4e63-a161-668f65657b81"},"vehicle_type_id":"4","last_reported":1733044154,"current_range_meters":38000,"station_id":"cpo3532slgdg3j2ikp40","pricing_plan_id":"cebpf4jnsgd1na2vs0mg"},{"bike_id":"b0924600-8287-4199-b791-e13b75ba6670","system_id":"levelo_inurba_marseille","lat":43.311698,"lon":5.387171,"is_reserved":false,"is_disabled":false,"rental_uris":{"android":"levelo://app?vid=b0924600-8287-4199-b791-e13b75ba6670","ios":"levelo://app?vid=b0924600-8287-4199-b791-e13b75ba6670"},"vehicle_type_id":"4","last_reported":1733044154,"current_range_meters":17200,"station_id":"ce4bgv12rcd13ifvqcp0","pricing_plan_id":"cebpf4jnsgd1na2vs0mg"},{"bike_id":"a054c468-8cf6-4708-bfde-533f0a3e2365","system_id":"levelo_inurba_marseille","lat":43.30636,"lon":5.40071,"is_reserved":false,"is_disabled":false,"rental_uris":{"android":"levelo://app?vid=a054c468-8cf6-4708-bfde-533f0a3e2365","ios":"levelo://app?vid=a054c468-8cf6-4708-bfde-533f0a3e2365"},"vehicle_type_id":"4","last_reported":1733044154,"current_range_meters":39200,"station_id":"ce4bh112rcd13ifvqda0","pricing_plan_id":"cebpf4jnsgd1na2vs0mg"},{"bike_id":"b338592b-1494-4ba2-b9e8-9493dcc2b18a","system_id":"levelo_inurba_marseille","lat":43.26027,"lon":5.37552,"is_reserved":false,"is_disabled":false,"rental_uris":{"android":"levelo://app?vid=b338592b-1494-4ba2-b9e8-9493dcc2b18a","ios":"levelo://app?vid=b338592b-1494-4ba2-b9e8-9493dcc2b18a"},"vehicle_type_id":"4","last_reported":1733044154,"current_range_meters":28800,"station_id":"ce4bhgh2rcd13ifvqfa0","pricing_plan_id":"cebpf4jnsgd1na2vs0mg"},{"bike_id":"3fa7a75d-8677-4292-b8d3-8cce5ac0e9d8","system_id":"levelo_inurba_marseille","lat":43.2958,"lon":5.36739,"is_reserved":false,"is_disabled":false,"rental_uris":{"android":"levelo://app?vid=3fa7a75d-8677-4292-b8d3-8cce5ac0e9d8","ios":"levelo://app?vid=3fa7a75d-8677-4292-b8d3-8cce5ac0e9d8"},"vehicle_type_id":"4","last_reported":1733044154,"current_range_meters":38800,"station_id":"ce4bgph2rcd13ifvqc2g","pricing_plan_id":"cebpf4jnsgd1na2vs0mg"},{"bike_id":"e5951ee3-4a5a-4ebb-b469-096c5188dfa3","system_id":"levelo_inurba_marseille","lat":43.23198,"lon":5.3557,"is_reserved":false,"is_disabled":false,"rental_uris":{"android":"levelo://app?vid=e5951ee3-4a5a-4ebb-b469-096c5188dfa3","ios":"levelo://app?vid=e5951ee3-4a5a-4ebb-b469-096c5188dfa3"},"vehicle_type_id":"4","last_reported":1733044154,"current_range_meters":14000,"station_id":"ce4bhu92rcd13ifvqi70","pricing_plan_id":"cebpf4jnsgd1na2vs0mg"},{"bike_id":"f9a63393-5401-4f98-ae5a-dfbb8291ab6d","system_id":"levelo_inurba_marseille","lat":43.3004,"lon":5.37551,"is_reserved":false,"is_disabled":true,"rental_uris":{"android":"levelo://app?vid=f9a63393-5401-4f98-ae5a-dfbb8291ab6d","ios":"levelo://app?vid=f9a63393-5401-4f98-ae5a-dfbb8291ab6d"},"vehicle_type_id":"4","last_reported":1733044154,"current_range_meters":0,"station_id":"","pricing_plan_id":"cebpf4jnsgd1na2vs0mg"},{"bike_id":"284d7bb9-2b3f-481e-84a7-e7cd77d4464d","system_id":"levelo_inurba_marseille","lat":43.26196,"lon":5.37931,"is_reserved":false,"is_disabled":false,"rental_uris":{"android":"levelo://app?vid=284d7bb9-2b3f-481e-84a7-e7cd77d4464d","ios":"levelo://app?vid=284d7bb9-2b3f-481e-84a7-e7cd77d4464d"},"vehicle_type_id":"4","last_reported":1733044154,"current_range_meters":38400,"station_id":"ce4bhjp2rcd13ifvqg90","pricing_plan_id":"cebpf4jnsgd1na2vs0mg"},{"bike_id":"b38c09bb-a215-4e8b-b764-0091f548550c","system_id":"levelo_inurba_marseille","lat":43.22946,"lon":5.35374,"is_reserved":false,"is_disabled":false,"rental_uris":{"android":"levelo://app?vid=b38c09bb-a215-4e8b-b764-0091f548550c","ios":"levelo://app?vid=b38c09bb-a215-4e8b-b764-0091f548550c"},"vehicle_type_id":"4","last_reported":1733044154,"current_range_meters":38800,"station_id":"cpo3532slgdg3j2ikp40","pricing_plan_id":"cebpf4jnsgd1na2vs0mg"},{"bike_id":"2dc38ade-27f7-4963-9993-df653a004c9b","system_id":"levelo_inurba_marseille","lat":43.27373,"lon":5.36263,"is_reserved":false,"is_disabled":false,"rental_uris":{"android":"levelo://app?vid=2dc38ade-27f7-4963-9993-df653a004c9b","ios":"levelo://app?vid=2dc38ade-27f7-4963-9993-df653a004c9b"},"vehicle_type_id":"4","last_reported":1733044154,"current_range_meters":24400,"station_id":"ce4bhbh2rcd13ifvqeo0","pricing_plan_id":"cebpf4jnsgd1na2vs0mg"},{"bike_id":"b187126a-f02d-4468-8acb-d4cf5bf2e5e6","system_id":"levelo_inurba_marseille","lat":43.31272,"lon":5.4017,"is_reserved":false,"is_disabled":false,"rental_uris":{"android":"levelo://app?vid=b187126a-f02d-4468-8acb-d4cf5bf2e5e6","ios":"levelo://app?vid=b187126a-f02d-4468-8acb-d4cf5bf2e5e6"},"vehicle_type_id":"4","last_reported":1733044154,"current_range_meters":28000,"station_id":"ce4bh092rcd13ifvqd30","pricing_plan_id":"cebpf4jnsgd1na2vs0mg"},{"bike_id":"c50c04ed-f7d4-454e-bba0-12e9c3d37e2f","system_id":"levelo_inurba_marseille","lat":43.30946,"lon":5.39035,"is_reserved":false,"is_disabled":false,"rental_uris":{"android":"levelo://app?vid=c50c04ed-f7d4-454e-bba0-12e9c3d37e2f","ios":"levelo://app?vid=c50c04ed-f7d4-454e-bba0-12e9c3d37e2f"},"vehicle_type_id":"4","last_reported":1733044154,"current_range_meters":9600,"station_id":"ce4bgup2rcd13ifvqco0","pricing_plan_id":"cebpf4jnsgd1na2vs0mg"},{"bike_id":"ea461fa6-489e-4de7-89c7-2f448445227c","system_id":"levelo_inurba_marseille","lat":43.29299,"lon":5.37178,"is_reserved":false,"is_disabled":true,"rental_uris":{"android":"levelo://app?vid=ea461fa6-489e-4de7-89c7-2f448445227c","ios":"levelo://app?vid=ea461fa6-489e-4de7-89c7-2f448445227c"},"vehicle_type_id":"4","last_reported":1733044154,"current_range_meters":37600,"station_id":"ce4bgh92rcd13ifvqb40","pricing_plan_id":"cebpf4jnsgd1na2vs0mg"},{"bike_id":"b0bda3a0-8d9d-4bd3-a5b8-75ccdf39fdf3","system_id":"levelo_inurba_marseille","lat":43.29448,"lon":5.39755,"is_reserved":false,"is_disabled":true,"rental_uris":{"android":"levelo://app?vid=b0bda3a0-8d9d-4bd3-a5b8-75ccdf39fdf3","ios":"levelo://app?vid=b0bda3a0-8d9d-4bd3-a5b8-75ccdf39fdf3"},"vehicle_type_id":"4","last_reported":1733044154,"current_range_meters":25200,"station_id":"ce4bh3h2rcd13ifvqdo0","pricing_plan_id":"cebpf4jnsgd1na2vs0mg"},{"bike_id":"948ced03-cd93-4f50-b084-fd15adb59e33","system_id":"levelo_inurba_marseille","lat":43.28946,"lon":5.36394,"is_reserved":false,"is_disabled":false,"rental_uris":{"android":"levelo://app?vid=948ced03-cd93-4f50-b084-fd15adb59e33","ios":"levelo://app?vid=948ced03-cd93-4f50-b084-fd15adb59e33"},"vehicle_type_id":"4","last_reported":1733044154,"current_range_meters":28400,"station_id":"ce4bhc92rcd13ifvqetg","pricing_plan_id":"cebpf4jnsgd1na2vs0mg"},{"bike_id":"8d958c83-9b9f-4a5f-99e5-784608df87f7","system_id":"levelo_inurba_marseille","lat":43.33741,"lon":5.37452,"is_reserved":false,"is_disabled":false,"rental_uris":{"android":"levelo://app?vid=8d958c83-9b9f-4a5f-99e5-784608df87f7","ios":"levelo://app?vid=8d958c83-9b9f-4a5f-99e5-784608df87f7"},"vehicle_type_id":"4","last_reported":1733044154,"current_range_meters":37600,"station_id":"","pricing_plan_id":"cebpf4jnsgd1na2vs0mg"},{"bike_id":"adba6bbf-13eb-4852-89a4-3f782fb0886e","system_id":"levelo_inurba_marseille","lat":43.25825,"lon":5.39432,"is_reserved":false,"is_disabled":false,"rental_uris":{"android":"levelo://app?vid=adba6bbf-13eb-4852-89a4-3f782fb0886e","ios":"levelo://app?vid=adba6bbf-13eb-4852-89a4-3f782fb0886e"},"vehicle_type_id":"4","last_reported":1733044154,"current_range_meters":39200,"station_id":"ce4bhip2rcd13ifvqft0","pricing_plan_id":"cebpf4jnsgd1na2vs0mg"},{"bike_id":"9e877546-5a12-4a58-8a21-89e298ef100c","system_id":"levelo_inurba_marseille","lat":43.30207,"lon":5.43777,"is_reserved":false,"is_disabled":false,"rental_uris":{"android":"levelo://app?vid=9e877546-5a12-4a58-8a21-89e298ef100c","ios":"levelo://app?vid=9e877546-5a12-4a58-8a21-89e298ef100c"},"vehicle_type_id":"4","last_reported":1733044154,"current_range_meters":3600,"station_id":"","pricing_plan_id":"cebpf4jnsgd1na2vs0mg"},