{"last_updated":1784804340,"ttl":60,"version":"2.2","data":{"bikes":[{"bike_id":"7ef36254-6bb3-448c-8d77-979d957d54b6","system_id":"levelo_inurba_marseille","lat":43.337444,"lon":5.374475,"is_reserved":false,"is_disabled":false,"rental_uris":{"android":"levelo://app?vid=7ef36254-6bb3-448c-8d77-979d957d54b6","ios":"levelo://app?vid=7ef36254-6bb3-448c-8d77-979d957d54b6"},"vehicle_type_id":"4","last_reported":1784804340,"current_range_meters":0,"station_id":"","pricing_plan_id":"cebpf4jnsgd1na2vs0mg"},{"bike_id":"21fe2e98-0432-4b40-a81f-10dd00b0f57d","system_id":"levelo_inurba_marseille","lat":43.337444,"lon":5.374475,"is_reserved":false,"is_disabled":false,"rental_uris":{"android":"levelo://app?vid=21fe2e98-0432-4b40-a81f-10dd00b0f57d","ios":"levelo://app?vid=21fe2e98-0432-4b40-a81f-10dd00b0f57d"},"vehicle_type_id":"4","last_reported":1784804340,"current_range_meters":0,"station_id":"","pricing_plan_id":"cebpf4jnsgd1na2vs0mg"},{"bike_id":"5ef46e5a-4bb7-4941-9ed5-671b511104e5","system_id":"levelo_inurba_marseille","lat":43.26547,"lon":5.3906,"is_reserved":false,"is_disabled":false,"rental_uris":{"android":"levelo://app?vid=5ef46e5a-4bb7-4941-9ed5-671b511104e5","ios":"levelo://app?vid=5ef46e5a-4bb7-4941-9ed5-671b511104e5"},"vehicle_type_id":"4","last_reported":1784804340,"current_range_meters":24000,"station_id":"ce4bhe12rcd13ifvqf30","pricing_plan_id":"cebpf4jnsgd1na2vs0mg"},{"bike_id":"7446e2dd-cf2a-448e-a013-708dd952d4de","system_id":"levelo_inurba_marseille","lat":43.29566,"lon":5.3752,"is_reserved":false,"is_disabled":false,"rental_uris":{"android":"levelo://app?vid=7446e2dd-cf2a-448e-a013-708dd952d4de","ios":"levelo://app?vid=7446e2dd-cf2a-448e-a013-708dd952d4de"},"vehicle_type_id":"4","last_reported":1784804340,"current_range_meters":32000,"station_id":"ce4bgh92rcd13ifvqb50","pricing_plan_id":"cebpf4jnsgd1na2vs0mg"},{"bike_id":"910edd9b-3f88-46ff-af53-0deba1c167b6","system_id":"levelo_inurba_marseille","lat":43.2396,"lon":5.36641,"is_reserved":false,"is_disabled":false,"rental_uris":{"android":"levelo://app?vid=910edd9b-3f88-46ff-af53-0deba1c167b6","ios":"levelo://app?vid=910edd9b-3f88-46ff-af53-0deba1c167b6"},"vehicle_type_id":"4","last_reported":1784804340,"current_range_meters":38000,"station_id":"ce4bhi12rcd13ifvqfp0","pricing_plan_id":"cebpf4jnsgd1na2vs0mg"},{"bike_id":"0213d0e8-5647-4bb6-bcc4-f759e4e657b6","system_id":"levelo_inurba_marseille","lat":43.29563,"lon":5.37522,"is_reserved":false,"is_disabled":false,"rental_uris":{"android":"levelo://app?vid=0213d0e8-5647-4bb6-bcc4-f759e4e657b6","ios":"levelo://app?vid=0213d0e8-5647-4bb6-bcc4-f759e4e657b6"},"vehicle_type_id":"4","last_reported":1784804340,"current_range_meters":27600,"station_id":"ce4bgh92rcd13ifvqb50","pricing_plan_id":"cebpf4jnsgd1na2vs0mg"},{"bike_id":"f2c26268-2002-48c9-a2f8-8f76ed8a8540","system_id":"levelo_inurba_marseille","lat":43.23894,"lon":5.37466,"is_reserved":false,"is_disabled":false,"rental_uris":{"android":"levelo://app?vid=f2c26268-2002-48c9-a2f8-8f76ed8a8540","ios":"levelo://app?vid=f2c26268-2002-48c9-a2f8-8f76ed8a8540"},"vehicle_type_id":"4","last_reported":1784804340,"current_range_meters":38000,"station_id":"st_d6sm7csbq4hs73f8fpjg","pricing_plan_id":"cebpf4jnsgd1na2vs0mg"},{"bike_id":"acefd91e-fb47-4c49-a7d1-8fdb932b2842","system_id":"levelo_inurba_marseille","lat":43.26371,"lon":5.41067,"is_reserved":false,"is_disabled":false,"rental_uris":{"android":"levelo://app?vid=acefd91e-fb47-4c49-a7d1-8fdb932b2842","ios":"levelo://app?vid=acefd91e-fb47-4c49-a7d1-8fdb932b2842"},"vehicle_type_id":"4","last_reported":1784804340,"current_range_meters":20400,"station_id":"st_d4e5ca6na9uc73bfl5fg","pricing_plan_id":"cebpf4jnsgd1na2vs0mg"},{"bike_id":"72706276-fb69-4388-946e-2b4fb06a5929","system_id":"levelo_inurba_marseille","lat":43.33012,"lon":5.39025,"is_reserved":false,"is_disabled":false,"rental_uris":{"android":"levelo://app?vid=72706276-fb69-4388-946e-2b4fb06a5929","ios":"levelo://app?vid=72706276-fb69-4388-946e-2b4fb06a5929"},"vehicle_type_id":"4","last_reported":1784804340,"current_range_meters":38800,"station_id":"ce4bhr92rcd13ifvqhrg","pricing_plan_id":"cebpf4jnsgd1na2vs0mg"},{"bike_id":"3275e5ca-225b-44f6-b554-2e84ebf36240","system_id":"levelo_inurba_marseille","lat":43.32344,"lon":5.36736,"is_reserved":false,"is_disabled":false,"rental_uris":{"android":"levelo://app?vid=3275e5ca-225b-44f6-b554-2e84ebf36240","ios":"levelo://app?vid=3275e5ca-225b-44f6-b554-2e84ebf36240"},"vehicle_type_id":"4","last_reported":1784804340,"current_range_meters":30800,"station_id":"ce4bhsh2rcd13ifvqi2g","pricing_plan_id":"cebpf4jnsgd1na2vs0mg"},{"bike_id":"4e65696c-6612-4320-ba51-86bcf8d4c6c5","system_id":"levelo_inurba_marseille","lat":43.28929,"lon":5.36632,"is_reserved":false,"is_disabled":false,"rental_uris":{"android":"levelo://app?vid=4e65696c-6612-4320-ba51-86bcf8d4c6c5","ios":"levelo://app?vid=4e65696c-6612-4320-ba51-86bcf8d4c6c5"},"vehicle_type_id":"4","last_reported":1784804340,"current_range_meters":7200,"station_id":"ce4bhap2rcd13ifvqek0","pricing_plan_id":"cebpf4jnsgd1na2vs0mg"},{"bike_id":"a3a2fc6a-55a6-4c59-b5eb-af329f69e502","system_id":"levelo_inurba_marseille","lat":43.2438,"lon":5.3705,"is_reserved":false,"is_disabled":false,"rental_uris":{"android":"levelo://app?vid=a3a2fc6a-55a6-4c59-b5eb-af329f69e502","ios":"levelo://app?vid=a3a2fc6a-55a6-4c59-b5eb-af329f69e502"},"vehicle_type_id":"4","last_reported":1784804340,"current_range_meters":32000,"station_id":"ce4bhhh2rcd13ifvqfk0","pricing_plan_id":"cebpf4jnsgd1na2vs0mg"},{"bike_id":"960a9a23-0790-449a-a1bd-8acc2f05bb5d","system_id":"levelo_inurba_marseille","lat":43.27981,"lon":5.38712,"is_reserved":false,"is_disabled":false,"rental_uris":{"android":"levelo://app?vid=960a9a23-0790-449a-a1bd-8acc2f05bb5d","ios":"levelo://app?vid=960a9a23-0790-449a-a1bd-8acc2f05bb5d"},"vehicle_type_id":"4","last_reported":1784804340,"current_range_meters":38000,"station_id":"ce4bhg12rcd13ifvqf80","pricing_plan_id":"cebpf4jnsgd1na2vs0mg"},{"bike_id":"979267b5-c2b2-45c7-ab97-faf9a6a7b27d","system_id":"levelo_inurba_marseille","lat":43.28396,"lon":5.37529,"is_reserved":false,"is_disabled":false,"rental_uris":{"android":"levelo://app?vid=979267b5-c2b2-45c7-ab97-faf9a6a7b27d","ios":"levelo://app?vid=979267b5-c2b2-45c7-ab97-faf9a6a7b27d"},"vehicle_type_id":"4","last_reported":1784804340,"current_range_meters":30000,"station_id":"ce4bh412rcd13ifvqds0","pricing_plan_id":"cebpf4jnsgd1na2vs0mg"},{"bike_id":"9929acd5-0797-4e8d-8b32-3e0f45db874e","system_id":"levelo_inurba_marseille","lat":43.31208,"lon":5.36866,"is_reserved":false,"is_disabled":false,"rental_uris":{"android":"levelo://app?vid=9929acd5-0797-4e8d-8b32-3e0f45db874e","ios":"levelo://app?vid=9929acd5-0797-4e8d-8b32-3e0f45db874e"},"vehicle_type_id":"4","last_reported":1784804340,"current_range_meters":22400,"station_id":"ce4bgl92rcd13ifvqbq0","pricing_plan_id":"cebpf4jnsgd1na2vs0mg"},{"bike_id":"3101f7ce-d802-418d-8fba-8e517979d361","system_id":"levelo_inurba_marseille","lat":43.24165,"lon":5.36418,"is_reserved":false,"is_disabled":false,"rental_uris":{"android":"levelo://app?vid=3101f7ce-d802-418d-8fba-8e517979d361","ios":"levelo://app?vid=3101f7ce-d802-418d-8fba-8e517979d361"},"vehicle_type_id":"4","last_reported":1784804340,"current_range_meters":11600,"station_id":"cpo36qri1sfpv3e86is0","pricing_plan_id":"cebpf4jnsgd1na2vs0mg"},{"bike_id":"45c49d7a-ce5a-4cef-92b3-a6a99f7ffcbc","system_id":"levelo_inurba_marseille","lat":43.31745,"lon":5.39024,"is_reserved":false,"is_disabled":false,"rental_uris":{"android":"levelo://app?vid=45c49d7a-ce5a-4cef-92b3-a6a99f7ffcbc","ios":"levelo://app?vid=45c49d7a-ce5a-4cef-92b3-a6a99f7ffcbc"},"vehicle_type_id":"4","last_reported":1784804340,"current_range_meters":38400,"station_id":"ce4bhqp2rcd13ifvqhng","pricing_plan_id":"cebpf4jnsgd1na2vs0mg"},{"bike_id":"cd5a00df-da64-4a0f-8575-682df166e1ba","system_id":"levelo_inurba_marseille","lat":43.30553,"lon":5.3653,"is_reserved":false,"is_disabled":false,"rental_uris":{"android":"levelo://app?vid=cd5a00df-da64-4a0f-8575-682df166e1ba","ios":"levelo://app?vid=cd5a00df-da64-4a0f-8575-682df166e1ba"},"vehicle_type_id":"4","last_reported":1784804340,"current_range_meters":30800,"station_id":"ce4bgs12rcd13ifvqcag","pricing_plan_id":"cebpf4jnsgd1na2vs0mg"},{"bike_id":"e3c5275a-9a3a-4bd3-8a99-3b0939e75923","system_id":"levelo_inurba_marseille","lat":43.29279,"lon":5.36839,"is_reserved":false,"is_disabled":false,"rental_uris":{"android":"levelo://app?vid=e3c5275a-9a3a-4bd3-8a99-3b0939e75923","ios":"levelo://app?vid=e3c5275a-9a3a-4bd3-8a99-3b0939e75923"},"vehicle_type_id":"4","last_reported":1784804340,"current_range_meters":38400,"station_id":"ce4bhbp2rcd13ifvqesg","pricing_plan_id":"cebpf4jnsgd1na2vs0mg"},{"bike_id":"c27aaa11-19a5-42c9-b529-15599d0ea596","system_id":"levelo_inurba_marseille","lat":43.29274,"lon":5.37628,"is_reserved":false,"is_disabled":false,"rental_uris":{"android":"levelo://app?vid=c27aaa11-19a5-42c9-b529-15599d0ea596","ios":"levelo://app?vid=c27aaa11-19a5-42c9-b529-15599d0ea596"},"vehicle_type_id":"4","last_reported":1784804340,"current_range_meters":27200,"station_id":"ce4bgi12rcd13ifvqb80","pricing_plan_id":"cebpf4jnsgd1na2vs0mg"},{"bike_id":"b635d59e-7979-4675-a471-349583102695","system_id":"levelo_inurba_marseille","lat":43.29027,"lon":5.40003,"is_reserved":false,"is_disabled":false,"rental_uris":{"android":"levelo://app?vid=b635d59e-7979-4675-a471-349583102695","ios":"levelo://app?vid=b635d59e-7979-4675-a471-349583102695"},"vehicle_type_id":"4","last_reported":1784804340,"current_range_meters":36800,"station_id":"ce4bh392rcd13ifvqdm0","pricing_plan_id":"cebpf4jnsgd1na2vs0mg"},{"bike_id":"56b0a84b-a113-4330-9aae-9159d9fa876b","system_id":"levelo_inurba_marseille","lat":43.31258,"lon":5.36842,"is_reserved":false,"is_disabled":false,"rental_uris":{"android":"levelo://app?vid=56b0a84b-a113-4330-9aae-9159d9fa876b","ios":"levelo://app?vid=56b0a84b-a113-4330-9aae-9159d9fa876b"},"vehicle_type_id":"4","last_reported":1784804340,"current_range_meters":23200,"station_id":"ce4bgl92rcd13ifvqbq0","pricing_plan_id":"cebpf4jnsgd1na2vs0mg"},{"bike_id":"bd1fb047-1503-427f-b75e-bda7ffbeebc4","system_id":"levelo_inurba_marseille","lat":43.31752,"lon":5.39018,"is_reserved":false,"is_disabled":false,"rental_uris":{"android":"levelo://app?vid=bd1fb047-1503-427f-b75e-bda7ffbeebc4","ios":"levelo://app?vid=bd1fb047-1503-427f-b75e-bda7ffbeebc4"},"vehicle_type_id":"4","last_reported":1784804340,"current_range_meters":33200,"station_id":"ce4bhqp2rcd13ifvqhng","pricing_plan_id":"cebpf4jnsgd1na2vs0mg"},{"bike_id":"8629e809-acb0-4511-b1f0-e77f12167932","system_id":"levelo_inurba_marseille","lat":43.29264,"lon":5.36839,"is_reserved":false,"is_disabled":true,"rental_uris":{"android":"levelo://app?vid=8629e809-acb0-4511-b1f0-e77f12167932","ios":"levelo://app?vid=8629e809-acb0-4511-b1f0-e77f12167932"},"vehicle_type_id":"4","last_reported":1784804340,"current_range_meters":0,"station_id":"","pricing_plan_id":"cebpf4jnsgd1na2vs0mg"},{"bike_id":"0c5fa00d-7ad9-4ebc-a2d8-3aa05ed20bb4","system_id":"levelo_inurba_marseille","lat":43.23178,"lon":5.3998,"is_reserved":false,"is_disabled":false,"rental_uris":{"android":"levelo://app?vid=0c5fa00d-7ad9-4ebc-a2d8-3aa05ed20bb4","ios":"levelo://app?vid=0c5fa00d-7ad9-4ebc-a2d8-3aa05ed20bb4"},"vehicle_type_id":"4","last_reported":1784804340,"current_range_meters":34800,"station_id":"ce4bhn12rcd13ifvqgqg","pricing_plan_id":"cebpf4jnsgd1na2vs0mg"},{"bike_id":"8f7c963f-877f-4a35-ba1a-ea656cd67eeb","system_id":"levelo_inurba_marseille","lat":43.29265,"lon":5.36847,"is_reserved":false,"is_disabled":false,"rental_uris":{"android":"levelo://app?vid=8f7c963f-877f-4a35-ba1a-ea656cd67eeb","ios":"levelo://app?vid=8f7c963f-877f-4a35-ba1a-ea656cd67eeb"},"vehicle_type_id":"4","last_reported":1784804340,"current_range_meters":34800,"station_id":"","pricing_plan_id":"cebpf4jnsgd1na2vs0mg"},{"bike_id":"c3689d71-9902-48db-b040-07edf828a3f6","system_id":"levelo_inurba_marseille","lat":43.29838,"lon":5.36275,"is_reserved":false,"is_disabled":false,"rental_uris":{"android":"levelo://app?vid=c3689d71-9902-48db-b040-07edf828a3f6","ios":"levelo://app?vid=c3689d71-9902-48db-b040-07edf828a3f6"},"vehicle_type_id":"4","last_reported":1784804340,"current_range_meters":39200,"station_id":"ce4bgpp2rcd13ifvqc3g","pricing_plan_id":"cebpf4jnsgd1na2vs0mg"},{"bike_id":"a9e22ac9-dcbc-471a-8e1c-abfe150924e0","system_id":"levelo_inurba_marseille","lat":43.28411,"lon":5.35001,"is_reserved":false,"is_disabled":false,"rental_uris":{"android":"levelo://app?vid=a9e22ac9-dcbc-471a-8e1c-abfe150924e0","ios":"levelo://app?vid=a9e22ac9-dcbc-471a-8e1c-abfe150924e0"},"vehicle_type_id":"4","last_reported":1784804340,"current_range_meters":32000,"station_id":"ce4bhbh2rcd13ifvqepg","pricing_plan_id":"cebpf4jnsgd1na2vs0mg"},{"bike_id":"7302dada-e788-48ca-a955-da1cbe10ca21","system_id":"levelo_inurba_marseille","lat":43.29293,"lon":5.3745,"is_reserved":false,"is_disabled":false,"rental_uris":{"android":"levelo://app?vid=7302dada-e788-48ca-a955-da1cbe10ca21","ios":"levelo://app?vid=7302dada-e788-48ca-a955-da1cbe10ca21"},"vehicle_type_id":"4","last_reported":1784804340,"current_range_meters":40000,"station_id":"ce4bgi12rcd13ifvqb70","pricing_plan_id":"cebpf4jnsgd1na2vs0mg"},{"bike_id":"4b5bbc0c-d42a-47d6-a1f9-c9e7f42943f0","system_id":"levelo_inurba_marseille","lat":43.24663,"lon":5.3819,"is_reserved":false,"is_disabled":false,"rental_uris":{"android":"levelo://app?vid=4b5bbc0c-d42a-47d6-a1f9-c9e7f42943f0","ios":"levelo://app?vid=4b5bbc0c-d42a-47d6-a1f9-c9e7f42943f0"},"vehicle_type_id":"4","last_reported":1784804340,"current_range_meters":39200,"station_id":"ce4bhih2rcd13ifvqfr0","pricing_plan_id":"cebpf4jnsgd1na2vs0mg"},{"bike_id":"b146b56d-2bff-4fa2-b0c3-d71d592b13ce","system_id":"levelo_inurba_marseille","lat":43.29369,"lon":5.37834,"is_reserved":false,"is_disabled":false,"rental_uris":{"android":"levelo://app?vid=b146b56d-2bff-4fa2-b0c3-d71d592b13ce","ios":"levelo://app?vid=b146b56d-2bff-4fa2-b0c3-d71d592b13ce"},"vehicle_type_id":"4","last_reported":1784804340,"current_range_meters":28000,"station_id":"ce4bgjh2rcd13ifvqbf0","pricing_plan_id":"cebpf4jnsgd1na2vs0mg"},{"bike_id":"9bf34726-bb15-461f-9e3e-80ad5e4e343b","system_id":"levelo_inurba_marseille","lat":43.31372,"lon":5.36741,"is_reserved":false,"is_disabled":false,"rental_uris":{"android":"levelo://app?vid=9bf34726-bb15-461f-9e3e-80ad5e4e343b","ios":"levelo://app?vid=9bf34726-bb15-461f-9e3e-80ad5e4e343b"},"vehicle_type_id":"4","last_reported":1784804340,"current_range_meters":38800,"station_id":"ce4bgr92rcd13ifvqc6g","pricing_plan_id":"cebpf4jnsgd1na2vs0mg"},{"bike_id":"a338cea5-f797-4d31-b718-3121663ee29c","system_id":"levelo_inurba_marseille","lat":43.30422,"lon":5.37923,"is_reserved":false,"is_disabled":false,"rental_uris":{"android":"levelo://app?vid=a338cea5-f797-4d31-b718-3121663ee29c","ios":"levelo://app?vid=a338cea5-f797-4d31-b718-3121663ee29c"},"vehicle_type_id":"4","last_reported":1784804340,"current_range_meters":30400,"station_id":"ce4bgup2rcd13ifvqcn0","pricing_plan_id":"cebpf4jnsgd1na2vs0mg"},{"bike_id":"cdabf401-d5e5-41d2-958a-29709fa80ec4","system_id":"levelo_inurba_marseille","lat":43.27311,"lon":5.39136,"is_reserved":false,"is_disabled":false,"rental_uris":{"android":"levelo://app?vid=cdabf401-d5e5-41d2-958a-29709fa80ec4","ios":"levelo://app?vid=cdabf401-d5e5-41d2-958a-29709fa80ec4"},"vehicle_type_id":"4","last_reported":1784804340,"current_range_meters":39200,"station_id":"ce4bhgp2rcd13ifvqfe0","pricing_plan_id":"cebpf4jnsgd1na2vs0mg"},{"bike_id":"459b869a-9158-42b3-a8b0-f35d14a6a0fd","system_id":"levelo_inurba_marseille","lat":43.27213,"lon":5.39186,"is_reserved":false,"is_disabled":false,"rental_uris":{"android":"levelo://app?vid=459b869a-9158-42b3-a8b0-f35d14a6a0fd","ios":"levelo://app?vid=459b869a-9158-42b3-a8b0-f35d14a6a0fd"},"vehicle_type_id":"4","last_reported":1784804340,"current_range_meters":39200,"station_id":"ce4bhhp2rcd13ifvqfm0","pricing_plan_id":"cebpf4jnsgd1na2vs0mg"},{"bike_id":"dd2d0a4a-1f67-4d16-96ef-1efd93129250","system_id":"levelo_inurba_marseille","lat":43.24375,"lon":5.36974,"is_reserved":false,"is_disabled":false,"rental_uris":{"android":"levelo://app?vid=dd2d0a4a-1f67-4d16-96ef-1efd93129250","ios":"levelo://app?vid=dd2d0a4a-1f67-4d16-96ef-1efd93129250"},"vehicle_type_id":"4","last_reported":1784804340,"current_range_meters":25600,"station_id":"","pricing_plan_id":"cebpf4jnsgd1na2vs0mg"},{"bike_id":"a7c9489a-3c37-4218-bc38-92c335aa3a8a","system_id":"levelo_inurba_marseille","lat":43.28474,"lon":5.48396,"is_reserved":false,"is_disabled":false,"rental_uris":{"android":"levelo://app?vid=a7c9489a-3c37-4218-bc38-92c335aa3a8a","ios":"levelo://app?vid=a7c9489a-3c37-4218-bc38-92c335aa3a8a"},"vehicle_type_id":"4","last_reported":1784804340,"current_range_meters":39200,"station_id":"st_d3svhcjqgbts73a3dn0g","pricing_plan_id":"cebpf4jnsgd1na2vs0mg"},{"bike_id":"66a838d5-10eb-4fbb-91db-7fba2605a9ce","system_id":"levelo_inurba_marseille","lat":43.25506,"lon":5.37681,"is_reserved":false,"is_disabled":false,"rental_uris":{"android":"levelo://app?vid=66a838d5-10eb-4fbb-91db-7fba2605a9ce","ios":"levelo://app?vid=66a838d5-10eb-4fbb-91db-7fba2605a9ce"},"vehicle_type_id":"4","last_reported":1784804340,"current_range_meters":39200,"station_id":"ce4bhh12rcd13ifvqff0","pricing_plan_id":"cebpf4jnsgd1na2vs0mg"},{"bike_id":"8c1def6b-0927-4158-8185-1819b5c69c82","system_id":"levelo_inurba_marseille","lat":43.25926,"lon":5.40918,"is_reserved":false,"is_disabled":false,"rental_uris":{"android":"levelo://app?vid=8c1def6b-0927-4158-8185-1819b5c69c82","ios":"levelo://app?vid=8c1def6b-0927-4158-8185-1819b5c69c82"},"vehicle_type_id":"4","last_reported":1784804340,"current_range_meters":38000,"station_id":"ce4bhm92rcd13ifvqglg","pricing_plan_id":"cebpf4jnsgd1na2vs0mg"},{"bike_id":"02bc1f6e-a93d-4c6f-8463-6b5ba3d4d3d8","system_id":"levelo_inurba_marseille","lat":43.25507,"lon":5.37687,"is_reserved":false,"is_disabled":false,"rental_uris":{"android":"levelo://app?vid=02bc1f6e-a93d-4c6f-8463-6b5ba3d4d3d8","ios":"levelo://app?vid=02bc1f6e-a93d-4c6f-8463-6b5ba3d4d3d8"},"vehicle_type_id":"4","last_reported":1784804340,"current_range_meters":39200,"station_id":"ce4bhh12rcd13ifvqff0","pricing_plan_id":"cebpf4jnsgd1na2vs0mg"},{"bike_id":"3d3363f1-b079-4e13-899e-dbc693f0dea6","system_id":"levelo_inurba_marseille","lat":43.27491,"lon":5.42476,"is_reserved":false,"is_disabled":true,"rental_uris":{"android":"levelo://app?vid=3d3363f1-b079-4e13-899e-dbc693f0dea6","ios":"levelo://app?vid=3d3363f1-b079-4e13-899e-dbc693f0dea6"},"vehicle_type_id":"4","last_reported":1784804340,"current_range_meters":1600,"station_id":"ce4bhn92rcd13ifvqgrg","pricing_plan_id":"cebpf4jnsgd1na2vs0mg"},{"bike_id":"dcb52276-35bc-42b7-9a0d-fe3391fbd2fe","system_id":"levelo_inurba_marseille","lat":43.32473,"lon":5.36578,"is_reserved":false,"is_disabled":false,"rental_uris":{"android":"levelo://app?vid=dcb52276-35bc-42b7-9a0d-fe3391fbd2fe","ios":"levelo://app?vid=dcb52276-35bc-42b7-9a0d-fe3391fbd2fe"},"vehicle_type_id":"4","last_reported":1784804340,"current_range_meters":38800,"station_id":"ce4bhs12rcd13ifvqhvg","pricing_plan_id":"cebpf4jnsgd1na2vs0mg"},{"bike_id":"5aa3ca14-34f8-4cf6-bf98-84664ad40ed9","system_id":"levelo_inurba_marseille","lat":43.32364,"lon":5.38879,"is_reserved":false,"is_disabled":false,"rental_uris":{"android":"levelo://app?vid=5aa3ca14-34f8-4cf6-bf98-84664ad40ed9","ios":"levelo://app?vid=5aa3ca14-34f8-4cf6-bf98-84664ad40ed9"},"vehicle_type_id":"4","last_reported":1784804340,"current_range_meters":33600,"station_id":"ce4bhqp2rcd13ifvqhog","pricing_plan_id":"cebpf4jnsgd1na2vs0mg"},{"bike_id":"6c5c61e7-be49-4cec-a951-1373b3cc8b29","system_id":"levelo_inurba_marseille","lat":43.29694,"lon":5.36605,"is_reserved":false,"is_disabled":false,"rental_uris":{"android":"levelo://app?vid=6c5c61e7-be49-4cec-a951-1373b3cc8b29","ios":"levelo://app?vid=6c5c61e7-be49-4cec-a951-1373b3cc8b29"},"vehicle_type_id":"4","last_reported":1784804340,"current_range_meters":26000,"station_id":"ce4bgn12rcd13ifvqbt0","pricing_plan_id":"cebpf4jnsgd1na2vs0mg"},{"bike_id":"8a6ec7fe-bed1-4422-b468-fc06f5bbe6a3","system_id":"levelo_inurba_marseille","lat":43.29715,"lon":5.36596,"is_reserved":false,"is_disabled":false,"rental_uris":{"android":"levelo://app?vid=8a6ec7fe-bed1-4422-b468-fc06f5bbe6a3","ios":"levelo://app?vid=8a6ec7fe-bed1-4422-b468-fc06f5bbe6a3"},"vehicle_type_id":"4","last_reported":1784804340,"current_range_meters":12000,"station_id":"ce4bgn12rcd13ifvqbt0","pricing_plan_id":"cebpf4jnsgd1na2vs0mg"},{"bike_id":"8b48f329-937d-4f33-bc8e-cc3992c67190","system_id":"levelo_inurba_marseille","lat":43.29621,"lon":5.37155,"is_reserved":false,"is_disabled":true,"rental_uris":{"android":"levelo://app?vid=8b48f329-937d-4f33-bc8e-cc3992c67190","ios":"levelo://app?vid=8b48f329-937d-4f33-bc8e-cc3992c67190"},"vehicle_type_id":"4","last_reported":1784804340,"current_range_meters":32400,"station_id":"","pricing_plan_id":"cebpf4jnsgd1na2vs0mg"},{"bike_id":"e76597e7-6ba5-419d-b2b8-051573323436","system_id":"levelo_inurba_marseille","lat":43.29263,"lon":5.37622,"is_reserved":false,"is_disabled":false,"rental_uris":{"android":"levelo://app?vid=e76597e7-6ba5-419d-b2b8-051573323436","ios":"levelo://app?vid=e76597e7-6ba5-419d-b2b8-051573323436"},"vehicle_type_id":"4","last_reported":1784804340,"current_range_meters":20400,"station_id":"ce4bgi12rcd13ifvqb80","pricing_plan_id":"cebpf4jnsgd1na2vs0mg"},{"bike_id":"8f0e7d8f-4628-4ae9-adf4-e14f8541deb9","system_id":"levelo_inurba_marseille","lat":43.27168,"lon":5.41003,"is_reserved":false,"is_disabled":false,"rental_uris":{"android":"levelo://app?vid=8f0e7d8f-4628-4ae9-adf4-e14f8541deb9","ios":"levelo://app?vid=8f0e7d8f-4628-4ae9-adf4-e14f8541deb9"},"vehicle_type_id":"4","last_reported":1784804340,"current_range_meters":17600,"station_id":"ce4bhl12rcd13ifvqgf0","pricing_plan_id":"cebpf4jnsgd1na2vs0mg"},{"bike_id":"39a36ad1-0b8e-49e6-9193-d176f70f2fb4","system_id":"levelo_inurba_marseille","lat":43.317229,"lon":5.423956,"is_reserved":false,"is_disabled":false,"rental_uris":{"android":"levelo://app?vid=39a36ad1-0b8e-49e6-9193-d176f70f2fb4","ios":"levelo://app?vid=39a36ad1-0b8e-49e6-9193-d176f70f2fb4"},"vehicle_type_id":"4","last_reported":1784804340,"current_range_meters":28800,"station_id":"ce4bhp92rcd13ifvqhbg","pricing_plan_id":"cebpf4jnsgd1na2vs0mg"},{"bike_id":"b62c6f43-d381-4900-8a07-23d79aaa3392","system_id":"levelo_inurba_marseille","lat":43.29558,"lon":5.42294,"is_reserved":false,"is_disabled":false,"rental_uris":{"android":"levelo://app?vid=b62c6f43-d381-4900-8a07-23d79aaa3392","ios":"levelo://app?vid=b62c6f43-d381-4900-8a07-23d79aaa3392"},"vehicle_type_id":"4","last_reported":1784804340,"current_range_meters":13600,"station_id":"ce4bhph2rcd13ifvqhdg","pricing_plan_id":"cebpf4jnsgd1na2vs0mg"},{"bike_id":"b4ac26d0-963a-4a25-bf7e-8083e1294ae5","system_id":"levelo_inurba_marseille","lat":43.23946,"lon":5.36641,"is_reserved":false,"is_disabled":false,"rental_uris":{"android":"levelo://app?vid=b4ac26d0-963a-4a25-bf7e-8083e1294ae5","ios":"levelo://app?vid=b4ac26d0-963a-4a25-bf7e-8083e1294ae5"},"vehicle_type_id":"4","last_reported":1784804340,"current_range_meters":33200,"station_id":"ce4bhi12rcd13ifvqfp0","pricing_plan_id":"cebpf4jnsgd1na2vs0mg"},{"bike_id":"16bb1c9d-f3f6-4965-803c-01fc6f072daf","system_id":"levelo_inurba_marseille","lat":43.29606,"lon":5.37715,"is_reserved":false,"is_disabled":false,"rental_uris":{"android":"levelo://app?vid=16bb1c9d-f3f6-4965-803c-01fc6f072daf","ios":"levelo://app?vid=16bb1c9d-f3f6-4965-803c-01fc6f072daf"},"vehicle_type_id":"4","last_reported":1784804340,"current_range_meters":38400,"station_id":"ce4bgi92rcd13ifvqb90","pricing_plan_id":"cebpf4jnsgd1na2vs0mg"},{"bike_id":"e9d0d147-0632-4910-8ba5-ffca986fabb8","system_id":"levelo_inurba_marseille","lat":43.30276,"lon":5.37705,"is_reserved":false,"is_disabled":false,"rental_uris":{"android":"levelo://app?vid=e9d0d147-0632-4910-8ba5-ffca986fabb8","ios":"levelo://app?vid=e9d0d147-0632-4910-8ba5-ffca986fabb8"},"vehicle_type_id":"4","last_reported":1784804340,"current_range_meters":39200,"station_id":"ce4bguh2rcd13ifvqcj0","pricing_plan_id":"cebpf4jnsgd1na2vs0mg"},{"bike_id":"3a295aff-6816-4af7-ac5a-87a5bd41c1cd","system_id":"levelo_inurba_marseille","lat":43.28475,"lon":5.48392,"is_reserved":false,"is_disabled":false,"rental_uris":{"android":"levelo://app?vid=3a295aff-6816-4af7-ac5a-87a5bd41c1cd","ios":"levelo://app?vid=3a295aff-6816-4af7-ac5a-87a5bd41c1cd"},"vehicle_type_id":"4","last_reported":1784804340,"current_range_meters":24400,"station_id":"st_d3svhcjqgbts73a3dn0g","pricing_plan_id":"cebpf4jnsgd1na2vs0mg"},{"bike_id":"7b1a34a9-9772-429a-ac81-dbcf3805788e","system_id":"levelo_inurba_marseille","lat":43.27879,"lon":5.35516,"is_reserved":false,"is_disabled":false,"rental_uris":{"android":"levelo://app?vid=7b1a34a9-9772-429a-ac81-dbcf3805788e","ios":"levelo://app?vid=7b1a34a9-9772-429a-ac81-dbcf3805788e"},"vehicle_type_id":"4","last_reported":1784804340,"current_range_meters":13600,"station_id":"","pricing_plan_id":"cebpf4jnsgd1na2vs0mg"},{"bike_id":"7604a6fd-063a-4db8-98a5-1a90fb1c01b2","system_id":"levelo_inurba_marseille","lat":43.27375,"lon":5.3626,"is_reserved":false,"is_disabled":false,"rental_uris":{"android":"levelo://app?vid=7604a6fd-063a-4db8-98a5-1a90fb1c01b2","ios":"levelo://app?vid=7604a6fd-063a-4db8-98a5-1a90fb1c01b2"},"vehicle_type_id":"4","last_reported":1784804340,"current_range_meters":11200,"station_id":"ce4bhbh2rcd13ifvqeo0","pricing_plan_id":"cebpf4jnsgd1na2vs0mg"},{"bike_id":"c4a3557b-bb52-478c-a824-3408b6b9e133","system_id":"levelo_inurba_marseille","lat":43.3087,"lon":5.39633,"is_reserved":false,"is_disabled":false,"rental_uris":{"android":"levelo://app?vid=c4a3557b-bb52-478c-a824-3408b6b9e133","ios":"levelo://app?vid=c4a3557b-bb52-478c-a824-3408b6b9e133"},"vehicle_type_id":"4","last_reported":1784804340,"current_range_meters":26000,"station_id":"ce4bh012rcd13ifvqcv0","pricing_plan_id":"cebpf4jnsgd1na2vs0mg"},{"bike_id":"b3615f38-9ae4-47b3-be0f-27da959fb130","system_id":"levelo_inurba_marseille","lat":43.26555,"lon":5.39673,"is_reserved":false,"is_disabled":false,"rental_uris":{"android":"levelo://app?vid=b3615f38-9ae4-47b3-be0f-27da959fb130","ios":"levelo://app?vid=b3615f38-9ae4-47b3-be0f-27da959fb130"},"vehicle_type_id":"4","last_reported":1784804340,"current_range_meters":11600,"station_id":"","pricing_plan_id":"cebpf4jnsgd1na2vs0mg"},{"bike_id":"eb25a44c-3772-4d67-8000-322bd399c2d5","system_id":"levelo_inurba_marseille","lat":43.29539,"lon":5.38544,"is_reserved":false,"is_disabled":false,"rental_uris":{"android":"levelo://app?vid=eb25a44c-3772-4d67-8000-322bd399c2d5","ios":"levelo://app?vid=eb25a44c-3772-4d67-8000-322bd399c2d5"},"vehicle_type_id":"4","last_reported":1784804340,"current_range_meters":27200,"station_id":"ce4bgih2rcd13ifvqba0","pricing_plan_id":"cebpf4jnsgd1na2vs0mg"},{"bike_id":"3a50cecf-85ee-4f33-a905-004a6c089296","system_id":"levelo_inurba_marseille","lat":43.28671,"lon":5.36382,"is_reserved":false,"is_disabled":false,"rental_uris":{"android":"levelo://app?vid=3a50cecf-85ee-4f33-a905-004a6c089296","ios":"levelo://app?vid=3a50cecf-85ee-4f33-a905-004a6c089296"},"vehicle_type_id":"4","last_reported":1784804340,"current_range_meters":36000,"station_id":"ce4bhah2rcd13ifvqej0","pricing_plan_id":"cebpf4jnsgd1na2vs0mg"},{"bike_id":"8094c541-617a-4d8d-a8a0-d0bafcd084c1","system_id":"levelo_inurba_marseille","lat":43.27825,"lon":5.40722,"is_reserved":false,"is_disabled":false,"rental_uris":{"android":"levelo://app?vid=8094c541-617a-4d8d-a8a0-d0bafcd084c1","ios":"levelo://app?vid=8094c541-617a-4d8d-a8a0-d0bafcd084c1"},"vehicle_type_id":"4","last_reported":1784804340,"current_range_meters":38400,"station_id":"ce4bhnh2rcd13ifvqgtg","pricing_plan_id":"cebpf4jnsgd1na2vs0mg"},{"bike_id":"01d9a676-01f3-4b98-beb9-e0a1a490c722","system_id":"levelo_inurba_marseille","lat":43.28159,"lon":5.42662,"is_reserved":false,"is_disabled":false,"rental_uris":{"android":"levelo://app?vid=01d9a676-01f3-4b98-beb9-e0a1a490c722","ios":"levelo://app?vid=01d9a676-01f3-4b98-beb9-e0a1a490c722"},"vehicle_type_id":"4","last_reported":1784804340,"current_range_meters":25600,"station_id":"ce4bhnh2rcd13ifvqgug","pricing_plan_id":"cebpf4jnsgd1na2vs0mg"},{"bike_id":"f765bc46-853b-4f5f-a0cf-13f9a2c85881","system_id":"levelo_inurba_marseille","lat":43.32106,"lon":5.36774,"is_reserved":false,"is_disabled":false,"rental_uris":{"android":"levelo://app?vid=f765bc46-853b-4f5f-a0cf-13f9a2c85881","ios":"levelo://app?vid=f765bc46-853b-4f5f-a0cf-13f9a2c85881"},"vehicle_type_id":"4","last_reported":1784804340,"current_range_meters":30000,"station_id":"ce4bhrh2rcd13ifvqhug","pricing_plan_id":"cebpf4jnsgd1na2vs0mg"},{"bike_id":"d8c0979f-8104-4cab-8d51-f042d27fce31","system_id":"levelo_inurba_marseille","lat":43.31359,"lon":5.3669,"is_reserved":false,"is_disabled":false,"rental_uris":{"android":"levelo://app?vid=d8c0979f-8104-4cab-8d51-f042d27fce31","ios":"levelo://app?vid=d8c0979f-8104-4cab-8d51-f042d27fce31"},"vehicle_type_id":"4","last_reported":1784804340,"current_range_meters":32800,"station_id":"ce4bgr92rcd13ifvqc6g","pricing_plan_id":"cebpf4jnsgd1na2vs0mg"},{"bike_id":"c469d1f0-e1f3-4009-933d-1f7d58ff00a5","system_id":"levelo_inurba_marseille","lat":43.25852,"lon":5.39904,"is_reserved":false,"is_disabled":false,"rental_uris":{"android":"levelo://app?vid=c469d1f0-e1f3-4009-933d-1f7d58ff00a5","ios":"levelo://app?vid=c469d1f0-e1f3-4009-933d-1f7d58ff00a5"},"vehicle_type_id":"4","last_reported":1784804340,"current_range_meters":24400,"station_id":"ce4bhl92rcd13ifvqghg","pricing_plan_id":"cebpf4jnsgd1na2vs0mg"},{"bike_id":"031ac819-28ef-47a2-931f-15f90b51b43e","system_id":"levelo_inurba_marseille","lat":43.26563,"lon":5.39021,"is_reserved":false,"is_disabled":false,"rental_uris":{"android":"levelo://app?vid=031ac819-28ef-47a2-931f-15f90b51b43e","ios":"levelo://app?vid=031ac819-28ef-47a2-931f-15f90b51b43e"},"vehicle_type_id":"4","last_reported":1784804340,"current_range_meters":12800,"station_id":"ce4bhe12rcd13ifvqf30","pricing_plan_id":"cebpf4jnsgd1na2vs0mg"},{"bike_id":"a13e16e4-e177-431d-8bef-33b38f696e96","system_id":"levelo_inurba_marseille","lat":43.26759,"lon":5.3998,"is_reserved":false,"is_disabled":false,"rental_uris":{"android":"levelo://app?vid=a13e16e4-e177-431d-8bef-33b38f696e96","ios":"levelo://app?vid=a13e16e4-e177-431d-8bef-33b38f696e96"},"vehicle_type_id":"4","last_reported":1784804340,"current_range_meters":21600,"station_id":"","pricing_plan_id":"cebpf4jnsgd1na2vs0mg"},{"bike_id":"2d7109ad-46e8-47c3-91fe-8fafb72b67c5","system_id":"levelo_inurba_marseille","lat":43.31896,"lon":5.36816,"is_reserved":false,"is_disabled":false,"rental_uris":{"android":"levelo://app?vid=2d7109ad-46e8-47c3-91fe-8fafb72b67c5","ios":"levelo://app?vid=2d7109ad-46e8-47c3-91fe-8fafb72b67c5"},"vehicle_type_id":"4","last_reported":1784804340,"current_range_meters":3600,"station_id":"st_d6o2h0d0559c73evc1b0","pricing_plan_id":"cebpf4jnsgd1na2vs0mg"},{"bike_id":"95afa2c1-6059-411a-b01e-fbab5e71cd62","system_id":"levelo_inurba_marseille","lat":43.28415,"lon":5.34991,"is_reserved":false,"is_disabled":false,"rental_uris":{"android":"levelo://app?vid=95afa2c1-6059-411a-b01e-fbab5e71cd62","ios":"levelo://app?vid=95afa2c1-6059-411a-b01e-fbab5e71cd62"},"vehicle_type_id":"4","last_reported":1784804340,"current_range_meters":4800,"station_id":"ce4bhbh2rcd13ifvqepg","pricing_plan_id":"cebpf4jnsgd1na2vs0mg"},{"bike_id":"de84f93e-2efe-44dd-902e-99315be80f66","system_id":"levelo_inurba_marseille","lat":43.24707,"lon":5.40316,"is_reserved":false,"is_disabled":false,"rental_uris":{"android":"levelo://app?vid=de84f93e-2efe-44dd-902e-99315be80f66","ios":"levelo://app?vid=de84f93e-2efe-44dd-902e-99315be80f66"},"vehicle_type_id":"4","last_reported":1784804340,"current_range_meters":33600,"station_id":"","pricing_plan_id":"cebpf4jnsgd1na2vs0mg"},{"bike_id":"522b8aa6-8236-4f78-beb0-6379f95a165b","system_id":"levelo_inurba_marseille","lat":43.255,"lon":5.37669,"is_reserved":false,"is_disabled":false,"rental_uris":{"android":"levelo://app?vid=522b8aa6-8236-4f78-beb0-6379f95a165b","ios":"levelo://app?vid=522b8aa6-8236-4f78-beb0-6379f95a165b"},"vehicle_type_id":"4","last_reported":1784804340,"current_range_meters":33600,"station_id":"ce4bhh12rcd13ifvqff0","pricing_plan_id":"cebpf4jnsgd1na2vs0mg"},{"bike_id":"9204c48f-8df7-43a3-b478-da259247ecd0","system_id":"levelo_inurba_marseille","lat":43.32479,"lon":5.36606,"is_reserved":false,"is_disabled":false,"rental_uris":{"android":"levelo://app?vid=9204c48f-8df7-43a3-b478-da259247ecd0","ios":"levelo://app?vid=9204c48f-8df7-43a3-b478-da259247ecd0"},"vehicle_type_id":"4","last_reported":1784804340,"current_range_meters":40000,"station_id":"ce4bhs12rcd13ifvqhvg","pricing_plan_id":"cebpf4jnsgd1na2vs0mg"},{"bike_id":"05d8a5eb-eb3c-484e-8401-3cb73deadbd0","system_id":"levelo_inurba_marseille","lat":43.24398,"lon":5.37067,"is_reserved":false,"is_disabled":false,"rental_uris":{"android":"levelo://app?vid=05d8a5eb-eb3c-484e-8401-3cb73deadbd0","ios":"levelo://app?vid=05d8a5eb-eb3c-484e-8401-3cb73deadbd0"},"vehicle_type_id":"4","last_reported":1784804340,"current_range_meters":39200,"station_id":"ce4bhhh2rcd13ifvqfk0","pricing_plan_id":"cebpf4jnsgd1na2vs0mg"},{"bike_id":"50d7506c-406d-4288-a673-b2239b010d08","system_id":"levelo_inurba_marseille","lat":43.28426,"lon":5.42383,"is_reserved":false,"is_disabled":true,"rental_uris":{"android":"levelo://app?vid=50d7506c-406d-4288-a673-b2239b010d08","ios":"levelo://app?vid=50d7506c-406d-4288-a673-b2239b010d08"},"vehicle_type_id":"4","last_reported":1784804340,"current_range_meters":0,"station_id":"","pricing_plan_id":"cebpf4jnsgd1na2vs0mg"},{"bike_id":"7d8a4efb-c8d5-4ff5-b142-546ee6ec50fd","system_id":"levelo_inurba_marseille","lat":43.30904,"lon":5.36852,"is_reserved":false,"is_disabled":false,"rental_uris":{"android":"levelo://app?vid=7d8a4efb-c8d5-4ff5-b142-546ee6ec50fd","ios":"levelo://app?vid=7d8a4efb-c8d5-4ff5-b142-546ee6ec50fd"},"vehicle_type_id":"4","last_reported":1784804340,"current_range_meters":39200,"station_id":"ce4bgn92rcd13ifvqbvg","pricing_plan_id":"cebpf4jnsgd1na2vs0mg"},{"bike_id":"f4e489b1-303c-4e9e-a051-b396d2258522","system_id":"levelo_inurba_marseille","lat":43.29228,"lon":5.39044,"is_reserved":false,"is_disabled":false,"rental_uris":{"android":"levelo://app?vid=f4e489b1-303c-4e9e-a051-b396d2258522","ios":"levelo://app?vid=f4e489b1-303c-4e9e-a051-b396d2258522"},"vehicle_type_id":"4","last_reported":1784804340,"current_range_meters":30400,"station_id":"","pricing_plan_id":"cebpf4jnsgd1na2vs0mg"},{"bike_id":"19ff02b4-af47-4aa1-b1e9-d47f6786d24c","system_id":"levelo_inurba_marseille","lat":43.28713,"lon":5.37945,"is_reserved":false,"is_disabled":false,"rental_uris":{"android":"levelo://app?vid=19ff02b4-af47-4aa1-b1e9-d47f6786d24c","ios":"levelo://app?vid=19ff02b4-af47-4aa1-b1e9-d47f6786d24c"},"vehicle_type_id":"4","last_reported":1784804340,"current_range_meters":38000,"station_id":"ce4bh9p2rcd13ifvqec0","pricing_plan_id":"cebpf4jnsgd1na2vs0mg"},{"bike_id":"211436c8-766b-4f01-a0a3-c0ce7d2281b6","system_id":"levelo_inurba_marseille","lat":43.28392,"lon":5.37527,"is_reserved":false,"is_disabled":false,"rental_uris":{"android":"levelo://app?vid=211436c8-766b-4f01-a0a3-c0ce7d2281b6","ios":"levelo://app?vid=211436c8-766b-4f01-a0a3-c0ce7d2281b6"},"vehicle_type_id":"4","last_reported":1784804340,"current_range_meters":22800,"station_id":"ce4bh412rcd13ifvqds0","pricing_plan_id":"cebpf4jnsgd1na2vs0mg"},{"bike_id":"6442147d-2b54-4dfa-8fb2-56f72a4482d0","system_id":"levelo_inurba_marseille","lat":43.29033,"lon":5.39996,"is_reserved":false,"is_disabled":false,"rental_uris":{"android":"levelo://app?vid=6442147d-2b54-4dfa-8fb2-56f72a4482d0","ios":"levelo://app?vid=6442147d-2b54-4dfa-8fb2-56f72a4482d0"},"vehicle_type_id":"4","last_reported":1784804340,"current_range_meters":25200,"station_id":"ce4bh392rcd13ifvqdm0","pricing_plan_id":"cebpf4jnsgd1na2vs0mg"},{"bike_id":"cc006e8d-9994-4528-8a38-cb8b15486a1f","system_id":"levelo_inurba_marseille","lat":43.28492,"lon":5.38547,"is_reserved":false,"is_disabled":false,"rental_uris":{"android":"levelo://app?vid=cc006e8d-9994-4528-8a38-cb8b15486a1f","ios":"levelo://app?vid=cc006e8d-9994-4528-8a38-cb8b15486a1f"},"vehicle_type_id":"4","last_reported":1784804340,"current_range_meters":34000,"station_id":"ce4bh8p2rcd13ifvqeb0","pricing_plan_id":"cebpf4jnsgd1na2vs0mg"},{"bike_id":"bd5ff10c-a7d7-42ba-85d6-b31ab0338f87","system_id":"levelo_inurba_marseille","lat":43.2603,"lon":5.37548,"is_reserved":false,"is_disabled":true,"rental_uris":{"android":"levelo://app?vid=bd5ff10c-a7d7-42ba-85d6-b31ab0338f87","ios":"levelo://app?vid=bd5ff10c-a7d7-42ba-85d6-b31ab0338f87"},"vehicle_type_id":"4","last_reported":1784804340,"current_range_meters":0,"station_id":"ce4bhgh2rcd13ifvqfa0","pricing_plan_id":"cebpf4jnsgd1na2vs0mg"},{"bike_id":"94ff30fa-9437-4cb2-b8c6-054b469bec55","system_id":"levelo_inurba_marseille","lat":43.30959,"lon":5.39036,"is_reserved":false,"is_disabled":false,"rental_uris":{"android":"levelo://app?vid=94ff30fa-9437-4cb2-b8c6-054b469bec55","ios":"levelo://app?vid=94ff30fa-9437-4cb2-b8c6-054b469bec55"},"vehicle_type_id":"4","last_reported":1784804340,"current_range_meters":19600,"station_id":"ce4bgup2rcd13ifvqco0","pricing_plan_id":"cebpf4jnsgd1na2vs0mg"},{"bike_id":"c47332da-5d73-4c5e-93dd-1bdf36fd44fc","system_id":"levelo_inurba_marseille","lat":43.23959,"lon":5.3663,"is_reserved":false,"is_disabled":false,"rental_uris":{"android":"levelo://app?vid=c47332da-5d73-4c5e-93dd-1bdf36fd44fc","ios":"levelo://app?vid=c47332da-5d73-4c5e-93dd-1bdf36fd44fc"},"vehicle_type_id":"4","last_reported":1784804340,"current_range_meters":28400,"station_id":"ce4bhi12rcd13ifvqfp0","pricing_plan_id":"cebpf4jnsgd1na2vs0mg"},{"bike_id":"130a1451-91d5-42c2-ab7b-3a335873b143","system_id":"levelo_inurba_marseille","lat":43.27492,"lon":5.41592,"is_reserved":false,"is_disabled":false,"rental_uris":{"android":"levelo://app?vid=130a1451-91d5-42c2-ab7b-3a335873b143","ios":"levelo://app?vid=130a1451-91d5-42c2-ab7b-3a335873b143"},"vehicle_type_id":"4","last_reported":1784804340,"current_range_meters":38000,"station_id":"st_d6im8g6chgec73a5pndg","pricing_plan_id":"cebpf4jnsgd1na2vs0mg"},{"bike_id":"f1288106-a8c3-4624-ad2a-44299213b3e2","system_id":"levelo_inurba_marseille","lat":43.29589,"lon":5.36743,"is_reserved":false,"is_disabled":true,"rental_uris":{"android":"levelo://app?vid=f1288106-a8c3-4624-ad2a-44299213b3e2","ios":"levelo://app?vid=f1288106-a8c3-4624-ad2a-44299213b3e2"},"vehicle_type_id":"4","last_reported":1784804340,"current_range_meters":39200,"station_id":"","pricing_plan_id":"cebpf4jnsgd1na2vs0mg"},{"bike_id":"79067745-b4d4-448a-9910-f4dddbdb5cb0","system_id":"levelo_inurba_marseille","lat":43.313308,"lon":5.366996,"is_reserved":false,"is_disabled":false,"rental_uris":{"android":"levelo://app?vid=79067745-b4d4-448a-9910-f4dddbdb5cb0","ios":"levelo://app?vid=79067745-b4d4-448a-9910-f4dddbdb5cb0"},"vehicle_type_id":"4","last_reported":1784804340,"current_range_meters":22000,"station_id":"","pricing_plan_id":"cebpf4jnsgd1na2vs0mg"},{"bike_id":"ab907c16-2123-44c2-912f-95e0f2737c03","system_id":"levelo_inurba_marseille","lat":43.30381,"lon":5.42715,"is_reserved":false,"is_disabled":true,"rental_uris":{"android":"levelo://app?vid=ab907c16-2123-44c2-912f-95e0f2737c03","ios":"levelo://app?vid=ab907c16-2123-44c2-912f-95e0f2737c03"},"vehicle_type_id":"4","last_reported":1784804340,"current_range_meters":20800,"station_id":"","pricing_plan_id":"cebpf4jnsgd1na2vs0mg"},{"bike_id":"5fcdfb3e-280f-4960-a347-44247022028f","system_id":"levelo_inurba_marseille","lat":43.27994,"lon":5.38696,"is_reserved":false,"is_disabled":false,"rental_uris":{"android":"levelo://app?vid=5fcdfb3e-280f-4960-a347-44247022028f","ios":"levelo://app?vid=5fcdfb3e-280f-4960-a347-44247022028f"},"vehicle_type_id":"4","last_reported":1784804340,"current_range_meters":16000,"station_id":"ce4bhg12rcd13ifvqf80","pricing_plan_id":"cebpf4jnsgd1na2vs0mg"},{"bike_id":"0f27047d-3cee-486f-bbfd-4e43b3a3a5db","system_id":"levelo_inurba_marseille","lat":43.32099,"lon":5.36766,"is_reserved":false,"is_disabled":false,"rental_uris":{"android":"levelo://app?vid=0f27047d-3cee-486f-bbfd-4e43b3a3a5db","ios":"levelo://app?vid=0f27047d-3cee-486f-bbfd-4e43b3a3a5db"},"vehicle_type_id":"4","last_reported":1784804340,"current_range_meters":30800,"station_id":"ce4bhrh2rcd13ifvqhug","pricing_plan_id":"cebpf4jnsgd1na2vs0mg"},{"bike_id":"c5647778-c9fd-4faa-80eb-ad7d6bd96069","system_id":"levelo_inurba_marseille","lat":43.28405,"lon":5.37517,"is_reserved":false,"is_disabled":false,"rental_uris":{"android":"levelo://app?vid=c5647778-c9fd-4faa-80eb-ad7d6bd96069","ios":"levelo://app?vid=c5647778-c9fd-4faa-80eb-ad7d6bd96069"},"vehicle_type_id":"4","last_reported":1784804340,"current_range_meters":8800,"station_id":"ce4bh412rcd13ifvqds0","pricing_plan_id":"cebpf4jnsgd1na2vs0mg"},{"bike_id":"a68600bb-7cb8-446a-8af2-4628e3a05293","system_id":"levelo_inurba_marseille","lat":43.31049,"lon":5.37185,"is_reserved":false,"is_disabled":false,"rental_uris":{"android":"levelo://app?vid=a68600bb-7cb8-446a-8af2-4628e3a05293","ios":"levelo://app?vid=a68600bb-7cb8-446a-8af2-4628e3a05293"},"vehicle_type_id":"4","last_reported":1784804340,"current_range_meters":6000,"station_id":"st_d4kl2rp97mjs73e7tdfg","pricing_plan_id":"cebpf4jnsgd1na2vs0mg"},{"bike_id":"88ced82f-3d64-42bd-9b21-5d08c0dbd8d3","system_id":"levelo_inurba_marseille","lat":43.25924,"lon":5.40898,"is_reserved":false,"is_disabled":false,"rental_uris":{"android":"levelo://app?vid=88ced82f-3d64-42bd-9b21-5d08c0dbd8d3","ios":"levelo://app?vid=88ced82f-3d64-42bd-9b21-5d08c0dbd8d3"},"vehicle_type_id":"4","last_reported":1784804340,"current_range_meters":25200,"station_id":"ce4bhm92rcd13ifvqglg","pricing_plan_id":"cebpf4jnsgd1na2vs0mg"},{"bike_id":"c520161e-c250-4161-a55a-6b287776d8da","system_id":"levelo_inurba_marseille","lat":43.28463,"lon":5.48402,"is_reserved":false,"is_disabled":false,"rental_uris":{"android":"levelo://app?vid=c520161e-c250-4161-a55a-6b287776d8da","ios":"levelo://app?vid=c520161e-c250-4161-a55a-6b287776d8da"},"vehicle_type_id":"4","last_reported":1784804340,"current_range_meters":25600,"station_id":"st_d3svhcjqgbts73a3dn0g","pricing_plan_id":"cebpf4jnsgd1na2vs0mg"},{"bike_id":"1be16c68-4af1-419d-93d4-773b2af07f2a","system_id":"levelo_inurba_marseille","lat":43.28526,"lon":5.44109,"is_reserved":false,"is_disabled":false,"rental_uris":{"android":"levelo://app?vid=1be16c68-4af1-419d-93d4-773b2af07f2a","ios":"levelo://app?vid=1be16c68-4af1-419d-93d4-773b2af07f2a"},"vehicle_type_id":"4","last_reported":1784804340,"current_range_meters":36800,"station_id":"st_d3j3df2ikq2c7380ej80","pricing_plan_id":"cebpf4jnsgd1na2vs0mg"},{"bike_id":"5da9832b-9d95-4c71-920e-974ffc445ef1","system_id":"levelo_inurba_marseille","lat":43.25499,"lon":5.37661,"is_reserved":false,"is_disabled":false,"rental_uris":{"android":"levelo://app?vid=5da9832b-9d95-4c71-920e-974ffc445ef1","ios":"levelo://app?vid=5da9832b-9d95-4c71-920e-974ffc445ef1"},"vehicle_type_id":"4","last_reported":1784804340,"current_range_meters":20800,"station_id":"ce4bhh12rcd13ifvqff0","pricing_plan_id":"cebpf4jnsgd1na2vs0mg"},{"bike_id":"871b7acd-6bff-4f2c-9121-63b574d46de7","system_id":"levelo_inurba_marseille","lat":43.32539,"lon":5.41473,"is_reserved":false,"is_disabled":false,"rental_uris":{"android":"levelo://app?vid=871b7acd-6bff-4f2c-9121-63b574d46de7","ios":"levelo://app?vid=871b7acd-6bff-4f2c-9121-63b574d46de7"},"vehicle_type_id":"4","last_reported":1784804340,"current_range_meters":28400,"station_id":"ce4bhq12rcd13ifvqhhg","pricing_plan_id":"cebpf4jnsgd1na2vs0mg"},{"bike_id":"42a5d6f2-926a-4725-99ed-db0e59d1f27f","system_id":"levelo_inurba_marseille","lat":43.31482,"lon":5.37288,"is_reserved":false,"is_disabled":false,"rental_uris":{"android":"levelo://app?vid=42a5d6f2-926a-4725-99ed-db0e59d1f27f","ios":"levelo://app?vid=42a5d6f2-926a-4725-99ed-db0e59d1f27f"},"vehicle_type_id":"4","last_reported":1784804340,"current_range_meters":36800,"station_id":"ce4bgt12rcd13ifvqcd0","pricing_plan_id":"cebpf4jnsgd1na2vs0mg"},{"bike_id":"1aa5a25d-6329-499b-a15c-43cf1a15c141","system_id":"levelo_inurba_marseille","lat":43.30531,"lon":5.3656,"is_reserved":false,"is_disabled":false,"rental_uris":{"android":"levelo://app?vid=1aa5a25d-6329-499b-a15c-43cf1a15c141","ios":"levelo://app?vid=1aa5a25d-6329-499b-a15c-43cf1a15c141"},"vehicle_type_id":"4","last_reported":1784804340,"current_range_meters":10000,"station_id":"ce4bgs12rcd13ifvqcag","pricing_plan_id":"cebpf4jnsgd1na2vs0mg"},{"bike_id":"18c6418f-637c-4476-899d-4b3c727f8d9d","system_id":"levelo_inurba_marseille","lat":43.30904,"lon":5.36841,"is_reserved":false,"is_disabled":false,"rental_uris":{"android":"levelo://app?vid=18c6418f-637c-4476-899d-4b3c727f8d9d","ios":"levelo://app?vid=18c6418f-637c-4476-899d-4b3c727f8d9d"},"vehicle_type_id":"4","last_reported":1784804340,"current_range_meters":16000,"station_id":"ce4bgn92rcd13ifvqbvg","pricing_plan_id":"cebpf4jnsgd1na2vs0mg"},{"bike_id":"57de649b-e049-4a99-96de-111e997e9dcd","system_id":"levelo_inurba_marseille","lat":43.31375,"lon":5.36681,"is_reserved":false,"is_disabled":false,"rental_uris":{"android":"levelo://app?vid=57de649b-e049-4a99-96de-111e997e9dcd","ios":"levelo://app?vid=57de649b-e049-4a99-96de-111e997e9dcd"},"vehicle_type_id":"4","last_reported":1784804340,"current_range_meters":9200,"station_id":"ce4bgr92rcd13ifvqc6g","pricing_plan_id":"cebpf4jnsgd1na2vs0mg"},{"bike_id":"f2481b52-166b-4e48-b342-291ac7f31418","system_id":"levelo_inurba_marseille","lat":43.29899,"lon":5.38147,"is_reserved":false,"is_disabled":false,"rental_uris":{"android":"levelo://app?vid=f2481b52-166b-4e48-b342-291ac7f31418","ios":"levelo://app?vid=f2481b52-166b-4e48-b342-291ac7f31418"},"vehicle_type_id":"4","last_reported":1784804340,"current_range_meters":35600,"station_id":"ce4bgj12rcd13ifvqbc0","pricing_plan_id":"cebpf4jnsgd1na2vs0mg"},{"bike_id":"c31ea38b-cee9-41a1-93fb-85dd217b0cbd","system_id":"levelo_inurba_marseille","lat":43.33737,"lon":5.3671,"is_reserved":false,"is_disabled":false,"rental_uris":{"android":"levelo://app?vid=c31ea38b-cee9-41a1-93fb-85dd217b0cbd","ios":"levelo://app?vid=c31ea38b-cee9-41a1-93fb-85dd217b0cbd"},"vehicle_type_id":"4","last_reported":1784804340,"current_range_meters":28400,"station_id":"","pricing_plan_id":"cebpf4jnsgd1na2vs0mg"},{"bike_id":"0353fca3-fbdd-4286-a9eb-ebce376c25fa","system_id":"levelo_inurba_marseille","lat":43.23356,"lon":5.41249,"is_reserved":false,"is_disabled":false,"rental_uris":{"android":"levelo://app?vid=0353fca3-fbdd-4286-a9eb-ebce376c25fa","ios":"levelo://app?vid=0353fca3-fbdd-4286-a9eb-ebce376c25fa"},"vehicle_type_id":"4","last_reported":1784804340,"current_range_meters":36800,"station_id":"st_d75pvndhf9lc73cqq3eg","pricing_plan_id":"cebpf4jnsgd1na2vs0mg"},{"bike_id":"b8e43a89-3bb1-4279-9cee-f7b093c9b703","system_id":"levelo_inurba_marseille","lat":43.33718,"lon":5.37415,"is_reserved":false,"is_disabled":false,"rental_uris":{"android":"levelo://app?vid=b8e43a89-3bb1-4279-9cee-f7b093c9b703","ios":"levelo://app?vid=b8e43a89-3bb1-4279-9cee-f7b093c9b703"},"vehicle_type_id":"4","last_reported":1784804340,"current_range_meters":10800,"station_id":"","pricing_plan_id":"cebpf4jnsgd1na2vs0mg"},{"bike_id":"c0b1e859-639a-4ddf-b7a3-3e4a97d5a5ae","system_id":"levelo_inurba_marseille","lat":43.304321,"lon":5.397452,"is_reserved":false,"is_disabled":true,"rental_uris":{"android":"levelo://app?vid=c0b1e859-639a-4ddf-b7a3-3e4a97d5a5ae","ios":"levelo://app?vid=c0b1e859-639a-4ddf-b7a3-3e4a97d5a5ae"},"vehicle_type_id":"4","last_reported":1784804340,"current_range_meters":400,"station_id":"ce4bh092rcd13ifvqd20","pricing_plan_id":"cebpf4jnsgd1na2vs0mg"},{"bike_id":"17ec69e9-f82e-42b7-8fd3-de92d2bea59d","system_id":"levelo_inurba_marseille","lat":43.25328,"lon":5.42175,"is_reserved":false,"is_disabled":false,"rental_uris":{"android":"levelo://app?vid=17ec69e9-f82e-42b7-8fd3-de92d2bea59d","ios":"levelo://app?vid=17ec69e9-f82e-42b7-8fd3-de92d2bea59d"},"vehicle_type_id":"4","last_reported":1784804340,"current_range_meters":20000,"station_id":"st_d2m65c5bi1j21697t3ng","pricing_plan_id":"cebpf4jnsgd1na2vs0mg"},{"bike_id":"17db08fa-3ff1-4223-90c8-7ee5991d42bc","system_id":"levelo_inurba_marseille","lat":43.28557,"lon":5.37762,"is_reserved":false,"is_disabled":false,"rental_uris":{"android":"levelo://app?vid=17db08fa-3ff1-4223-90c8-7ee5991d42bc","ios":"levelo://app?vid=17db08fa-3ff1-4223-90c8-7ee5991d42bc"},"vehicle_type_id":"4","last_reported":1784804340,"current_range_meters":33600,"station_id":"","pricing_plan_id":"cebpf4jnsgd1na2vs0mg"},{"bike_id":"b850a1f0-72ca-4919-ab6a-20e0728be7cc","system_id":"levelo_inurba_marseille","lat":43.27206,"lon":5.39184,"is_reserved":false,"is_disabled":false,"rental_uris":{"android":"levelo://app?vid=b850a1f0-72ca-4919-ab6a-20e0728be7cc","ios":"levelo://app?vid=b850a1f0-72ca-4919-ab6a-20e0728be7cc"},"vehicle_type_id":"4","last_reported":1784804340,"current_range_meters":38000,"station_id":"ce4bhhp2rcd13ifvqfm0","pricing_plan_id":"cebpf4jnsgd1na2vs0mg"},{"bike_id":"5783761d-f3a8-46b4-8c26-9812d8d66703","system_id":"levelo_inurba_marseille","lat":43.22535,"lon":5.34809,"is_reserved":false,"is_disabled":false,"rental_uris":{"android":"levelo://app?vid=5783761d-f3a8-46b4-8c26-9812d8d66703","ios":"levelo://app?vid=5783761d-f3a8-46b4-8c26-9812d8d66703"},"vehicle_type_id":"4","last_reported":1784804340,"current_range_meters":19200,"station_id":"st_cvj5dfep6f1abm77gieg","pricing_plan_id":"cebpf4jnsgd1na2vs0mg"},{"bike_id":"edef674e-d003-42f9-9dc8-7f095b9d6d5a","system_id":"levelo_inurba_marseille","lat":43.30915,"lon":5.36827,"is_reserved":false,"is_disabled":false,"rental_uris":{"android":"levelo://app?vid=edef674e-d003-42f9-9dc8-7f095b9d6d5a","ios":"levelo://app?vid=edef674e-d003-42f9-9dc8-7f095b9d6d5a"},"vehicle_type_id":"4","last_reported":1784804340,"current_range_meters":36800,"station_id":"ce4bgn92rcd13ifvqbvg","pricing_plan_id":"cebpf4jnsgd1na2vs0mg"},{"bike_id":"6772e332-26aa-4530-86da-d14c0f48009d","system_id":"levelo_inurba_marseille","lat":43.26198,"lon":5.37457,"is_reserved":false,"is_disabled":false,"rental_uris":{"android":"levelo://app?vid=6772e332-26aa-4530-86da-d14c0f48009d","ios":"levelo://app?vid=6772e332-26aa-4530-86da-d14c0f48009d"},"vehicle_type_id":"4","last_reported":1784804340,"current_range_meters":38800,"station_id":"ce4bhgp2rcd13ifvqfc0","pricing_plan_id":"cebpf4jnsgd1na2vs0mg"},{"bike_id":"bfea7831-1463-49f5-8140-32071c3ddf86","system_id":"levelo_inurba_marseille","lat":43.28473,"lon":5.38571,"is_reserved":false,"is_disabled":false,"rental_uris":{"android":"levelo://app?vid=bfea7831-1463-49f5-8140-32071c3ddf86","ios":"levelo://app?vid=bfea7831-1463-49f5-8140-32071c3ddf86"},"vehicle_type_id":"4","last_reported":1784804340,"current_range_meters":36000,"station_id":"ce4bh8p2rcd13ifvqeb0","pricing_plan_id":"cebpf4jnsgd1na2vs0mg"},{"bike_id":"e82bdd7e-7281-423b-982d-a34f7e5d1de9","system_id":"levelo_inurba_marseille","lat":43.30311,"lon":5.39195,"is_reserved":false,"is_disabled":false,"rental_uris":{"android":"levelo://app?vid=e82bdd7e-7281-423b-982d-a34f7e5d1de9","ios":"levelo://app?vid=e82bdd7e-7281-423b-982d-a34f7e5d1de9"},"vehicle_type_id":"4","last_reported":1784804340,"current_range_meters":21600,"station_id":"ce4bgkh2rcd13ifvqbk0","pricing_plan_id":"cebpf4jnsgd1na2vs0mg"},{"bike_id":"13bbfe3b-874b-44d7-9abb-922c8de23c11","system_id":"levelo_inurba_marseille","lat":43.23266,"lon":5.35375,"is_reserved":false,"is_disabled":false,"rental_uris":{"android":"levelo://app?vid=13bbfe3b-874b-44d7-9abb-922c8de23c11","ios":"levelo://app?vid=13bbfe3b-874b-44d7-9abb-922c8de23c11"},"vehicle_type_id":"4","last_reported":1784804340,"current_range_meters":18800,"station_id":"","pricing_plan_id":"cebpf4jnsgd1na2vs0mg"},{"bike_id":"a29fc34b-47f0-4e6c-a49d-ad840f4184cd","system_id":"levelo_inurba_marseille","lat":43.33153,"lon":5.37764,"is_reserved":false,"is_disabled":false,"rental_uris":{"android":"levelo://app?vid=a29fc34b-47f0-4e6c-a49d-ad840f4184cd","ios":"levelo://app?vid=a29fc34b-47f0-4e6c-a49d-ad840f4184cd"},"vehicle_type_id":"4","last_reported":1784804340,"current_range_meters":39200,"station_id":"","pricing_plan_id":"cebpf4jnsgd1na2vs0mg"},{"bike_id":"4439da49-9e14-4b9f-b416-f268158503ab","system_id":"levelo_inurba_marseille","lat":43.30349,"lon":5.41876,"is_reserved":false,"is_disabled":false,"rental_uris":{"android":"levelo://app?vid=4439da49-9e14-4b9f-b416-f268158503ab","ios":"levelo://app?vid=4439da49-9e14-4b9f-b416-f268158503ab"},"vehicle_type_id":"4","last_reported":1784804340,"current_range_meters":16000,"station_id":"ce4bhop2rcd13ifvqh7g","pricing_plan_id":"cebpf4jnsgd1na2vs0mg"},{"bike_id":"9a86c5d2-1372-44b0-9209-43c3e2bf6ce4","system_id":"levelo_inurba_marseille","lat":43.31355,"lon":5.36778,"is_reserved":false,"is_disabled":false,"rental_uris":{"android":"levelo://app?vid=9a86c5d2-1372-44b0-9209-43c3e2bf6ce4","ios":"levelo://app?vid=9a86c5d2-1372-44b0-9209-43c3e2bf6ce4"},"vehicle_type_id":"4","last_reported":1784804340,"current_range_meters":36800,"station_id":"","pricing_plan_id":"cebpf4jnsgd1na2vs0mg"},{"bike_id":"6ed5f8c3-6da8-4cec-bfad-13253a432d70","system_id":"levelo_inurba_marseille","lat":43.29411,"lon":5.38618,"is_reserved":false,"is_disabled":true,"rental_uris":{"android":"levelo://app?vid=6ed5f8c3-6da8-4cec-bfad-13253a432d70","ios":"levelo://app?vid=6ed5f8c3-6da8-4cec-bfad-13253a432d70"},"vehicle_type_id":"4","last_reported":1784804340,"current_range_meters":29600,"station_id":"","pricing_plan_id":"cebpf4jnsgd1na2vs0mg"},{"bike_id":"2abfcdfb-2eb0-4480-932d-1071dc8638d6","system_id":"levelo_inurba_marseille","lat":43.33519,"lon":5.37464,"is_reserved":false,"is_disabled":false,"rental_uris":{"android":"levelo://app?vid=2abfcdfb-2eb0-4480-932d-1071dc8638d6","ios":"levelo://app?vid=2abfcdfb-2eb0-4480-932d-1071dc8638d6"},"vehicle_type_id":"4","last_reported":1784804340,"current_range_meters":38400,"station_id":"st_d46tts09ee8s73dlu43g","pricing_plan_id":"cebpf4jnsgd1na2vs0mg"},{"bike_id":"0dee0085-d5a5-4c48-b3f1-a323bb744f3d","system_id":"levelo_inurba_marseille","lat":43.22554,"lon":5.41634,"is_reserved":false,"is_disabled":false,"rental_uris":{"android":"levelo://app?vid=0dee0085-d5a5-4c48-b3f1-a323bb744f3d","ios":"levelo://app?vid=0dee0085-d5a5-4c48-b3f1-a323bb744f3d"},"vehicle_type_id":"4","last_reported":1784804340,"current_range_meters":28400,"station_id":"st_d2o4gvlbi1j2169b742g","pricing_plan_id":"cebpf4jnsgd1na2vs0mg"},{"bike_id":"f8a62472-310a-4cdb-8033-1b7409152d27","system_id":"levelo_inurba_marseille","lat":43.25723,"lon":5.41122,"is_reserved":false,"is_disabled":false,"rental_uris":{"android":"levelo://app?vid=f8a62472-310a-4cdb-8033-1b7409152d27","ios":"levelo://app?vid=f8a62472-310a-4cdb-8033-1b7409152d27"},"vehicle_type_id":"4","last_reported":1784804340,"current_range_meters":24000,"station_id":"ce4bhkp2rcd13ifvqgd0","pricing_plan_id":"cebpf4jnsgd1na2vs0mg"},{"bike_id":"082a8540-8653-43a9-9ea9-5771a75d2e6d","system_id":"levelo_inurba_marseille","lat":43.32525,"lon":5.41445,"is_reserved":false,"is_disabled":false,"rental_uris":{"android":"levelo://app?vid=082a8540-8653-43a9-9ea9-5771a75d2e6d","ios":"levelo://app?vid=082a8540-8653-43a9-9ea9-5771a75d2e6d"},"vehicle_type_id":"4","last_reported":1784804340,"current_range_meters":22400,"station_id":"ce4bhq12rcd13ifvqhhg","pricing_plan_id":"cebpf4jnsgd1na2vs0mg"},{"bike_id":"717a125f-b47d-4aed-8e18-13104463fff3","system_id":"levelo_inurba_marseille","lat":43.31344,"lon":5.36717,"is_reserved":false,"is_disabled":false,"rental_uris":{"android":"levelo://app?vid=717a125f-b47d-4aed-8e18-13104463fff3","ios":"levelo://app?vid=717a125f-b47d-4aed-8e18-13104463fff3"},"vehicle_type_id":"4","last_reported":1784804340,"current_range_meters":28000,"station_id":"ce4bgr92rcd13ifvqc6g","pricing_plan_id":"cebpf4jnsgd1na2vs0mg"},{"bike_id":"0b2c45f2-fdaa-45fe-9511-e6426cab85f6","system_id":"levelo_inurba_marseille","lat":43.2749,"lon":5.4245,"is_reserved":false,"is_disabled":false,"rental_uris":{"android":"levelo://app?vid=0b2c45f2-fdaa-45fe-9511-e6426cab85f6","ios":"levelo://app?vid=0b2c45f2-fdaa-45fe-9511-e6426cab85f6"},"vehicle_type_id":"4","last_reported":1784804340,"current_range_meters":16400,"station_id":"ce4bhn92rcd13ifvqgrg","pricing_plan_id":"cebpf4jnsgd1na2vs0mg"},{"bike_id":"aaf7686f-fa15-4f45-bf11-dfb700bdc793","system_id":"levelo_inurba_marseille","lat":43.30457,"lon":5.39196,"is_reserved":false,"is_disabled":false,"rental_uris":{"android":"levelo://app?vid=aaf7686f-fa15-4f45-bf11-dfb700bdc793","ios":"levelo://app?vid=aaf7686f-fa15-4f45-bf11-dfb700bdc793"},"vehicle_type_id":"4","last_reported":1784804340,"current_range_meters":39200,"station_id":"","pricing_plan_id":"cebpf4jnsgd1na2vs0mg"},{"bike_id":"78e00a92-d19b-4af3-808c-98912b858212","system_id":"levelo_inurba_marseille","lat":43.3081,"lon":5.38161,"is_reserved":false,"is_disabled":false,"rental_uris":{"android":"levelo://app?vid=78e00a92-d19b-4af3-808c-98912b858212","ios":"levelo://app?vid=78e00a92-d19b-4af3-808c-98912b858212"},"vehicle_type_id":"4","last_reported":1784804340,"current_range_meters":34000,"station_id":"ce4bgt12rcd13ifvqce0","pricing_plan_id":"cebpf4jnsgd1na2vs0mg"},{"bike_id":"dad5eff3-cb3a-4459-ba39-741abe4a6c6c","system_id":"levelo_inurba_marseille","lat":43.32101,"lon":5.36796,"is_reserved":false,"is_disabled":false,"rental_uris":{"android":"levelo://app?vid=dad5eff3-cb3a-4459-ba39-741abe4a6c6c","ios":"levelo://app?vid=dad5eff3-cb3a-4459-ba39-741abe4a6c6c"},"vehicle_type_id":"4","last_reported":1784804340,"current_range_meters":4800,"station_id":"ce4bhrh2rcd13ifvqhug","pricing_plan_id":"cebpf4jnsgd1na2vs0mg"},{"bike_id":"4b83ed05-c620-41da-b800-89d3dfda1161","system_id":"levelo_inurba_marseille","lat":43.27357,"lon":5.36267,"is_reserved":false,"is_disabled":false,"rental_uris":{"android":"levelo://app?vid=4b83ed05-c620-41da-b800-89d3dfda1161","ios":"levelo://app?vid=4b83ed05-c620-41da-b800-89d3dfda1161"},"vehicle_type_id":"4","last_reported":1784804340,"current_range_meters":39200,"station_id":"ce4bhbh2rcd13ifvqeo0","pricing_plan_id":"cebpf4jnsgd1na2vs0mg"},{"bike_id":"2ff76878-60d0-43b0-a6e0-ed4e2fa4f72a","system_id":"levelo_inurba_marseille","lat":43.2767,"lon":5.38885,"is_reserved":false,"is_disabled":false,"rental_uris":{"android":"levelo://app?vid=2ff76878-60d0-43b0-a6e0-ed4e2fa4f72a","ios":"levelo://app?vid=2ff76878-60d0-43b0-a6e0-ed4e2fa4f72a"},"vehicle_type_id":"4","last_reported":1784804340,"current_range_meters":39200,"station_id":"ce4bhi12rcd13ifvqfo0","pricing_plan_id":"cebpf4jnsgd1na2vs0mg"},{"bike_id":"803f7df9-868f-456a-ad9f-b9f6950af8c3","system_id":"levelo_inurba_marseille","lat":43.23199,"lon":5.3996,"is_reserved":false,"is_disabled":false,"rental_uris":{"android":"levelo://app?vid=803f7df9-868f-456a-ad9f-b9f6950af8c3","ios":"levelo://app?vid=803f7df9-868f-456a-ad9f-b9f6950af8c3"},"vehicle_type_id":"4","last_reported":1784804340,"current_range_meters":38400,"station_id":"ce4bhn12rcd13ifvqgqg","pricing_plan_id":"cebpf4jnsgd1na2vs0mg"},{"bike_id":"8d8673aa-a69c-4d74-931d-06b8f35221f4","system_id":"levelo_inurba_marseille","lat":43.26697,"lon":5.41976,"is_reserved":false,"is_disabled":false,"rental_uris":{"android":"levelo://app?vid=8d8673aa-a69c-4d74-931d-06b8f35221f4","ios":"levelo://app?vid=8d8673aa-a69c-4d74-931d-06b8f35221f4"},"vehicle_type_id":"4","last_reported":1784804340,"current_range_meters":24400,"station_id":"","pricing_plan_id":"cebpf4jnsgd1na2vs0mg"},{"bike_id":"fafef446-91dd-4676-92a7-98ee5a6f2e38","system_id":"levelo_inurba_marseille","lat":43.299828,"lon":5.371924,"is_reserved":false,"is_disabled":false,"rental_uris":{"android":"levelo://app?vid=fafef446-91dd-4676-92a7-98ee5a6f2e38","ios":"levelo://app?vid=fafef446-91dd-4676-92a7-98ee5a6f2e38"},"vehicle_type_id":"4","last_reported":1784804340,"current_range_meters":32000,"station_id":"ce4bh4p2rcd13ifvqe1g","pricing_plan_id":"cebpf4jnsgd1na2vs0mg"},{"bike_id":"bb6c1d94-b8a1-4d7e-8e26-2628675f7e1d","system_id":"levelo_inurba_marseille","lat":43.2962,"lon":5.37727,"is_reserved":false,"is_disabled":true,"rental_uris":{"android":"levelo://app?vid=bb6c1d94-b8a1-4d7e-8e26-2628675f7e1d","ios":"levelo://app?vid=bb6c1d94-b8a1-4d7e-8e26-2628675f7e1d"},"vehicle_type_id":"4","last_reported":1784804340,"current_range_meters":17600,"station_id":"ce4bgi92rcd13ifvqb90","pricing_plan_id":"cebpf4jnsgd1na2vs0mg"},{"bike_id":"5673a960-0e32-4bdd-8d6b-e6dc82efbb88","system_id":"levelo_inurba_marseille","lat":43.3018,"lon":5.36608,"is_reserved":false,"is_disabled":false,"rental_uris":{"android":"levelo://app?vid=5673a960-0e32-4bdd-8d6b-e6dc82efbb88","ios":"levelo://app?vid=5673a960-0e32-4bdd-8d6b-e6dc82efbb88"},"vehicle_type_id":"4","last_reported":1784804340,"current_range_meters":30000,"station_id":"ce4bgrh2rcd13ifvqc8g","pricing_plan_id":"cebpf4jnsgd1na2vs0mg"},{"bike_id":"4de72bcc-ba73-4789-87ca-02059776a406","system_id":"levelo_inurba_marseille","lat":43.29224,"lon":5.36093,"is_reserved":false,"is_disabled":false,"rental_uris":{"android":"levelo://app?vid=4de72bcc-ba73-4789-87ca-02059776a406","ios":"levelo://app?vid=4de72bcc-ba73-4789-87ca-02059776a406"},"vehicle_type_id":"4","last_reported":1784804340,"current_range_meters":38000,"station_id":"ce4bhbh2rcd13ifvqeqg","pricing_plan_id":"cebpf4jnsgd1na2vs0mg"},{"bike_id":"1fade11d-8e73-4748-8586-d9741ca55ced","system_id":"levelo_inurba_marseille","lat":43.317152,"lon":5.437034,"is_reserved":false,"is_disabled":false,"rental_uris":{"android":"levelo://app?vid=1fade11d-8e73-4748-8586-d9741ca55ced","ios":"levelo://app?vid=1fade11d-8e73-4748-8586-d9741ca55ced"},"vehicle_type_id":"4","last_reported":1784804340,"current_range_meters":27200,"station_id":"ce4bhp92rcd13ifvqhcg","pricing_plan_id":"cebpf4jnsgd1na2vs0mg"},{"bike_id":"d6f76b98-f60a-4c54-9393-7267eba0b1ea","system_id":"levelo_inurba_marseille","lat":43.28459,"lon":5.35893,"is_reserved":false,"is_disabled":false,"rental_uris":{"android":"levelo://app?vid=d6f76b98-f60a-4c54-9393-7267eba0b1ea","ios":"levelo://app?vid=d6f76b98-f60a-4c54-9393-7267eba0b1ea"},"vehicle_type_id":"4","last_reported":1784804340,"current_range_meters":17200,"station_id":"ce4bhah2rcd13ifvqei0","pricing_plan_id":"cebpf4jnsgd1na2vs0mg"},{"bike_id":"79ece5a4-874a-4304-8ea3-3e92d6e0650a","system_id":"levelo_inurba_marseille","lat":43.29595,"lon":5.38106,"is_reserved":false,"is_disabled":false,"rental_uris":{"android":"levelo://app?vid=79ece5a4-874a-4304-8ea3-3e92d6e0650a","ios":"levelo://app?vid=79ece5a4-874a-4304-8ea3-3e92d6e0650a"},"vehicle_type_id":"4","last_reported":1784804340,"current_range_meters":34800,"station_id":"ce4bgl12rcd13ifvqbo0","pricing_plan_id":"cebpf4jnsgd1na2vs0mg"},{"bike_id":"75146afd-6944-4808-9153-760cee29f303","system_id":"levelo_inurba_marseille","lat":43.24667,"lon":5.37888,"is_reserved":false,"is_disabled":false,"rental_uris":{"android":"levelo://app?vid=75146afd-6944-4808-9153-760cee29f303","ios":"levelo://app?vid=75146afd-6944-4808-9153-760cee29f303"},"vehicle_type_id":"4","last_reported":1784804340,"current_range_meters":21600,"station_id":"","pricing_plan_id":"cebpf4jnsgd1na2vs0mg"},{"bike_id":"cd3fe74b-3992-49f7-8e04-c4ec293f8de7","system_id":"levelo_inurba_marseille","lat":43.25931,"lon":5.40899,"is_reserved":false,"is_disabled":false,"rental_uris":{"android":"levelo://app?vid=cd3fe74b-3992-49f7-8e04-c4ec293f8de7","ios":"levelo://app?vid=cd3fe74b-3992-49f7-8e04-c4ec293f8de7"},"vehicle_type_id":"4","last_reported":1784804340,"current_range_meters":34000,"station_id":"ce4bhm92rcd13ifvqglg","pricing_plan_id":"cebpf4jnsgd1na2vs0mg"},{"bike_id":"7cde3d19-7097-432d-bb13-c1c322a9b416","system_id":"levelo_inurba_marseille","lat":43.29165,"lon":5.3936,"is_reserved":false,"is_disabled":false,"rental_uris":{"android":"levelo://app?vid=7cde3d19-7097-432d-bb13-c1c322a9b416","ios":"levelo://app?vid=7cde3d19-7097-432d-bb13-c1c322a9b416"},"vehicle_type_id":"4","last_reported":1784804340,"current_range_meters":33600,"station_id":"","pricing_plan_id":"cebpf4jnsgd1na2vs0mg"},{"bike_id":"869ee720-8e33-4f55-ae56-95bc717bc7c2","system_id":"levelo_inurba_marseille","lat":43.30269,"lon":5.37699,"is_reserved":false,"is_disabled":false,"rental_uris":{"android":"levelo://app?vid=869ee720-8e33-4f55-ae56-95bc717bc7c2","ios":"levelo://app?vid=869ee720-8e33-4f55-ae56-95bc717bc7c2"},"vehicle_type_id":"4","last_reported":1784804340,"current_range_meters":25200,"station_id":"ce4bguh2rcd13ifvqcj0","pricing_plan_id":"cebpf4jnsgd1na2vs0mg"},{"bike_id":"2164a362-2abb-4a53-bf97-41f44930fe0f","system_id":"levelo_inurba_marseille","lat":43.29892,"lon":5.38157,"is_reserved":false,"is_disabled":false,"rental_uris":{"android":"levelo://app?vid=2164a362-2abb-4a53-bf97-41f44930fe0f","ios":"levelo://app?vid=2164a362-2abb-4a53-bf97-41f44930fe0f"},"vehicle_type_id":"4","last_reported":1784804340,"current_range_meters":38000,"station_id":"ce4bgj12rcd13ifvqbc0","pricing_plan_id":"cebpf4jnsgd1na2vs0mg"},{"bike_id":"6c7874ee-958f-4c69-93a6-c63758067606","system_id":"levelo_inurba_marseille","lat":43.2721,"lon":5.3919,"is_reserved":false,"is_disabled":false,"rental_uris":{"android":"levelo://app?vid=6c7874ee-958f-4c69-93a6-c63758067606","ios":"levelo://app?vid=6c7874ee-958f-4c69-93a6-c63758067606"},"vehicle_type_id":"4","last_reported":1784804340,"current_range_meters":38400,"station_id":"ce4bhhp2rcd13ifvqfm0","pricing_plan_id":"cebpf4jnsgd1na2vs0mg"},{"bike_id":"acb6c310-64e8-4ffb-9d0e-3645b38213aa","system_id":"levelo_inurba_marseille","lat":43.225666,"lon":5.416218,"is_reserved":false,"is_disabled":false,"rental_uris":{"android":"levelo://app?vid=acb6c310-64e8-4ffb-9d0e-3645b38213aa","ios":"levelo://app?vid=acb6c310-64e8-4ffb-9d0e-3645b38213aa"},"vehicle_type_id":"4","last_reported":1784804340,"current_range_meters":39200,"station_id":"st_d2o4gvlbi1j2169b742g","pricing_plan_id":"cebpf4jnsgd1na2vs0mg"},{"bike_id":"457e4bbb-50e1-4489-a5b1-bdc810745b8a","system_id":"levelo_inurba_marseille","lat":43.2929,"lon":5.36848,"is_reserved":false,"is_disabled":false,"rental_uris":{"android":"levelo://app?vid=457e4bbb-50e1-4489-a5b1-bdc810745b8a","ios":"levelo://app?vid=457e4bbb-50e1-4489-a5b1-bdc810745b8a"},"vehicle_type_id":"4","last_reported":1784804340,"current_range_meters":39200,"station_id":"","pricing_plan_id":"cebpf4jnsgd1na2vs0mg"},{"bike_id":"53df9775-9d78-4cf3-869d-128c6212913f","system_id":"levelo_inurba_marseille","lat":43.23193,"lon":5.35576,"is_reserved":false,"is_disabled":false,"rental_uris":{"android":"levelo://app?vid=53df9775-9d78-4cf3-869d-128c6212913f","ios":"levelo://app?vid=53df9775-9d78-4cf3-869d-128c6212913f"},"vehicle_type_id":"4","last_reported":1784804340,"current_range_meters":40000,"station_id":"ce4bhu92rcd13ifvqi70","pricing_plan_id":"cebpf4jnsgd1na2vs0mg"},{"bike_id":"2b2d5806-a98a-4b6d-8666-219c96826a65","system_id":"levelo_inurba_marseille","lat":43.3304,"lon":5.39031,"is_reserved":false,"is_disabled":false,"rental_uris":{"android":"levelo://app?vid=2b2d5806-a98a-4b6d-8666-219c96826a65","ios":"levelo://app?vid=2b2d5806-a98a-4b6d-8666-219c96826a65"},"vehicle_type_id":"4","last_reported":1784804340,"current_range_meters":6400,"station_id":"ce4bhr92rcd13ifvqhrg","pricing_plan_id":"cebpf4jnsgd1na2vs0mg"},{"bike_id":"9d4b8430-c687-4ce9-b117-2b375d0afc9f","system_id":"levelo_inurba_marseille","lat":43.23145,"lon":5.43755,"is_reserved":false,"is_disabled":false,"rental_uris":{"android":"levelo://app?vid=9d4b8430-c687-4ce9-b117-2b375d0afc9f","ios":"levelo://app?vid=9d4b8430-c687-4ce9-b117-2b375d0afc9f"},"vehicle_type_id":"4","last_reported":1784804340,"current_range_meters":32000,"station_id":"","pricing_plan_id":"cebpf4jnsgd1na2vs0mg"},{"bike_id":"14123aba-3e1d-4457-b349-ecbdf369fbbc","system_id":"levelo_inurba_marseille","lat":43.29703,"lon":5.36611,"is_reserved":false,"is_disabled":false,"rental_uris":{"android":"levelo://app?vid=14123aba-3e1d-4457-b349-ecbdf369fbbc","ios":"levelo://app?vid=14123aba-3e1d-4457-b349-ecbdf369fbbc"},"vehicle_type_id":"4","last_reported":1784804340,"current_range_meters":26000,"station_id":"","pricing_plan_id":"cebpf4jnsgd1na2vs0mg"},{"bike_id":"c8186598-7ff0-4f1d-9c68-0f7323628d84","system_id":"levelo_inurba_marseille","lat":43.31701,"lon":5.40446,"is_reserved":false,"is_disabled":false,"rental_uris":{"android":"levelo://app?vid=c8186598-7ff0-4f1d-9c68-0f7323628d84","ios":"levelo://app?vid=c8186598-7ff0-4f1d-9c68-0f7323628d84"},"vehicle_type_id":"4","last_reported":1784804340,"current_range_meters":28400,"station_id":"ce4bh012rcd13ifvqd00","pricing_plan_id":"cebpf4jnsgd1na2vs0mg"},{"bike_id":"092fb181-d69e-43b3-8ffe-1cae6a3a09a7","system_id":"levelo_inurba_marseille","lat":43.28263,"lon":5.3508,"is_reserved":false,"is_disabled":false,"rental_uris":{"android":"levelo://app?vid=092fb181-d69e-43b3-8ffe-1cae6a3a09a7","ios":"levelo://app?vid=092fb181-d69e-43b3-8ffe-1cae6a3a09a7"},"vehicle_type_id":"4","last_reported":1784804340,"current_range_meters":22000,"station_id":"ce4bhbp2rcd13ifvqerg","pricing_plan_id":"cebpf4jnsgd1na2vs0mg"},{"bike_id":"b6047283-25f1-447f-afb4-fff364a0af5c","system_id":"levelo_inurba_marseille","lat":43.26206,"lon":5.37446,"is_reserved":false,"is_disabled":false,"rental_uris":{"android":"levelo://app?vid=b6047283-25f1-447f-afb4-fff364a0af5c","ios":"levelo://app?vid=b6047283-25f1-447f-afb4-fff364a0af5c"},"vehicle_type_id":"4","last_reported":1784804340,"current_range_meters":10000,"station_id":"ce4bhgp2rcd13ifvqfc0","pricing_plan_id":"cebpf4jnsgd1na2vs0mg"},{"bike_id":"a83f6dd4-a966-4c48-9c5e-40cd101889e5","system_id":"levelo_inurba_marseille","lat":43.28664,"lon":5.36353,"is_reserved":false,"is_disabled":false,"rental_uris":{"android":"levelo://app?vid=a83f6dd4-a966-4c48-9c5e-40cd101889e5","ios":"levelo://app?vid=a83f6dd4-a966-4c48-9c5e-40cd101889e5"},"vehicle_type_id":"4","last_reported":1784804340,"current_range_meters":25200,"station_id":"ce4bhah2rcd13ifvqej0","pricing_plan_id":"cebpf4jnsgd1na2vs0mg"},{"bike_id":"429123e4-dc43-429b-abc2-42a83c22e46e","system_id":"levelo_inurba_marseille","lat":43.23214,"lon":5.35539,"is_reserved":false,"is_disabled":false,"rental_uris":{"android":"levelo://app?vid=429123e4-dc43-429b-abc2-42a83c22e46e","ios":"levelo://app?vid=429123e4-dc43-429b-abc2-42a83c22e46e"},"vehicle_type_id":"4","last_reported":1784804340,"current_range_meters":29600,"station_id":"ce4bhu92rcd13ifvqi70","pricing_plan_id":"cebpf4jnsgd1na2vs0mg"},{"bike_id":"662b89b8-94f6-40fd-b687-1617b7728b5f","system_id":"levelo_inurba_marseille","lat":43.24938,"lon":5.40478,"is_reserved":false,"is_disabled":false,"rental_uris":{"android":"levelo://app?vid=662b89b8-94f6-40fd-b687-1617b7728b5f","ios":"levelo://app?vid=662b89b8-94f6-40fd-b687-1617b7728b5f"},"vehicle_type_id":"4","last_reported":1784804340,"current_range_meters":39200,"station_id":"st_d2ngiaodas8pm72gd1h0","pricing_plan_id":"cebpf4jnsgd1na2vs0mg"},{"bike_id":"09480c37-728d-435c-b0c2-253c37c37d30","system_id":"levelo_inurba_marseille","lat":43.28466,"lon":5.38454,"is_reserved":false,"is_disabled":false,"rental_uris":{"android":"levelo://app?vid=09480c37-728d-435c-b0c2-253c37c37d30","ios":"levelo://app?vid=09480c37-728d-435c-b0c2-253c37c37d30"},"vehicle_type_id":"4","last_reported":1784804340,"current_range_meters":39200,"station_id":"ce4bh512rcd13ifvqe3g","pricing_plan_id":"cebpf4jnsgd1na2vs0mg"},{"bike_id":"bace381c-6258-4d80-80f1-070c343af026","system_id":"levelo_inurba_marseille","lat":43.33162,"lon":5.37699,"is_reserved":false,"is_disabled":false,"rental_uris":{"android":"levelo://app?vid=bace381c-6258-4d80-80f1-070c343af026","ios":"levelo://app?vid=bace381c-6258-4d80-80f1-070c343af026"},"vehicle_type_id":"4","last_reported":1784804340,"current_range_meters":6800,"station_id":"st_d46cu089ee8s73dldbu0","pricing_plan_id":"cebpf4jnsgd1na2vs0mg"},{"bike_id":"484e47bb-c244-4caf-825b-8db5ca56ab5f","system_id":"levelo_inurba_marseille","lat":43.24389,"lon":5.37053,"is_reserved":false,"is_disabled":false,"rental_uris":{"android":"levelo://app?vid=484e47bb-c244-4caf-825b-8db5ca56ab5f","ios":"levelo://app?vid=484e47bb-c244-4caf-825b-8db5ca56ab5f"},"vehicle_type_id":"4","last_reported":1784804340,"current_range_meters":38400,"station_id":"ce4bhhh2rcd13ifvqfk0","pricing_plan_id":"cebpf4jnsgd1na2vs0mg"},{"bike_id":"094c82ea-15e4-4be3-87e3-1dcfec8880f8","system_id":"levelo_inurba_marseille","lat":43.287377,"lon":5.361139,"is_reserved":false,"is_disabled":false,"rental_uris":{"android":"levelo://app?vid=094c82ea-15e4-4be3-87e3-1dcfec8880f8","ios":"levelo://app?vid=094c82ea-15e4-4be3-87e3-1dcfec8880f8"},"vehicle_type_id":"4","last_reported":1784804340,"current_range_meters":25200,"station_id":"","pricing_plan_id":"cebpf4jnsgd1na2vs0mg"},{"bike_id":"e9e543b0-8ca5-47a6-998c-4902ea53cdd4","system_id":"levelo_inurba_marseille","lat":43.25193,"lon":5.37327,"is_reserved":false,"is_disabled":true,"rental_uris":{"android":"levelo://app?vid=e9e543b0-8ca5-47a6-998c-4902ea53cdd4","ios":"levelo://app?vid=e9e543b0-8ca5-47a6-998c-4902ea53cdd4"},"vehicle_type_id":"4","last_reported":1784804340,"current_range_meters":9200,"station_id":"","pricing_plan_id":"cebpf4jnsgd1na2vs0mg"},{"bike_id":"2d2d2af5-a584-4e7e-a9e9-6119dd1e5b67","system_id":"levelo_inurba_marseille","lat":43.25942,"lon":5.40909,"is_reserved":false,"is_disabled":false,"rental_uris":{"android":"levelo://app?vid=2d2d2af5-a584-4e7e-a9e9-6119dd1e5b67","ios":"levelo://app?vid=2d2d2af5-a584-4e7e-a9e9-6119dd1e5b67"},"vehicle_type_id":"4","last_reported":1784804340,"current_range_meters":39200,"station_id":"ce4bhm92rcd13ifvqglg","pricing_plan_id":"cebpf4jnsgd1na2vs0mg"},{"bike_id":"74f75dec-8be0-4804-9118-bac5cfdccf76","system_id":"levelo_inurba_marseille","lat":43.279983,"lon":5.400053,"is_reserved":false,"is_disabled":false,"rental_uris":{"android":"levelo://app?vid=74f75dec-8be0-4804-9118-bac5cfdccf76","ios":"levelo://app?vid=74f75dec-8be0-4804-9118-bac5cfdccf76"},"vehicle_type_id":"4","last_reported":1784804340,"current_range_meters":17200,"station_id":"ce4bho92rcd13ifvqh4g","pricing_plan_id":"cebpf4jnsgd1na2vs0mg"},{"bike_id":"aeec2634-8240-4747-aab3-6a4574149b4a","system_id":"levelo_inurba_marseille","lat":43.23778,"lon":5.36635,"is_reserved":false,"is_disabled":false,"rental_uris":{"android":"levelo://app?vid=aeec2634-8240-4747-aab3-6a4574149b4a","ios":"levelo://app?vid=aeec2634-8240-4747-aab3-6a4574149b4a"},"vehicle_type_id":"4","last_reported":1784804340,"current_range_meters":30000,"station_id":"st_d3nk18o9ro0c73en2l3g","pricing_plan_id":"cebpf4jnsgd1na2vs0mg"},{"bike_id":"8f31f3af-0aa6-4421-8e2c-a77a880bef79","system_id":"levelo_inurba_marseille","lat":43.273726,"lon":5.398294,"is_reserved":false,"is_disabled":true,"rental_uris":{"android":"levelo://app?vid=8f31f3af-0aa6-4421-8e2c-a77a880bef79","ios":"levelo://app?vid=8f31f3af-0aa6-4421-8e2c-a77a880bef79"},"vehicle_type_id":"4","last_reported":1784804340,"current_range_meters":3200,"station_id":"","pricing_plan_id":"cebpf4jnsgd1na2vs0mg"},{"bike_id":"0c22a2f1-bc05-4d01-82cd-f35ee86802e3","system_id":"levelo_inurba_marseille","lat":43.27313,"lon":5.39117,"is_reserved":false,"is_disabled":false,"rental_uris":{"android":"levelo://app?vid=0c22a2f1-bc05-4d01-82cd-f35ee86802e3","ios":"levelo://app?vid=0c22a2f1-bc05-4d01-82cd-f35ee86802e3"},"vehicle_type_id":"4","last_reported":1784804340,"current_range_meters":30000,"station_id":"ce4bhgp2rcd13ifvqfe0","pricing_plan_id":"cebpf4jnsgd1na2vs0mg"},{"bike_id":"ada4b66c-55a9-4ab5-8101-7fcab4222110","system_id":"levelo_inurba_marseille","lat":43.29072,"lon":5.37151,"is_reserved":false,"is_disabled":false,"rental_uris":{"android":"levelo://app?vid=ada4b66c-55a9-4ab5-8101-7fcab4222110","ios":"levelo://app?vid=ada4b66c-55a9-4ab5-8101-7fcab4222110"},"vehicle_type_id":"4","last_reported":1784804340,"current_range_meters":39200,"station_id":"ce4bh5p2rcd13ifvqe4g","pricing_plan_id":"cebpf4jnsgd1na2vs0mg"},{"bike_id":"bfb0c87c-ddc4-4dd9-bd1b-6b4b211028fa","system_id":"levelo_inurba_marseille","lat":43.317,"lon":5.40463,"is_reserved":false,"is_disabled":false,"rental_uris":{"android":"levelo://app?vid=bfb0c87c-ddc4-4dd9-bd1b-6b4b211028fa","ios":"levelo://app?vid=bfb0c87c-ddc4-4dd9-bd1b-6b4b211028fa"},"vehicle_type_id":"4","last_reported":1784804340,"current_range_meters":39200,"station_id":"ce4bh012rcd13ifvqd00","pricing_plan_id":"cebpf4jnsgd1na2vs0mg"},{"bike_id":"e6c805e9-2475-4ae5-9901-cfddbcce79e3","system_id":"levelo_inurba_marseille","lat":43.33759,"lon":5.37455,"is_reserved":false,"is_disabled":false,"rental_uris":{"android":"levelo://app?vid=e6c805e9-2475-4ae5-9901-cfddbcce79e3","ios":"levelo://app?vid=e6c805e9-2475-4ae5-9901-cfddbcce79e3"},"vehicle_type_id":"4","last_reported":1784804340,"current_range_meters":39200,"station_id":"","pricing_plan_id":"cebpf4jnsgd1na2vs0mg"},{"bike_id":"a6e39fb0-f2e5-41d8-b4aa-b3071fa9ec56","system_id":"levelo_inurba_marseille","lat":43.23146,"lon":5.43708,"is_reserved":false,"is_disabled":false,"rental_uris":{"android":"levelo://app?vid=a6e39fb0-f2e5-41d8-b4aa-b3071fa9ec56","ios":"levelo://app?vid=a6e39fb0-f2e5-41d8-b4aa-b3071fa9ec56"},"vehicle_type_id":"4","last_reported":1784804340,"current_range_meters":23200,"station_id":"ce4bhmp2rcd13ifvqgog","pricing_plan_id":"cebpf4jnsgd1na2vs0mg"},{"bike_id":"476beb9f-d625-4af7-8570-9e552e55f6b8","system_id":"levelo_inurba_marseille","lat":43.27438,"lon":5.39407,"is_reserved":false,"is_disabled":false,"rental_uris":{"android":"levelo://app?vid=476beb9f-d625-4af7-8570-9e552e55f6b8","ios":"levelo://app?vid=476beb9f-d625-4af7-8570-9e552e55f6b8"},"vehicle_type_id":"4","last_reported":1784804340,"current_range_meters":39200,"station_id":"ce4bhdp2rcd13ifvqf20","pricing_plan_id":"cebpf4jnsgd1na2vs0mg"},{"bike_id":"a2c9fd6e-925c-4795-ba3f-b9c641931695","system_id":"levelo_inurba_marseille","lat":43.31437,"lon":5.37421,"is_reserved":false,"is_disabled":true,"rental_uris":{"android":"levelo://app?vid=a2c9fd6e-925c-4795-ba3f-b9c641931695","ios":"levelo://app?vid=a2c9fd6e-925c-4795-ba3f-b9c641931695"},"vehicle_type_id":"4","last_reported":1784804340,"current_range_meters":20400,"station_id":"","pricing_plan_id":"cebpf4jnsgd1na2vs0mg"},{"bike_id":"d46af5df-657b-41fb-bf30-9d53903cf9af","system_id":"levelo_inurba_marseille","lat":43.29566,"lon":5.3751,"is_reserved":false,"is_disabled":false,"rental_uris":{"android":"levelo://app?vid=d46af5df-657b-41fb-bf30-9d53903cf9af","ios":"levelo://app?vid=d46af5df-657b-41fb-bf30-9d53903cf9af"},"vehicle_type_id":"4","last_reported":1784804340,"current_range_meters":38000,"station_id":"ce4bgh92rcd13ifvqb50","pricing_plan_id":"cebpf4jnsgd1na2vs0mg"},{"bike_id":"7b7c350c-7fa0-4260-b6c2-812c00fe7727","system_id":"levelo_inurba_marseille","lat":43.32108,"lon":5.36754,"is_reserved":false,"is_disabled":false,"rental_uris":{"android":"levelo://app?vid=7b7c350c-7fa0-4260-b6c2-812c00fe7727","ios":"levelo://app?vid=7b7c350c-7fa0-4260-b6c2-812c00fe7727"},"vehicle_type_id":"4","last_reported":1784804340,"current_range_meters":24800,"station_id":"ce4bhrh2rcd13ifvqhug","pricing_plan_id":"cebpf4jnsgd1na2vs0mg"},{"bike_id":"002b6de9-4906-4900-bd53-a26437451aab","system_id":"levelo_inurba_marseille","lat":43.33251,"lon":5.35896,"is_reserved":false,"is_disabled":false,"rental_uris":{"android":"levelo://app?vid=002b6de9-4906-4900-bd53-a26437451aab","ios":"levelo://app?vid=002b6de9-4906-4900-bd53-a26437451aab"},"vehicle_type_id":"4","last_reported":1784804340,"current_range_meters":10800,"station_id":"","pricing_plan_id":"cebpf4jnsgd1na2vs0mg"},{"bike_id":"94f1b0ad-aaa9-4b51-806c-9eae39355e9b","system_id":"levelo_inurba_marseille","lat":43.27377,"lon":5.36247,"is_reserved":false,"is_disabled":true,"rental_uris":{"android":"levelo://app?vid=94f1b0ad-aaa9-4b51-806c-9eae39355e9b","ios":"levelo://app?vid=94f1b0ad-aaa9-4b51-806c-9eae39355e9b"},"vehicle_type_id":"4","last_reported":1784804340,"current_range_meters":39200,"station_id":"ce4bhbh2rcd13ifvqeo0","pricing_plan_id":"cebpf4jnsgd1na2vs0mg"},{"bike_id":"f8e0eda3-6b22-4ce8-9214-883019db78cd","system_id":"levelo_inurba_marseille","lat":43.25622,"lon":5.40504,"is_reserved":false,"is_disabled":false,"rental_uris":{"android":"levelo://app?vid=f8e0eda3-6b22-4ce8-9214-883019db78cd","ios":"levelo://app?vid=f8e0eda3-6b22-4ce8-9214-883019db78cd"},"vehicle_type_id":"4","last_reported":1784804340,"current_range_meters":39200,"station_id":"st_d9f0okuplk6c73bumsr0","pricing_plan_id":"cebpf4jnsgd1na2vs0mg"},{"bike_id":"360f5968-6a02-4eab-a96b-94be7bca4d81","system_id":"levelo_inurba_marseille","lat":43.287428,"lon":5.389091,"is_reserved":false,"is_disabled":false,"rental_uris":{"android":"levelo://app?vid=360f5968-6a02-4eab-a96b-94be7bca4d81","ios":"levelo://app?vid=360f5968-6a02-4eab-a96b-94be7bca4d81"},"vehicle_type_id":"4","last_reported":1784804340,"current_range_meters":18800,"station_id":"","pricing_plan_id":"cebpf4jnsgd1na2vs0mg"},{"bike_id":"62b6dec0-b808-43f1-9eb6-9d3590ede4c5","system_id":"levelo_inurba_marseille","lat":43.28661,"lon":5.36354,"is_reserved":false,"is_disabled":false,"rental_uris":{"android":"levelo://app?vid=62b6dec0-b808-43f1-9eb6-9d3590ede4c5","ios":"levelo://app?vid=62b6dec0-b808-43f1-9eb6-9d3590ede4c5"},"vehicle_type_id":"4","last_reported":1784804340,"current_range_meters":35200,"station_id":"ce4bhah2rcd13ifvqej0","pricing_plan_id":"cebpf4jnsgd1na2vs0mg"},{"bike_id":"d45c20f9-c492-483f-b0da-9750d0e32883","system_id":"levelo_inurba_marseille","lat":43.28197,"lon":5.39075,"is_reserved":false,"is_disabled":false,"rental_uris":{"android":"levelo://app?vid=d45c20f9-c492-483f-b0da-9750d0e32883","ios":"levelo://app?vid=d45c20f9-c492-483f-b0da-9750d0e32883"},"vehicle_type_id":"4","last_reported":1784804340,"current_range_meters":39200,"station_id":"ce4bhn92rcd13ifvqgsg","pricing_plan_id":"cebpf4jnsgd1na2vs0mg"},{"bike_id":"77bcfa31-f113-42f5-a1d5-390cc9e03aaf","system_id":"levelo_inurba_marseille","lat":43.24381,"lon":5.37073,"is_reserved":false,"is_disabled":false,"rental_uris":{"android":"levelo://app?vid=77bcfa31-f113-42f5-a1d5-390cc9e03aaf","ios":"levelo://app?vid=77bcfa31-f113-42f5-a1d5-390cc9e03aaf"},"vehicle_type_id":"4","last_reported":1784804340,"current_range_meters":20000,"station_id":"ce4bhhh2rcd13ifvqfk0","pricing_plan_id":"cebpf4jnsgd1na2vs0mg"},{"bike_id":"22e66e8b-f008-4d04-b17c-751d019a7a36","system_id":"levelo_inurba_marseille","lat":43.29789,"lon":5.44074,"is_reserved":false,"is_disabled":false,"rental_uris":{"android":"levelo://app?vid=22e66e8b-f008-4d04-b17c-751d019a7a36","ios":"levelo://app?vid=22e66e8b-f008-4d04-b17c-751d019a7a36"},"vehicle_type_id":"4","last_reported":1784804340,"current_range_meters":38000,"station_id":"st_d3jp68qikq2c7381ktn0","pricing_plan_id":"cebpf4jnsgd1na2vs0mg"},{"bike_id":"1981d3ef-d7ae-460e-a247-e2f1120f8322","system_id":"levelo_inurba_marseille","lat":43.24588,"lon":5.41959,"is_reserved":false,"is_disabled":false,"rental_uris":{"android":"levelo://app?vid=1981d3ef-d7ae-460e-a247-e2f1120f8322","ios":"levelo://app?vid=1981d3ef-d7ae-460e-a247-e2f1120f8322"},"vehicle_type_id":"4","last_reported":1784804340,"current_range_meters":14400,"station_id":"","pricing_plan_id":"cebpf4jnsgd1na2vs0mg"},{"bike_id":"5399623f-3583-4de0-a7c7-2ff41ef8193a","system_id":"levelo_inurba_marseille","lat":43.23181,"lon":5.35571,"is_reserved":false,"is_disabled":false,"rental_uris":{"android":"levelo://app?vid=5399623f-3583-4de0-a7c7-2ff41ef8193a","ios":"levelo://app?vid=5399623f-3583-4de0-a7c7-2ff41ef8193a"},"vehicle_type_id":"4","last_reported":1784804340,"current_range_meters":27200,"station_id":"ce4bhu92rcd13ifvqi70","pricing_plan_id":"cebpf4jnsgd1na2vs0mg"},{"bike_id":"bbb6d84d-52b2-4523-b78b-60cb354411ef","system_id":"levelo_inurba_marseille","lat":43.32109,"lon":5.36775,"is_reserved":false,"is_disabled":false,"rental_uris":{"android":"levelo://app?vid=bbb6d84d-52b2-4523-b78b-60cb354411ef","ios":"levelo://app?vid=bbb6d84d-52b2-4523-b78b-60cb354411ef"},"vehicle_type_id":"4","last_reported":1784804340,"current_range_meters":32800,"station_id":"ce4bhrh2rcd13ifvqhug","pricing_plan_id":"cebpf4jnsgd1na2vs0mg"},{"bike_id":"19fee056-8438-4b7c-86c9-573f0591638a","system_id":"levelo_inurba_marseille","lat":43.30141,"lon":5.37434,"is_reserved":false,"is_disabled":false,"rental_uris":{"android":"levelo://app?vid=19fee056-8438-4b7c-86c9-573f0591638a","ios":"levelo://app?vid=19fee056-8438-4b7c-86c9-573f0591638a"},"vehicle_type_id":"4","last_reported":1784804340,"current_range_meters":39200,"station_id":"ce4bgs92rcd13ifvqcc0","pricing_plan_id":"cebpf4jnsgd1na2vs0mg"},{"bike_id":"7c215944-6de0-44b9-b267-ecfcdb73eb11","system_id":"levelo_inurba_marseille","lat":43.27815,"lon":5.40725,"is_reserved":false,"is_disabled":true,"rental_uris":{"android":"levelo://app?vid=7c215944-6de0-44b9-b267-ecfcdb73eb11","ios":"levelo://app?vid=7c215944-6de0-44b9-b267-ecfcdb73eb11"},"vehicle_type_id":"4","last_reported":1784804340,"current_range_meters":38800,"station_id":"ce4bhnh2rcd13ifvqgtg","pricing_plan_id":"cebpf4jnsgd1na2vs0mg"},{"bike_id":"a9863fcb-8ca0-4220-b083-cb27e96475fe","system_id":"levelo_inurba_marseille","lat":43.23196,"lon":5.35552,"is_reserved":false,"is_disabled":false,"rental_uris":{"android":"levelo://app?vid=a9863fcb-8ca0-4220-b083-cb27e96475fe","ios":"levelo://app?vid=a9863fcb-8ca0-4220-b083-cb27e96475fe"},"vehicle_type_id":"4","last_reported":1784804340,"current_range_meters":39200,"station_id":"ce4bhu92rcd13ifvqi70","pricing_plan_id":"cebpf4jnsgd1na2vs0mg"},{"bike_id":"64d6a1bb-9f40-4c2f-86db-a81e217c2827","system_id":"levelo_inurba_marseille","lat":43.24392,"lon":5.37054,"is_reserved":false,"is_disabled":false,"rental_uris":{"android":"levelo://app?vid=64d6a1bb-9f40-4c2f-86db-a81e217c2827","ios":"levelo://app?vid=64d6a1bb-9f40-4c2f-86db-a81e217c2827"},"vehicle_type_id":"4","last_reported":1784804340,"current_range_meters":9200,"station_id":"ce4bhhh2rcd13ifvqfk0","pricing_plan_id":"cebpf4jnsgd1na2vs0mg"},{"bike_id":"45fd5ca5-cd0c-4fbd-a63c-a17c2003973c","system_id":"levelo_inurba_marseille","lat":43.276153,"lon":5.361013,"is_reserved":false,"is_disabled":false,"rental_uris":{"android":"levelo://app?vid=45fd5ca5-cd0c-4fbd-a63c-a17c2003973c","ios":"levelo://app?vid=45fd5ca5-cd0c-4fbd-a63c-a17c2003973c"},"vehicle_type_id":"4","last_reported":1784804340,"current_range_meters":30000,"station_id":"ce4bgj92rcd13ifvqbe0","pricing_plan_id":"cebpf4jnsgd1na2vs0mg"},{"bike_id":"a8da38aa-f94e-4c2e-80f0-e41e78a1c855","system_id":"levelo_inurba_marseille","lat":43.29818,"lon":5.38089,"is_reserved":false,"is_disabled":true,"rental_uris":{"android":"levelo://app?vid=a8da38aa-f94e-4c2e-80f0-e41e78a1c855","ios":"levelo://app?vid=a8da38aa-f94e-4c2e-80f0-e41e78a1c855"},"vehicle_type_id":"4","last_reported":1784804340,"current_range_meters":36000,"station_id":"ce4bgip2rcd13ifvqbb0","pricing_plan_id":"cebpf4jnsgd1na2vs0mg"},{"bike_id":"c0265539-a976-4456-8808-82377c8dc035","system_id":"levelo_inurba_marseille","lat":43.28163,"lon":5.42679,"is_reserved":false,"is_disabled":false,"rental_uris":{"android":"levelo://app?vid=c0265539-a976-4456-8808-82377c8dc035","ios":"levelo://app?vid=c0265539-a976-4456-8808-82377c8dc035"},"vehicle_type_id":"4","last_reported":1784804340,"current_range_meters":39200,"station_id":"ce4bhnh2rcd13ifvqgug","pricing_plan_id":"cebpf4jnsgd1na2vs0mg"},{"bike_id":"6beb94b0-4283-4f7d-810d-b229619bc024","system_id":"levelo_inurba_marseille","lat":43.229591,"lon":5.444884,"is_reserved":false,"is_disabled":false,"rental_uris":{"android":"levelo://app?vid=6beb94b0-4283-4f7d-810d-b229619bc024","ios":"levelo://app?vid=6beb94b0-4283-4f7d-810d-b229619bc024"},"vehicle_type_id":"4","last_reported":1784804340,"current_range_meters":20800,"station_id":"","pricing_plan_id":"cebpf4jnsgd1na2vs0mg"},{"bike_id":"b5a9d944-9eb1-434c-931a-e7a13d8c2c58","system_id":"levelo_inurba_marseille","lat":43.27431,"lon":5.39414,"is_reserved":false,"is_disabled":true,"rental_uris":{"android":"levelo://app?vid=b5a9d944-9eb1-434c-931a-e7a13d8c2c58","ios":"levelo://app?vid=b5a9d944-9eb1-434c-931a-e7a13d8c2c58"},"vehicle_type_id":"4","last_reported":1784804340,"current_range_meters":39200,"station_id":"ce4bhdp2rcd13ifvqf20","pricing_plan_id":"cebpf4jnsgd1na2vs0mg"},{"bike_id":"94aadad6-cc3d-4a7a-8c4e-708e3161e234","system_id":"levelo_inurba_marseille","lat":43.27813,"lon":5.40743,"is_reserved":false,"is_disabled":false,"rental_uris":{"android":"levelo://app?vid=94aadad6-cc3d-4a7a-8c4e-708e3161e234","ios":"levelo://app?vid=94aadad6-cc3d-4a7a-8c4e-708e3161e234"},"vehicle_type_id":"4","last_reported":1784804340,"current_range_meters":27200,"station_id":"ce4bhnh2rcd13ifvqgtg","pricing_plan_id":"cebpf4jnsgd1na2vs0mg"},{"bike_id":"25d63c03-240b-4596-9842-ae7363543101","system_id":"levelo_inurba_marseille","lat":43.33154,"lon":5.37698,"is_reserved":false,"is_disabled":false,"rental_uris":{"android":"levelo://app?vid=25d63c03-240b-4596-9842-ae7363543101","ios":"levelo://app?vid=25d63c03-240b-4596-9842-ae7363543101"},"vehicle_type_id":"4","last_reported":1784804340,"current_range_meters":38000,"station_id":"st_d46cu089ee8s73dldbu0","pricing_plan_id":"cebpf4jnsgd1na2vs0mg"},{"bike_id":"d5ce1f70-45dd-47d5-a2a4-e8a19c2ad395","system_id":"levelo_inurba_marseille","lat":43.23791,"lon":5.36629,"is_reserved":false,"is_disabled":false,"rental_uris":{"android":"levelo://app?vid=d5ce1f70-45dd-47d5-a2a4-e8a19c2ad395","ios":"levelo://app?vid=d5ce1f70-45dd-47d5-a2a4-e8a19c2ad395"},"vehicle_type_id":"4","last_reported":1784804340,"current_range_meters":39200,"station_id":"st_d3nk18o9ro0c73en2l3g","pricing_plan_id":"cebpf4jnsgd1na2vs0mg"},{"bike_id":"3d7f0628-a213-453c-a615-155840b87692","system_id":"levelo_inurba_marseille","lat":43.30542,"lon":5.36695,"is_reserved":false,"is_disabled":false,"rental_uris":{"android":"levelo://app?vid=3d7f0628-a213-453c-a615-155840b87692","ios":"levelo://app?vid=3d7f0628-a213-453c-a615-155840b87692"},"vehicle_type_id":"4","last_reported":1784804340,"current_range_meters":39200,"station_id":"ce4bgrp2rcd13ifvqc9g","pricing_plan_id":"cebpf4jnsgd1na2vs0mg"},{"bike_id":"f8d90c4e-4908-4f03-845e-3c10c53cb1f4","system_id":"levelo_inurba_marseille","lat":43.30042,"lon":5.40928,"is_reserved":false,"is_disabled":false,"rental_uris":{"android":"levelo://app?vid=f8d90c4e-4908-4f03-845e-3c10c53cb1f4","ios":"levelo://app?vid=f8d90c4e-4908-4f03-845e-3c10c53cb1f4"},"vehicle_type_id":"4","last_reported":1784804340,"current_range_meters":19200,"station_id":"","pricing_plan_id":"cebpf4jnsgd1na2vs0mg"},{"bike_id":"2be948ca-3d6c-4f9f-95c9-3be5712c4beb","system_id":"levelo_inurba_marseille","lat":43.29576,"lon":5.37524,"is_reserved":false,"is_disabled":false,"rental_uris":{"android":"levelo://app?vid=2be948ca-3d6c-4f9f-95c9-3be5712c4beb","ios":"levelo://app?vid=2be948ca-3d6c-4f9f-95c9-3be5712c4beb"},"vehicle_type_id":"4","last_reported":1784804340,"current_range_meters":22400,"station_id":"ce4bgh92rcd13ifvqb50","pricing_plan_id":"cebpf4jnsgd1na2vs0mg"},{"bike_id":"27e1e4c5-a07c-4ba9-9e46-007cc925fb39","system_id":"levelo_inurba_marseille","lat":43.25492,"lon":5.4154,"is_reserved":false,"is_disabled":false,"rental_uris":{"android":"levelo://app?vid=27e1e4c5-a07c-4ba9-9e46-007cc925fb39","ios":"levelo://app?vid=27e1e4c5-a07c-4ba9-9e46-007cc925fb39"},"vehicle_type_id":"4","last_reported":1784804340,"current_range_meters":8000,"station_id":"","pricing_plan_id":"cebpf4jnsgd1na2vs0mg"},{"bike_id":"f0d186e2-5747-443a-b8ce-af02f4115467","system_id":"levelo_inurba_marseille","lat":43.26206,"lon":5.37446,"is_reserved":false,"is_disabled":false,"rental_uris":{"android":"levelo://app?vid=f0d186e2-5747-443a-b8ce-af02f4115467","ios":"levelo://app?vid=f0d186e2-5747-443a-b8ce-af02f4115467"},"vehicle_type_id":"4","last_reported":1784804340,"current_range_meters":36400,"station_id":"ce4bhgp2rcd13ifvqfc0","pricing_plan_id":"cebpf4jnsgd1na2vs0mg"},{"bike_id":"033eab5e-4885-4e3e-a926-9530624df4e6","system_id":"levelo_inurba_marseille","lat":43.29302,"lon":5.37459,"is_reserved":false,"is_disabled":false,"rental_uris":{"android":"levelo://app?vid=033eab5e-4885-4e3e-a926-9530624df4e6","ios":"levelo://app?vid=033eab5e-4885-4e3e-a926-9530624df4e6"},"vehicle_type_id":"4","last_reported":1784804340,"current_range_meters":11200,"station_id":"ce4bgi12rcd13ifvqb70","pricing_plan_id":"cebpf4jnsgd1na2vs0mg"},{"bike_id":"cd288035-eddb-4f42-a73e-3fa03a084ed5","system_id":"levelo_inurba_marseille","lat":43.265732,"lon":5.390492,"is_reserved":false,"is_disabled":false,"rental_uris":{"android":"levelo://app?vid=cd288035-eddb-4f42-a73e-3fa03a084ed5","ios":"levelo://app?vid=cd288035-eddb-4f42-a73e-3fa03a084ed5"},"vehicle_type_id":"4","last_reported":1784804340,"current_range_meters":34000,"station_id":"cpo3532slgdg3j2ikp40","pricing_plan_id":"cebpf4jnsgd1na2vs0mg"},{"bike_id":"5a87d78f-bce0-4026-a623-b63371d564c6","system_id":"levelo_inurba_marseille","lat":43.29189,"lon":5.35794,"is_reserved":false,"is_disabled":true,"rental_uris":{"android":"levelo://app?vid=5a87d78f-bce0-4026-a623-b63371d564c6","ios":"levelo://app?vid=5a87d78f-bce0-4026-a623-b63371d564c6"},"vehicle_type_id":"4","last_reported":1784804340,"current_range_meters":31200,"station_id":"ce4bhb12rcd13ifvqel0","pricing_plan_id":"cebpf4jnsgd1na2vs0mg"},{"bike_id":"40f6baf1-3778-4073-8e73-a1182440e69c","system_id":"levelo_inurba_marseille","lat":43.29364,"lon":5.37833,"is_reserved":false,"is_disabled":false,"rental_uris":{"android":"levelo://app?vid=40f6baf1-3778-4073-8e73-a1182440e69c","ios":"levelo://app?vid=40f6baf1-3778-4073-8e73-a1182440e69c"},"vehicle_type_id":"4","last_reported":1784804340,"current_range_meters":39200,"station_id":"ce4bgjh2rcd13ifvqbf0","pricing_plan_id":"cebpf4jnsgd1na2vs0mg"},{"bike_id":"2f3c08d1-4cdc-4610-bf4b-5e5ab3853cf7","system_id":"levelo_inurba_marseille","lat":43.31483,"lon":5.39624,"is_reserved":false,"is_disabled":false,"rental_uris":{"android":"levelo://app?vid=2f3c08d1-4cdc-4610-bf4b-5e5ab3853cf7","ios":"levelo://app?vid=2f3c08d1-4cdc-4610-bf4b-5e5ab3853cf7"},"vehicle_type_id":"4","last_reported":1784804340,"current_range_meters":18800,"station_id":"","pricing_plan_id":"cebpf4jnsgd1na2vs0mg"},{"bike_id":"2af31c12-ef2a-4794-b389-46f18fcc2ded","system_id":"levelo_inurba_marseille","lat":43.29221,"lon":5.36085,"is_reserved":false,"is_disabled":false,"rental_uris":{"android":"levelo://app?vid=2af31c12-ef2a-4794-b389-46f18fcc2ded","ios":"levelo://app?vid=2af31c12-ef2a-4794-b389-46f18fcc2ded"},"vehicle_type_id":"4","last_reported":1784804340,"current_range_meters":39200,"station_id":"","pricing_plan_id":"cebpf4jnsgd1na2vs0mg"},{"bike_id":"4c84da53-5e75-4efc-bf27-ea80ed19d16f","system_id":"levelo_inurba_marseille","lat":43.29793,"lon":5.39335,"is_reserved":false,"is_disabled":false,"rental_uris":{"android":"levelo://app?vid=4c84da53-5e75-4efc-bf27-ea80ed19d16f","ios":"levelo://app?vid=4c84da53-5e75-4efc-bf27-ea80ed19d16f"},"vehicle_type_id":"4","last_reported":1784804340,"current_range_meters":38000,"station_id":"chh1huq6cuj3fo74tm60","pricing_plan_id":"cebpf4jnsgd1na2vs0mg"},{"bike_id":"aab91fbb-25df-40d4-83fd-1c88c5001c1a","system_id":"levelo_inurba_marseille","lat":43.30954,"lon":5.39048,"is_reserved":false,"is_disabled":false,"rental_uris":{"android":"levelo://app?vid=aab91fbb-25df-40d4-83fd-1c88c5001c1a","ios":"levelo://app?vid=aab91fbb-25df-40d4-83fd-1c88c5001c1a"},"vehicle_type_id":"4","last_reported":1784804340,"current_range_meters":26800,"station_id":"ce4bgup2rcd13ifvqco0","pricing_plan_id":"cebpf4jnsgd1na2vs0mg"},{"bike_id":"4871f915-bca7-49ea-9398-4e2a69e50f8c","system_id":"levelo_inurba_marseille","lat":43.28414,"lon":5.34999,"is_reserved":false,"is_disabled":false,"rental_uris":{"android":"levelo://app?vid=4871f915-bca7-49ea-9398-4e2a69e50f8c","ios":"levelo://app?vid=4871f915-bca7-49ea-9398-4e2a69e50f8c"},"vehicle_type_id":"4","last_reported":1784804340,"current_range_meters":39200,"station_id":"ce4bhbh2rcd13ifvqepg","pricing_plan_id":"cebpf4jnsgd1na2vs0mg"},{"bike_id":"d1b66825-c158-457e-a6ca-20015eb28f13","system_id":"levelo_inurba_marseille","lat":43.33755,"lon":5.37491,"is_reserved":false,"is_disabled":false,"rental_uris":{"android":"levelo://app?vid=d1b66825-c158-457e-a6ca-20015eb28f13","ios":"levelo://app?vid=d1b66825-c158-457e-a6ca-20015eb28f13"},"vehicle_type_id":"4","last_reported":1784804340,"current_range_meters":11600,"station_id":"","pricing_plan_id":"cebpf4jnsgd1na2vs0mg"},{"bike_id":"1ae20384-5ccd-4145-9a1d-f626b16c7a9e","system_id":"levelo_inurba_marseille","lat":43.31181,"lon":5.4644,"is_reserved":false,"is_disabled":false,"rental_uris":{"android":"levelo://app?vid=1ae20384-5ccd-4145-9a1d-f626b16c7a9e","ios":"levelo://app?vid=1ae20384-5ccd-4145-9a1d-f626b16c7a9e"},"vehicle_type_id":"4","last_reported":1784804340,"current_range_meters":3200,"station_id":"","pricing_plan_id":"cebpf4jnsgd1na2vs0mg"},{"bike_id":"c5032ade-04c2-4ad9-acd6-0c757f219d04","system_id":"levelo_inurba_marseille","lat":43.31894,"lon":5.36802,"is_reserved":false,"is_disabled":false,"rental_uris":{"android":"levelo://app?vid=c5032ade-04c2-4ad9-acd6-0c757f219d04","ios":"levelo://app?vid=c5032ade-04c2-4ad9-acd6-0c757f219d04"},"vehicle_type_id":"4","last_reported":1784804340,"current_range_meters":8800,"station_id":"st_d6o2h0d0559c73evc1b0","pricing_plan_id":"cebpf4jnsgd1na2vs0mg"},{"bike_id":"479a25b1-c1db-4e38-9802-13b8f5b183f0","system_id":"levelo_inurba_marseille","lat":43.28477,"lon":5.48397,"is_reserved":false,"is_disabled":false,"rental_uris":{"android":"levelo://app?vid=479a25b1-c1db-4e38-9802-13b8f5b183f0","ios":"levelo://app?vid=479a25b1-c1db-4e38-9802-13b8f5b183f0"},"vehicle_type_id":"4","last_reported":1784804340,"current_range_meters":27600,"station_id":"st_d3svhcjqgbts73a3dn0g","pricing_plan_id":"cebpf4jnsgd1na2vs0mg"},{"bike_id":"5ba3de10-889b-4152-aef4-4bff1e010d26","system_id":"levelo_inurba_marseille","lat":43.32115,"lon":5.36775,"is_reserved":false,"is_disabled":false,"rental_uris":{"android":"levelo://app?vid=5ba3de10-889b-4152-aef4-4bff1e010d26","ios":"levelo://app?vid=5ba3de10-889b-4152-aef4-4bff1e010d26"},"vehicle_type_id":"4","last_reported":1784804340,"current_range_meters":9200,"station_id":"ce4bhrh2rcd13ifvqhug","pricing_plan_id":"cebpf4jnsgd1na2vs0mg"},{"bike_id":"4a44625a-98e7-4ffe-9d7a-43dbdd22c4d2","system_id":"levelo_inurba_marseille","lat":43.31435,"lon":5.37377,"is_reserved":false,"is_disabled":false,"rental_uris":{"android":"levelo://app?vid=4a44625a-98e7-4ffe-9d7a-43dbdd22c4d2","ios":"levelo://app?vid=4a44625a-98e7-4ffe-9d7a-43dbdd22c4d2"},"vehicle_type_id":"4","last_reported":1784804340,"current_range_meters":25200,"station_id":"","pricing_plan_id":"cebpf4jnsgd1na2vs0mg"},{"bike_id":"73791d8c-fc18-4ad3-b8b8-78118742d2ae","system_id":"levelo_inurba_marseille","lat":43.2836,"lon":5.38639,"is_reserved":false,"is_disabled":false,"rental_uris":{"android":"levelo://app?vid=73791d8c-fc18-4ad3-b8b8-78118742d2ae","ios":"levelo://app?vid=73791d8c-fc18-4ad3-b8b8-78118742d2ae"},"vehicle_type_id":"4","last_reported":1784804340,"current_range_meters":38000,"station_id":"ce4bh492rcd13ifvqdvg","pricing_plan_id":"cebpf4jnsgd1na2vs0mg"},{"bike_id":"203e727c-e81e-4858-987c-f9c9cc6c2467","system_id":"levelo_inurba_marseille","lat":43.29568,"lon":5.36748,"is_reserved":false,"is_disabled":false,"rental_uris":{"android":"levelo://app?vid=203e727c-e81e-4858-987c-f9c9cc6c2467","ios":"levelo://app?vid=203e727c-e81e-4858-987c-f9c9cc6c2467"},"vehicle_type_id":"4","last_reported":1784804340,"current_range_meters":9600,"station_id":"","pricing_plan_id":"cebpf4jnsgd1na2vs0mg"},{"bike_id":"a13f0111-9938-4362-bd71-0bd1f0788504","system_id":"levelo_inurba_marseille","lat":43.27901,"lon":5.35324,"is_reserved":false,"is_disabled":true,"rental_uris":{"android":"levelo://app?vid=a13f0111-9938-4362-bd71-0bd1f0788504","ios":"levelo://app?vid=a13f0111-9938-4362-bd71-0bd1f0788504"},"vehicle_type_id":"4","last_reported":1784804340,"current_range_meters":0,"station_id":"","pricing_plan_id":"cebpf4jnsgd1na2vs0mg"},{"bike_id":"5a9abbc8-0280-47d8-900a-029568d5f37c","system_id":"levelo_inurba_marseille","lat":43.32432,"lon":5.42648,"is_reserved":false,"is_disabled":false,"rental_uris":{"android":"levelo://app?vid=5a9abbc8-0280-47d8-900a-029568d5f37c","ios":"levelo://app?vid=5a9abbc8-0280-47d8-900a-029568d5f37c"},