{"last_updated":1758978871,"ttl":60,"version":"2.2","data":{"bikes":[{"bike_id":"2aa86ebb-20e0-463e-bace-4a9cc6753e02","system_id":"levelo_inurba_marseille","lat":43.292792,"lon":5.368472,"is_reserved":false,"is_disabled":false,"rental_uris":{"android":"levelo://app?vid=2aa86ebb-20e0-463e-bace-4a9cc6753e02","ios":"levelo://app?vid=2aa86ebb-20e0-463e-bace-4a9cc6753e02"},"vehicle_type_id":"4","last_reported":1758978871,"current_range_meters":2000,"station_id":"ce4bgg92rcd13ifvqb30","pricing_plan_id":"cebpf4jnsgd1na2vs0mg"},{"bike_id":"d89ff33d-6b88-488b-8b92-92a62412ba18","system_id":"levelo_inurba_marseille","lat":43.23193,"lon":5.35554,"is_reserved":false,"is_disabled":false,"rental_uris":{"android":"levelo://app?vid=d89ff33d-6b88-488b-8b92-92a62412ba18","ios":"levelo://app?vid=d89ff33d-6b88-488b-8b92-92a62412ba18"},"vehicle_type_id":"4","last_reported":1758978871,"current_range_meters":3200,"station_id":"ce4bhu92rcd13ifvqi70","pricing_plan_id":"cebpf4jnsgd1na2vs0mg"},{"bike_id":"d918f0e1-9c6e-4d65-8b6c-6ab57e6f2a76","system_id":"levelo_inurba_marseille","lat":43.282642,"lon":5.350744,"is_reserved":false,"is_disabled":false,"rental_uris":{"android":"levelo://app?vid=d918f0e1-9c6e-4d65-8b6c-6ab57e6f2a76","ios":"levelo://app?vid=d918f0e1-9c6e-4d65-8b6c-6ab57e6f2a76"},"vehicle_type_id":"4","last_reported":1758978871,"current_range_meters":3200,"station_id":"","pricing_plan_id":"cebpf4jnsgd1na2vs0mg"},{"bike_id":"a2e57a1c-5429-4c41-9911-edbf194e00a1","system_id":"levelo_inurba_marseille","lat":43.2573,"lon":5.41105,"is_reserved":false,"is_disabled":false,"rental_uris":{"android":"levelo://app?vid=a2e57a1c-5429-4c41-9911-edbf194e00a1","ios":"levelo://app?vid=a2e57a1c-5429-4c41-9911-edbf194e00a1"},"vehicle_type_id":"4","last_reported":1758978871,"current_range_meters":3200,"station_id":"ce4bhkp2rcd13ifvqgd0","pricing_plan_id":"cebpf4jnsgd1na2vs0mg"},{"bike_id":"7c62388b-3de4-4851-9c96-dfa129f6b1c9","system_id":"levelo_inurba_marseille","lat":43.26196,"lon":5.37453,"is_reserved":false,"is_disabled":false,"rental_uris":{"android":"levelo://app?vid=7c62388b-3de4-4851-9c96-dfa129f6b1c9","ios":"levelo://app?vid=7c62388b-3de4-4851-9c96-dfa129f6b1c9"},"vehicle_type_id":"4","last_reported":1758978871,"current_range_meters":3200,"station_id":"ce4bhg12rcd13ifvqf70","pricing_plan_id":"cebpf4jnsgd1na2vs0mg"},{"bike_id":"588bb5c6-d90f-4edd-b1de-2d2164a39c00","system_id":"levelo_inurba_marseille","lat":43.32948,"lon":5.39046,"is_reserved":false,"is_disabled":false,"rental_uris":{"android":"levelo://app?vid=588bb5c6-d90f-4edd-b1de-2d2164a39c00","ios":"levelo://app?vid=588bb5c6-d90f-4edd-b1de-2d2164a39c00"},"vehicle_type_id":"4","last_reported":1758978871,"current_range_meters":3200,"station_id":"","pricing_plan_id":"cebpf4jnsgd1na2vs0mg"},{"bike_id":"96125ace-61bd-4dc0-8fc7-550a53d0ed58","system_id":"levelo_inurba_marseille","lat":43.273019,"lon":5.390627,"is_reserved":false,"is_disabled":false,"rental_uris":{"android":"levelo://app?vid=96125ace-61bd-4dc0-8fc7-550a53d0ed58","ios":"levelo://app?vid=96125ace-61bd-4dc0-8fc7-550a53d0ed58"},"vehicle_type_id":"4","last_reported":1758978871,"current_range_meters":3600,"station_id":"ce4bhgp2rcd13ifvqfe0","pricing_plan_id":"cebpf4jnsgd1na2vs0mg"},{"bike_id":"003515e8-8117-44bb-979d-5f47e8d50fda","system_id":"levelo_inurba_marseille","lat":43.3064,"lon":5.37539,"is_reserved":false,"is_disabled":false,"rental_uris":{"android":"levelo://app?vid=003515e8-8117-44bb-979d-5f47e8d50fda","ios":"levelo://app?vid=003515e8-8117-44bb-979d-5f47e8d50fda"},"vehicle_type_id":"4","last_reported":1758978871,"current_range_meters":3600,"station_id":"","pricing_plan_id":"cebpf4jnsgd1na2vs0mg"},{"bike_id":"192d9b12-98e6-4eca-bbb7-0f0018c0995b","system_id":"levelo_inurba_marseille","lat":43.21751,"lon":5.34595,"is_reserved":false,"is_disabled":false,"rental_uris":{"android":"levelo://app?vid=192d9b12-98e6-4eca-bbb7-0f0018c0995b","ios":"levelo://app?vid=192d9b12-98e6-4eca-bbb7-0f0018c0995b"},"vehicle_type_id":"4","last_reported":1758978871,"current_range_meters":3600,"station_id":"st_cvj6r9ubvosntc0bgbag","pricing_plan_id":"cebpf4jnsgd1na2vs0mg"},{"bike_id":"ba2cbd25-dec5-402f-88fc-1826da3ab12f","system_id":"levelo_inurba_marseille","lat":43.27375,"lon":5.36247,"is_reserved":false,"is_disabled":false,"rental_uris":{"android":"levelo://app?vid=ba2cbd25-dec5-402f-88fc-1826da3ab12f","ios":"levelo://app?vid=ba2cbd25-dec5-402f-88fc-1826da3ab12f"},"vehicle_type_id":"4","last_reported":1758978871,"current_range_meters":4000,"station_id":"ce4bhbh2rcd13ifvqeo0","pricing_plan_id":"cebpf4jnsgd1na2vs0mg"},{"bike_id":"71ff62de-7093-4aed-b4c8-18434c1e3ab5","system_id":"levelo_inurba_marseille","lat":43.22932,"lon":5.35374,"is_reserved":false,"is_disabled":false,"rental_uris":{"android":"levelo://app?vid=71ff62de-7093-4aed-b4c8-18434c1e3ab5","ios":"levelo://app?vid=71ff62de-7093-4aed-b4c8-18434c1e3ab5"},"vehicle_type_id":"4","last_reported":1758978871,"current_range_meters":4000,"station_id":"cpo3532slgdg3j2ikp40","pricing_plan_id":"cebpf4jnsgd1na2vs0mg"},{"bike_id":"5aceb32e-d156-437e-9aae-50e75c51cf02","system_id":"levelo_inurba_marseille","lat":43.27305,"lon":5.39091,"is_reserved":false,"is_disabled":false,"rental_uris":{"android":"levelo://app?vid=5aceb32e-d156-437e-9aae-50e75c51cf02","ios":"levelo://app?vid=5aceb32e-d156-437e-9aae-50e75c51cf02"},"vehicle_type_id":"4","last_reported":1758978871,"current_range_meters":4400,"station_id":"ce4bhgp2rcd13ifvqfe0","pricing_plan_id":"cebpf4jnsgd1na2vs0mg"},{"bike_id":"0af10382-0278-4c1c-ad80-e6bb9d7776b6","system_id":"levelo_inurba_marseille","lat":43.313305,"lon":5.396901,"is_reserved":false,"is_disabled":false,"rental_uris":{"android":"levelo://app?vid=0af10382-0278-4c1c-ad80-e6bb9d7776b6","ios":"levelo://app?vid=0af10382-0278-4c1c-ad80-e6bb9d7776b6"},"vehicle_type_id":"4","last_reported":1758978871,"current_range_meters":4000,"station_id":"ce4bgvp2rcd13ifvqcu0","pricing_plan_id":"cebpf4jnsgd1na2vs0mg"},{"bike_id":"70310dd9-d2f4-4a63-9998-981513b1920e","system_id":"levelo_inurba_marseille","lat":43.28155,"lon":5.42643,"is_reserved":false,"is_disabled":false,"rental_uris":{"android":"levelo://app?vid=70310dd9-d2f4-4a63-9998-981513b1920e","ios":"levelo://app?vid=70310dd9-d2f4-4a63-9998-981513b1920e"},"vehicle_type_id":"4","last_reported":1758978871,"current_range_meters":4000,"station_id":"ce4bhnh2rcd13ifvqgug","pricing_plan_id":"cebpf4jnsgd1na2vs0mg"},{"bike_id":"4e668859-0c50-4689-86f6-6970a8469c50","system_id":"levelo_inurba_marseille","lat":43.23973,"lon":5.36621,"is_reserved":false,"is_disabled":false,"rental_uris":{"android":"levelo://app?vid=4e668859-0c50-4689-86f6-6970a8469c50","ios":"levelo://app?vid=4e668859-0c50-4689-86f6-6970a8469c50"},"vehicle_type_id":"4","last_reported":1758978871,"current_range_meters":4000,"station_id":"ce4bhi12rcd13ifvqfp0","pricing_plan_id":"cebpf4jnsgd1na2vs0mg"},{"bike_id":"0a46e719-487d-4ec6-badd-117ae9f9222f","system_id":"levelo_inurba_marseille","lat":43.30428,"lon":5.38896,"is_reserved":false,"is_disabled":false,"rental_uris":{"android":"levelo://app?vid=0a46e719-487d-4ec6-badd-117ae9f9222f","ios":"levelo://app?vid=0a46e719-487d-4ec6-badd-117ae9f9222f"},"vehicle_type_id":"4","last_reported":1758978871,"current_range_meters":4000,"station_id":"ce4bgk12rcd13ifvqbi0","pricing_plan_id":"cebpf4jnsgd1na2vs0mg"},{"bike_id":"5f66838f-8e9f-4e62-a2d8-561640f55469","system_id":"levelo_inurba_marseille","lat":43.2396,"lon":5.366528,"is_reserved":false,"is_disabled":false,"rental_uris":{"android":"levelo://app?vid=5f66838f-8e9f-4e62-a2d8-561640f55469","ios":"levelo://app?vid=5f66838f-8e9f-4e62-a2d8-561640f55469"},"vehicle_type_id":"4","last_reported":1758978871,"current_range_meters":4400,"station_id":"ce4bhi12rcd13ifvqfp0","pricing_plan_id":"cebpf4jnsgd1na2vs0mg"},{"bike_id":"b4bb7f1a-0b18-42a1-b18d-156a87205a5c","system_id":"levelo_inurba_marseille","lat":43.2322,"lon":5.35558,"is_reserved":false,"is_disabled":false,"rental_uris":{"android":"levelo://app?vid=b4bb7f1a-0b18-42a1-b18d-156a87205a5c","ios":"levelo://app?vid=b4bb7f1a-0b18-42a1-b18d-156a87205a5c"},"vehicle_type_id":"4","last_reported":1758978871,"current_range_meters":4400,"station_id":"ce4bhu92rcd13ifvqi70","pricing_plan_id":"cebpf4jnsgd1na2vs0mg"},{"bike_id":"f897d300-643c-4c7a-951b-f56d70ef23ca","system_id":"levelo_inurba_marseille","lat":43.30324,"lon":5.39049,"is_reserved":false,"is_disabled":false,"rental_uris":{"android":"levelo://app?vid=f897d300-643c-4c7a-951b-f56d70ef23ca","ios":"levelo://app?vid=f897d300-643c-4c7a-951b-f56d70ef23ca"},"vehicle_type_id":"4","last_reported":1758978871,"current_range_meters":4400,"station_id":"","pricing_plan_id":"cebpf4jnsgd1na2vs0mg"},{"bike_id":"25f64924-a44b-4d39-998e-ac0a0bb8135a","system_id":"levelo_inurba_marseille","lat":43.28461,"lon":5.35882,"is_reserved":false,"is_disabled":false,"rental_uris":{"android":"levelo://app?vid=25f64924-a44b-4d39-998e-ac0a0bb8135a","ios":"levelo://app?vid=25f64924-a44b-4d39-998e-ac0a0bb8135a"},"vehicle_type_id":"4","last_reported":1758978871,"current_range_meters":4400,"station_id":"ce4bhah2rcd13ifvqei0","pricing_plan_id":"cebpf4jnsgd1na2vs0mg"},{"bike_id":"75d2e23d-a364-4a57-89ce-18e735183797","system_id":"levelo_inurba_marseille","lat":43.286136,"lon":5.351057,"is_reserved":false,"is_disabled":false,"rental_uris":{"android":"levelo://app?vid=75d2e23d-a364-4a57-89ce-18e735183797","ios":"levelo://app?vid=75d2e23d-a364-4a57-89ce-18e735183797"},"vehicle_type_id":"4","last_reported":1758978871,"current_range_meters":4400,"station_id":"ce4bhch2rcd13ifvqeug","pricing_plan_id":"cebpf4jnsgd1na2vs0mg"},{"bike_id":"5fa84e79-eb24-4af0-8889-7a6065136846","system_id":"levelo_inurba_marseille","lat":43.23192,"lon":5.35495,"is_reserved":false,"is_disabled":false,"rental_uris":{"android":"levelo://app?vid=5fa84e79-eb24-4af0-8889-7a6065136846","ios":"levelo://app?vid=5fa84e79-eb24-4af0-8889-7a6065136846"},"vehicle_type_id":"4","last_reported":1758978871,"current_range_meters":4800,"station_id":"ce4bhu92rcd13ifvqi70","pricing_plan_id":"cebpf4jnsgd1na2vs0mg"},{"bike_id":"e3c560c5-26dd-457d-9664-c48b1a3ffc04","system_id":"levelo_inurba_marseille","lat":43.2407,"lon":5.37763,"is_reserved":false,"is_disabled":false,"rental_uris":{"android":"levelo://app?vid=e3c560c5-26dd-457d-9664-c48b1a3ffc04","ios":"levelo://app?vid=e3c560c5-26dd-457d-9664-c48b1a3ffc04"},"vehicle_type_id":"4","last_reported":1758978871,"current_range_meters":4800,"station_id":"ce4bhnp2rcd13ifvqgvg","pricing_plan_id":"cebpf4jnsgd1na2vs0mg"},{"bike_id":"94d61d17-48e3-4e7d-8cc1-0efc7a1d6a42","system_id":"levelo_inurba_marseille","lat":43.23967,"lon":5.36636,"is_reserved":false,"is_disabled":false,"rental_uris":{"android":"levelo://app?vid=94d61d17-48e3-4e7d-8cc1-0efc7a1d6a42","ios":"levelo://app?vid=94d61d17-48e3-4e7d-8cc1-0efc7a1d6a42"},"vehicle_type_id":"4","last_reported":1758978871,"current_range_meters":4800,"station_id":"ce4bhi12rcd13ifvqfp0","pricing_plan_id":"cebpf4jnsgd1na2vs0mg"},{"bike_id":"23af64c5-f78f-4ed9-b978-644841b651c7","system_id":"levelo_inurba_marseille","lat":43.28714,"lon":5.37932,"is_reserved":false,"is_disabled":false,"rental_uris":{"android":"levelo://app?vid=23af64c5-f78f-4ed9-b978-644841b651c7","ios":"levelo://app?vid=23af64c5-f78f-4ed9-b978-644841b651c7"},"vehicle_type_id":"4","last_reported":1758978871,"current_range_meters":4800,"station_id":"ce4bh9p2rcd13ifvqec0","pricing_plan_id":"cebpf4jnsgd1na2vs0mg"},{"bike_id":"b6f3f6aa-5432-4a75-9fcf-4e6d4514012d","system_id":"levelo_inurba_marseille","lat":43.224809,"lon":5.347746,"is_reserved":false,"is_disabled":false,"rental_uris":{"android":"levelo://app?vid=b6f3f6aa-5432-4a75-9fcf-4e6d4514012d","ios":"levelo://app?vid=b6f3f6aa-5432-4a75-9fcf-4e6d4514012d"},"vehicle_type_id":"4","last_reported":1758978871,"current_range_meters":4800,"station_id":"","pricing_plan_id":"cebpf4jnsgd1na2vs0mg"},{"bike_id":"27216159-c2d2-4bbb-998f-3f8faa38cdc1","system_id":"levelo_inurba_marseille","lat":43.23963,"lon":5.36627,"is_reserved":false,"is_disabled":false,"rental_uris":{"android":"levelo://app?vid=27216159-c2d2-4bbb-998f-3f8faa38cdc1","ios":"levelo://app?vid=27216159-c2d2-4bbb-998f-3f8faa38cdc1"},"vehicle_type_id":"4","last_reported":1758978871,"current_range_meters":5600,"station_id":"ce4bhi12rcd13ifvqfp0","pricing_plan_id":"cebpf4jnsgd1na2vs0mg"},{"bike_id":"c7f6a08b-c655-4213-b2ba-7d02e7f382fe","system_id":"levelo_inurba_marseille","lat":43.27988,"lon":5.39483,"is_reserved":false,"is_disabled":false,"rental_uris":{"android":"levelo://app?vid=c7f6a08b-c655-4213-b2ba-7d02e7f382fe","ios":"levelo://app?vid=c7f6a08b-c655-4213-b2ba-7d02e7f382fe"},"vehicle_type_id":"4","last_reported":1758978871,"current_range_meters":5600,"station_id":"","pricing_plan_id":"cebpf4jnsgd1na2vs0mg"},{"bike_id":"9a819dc8-447d-4df7-8b5f-0b18332a26a7","system_id":"levelo_inurba_marseille","lat":43.33118,"lon":5.37582,"is_reserved":false,"is_disabled":false,"rental_uris":{"android":"levelo://app?vid=9a819dc8-447d-4df7-8b5f-0b18332a26a7","ios":"levelo://app?vid=9a819dc8-447d-4df7-8b5f-0b18332a26a7"},"vehicle_type_id":"4","last_reported":1758978871,"current_range_meters":5600,"station_id":"","pricing_plan_id":"cebpf4jnsgd1na2vs0mg"},{"bike_id":"8c28d69d-0f38-4b5a-b7e2-fc7df25a9f53","system_id":"levelo_inurba_marseille","lat":43.3046,"lon":5.37903,"is_reserved":false,"is_disabled":false,"rental_uris":{"android":"levelo://app?vid=8c28d69d-0f38-4b5a-b7e2-fc7df25a9f53","ios":"levelo://app?vid=8c28d69d-0f38-4b5a-b7e2-fc7df25a9f53"},"vehicle_type_id":"4","last_reported":1758978871,"current_range_meters":6000,"station_id":"ce4bgup2rcd13ifvqcn0","pricing_plan_id":"cebpf4jnsgd1na2vs0mg"},{"bike_id":"5860fd71-a040-43b7-9a78-6773c291e385","system_id":"levelo_inurba_marseille","lat":43.261964,"lon":5.374493,"is_reserved":false,"is_disabled":false,"rental_uris":{"android":"levelo://app?vid=5860fd71-a040-43b7-9a78-6773c291e385","ios":"levelo://app?vid=5860fd71-a040-43b7-9a78-6773c291e385"},"vehicle_type_id":"4","last_reported":1758978871,"current_range_meters":6000,"station_id":"ce4bhgp2rcd13ifvqfc0","pricing_plan_id":"cebpf4jnsgd1na2vs0mg"},{"bike_id":"1ba48560-da29-4bf1-9bcb-c0f33fb77ae2","system_id":"levelo_inurba_marseille","lat":43.21742,"lon":5.34607,"is_reserved":false,"is_disabled":false,"rental_uris":{"android":"levelo://app?vid=1ba48560-da29-4bf1-9bcb-c0f33fb77ae2","ios":"levelo://app?vid=1ba48560-da29-4bf1-9bcb-c0f33fb77ae2"},"vehicle_type_id":"4","last_reported":1758978871,"current_range_meters":6000,"station_id":"st_cvj6r9ubvosntc0bgbag","pricing_plan_id":"cebpf4jnsgd1na2vs0mg"},{"bike_id":"c991a87d-d023-46be-a1a4-e5a37d0200dd","system_id":"levelo_inurba_marseille","lat":43.273741,"lon":5.362646,"is_reserved":false,"is_disabled":false,"rental_uris":{"android":"levelo://app?vid=c991a87d-d023-46be-a1a4-e5a37d0200dd","ios":"levelo://app?vid=c991a87d-d023-46be-a1a4-e5a37d0200dd"},"vehicle_type_id":"4","last_reported":1758978871,"current_range_meters":6000,"station_id":"ce4bhbh2rcd13ifvqeo0","pricing_plan_id":"cebpf4jnsgd1na2vs0mg"},{"bike_id":"55c5018b-849e-45c1-a76b-2ec4f4b1afe8","system_id":"levelo_inurba_marseille","lat":43.29254,"lon":5.37612,"is_reserved":false,"is_disabled":false,"rental_uris":{"android":"levelo://app?vid=55c5018b-849e-45c1-a76b-2ec4f4b1afe8","ios":"levelo://app?vid=55c5018b-849e-45c1-a76b-2ec4f4b1afe8"},"vehicle_type_id":"4","last_reported":1758978871,"current_range_meters":6000,"station_id":"ce4bgi12rcd13ifvqb80","pricing_plan_id":"cebpf4jnsgd1na2vs0mg"},{"bike_id":"cafb0465-4ea9-4502-be17-2d5c80bc47b4","system_id":"levelo_inurba_marseille","lat":43.303395,"lon":5.392522,"is_reserved":false,"is_disabled":false,"rental_uris":{"android":"levelo://app?vid=cafb0465-4ea9-4502-be17-2d5c80bc47b4","ios":"levelo://app?vid=cafb0465-4ea9-4502-be17-2d5c80bc47b4"},"vehicle_type_id":"4","last_reported":1758978871,"current_range_meters":6400,"station_id":"ce4bgkh2rcd13ifvqbk0","pricing_plan_id":"cebpf4jnsgd1na2vs0mg"},{"bike_id":"cd5332c8-b7a4-42d8-bbee-d21346d785c0","system_id":"levelo_inurba_marseille","lat":43.32473,"lon":5.36571,"is_reserved":false,"is_disabled":false,"rental_uris":{"android":"levelo://app?vid=cd5332c8-b7a4-42d8-bbee-d21346d785c0","ios":"levelo://app?vid=cd5332c8-b7a4-42d8-bbee-d21346d785c0"},"vehicle_type_id":"4","last_reported":1758978871,"current_range_meters":6400,"station_id":"ce4bhs12rcd13ifvqhvg","pricing_plan_id":"cebpf4jnsgd1na2vs0mg"},{"bike_id":"c458bbd0-34cc-4216-88bd-dd7b59514aa5","system_id":"levelo_inurba_marseille","lat":43.2842,"lon":5.34978,"is_reserved":false,"is_disabled":false,"rental_uris":{"android":"levelo://app?vid=c458bbd0-34cc-4216-88bd-dd7b59514aa5","ios":"levelo://app?vid=c458bbd0-34cc-4216-88bd-dd7b59514aa5"},"vehicle_type_id":"4","last_reported":1758978871,"current_range_meters":6400,"station_id":"ce4bhbh2rcd13ifvqepg","pricing_plan_id":"cebpf4jnsgd1na2vs0mg"},{"bike_id":"1028cd2b-b4fc-4d5c-9515-2844e29f4322","system_id":"levelo_inurba_marseille","lat":43.225362,"lon":5.348472,"is_reserved":false,"is_disabled":false,"rental_uris":{"android":"levelo://app?vid=1028cd2b-b4fc-4d5c-9515-2844e29f4322","ios":"levelo://app?vid=1028cd2b-b4fc-4d5c-9515-2844e29f4322"},"vehicle_type_id":"4","last_reported":1758978871,"current_range_meters":6400,"station_id":"","pricing_plan_id":"cebpf4jnsgd1na2vs0mg"},{"bike_id":"443f7dc3-4c35-4975-a8f4-b6a0ee79874b","system_id":"levelo_inurba_marseille","lat":43.29231,"lon":5.37201,"is_reserved":false,"is_disabled":false,"rental_uris":{"android":"levelo://app?vid=443f7dc3-4c35-4975-a8f4-b6a0ee79874b","ios":"levelo://app?vid=443f7dc3-4c35-4975-a8f4-b6a0ee79874b"},"vehicle_type_id":"4","last_reported":1758978871,"current_range_meters":6400,"station_id":"","pricing_plan_id":"cebpf4jnsgd1na2vs0mg"},{"bike_id":"041cd397-24ab-4e04-af23-07b961e161f4","system_id":"levelo_inurba_marseille","lat":43.337444,"lon":5.374475,"is_reserved":false,"is_disabled":false,"rental_uris":{"android":"levelo://app?vid=041cd397-24ab-4e04-af23-07b961e161f4","ios":"levelo://app?vid=041cd397-24ab-4e04-af23-07b961e161f4"},"vehicle_type_id":"4","last_reported":1758978871,"current_range_meters":6400,"station_id":"","pricing_plan_id":"cebpf4jnsgd1na2vs0mg"},{"bike_id":"10d6bd44-1441-4a49-871e-716ccf9f617c","system_id":"levelo_inurba_marseille","lat":43.26566,"lon":5.38991,"is_reserved":false,"is_disabled":false,"rental_uris":{"android":"levelo://app?vid=10d6bd44-1441-4a49-871e-716ccf9f617c","ios":"levelo://app?vid=10d6bd44-1441-4a49-871e-716ccf9f617c"},"vehicle_type_id":"4","last_reported":1758978871,"current_range_meters":6400,"station_id":"ce4bhe12rcd13ifvqf30","pricing_plan_id":"cebpf4jnsgd1na2vs0mg"},{"bike_id":"1c5eeaf5-5d2a-47b1-8f51-801f5be0bd2e","system_id":"levelo_inurba_marseille","lat":43.31117,"lon":5.37775,"is_reserved":false,"is_disabled":false,"rental_uris":{"android":"levelo://app?vid=1c5eeaf5-5d2a-47b1-8f51-801f5be0bd2e","ios":"levelo://app?vid=1c5eeaf5-5d2a-47b1-8f51-801f5be0bd2e"},"vehicle_type_id":"4","last_reported":1758978871,"current_range_meters":6400,"station_id":"ce4bgt92rcd13ifvqcg0","pricing_plan_id":"cebpf4jnsgd1na2vs0mg"},{"bike_id":"90b16cfb-4abf-4e40-a9c7-f357958b1e71","system_id":"levelo_inurba_marseille","lat":43.21208,"lon":5.35064,"is_reserved":false,"is_disabled":false,"rental_uris":{"android":"levelo://app?vid=90b16cfb-4abf-4e40-a9c7-f357958b1e71","ios":"levelo://app?vid=90b16cfb-4abf-4e40-a9c7-f357958b1e71"},"vehicle_type_id":"4","last_reported":1758978871,"current_range_meters":6400,"station_id":"st_cvj6sg6p6f1abm77japg","pricing_plan_id":"cebpf4jnsgd1na2vs0mg"},{"bike_id":"75611fb7-df45-4d9f-9db0-a181136cc424","system_id":"levelo_inurba_marseille","lat":43.21746,"lon":5.346,"is_reserved":false,"is_disabled":false,"rental_uris":{"android":"levelo://app?vid=75611fb7-df45-4d9f-9db0-a181136cc424","ios":"levelo://app?vid=75611fb7-df45-4d9f-9db0-a181136cc424"},"vehicle_type_id":"4","last_reported":1758978871,"current_range_meters":6800,"station_id":"st_cvj6r9ubvosntc0bgbag","pricing_plan_id":"cebpf4jnsgd1na2vs0mg"},{"bike_id":"2446a177-4cf1-4b29-82a8-ec97861545e4","system_id":"levelo_inurba_marseille","lat":43.28927,"lon":5.36618,"is_reserved":false,"is_disabled":false,"rental_uris":{"android":"levelo://app?vid=2446a177-4cf1-4b29-82a8-ec97861545e4","ios":"levelo://app?vid=2446a177-4cf1-4b29-82a8-ec97861545e4"},"vehicle_type_id":"4","last_reported":1758978871,"current_range_meters":6800,"station_id":"ce4bhap2rcd13ifvqek0","pricing_plan_id":"cebpf4jnsgd1na2vs0mg"},{"bike_id":"4ea066be-d5c0-4685-b39a-612a810bdfbb","system_id":"levelo_inurba_marseille","lat":43.27378,"lon":5.36251,"is_reserved":false,"is_disabled":false,"rental_uris":{"android":"levelo://app?vid=4ea066be-d5c0-4685-b39a-612a810bdfbb","ios":"levelo://app?vid=4ea066be-d5c0-4685-b39a-612a810bdfbb"},"vehicle_type_id":"4","last_reported":1758978871,"current_range_meters":6800,"station_id":"ce4bhbh2rcd13ifvqeo0","pricing_plan_id":"cebpf4jnsgd1na2vs0mg"},{"bike_id":"050d747c-b341-470e-a4ac-dd284cada632","system_id":"levelo_inurba_marseille","lat":43.22934,"lon":5.3538,"is_reserved":false,"is_disabled":false,"rental_uris":{"android":"levelo://app?vid=050d747c-b341-470e-a4ac-dd284cada632","ios":"levelo://app?vid=050d747c-b341-470e-a4ac-dd284cada632"},"vehicle_type_id":"4","last_reported":1758978871,"current_range_meters":6800,"station_id":"cpo3532slgdg3j2ikp40","pricing_plan_id":"cebpf4jnsgd1na2vs0mg"},{"bike_id":"0b1eb747-8274-4a8a-a752-7c30d6b68dc6","system_id":"levelo_inurba_marseille","lat":43.29904,"lon":5.43643,"is_reserved":false,"is_disabled":false,"rental_uris":{"android":"levelo://app?vid=0b1eb747-8274-4a8a-a752-7c30d6b68dc6","ios":"levelo://app?vid=0b1eb747-8274-4a8a-a752-7c30d6b68dc6"},"vehicle_type_id":"4","last_reported":1758978871,"current_range_meters":6800,"station_id":"ce4bhpp2rcd13ifvqhfg","pricing_plan_id":"cebpf4jnsgd1na2vs0mg"},{"bike_id":"a462cce2-9104-46a9-a432-ba7c3c35eb6a","system_id":"levelo_inurba_marseille","lat":43.27073,"lon":5.40258,"is_reserved":false,"is_disabled":true,"rental_uris":{"android":"levelo://app?vid=a462cce2-9104-46a9-a432-ba7c3c35eb6a","ios":"levelo://app?vid=a462cce2-9104-46a9-a432-ba7c3c35eb6a"},"vehicle_type_id":"4","last_reported":1758978871,"current_range_meters":6800,"station_id":"ce4bhk92rcd13ifvqgc0","pricing_plan_id":"cebpf4jnsgd1na2vs0mg"},{"bike_id":"029b1058-cf6b-476c-9bec-5b7b9ad1af5f","system_id":"levelo_inurba_marseille","lat":43.28263,"lon":5.35059,"is_reserved":false,"is_disabled":false,"rental_uris":{"android":"levelo://app?vid=029b1058-cf6b-476c-9bec-5b7b9ad1af5f","ios":"levelo://app?vid=029b1058-cf6b-476c-9bec-5b7b9ad1af5f"},"vehicle_type_id":"4","last_reported":1758978871,"current_range_meters":6800,"station_id":"ce4bhbp2rcd13ifvqerg","pricing_plan_id":"cebpf4jnsgd1na2vs0mg"},{"bike_id":"f2d68361-1e8d-4fcf-96b4-a54709ef9d7f","system_id":"levelo_inurba_marseille","lat":43.2904,"lon":5.359195,"is_reserved":false,"is_disabled":true,"rental_uris":{"android":"levelo://app?vid=f2d68361-1e8d-4fcf-96b4-a54709ef9d7f","ios":"levelo://app?vid=f2d68361-1e8d-4fcf-96b4-a54709ef9d7f"},"vehicle_type_id":"4","last_reported":1758978871,"current_range_meters":7200,"station_id":"ce4bhb12rcd13ifvqel0","pricing_plan_id":"cebpf4jnsgd1na2vs0mg"},{"bike_id":"fd603b32-cd87-470e-97d4-42bb1beb3dc4","system_id":"levelo_inurba_marseille","lat":43.23188,"lon":5.3554,"is_reserved":false,"is_disabled":false,"rental_uris":{"android":"levelo://app?vid=fd603b32-cd87-470e-97d4-42bb1beb3dc4","ios":"levelo://app?vid=fd603b32-cd87-470e-97d4-42bb1beb3dc4"},"vehicle_type_id":"4","last_reported":1758978871,"current_range_meters":7200,"station_id":"ce4bhu92rcd13ifvqi70","pricing_plan_id":"cebpf4jnsgd1na2vs0mg"},{"bike_id":"69699675-8a18-4582-a1c3-6bfb6681de1d","system_id":"levelo_inurba_marseille","lat":43.21199,"lon":5.35063,"is_reserved":false,"is_disabled":false,"rental_uris":{"android":"levelo://app?vid=69699675-8a18-4582-a1c3-6bfb6681de1d","ios":"levelo://app?vid=69699675-8a18-4582-a1c3-6bfb6681de1d"},"vehicle_type_id":"4","last_reported":1758978871,"current_range_meters":7200,"station_id":"st_cvj6sg6p6f1abm77japg","pricing_plan_id":"cebpf4jnsgd1na2vs0mg"},{"bike_id":"174dfb4f-f618-4c2f-be1c-ae0d6b405e94","system_id":"levelo_inurba_marseille","lat":43.29725,"lon":5.38267,"is_reserved":false,"is_disabled":false,"rental_uris":{"android":"levelo://app?vid=174dfb4f-f618-4c2f-be1c-ae0d6b405e94","ios":"levelo://app?vid=174dfb4f-f618-4c2f-be1c-ae0d6b405e94"},"vehicle_type_id":"4","last_reported":1758978871,"current_range_meters":7200,"station_id":"","pricing_plan_id":"cebpf4jnsgd1na2vs0mg"},{"bike_id":"b76f019a-38b2-4414-9c9f-1f5b5463a43a","system_id":"levelo_inurba_marseille","lat":43.27214,"lon":5.39181,"is_reserved":false,"is_disabled":false,"rental_uris":{"android":"levelo://app?vid=b76f019a-38b2-4414-9c9f-1f5b5463a43a","ios":"levelo://app?vid=b76f019a-38b2-4414-9c9f-1f5b5463a43a"},"vehicle_type_id":"4","last_reported":1758978871,"current_range_meters":7200,"station_id":"ce4bhhp2rcd13ifvqfm0","pricing_plan_id":"cebpf4jnsgd1na2vs0mg"},{"bike_id":"79e96177-914a-415b-b40c-f0f749163093","system_id":"levelo_inurba_marseille","lat":43.24072,"lon":5.37766,"is_reserved":false,"is_disabled":false,"rental_uris":{"android":"levelo://app?vid=79e96177-914a-415b-b40c-f0f749163093","ios":"levelo://app?vid=79e96177-914a-415b-b40c-f0f749163093"},"vehicle_type_id":"4","last_reported":1758978871,"current_range_meters":7200,"station_id":"ce4bhnp2rcd13ifvqgvg","pricing_plan_id":"cebpf4jnsgd1na2vs0mg"},{"bike_id":"0c0137d2-c7b2-41b5-b7ec-efc1e215b6ba","system_id":"levelo_inurba_marseille","lat":43.22936,"lon":5.35378,"is_reserved":false,"is_disabled":false,"rental_uris":{"android":"levelo://app?vid=0c0137d2-c7b2-41b5-b7ec-efc1e215b6ba","ios":"levelo://app?vid=0c0137d2-c7b2-41b5-b7ec-efc1e215b6ba"},"vehicle_type_id":"4","last_reported":1758978871,"current_range_meters":8000,"station_id":"cpo3532slgdg3j2ikp40","pricing_plan_id":"cebpf4jnsgd1na2vs0mg"},{"bike_id":"bc00b3af-f4a5-4547-9aac-d0d68b878aee","system_id":"levelo_inurba_marseille","lat":43.31125,"lon":5.37764,"is_reserved":false,"is_disabled":false,"rental_uris":{"android":"levelo://app?vid=bc00b3af-f4a5-4547-9aac-d0d68b878aee","ios":"levelo://app?vid=bc00b3af-f4a5-4547-9aac-d0d68b878aee"},"vehicle_type_id":"4","last_reported":1758978871,"current_range_meters":8000,"station_id":"ce4bgt92rcd13ifvqcg0","pricing_plan_id":"cebpf4jnsgd1na2vs0mg"},{"bike_id":"c2207658-b923-4a8f-a2fa-281c17511191","system_id":"levelo_inurba_marseille","lat":43.32485,"lon":5.36582,"is_reserved":false,"is_disabled":false,"rental_uris":{"android":"levelo://app?vid=c2207658-b923-4a8f-a2fa-281c17511191","ios":"levelo://app?vid=c2207658-b923-4a8f-a2fa-281c17511191"},"vehicle_type_id":"4","last_reported":1758978871,"current_range_meters":8000,"station_id":"ce4bhs12rcd13ifvqhvg","pricing_plan_id":"cebpf4jnsgd1na2vs0mg"},{"bike_id":"bf0d4b93-42c6-4194-84f4-8c59c290a8bb","system_id":"levelo_inurba_marseille","lat":43.2926,"lon":5.37624,"is_reserved":false,"is_disabled":false,"rental_uris":{"android":"levelo://app?vid=bf0d4b93-42c6-4194-84f4-8c59c290a8bb","ios":"levelo://app?vid=bf0d4b93-42c6-4194-84f4-8c59c290a8bb"},"vehicle_type_id":"4","last_reported":1758978871,"current_range_meters":8000,"station_id":"ce4bgi12rcd13ifvqb80","pricing_plan_id":"cebpf4jnsgd1na2vs0mg"},{"bike_id":"f0dec98a-167a-48b0-b340-0cadacf58056","system_id":"levelo_inurba_marseille","lat":43.29788,"lon":5.37094,"is_reserved":false,"is_disabled":false,"rental_uris":{"android":"levelo://app?vid=f0dec98a-167a-48b0-b340-0cadacf58056","ios":"levelo://app?vid=f0dec98a-167a-48b0-b340-0cadacf58056"},"vehicle_type_id":"4","last_reported":1758978871,"current_range_meters":8400,"station_id":"ce4bgop2rcd13ifvqc1g","pricing_plan_id":"cebpf4jnsgd1na2vs0mg"},{"bike_id":"782ef6e5-2f8d-4d22-9cee-b47d5b635fd2","system_id":"levelo_inurba_marseille","lat":43.29978,"lon":5.38476,"is_reserved":false,"is_disabled":false,"rental_uris":{"android":"levelo://app?vid=782ef6e5-2f8d-4d22-9cee-b47d5b635fd2","ios":"levelo://app?vid=782ef6e5-2f8d-4d22-9cee-b47d5b635fd2"},"vehicle_type_id":"4","last_reported":1758978871,"current_range_meters":8400,"station_id":"ce4bgj92rcd13ifvqbd0","pricing_plan_id":"cebpf4jnsgd1na2vs0mg"},{"bike_id":"741795d3-e69e-4dae-b7e3-e150ab063b9f","system_id":"levelo_inurba_marseille","lat":43.2705,"lon":5.40244,"is_reserved":false,"is_disabled":false,"rental_uris":{"android":"levelo://app?vid=741795d3-e69e-4dae-b7e3-e150ab063b9f","ios":"levelo://app?vid=741795d3-e69e-4dae-b7e3-e150ab063b9f"},"vehicle_type_id":"4","last_reported":1758978871,"current_range_meters":8400,"station_id":"ce4bhk92rcd13ifvqgc0","pricing_plan_id":"cebpf4jnsgd1na2vs0mg"},{"bike_id":"2584ba0c-fa08-4bd2-895f-1292fdf34e14","system_id":"levelo_inurba_marseille","lat":43.28459,"lon":5.35876,"is_reserved":false,"is_disabled":false,"rental_uris":{"android":"levelo://app?vid=2584ba0c-fa08-4bd2-895f-1292fdf34e14","ios":"levelo://app?vid=2584ba0c-fa08-4bd2-895f-1292fdf34e14"},"vehicle_type_id":"4","last_reported":1758978871,"current_range_meters":8000,"station_id":"ce4bhah2rcd13ifvqei0","pricing_plan_id":"cebpf4jnsgd1na2vs0mg"},{"bike_id":"247b6e67-4d46-4811-9eda-5b97b76bd341","system_id":"levelo_inurba_marseille","lat":43.24397,"lon":5.37108,"is_reserved":false,"is_disabled":false,"rental_uris":{"android":"levelo://app?vid=247b6e67-4d46-4811-9eda-5b97b76bd341","ios":"levelo://app?vid=247b6e67-4d46-4811-9eda-5b97b76bd341"},"vehicle_type_id":"4","last_reported":1758978871,"current_range_meters":8400,"station_id":"ce4bhhh2rcd13ifvqfk0","pricing_plan_id":"cebpf4jnsgd1na2vs0mg"},{"bike_id":"5fb602f0-d0c6-4e21-bcde-a255688540c3","system_id":"levelo_inurba_marseille","lat":43.29021,"lon":5.38127,"is_reserved":false,"is_disabled":false,"rental_uris":{"android":"levelo://app?vid=5fb602f0-d0c6-4e21-bcde-a255688540c3","ios":"levelo://app?vid=5fb602f0-d0c6-4e21-bcde-a255688540c3"},"vehicle_type_id":"4","last_reported":1758978871,"current_range_meters":8400,"station_id":"ce4bh4p2rcd13ifvqe1g","pricing_plan_id":"cebpf4jnsgd1na2vs0mg"},{"bike_id":"d2b4ac83-91e6-46fb-9929-4b55b0b2c4f5","system_id":"levelo_inurba_marseille","lat":43.25684,"lon":5.41146,"is_reserved":false,"is_disabled":false,"rental_uris":{"android":"levelo://app?vid=d2b4ac83-91e6-46fb-9929-4b55b0b2c4f5","ios":"levelo://app?vid=d2b4ac83-91e6-46fb-9929-4b55b0b2c4f5"},"vehicle_type_id":"4","last_reported":1758978871,"current_range_meters":8400,"station_id":"ce4bhkp2rcd13ifvqgd0","pricing_plan_id":"cebpf4jnsgd1na2vs0mg"},{"bike_id":"a0573821-0527-4004-9833-6432646ec6d9","system_id":"levelo_inurba_marseille","lat":43.25822,"lon":5.39438,"is_reserved":false,"is_disabled":false,"rental_uris":{"android":"levelo://app?vid=a0573821-0527-4004-9833-6432646ec6d9","ios":"levelo://app?vid=a0573821-0527-4004-9833-6432646ec6d9"},"vehicle_type_id":"4","last_reported":1758978871,"current_range_meters":8400,"station_id":"ce4bhip2rcd13ifvqft0","pricing_plan_id":"cebpf4jnsgd1na2vs0mg"},{"bike_id":"dadd35a9-95e2-414e-9129-4e8ec529cb95","system_id":"levelo_inurba_marseille","lat":43.29699,"lon":5.37283,"is_reserved":false,"is_disabled":false,"rental_uris":{"android":"levelo://app?vid=dadd35a9-95e2-414e-9129-4e8ec529cb95","ios":"levelo://app?vid=dadd35a9-95e2-414e-9129-4e8ec529cb95"},"vehicle_type_id":"4","last_reported":1758978871,"current_range_meters":8800,"station_id":"ce4bgk12rcd13ifvqbj0","pricing_plan_id":"cebpf4jnsgd1na2vs0mg"},{"bike_id":"a639c491-c436-478a-8d5d-bd2c30b918ff","system_id":"levelo_inurba_marseille","lat":43.29749,"lon":5.37205,"is_reserved":false,"is_disabled":false,"rental_uris":{"android":"levelo://app?vid=a639c491-c436-478a-8d5d-bd2c30b918ff","ios":"levelo://app?vid=a639c491-c436-478a-8d5d-bd2c30b918ff"},"vehicle_type_id":"4","last_reported":1758978871,"current_range_meters":8800,"station_id":"","pricing_plan_id":"cebpf4jnsgd1na2vs0mg"},{"bike_id":"c11c34d2-d195-4699-a317-a288c806a2f0","system_id":"levelo_inurba_marseille","lat":43.21752,"lon":5.34602,"is_reserved":false,"is_disabled":false,"rental_uris":{"android":"levelo://app?vid=c11c34d2-d195-4699-a317-a288c806a2f0","ios":"levelo://app?vid=c11c34d2-d195-4699-a317-a288c806a2f0"},"vehicle_type_id":"4","last_reported":1758978871,"current_range_meters":8800,"station_id":"st_cvj6r9ubvosntc0bgbag","pricing_plan_id":"cebpf4jnsgd1na2vs0mg"},{"bike_id":"a6bb3f7e-1291-473c-8705-9c817f65406c","system_id":"levelo_inurba_marseille","lat":43.21751,"lon":5.34596,"is_reserved":false,"is_disabled":false,"rental_uris":{"android":"levelo://app?vid=a6bb3f7e-1291-473c-8705-9c817f65406c","ios":"levelo://app?vid=a6bb3f7e-1291-473c-8705-9c817f65406c"},"vehicle_type_id":"4","last_reported":1758978871,"current_range_meters":9200,"station_id":"st_cvj6r9ubvosntc0bgbag","pricing_plan_id":"cebpf4jnsgd1na2vs0mg"},{"bike_id":"fd7db3b2-bf6f-47a6-a193-d9e54fb8924d","system_id":"levelo_inurba_marseille","lat":43.30549,"lon":5.36531,"is_reserved":false,"is_disabled":false,"rental_uris":{"android":"levelo://app?vid=fd7db3b2-bf6f-47a6-a193-d9e54fb8924d","ios":"levelo://app?vid=fd7db3b2-bf6f-47a6-a193-d9e54fb8924d"},"vehicle_type_id":"4","last_reported":1758978871,"current_range_meters":9200,"station_id":"ce4bgs12rcd13ifvqcag","pricing_plan_id":"cebpf4jnsgd1na2vs0mg"},{"bike_id":"720623f7-9148-4a0e-ade4-a205c6fa44f0","system_id":"levelo_inurba_marseille","lat":43.28977,"lon":5.42922,"is_reserved":false,"is_disabled":false,"rental_uris":{"android":"levelo://app?vid=720623f7-9148-4a0e-ade4-a205c6fa44f0","ios":"levelo://app?vid=720623f7-9148-4a0e-ade4-a205c6fa44f0"},"vehicle_type_id":"4","last_reported":1758978871,"current_range_meters":9200,"station_id":"","pricing_plan_id":"cebpf4jnsgd1na2vs0mg"},{"bike_id":"2907de3a-cdb7-4c49-945b-9d4546080cdd","system_id":"levelo_inurba_marseille","lat":43.29468,"lon":5.36233,"is_reserved":false,"is_disabled":false,"rental_uris":{"android":"levelo://app?vid=2907de3a-cdb7-4c49-945b-9d4546080cdd","ios":"levelo://app?vid=2907de3a-cdb7-4c49-945b-9d4546080cdd"},"vehicle_type_id":"4","last_reported":1758978871,"current_range_meters":9200,"station_id":"","pricing_plan_id":"cebpf4jnsgd1na2vs0mg"},{"bike_id":"08fe2b08-b3fa-43f8-ae73-04061f76318d","system_id":"levelo_inurba_marseille","lat":43.305552,"lon":5.365395,"is_reserved":false,"is_disabled":false,"rental_uris":{"android":"levelo://app?vid=08fe2b08-b3fa-43f8-ae73-04061f76318d","ios":"levelo://app?vid=08fe2b08-b3fa-43f8-ae73-04061f76318d"},"vehicle_type_id":"4","last_reported":1758978871,"current_range_meters":9200,"station_id":"","pricing_plan_id":"cebpf4jnsgd1na2vs0mg"},{"bike_id":"12b962dd-dab1-4da6-801e-14aa3708c3f6","system_id":"levelo_inurba_marseille","lat":43.21758,"lon":5.34596,"is_reserved":false,"is_disabled":false,"rental_uris":{"android":"levelo://app?vid=12b962dd-dab1-4da6-801e-14aa3708c3f6","ios":"levelo://app?vid=12b962dd-dab1-4da6-801e-14aa3708c3f6"},"vehicle_type_id":"4","last_reported":1758978871,"current_range_meters":9200,"station_id":"st_cvj6r9ubvosntc0bgbag","pricing_plan_id":"cebpf4jnsgd1na2vs0mg"},{"bike_id":"69a62fd3-0958-4f3c-b7b8-d7bc800aecff","system_id":"levelo_inurba_marseille","lat":43.21197,"lon":5.3508,"is_reserved":false,"is_disabled":false,"rental_uris":{"android":"levelo://app?vid=69a62fd3-0958-4f3c-b7b8-d7bc800aecff","ios":"levelo://app?vid=69a62fd3-0958-4f3c-b7b8-d7bc800aecff"},"vehicle_type_id":"4","last_reported":1758978871,"current_range_meters":9200,"station_id":"st_cvj6sg6p6f1abm77japg","pricing_plan_id":"cebpf4jnsgd1na2vs0mg"},{"bike_id":"77e5700d-d4e0-45ce-993e-a7c6f20c9f7f","system_id":"levelo_inurba_marseille","lat":43.31226,"lon":5.36858,"is_reserved":false,"is_disabled":false,"rental_uris":{"android":"levelo://app?vid=77e5700d-d4e0-45ce-993e-a7c6f20c9f7f","ios":"levelo://app?vid=77e5700d-d4e0-45ce-993e-a7c6f20c9f7f"},"vehicle_type_id":"4","last_reported":1758978871,"current_range_meters":8800,"station_id":"ce4bgl92rcd13ifvqbq0","pricing_plan_id":"cebpf4jnsgd1na2vs0mg"},{"bike_id":"eeaa18cb-5fe9-4c1f-9753-4cfd440671ff","system_id":"levelo_inurba_marseille","lat":43.22948,"lon":5.35396,"is_reserved":false,"is_disabled":false,"rental_uris":{"android":"levelo://app?vid=eeaa18cb-5fe9-4c1f-9753-4cfd440671ff","ios":"levelo://app?vid=eeaa18cb-5fe9-4c1f-9753-4cfd440671ff"},"vehicle_type_id":"4","last_reported":1758978871,"current_range_meters":9600,"station_id":"cpo3532slgdg3j2ikp40","pricing_plan_id":"cebpf4jnsgd1na2vs0mg"},{"bike_id":"9a4f92ed-e086-4038-a651-bbe0613f80bd","system_id":"levelo_inurba_marseille","lat":43.22568,"lon":5.41623,"is_reserved":false,"is_disabled":false,"rental_uris":{"android":"levelo://app?vid=9a4f92ed-e086-4038-a651-bbe0613f80bd","ios":"levelo://app?vid=9a4f92ed-e086-4038-a651-bbe0613f80bd"},"vehicle_type_id":"4","last_reported":1758978871,"current_range_meters":9600,"station_id":"st_d2o4gvlbi1j2169b742g","pricing_plan_id":"cebpf4jnsgd1na2vs0mg"},{"bike_id":"3b6f32f4-65d4-44ce-9bb8-a50393055e8d","system_id":"levelo_inurba_marseille","lat":43.27207,"lon":5.39171,"is_reserved":false,"is_disabled":false,"rental_uris":{"android":"levelo://app?vid=3b6f32f4-65d4-44ce-9bb8-a50393055e8d","ios":"levelo://app?vid=3b6f32f4-65d4-44ce-9bb8-a50393055e8d"},"vehicle_type_id":"4","last_reported":1758978871,"current_range_meters":9600,"station_id":"ce4bhhp2rcd13ifvqfm0","pricing_plan_id":"cebpf4jnsgd1na2vs0mg"},{"bike_id":"ffc92de0-b837-4c6a-a389-1c802a91b54f","system_id":"levelo_inurba_marseille","lat":43.27374,"lon":5.36248,"is_reserved":false,"is_disabled":false,"rental_uris":{"android":"levelo://app?vid=ffc92de0-b837-4c6a-a389-1c802a91b54f","ios":"levelo://app?vid=ffc92de0-b837-4c6a-a389-1c802a91b54f"},"vehicle_type_id":"4","last_reported":1758978871,"current_range_meters":9600,"station_id":"ce4bhbh2rcd13ifvqeo0","pricing_plan_id":"cebpf4jnsgd1na2vs0mg"},{"bike_id":"b8ddc31e-7049-469d-b686-4992c7a87cde","system_id":"levelo_inurba_marseille","lat":43.265601,"lon":5.372925,"is_reserved":false,"is_disabled":false,"rental_uris":{"android":"levelo://app?vid=b8ddc31e-7049-469d-b686-4992c7a87cde","ios":"levelo://app?vid=b8ddc31e-7049-469d-b686-4992c7a87cde"},"vehicle_type_id":"4","last_reported":1758978871,"current_range_meters":9600,"station_id":"ce4bhg12rcd13ifvqf70","pricing_plan_id":"cebpf4jnsgd1na2vs0mg"},{"bike_id":"5bfdff97-3089-4f1a-acba-1011ce8f0a3a","system_id":"levelo_inurba_marseille","lat":43.24426,"lon":5.38383,"is_reserved":false,"is_disabled":false,"rental_uris":{"android":"levelo://app?vid=5bfdff97-3089-4f1a-acba-1011ce8f0a3a","ios":"levelo://app?vid=5bfdff97-3089-4f1a-acba-1011ce8f0a3a"},"vehicle_type_id":"4","last_reported":1758978871,"current_range_meters":10000,"station_id":"","pricing_plan_id":"cebpf4jnsgd1na2vs0mg"},{"bike_id":"5f657238-3924-4edf-9381-8ddeee15c693","system_id":"levelo_inurba_marseille","lat":43.225334,"lon":5.348386,"is_reserved":false,"is_disabled":false,"rental_uris":{"android":"levelo://app?vid=5f657238-3924-4edf-9381-8ddeee15c693","ios":"levelo://app?vid=5f657238-3924-4edf-9381-8ddeee15c693"},"vehicle_type_id":"4","last_reported":1758978871,"current_range_meters":10000,"station_id":"","pricing_plan_id":"cebpf4jnsgd1na2vs0mg"},{"bike_id":"dbde707b-9342-4b19-9f9f-3235df7805f2","system_id":"levelo_inurba_marseille","lat":43.26559,"lon":5.37285,"is_reserved":false,"is_disabled":false,"rental_uris":{"android":"levelo://app?vid=dbde707b-9342-4b19-9f9f-3235df7805f2","ios":"levelo://app?vid=dbde707b-9342-4b19-9f9f-3235df7805f2"},"vehicle_type_id":"4","last_reported":1758978871,"current_range_meters":10000,"station_id":"ce4bhg12rcd13ifvqf70","pricing_plan_id":"cebpf4jnsgd1na2vs0mg"},{"bike_id":"8360fe96-8a6b-4a67-9ba4-0ef948b002e1","system_id":"levelo_inurba_marseille","lat":43.250134,"lon":5.389102,"is_reserved":false,"is_disabled":false,"rental_uris":{"android":"levelo://app?vid=8360fe96-8a6b-4a67-9ba4-0ef948b002e1","ios":"levelo://app?vid=8360fe96-8a6b-4a67-9ba4-0ef948b002e1"},"vehicle_type_id":"4","last_reported":1758978871,"current_range_meters":10000,"station_id":"ce4bhgp2rcd13ifvqfd0","pricing_plan_id":"cebpf4jnsgd1na2vs0mg"},{"bike_id":"e3b9905b-e58c-4cdb-911e-999c51970400","system_id":"levelo_inurba_marseille","lat":43.23194,"lon":5.35555,"is_reserved":false,"is_disabled":false,"rental_uris":{"android":"levelo://app?vid=e3b9905b-e58c-4cdb-911e-999c51970400","ios":"levelo://app?vid=e3b9905b-e58c-4cdb-911e-999c51970400"},"vehicle_type_id":"4","last_reported":1758978871,"current_range_meters":10000,"station_id":"ce4bhu92rcd13ifvqi70","pricing_plan_id":"cebpf4jnsgd1na2vs0mg"},{"bike_id":"1c32f265-6884-4cbe-8627-d4f476fc37ee","system_id":"levelo_inurba_marseille","lat":43.21748,"lon":5.346,"is_reserved":false,"is_disabled":false,"rental_uris":{"android":"levelo://app?vid=1c32f265-6884-4cbe-8627-d4f476fc37ee","ios":"levelo://app?vid=1c32f265-6884-4cbe-8627-d4f476fc37ee"},"vehicle_type_id":"4","last_reported":1758978871,"current_range_meters":10000,"station_id":"st_cvj6r9ubvosntc0bgbag","pricing_plan_id":"cebpf4jnsgd1na2vs0mg"},{"bike_id":"b28678c7-cc53-45ae-b2eb-a07af1f3482a","system_id":"levelo_inurba_marseille","lat":43.22927,"lon":5.35389,"is_reserved":false,"is_disabled":false,"rental_uris":{"android":"levelo://app?vid=b28678c7-cc53-45ae-b2eb-a07af1f3482a","ios":"levelo://app?vid=b28678c7-cc53-45ae-b2eb-a07af1f3482a"},"vehicle_type_id":"4","last_reported":1758978871,"current_range_meters":10000,"station_id":"cpo3532slgdg3j2ikp40","pricing_plan_id":"cebpf4jnsgd1na2vs0mg"},{"bike_id":"d6a9c172-c441-4a8a-918d-9d32099ddd8f","system_id":"levelo_inurba_marseille","lat":43.26228,"lon":5.40452,"is_reserved":false,"is_disabled":false,"rental_uris":{"android":"levelo://app?vid=d6a9c172-c441-4a8a-918d-9d32099ddd8f","ios":"levelo://app?vid=d6a9c172-c441-4a8a-918d-9d32099ddd8f"},"vehicle_type_id":"4","last_reported":1758978871,"current_range_meters":10000,"station_id":"ce4bhmh2rcd13ifvqgmg","pricing_plan_id":"cebpf4jnsgd1na2vs0mg"},{"bike_id":"fee74e98-eb52-4f66-a612-109c75f34aa6","system_id":"levelo_inurba_marseille","lat":43.296216,"lon":5.379492,"is_reserved":false,"is_disabled":false,"rental_uris":{"android":"levelo://app?vid=fee74e98-eb52-4f66-a612-109c75f34aa6","ios":"levelo://app?vid=fee74e98-eb52-4f66-a612-109c75f34aa6"},"vehicle_type_id":"4","last_reported":1758978871,"current_range_meters":10000,"station_id":"","pricing_plan_id":"cebpf4jnsgd1na2vs0mg"},{"bike_id":"0b2fda4e-ac18-414b-8b05-54fcdd4fc421","system_id":"levelo_inurba_marseille","lat":43.322943,"lon":5.382617,"is_reserved":false,"is_disabled":false,"rental_uris":{"android":"levelo://app?vid=0b2fda4e-ac18-414b-8b05-54fcdd4fc421","ios":"levelo://app?vid=0b2fda4e-ac18-414b-8b05-54fcdd4fc421"},"vehicle_type_id":"4","last_reported":1758978871,"current_range_meters":10000,"station_id":"ce4bhr12rcd13ifvqhqg","pricing_plan_id":"cebpf4jnsgd1na2vs0mg"},{"bike_id":"2f6fb196-503b-47f7-a488-7d26a7b785e3","system_id":"levelo_inurba_marseille","lat":43.28081,"lon":5.39653,"is_reserved":false,"is_disabled":false,"rental_uris":{"android":"levelo://app?vid=2f6fb196-503b-47f7-a488-7d26a7b785e3","ios":"levelo://app?vid=2f6fb196-503b-47f7-a488-7d26a7b785e3"},"vehicle_type_id":"4","last_reported":1758978871,"current_range_meters":10000,"station_id":"ce4bho12rcd13ifvqh2g","pricing_plan_id":"cebpf4jnsgd1na2vs0mg"},{"bike_id":"379c1e32-dcc7-4c78-b24e-6cd2aa5380d7","system_id":"levelo_inurba_marseille","lat":43.309265,"lon":5.401396,"is_reserved":false,"is_disabled":false,"rental_uris":{"android":"levelo://app?vid=379c1e32-dcc7-4c78-b24e-6cd2aa5380d7","ios":"levelo://app?vid=379c1e32-dcc7-4c78-b24e-6cd2aa5380d7"},"vehicle_type_id":"4","last_reported":1758978871,"current_range_meters":10800,"station_id":"ce4bgvp2rcd13ifvqct0","pricing_plan_id":"cebpf4jnsgd1na2vs0mg"},{"bike_id":"a6187c30-1c11-4309-be70-335b3ca8c646","system_id":"levelo_inurba_marseille","lat":43.21191,"lon":5.35077,"is_reserved":false,"is_disabled":false,"rental_uris":{"android":"levelo://app?vid=a6187c30-1c11-4309-be70-335b3ca8c646","ios":"levelo://app?vid=a6187c30-1c11-4309-be70-335b3ca8c646"},"vehicle_type_id":"4","last_reported":1758978871,"current_range_meters":10800,"station_id":"","pricing_plan_id":"cebpf4jnsgd1na2vs0mg"},{"bike_id":"6c00a6a0-3cf0-48a9-b218-0693fab11be9","system_id":"levelo_inurba_marseille","lat":43.30302,"lon":5.43521,"is_reserved":false,"is_disabled":false,"rental_uris":{"android":"levelo://app?vid=6c00a6a0-3cf0-48a9-b218-0693fab11be9","ios":"levelo://app?vid=6c00a6a0-3cf0-48a9-b218-0693fab11be9"},"vehicle_type_id":"4","last_reported":1758978871,"current_range_meters":10800,"station_id":"","pricing_plan_id":"cebpf4jnsgd1na2vs0mg"},{"bike_id":"360c0746-c854-4629-884f-7c911de53d9d","system_id":"levelo_inurba_marseille","lat":43.33605,"lon":5.4102,"is_reserved":false,"is_disabled":false,"rental_uris":{"android":"levelo://app?vid=360c0746-c854-4629-884f-7c911de53d9d","ios":"levelo://app?vid=360c0746-c854-4629-884f-7c911de53d9d"},"vehicle_type_id":"4","last_reported":1758978871,"current_range_meters":10800,"station_id":"ce4bhqh2rcd13ifvqhmg","pricing_plan_id":"cebpf4jnsgd1na2vs0mg"},{"bike_id":"fd4b5ad5-2581-44dd-90b2-f4a8fbdc2423","system_id":"levelo_inurba_marseille","lat":43.299011,"lon":5.364989,"is_reserved":false,"is_disabled":false,"rental_uris":{"android":"levelo://app?vid=fd4b5ad5-2581-44dd-90b2-f4a8fbdc2423","ios":"levelo://app?vid=fd4b5ad5-2581-44dd-90b2-f4a8fbdc2423"},"vehicle_type_id":"4","last_reported":1758978871,"current_range_meters":10800,"station_id":"","pricing_plan_id":"cebpf4jnsgd1na2vs0mg"},{"bike_id":"5f20a66d-3b6e-4123-bd6f-eb1c1a31c815","system_id":"levelo_inurba_marseille","lat":43.299411,"lon":5.385201,"is_reserved":false,"is_disabled":false,"rental_uris":{"android":"levelo://app?vid=5f20a66d-3b6e-4123-bd6f-eb1c1a31c815","ios":"levelo://app?vid=5f20a66d-3b6e-4123-bd6f-eb1c1a31c815"},"vehicle_type_id":"4","last_reported":1758978871,"current_range_meters":10800,"station_id":"","pricing_plan_id":"cebpf4jnsgd1na2vs0mg"},{"bike_id":"3c79f577-c04c-45c4-800f-8ea41f7b7ebf","system_id":"levelo_inurba_marseille","lat":43.23966,"lon":5.36627,"is_reserved":false,"is_disabled":false,"rental_uris":{"android":"levelo://app?vid=3c79f577-c04c-45c4-800f-8ea41f7b7ebf","ios":"levelo://app?vid=3c79f577-c04c-45c4-800f-8ea41f7b7ebf"},"vehicle_type_id":"4","last_reported":1758978871,"current_range_meters":10800,"station_id":"ce4bhi12rcd13ifvqfp0","pricing_plan_id":"cebpf4jnsgd1na2vs0mg"},{"bike_id":"d462c6f0-0f71-451c-8c84-ce80943e8029","system_id":"levelo_inurba_marseille","lat":43.290939,"lon":5.381273,"is_reserved":false,"is_disabled":false,"rental_uris":{"android":"levelo://app?vid=d462c6f0-0f71-451c-8c84-ce80943e8029","ios":"levelo://app?vid=d462c6f0-0f71-451c-8c84-ce80943e8029"},"vehicle_type_id":"4","last_reported":1758978871,"current_range_meters":10000,"station_id":"ce4bh512rcd13ifvqe2g","pricing_plan_id":"cebpf4jnsgd1na2vs0mg"},{"bike_id":"15ddde4f-188d-4839-818b-0838e76ff13f","system_id":"levelo_inurba_marseille","lat":43.22937,"lon":5.35378,"is_reserved":false,"is_disabled":false,"rental_uris":{"android":"levelo://app?vid=15ddde4f-188d-4839-818b-0838e76ff13f","ios":"levelo://app?vid=15ddde4f-188d-4839-818b-0838e76ff13f"},"vehicle_type_id":"4","last_reported":1758978871,"current_range_meters":10800,"station_id":"cpo3532slgdg3j2ikp40","pricing_plan_id":"cebpf4jnsgd1na2vs0mg"},{"bike_id":"775dc15f-5418-4916-b083-65c08ce6a8fb","system_id":"levelo_inurba_marseille","lat":43.24999,"lon":5.38946,"is_reserved":false,"is_disabled":false,"rental_uris":{"android":"levelo://app?vid=775dc15f-5418-4916-b083-65c08ce6a8fb","ios":"levelo://app?vid=775dc15f-5418-4916-b083-65c08ce6a8fb"},"vehicle_type_id":"4","last_reported":1758978871,"current_range_meters":10800,"station_id":"","pricing_plan_id":"cebpf4jnsgd1na2vs0mg"},{"bike_id":"6e07a7f2-61d3-4466-8cd4-3b977416ad63","system_id":"levelo_inurba_marseille","lat":43.21744,"lon":5.34606,"is_reserved":false,"is_disabled":false,"rental_uris":{"android":"levelo://app?vid=6e07a7f2-61d3-4466-8cd4-3b977416ad63","ios":"levelo://app?vid=6e07a7f2-61d3-4466-8cd4-3b977416ad63"},"vehicle_type_id":"4","last_reported":1758978871,"current_range_meters":11200,"station_id":"st_cvj6r9ubvosntc0bgbag","pricing_plan_id":"cebpf4jnsgd1na2vs0mg"},{"bike_id":"3f128456-7481-475c-8d75-50a032a5013d","system_id":"levelo_inurba_marseille","lat":43.290281,"lon":5.386407,"is_reserved":false,"is_disabled":false,"rental_uris":{"android":"levelo://app?vid=3f128456-7481-475c-8d75-50a032a5013d","ios":"levelo://app?vid=3f128456-7481-475c-8d75-50a032a5013d"},"vehicle_type_id":"4","last_reported":1758978871,"current_range_meters":11200,"station_id":"","pricing_plan_id":"cebpf4jnsgd1na2vs0mg"},{"bike_id":"8dd9175e-b264-4a8a-b191-dd2cd84cd956","system_id":"levelo_inurba_marseille","lat":43.25729,"lon":5.41093,"is_reserved":false,"is_disabled":false,"rental_uris":{"android":"levelo://app?vid=8dd9175e-b264-4a8a-b191-dd2cd84cd956","ios":"levelo://app?vid=8dd9175e-b264-4a8a-b191-dd2cd84cd956"},"vehicle_type_id":"4","last_reported":1758978871,"current_range_meters":11200,"station_id":"ce4bhkp2rcd13ifvqgd0","pricing_plan_id":"cebpf4jnsgd1na2vs0mg"},{"bike_id":"63d52c35-c9c9-44eb-9780-1b2f9145123b","system_id":"levelo_inurba_marseille","lat":43.29627,"lon":5.377037,"is_reserved":false,"is_disabled":false,"rental_uris":{"android":"levelo://app?vid=63d52c35-c9c9-44eb-9780-1b2f9145123b","ios":"levelo://app?vid=63d52c35-c9c9-44eb-9780-1b2f9145123b"},"vehicle_type_id":"4","last_reported":1758978871,"current_range_meters":11200,"station_id":"","pricing_plan_id":"cebpf4jnsgd1na2vs0mg"},{"bike_id":"9bb4db31-0bf9-4171-bca1-76cb045f53a3","system_id":"levelo_inurba_marseille","lat":43.26924,"lon":5.389081,"is_reserved":false,"is_disabled":false,"rental_uris":{"android":"levelo://app?vid=9bb4db31-0bf9-4171-bca1-76cb045f53a3","ios":"levelo://app?vid=9bb4db31-0bf9-4171-bca1-76cb045f53a3"},"vehicle_type_id":"4","last_reported":1758978871,"current_range_meters":11200,"station_id":"ce4bhhh2rcd13ifvqfl0","pricing_plan_id":"cebpf4jnsgd1na2vs0mg"},{"bike_id":"ec348589-ff91-45a4-84f8-96a0dc2abb69","system_id":"levelo_inurba_marseille","lat":43.32723,"lon":5.3925,"is_reserved":false,"is_disabled":false,"rental_uris":{"android":"levelo://app?vid=ec348589-ff91-45a4-84f8-96a0dc2abb69","ios":"levelo://app?vid=ec348589-ff91-45a4-84f8-96a0dc2abb69"},"vehicle_type_id":"4","last_reported":1758978871,"current_range_meters":11200,"station_id":"","pricing_plan_id":"cebpf4jnsgd1na2vs0mg"},{"bike_id":"cd52d724-6e36-4c8e-9efa-f35ff15b1a8b","system_id":"levelo_inurba_marseille","lat":43.31714,"lon":5.42395,"is_reserved":false,"is_disabled":false,"rental_uris":{"android":"levelo://app?vid=cd52d724-6e36-4c8e-9efa-f35ff15b1a8b","ios":"levelo://app?vid=cd52d724-6e36-4c8e-9efa-f35ff15b1a8b"},"vehicle_type_id":"4","last_reported":1758978871,"current_range_meters":11200,"station_id":"ce4bhp92rcd13ifvqhbg","pricing_plan_id":"cebpf4jnsgd1na2vs0mg"},{"bike_id":"656bb854-e88e-4734-a8c6-e7d9babd028d","system_id":"levelo_inurba_marseille","lat":43.23966,"lon":5.36632,"is_reserved":false,"is_disabled":false,"rental_uris":{"android":"levelo://app?vid=656bb854-e88e-4734-a8c6-e7d9babd028d","ios":"levelo://app?vid=656bb854-e88e-4734-a8c6-e7d9babd028d"},"vehicle_type_id":"4","last_reported":1758978871,"current_range_meters":11200,"station_id":"ce4bhi12rcd13ifvqfp0","pricing_plan_id":"cebpf4jnsgd1na2vs0mg"},{"bike_id":"43eb52af-e6e2-4324-94ae-cf710523d950","system_id":"levelo_inurba_marseille","lat":43.24267,"lon":5.36979,"is_reserved":false,"is_disabled":false,"rental_uris":{"android":"levelo://app?vid=43eb52af-e6e2-4324-94ae-cf710523d950","ios":"levelo://app?vid=43eb52af-e6e2-4324-94ae-cf710523d950"},"vehicle_type_id":"4","last_reported":1758978871,"current_range_meters":11200,"station_id":"","pricing_plan_id":"cebpf4jnsgd1na2vs0mg"},{"bike_id":"2a416e7a-1803-402e-9523-74bfe690bd54","system_id":"levelo_inurba_marseille","lat":43.32365,"lon":5.36767,"is_reserved":false,"is_disabled":false,"rental_uris":{"android":"levelo://app?vid=2a416e7a-1803-402e-9523-74bfe690bd54","ios":"levelo://app?vid=2a416e7a-1803-402e-9523-74bfe690bd54"},"vehicle_type_id":"4","last_reported":1758978871,"current_range_meters":11200,"station_id":"ce4bhsh2rcd13ifvqi2g","pricing_plan_id":"cebpf4jnsgd1na2vs0mg"},{"bike_id":"280c6f44-d40a-4f47-8231-9ee53360c29a","system_id":"levelo_inurba_marseille","lat":43.24373,"lon":5.37069,"is_reserved":false,"is_disabled":false,"rental_uris":{"android":"levelo://app?vid=280c6f44-d40a-4f47-8231-9ee53360c29a","ios":"levelo://app?vid=280c6f44-d40a-4f47-8231-9ee53360c29a"},"vehicle_type_id":"4","last_reported":1758978871,"current_range_meters":11600,"station_id":"ce4bhhh2rcd13ifvqfk0","pricing_plan_id":"cebpf4jnsgd1na2vs0mg"},{"bike_id":"f994e9ac-cad3-4ca1-ad2b-af49a93bb968","system_id":"levelo_inurba_marseille","lat":43.24998,"lon":5.38931,"is_reserved":false,"is_disabled":false,"rental_uris":{"android":"levelo://app?vid=f994e9ac-cad3-4ca1-ad2b-af49a93bb968","ios":"levelo://app?vid=f994e9ac-cad3-4ca1-ad2b-af49a93bb968"},"vehicle_type_id":"4","last_reported":1758978871,"current_range_meters":11600,"station_id":"ce4bhgp2rcd13ifvqfd0","pricing_plan_id":"cebpf4jnsgd1na2vs0mg"},{"bike_id":"6ebea25f-833a-4395-9f23-56194eecbe1d","system_id":"levelo_inurba_marseille","lat":43.30788,"lon":5.38164,"is_reserved":false,"is_disabled":false,"rental_uris":{"android":"levelo://app?vid=6ebea25f-833a-4395-9f23-56194eecbe1d","ios":"levelo://app?vid=6ebea25f-833a-4395-9f23-56194eecbe1d"},"vehicle_type_id":"4","last_reported":1758978871,"current_range_meters":11600,"station_id":"ce4bgt12rcd13ifvqce0","pricing_plan_id":"cebpf4jnsgd1na2vs0mg"},{"bike_id":"0725469e-ab3e-45f9-98fe-b89f6d9f6262","system_id":"levelo_inurba_marseille","lat":43.26209,"lon":5.37908,"is_reserved":false,"is_disabled":false,"rental_uris":{"android":"levelo://app?vid=0725469e-ab3e-45f9-98fe-b89f6d9f6262","ios":"levelo://app?vid=0725469e-ab3e-45f9-98fe-b89f6d9f6262"},"vehicle_type_id":"4","last_reported":1758978871,"current_range_meters":11600,"station_id":"ce4bhjp2rcd13ifvqg90","pricing_plan_id":"cebpf4jnsgd1na2vs0mg"},{"bike_id":"01bf55f2-4ac6-46f6-8504-3267bf31e1a6","system_id":"levelo_inurba_marseille","lat":43.2973,"lon":5.381787,"is_reserved":false,"is_disabled":false,"rental_uris":{"android":"levelo://app?vid=01bf55f2-4ac6-46f6-8504-3267bf31e1a6","ios":"levelo://app?vid=01bf55f2-4ac6-46f6-8504-3267bf31e1a6"},"vehicle_type_id":"4","last_reported":1758978871,"current_range_meters":11600,"station_id":"","pricing_plan_id":"cebpf4jnsgd1na2vs0mg"},{"bike_id":"b12bf4c8-499a-4a63-aa8f-f0a0bdbba76e","system_id":"levelo_inurba_marseille","lat":43.26208,"lon":5.3792,"is_reserved":false,"is_disabled":false,"rental_uris":{"android":"levelo://app?vid=b12bf4c8-499a-4a63-aa8f-f0a0bdbba76e","ios":"levelo://app?vid=b12bf4c8-499a-4a63-aa8f-f0a0bdbba76e"},"vehicle_type_id":"4","last_reported":1758978871,"current_range_meters":11600,"station_id":"ce4bhjp2rcd13ifvqg90","pricing_plan_id":"cebpf4jnsgd1na2vs0mg"},{"bike_id":"30dfaae1-9237-4daf-8de0-7660874d2694","system_id":"levelo_inurba_marseille","lat":43.27378,"lon":5.36248,"is_reserved":false,"is_disabled":false,"rental_uris":{"android":"levelo://app?vid=30dfaae1-9237-4daf-8de0-7660874d2694","ios":"levelo://app?vid=30dfaae1-9237-4daf-8de0-7660874d2694"},"vehicle_type_id":"4","last_reported":1758978871,"current_range_meters":11600,"station_id":"ce4bhbh2rcd13ifvqeo0","pricing_plan_id":"cebpf4jnsgd1na2vs0mg"},{"bike_id":"a673cea6-a77d-4f5d-9cd9-bf514ac46193","system_id":"levelo_inurba_marseille","lat":43.28403,"lon":5.349863,"is_reserved":false,"is_disabled":false,"rental_uris":{"android":"levelo://app?vid=a673cea6-a77d-4f5d-9cd9-bf514ac46193","ios":"levelo://app?vid=a673cea6-a77d-4f5d-9cd9-bf514ac46193"},"vehicle_type_id":"4","last_reported":1758978871,"current_range_meters":11600,"station_id":"ce4bhbh2rcd13ifvqepg","pricing_plan_id":"cebpf4jnsgd1na2vs0mg"},{"bike_id":"67a6f87a-fcc5-4263-8f5f-514ad9d47bc4","system_id":"levelo_inurba_marseille","lat":43.273753,"lon":5.36261,"is_reserved":false,"is_disabled":false,"rental_uris":{"android":"levelo://app?vid=67a6f87a-fcc5-4263-8f5f-514ad9d47bc4","ios":"levelo://app?vid=67a6f87a-fcc5-4263-8f5f-514ad9d47bc4"},"vehicle_type_id":"4","last_reported":1758978871,"current_range_meters":11600,"station_id":"ce4bhbh2rcd13ifvqeo0","pricing_plan_id":"cebpf4jnsgd1na2vs0mg"},{"bike_id":"fe39f0e1-1e20-4713-8423-44ddef140dbf","system_id":"levelo_inurba_marseille","lat":43.29376,"lon":5.37837,"is_reserved":false,"is_disabled":false,"rental_uris":{"android":"levelo://app?vid=fe39f0e1-1e20-4713-8423-44ddef140dbf","ios":"levelo://app?vid=fe39f0e1-1e20-4713-8423-44ddef140dbf"},"vehicle_type_id":"4","last_reported":1758978871,"current_range_meters":12000,"station_id":"ce4bgjh2rcd13ifvqbf0","pricing_plan_id":"cebpf4jnsgd1na2vs0mg"},{"bike_id":"5295a361-8994-4e6f-96d8-723a227848d8","system_id":"levelo_inurba_marseille","lat":43.23061,"lon":5.35487,"is_reserved":false,"is_disabled":false,"rental_uris":{"android":"levelo://app?vid=5295a361-8994-4e6f-96d8-723a227848d8","ios":"levelo://app?vid=5295a361-8994-4e6f-96d8-723a227848d8"},"vehicle_type_id":"4","last_reported":1758978871,"current_range_meters":12000,"station_id":"cpo3342slgdg3j2ifvpg","pricing_plan_id":"cebpf4jnsgd1na2vs0mg"},{"bike_id":"42ca528a-85fa-475a-abe7-3eacedb896a7","system_id":"levelo_inurba_marseille","lat":43.27069,"lon":5.4023,"is_reserved":false,"is_disabled":false,"rental_uris":{"android":"levelo://app?vid=42ca528a-85fa-475a-abe7-3eacedb896a7","ios":"levelo://app?vid=42ca528a-85fa-475a-abe7-3eacedb896a7"},"vehicle_type_id":"4","last_reported":1758978871,"current_range_meters":12000,"station_id":"ce4bhk92rcd13ifvqgc0","pricing_plan_id":"cebpf4jnsgd1na2vs0mg"},{"bike_id":"3f51e03c-3abb-4dde-8cdd-da596aa3252f","system_id":"levelo_inurba_marseille","lat":43.27666,"lon":5.38907,"is_reserved":false,"is_disabled":true,"rental_uris":{"android":"levelo://app?vid=3f51e03c-3abb-4dde-8cdd-da596aa3252f","ios":"levelo://app?vid=3f51e03c-3abb-4dde-8cdd-da596aa3252f"},"vehicle_type_id":"4","last_reported":1758978871,"current_range_meters":12000,"station_id":"ce4bhi12rcd13ifvqfo0","pricing_plan_id":"cebpf4jnsgd1na2vs0mg"},{"bike_id":"1c14f608-9eb0-4b58-8221-e6e5ed28265b","system_id":"levelo_inurba_marseille","lat":43.24394,"lon":5.37072,"is_reserved":false,"is_disabled":false,"rental_uris":{"android":"levelo://app?vid=1c14f608-9eb0-4b58-8221-e6e5ed28265b","ios":"levelo://app?vid=1c14f608-9eb0-4b58-8221-e6e5ed28265b"},"vehicle_type_id":"4","last_reported":1758978871,"current_range_meters":12000,"station_id":"ce4bhhh2rcd13ifvqfk0","pricing_plan_id":"cebpf4jnsgd1na2vs0mg"},{"bike_id":"934ea1ec-b7f6-49a1-9efa-287317d4eb22","system_id":"levelo_inurba_marseille","lat":43.29048,"lon":5.35914,"is_reserved":false,"is_disabled":false,"rental_uris":{"android":"levelo://app?vid=934ea1ec-b7f6-49a1-9efa-287317d4eb22","ios":"levelo://app?vid=934ea1ec-b7f6-49a1-9efa-287317d4eb22"},"vehicle_type_id":"4","last_reported":1758978871,"current_range_meters":12400,"station_id":"","pricing_plan_id":"cebpf4jnsgd1na2vs0mg"},{"bike_id":"26293089-e827-4a91-b336-c1833ecbc843","system_id":"levelo_inurba_marseille","lat":43.21766,"lon":5.34591,"is_reserved":false,"is_disabled":false,"rental_uris":{"android":"levelo://app?vid=26293089-e827-4a91-b336-c1833ecbc843","ios":"levelo://app?vid=26293089-e827-4a91-b336-c1833ecbc843"},"vehicle_type_id":"4","last_reported":1758978871,"current_range_meters":12400,"station_id":"st_cvj6r9ubvosntc0bgbag","pricing_plan_id":"cebpf4jnsgd1na2vs0mg"},{"bike_id":"10aaa4bd-7b69-46e5-9c91-cc8ea0d3aac7","system_id":"levelo_inurba_marseille","lat":43.21195,"lon":5.35067,"is_reserved":false,"is_disabled":false,"rental_uris":{"android":"levelo://app?vid=10aaa4bd-7b69-46e5-9c91-cc8ea0d3aac7","ios":"levelo://app?vid=10aaa4bd-7b69-46e5-9c91-cc8ea0d3aac7"},"vehicle_type_id":"4","last_reported":1758978871,"current_range_meters":12400,"station_id":"st_cvj6sg6p6f1abm77japg","pricing_plan_id":"cebpf4jnsgd1na2vs0mg"},{"bike_id":"073d00dd-0eb0-4e99-8f59-4e399eaad790","system_id":"levelo_inurba_marseille","lat":43.25581,"lon":5.38252,"is_reserved":false,"is_disabled":false,"rental_uris":{"android":"levelo://app?vid=073d00dd-0eb0-4e99-8f59-4e399eaad790","ios":"levelo://app?vid=073d00dd-0eb0-4e99-8f59-4e399eaad790"},"vehicle_type_id":"4","last_reported":1758978871,"current_range_meters":12400,"station_id":"ce4bhih2rcd13ifvqfs0","pricing_plan_id":"cebpf4jnsgd1na2vs0mg"},{"bike_id":"052c59a7-1cc4-4bbc-97f5-180981a63118","system_id":"levelo_inurba_marseille","lat":43.24625,"lon":5.43139,"is_reserved":false,"is_disabled":false,"rental_uris":{"android":"levelo://app?vid=052c59a7-1cc4-4bbc-97f5-180981a63118","ios":"levelo://app?vid=052c59a7-1cc4-4bbc-97f5-180981a63118"},"vehicle_type_id":"4","last_reported":1758978871,"current_range_meters":12400,"station_id":"st_d2m6c4gdas8pm72e190g","pricing_plan_id":"cebpf4jnsgd1na2vs0mg"},{"bike_id":"80bdba63-46f3-4274-b0d9-d9711409b6a8","system_id":"levelo_inurba_marseille","lat":43.270752,"lon":5.402497,"is_reserved":false,"is_disabled":false,"rental_uris":{"android":"levelo://app?vid=80bdba63-46f3-4274-b0d9-d9711409b6a8","ios":"levelo://app?vid=80bdba63-46f3-4274-b0d9-d9711409b6a8"},"vehicle_type_id":"4","last_reported":1758978871,"current_range_meters":12400,"station_id":"","pricing_plan_id":"cebpf4jnsgd1na2vs0mg"},{"bike_id":"5bb42022-0e19-48bc-a5b4-218bb1d7482e","system_id":"levelo_inurba_marseille","lat":43.31221,"lon":5.37809,"is_reserved":false,"is_disabled":false,"rental_uris":{"android":"levelo://app?vid=5bb42022-0e19-48bc-a5b4-218bb1d7482e","ios":"levelo://app?vid=5bb42022-0e19-48bc-a5b4-218bb1d7482e"},"vehicle_type_id":"4","last_reported":1758978871,"current_range_meters":12800,"station_id":"","pricing_plan_id":"cebpf4jnsgd1na2vs0mg"},{"bike_id":"10214b51-40da-4f32-b4d7-c6e7f4b2f81a","system_id":"levelo_inurba_marseille","lat":43.21762,"lon":5.34622,"is_reserved":false,"is_disabled":false,"rental_uris":{"android":"levelo://app?vid=10214b51-40da-4f32-b4d7-c6e7f4b2f81a","ios":"levelo://app?vid=10214b51-40da-4f32-b4d7-c6e7f4b2f81a"},"vehicle_type_id":"4","last_reported":1758978871,"current_range_meters":12800,"station_id":"st_cvj6r9ubvosntc0bgbag","pricing_plan_id":"cebpf4jnsgd1na2vs0mg"},{"bike_id":"e5593c50-4391-499b-b0cf-c7dbd31cb32d","system_id":"levelo_inurba_marseille","lat":43.261978,"lon":5.379363,"is_reserved":false,"is_disabled":false,"rental_uris":{"android":"levelo://app?vid=e5593c50-4391-499b-b0cf-c7dbd31cb32d","ios":"levelo://app?vid=e5593c50-4391-499b-b0cf-c7dbd31cb32d"},"vehicle_type_id":"4","last_reported":1758978871,"current_range_meters":12800,"station_id":"ce4bhjp2rcd13ifvqg90","pricing_plan_id":"cebpf4jnsgd1na2vs0mg"},{"bike_id":"d7720e15-3e8d-4ddf-bc70-8dce8a1e1d42","system_id":"levelo_inurba_marseille","lat":43.23176,"lon":5.35537,"is_reserved":false,"is_disabled":false,"rental_uris":{"android":"levelo://app?vid=d7720e15-3e8d-4ddf-bc70-8dce8a1e1d42","ios":"levelo://app?vid=d7720e15-3e8d-4ddf-bc70-8dce8a1e1d42"},"vehicle_type_id":"4","last_reported":1758978871,"current_range_meters":12800,"station_id":"ce4bhu92rcd13ifvqi70","pricing_plan_id":"cebpf4jnsgd1na2vs0mg"},{"bike_id":"00c4110d-6fd2-472c-b99d-439f867fb400","system_id":"levelo_inurba_marseille","lat":43.31077,"lon":5.38358,"is_reserved":false,"is_disabled":false,"rental_uris":{"android":"levelo://app?vid=00c4110d-6fd2-472c-b99d-439f867fb400","ios":"levelo://app?vid=00c4110d-6fd2-472c-b99d-439f867fb400"},"vehicle_type_id":"4","last_reported":1758978871,"current_range_meters":13600,"station_id":"ce4bgv92rcd13ifvqcr0","pricing_plan_id":"cebpf4jnsgd1na2vs0mg"},{"bike_id":"16343767-da45-4c0e-9ff1-15eb23155885","system_id":"levelo_inurba_marseille","lat":43.28281,"lon":5.35087,"is_reserved":false,"is_disabled":false,"rental_uris":{"android":"levelo://app?vid=16343767-da45-4c0e-9ff1-15eb23155885","ios":"levelo://app?vid=16343767-da45-4c0e-9ff1-15eb23155885"},"vehicle_type_id":"4","last_reported":1758978871,"current_range_meters":10800,"station_id":"ce4bhbp2rcd13ifvqerg","pricing_plan_id":"cebpf4jnsgd1na2vs0mg"},{"bike_id":"9de5eb4a-2bba-4d94-b5d2-50807c7d8cc2","system_id":"levelo_inurba_marseille","lat":43.22534,"lon":5.34839,"is_reserved":false,"is_disabled":false,"rental_uris":{"android":"levelo://app?vid=9de5eb4a-2bba-4d94-b5d2-50807c7d8cc2","ios":"levelo://app?vid=9de5eb4a-2bba-4d94-b5d2-50807c7d8cc2"},"vehicle_type_id":"4","last_reported":1758978871,"current_range_meters":13600,"station_id":"","pricing_plan_id":"cebpf4jnsgd1na2vs0mg"},{"bike_id":"a0eabc9a-396e-4f07-89cc-c252178b4cb6","system_id":"levelo_inurba_marseille","lat":43.28039,"lon":5.36944,"is_reserved":false,"is_disabled":false,"rental_uris":{"android":"levelo://app?vid=a0eabc9a-396e-4f07-89cc-c252178b4cb6","ios":"levelo://app?vid=a0eabc9a-396e-4f07-89cc-c252178b4cb6"},"vehicle_type_id":"4","last_reported":1758978871,"current_range_meters":13600,"station_id":"ce4bha12rcd13ifvqef0","pricing_plan_id":"cebpf4jnsgd1na2vs0mg"},{"bike_id":"1f0bd7e5-95f7-4152-8527-0d9e0296b421","system_id":"levelo_inurba_marseille","lat":43.265039,"lon":5.395449,"is_reserved":false,"is_disabled":false,"rental_uris":{"android":"levelo://app?vid=1f0bd7e5-95f7-4152-8527-0d9e0296b421","ios":"levelo://app?vid=1f0bd7e5-95f7-4152-8527-0d9e0296b421"},"vehicle_type_id":"4","last_reported":1758978871,"current_range_meters":13600,"station_id":"ce4bhi12rcd13ifvqfq0","pricing_plan_id":"cebpf4jnsgd1na2vs0mg"},{"bike_id":"d63b8f85-7ec0-4464-ba17-dbdff95d3141","system_id":"levelo_inurba_marseille","lat":43.24944,"lon":5.40495,"is_reserved":false,"is_disabled":false,"rental_uris":{"android":"levelo://app?vid=d63b8f85-7ec0-4464-ba17-dbdff95d3141","ios":"levelo://app?vid=d63b8f85-7ec0-4464-ba17-dbdff95d3141"},"vehicle_type_id":"4","last_reported":1758978871,"current_range_meters":13600,"station_id":"st_d2ngiaodas8pm72gd1h0","pricing_plan_id":"cebpf4jnsgd1na2vs0mg"},{"bike_id":"46ac5fb6-ac2e-43e8-84c9-c4e46889ea29","system_id":"levelo_inurba_marseille","lat":43.21205,"lon":5.35049,"is_reserved":false,"is_disabled":false,"rental_uris":{"android":"levelo://app?vid=46ac5fb6-ac2e-43e8-84c9-c4e46889ea29","ios":"levelo://app?vid=46ac5fb6-ac2e-43e8-84c9-c4e46889ea29"},"vehicle_type_id":"4","last_reported":1758978871,"current_range_meters":13600,"station_id":"st_cvj6sg6p6f1abm77japg","pricing_plan_id":"cebpf4jnsgd1na2vs0mg"},{"bike_id":"a79771f7-9547-42c9-9edd-e8630ba14d95","system_id":"levelo_inurba_marseille","lat":43.23241,"lon":5.35591,"is_reserved":false,"is_disabled":false,"rental_uris":{"android":"levelo://app?vid=a79771f7-9547-42c9-9edd-e8630ba14d95","ios":"levelo://app?vid=a79771f7-9547-42c9-9edd-e8630ba14d95"},"vehicle_type_id":"4","last_reported":1758978871,"current_range_meters":13600,"station_id":"","pricing_plan_id":"cebpf4jnsgd1na2vs0mg"},{"bike_id":"03350417-1098-4d6c-b8fe-9e64358744bf","system_id":"levelo_inurba_marseille","lat":43.31038,"lon":5.37608,"is_reserved":false,"is_disabled":false,"rental_uris":{"android":"levelo://app?vid=03350417-1098-4d6c-b8fe-9e64358744bf","ios":"levelo://app?vid=03350417-1098-4d6c-b8fe-9e64358744bf"},"vehicle_type_id":"4","last_reported":1758978871,"current_range_meters":13600,"station_id":"","pricing_plan_id":"cebpf4jnsgd1na2vs0mg"},{"bike_id":"71649b2c-48f8-4b8a-b9c0-477bd83fa14b","system_id":"levelo_inurba_marseille","lat":43.28403,"lon":5.34985,"is_reserved":false,"is_disabled":false,"rental_uris":{"android":"levelo://app?vid=71649b2c-48f8-4b8a-b9c0-477bd83fa14b","ios":"levelo://app?vid=71649b2c-48f8-4b8a-b9c0-477bd83fa14b"},"vehicle_type_id":"4","last_reported":1758978871,"current_range_meters":14000,"station_id":"ce4bhbh2rcd13ifvqepg","pricing_plan_id":"cebpf4jnsgd1na2vs0mg"},{"bike_id":"4f22dce1-4ec1-470a-99fa-d21517df2f5d","system_id":"levelo_inurba_marseille","lat":43.26215,"lon":5.3744,"is_reserved":false,"is_disabled":false,"rental_uris":{"android":"levelo://app?vid=4f22dce1-4ec1-470a-99fa-d21517df2f5d","ios":"levelo://app?vid=4f22dce1-4ec1-470a-99fa-d21517df2f5d"},"vehicle_type_id":"4","last_reported":1758978871,"current_range_meters":14000,"station_id":"ce4bhgp2rcd13ifvqfc0","pricing_plan_id":"cebpf4jnsgd1na2vs0mg"},{"bike_id":"6ef3024a-2129-46d2-8f53-f8c4119ef86c","system_id":"levelo_inurba_marseille","lat":43.22925,"lon":5.35386,"is_reserved":false,"is_disabled":false,"rental_uris":{"android":"levelo://app?vid=6ef3024a-2129-46d2-8f53-f8c4119ef86c","ios":"levelo://app?vid=6ef3024a-2129-46d2-8f53-f8c4119ef86c"},"vehicle_type_id":"4","last_reported":1758978871,"current_range_meters":14000,"station_id":"cpo3532slgdg3j2ikp40","pricing_plan_id":"cebpf4jnsgd1na2vs0mg"},{"bike_id":"2a7adc97-2b29-41e1-8a87-0ddee422e867","system_id":"levelo_inurba_marseille","lat":43.32358,"lon":5.36755,"is_reserved":false,"is_disabled":false,"rental_uris":{"android":"levelo://app?vid=2a7adc97-2b29-41e1-8a87-0ddee422e867","ios":"levelo://app?vid=2a7adc97-2b29-41e1-8a87-0ddee422e867"},"vehicle_type_id":"4","last_reported":1758978871,"current_range_meters":14400,"station_id":"ce4bhsh2rcd13ifvqi2g","pricing_plan_id":"cebpf4jnsgd1na2vs0mg"},{"bike_id":"367cc5de-fbd0-47d1-8fa2-cb83d9fcf585","system_id":"levelo_inurba_marseille","lat":43.25834,"lon":5.39416,"is_reserved":false,"is_disabled":false,"rental_uris":{"android":"levelo://app?vid=367cc5de-fbd0-47d1-8fa2-cb83d9fcf585","ios":"levelo://app?vid=367cc5de-fbd0-47d1-8fa2-cb83d9fcf585"},"vehicle_type_id":"4","last_reported":1758978871,"current_range_meters":14000,"station_id":"ce4bhip2rcd13ifvqft0","pricing_plan_id":"cebpf4jnsgd1na2vs0mg"},{"bike_id":"406c711c-3436-4e9b-b889-d0010ac7ea4a","system_id":"levelo_inurba_marseille","lat":43.24394,"lon":5.37049,"is_reserved":false,"is_disabled":false,"rental_uris":{"android":"levelo://app?vid=406c711c-3436-4e9b-b889-d0010ac7ea4a","ios":"levelo://app?vid=406c711c-3436-4e9b-b889-d0010ac7ea4a"},"vehicle_type_id":"4","last_reported":1758978871,"current_range_meters":14400,"station_id":"ce4bhhh2rcd13ifvqfk0","pricing_plan_id":"cebpf4jnsgd1na2vs0mg"},{"bike_id":"9feae468-b8bd-422a-8fcb-2d68fc5ee82c","system_id":"levelo_inurba_marseille","lat":43.33386,"lon":5.42018,"is_reserved":false,"is_disabled":false,"rental_uris":{"android":"levelo://app?vid=9feae468-b8bd-422a-8fcb-2d68fc5ee82c","ios":"levelo://app?vid=9feae468-b8bd-422a-8fcb-2d68fc5ee82c"},"vehicle_type_id":"4","last_reported":1758978871,"current_range_meters":14400,"station_id":"","pricing_plan_id":"cebpf4jnsgd1na2vs0mg"},{"bike_id":"327c041e-5c9e-4b0d-a97c-a2dbaab036ae","system_id":"levelo_inurba_marseille","lat":43.32813,"lon":5.4113,"is_reserved":false,"is_disabled":false,"rental_uris":{"android":"levelo://app?vid=327c041e-5c9e-4b0d-a97c-a2dbaab036ae","ios":"levelo://app?vid=327c041e-5c9e-4b0d-a97c-a2dbaab036ae"},"vehicle_type_id":"4","last_reported":1758978871,"current_range_meters":14400,"station_id":"","pricing_plan_id":"cebpf4jnsgd1na2vs0mg"},{"bike_id":"0d72be8b-955d-495d-b97d-bf3aebad2f16","system_id":"levelo_inurba_marseille","lat":43.28664,"lon":5.36351,"is_reserved":false,"is_disabled":false,"rental_uris":{"android":"levelo://app?vid=0d72be8b-955d-495d-b97d-bf3aebad2f16","ios":"levelo://app?vid=0d72be8b-955d-495d-b97d-bf3aebad2f16"},"vehicle_type_id":"4","last_reported":1758978871,"current_range_meters":14000,"station_id":"ce4bhah2rcd13ifvqej0","pricing_plan_id":"cebpf4jnsgd1na2vs0mg"},{"bike_id":"cd119ae5-1417-41f1-a8e2-920696e70b86","system_id":"levelo_inurba_marseille","lat":43.22571,"lon":5.41621,"is_reserved":false,"is_disabled":false,"rental_uris":{"android":"levelo://app?vid=cd119ae5-1417-41f1-a8e2-920696e70b86","ios":"levelo://app?vid=cd119ae5-1417-41f1-a8e2-920696e70b86"},"vehicle_type_id":"4","last_reported":1758978871,"current_range_meters":14400,"station_id":"st_d2o4gvlbi1j2169b742g","pricing_plan_id":"cebpf4jnsgd1na2vs0mg"},{"bike_id":"01e260f5-828c-4df2-9bc4-ca80e799f979","system_id":"levelo_inurba_marseille","lat":43.21758,"lon":5.34597,"is_reserved":false,"is_disabled":true,"rental_uris":{"android":"levelo://app?vid=01e260f5-828c-4df2-9bc4-ca80e799f979","ios":"levelo://app?vid=01e260f5-828c-4df2-9bc4-ca80e799f979"},"vehicle_type_id":"4","last_reported":1758978871,"current_range_meters":14400,"station_id":"st_cvj6r9ubvosntc0bgbag","pricing_plan_id":"cebpf4jnsgd1na2vs0mg"},{"bike_id":"fb1f00f0-4275-4c6e-8a59-3367c7a547e7","system_id":"levelo_inurba_marseille","lat":43.24647,"lon":5.38886,"is_reserved":false,"is_disabled":false,"rental_uris":{"android":"levelo://app?vid=fb1f00f0-4275-4c6e-8a59-3367c7a547e7","ios":"levelo://app?vid=fb1f00f0-4275-4c6e-8a59-3367c7a547e7"},"vehicle_type_id":"4","last_reported":1758978871,"current_range_meters":14400,"station_id":"ce4bhg12rcd13ifvqf60","pricing_plan_id":"cebpf4jnsgd1na2vs0mg"},{"bike_id":"070f05b0-c4ea-46d8-9d41-1813af16c50b","system_id":"levelo_inurba_marseille","lat":43.273163,"lon":5.390707,"is_reserved":false,"is_disabled":false,"rental_uris":{"android":"levelo://app?vid=070f05b0-c4ea-46d8-9d41-1813af16c50b","ios":"levelo://app?vid=070f05b0-c4ea-46d8-9d41-1813af16c50b"},"vehicle_type_id":"4","last_reported":1758978871,"current_range_meters":14400,"station_id":"ce4bhgp2rcd13ifvqfe0","pricing_plan_id":"cebpf4jnsgd1na2vs0mg"},{"bike_id":"695662ab-65fe-4c59-81b6-3dceb9f5066d","system_id":"levelo_inurba_marseille","lat":43.25578,"lon":5.3823,"is_reserved":false,"is_disabled":true,"rental_uris":{"android":"levelo://app?vid=695662ab-65fe-4c59-81b6-3dceb9f5066d","ios":"levelo://app?vid=695662ab-65fe-4c59-81b6-3dceb9f5066d"},"vehicle_type_id":"4","last_reported":1758978871,"current_range_meters":14400,"station_id":"ce4bhih2rcd13ifvqfs0","pricing_plan_id":"cebpf4jnsgd1na2vs0mg"},{"bike_id":"ce012277-eb02-46ea-af4f-d53c313b4acf","system_id":"levelo_inurba_marseille","lat":43.2418,"lon":5.39728,"is_reserved":false,"is_disabled":false,"rental_uris":{"android":"levelo://app?vid=ce012277-eb02-46ea-af4f-d53c313b4acf","ios":"levelo://app?vid=ce012277-eb02-46ea-af4f-d53c313b4acf"},"vehicle_type_id":"4","last_reported":1758978871,"current_range_meters":14400,"station_id":"ce4bhn12rcd13ifvqgpg","pricing_plan_id":"cebpf4jnsgd1na2vs0mg"},{"bike_id":"58c5d8d8-e7b2-499f-9416-b45356fd9694","system_id":"levelo_inurba_marseille","lat":43.24396,"lon":5.37059,"is_reserved":false,"is_disabled":false,"rental_uris":{"android":"levelo://app?vid=58c5d8d8-e7b2-499f-9416-b45356fd9694","ios":"levelo://app?vid=58c5d8d8-e7b2-499f-9416-b45356fd9694"},"vehicle_type_id":"4","last_reported":1758978871,"current_range_meters":14800,"station_id":"ce4bhhh2rcd13ifvqfk0","pricing_plan_id":"cebpf4jnsgd1na2vs0mg"},{"bike_id":"1a321882-557f-4197-944c-0303a628d7d8","system_id":"levelo_inurba_marseille","lat":43.30327,"lon":5.392156,"is_reserved":false,"is_disabled":false,"rental_uris":{"android":"levelo://app?vid=1a321882-557f-4197-944c-0303a628d7d8","ios":"levelo://app?vid=1a321882-557f-4197-944c-0303a628d7d8"},"vehicle_type_id":"4","last_reported":1758978871,"current_range_meters":14800,"station_id":"ce4bh092rcd13ifvqd20","pricing_plan_id":"cebpf4jnsgd1na2vs0mg"},{"bike_id":"788438c0-1d9c-4954-8f17-ca5b2562b03e","system_id":"levelo_inurba_marseille","lat":43.21744,"lon":5.34604,"is_reserved":false,"is_disabled":false,"rental_uris":{"android":"levelo://app?vid=788438c0-1d9c-4954-8f17-ca5b2562b03e","ios":"levelo://app?vid=788438c0-1d9c-4954-8f17-ca5b2562b03e"},"vehicle_type_id":"4","last_reported":1758978871,"current_range_meters":14800,"station_id":"","pricing_plan_id":"cebpf4jnsgd1na2vs0mg"},{"bike_id":"349977c5-2efd-48ed-8dd8-9cfd0d464679","system_id":"levelo_inurba_marseille","lat":43.21209,"lon":5.35075,"is_reserved":false,"is_disabled":false,"rental_uris":{"android":"levelo://app?vid=349977c5-2efd-48ed-8dd8-9cfd0d464679","ios":"levelo://app?vid=349977c5-2efd-48ed-8dd8-9cfd0d464679"},"vehicle_type_id":"4","last_reported":1758978871,"current_range_meters":14800,"station_id":"st_cvj6sg6p6f1abm77japg","pricing_plan_id":"cebpf4jnsgd1na2vs0mg"},{"bike_id":"8c57add6-9585-4279-81d0-bcfd5e52d359","system_id":"levelo_inurba_marseille","lat":43.23964,"lon":5.36636,"is_reserved":false,"is_disabled":false,"rental_uris":{"android":"levelo://app?vid=8c57add6-9585-4279-81d0-bcfd5e52d359","ios":"levelo://app?vid=8c57add6-9585-4279-81d0-bcfd5e52d359"},"vehicle_type_id":"4","last_reported":1758978871,"current_range_meters":14800,"station_id":"ce4bhi12rcd13ifvqfp0","pricing_plan_id":"cebpf4jnsgd1na2vs0mg"},{"bike_id":"5663795d-c013-4dd7-8519-aa256eb682d4","system_id":"levelo_inurba_marseille","lat":43.29576,"lon":5.37497,"is_reserved":false,"is_disabled":false,"rental_uris":{"android":"levelo://app?vid=5663795d-c013-4dd7-8519-aa256eb682d4","ios":"levelo://app?vid=5663795d-c013-4dd7-8519-aa256eb682d4"},"vehicle_type_id":"4","last_reported":1758978871,"current_range_meters":14800,"station_id":"ce4bgh92rcd13ifvqb50","pricing_plan_id":"cebpf4jnsgd1na2vs0mg"},{"bike_id":"071bc3a5-4a03-46da-a8d6-b7aa12cea887","system_id":"levelo_inurba_marseille","lat":43.21194,"lon":5.35078,"is_reserved":false,"is_disabled":false,"rental_uris":{"android":"levelo://app?vid=071bc3a5-4a03-46da-a8d6-b7aa12cea887","ios":"levelo://app?vid=071bc3a5-4a03-46da-a8d6-b7aa12cea887"},"vehicle_type_id":"4","last_reported":1758978871,"current_range_meters":15200,"station_id":"st_cvj6sg6p6f1abm77japg","pricing_plan_id":"cebpf4jnsgd1na2vs0mg"},{"bike_id":"1f79a2a5-bde6-432a-acf5-797e5a7cc493","system_id":"levelo_inurba_marseille","lat":43.30952,"lon":5.39041,"is_reserved":false,"is_disabled":false,"rental_uris":{"android":"levelo://app?vid=1f79a2a5-bde6-432a-acf5-797e5a7cc493","ios":"levelo://app?vid=1f79a2a5-bde6-432a-acf5-797e5a7cc493"},"vehicle_type_id":"4","last_reported":1758978871,"current_range_meters":15200,"station_id":"ce4bgup2rcd13ifvqco0","pricing_plan_id":"cebpf4jnsgd1na2vs0mg"},{"bike_id":"6d98ab21-1faa-4b15-97b2-a1dd6f53a5a7","system_id":"levelo_inurba_marseille","lat":43.274212,"lon":5.39422,"is_reserved":false,"is_disabled":true,"rental_uris":{"android":"levelo://app?vid=6d98ab21-1faa-4b15-97b2-a1dd6f53a5a7","ios":"levelo://app?vid=6d98ab21-1faa-4b15-97b2-a1dd6f53a5a7"},"vehicle_type_id":"4","last_reported":1758978871,"current_range_meters":15200,"station_id":"ce4bhdp2rcd13ifvqf20","pricing_plan_id":"cebpf4jnsgd1na2vs0mg"},{"bike_id":"6d4fa21f-0f41-49ae-93a6-059b63d3c466","system_id":"levelo_inurba_marseille","lat":43.23954,"lon":5.36639,"is_reserved":false,"is_disabled":false,"rental_uris":{"android":"levelo://app?vid=6d4fa21f-0f41-49ae-93a6-059b63d3c466","ios":"levelo://app?vid=6d4fa21f-0f41-49ae-93a6-059b63d3c466"},"vehicle_type_id":"4","last_reported":1758978871,"current_range_meters":15200,"station_id":"ce4bhi12rcd13ifvqfp0","pricing_plan_id":"cebpf4jnsgd1na2vs0mg"},{"bike_id":"a6108774-0363-4b65-8d12-f50a416c10c2","system_id":"levelo_inurba_marseille","lat":43.27442,"lon":5.39418,"is_reserved":false,"is_disabled":false,"rental_uris":{"android":"levelo://app?vid=a6108774-0363-4b65-8d12-f50a416c10c2","ios":"levelo://app?vid=a6108774-0363-4b65-8d12-f50a416c10c2"},"vehicle_type_id":"4","last_reported":1758978871,"current_range_meters":15200,"station_id":"ce4bhdp2rcd13ifvqf20","pricing_plan_id":"cebpf4jnsgd1na2vs0mg"},{"bike_id":"6ea7e838-2bf7-468a-bf5e-4dca1ea96177","system_id":"levelo_inurba_marseille","lat":43.21748,"lon":5.34602,"is_reserved":false,"is_disabled":false,"rental_uris":{"android":"levelo://app?vid=6ea7e838-2bf7-468a-bf5e-4dca1ea96177","ios":"levelo://app?vid=6ea7e838-2bf7-468a-bf5e-4dca1ea96177"},"vehicle_type_id":"4","last_reported":1758978871,"current_range_meters":15200,"station_id":"st_cvj6r9ubvosntc0bgbag","pricing_plan_id":"cebpf4jnsgd1na2vs0mg"},{"bike_id":"aa1ef45f-f323-4723-9180-ea0318bf8a28","system_id":"levelo_inurba_marseille","lat":43.32342,"lon":5.40622,"is_reserved":false,"is_disabled":false,"rental_uris":{"android":"levelo://app?vid=aa1ef45f-f323-4723-9180-ea0318bf8a28","ios":"levelo://app?vid=aa1ef45f-f323-4723-9180-ea0318bf8a28"},"vehicle_type_id":"4","last_reported":1758978871,"current_range_meters":16000,"station_id":"ce4bhq92rcd13ifvqhjg","pricing_plan_id":"cebpf4jnsgd1na2vs0mg"},{"bike_id":"70c99b1b-3a05-46b7-b778-e5482d7a6288","system_id":"levelo_inurba_marseille","lat":43.27328,"lon":5.39062,"is_reserved":false,"is_disabled":false,"rental_uris":{"android":"levelo://app?vid=70c99b1b-3a05-46b7-b778-e5482d7a6288","ios":"levelo://app?vid=70c99b1b-3a05-46b7-b778-e5482d7a6288"},"vehicle_type_id":"4","last_reported":1758978871,"current_range_meters":16000,"station_id":"ce4bhgp2rcd13ifvqfe0","pricing_plan_id":"cebpf4jnsgd1na2vs0mg"},{"bike_id":"f18b9768-5111-4dbf-a273-1fb15e369929","system_id":"levelo_inurba_marseille","lat":43.26055,"lon":5.39388,"is_reserved":false,"is_disabled":false,"rental_uris":{"android":"levelo://app?vid=f18b9768-5111-4dbf-a273-1fb15e369929","ios":"levelo://app?vid=f18b9768-5111-4dbf-a273-1fb15e369929"},"vehicle_type_id":"4","last_reported":1758978871,"current_range_meters":16000,"station_id":"ce4bhh92rcd13ifvqfj0","pricing_plan_id":"cebpf4jnsgd1na2vs0mg"},{"bike_id":"5923183b-eadf-4bf9-98e2-a6ec4d87f917","system_id":"levelo_inurba_marseille","lat":43.28595,"lon":5.37036,"is_reserved":false,"is_disabled":false,"rental_uris":{"android":"levelo://app?vid=5923183b-eadf-4bf9-98e2-a6ec4d87f917","ios":"levelo://app?vid=5923183b-eadf-4bf9-98e2-a6ec4d87f917"},"vehicle_type_id":"4","last_reported":1758978871,"current_range_meters":16000,"station_id":"ce4bht12rcd13ifvqi60","pricing_plan_id":"cebpf4jnsgd1na2vs0mg"},{"bike_id":"85c7ac65-0172-4766-8977-f4ba34ed9c93","system_id":"levelo_inurba_marseille","lat":43.25338,"lon":5.42182,"is_reserved":false,"is_disabled":false,"rental_uris":{"android":"levelo://app?vid=85c7ac65-0172-4766-8977-f4ba34ed9c93","ios":"levelo://app?vid=85c7ac65-0172-4766-8977-f4ba34ed9c93"},"vehicle_type_id":"4","last_reported":1758978871,"current_range_meters":16000,"station_id":"st_d2m65c5bi1j21697t3ng","pricing_plan_id":"cebpf4jnsgd1na2vs0mg"},{"bike_id":"40160ca7-1c86-416c-acdd-981ef869ed29","system_id":"levelo_inurba_marseille","lat":43.23194,"lon":5.35556,"is_reserved":false,"is_disabled":false,"rental_uris":{"android":"levelo://app?vid=40160ca7-1c86-416c-acdd-981ef869ed29","ios":"levelo://app?vid=40160ca7-1c86-416c-acdd-981ef869ed29"},"vehicle_type_id":"4","last_reported":1758978871,"current_range_meters":16000,"station_id":"ce4bhu92rcd13ifvqi70","pricing_plan_id":"cebpf4jnsgd1na2vs0mg"},{"bike_id":"cb0a43cc-2f6b-482a-91bb-c383cccf5be4","system_id":"levelo_inurba_marseille","lat":43.32005,"lon":5.38098,"is_reserved":false,"is_disabled":false,"rental_uris":{"android":"levelo://app?vid=cb0a43cc-2f6b-482a-91bb-c383cccf5be4","ios":"levelo://app?vid=cb0a43cc-2f6b-482a-91bb-c383cccf5be4"},"vehicle_type_id":"4","last_reported":1758978871,"current_range_meters":16000,"station_id":"","pricing_plan_id":"cebpf4jnsgd1na2vs0mg"},{"bike_id":"cdc89dd7-79fa-4381-8161-d2091b5ca7d4","system_id":"levelo_inurba_marseille","lat":43.22565,"lon":5.41623,"is_reserved":false,"is_disabled":false,"rental_uris":{"android":"levelo://app?vid=cdc89dd7-79fa-4381-8161-d2091b5ca7d4","ios":"levelo://app?vid=cdc89dd7-79fa-4381-8161-d2091b5ca7d4"},"vehicle_type_id":"4","last_reported":1758978871,"current_range_meters":16000,"station_id":"st_d2o4gvlbi1j2169b742g","pricing_plan_id":"cebpf4jnsgd1na2vs0mg"},{"bike_id":"3d9bbe71-5edb-462b-bb4a-e60fb83b041c","system_id":"levelo_inurba_marseille","lat":43.25822,"lon":5.39438,"is_reserved":false,"is_disabled":false,"rental_uris":{"android":"levelo://app?vid=3d9bbe71-5edb-462b-bb4a-e60fb83b041c","ios":"levelo://app?vid=3d9bbe71-5edb-462b-bb4a-e60fb83b041c"},"vehicle_type_id":"4","last_reported":1758978871,"current_range_meters":15200,"station_id":"ce4bhip2rcd13ifvqft0","pricing_plan_id":"cebpf4jnsgd1na2vs0mg"},{"bike_id":"4c02c545-ad59-45b1-9b9c-d3678a5922c7","system_id":"levelo_inurba_marseille","lat":43.337444,"lon":5.374475,"is_reserved":false,"is_disabled":false,"rental_uris":{"android":"levelo://app?vid=4c02c545-ad59-45b1-9b9c-d3678a5922c7","ios":"levelo://app?vid=4c02c545-ad59-45b1-9b9c-d3678a5922c7"},"vehicle_type_id":"4","last_reported":1758978871,"current_range_meters":16000,"station_id":"","pricing_plan_id":"cebpf4jnsgd1na2vs0mg"},{"bike_id":"c097f066-7651-435e-913f-a8a7838aba88","system_id":"levelo_inurba_marseille","lat":43.33722,"lon":5.37459,"is_reserved":false,"is_disabled":false,"rental_uris":{"android":"levelo://app?vid=c097f066-7651-435e-913f-a8a7838aba88","ios":"levelo://app?vid=c097f066-7651-435e-913f-a8a7838aba88"},"vehicle_type_id":"4","last_reported":1758978871,"current_range_meters":16000,"station_id":"","pricing_plan_id":"cebpf4jnsgd1na2vs0mg"},{"bike_id":"35bdc8c8-6e1f-4c06-9b96-f4dc485a0c95","system_id":"levelo_inurba_marseille","lat":43.27429,"lon":5.39422,"is_reserved":false,"is_disabled":false,"rental_uris":{"android":"levelo://app?vid=35bdc8c8-6e1f-4c06-9b96-f4dc485a0c95","ios":"levelo://app?vid=35bdc8c8-6e1f-4c06-9b96-f4dc485a0c95"},"vehicle_type_id":"4","last_reported":1758978871,"current_range_meters":16000,"station_id":"ce4bhdp2rcd13ifvqf20","pricing_plan_id":"cebpf4jnsgd1na2vs0mg"},{"bike_id":"f35f013e-32c9-48f5-a888-a78329aa64bf","system_id":"levelo_inurba_marseille","lat":43.28474,"lon":5.38422,"is_reserved":false,"is_disabled":false,"rental_uris":{"android":"levelo://app?vid=f35f013e-32c9-48f5-a888-a78329aa64bf","ios":"levelo://app?vid=f35f013e-32c9-48f5-a888-a78329aa64bf"},"vehicle_type_id":"4","last_reported":1758978871,"current_range_meters":16000,"station_id":"ce4bh512rcd13ifvqe3g","pricing_plan_id":"cebpf4jnsgd1na2vs0mg"},{"bike_id":"9b2c0362-8a01-4219-9cc0-a7d9b6166838","system_id":"levelo_inurba_marseille","lat":43.23964,"lon":5.36636,"is_reserved":false,"is_disabled":false,"rental_uris":{"android":"levelo://app?vid=9b2c0362-8a01-4219-9cc0-a7d9b6166838","ios":"levelo://app?vid=9b2c0362-8a01-4219-9cc0-a7d9b6166838"},"vehicle_type_id":"4","last_reported":1758978871,"current_range_meters":16000,"station_id":"","pricing_plan_id":"cebpf4jnsgd1na2vs0mg"},{"bike_id":"f62fe733-90ac-444a-a20a-73d227678ff7","system_id":"levelo_inurba_marseille","lat":43.29615,"lon":5.37707,"is_reserved":false,"is_disabled":true,"rental_uris":{"android":"levelo://app?vid=f62fe733-90ac-444a-a20a-73d227678ff7","ios":"levelo://app?vid=f62fe733-90ac-444a-a20a-73d227678ff7"},"vehicle_type_id":"4","last_reported":1758978871,"current_range_meters":16400,"station_id":"ce4bgi92rcd13ifvqb90","pricing_plan_id":"cebpf4jnsgd1na2vs0mg"},{"bike_id":"096c311a-e31f-4e60-ab8c-de0b76354103","system_id":"levelo_inurba_marseille","lat":43.271765,"lon":5.40978,"is_reserved":false,"is_disabled":true,"rental_uris":{"android":"levelo://app?vid=096c311a-e31f-4e60-ab8c-de0b76354103","ios":"levelo://app?vid=096c311a-e31f-4e60-ab8c-de0b76354103"},"vehicle_type_id":"4","last_reported":1758978871,"current_range_meters":16400,"station_id":"ce4bhl12rcd13ifvqgf0","pricing_plan_id":"cebpf4jnsgd1na2vs0mg"},{"bike_id":"b219c086-dfbe-4625-9649-9c9028fcc568","system_id":"levelo_inurba_marseille","lat":43.24808,"lon":5.37455,"is_reserved":false,"is_disabled":false,"rental_uris":{"android":"levelo://app?vid=b219c086-dfbe-4625-9649-9c9028fcc568","ios":"levelo://app?vid=b219c086-dfbe-4625-9649-9c9028fcc568"},"vehicle_type_id":"4","last_reported":1758978871,"current_range_meters":16400,"station_id":"ce4bhgh2rcd13ifvqfb0","pricing_plan_id":"cebpf4jnsgd1na2vs0mg"},{"bike_id":"f982830d-b31b-47c0-b5a3-597d752c6ee5","system_id":"levelo_inurba_marseille","lat":43.30925,"lon":5.40142,"is_reserved":false,"is_disabled":false,"rental_uris":{"android":"levelo://app?vid=f982830d-b31b-47c0-b5a3-597d752c6ee5","ios":"levelo://app?vid=f982830d-b31b-47c0-b5a3-597d752c6ee5"},"vehicle_type_id":"4","last_reported":1758978871,"current_range_meters":16000,"station_id":"ce4bgvp2rcd13ifvqct0","pricing_plan_id":"cebpf4jnsgd1na2vs0mg"},{"bike_id":"7aac2627-6b70-4df7-ad8a-6082bb89c0b7","system_id":"levelo_inurba_marseille","lat":43.25097,"lon":5.40308,"is_reserved":false,"is_disabled":false,"rental_uris":{"android":"levelo://app?vid=7aac2627-6b70-4df7-ad8a-6082bb89c0b7","ios":"levelo://app?vid=7aac2627-6b70-4df7-ad8a-6082bb89c0b7"},"vehicle_type_id":"4","last_reported":1758978871,"current_range_meters":16400,"station_id":"ce4bhlh2rcd13ifvqgig","pricing_plan_id":"cebpf4jnsgd1na2vs0mg"},{"bike_id":"e550f2a1-0537-4841-958a-c1ba37ebfed8","system_id":"levelo_inurba_marseille","lat":43.29915,"lon":5.3747,"is_reserved":false,"is_disabled":false,"rental_uris":{"android":"levelo://app?vid=e550f2a1-0537-4841-958a-c1ba37ebfed8","ios":"levelo://app?vid=e550f2a1-0537-4841-958a-c1ba37ebfed8"},"vehicle_type_id":"4","last_reported":1758978871,"current_range_meters":16800,"station_id":"ce4bgjh2rcd13ifvqbg0","pricing_plan_id":"cebpf4jnsgd1na2vs0mg"},{"bike_id":"976fd36e-2f5c-424c-baa8-068b37f1eb42","system_id":"levelo_inurba_marseille","lat":43.27561,"lon":5.38408,"is_reserved":false,"is_disabled":false,"rental_uris":{"android":"levelo://app?vid=976fd36e-2f5c-424c-baa8-068b37f1eb42","ios":"levelo://app?vid=976fd36e-2f5c-424c-baa8-068b37f1eb42"},"vehicle_type_id":"4","last_reported":1758978871,"current_range_meters":16800,"station_id":"ce4bhh92rcd13ifvqfi0","pricing_plan_id":"cebpf4jnsgd1na2vs0mg"},{"bike_id":"75a1808b-f036-45a0-9b9e-d8442cdf8f90","system_id":"levelo_inurba_marseille","lat":43.25001,"lon":5.3889,"is_reserved":false,"is_disabled":false,"rental_uris":{"android":"levelo://app?vid=75a1808b-f036-45a0-9b9e-d8442cdf8f90","ios":"levelo://app?vid=75a1808b-f036-45a0-9b9e-d8442cdf8f90"},"vehicle_type_id":"4","last_reported":1758978871,"current_range_meters":16800,"station_id":"ce4bhgp2rcd13ifvqfd0","pricing_plan_id":"cebpf4jnsgd1na2vs0mg"},{"bike_id":"e54b8c9f-4f66-4c52-b603-24745fa68456","system_id":"levelo_inurba_marseille","lat":43.25727,"lon":5.41107,"is_reserved":false,"is_disabled":false,"rental_uris":{"android":"levelo://app?vid=e54b8c9f-4f66-4c52-b603-24745fa68456","ios":"levelo://app?vid=e54b8c9f-4f66-4c52-b603-24745fa68456"},"vehicle_type_id":"4","last_reported":1758978871,"current_range_meters":16800,"station_id":"ce4bhkp2rcd13ifvqgd0","pricing_plan_id":"cebpf4jnsgd1na2vs0mg"},{"bike_id":"318e821c-abfc-42ef-9195-38b0128df5a4","system_id":"levelo_inurba_marseille","lat":43.28421,"lon":5.34986,"is_reserved":false,"is_disabled":false,"rental_uris":{"android":"levelo://app?vid=318e821c-abfc-42ef-9195-38b0128df5a4","ios":"levelo://app?vid=318e821c-abfc-42ef-9195-38b0128df5a4"},"vehicle_type_id":"4","last_reported":1758978871,"current_range_meters":16800,"station_id":"ce4bhbh2rcd13ifvqepg","pricing_plan_id":"cebpf4jnsgd1na2vs0mg"},{"bike_id":"843f4427-2b31-4287-80c6-22dbe5d2810c","system_id":"levelo_inurba_marseille","lat":43.21757,"lon":5.34603,"is_reserved":false,"is_disabled":false,"rental_uris":{"android":"levelo://app?vid=843f4427-2b31-4287-80c6-22dbe5d2810c","ios":"levelo://app?vid=843f4427-2b31-4287-80c6-22dbe5d2810c"},"vehicle_type_id":"4","last_reported":1758978871,"current_range_meters":16800,"station_id":"st_cvj6r9ubvosntc0bgbag","pricing_plan_id":"cebpf4jnsgd1na2vs0mg"},{"bike_id":"dc4883ea-8f06-44d1-8b3d-6660e39a87ec","system_id":"levelo_inurba_marseille","lat":43.2174,"lon":5.34621,"is_reserved":false,"is_disabled":true,"rental_uris":{"android":"levelo://app?vid=dc4883ea-8f06-44d1-8b3d-6660e39a87ec","ios":"levelo://app?vid=dc4883ea-8f06-44d1-8b3d-6660e39a87ec"},"vehicle_type_id":"4","last_reported":1758978871,"current_range_meters":16800,"station_id":"","pricing_plan_id":"cebpf4jnsgd1na2vs0mg"},{"bike_id":"d5a62026-a734-4bd7-bf64-1bb286698370","system_id":"levelo_inurba_marseille","lat":43.2465,"lon":5.38891,"is_reserved":false,"is_disabled":false,"rental_uris":{"android":"levelo://app?vid=d5a62026-a734-4bd7-bf64-1bb286698370","ios":"levelo://app?vid=d5a62026-a734-4bd7-bf64-1bb286698370"},"vehicle_type_id":"4","last_reported":1758978871,"current_range_meters":16800,"station_id":"ce4bhg12rcd13ifvqf60","pricing_plan_id":"cebpf4jnsgd1na2vs0mg"},{"bike_id":"3221da8b-3d4d-44c4-826b-f0799e4e45d8","system_id":"levelo_inurba_marseille","lat":43.27919,"lon":5.39581,"is_reserved":false,"is_disabled":false,"rental_uris":{"android":"levelo://app?vid=3221da8b-3d4d-44c4-826b-f0799e4e45d8","ios":"levelo://app?vid=3221da8b-3d4d-44c4-826b-f0799e4e45d8"},"vehicle_type_id":"4","last_reported":1758978871,"current_range_meters":16800,"station_id":"ce4bhf92rcd13ifvqf40","pricing_plan_id":"cebpf4jnsgd1na2vs0mg"},{"bike_id":"c081d6ac-5788-49e0-94f1-f96219519e58","system_id":"levelo_inurba_marseille","lat":43.24648,"lon":5.38892,"is_reserved":false,"is_disabled":false,"rental_uris":{"android":"levelo://app?vid=c081d6ac-5788-49e0-94f1-f96219519e58","ios":"levelo://app?vid=c081d6ac-5788-49e0-94f1-f96219519e58"},"vehicle_type_id":"4","last_reported":1758978871,"current_range_meters":16800,"station_id":"ce4bhg12rcd13ifvqf60","pricing_plan_id":"cebpf4jnsgd1na2vs0mg"},{"bike_id":"61f72c81-84af-4d24-903d-9a7cb27e68a1","system_id":"levelo_inurba_marseille","lat":43.24636,"lon":5.43147,"is_reserved":false,"is_disabled":false,"rental_uris":{"android":"levelo://app?vid=61f72c81-84af-4d24-903d-9a7cb27e68a1","ios":"levelo://app?vid=61f72c81-84af-4d24-903d-9a7cb27e68a1"},"vehicle_type_id":"4","last_reported":1758978871,"current_range_meters":16800,"station_id":"st_d2m6c4gdas8pm72e190g","pricing_plan_id":"cebpf4jnsgd1na2vs0mg"},{"bike_id":"fc5432e5-60b2-4c3d-9354-ece42d53fa2c","system_id":"levelo_inurba_marseille","lat":43.241645,"lon":5.376577,"is_reserved":false,"is_disabled":false,"rental_uris":{"android":"levelo://app?vid=fc5432e5-60b2-4c3d-9354-ece42d53fa2c","ios":"levelo://app?vid=fc5432e5-60b2-4c3d-9354-ece42d53fa2c"},"vehicle_type_id":"4","last_reported":1758978871,"current_range_meters":16800,"station_id":"ce4bhnp2rcd13ifvqgvg","pricing_plan_id":"cebpf4jnsgd1na2vs0mg"},{"bike_id":"d66cd03b-dbeb-4aa4-961e-bd97aeefe4a4","system_id":"levelo_inurba_marseille","lat":43.25954,"lon":5.41371,"is_reserved":false,"is_disabled":false,"rental_uris":{"android":"levelo://app?vid=d66cd03b-dbeb-4aa4-961e-bd97aeefe4a4","ios":"levelo://app?vid=d66cd03b-dbeb-4aa4-961e-bd97aeefe4a4"},"vehicle_type_id":"4","last_reported":1758978871,"current_range_meters":16800,"station_id":"","pricing_plan_id":"cebpf4jnsgd1na2vs0mg"},{"bike_id":"1d8fe1e6-4b2d-4353-adb0-d99ca989cd5a","system_id":"levelo_inurba_marseille","lat":43.21742,"lon":5.34609,"is_reserved":false,"is_disabled":false,"rental_uris":{"android":"levelo://app?vid=1d8fe1e6-4b2d-4353-adb0-d99ca989cd5a","ios":"levelo://app?vid=1d8fe1e6-4b2d-4353-adb0-d99ca989cd5a"},"vehicle_type_id":"4","last_reported":1758978871,"current_range_meters":17200,"station_id":"","pricing_plan_id":"cebpf4jnsgd1na2vs0mg"},{"bike_id":"95bafeb0-6c7b-407a-a73b-a6569ff5cb66","system_id":"levelo_inurba_marseille","lat":43.33765,"lon":5.37472,"is_reserved":false,"is_disabled":false,"rental_uris":{"android":"levelo://app?vid=95bafeb0-6c7b-407a-a73b-a6569ff5cb66","ios":"levelo://app?vid=95bafeb0-6c7b-407a-a73b-a6569ff5cb66"},"vehicle_type_id":"4","last_reported":1758978871,"current_range_meters":17200,"station_id":"","pricing_plan_id":"cebpf4jnsgd1na2vs0mg"},{"bike_id":"80aa871c-a769-40f9-b7e2-a9e2a01d61a4","system_id":"levelo_inurba_marseille","lat":43.2872,"lon":5.37937,"is_reserved":false,"is_disabled":false,"rental_uris":{"android":"levelo://app?vid=80aa871c-a769-40f9-b7e2-a9e2a01d61a4","ios":"levelo://app?vid=80aa871c-a769-40f9-b7e2-a9e2a01d61a4"},"vehicle_type_id":"4","last_reported":1758978871,"current_range_meters":17200,"station_id":"ce4bh9p2rcd13ifvqec0","pricing_plan_id":"cebpf4jnsgd1na2vs0mg"},{"bike_id":"2243febf-ebaf-474b-8e3e-799410e4c867","system_id":"levelo_inurba_marseille","lat":43.32572,"lon":5.36346,"is_reserved":false,"is_disabled":false,"rental_uris":{"android":"levelo://app?vid=2243febf-ebaf-474b-8e3e-799410e4c867","ios":"levelo://app?vid=2243febf-ebaf-474b-8e3e-799410e4c867"},"vehicle_type_id":"4","last_reported":1758978871,"current_range_meters":17200,"station_id":"","pricing_plan_id":"cebpf4jnsgd1na2vs0mg"},{"bike_id":"f4c53ff4-73a4-4134-bb3f-bbf464878afb","system_id":"levelo_inurba_marseille","lat":43.21754,"lon":5.34601,"is_reserved":false,"is_disabled":true,"rental_uris":{"android":"levelo://app?vid=f4c53ff4-73a4-4134-bb3f-bbf464878afb","ios":"levelo://app?vid=f4c53ff4-73a4-4134-bb3f-bbf464878afb"},"vehicle_type_id":"4","last_reported":1758978871,"current_range_meters":17200,"station_id":"st_cvj6r9ubvosntc0bgbag","pricing_plan_id":"cebpf4jnsgd1na2vs0mg"},{"bike_id":"54fff988-c74f-45fc-a0eb-29489bfa1777","system_id":"levelo_inurba_marseille","lat":43.24649,"lon":5.38889,"is_reserved":false,"is_disabled":false,"rental_uris":{"android":"levelo://app?vid=54fff988-c74f-45fc-a0eb-29489bfa1777","ios":"levelo://app?vid=54fff988-c74f-45fc-a0eb-29489bfa1777"},"vehicle_type_id":"4","last_reported":1758978871,"current_range_meters":17200,"station_id":"ce4bhg12rcd13ifvqf60","pricing_plan_id":"cebpf4jnsgd1na2vs0mg"},{"bike_id":"8ba5e33b-48f1-42b5-a531-76085f7229c8","system_id":"levelo_inurba_marseille","lat":43.24646,"lon":5.43151,"is_reserved":false,"is_disabled":false,"rental_uris":{"android":"levelo://app?vid=8ba5e33b-48f1-42b5-a531-76085f7229c8","ios":"levelo://app?vid=8ba5e33b-48f1-42b5-a531-76085f7229c8"},"vehicle_type_id":"4","last_reported":1758978871,"current_range_meters":17200,"station_id":"st_d2m6c4gdas8pm72e190g","pricing_plan_id":"cebpf4jnsgd1na2vs0mg"},{"bike_id":"59d7950f-2b88-46ce-9099-5f2e721dd875","system_id":"levelo_inurba_marseille","lat":43.29303,"lon":5.37169,"is_reserved":false,"is_disabled":false,"rental_uris":{"android":"levelo://app?vid=59d7950f-2b88-46ce-9099-5f2e721dd875","ios":"levelo://app?vid=59d7950f-2b88-46ce-9099-5f2e721dd875"},"vehicle_type_id":"4","last_reported":1758978871,"current_range_meters":17200,"station_id":"ce4bgh92rcd13ifvqb40","pricing_plan_id":"cebpf4jnsgd1na2vs0mg"},{"bike_id":"bb70a50a-3e1e-4b1f-8ba6-03eee903b8af","system_id":"levelo_inurba_marseille","lat":43.282724,"lon":5.350683,"is_reserved":false,"is_disabled":false,"rental_uris":{"android":"levelo://app?vid=bb70a50a-3e1e-4b1f-8ba6-03eee903b8af","ios":"levelo://app?vid=bb70a50a-3e1e-4b1f-8ba6-03eee903b8af"},"vehicle_type_id":"4","last_reported":1758978871,"current_range_meters":17200,"station_id":"","pricing_plan_id":"cebpf4jnsgd1na2vs0mg"},{"bike_id":"41097409-8ffe-4023-8284-a5956dc07950","system_id":"levelo_inurba_marseille","lat":43.27619,"lon":5.36105,"is_reserved":false,"is_disabled":false,"rental_uris":{"android":"levelo://app?vid=41097409-8ffe-4023-8284-a5956dc07950","ios":"levelo://app?vid=41097409-8ffe-4023-8284-a5956dc07950"},"vehicle_type_id":"4","last_reported":1758978871,"current_range_meters":17200,"station_id":"ce4bgj92rcd13ifvqbe0","pricing_plan_id":"cebpf4jnsgd1na2vs0mg"},{"bike_id":"b14b675c-68bd-4dc1-9615-43c00f86f0be","system_id":"levelo_inurba_marseille","lat":43.24812,"lon":5.37456,"is_reserved":false,"is_disabled":false,"rental_uris":{"android":"levelo://app?vid=b14b675c-68bd-4dc1-9615-43c00f86f0be","ios":"levelo://app?vid=b14b675c-68bd-4dc1-9615-43c00f86f0be"},"vehicle_type_id":"4","last_reported":1758978871,"current_range_meters":17200,"station_id":"ce4bhgh2rcd13ifvqfb0","pricing_plan_id":"cebpf4jnsgd1na2vs0mg"},{"bike_id":"258ab053-1083-4ca9-a32a-1e85f085fc22","system_id":"levelo_inurba_marseille","lat":43.337444,"lon":5.374475,"is_reserved":false,"is_disabled":false,"rental_uris":{"android":"levelo://app?vid=258ab053-1083-4ca9-a32a-1e85f085fc22","ios":"levelo://app?vid=258ab053-1083-4ca9-a32a-1e85f085fc22"},"vehicle_type_id":"4","last_reported":1758978871,"current_range_meters":17200,"station_id":"","pricing_plan_id":"cebpf4jnsgd1na2vs0mg"},{"bike_id":"6ebf8a6c-6736-4192-869f-458ac99cf564","system_id":"levelo_inurba_marseille","lat":43.30417,"lon":5.41282,"is_reserved":false,"is_disabled":false,"rental_uris":{"android":"levelo://app?vid=6ebf8a6c-6736-4192-869f-458ac99cf564","ios":"levelo://app?vid=6ebf8a6c-6736-4192-869f-458ac99cf564"},"vehicle_type_id":"4","last_reported":1758978871,"current_range_meters":17600,"station_id":"ce4bhop2rcd13ifvqh8g","pricing_plan_id":"cebpf4jnsgd1na2vs0mg"},{"bike_id":"aa6dcf2c-8d76-4320-84e6-a8f9e1b80811","system_id":"levelo_inurba_marseille","lat":43.23957,"lon":5.3664,"is_reserved":false,"is_disabled":false,"rental_uris":{"android":"levelo://app?vid=aa6dcf2c-8d76-4320-84e6-a8f9e1b80811","ios":"levelo://app?vid=aa6dcf2c-8d76-4320-84e6-a8f9e1b80811"},