{"last_updated":1769350260,"ttl":60,"version":"2.2","data":{"bikes":[{"bike_id":"335214f1-f886-4643-b4c8-2a285ebc7245","system_id":"levelo_inurba_marseille","lat":43.29807,"lon":5.40404,"is_reserved":false,"is_disabled":false,"rental_uris":{"android":"levelo://app?vid=335214f1-f886-4643-b4c8-2a285ebc7245","ios":"levelo://app?vid=335214f1-f886-4643-b4c8-2a285ebc7245"},"vehicle_type_id":"4","last_reported":1769350261,"current_range_meters":2800,"station_id":"ce4bh112rcd13ifvqd90","pricing_plan_id":"cebpf4jnsgd1na2vs0mg"},{"bike_id":"ad323744-06fd-45f0-8106-c7e6ac5566c6","system_id":"levelo_inurba_marseille","lat":43.29552,"lon":5.42292,"is_reserved":false,"is_disabled":false,"rental_uris":{"android":"levelo://app?vid=ad323744-06fd-45f0-8106-c7e6ac5566c6","ios":"levelo://app?vid=ad323744-06fd-45f0-8106-c7e6ac5566c6"},"vehicle_type_id":"4","last_reported":1769350261,"current_range_meters":2800,"station_id":"ce4bhph2rcd13ifvqhdg","pricing_plan_id":"cebpf4jnsgd1na2vs0mg"},{"bike_id":"d0f7d3f1-d205-4d63-9e44-aabc25a92569","system_id":"levelo_inurba_marseille","lat":43.30549,"lon":5.38434,"is_reserved":false,"is_disabled":true,"rental_uris":{"android":"levelo://app?vid=d0f7d3f1-d205-4d63-9e44-aabc25a92569","ios":"levelo://app?vid=d0f7d3f1-d205-4d63-9e44-aabc25a92569"},"vehicle_type_id":"4","last_reported":1769350261,"current_range_meters":2800,"station_id":"ce4bgg92rcd13ifvqb30","pricing_plan_id":"cebpf4jnsgd1na2vs0mg"},{"bike_id":"b1b24ff6-a16a-49d4-8c80-da38825e8615","system_id":"levelo_inurba_marseille","lat":43.243865,"lon":5.370463,"is_reserved":false,"is_disabled":false,"rental_uris":{"android":"levelo://app?vid=b1b24ff6-a16a-49d4-8c80-da38825e8615","ios":"levelo://app?vid=b1b24ff6-a16a-49d4-8c80-da38825e8615"},"vehicle_type_id":"4","last_reported":1769350261,"current_range_meters":2800,"station_id":"ce4bhhh2rcd13ifvqfk0","pricing_plan_id":"cebpf4jnsgd1na2vs0mg"},{"bike_id":"985f2c20-6702-4db9-9617-eee533f9e71a","system_id":"levelo_inurba_marseille","lat":43.24804,"lon":5.37452,"is_reserved":false,"is_disabled":false,"rental_uris":{"android":"levelo://app?vid=985f2c20-6702-4db9-9617-eee533f9e71a","ios":"levelo://app?vid=985f2c20-6702-4db9-9617-eee533f9e71a"},"vehicle_type_id":"4","last_reported":1769350261,"current_range_meters":2800,"station_id":"ce4bhgh2rcd13ifvqfb0","pricing_plan_id":"cebpf4jnsgd1na2vs0mg"},{"bike_id":"035ecca2-c8de-445b-ac9b-46e39ce6ca6a","system_id":"levelo_inurba_marseille","lat":43.31448,"lon":5.39351,"is_reserved":false,"is_disabled":false,"rental_uris":{"android":"levelo://app?vid=035ecca2-c8de-445b-ac9b-46e39ce6ca6a","ios":"levelo://app?vid=035ecca2-c8de-445b-ac9b-46e39ce6ca6a"},"vehicle_type_id":"4","last_reported":1769350261,"current_range_meters":2800,"station_id":"","pricing_plan_id":"cebpf4jnsgd1na2vs0mg"},{"bike_id":"7a1b6b69-5f61-4e11-91d3-12cf02858ca8","system_id":"levelo_inurba_marseille","lat":43.24398,"lon":5.37073,"is_reserved":false,"is_disabled":false,"rental_uris":{"android":"levelo://app?vid=7a1b6b69-5f61-4e11-91d3-12cf02858ca8","ios":"levelo://app?vid=7a1b6b69-5f61-4e11-91d3-12cf02858ca8"},"vehicle_type_id":"4","last_reported":1769350261,"current_range_meters":3200,"station_id":"ce4bhhh2rcd13ifvqfk0","pricing_plan_id":"cebpf4jnsgd1na2vs0mg"},{"bike_id":"7c7cc252-7f4f-4ac1-8175-44f20e46ac77","system_id":"levelo_inurba_marseille","lat":43.26729,"lon":5.401858,"is_reserved":false,"is_disabled":false,"rental_uris":{"android":"levelo://app?vid=7c7cc252-7f4f-4ac1-8175-44f20e46ac77","ios":"levelo://app?vid=7c7cc252-7f4f-4ac1-8175-44f20e46ac77"},"vehicle_type_id":"4","last_reported":1769350261,"current_range_meters":3200,"station_id":"","pricing_plan_id":"cebpf4jnsgd1na2vs0mg"},{"bike_id":"89d2f176-9210-47d4-8e8a-9009973231fc","system_id":"levelo_inurba_marseille","lat":43.31615,"lon":5.36713,"is_reserved":false,"is_disabled":false,"rental_uris":{"android":"levelo://app?vid=89d2f176-9210-47d4-8e8a-9009973231fc","ios":"levelo://app?vid=89d2f176-9210-47d4-8e8a-9009973231fc"},"vehicle_type_id":"4","last_reported":1769350261,"current_range_meters":3200,"station_id":"","pricing_plan_id":"cebpf4jnsgd1na2vs0mg"},{"bike_id":"5dcb54b3-802a-4d3e-af03-a8a8d6b964cb","system_id":"levelo_inurba_marseille","lat":43.31373,"lon":5.3725,"is_reserved":false,"is_disabled":false,"rental_uris":{"android":"levelo://app?vid=5dcb54b3-802a-4d3e-af03-a8a8d6b964cb","ios":"levelo://app?vid=5dcb54b3-802a-4d3e-af03-a8a8d6b964cb"},"vehicle_type_id":"4","last_reported":1769350261,"current_range_meters":3200,"station_id":"","pricing_plan_id":"cebpf4jnsgd1na2vs0mg"},{"bike_id":"9fb336bd-a0db-4d0a-b0ae-2ff73105de2e","system_id":"levelo_inurba_marseille","lat":43.30535,"lon":5.36728,"is_reserved":false,"is_disabled":false,"rental_uris":{"android":"levelo://app?vid=9fb336bd-a0db-4d0a-b0ae-2ff73105de2e","ios":"levelo://app?vid=9fb336bd-a0db-4d0a-b0ae-2ff73105de2e"},"vehicle_type_id":"4","last_reported":1769350261,"current_range_meters":3200,"station_id":"ce4bgrp2rcd13ifvqc9g","pricing_plan_id":"cebpf4jnsgd1na2vs0mg"},{"bike_id":"46f6d162-ffca-4e57-bdbb-6f67217dd43b","system_id":"levelo_inurba_marseille","lat":43.24955,"lon":5.40491,"is_reserved":false,"is_disabled":false,"rental_uris":{"android":"levelo://app?vid=46f6d162-ffca-4e57-bdbb-6f67217dd43b","ios":"levelo://app?vid=46f6d162-ffca-4e57-bdbb-6f67217dd43b"},"vehicle_type_id":"4","last_reported":1769350261,"current_range_meters":3200,"station_id":"st_d2ngiaodas8pm72gd1h0","pricing_plan_id":"cebpf4jnsgd1na2vs0mg"},{"bike_id":"4810fd71-a84c-4b31-8c60-58f233465606","system_id":"levelo_inurba_marseille","lat":43.29266,"lon":5.3684,"is_reserved":false,"is_disabled":false,"rental_uris":{"android":"levelo://app?vid=4810fd71-a84c-4b31-8c60-58f233465606","ios":"levelo://app?vid=4810fd71-a84c-4b31-8c60-58f233465606"},"vehicle_type_id":"4","last_reported":1769350261,"current_range_meters":3200,"station_id":"ce4bhbp2rcd13ifvqesg","pricing_plan_id":"cebpf4jnsgd1na2vs0mg"},{"bike_id":"b96bdbeb-b6b3-4d83-b9d0-412d01c5c9e9","system_id":"levelo_inurba_marseille","lat":43.24807,"lon":5.37463,"is_reserved":false,"is_disabled":false,"rental_uris":{"android":"levelo://app?vid=b96bdbeb-b6b3-4d83-b9d0-412d01c5c9e9","ios":"levelo://app?vid=b96bdbeb-b6b3-4d83-b9d0-412d01c5c9e9"},"vehicle_type_id":"4","last_reported":1769350261,"current_range_meters":3200,"station_id":"ce4bhgh2rcd13ifvqfb0","pricing_plan_id":"cebpf4jnsgd1na2vs0mg"},{"bike_id":"d9e7742c-ad30-41dc-bcc6-ef3f77b1285a","system_id":"levelo_inurba_marseille","lat":43.24397,"lon":5.37065,"is_reserved":false,"is_disabled":false,"rental_uris":{"android":"levelo://app?vid=d9e7742c-ad30-41dc-bcc6-ef3f77b1285a","ios":"levelo://app?vid=d9e7742c-ad30-41dc-bcc6-ef3f77b1285a"},"vehicle_type_id":"4","last_reported":1769350261,"current_range_meters":3200,"station_id":"ce4bhhh2rcd13ifvqfk0","pricing_plan_id":"cebpf4jnsgd1na2vs0mg"},{"bike_id":"54247625-5421-4985-8cfb-4f29ba1ac252","system_id":"levelo_inurba_marseille","lat":43.31693,"lon":5.37606,"is_reserved":false,"is_disabled":false,"rental_uris":{"android":"levelo://app?vid=54247625-5421-4985-8cfb-4f29ba1ac252","ios":"levelo://app?vid=54247625-5421-4985-8cfb-4f29ba1ac252"},"vehicle_type_id":"4","last_reported":1769350261,"current_range_meters":3200,"station_id":"","pricing_plan_id":"cebpf4jnsgd1na2vs0mg"},{"bike_id":"2e4674e0-a816-47f3-93a0-1d98de56fadd","system_id":"levelo_inurba_marseille","lat":43.28269,"lon":5.35076,"is_reserved":false,"is_disabled":false,"rental_uris":{"android":"levelo://app?vid=2e4674e0-a816-47f3-93a0-1d98de56fadd","ios":"levelo://app?vid=2e4674e0-a816-47f3-93a0-1d98de56fadd"},"vehicle_type_id":"4","last_reported":1769350261,"current_range_meters":3200,"station_id":"ce4bhbp2rcd13ifvqerg","pricing_plan_id":"cebpf4jnsgd1na2vs0mg"},{"bike_id":"b1fc719e-f9d4-4bf0-aea8-36aa7ed768bd","system_id":"levelo_inurba_marseille","lat":43.28141,"lon":5.42633,"is_reserved":false,"is_disabled":false,"rental_uris":{"android":"levelo://app?vid=b1fc719e-f9d4-4bf0-aea8-36aa7ed768bd","ios":"levelo://app?vid=b1fc719e-f9d4-4bf0-aea8-36aa7ed768bd"},"vehicle_type_id":"4","last_reported":1769350261,"current_range_meters":3600,"station_id":"ce4bhnh2rcd13ifvqgug","pricing_plan_id":"cebpf4jnsgd1na2vs0mg"},{"bike_id":"dd410bee-34e0-43f3-874f-d5f5bf47e3ee","system_id":"levelo_inurba_marseille","lat":43.25115,"lon":5.40287,"is_reserved":false,"is_disabled":false,"rental_uris":{"android":"levelo://app?vid=dd410bee-34e0-43f3-874f-d5f5bf47e3ee","ios":"levelo://app?vid=dd410bee-34e0-43f3-874f-d5f5bf47e3ee"},"vehicle_type_id":"4","last_reported":1769350261,"current_range_meters":3600,"station_id":"ce4bhlh2rcd13ifvqgig","pricing_plan_id":"cebpf4jnsgd1na2vs0mg"},{"bike_id":"387d7740-676c-4cd2-8a5d-59752e7e6b9b","system_id":"levelo_inurba_marseille","lat":43.263724,"lon":5.410675,"is_reserved":false,"is_disabled":false,"rental_uris":{"android":"levelo://app?vid=387d7740-676c-4cd2-8a5d-59752e7e6b9b","ios":"levelo://app?vid=387d7740-676c-4cd2-8a5d-59752e7e6b9b"},"vehicle_type_id":"4","last_reported":1769350261,"current_range_meters":3600,"station_id":"st_d4e5ca6na9uc73bfl5fg","pricing_plan_id":"cebpf4jnsgd1na2vs0mg"},{"bike_id":"a7113b20-7f2c-4076-8a8d-a1b73bd26ce7","system_id":"levelo_inurba_marseille","lat":43.28848,"lon":5.39313,"is_reserved":false,"is_disabled":false,"rental_uris":{"android":"levelo://app?vid=a7113b20-7f2c-4076-8a8d-a1b73bd26ce7","ios":"levelo://app?vid=a7113b20-7f2c-4076-8a8d-a1b73bd26ce7"},"vehicle_type_id":"4","last_reported":1769350261,"current_range_meters":3600,"station_id":"ce4bh2p2rcd13ifvqdi0","pricing_plan_id":"cebpf4jnsgd1na2vs0mg"},{"bike_id":"b873cc4c-02b8-4776-b6fb-5c584c5a92b3","system_id":"levelo_inurba_marseille","lat":43.291987,"lon":5.357988,"is_reserved":false,"is_disabled":false,"rental_uris":{"android":"levelo://app?vid=b873cc4c-02b8-4776-b6fb-5c584c5a92b3","ios":"levelo://app?vid=b873cc4c-02b8-4776-b6fb-5c584c5a92b3"},"vehicle_type_id":"4","last_reported":1769350261,"current_range_meters":3600,"station_id":"ce4bhb12rcd13ifvqel0","pricing_plan_id":"cebpf4jnsgd1na2vs0mg"},{"bike_id":"e65c68c4-c546-48be-8d7a-d8cf9fd17b03","system_id":"levelo_inurba_marseille","lat":43.28629,"lon":5.35096,"is_reserved":false,"is_disabled":false,"rental_uris":{"android":"levelo://app?vid=e65c68c4-c546-48be-8d7a-d8cf9fd17b03","ios":"levelo://app?vid=e65c68c4-c546-48be-8d7a-d8cf9fd17b03"},"vehicle_type_id":"4","last_reported":1769350261,"current_range_meters":3600,"station_id":"ce4bhch2rcd13ifvqeug","pricing_plan_id":"cebpf4jnsgd1na2vs0mg"},{"bike_id":"9af51f60-0147-47d1-9c59-680e0d02c35a","system_id":"levelo_inurba_marseille","lat":43.21745,"lon":5.34613,"is_reserved":false,"is_disabled":false,"rental_uris":{"android":"levelo://app?vid=9af51f60-0147-47d1-9c59-680e0d02c35a","ios":"levelo://app?vid=9af51f60-0147-47d1-9c59-680e0d02c35a"},"vehicle_type_id":"4","last_reported":1769350261,"current_range_meters":4000,"station_id":"st_cvj6r9ubvosntc0bgbag","pricing_plan_id":"cebpf4jnsgd1na2vs0mg"},{"bike_id":"c8edd58b-6146-4e07-af29-706dc55ef655","system_id":"levelo_inurba_marseille","lat":43.262,"lon":5.37934,"is_reserved":false,"is_disabled":false,"rental_uris":{"android":"levelo://app?vid=c8edd58b-6146-4e07-af29-706dc55ef655","ios":"levelo://app?vid=c8edd58b-6146-4e07-af29-706dc55ef655"},"vehicle_type_id":"4","last_reported":1769350261,"current_range_meters":4000,"station_id":"ce4bhjp2rcd13ifvqg90","pricing_plan_id":"cebpf4jnsgd1na2vs0mg"},{"bike_id":"695ba03e-aa60-4a16-ad44-0d1b43b21bd5","system_id":"levelo_inurba_marseille","lat":43.22568,"lon":5.41622,"is_reserved":false,"is_disabled":false,"rental_uris":{"android":"levelo://app?vid=695ba03e-aa60-4a16-ad44-0d1b43b21bd5","ios":"levelo://app?vid=695ba03e-aa60-4a16-ad44-0d1b43b21bd5"},"vehicle_type_id":"4","last_reported":1769350261,"current_range_meters":4000,"station_id":"st_d2o4gvlbi1j2169b742g","pricing_plan_id":"cebpf4jnsgd1na2vs0mg"},{"bike_id":"bea74ff8-9d48-4589-892e-a67de408f062","system_id":"levelo_inurba_marseille","lat":43.27694,"lon":5.388843,"is_reserved":false,"is_disabled":false,"rental_uris":{"android":"levelo://app?vid=bea74ff8-9d48-4589-892e-a67de408f062","ios":"levelo://app?vid=bea74ff8-9d48-4589-892e-a67de408f062"},"vehicle_type_id":"4","last_reported":1769350261,"current_range_meters":4000,"station_id":"ce4bhi12rcd13ifvqfo0","pricing_plan_id":"cebpf4jnsgd1na2vs0mg"},{"bike_id":"112665af-bb16-424a-891e-97e4e0a1921c","system_id":"levelo_inurba_marseille","lat":43.29537,"lon":5.37511,"is_reserved":false,"is_disabled":false,"rental_uris":{"android":"levelo://app?vid=112665af-bb16-424a-891e-97e4e0a1921c","ios":"levelo://app?vid=112665af-bb16-424a-891e-97e4e0a1921c"},"vehicle_type_id":"4","last_reported":1769350261,"current_range_meters":4000,"station_id":"ce4bgkp2rcd13ifvqbmg","pricing_plan_id":"cebpf4jnsgd1na2vs0mg"},{"bike_id":"63e71ea2-d067-43c9-9f87-92dd832ad4e3","system_id":"levelo_inurba_marseille","lat":43.25583,"lon":5.38231,"is_reserved":false,"is_disabled":false,"rental_uris":{"android":"levelo://app?vid=63e71ea2-d067-43c9-9f87-92dd832ad4e3","ios":"levelo://app?vid=63e71ea2-d067-43c9-9f87-92dd832ad4e3"},"vehicle_type_id":"4","last_reported":1769350261,"current_range_meters":4000,"station_id":"ce4bhih2rcd13ifvqfs0","pricing_plan_id":"cebpf4jnsgd1na2vs0mg"},{"bike_id":"0ca50414-b22f-4e75-aa54-cfd808d06083","system_id":"levelo_inurba_marseille","lat":43.331527,"lon":5.376921,"is_reserved":false,"is_disabled":false,"rental_uris":{"android":"levelo://app?vid=0ca50414-b22f-4e75-aa54-cfd808d06083","ios":"levelo://app?vid=0ca50414-b22f-4e75-aa54-cfd808d06083"},"vehicle_type_id":"4","last_reported":1769350261,"current_range_meters":4000,"station_id":"st_d46cu089ee8s73dldbu0","pricing_plan_id":"cebpf4jnsgd1na2vs0mg"},{"bike_id":"524e5c32-cc52-44d7-b75b-ed948a46ef7c","system_id":"levelo_inurba_marseille","lat":43.29225,"lon":5.36035,"is_reserved":false,"is_disabled":false,"rental_uris":{"android":"levelo://app?vid=524e5c32-cc52-44d7-b75b-ed948a46ef7c","ios":"levelo://app?vid=524e5c32-cc52-44d7-b75b-ed948a46ef7c"},"vehicle_type_id":"4","last_reported":1769350261,"current_range_meters":4000,"station_id":"ce4bhbh2rcd13ifvqeqg","pricing_plan_id":"cebpf4jnsgd1na2vs0mg"},{"bike_id":"e40c7cca-9b46-456c-a02c-d2fd1fbf516a","system_id":"levelo_inurba_marseille","lat":43.29527,"lon":5.394,"is_reserved":false,"is_disabled":true,"rental_uris":{"android":"levelo://app?vid=e40c7cca-9b46-456c-a02c-d2fd1fbf516a","ios":"levelo://app?vid=e40c7cca-9b46-456c-a02c-d2fd1fbf516a"},"vehicle_type_id":"4","last_reported":1769350261,"current_range_meters":4000,"station_id":"ce4bh292rcd13ifvqdf0","pricing_plan_id":"cebpf4jnsgd1na2vs0mg"},{"bike_id":"a02f2e5a-7191-40fa-86c0-b0ed576ef2b0","system_id":"levelo_inurba_marseille","lat":43.26551,"lon":5.37282,"is_reserved":false,"is_disabled":false,"rental_uris":{"android":"levelo://app?vid=a02f2e5a-7191-40fa-86c0-b0ed576ef2b0","ios":"levelo://app?vid=a02f2e5a-7191-40fa-86c0-b0ed576ef2b0"},"vehicle_type_id":"4","last_reported":1769350261,"current_range_meters":4000,"station_id":"ce4bhg12rcd13ifvqf70","pricing_plan_id":"cebpf4jnsgd1na2vs0mg"},{"bike_id":"c7a54113-fb0e-4a3d-b2ef-a6b047f7eb24","system_id":"levelo_inurba_marseille","lat":43.29303,"lon":5.374453,"is_reserved":false,"is_disabled":false,"rental_uris":{"android":"levelo://app?vid=c7a54113-fb0e-4a3d-b2ef-a6b047f7eb24","ios":"levelo://app?vid=c7a54113-fb0e-4a3d-b2ef-a6b047f7eb24"},"vehicle_type_id":"4","last_reported":1769350261,"current_range_meters":4000,"station_id":"ce4bgi12rcd13ifvqb70","pricing_plan_id":"cebpf4jnsgd1na2vs0mg"},{"bike_id":"d23e957b-30e5-4310-998d-191d81d5f962","system_id":"levelo_inurba_marseille","lat":43.284704,"lon":5.388423,"is_reserved":false,"is_disabled":false,"rental_uris":{"android":"levelo://app?vid=d23e957b-30e5-4310-998d-191d81d5f962","ios":"levelo://app?vid=d23e957b-30e5-4310-998d-191d81d5f962"},"vehicle_type_id":"4","last_reported":1769350261,"current_range_meters":4000,"station_id":"","pricing_plan_id":"cebpf4jnsgd1na2vs0mg"},{"bike_id":"fb63610a-fe72-4b54-a4d5-a50dc0fb0118","system_id":"levelo_inurba_marseille","lat":43.24665,"lon":5.38165,"is_reserved":false,"is_disabled":false,"rental_uris":{"android":"levelo://app?vid=fb63610a-fe72-4b54-a4d5-a50dc0fb0118","ios":"levelo://app?vid=fb63610a-fe72-4b54-a4d5-a50dc0fb0118"},"vehicle_type_id":"4","last_reported":1769350261,"current_range_meters":4400,"station_id":"ce4bhih2rcd13ifvqfr0","pricing_plan_id":"cebpf4jnsgd1na2vs0mg"},{"bike_id":"fd9b2d1b-cdfa-4bcd-a2db-0d90de0d6b64","system_id":"levelo_inurba_marseille","lat":43.23158,"lon":5.43714,"is_reserved":false,"is_disabled":false,"rental_uris":{"android":"levelo://app?vid=fd9b2d1b-cdfa-4bcd-a2db-0d90de0d6b64","ios":"levelo://app?vid=fd9b2d1b-cdfa-4bcd-a2db-0d90de0d6b64"},"vehicle_type_id":"4","last_reported":1769350261,"current_range_meters":4400,"station_id":"ce4bhmp2rcd13ifvqgog","pricing_plan_id":"cebpf4jnsgd1na2vs0mg"},{"bike_id":"2143e1a4-986a-4cdc-8446-303e90396f4e","system_id":"levelo_inurba_marseille","lat":43.297048,"lon":5.366266,"is_reserved":false,"is_disabled":false,"rental_uris":{"android":"levelo://app?vid=2143e1a4-986a-4cdc-8446-303e90396f4e","ios":"levelo://app?vid=2143e1a4-986a-4cdc-8446-303e90396f4e"},"vehicle_type_id":"4","last_reported":1769350261,"current_range_meters":4400,"station_id":"ce4bgn12rcd13ifvqbt0","pricing_plan_id":"cebpf4jnsgd1na2vs0mg"},{"bike_id":"d1dacd96-19ac-49d7-b852-46d6fd78088b","system_id":"levelo_inurba_marseille","lat":43.27369,"lon":5.3626,"is_reserved":false,"is_disabled":false,"rental_uris":{"android":"levelo://app?vid=d1dacd96-19ac-49d7-b852-46d6fd78088b","ios":"levelo://app?vid=d1dacd96-19ac-49d7-b852-46d6fd78088b"},"vehicle_type_id":"4","last_reported":1769350261,"current_range_meters":4400,"station_id":"ce4bhbh2rcd13ifvqeo0","pricing_plan_id":"cebpf4jnsgd1na2vs0mg"},{"bike_id":"eed94034-a43d-4007-9bec-542daeb81a58","system_id":"levelo_inurba_marseille","lat":43.23783,"lon":5.36634,"is_reserved":false,"is_disabled":false,"rental_uris":{"android":"levelo://app?vid=eed94034-a43d-4007-9bec-542daeb81a58","ios":"levelo://app?vid=eed94034-a43d-4007-9bec-542daeb81a58"},"vehicle_type_id":"4","last_reported":1769350261,"current_range_meters":4400,"station_id":"st_d3nk18o9ro0c73en2l3g","pricing_plan_id":"cebpf4jnsgd1na2vs0mg"},{"bike_id":"377639e4-4fac-4759-af3b-e341921e8dff","system_id":"levelo_inurba_marseille","lat":43.21192,"lon":5.35072,"is_reserved":false,"is_disabled":false,"rental_uris":{"android":"levelo://app?vid=377639e4-4fac-4759-af3b-e341921e8dff","ios":"levelo://app?vid=377639e4-4fac-4759-af3b-e341921e8dff"},"vehicle_type_id":"4","last_reported":1769350261,"current_range_meters":4400,"station_id":"st_cvj6sg6p6f1abm77japg","pricing_plan_id":"cebpf4jnsgd1na2vs0mg"},{"bike_id":"f5ac4918-0ec2-4761-b7b6-0929b50d8bfd","system_id":"levelo_inurba_marseille","lat":43.28476,"lon":5.48397,"is_reserved":false,"is_disabled":false,"rental_uris":{"android":"levelo://app?vid=f5ac4918-0ec2-4761-b7b6-0929b50d8bfd","ios":"levelo://app?vid=f5ac4918-0ec2-4761-b7b6-0929b50d8bfd"},"vehicle_type_id":"4","last_reported":1769350261,"current_range_meters":4400,"station_id":"st_d3svhcjqgbts73a3dn0g","pricing_plan_id":"cebpf4jnsgd1na2vs0mg"},{"bike_id":"b04006f9-631a-4b60-8a1b-4e74f7abb446","system_id":"levelo_inurba_marseille","lat":43.267,"lon":5.38261,"is_reserved":false,"is_disabled":false,"rental_uris":{"android":"levelo://app?vid=b04006f9-631a-4b60-8a1b-4e74f7abb446","ios":"levelo://app?vid=b04006f9-631a-4b60-8a1b-4e74f7abb446"},"vehicle_type_id":"4","last_reported":1769350261,"current_range_meters":4400,"station_id":"ce4bhg92rcd13ifvqf90","pricing_plan_id":"cebpf4jnsgd1na2vs0mg"},{"bike_id":"58d2ae64-d77b-49b0-aa64-83302e76931b","system_id":"levelo_inurba_marseille","lat":43.2464,"lon":5.43156,"is_reserved":false,"is_disabled":false,"rental_uris":{"android":"levelo://app?vid=58d2ae64-d77b-49b0-aa64-83302e76931b","ios":"levelo://app?vid=58d2ae64-d77b-49b0-aa64-83302e76931b"},"vehicle_type_id":"4","last_reported":1769350261,"current_range_meters":4400,"station_id":"st_d2m6c4gdas8pm72e190g","pricing_plan_id":"cebpf4jnsgd1na2vs0mg"},{"bike_id":"5e58c2b9-4ef4-4ea2-a0ea-2600c1fbb3b9","system_id":"levelo_inurba_marseille","lat":43.28845,"lon":5.39312,"is_reserved":false,"is_disabled":false,"rental_uris":{"android":"levelo://app?vid=5e58c2b9-4ef4-4ea2-a0ea-2600c1fbb3b9","ios":"levelo://app?vid=5e58c2b9-4ef4-4ea2-a0ea-2600c1fbb3b9"},"vehicle_type_id":"4","last_reported":1769350261,"current_range_meters":4400,"station_id":"ce4bh2p2rcd13ifvqdi0","pricing_plan_id":"cebpf4jnsgd1na2vs0mg"},{"bike_id":"808f4e53-a8b8-4744-be76-00d5bcf647cd","system_id":"levelo_inurba_marseille","lat":43.29762,"lon":5.428,"is_reserved":false,"is_disabled":false,"rental_uris":{"android":"levelo://app?vid=808f4e53-a8b8-4744-be76-00d5bcf647cd","ios":"levelo://app?vid=808f4e53-a8b8-4744-be76-00d5bcf647cd"},"vehicle_type_id":"4","last_reported":1769350261,"current_range_meters":4400,"station_id":"st_d3md5207bmas73dh9klg","pricing_plan_id":"cebpf4jnsgd1na2vs0mg"},{"bike_id":"99eb9807-d90f-4c0b-a79a-902bc54010b6","system_id":"levelo_inurba_marseille","lat":43.25583,"lon":5.38231,"is_reserved":false,"is_disabled":false,"rental_uris":{"android":"levelo://app?vid=99eb9807-d90f-4c0b-a79a-902bc54010b6","ios":"levelo://app?vid=99eb9807-d90f-4c0b-a79a-902bc54010b6"},"vehicle_type_id":"4","last_reported":1769350261,"current_range_meters":4400,"station_id":"ce4bhih2rcd13ifvqfs0","pricing_plan_id":"cebpf4jnsgd1na2vs0mg"},{"bike_id":"3ac31546-aa7b-41f3-973e-d2564447229a","system_id":"levelo_inurba_marseille","lat":43.29611,"lon":5.37727,"is_reserved":false,"is_disabled":false,"rental_uris":{"android":"levelo://app?vid=3ac31546-aa7b-41f3-973e-d2564447229a","ios":"levelo://app?vid=3ac31546-aa7b-41f3-973e-d2564447229a"},"vehicle_type_id":"4","last_reported":1769350261,"current_range_meters":4800,"station_id":"ce4bgi92rcd13ifvqb90","pricing_plan_id":"cebpf4jnsgd1na2vs0mg"},{"bike_id":"7a4e3005-837e-4425-a268-ddb5f45bb9f3","system_id":"levelo_inurba_marseille","lat":43.24606,"lon":5.43107,"is_reserved":false,"is_disabled":false,"rental_uris":{"android":"levelo://app?vid=7a4e3005-837e-4425-a268-ddb5f45bb9f3","ios":"levelo://app?vid=7a4e3005-837e-4425-a268-ddb5f45bb9f3"},"vehicle_type_id":"4","last_reported":1769350261,"current_range_meters":4800,"station_id":"","pricing_plan_id":"cebpf4jnsgd1na2vs0mg"},{"bike_id":"2762ef31-30af-4622-8a7b-f8bc59330d3d","system_id":"levelo_inurba_marseille","lat":43.30188,"lon":5.37448,"is_reserved":false,"is_disabled":false,"rental_uris":{"android":"levelo://app?vid=2762ef31-30af-4622-8a7b-f8bc59330d3d","ios":"levelo://app?vid=2762ef31-30af-4622-8a7b-f8bc59330d3d"},"vehicle_type_id":"4","last_reported":1769350261,"current_range_meters":4800,"station_id":"","pricing_plan_id":"cebpf4jnsgd1na2vs0mg"},{"bike_id":"c8f043c8-a1cd-4533-8ac5-09a3aac34519","system_id":"levelo_inurba_marseille","lat":43.26569,"lon":5.37289,"is_reserved":false,"is_disabled":false,"rental_uris":{"android":"levelo://app?vid=c8f043c8-a1cd-4533-8ac5-09a3aac34519","ios":"levelo://app?vid=c8f043c8-a1cd-4533-8ac5-09a3aac34519"},"vehicle_type_id":"4","last_reported":1769350261,"current_range_meters":4800,"station_id":"ce4bhg12rcd13ifvqf70","pricing_plan_id":"cebpf4jnsgd1na2vs0mg"},{"bike_id":"60b6fefc-4fad-4e17-b7b7-9a9bb822d822","system_id":"levelo_inurba_marseille","lat":43.31719,"lon":5.42404,"is_reserved":false,"is_disabled":false,"rental_uris":{"android":"levelo://app?vid=60b6fefc-4fad-4e17-b7b7-9a9bb822d822","ios":"levelo://app?vid=60b6fefc-4fad-4e17-b7b7-9a9bb822d822"},"vehicle_type_id":"4","last_reported":1769350261,"current_range_meters":4800,"station_id":"ce4bhp92rcd13ifvqhbg","pricing_plan_id":"cebpf4jnsgd1na2vs0mg"},{"bike_id":"3770c2e9-8904-416b-a171-2857d4f07466","system_id":"levelo_inurba_marseille","lat":43.24389,"lon":5.37066,"is_reserved":false,"is_disabled":false,"rental_uris":{"android":"levelo://app?vid=3770c2e9-8904-416b-a171-2857d4f07466","ios":"levelo://app?vid=3770c2e9-8904-416b-a171-2857d4f07466"},"vehicle_type_id":"4","last_reported":1769350261,"current_range_meters":4800,"station_id":"ce4bhhh2rcd13ifvqfk0","pricing_plan_id":"cebpf4jnsgd1na2vs0mg"},{"bike_id":"d29df1d1-37d2-4810-a67d-1ac252fcb4e8","system_id":"levelo_inurba_marseille","lat":43.24182,"lon":5.36393,"is_reserved":false,"is_disabled":false,"rental_uris":{"android":"levelo://app?vid=d29df1d1-37d2-4810-a67d-1ac252fcb4e8","ios":"levelo://app?vid=d29df1d1-37d2-4810-a67d-1ac252fcb4e8"},"vehicle_type_id":"4","last_reported":1769350261,"current_range_meters":4800,"station_id":"cpo36qri1sfpv3e86is0","pricing_plan_id":"cebpf4jnsgd1na2vs0mg"},{"bike_id":"ba883ae6-41d0-430b-b2c5-fa8f015c672b","system_id":"levelo_inurba_marseille","lat":43.304845,"lon":5.41049,"is_reserved":false,"is_disabled":false,"rental_uris":{"android":"levelo://app?vid=ba883ae6-41d0-430b-b2c5-fa8f015c672b","ios":"levelo://app?vid=ba883ae6-41d0-430b-b2c5-fa8f015c672b"},"vehicle_type_id":"4","last_reported":1769350261,"current_range_meters":4800,"station_id":"","pricing_plan_id":"cebpf4jnsgd1na2vs0mg"},{"bike_id":"a646072a-fa73-4383-afeb-7969ad030c56","system_id":"levelo_inurba_marseille","lat":43.30152,"lon":5.38099,"is_reserved":false,"is_disabled":true,"rental_uris":{"android":"levelo://app?vid=a646072a-fa73-4383-afeb-7969ad030c56","ios":"levelo://app?vid=a646072a-fa73-4383-afeb-7969ad030c56"},"vehicle_type_id":"4","last_reported":1769350261,"current_range_meters":5600,"station_id":"ce4bgjp2rcd13ifvqbh0","pricing_plan_id":"cebpf4jnsgd1na2vs0mg"},{"bike_id":"c95e6f4f-dea5-4c8f-900f-ccf591c989cb","system_id":"levelo_inurba_marseille","lat":43.25824,"lon":5.39432,"is_reserved":false,"is_disabled":false,"rental_uris":{"android":"levelo://app?vid=c95e6f4f-dea5-4c8f-900f-ccf591c989cb","ios":"levelo://app?vid=c95e6f4f-dea5-4c8f-900f-ccf591c989cb"},"vehicle_type_id":"4","last_reported":1769350261,"current_range_meters":5600,"station_id":"ce4bhip2rcd13ifvqft0","pricing_plan_id":"cebpf4jnsgd1na2vs0mg"},{"bike_id":"7fbd08ac-4873-40ce-8348-00e50d4fd738","system_id":"levelo_inurba_marseille","lat":43.27167,"lon":5.40974,"is_reserved":false,"is_disabled":false,"rental_uris":{"android":"levelo://app?vid=7fbd08ac-4873-40ce-8348-00e50d4fd738","ios":"levelo://app?vid=7fbd08ac-4873-40ce-8348-00e50d4fd738"},"vehicle_type_id":"4","last_reported":1769350261,"current_range_meters":5600,"station_id":"ce4bhl12rcd13ifvqgf0","pricing_plan_id":"cebpf4jnsgd1na2vs0mg"},{"bike_id":"e46d8a17-af5a-42e0-b036-cb3c86080336","system_id":"levelo_inurba_marseille","lat":43.24467,"lon":5.42534,"is_reserved":false,"is_disabled":false,"rental_uris":{"android":"levelo://app?vid=e46d8a17-af5a-42e0-b036-cb3c86080336","ios":"levelo://app?vid=e46d8a17-af5a-42e0-b036-cb3c86080336"},"vehicle_type_id":"4","last_reported":1769350261,"current_range_meters":5600,"station_id":"st_d4a3vfp97mjs738cd8kg","pricing_plan_id":"cebpf4jnsgd1na2vs0mg"},{"bike_id":"3280b8e4-10d6-4ed2-b323-4ba5cc066069","system_id":"levelo_inurba_marseille","lat":43.2621,"lon":5.37445,"is_reserved":false,"is_disabled":false,"rental_uris":{"android":"levelo://app?vid=3280b8e4-10d6-4ed2-b323-4ba5cc066069","ios":"levelo://app?vid=3280b8e4-10d6-4ed2-b323-4ba5cc066069"},"vehicle_type_id":"4","last_reported":1769350261,"current_range_meters":5600,"station_id":"ce4bhgp2rcd13ifvqfc0","pricing_plan_id":"cebpf4jnsgd1na2vs0mg"},{"bike_id":"48f40c82-bbad-4ae0-9613-f836906f3c71","system_id":"levelo_inurba_marseille","lat":43.28096,"lon":5.43176,"is_reserved":false,"is_disabled":false,"rental_uris":{"android":"levelo://app?vid=48f40c82-bbad-4ae0-9613-f836906f3c71","ios":"levelo://app?vid=48f40c82-bbad-4ae0-9613-f836906f3c71"},"vehicle_type_id":"4","last_reported":1769350261,"current_range_meters":5600,"station_id":"","pricing_plan_id":"cebpf4jnsgd1na2vs0mg"},{"bike_id":"a0c33308-b90a-484c-a006-c19b20a52375","system_id":"levelo_inurba_marseille","lat":43.26204,"lon":5.40453,"is_reserved":false,"is_disabled":false,"rental_uris":{"android":"levelo://app?vid=a0c33308-b90a-484c-a006-c19b20a52375","ios":"levelo://app?vid=a0c33308-b90a-484c-a006-c19b20a52375"},"vehicle_type_id":"4","last_reported":1769350261,"current_range_meters":5600,"station_id":"ce4bhmh2rcd13ifvqgmg","pricing_plan_id":"cebpf4jnsgd1na2vs0mg"},{"bike_id":"3018bd0f-1eb9-47af-8fda-422f2be35d9a","system_id":"levelo_inurba_marseille","lat":43.21195,"lon":5.35074,"is_reserved":false,"is_disabled":false,"rental_uris":{"android":"levelo://app?vid=3018bd0f-1eb9-47af-8fda-422f2be35d9a","ios":"levelo://app?vid=3018bd0f-1eb9-47af-8fda-422f2be35d9a"},"vehicle_type_id":"4","last_reported":1769350261,"current_range_meters":5600,"station_id":"st_cvj6sg6p6f1abm77japg","pricing_plan_id":"cebpf4jnsgd1na2vs0mg"},{"bike_id":"090d68fd-b8f6-42aa-a688-f39ed4d39c2d","system_id":"levelo_inurba_marseille","lat":43.22566,"lon":5.41614,"is_reserved":false,"is_disabled":false,"rental_uris":{"android":"levelo://app?vid=090d68fd-b8f6-42aa-a688-f39ed4d39c2d","ios":"levelo://app?vid=090d68fd-b8f6-42aa-a688-f39ed4d39c2d"},"vehicle_type_id":"4","last_reported":1769350261,"current_range_meters":5600,"station_id":"st_d2o4gvlbi1j2169b742g","pricing_plan_id":"cebpf4jnsgd1na2vs0mg"},{"bike_id":"a5c23cb4-437e-48b1-b139-2ef4a50607e4","system_id":"levelo_inurba_marseille","lat":43.295712,"lon":5.3752,"is_reserved":false,"is_disabled":false,"rental_uris":{"android":"levelo://app?vid=a5c23cb4-437e-48b1-b139-2ef4a50607e4","ios":"levelo://app?vid=a5c23cb4-437e-48b1-b139-2ef4a50607e4"},"vehicle_type_id":"4","last_reported":1769350261,"current_range_meters":5600,"station_id":"","pricing_plan_id":"cebpf4jnsgd1na2vs0mg"},{"bike_id":"7629252c-156a-4bf1-863c-32eb0412afe3","system_id":"levelo_inurba_marseille","lat":43.28263,"lon":5.3508,"is_reserved":false,"is_disabled":false,"rental_uris":{"android":"levelo://app?vid=7629252c-156a-4bf1-863c-32eb0412afe3","ios":"levelo://app?vid=7629252c-156a-4bf1-863c-32eb0412afe3"},"vehicle_type_id":"4","last_reported":1769350261,"current_range_meters":5600,"station_id":"ce4bhbp2rcd13ifvqerg","pricing_plan_id":"cebpf4jnsgd1na2vs0mg"},{"bike_id":"627484a0-96e5-46ea-8b11-4a9f09e54be7","system_id":"levelo_inurba_marseille","lat":43.24439,"lon":5.37011,"is_reserved":false,"is_disabled":false,"rental_uris":{"android":"levelo://app?vid=627484a0-96e5-46ea-8b11-4a9f09e54be7","ios":"levelo://app?vid=627484a0-96e5-46ea-8b11-4a9f09e54be7"},"vehicle_type_id":"4","last_reported":1769350261,"current_range_meters":5600,"station_id":"","pricing_plan_id":"cebpf4jnsgd1na2vs0mg"},{"bike_id":"197c96fb-ff98-4f78-96d8-cccdc3d2d87f","system_id":"levelo_inurba_marseille","lat":43.292846,"lon":5.384867,"is_reserved":false,"is_disabled":false,"rental_uris":{"android":"levelo://app?vid=197c96fb-ff98-4f78-96d8-cccdc3d2d87f","ios":"levelo://app?vid=197c96fb-ff98-4f78-96d8-cccdc3d2d87f"},"vehicle_type_id":"4","last_reported":1769350261,"current_range_meters":5600,"station_id":"ce4bh692rcd13ifvqea0","pricing_plan_id":"cebpf4jnsgd1na2vs0mg"},{"bike_id":"9b68a835-4908-47e0-be7f-016e8a7a1457","system_id":"levelo_inurba_marseille","lat":43.243911,"lon":5.370717,"is_reserved":false,"is_disabled":false,"rental_uris":{"android":"levelo://app?vid=9b68a835-4908-47e0-be7f-016e8a7a1457","ios":"levelo://app?vid=9b68a835-4908-47e0-be7f-016e8a7a1457"},"vehicle_type_id":"4","last_reported":1769350261,"current_range_meters":5600,"station_id":"ce4bhhh2rcd13ifvqfk0","pricing_plan_id":"cebpf4jnsgd1na2vs0mg"},{"bike_id":"911dde9e-d8c0-4539-8929-00ee6940e8f5","system_id":"levelo_inurba_marseille","lat":43.24082,"lon":5.37756,"is_reserved":false,"is_disabled":false,"rental_uris":{"android":"levelo://app?vid=911dde9e-d8c0-4539-8929-00ee6940e8f5","ios":"levelo://app?vid=911dde9e-d8c0-4539-8929-00ee6940e8f5"},"vehicle_type_id":"4","last_reported":1769350261,"current_range_meters":5600,"station_id":"ce4bhnp2rcd13ifvqgvg","pricing_plan_id":"cebpf4jnsgd1na2vs0mg"},{"bike_id":"104053da-3b96-42a0-93f4-03a3bdb1e06f","system_id":"levelo_inurba_marseille","lat":43.23204,"lon":5.35567,"is_reserved":false,"is_disabled":false,"rental_uris":{"android":"levelo://app?vid=104053da-3b96-42a0-93f4-03a3bdb1e06f","ios":"levelo://app?vid=104053da-3b96-42a0-93f4-03a3bdb1e06f"},"vehicle_type_id":"4","last_reported":1769350261,"current_range_meters":6000,"station_id":"ce4bhu92rcd13ifvqi70","pricing_plan_id":"cebpf4jnsgd1na2vs0mg"},{"bike_id":"93ab0b09-3788-4ed0-9e09-5a2c1171d432","system_id":"levelo_inurba_marseille","lat":43.295837,"lon":5.367393,"is_reserved":false,"is_disabled":false,"rental_uris":{"android":"levelo://app?vid=93ab0b09-3788-4ed0-9e09-5a2c1171d432","ios":"levelo://app?vid=93ab0b09-3788-4ed0-9e09-5a2c1171d432"},"vehicle_type_id":"4","last_reported":1769350261,"current_range_meters":6000,"station_id":"ce4bgph2rcd13ifvqc2g","pricing_plan_id":"cebpf4jnsgd1na2vs0mg"},{"bike_id":"6ebd8131-5347-4093-8c87-e0c7d5276e14","system_id":"levelo_inurba_marseille","lat":43.22558,"lon":5.41631,"is_reserved":false,"is_disabled":false,"rental_uris":{"android":"levelo://app?vid=6ebd8131-5347-4093-8c87-e0c7d5276e14","ios":"levelo://app?vid=6ebd8131-5347-4093-8c87-e0c7d5276e14"},"vehicle_type_id":"4","last_reported":1769350261,"current_range_meters":6000,"station_id":"st_d2o4gvlbi1j2169b742g","pricing_plan_id":"cebpf4jnsgd1na2vs0mg"},{"bike_id":"b18b7c7b-dbe2-44bf-813a-828aad8a41bb","system_id":"levelo_inurba_marseille","lat":43.28264,"lon":5.35042,"is_reserved":false,"is_disabled":false,"rental_uris":{"android":"levelo://app?vid=b18b7c7b-dbe2-44bf-813a-828aad8a41bb","ios":"levelo://app?vid=b18b7c7b-dbe2-44bf-813a-828aad8a41bb"},"vehicle_type_id":"4","last_reported":1769350261,"current_range_meters":6000,"station_id":"","pricing_plan_id":"cebpf4jnsgd1na2vs0mg"},{"bike_id":"e07e68dd-c898-432c-ba3f-2dae4d6b1eb0","system_id":"levelo_inurba_marseille","lat":43.2605,"lon":5.39382,"is_reserved":false,"is_disabled":false,"rental_uris":{"android":"levelo://app?vid=e07e68dd-c898-432c-ba3f-2dae4d6b1eb0","ios":"levelo://app?vid=e07e68dd-c898-432c-ba3f-2dae4d6b1eb0"},"vehicle_type_id":"4","last_reported":1769350261,"current_range_meters":6000,"station_id":"ce4bhh92rcd13ifvqfj0","pricing_plan_id":"cebpf4jnsgd1na2vs0mg"},{"bike_id":"531078e9-e6ae-426d-a507-48f287cdb17b","system_id":"levelo_inurba_marseille","lat":43.24657,"lon":5.38154,"is_reserved":false,"is_disabled":false,"rental_uris":{"android":"levelo://app?vid=531078e9-e6ae-426d-a507-48f287cdb17b","ios":"levelo://app?vid=531078e9-e6ae-426d-a507-48f287cdb17b"},"vehicle_type_id":"4","last_reported":1769350261,"current_range_meters":6000,"station_id":"ce4bhih2rcd13ifvqfr0","pricing_plan_id":"cebpf4jnsgd1na2vs0mg"},{"bike_id":"3235332e-62b7-4af0-86cc-1c50d37c92c8","system_id":"levelo_inurba_marseille","lat":43.29576,"lon":5.37511,"is_reserved":false,"is_disabled":false,"rental_uris":{"android":"levelo://app?vid=3235332e-62b7-4af0-86cc-1c50d37c92c8","ios":"levelo://app?vid=3235332e-62b7-4af0-86cc-1c50d37c92c8"},"vehicle_type_id":"4","last_reported":1769350261,"current_range_meters":6000,"station_id":"ce4bgh92rcd13ifvqb50","pricing_plan_id":"cebpf4jnsgd1na2vs0mg"},{"bike_id":"54ed4826-c164-4d0c-b8fd-d71b17e3eafb","system_id":"levelo_inurba_marseille","lat":43.30541,"lon":5.36542,"is_reserved":false,"is_disabled":false,"rental_uris":{"android":"levelo://app?vid=54ed4826-c164-4d0c-b8fd-d71b17e3eafb","ios":"levelo://app?vid=54ed4826-c164-4d0c-b8fd-d71b17e3eafb"},"vehicle_type_id":"4","last_reported":1769350261,"current_range_meters":6000,"station_id":"ce4bgs12rcd13ifvqcag","pricing_plan_id":"cebpf4jnsgd1na2vs0mg"},{"bike_id":"711b6451-3b81-4dd2-8591-37e710d5b943","system_id":"levelo_inurba_marseille","lat":43.28474,"lon":5.48399,"is_reserved":false,"is_disabled":false,"rental_uris":{"android":"levelo://app?vid=711b6451-3b81-4dd2-8591-37e710d5b943","ios":"levelo://app?vid=711b6451-3b81-4dd2-8591-37e710d5b943"},"vehicle_type_id":"4","last_reported":1769350261,"current_range_meters":6000,"station_id":"","pricing_plan_id":"cebpf4jnsgd1na2vs0mg"},{"bike_id":"7e2d262a-7a5b-4c65-a5c9-e5ae5dd79d6d","system_id":"levelo_inurba_marseille","lat":43.28607,"lon":5.37067,"is_reserved":false,"is_disabled":false,"rental_uris":{"android":"levelo://app?vid=7e2d262a-7a5b-4c65-a5c9-e5ae5dd79d6d","ios":"levelo://app?vid=7e2d262a-7a5b-4c65-a5c9-e5ae5dd79d6d"},"vehicle_type_id":"4","last_reported":1769350261,"current_range_meters":6000,"station_id":"ce4bht12rcd13ifvqi60","pricing_plan_id":"cebpf4jnsgd1na2vs0mg"},{"bike_id":"ad0c68ff-1b4b-4539-86bb-575a390e84ff","system_id":"levelo_inurba_marseille","lat":43.22931,"lon":5.35371,"is_reserved":false,"is_disabled":false,"rental_uris":{"android":"levelo://app?vid=ad0c68ff-1b4b-4539-86bb-575a390e84ff","ios":"levelo://app?vid=ad0c68ff-1b4b-4539-86bb-575a390e84ff"},"vehicle_type_id":"4","last_reported":1769350261,"current_range_meters":6000,"station_id":"cpo3532slgdg3j2ikp40","pricing_plan_id":"cebpf4jnsgd1na2vs0mg"},{"bike_id":"c9e11a52-5cfd-48c3-b05d-b52bc195f72b","system_id":"levelo_inurba_marseille","lat":43.21749,"lon":5.34598,"is_reserved":false,"is_disabled":false,"rental_uris":{"android":"levelo://app?vid=c9e11a52-5cfd-48c3-b05d-b52bc195f72b","ios":"levelo://app?vid=c9e11a52-5cfd-48c3-b05d-b52bc195f72b"},"vehicle_type_id":"4","last_reported":1769350261,"current_range_meters":6000,"station_id":"st_cvj6r9ubvosntc0bgbag","pricing_plan_id":"cebpf4jnsgd1na2vs0mg"},{"bike_id":"4b61dc4d-18dc-4d4f-89ba-f3d6dd7633e1","system_id":"levelo_inurba_marseille","lat":43.23154,"lon":5.43705,"is_reserved":false,"is_disabled":false,"rental_uris":{"android":"levelo://app?vid=4b61dc4d-18dc-4d4f-89ba-f3d6dd7633e1","ios":"levelo://app?vid=4b61dc4d-18dc-4d4f-89ba-f3d6dd7633e1"},"vehicle_type_id":"4","last_reported":1769350261,"current_range_meters":6000,"station_id":"ce4bhmp2rcd13ifvqgog","pricing_plan_id":"cebpf4jnsgd1na2vs0mg"},{"bike_id":"b63362d9-5612-4ee2-9f31-83089fb30059","system_id":"levelo_inurba_marseille","lat":43.299814,"lon":5.371787,"is_reserved":false,"is_disabled":false,"rental_uris":{"android":"levelo://app?vid=b63362d9-5612-4ee2-9f31-83089fb30059","ios":"levelo://app?vid=b63362d9-5612-4ee2-9f31-83089fb30059"},"vehicle_type_id":"4","last_reported":1769350261,"current_range_meters":6000,"station_id":"ce4bgr92rcd13ifvqc7g","pricing_plan_id":"cebpf4jnsgd1na2vs0mg"},{"bike_id":"0d4ee947-5e35-463d-a0c7-52d217276634","system_id":"levelo_inurba_marseille","lat":43.30196,"lon":5.39406,"is_reserved":false,"is_disabled":false,"rental_uris":{"android":"levelo://app?vid=0d4ee947-5e35-463d-a0c7-52d217276634","ios":"levelo://app?vid=0d4ee947-5e35-463d-a0c7-52d217276634"},"vehicle_type_id":"4","last_reported":1769350261,"current_range_meters":6400,"station_id":"","pricing_plan_id":"cebpf4jnsgd1na2vs0mg"},{"bike_id":"f8d6a6e0-1d68-4650-a94d-f633bf8c4370","system_id":"levelo_inurba_marseille","lat":43.237818,"lon":5.366301,"is_reserved":false,"is_disabled":false,"rental_uris":{"android":"levelo://app?vid=f8d6a6e0-1d68-4650-a94d-f633bf8c4370","ios":"levelo://app?vid=f8d6a6e0-1d68-4650-a94d-f633bf8c4370"},"vehicle_type_id":"4","last_reported":1769350261,"current_range_meters":6400,"station_id":"st_d3nk18o9ro0c73en2l3g","pricing_plan_id":"cebpf4jnsgd1na2vs0mg"},{"bike_id":"993c6494-f17c-4ae2-b2c9-33e36265140e","system_id":"levelo_inurba_marseille","lat":43.24391,"lon":5.37066,"is_reserved":false,"is_disabled":false,"rental_uris":{"android":"levelo://app?vid=993c6494-f17c-4ae2-b2c9-33e36265140e","ios":"levelo://app?vid=993c6494-f17c-4ae2-b2c9-33e36265140e"},"vehicle_type_id":"4","last_reported":1769350261,"current_range_meters":6400,"station_id":"ce4bhhh2rcd13ifvqfk0","pricing_plan_id":"cebpf4jnsgd1na2vs0mg"},{"bike_id":"166d5b45-cde6-4022-a17c-499d5e03c2b0","system_id":"levelo_inurba_marseille","lat":43.2693,"lon":5.38937,"is_reserved":false,"is_disabled":false,"rental_uris":{"android":"levelo://app?vid=166d5b45-cde6-4022-a17c-499d5e03c2b0","ios":"levelo://app?vid=166d5b45-cde6-4022-a17c-499d5e03c2b0"},"vehicle_type_id":"4","last_reported":1769350261,"current_range_meters":6400,"station_id":"ce4bhhh2rcd13ifvqfl0","pricing_plan_id":"cebpf4jnsgd1na2vs0mg"},{"bike_id":"3acd5e62-3c65-4415-bcb0-7f611786b59c","system_id":"levelo_inurba_marseille","lat":43.27376,"lon":5.36251,"is_reserved":false,"is_disabled":false,"rental_uris":{"android":"levelo://app?vid=3acd5e62-3c65-4415-bcb0-7f611786b59c","ios":"levelo://app?vid=3acd5e62-3c65-4415-bcb0-7f611786b59c"},"vehicle_type_id":"4","last_reported":1769350261,"current_range_meters":6400,"station_id":"ce4bhbh2rcd13ifvqeo0","pricing_plan_id":"cebpf4jnsgd1na2vs0mg"},{"bike_id":"be0bec5d-6a51-48e3-9e38-02f373851ab8","system_id":"levelo_inurba_marseille","lat":43.2961,"lon":5.37716,"is_reserved":false,"is_disabled":false,"rental_uris":{"android":"levelo://app?vid=be0bec5d-6a51-48e3-9e38-02f373851ab8","ios":"levelo://app?vid=be0bec5d-6a51-48e3-9e38-02f373851ab8"},"vehicle_type_id":"4","last_reported":1769350261,"current_range_meters":6400,"station_id":"ce4bgi92rcd13ifvqb90","pricing_plan_id":"cebpf4jnsgd1na2vs0mg"},{"bike_id":"30154970-94c6-4a36-ac5d-d02ce2b1d0c4","system_id":"levelo_inurba_marseille","lat":43.24462,"lon":5.42533,"is_reserved":false,"is_disabled":false,"rental_uris":{"android":"levelo://app?vid=30154970-94c6-4a36-ac5d-d02ce2b1d0c4","ios":"levelo://app?vid=30154970-94c6-4a36-ac5d-d02ce2b1d0c4"},"vehicle_type_id":"4","last_reported":1769350261,"current_range_meters":6400,"station_id":"st_d4a3vfp97mjs738cd8kg","pricing_plan_id":"cebpf4jnsgd1na2vs0mg"},{"bike_id":"e336a442-3795-46b7-b3aa-60feff443ec2","system_id":"levelo_inurba_marseille","lat":43.25114,"lon":5.40327,"is_reserved":false,"is_disabled":true,"rental_uris":{"android":"levelo://app?vid=e336a442-3795-46b7-b3aa-60feff443ec2","ios":"levelo://app?vid=e336a442-3795-46b7-b3aa-60feff443ec2"},"vehicle_type_id":"4","last_reported":1769350261,"current_range_meters":6400,"station_id":"ce4bhlh2rcd13ifvqgig","pricing_plan_id":"cebpf4jnsgd1na2vs0mg"},{"bike_id":"7bc3f1ae-8bb1-4af7-b880-bd03744e84da","system_id":"levelo_inurba_marseille","lat":43.2827,"lon":5.35058,"is_reserved":false,"is_disabled":false,"rental_uris":{"android":"levelo://app?vid=7bc3f1ae-8bb1-4af7-b880-bd03744e84da","ios":"levelo://app?vid=7bc3f1ae-8bb1-4af7-b880-bd03744e84da"},"vehicle_type_id":"4","last_reported":1769350261,"current_range_meters":6400,"station_id":"ce4bhbp2rcd13ifvqerg","pricing_plan_id":"cebpf4jnsgd1na2vs0mg"},{"bike_id":"2183c868-18bc-43ee-94a6-b4cdb3d84f43","system_id":"levelo_inurba_marseille","lat":43.29045,"lon":5.38108,"is_reserved":false,"is_disabled":true,"rental_uris":{"android":"levelo://app?vid=2183c868-18bc-43ee-94a6-b4cdb3d84f43","ios":"levelo://app?vid=2183c868-18bc-43ee-94a6-b4cdb3d84f43"},"vehicle_type_id":"4","last_reported":1769350261,"current_range_meters":6400,"station_id":"ce4bh4p2rcd13ifvqe1g","pricing_plan_id":"cebpf4jnsgd1na2vs0mg"},{"bike_id":"dd369fb3-6a29-4c8b-9c32-c4dbeada70f4","system_id":"levelo_inurba_marseille","lat":43.22555,"lon":5.41629,"is_reserved":false,"is_disabled":false,"rental_uris":{"android":"levelo://app?vid=dd369fb3-6a29-4c8b-9c32-c4dbeada70f4","ios":"levelo://app?vid=dd369fb3-6a29-4c8b-9c32-c4dbeada70f4"},"vehicle_type_id":"4","last_reported":1769350261,"current_range_meters":6400,"station_id":"st_d2o4gvlbi1j2169b742g","pricing_plan_id":"cebpf4jnsgd1na2vs0mg"},{"bike_id":"07e64c0a-8153-47c6-83e2-2e049e2bc39b","system_id":"levelo_inurba_marseille","lat":43.31992,"lon":5.38145,"is_reserved":false,"is_disabled":false,"rental_uris":{"android":"levelo://app?vid=07e64c0a-8153-47c6-83e2-2e049e2bc39b","ios":"levelo://app?vid=07e64c0a-8153-47c6-83e2-2e049e2bc39b"},"vehicle_type_id":"4","last_reported":1769350261,"current_range_meters":6400,"station_id":"ce4bhr12rcd13ifvqhpg","pricing_plan_id":"cebpf4jnsgd1na2vs0mg"},{"bike_id":"96302a42-8b4c-41b4-a060-49781a752fc8","system_id":"levelo_inurba_marseille","lat":43.28858,"lon":5.35856,"is_reserved":false,"is_disabled":false,"rental_uris":{"android":"levelo://app?vid=96302a42-8b4c-41b4-a060-49781a752fc8","ios":"levelo://app?vid=96302a42-8b4c-41b4-a060-49781a752fc8"},"vehicle_type_id":"4","last_reported":1769350261,"current_range_meters":6400,"station_id":"ce4bhb12rcd13ifvqem0","pricing_plan_id":"cebpf4jnsgd1na2vs0mg"},{"bike_id":"70b69e2c-3a2e-4470-a76a-d6e19e5dde52","system_id":"levelo_inurba_marseille","lat":43.23144,"lon":5.43717,"is_reserved":false,"is_disabled":false,"rental_uris":{"android":"levelo://app?vid=70b69e2c-3a2e-4470-a76a-d6e19e5dde52","ios":"levelo://app?vid=70b69e2c-3a2e-4470-a76a-d6e19e5dde52"},"vehicle_type_id":"4","last_reported":1769350261,"current_range_meters":6400,"station_id":"ce4bhmp2rcd13ifvqgog","pricing_plan_id":"cebpf4jnsgd1na2vs0mg"},{"bike_id":"c101c5e7-a92c-4262-9de4-730cf3520d3e","system_id":"levelo_inurba_marseille","lat":43.24385,"lon":5.37044,"is_reserved":false,"is_disabled":false,"rental_uris":{"android":"levelo://app?vid=c101c5e7-a92c-4262-9de4-730cf3520d3e","ios":"levelo://app?vid=c101c5e7-a92c-4262-9de4-730cf3520d3e"},"vehicle_type_id":"4","last_reported":1769350261,"current_range_meters":6800,"station_id":"ce4bhhh2rcd13ifvqfk0","pricing_plan_id":"cebpf4jnsgd1na2vs0mg"},{"bike_id":"45f2dae3-47ea-42d1-b786-fb73f88efb15","system_id":"levelo_inurba_marseille","lat":43.26779,"lon":5.39419,"is_reserved":false,"is_disabled":false,"rental_uris":{"android":"levelo://app?vid=45f2dae3-47ea-42d1-b786-fb73f88efb15","ios":"levelo://app?vid=45f2dae3-47ea-42d1-b786-fb73f88efb15"},"vehicle_type_id":"4","last_reported":1769350261,"current_range_meters":6800,"station_id":"ce4bhh12rcd13ifvqfg0","pricing_plan_id":"cebpf4jnsgd1na2vs0mg"},{"bike_id":"beaf6404-9429-46bc-9deb-19ea94aebd8a","system_id":"levelo_inurba_marseille","lat":43.2637,"lon":5.41073,"is_reserved":false,"is_disabled":false,"rental_uris":{"android":"levelo://app?vid=beaf6404-9429-46bc-9deb-19ea94aebd8a","ios":"levelo://app?vid=beaf6404-9429-46bc-9deb-19ea94aebd8a"},"vehicle_type_id":"4","last_reported":1769350261,"current_range_meters":6800,"station_id":"st_d4e5ca6na9uc73bfl5fg","pricing_plan_id":"cebpf4jnsgd1na2vs0mg"},{"bike_id":"d9f9e2b2-54af-40ae-afc9-4710e408f281","system_id":"levelo_inurba_marseille","lat":43.2949,"lon":5.43309,"is_reserved":false,"is_disabled":false,"rental_uris":{"android":"levelo://app?vid=d9f9e2b2-54af-40ae-afc9-4710e408f281","ios":"levelo://app?vid=d9f9e2b2-54af-40ae-afc9-4710e408f281"},"vehicle_type_id":"4","last_reported":1769350261,"current_range_meters":6800,"station_id":"st_d3j5ugp08ojc73fj9d10","pricing_plan_id":"cebpf4jnsgd1na2vs0mg"},{"bike_id":"d7503130-10c8-43b2-8297-d9e107b1270f","system_id":"levelo_inurba_marseille","lat":43.30531,"lon":5.36657,"is_reserved":false,"is_disabled":false,"rental_uris":{"android":"levelo://app?vid=d7503130-10c8-43b2-8297-d9e107b1270f","ios":"levelo://app?vid=d7503130-10c8-43b2-8297-d9e107b1270f"},"vehicle_type_id":"4","last_reported":1769350261,"current_range_meters":6800,"station_id":"ce4bgrp2rcd13ifvqc9g","pricing_plan_id":"cebpf4jnsgd1na2vs0mg"},{"bike_id":"67a80a29-3730-47f9-a49d-4110e1150c8d","system_id":"levelo_inurba_marseille","lat":43.2511,"lon":5.40321,"is_reserved":false,"is_disabled":false,"rental_uris":{"android":"levelo://app?vid=67a80a29-3730-47f9-a49d-4110e1150c8d","ios":"levelo://app?vid=67a80a29-3730-47f9-a49d-4110e1150c8d"},"vehicle_type_id":"4","last_reported":1769350261,"current_range_meters":6800,"station_id":"ce4bhlh2rcd13ifvqgig","pricing_plan_id":"cebpf4jnsgd1na2vs0mg"},{"bike_id":"b9917ecd-02a8-40e9-a0d0-4758759eb040","system_id":"levelo_inurba_marseille","lat":43.2455,"lon":5.37347,"is_reserved":false,"is_disabled":false,"rental_uris":{"android":"levelo://app?vid=b9917ecd-02a8-40e9-a0d0-4758759eb040","ios":"levelo://app?vid=b9917ecd-02a8-40e9-a0d0-4758759eb040"},"vehicle_type_id":"4","last_reported":1769350261,"current_range_meters":6800,"station_id":"","pricing_plan_id":"cebpf4jnsgd1na2vs0mg"},{"bike_id":"43ace758-19e2-45f5-81d3-4d0e67cb2c4e","system_id":"levelo_inurba_marseille","lat":43.237907,"lon":5.366389,"is_reserved":false,"is_disabled":false,"rental_uris":{"android":"levelo://app?vid=43ace758-19e2-45f5-81d3-4d0e67cb2c4e","ios":"levelo://app?vid=43ace758-19e2-45f5-81d3-4d0e67cb2c4e"},"vehicle_type_id":"4","last_reported":1769350261,"current_range_meters":6800,"station_id":"st_d3nk18o9ro0c73en2l3g","pricing_plan_id":"cebpf4jnsgd1na2vs0mg"},{"bike_id":"7e036456-a386-4efb-94df-0183fba99584","system_id":"levelo_inurba_marseille","lat":43.24664,"lon":5.38158,"is_reserved":false,"is_disabled":false,"rental_uris":{"android":"levelo://app?vid=7e036456-a386-4efb-94df-0183fba99584","ios":"levelo://app?vid=7e036456-a386-4efb-94df-0183fba99584"},"vehicle_type_id":"4","last_reported":1769350261,"current_range_meters":6800,"station_id":"ce4bhih2rcd13ifvqfr0","pricing_plan_id":"cebpf4jnsgd1na2vs0mg"},{"bike_id":"9d2027e1-e176-4e2c-b17a-c8e2a4596f6b","system_id":"levelo_inurba_marseille","lat":43.27211,"lon":5.39183,"is_reserved":false,"is_disabled":false,"rental_uris":{"android":"levelo://app?vid=9d2027e1-e176-4e2c-b17a-c8e2a4596f6b","ios":"levelo://app?vid=9d2027e1-e176-4e2c-b17a-c8e2a4596f6b"},"vehicle_type_id":"4","last_reported":1769350261,"current_range_meters":6800,"station_id":"ce4bhhp2rcd13ifvqfm0","pricing_plan_id":"cebpf4jnsgd1na2vs0mg"},{"bike_id":"e37635fc-f444-443f-b34b-42c9fda13929","system_id":"levelo_inurba_marseille","lat":43.290943,"lon":5.381218,"is_reserved":false,"is_disabled":false,"rental_uris":{"android":"levelo://app?vid=e37635fc-f444-443f-b34b-42c9fda13929","ios":"levelo://app?vid=e37635fc-f444-443f-b34b-42c9fda13929"},"vehicle_type_id":"4","last_reported":1769350261,"current_range_meters":7200,"station_id":"ce4bh512rcd13ifvqe2g","pricing_plan_id":"cebpf4jnsgd1na2vs0mg"},{"bike_id":"965df6b7-673a-4e5d-9ee5-eda9741e28cb","system_id":"levelo_inurba_marseille","lat":43.303218,"lon":5.368926,"is_reserved":false,"is_disabled":false,"rental_uris":{"android":"levelo://app?vid=965df6b7-673a-4e5d-9ee5-eda9741e28cb","ios":"levelo://app?vid=965df6b7-673a-4e5d-9ee5-eda9741e28cb"},"vehicle_type_id":"4","last_reported":1769350261,"current_range_meters":7200,"station_id":"ce4bgqh2rcd13ifvqc5g","pricing_plan_id":"cebpf4jnsgd1na2vs0mg"},{"bike_id":"bfad4fe9-de3e-43c4-a41e-9324488c84ff","system_id":"levelo_inurba_marseille","lat":43.24807,"lon":5.40124,"is_reserved":false,"is_disabled":false,"rental_uris":{"android":"levelo://app?vid=bfad4fe9-de3e-43c4-a41e-9324488c84ff","ios":"levelo://app?vid=bfad4fe9-de3e-43c4-a41e-9324488c84ff"},"vehicle_type_id":"4","last_reported":1769350261,"current_range_meters":7200,"station_id":"","pricing_plan_id":"cebpf4jnsgd1na2vs0mg"},{"bike_id":"677ec20b-f7d8-44df-8a04-d7f0a2daa65b","system_id":"levelo_inurba_marseille","lat":43.288675,"lon":5.425126,"is_reserved":false,"is_disabled":false,"rental_uris":{"android":"levelo://app?vid=677ec20b-f7d8-44df-8a04-d7f0a2daa65b","ios":"levelo://app?vid=677ec20b-f7d8-44df-8a04-d7f0a2daa65b"},"vehicle_type_id":"4","last_reported":1769350261,"current_range_meters":7200,"station_id":"st_d3b462108ojc7389ooeg","pricing_plan_id":"cebpf4jnsgd1na2vs0mg"},{"bike_id":"d29f1bfe-9dad-41a4-9790-cdcffc6af40b","system_id":"levelo_inurba_marseille","lat":43.282788,"lon":5.350805,"is_reserved":false,"is_disabled":false,"rental_uris":{"android":"levelo://app?vid=d29f1bfe-9dad-41a4-9790-cdcffc6af40b","ios":"levelo://app?vid=d29f1bfe-9dad-41a4-9790-cdcffc6af40b"},"vehicle_type_id":"4","last_reported":1769350261,"current_range_meters":7200,"station_id":"ce4bhbp2rcd13ifvqerg","pricing_plan_id":"cebpf4jnsgd1na2vs0mg"},{"bike_id":"47492743-489d-45ae-8cd5-a690ce98ece0","system_id":"levelo_inurba_marseille","lat":43.25571,"lon":5.38239,"is_reserved":false,"is_disabled":false,"rental_uris":{"android":"levelo://app?vid=47492743-489d-45ae-8cd5-a690ce98ece0","ios":"levelo://app?vid=47492743-489d-45ae-8cd5-a690ce98ece0"},"vehicle_type_id":"4","last_reported":1769350261,"current_range_meters":7200,"station_id":"ce4bhih2rcd13ifvqfs0","pricing_plan_id":"cebpf4jnsgd1na2vs0mg"},{"bike_id":"4868a28a-9e03-42fb-97b8-67552cc00fa8","system_id":"levelo_inurba_marseille","lat":43.248056,"lon":5.3746,"is_reserved":false,"is_disabled":false,"rental_uris":{"android":"levelo://app?vid=4868a28a-9e03-42fb-97b8-67552cc00fa8","ios":"levelo://app?vid=4868a28a-9e03-42fb-97b8-67552cc00fa8"},"vehicle_type_id":"4","last_reported":1769350261,"current_range_meters":7200,"station_id":"ce4bhgh2rcd13ifvqfb0","pricing_plan_id":"cebpf4jnsgd1na2vs0mg"},{"bike_id":"0c16fd9f-27e4-4df5-a3f5-66328c64053c","system_id":"levelo_inurba_marseille","lat":43.29922,"lon":5.37461,"is_reserved":false,"is_disabled":false,"rental_uris":{"android":"levelo://app?vid=0c16fd9f-27e4-4df5-a3f5-66328c64053c","ios":"levelo://app?vid=0c16fd9f-27e4-4df5-a3f5-66328c64053c"},"vehicle_type_id":"4","last_reported":1769350261,"current_range_meters":7200,"station_id":"ce4bgjh2rcd13ifvqbg0","pricing_plan_id":"cebpf4jnsgd1na2vs0mg"},{"bike_id":"760fba55-bff9-4a6f-82fd-8945891103a0","system_id":"levelo_inurba_marseille","lat":43.217405,"lon":5.346077,"is_reserved":false,"is_disabled":false,"rental_uris":{"android":"levelo://app?vid=760fba55-bff9-4a6f-82fd-8945891103a0","ios":"levelo://app?vid=760fba55-bff9-4a6f-82fd-8945891103a0"},"vehicle_type_id":"4","last_reported":1769350261,"current_range_meters":7200,"station_id":"st_cvj6r9ubvosntc0bgbag","pricing_plan_id":"cebpf4jnsgd1na2vs0mg"},{"bike_id":"cefc0408-08b4-45e0-8592-a44786197f49","system_id":"levelo_inurba_marseille","lat":43.22568,"lon":5.41633,"is_reserved":false,"is_disabled":false,"rental_uris":{"android":"levelo://app?vid=cefc0408-08b4-45e0-8592-a44786197f49","ios":"levelo://app?vid=cefc0408-08b4-45e0-8592-a44786197f49"},"vehicle_type_id":"4","last_reported":1769350261,"current_range_meters":7200,"station_id":"st_d2o4gvlbi1j2169b742g","pricing_plan_id":"cebpf4jnsgd1na2vs0mg"},{"bike_id":"28820609-d4f9-4f12-ae32-2cb1905ac29b","system_id":"levelo_inurba_marseille","lat":43.243918,"lon":5.370682,"is_reserved":false,"is_disabled":false,"rental_uris":{"android":"levelo://app?vid=28820609-d4f9-4f12-ae32-2cb1905ac29b","ios":"levelo://app?vid=28820609-d4f9-4f12-ae32-2cb1905ac29b"},"vehicle_type_id":"4","last_reported":1769350261,"current_range_meters":7200,"station_id":"ce4bhhh2rcd13ifvqfk0","pricing_plan_id":"cebpf4jnsgd1na2vs0mg"},{"bike_id":"5c148a93-c52e-4d46-9a2c-4ec9b7151623","system_id":"levelo_inurba_marseille","lat":43.30553,"lon":5.36535,"is_reserved":false,"is_disabled":false,"rental_uris":{"android":"levelo://app?vid=5c148a93-c52e-4d46-9a2c-4ec9b7151623","ios":"levelo://app?vid=5c148a93-c52e-4d46-9a2c-4ec9b7151623"},"vehicle_type_id":"4","last_reported":1769350261,"current_range_meters":7200,"station_id":"ce4bgs12rcd13ifvqcag","pricing_plan_id":"cebpf4jnsgd1na2vs0mg"},{"bike_id":"875e4077-5f8f-414d-8e4e-1d309239e541","system_id":"levelo_inurba_marseille","lat":43.23062,"lon":5.35476,"is_reserved":false,"is_disabled":false,"rental_uris":{"android":"levelo://app?vid=875e4077-5f8f-414d-8e4e-1d309239e541","ios":"levelo://app?vid=875e4077-5f8f-414d-8e4e-1d309239e541"},"vehicle_type_id":"4","last_reported":1769350261,"current_range_meters":7200,"station_id":"cpo3342slgdg3j2ifvpg","pricing_plan_id":"cebpf4jnsgd1na2vs0mg"},{"bike_id":"9596f630-a277-4b6a-a9aa-2677d5cc298d","system_id":"levelo_inurba_marseille","lat":43.24176,"lon":5.39717,"is_reserved":false,"is_disabled":false,"rental_uris":{"android":"levelo://app?vid=9596f630-a277-4b6a-a9aa-2677d5cc298d","ios":"levelo://app?vid=9596f630-a277-4b6a-a9aa-2677d5cc298d"},"vehicle_type_id":"4","last_reported":1769350261,"current_range_meters":7200,"station_id":"ce4bhn12rcd13ifvqgpg","pricing_plan_id":"cebpf4jnsgd1na2vs0mg"},{"bike_id":"abc3a781-f3d6-481a-9f61-a5b4b605dfec","system_id":"levelo_inurba_marseille","lat":43.32363,"lon":5.36741,"is_reserved":false,"is_disabled":false,"rental_uris":{"android":"levelo://app?vid=abc3a781-f3d6-481a-9f61-a5b4b605dfec","ios":"levelo://app?vid=abc3a781-f3d6-481a-9f61-a5b4b605dfec"},"vehicle_type_id":"4","last_reported":1769350261,"current_range_meters":7200,"station_id":"ce4bhsh2rcd13ifvqi2g","pricing_plan_id":"cebpf4jnsgd1na2vs0mg"},{"bike_id":"10d9e279-fe7a-471e-97ab-fc14b4dd07f8","system_id":"levelo_inurba_marseille","lat":43.26554,"lon":5.37302,"is_reserved":false,"is_disabled":false,"rental_uris":{"android":"levelo://app?vid=10d9e279-fe7a-471e-97ab-fc14b4dd07f8","ios":"levelo://app?vid=10d9e279-fe7a-471e-97ab-fc14b4dd07f8"},"vehicle_type_id":"4","last_reported":1769350261,"current_range_meters":7200,"station_id":"ce4bhg12rcd13ifvqf70","pricing_plan_id":"cebpf4jnsgd1na2vs0mg"},{"bike_id":"5fa896a8-aba8-4143-b23e-82d35adec35e","system_id":"levelo_inurba_marseille","lat":43.265564,"lon":5.372869,"is_reserved":false,"is_disabled":false,"rental_uris":{"android":"levelo://app?vid=5fa896a8-aba8-4143-b23e-82d35adec35e","ios":"levelo://app?vid=5fa896a8-aba8-4143-b23e-82d35adec35e"},"vehicle_type_id":"4","last_reported":1769350261,"current_range_meters":7200,"station_id":"ce4bhg12rcd13ifvqf70","pricing_plan_id":"cebpf4jnsgd1na2vs0mg"},{"bike_id":"2dcd0cb2-2a98-4c11-89ae-b2a8fc35ad5b","system_id":"levelo_inurba_marseille","lat":43.25106,"lon":5.40328,"is_reserved":false,"is_disabled":false,"rental_uris":{"android":"levelo://app?vid=2dcd0cb2-2a98-4c11-89ae-b2a8fc35ad5b","ios":"levelo://app?vid=2dcd0cb2-2a98-4c11-89ae-b2a8fc35ad5b"},"vehicle_type_id":"4","last_reported":1769350261,"current_range_meters":7200,"station_id":"ce4bhlh2rcd13ifvqgig","pricing_plan_id":"cebpf4jnsgd1na2vs0mg"},{"bike_id":"f4d5846c-646c-4d8e-923f-075604db61e5","system_id":"levelo_inurba_marseille","lat":43.24677,"lon":5.38171,"is_reserved":false,"is_disabled":false,"rental_uris":{"android":"levelo://app?vid=f4d5846c-646c-4d8e-923f-075604db61e5","ios":"levelo://app?vid=f4d5846c-646c-4d8e-923f-075604db61e5"},"vehicle_type_id":"4","last_reported":1769350261,"current_range_meters":7200,"station_id":"ce4bhih2rcd13ifvqfr0","pricing_plan_id":"cebpf4jnsgd1na2vs0mg"},{"bike_id":"e610359d-51e2-4506-b550-3c0fc99ff3fc","system_id":"levelo_inurba_marseille","lat":43.23187,"lon":5.35559,"is_reserved":false,"is_disabled":false,"rental_uris":{"android":"levelo://app?vid=e610359d-51e2-4506-b550-3c0fc99ff3fc","ios":"levelo://app?vid=e610359d-51e2-4506-b550-3c0fc99ff3fc"},"vehicle_type_id":"4","last_reported":1769350261,"current_range_meters":7200,"station_id":"ce4bhu92rcd13ifvqi70","pricing_plan_id":"cebpf4jnsgd1na2vs0mg"},{"bike_id":"0de5032e-148a-468e-969e-fb644458ceae","system_id":"levelo_inurba_marseille","lat":43.250912,"lon":5.404794,"is_reserved":false,"is_disabled":false,"rental_uris":{"android":"levelo://app?vid=0de5032e-148a-468e-969e-fb644458ceae","ios":"levelo://app?vid=0de5032e-148a-468e-969e-fb644458ceae"},"vehicle_type_id":"4","last_reported":1769350261,"current_range_meters":8000,"station_id":"","pricing_plan_id":"cebpf4jnsgd1na2vs0mg"},{"bike_id":"414937c3-22ca-4ac8-a6d1-0b2223c3f608","system_id":"levelo_inurba_marseille","lat":43.25825,"lon":5.39442,"is_reserved":false,"is_disabled":false,"rental_uris":{"android":"levelo://app?vid=414937c3-22ca-4ac8-a6d1-0b2223c3f608","ios":"levelo://app?vid=414937c3-22ca-4ac8-a6d1-0b2223c3f608"},"vehicle_type_id":"4","last_reported":1769350261,"current_range_meters":8000,"station_id":"ce4bhip2rcd13ifvqft0","pricing_plan_id":"cebpf4jnsgd1na2vs0mg"},{"bike_id":"8d6d8bb4-7f8c-4d88-9ca1-3482e7346b79","system_id":"levelo_inurba_marseille","lat":43.307947,"lon":5.381588,"is_reserved":false,"is_disabled":false,"rental_uris":{"android":"levelo://app?vid=8d6d8bb4-7f8c-4d88-9ca1-3482e7346b79","ios":"levelo://app?vid=8d6d8bb4-7f8c-4d88-9ca1-3482e7346b79"},"vehicle_type_id":"4","last_reported":1769350261,"current_range_meters":8000,"station_id":"ce4bgv12rcd13ifvqcp0","pricing_plan_id":"cebpf4jnsgd1na2vs0mg"},{"bike_id":"77a8d6f7-8520-4e5a-a0e7-89573d4a6a77","system_id":"levelo_inurba_marseille","lat":43.23784,"lon":5.3664,"is_reserved":false,"is_disabled":false,"rental_uris":{"android":"levelo://app?vid=77a8d6f7-8520-4e5a-a0e7-89573d4a6a77","ios":"levelo://app?vid=77a8d6f7-8520-4e5a-a0e7-89573d4a6a77"},"vehicle_type_id":"4","last_reported":1769350261,"current_range_meters":8000,"station_id":"st_d3nk18o9ro0c73en2l3g","pricing_plan_id":"cebpf4jnsgd1na2vs0mg"},{"bike_id":"a8c7adad-ae27-467b-936e-e5e482408cf3","system_id":"levelo_inurba_marseille","lat":43.31053,"lon":5.39326,"is_reserved":false,"is_disabled":false,"rental_uris":{"android":"levelo://app?vid=a8c7adad-ae27-467b-936e-e5e482408cf3","ios":"levelo://app?vid=a8c7adad-ae27-467b-936e-e5e482408cf3"},"vehicle_type_id":"4","last_reported":1769350261,"current_range_meters":8000,"station_id":"","pricing_plan_id":"cebpf4jnsgd1na2vs0mg"},{"bike_id":"5cfd7260-21a3-4346-b554-3744fc7c6072","system_id":"levelo_inurba_marseille","lat":43.29547,"lon":5.42294,"is_reserved":false,"is_disabled":false,"rental_uris":{"android":"levelo://app?vid=5cfd7260-21a3-4346-b554-3744fc7c6072","ios":"levelo://app?vid=5cfd7260-21a3-4346-b554-3744fc7c6072"},"vehicle_type_id":"4","last_reported":1769350261,"current_range_meters":8000,"station_id":"ce4bhph2rcd13ifvqhdg","pricing_plan_id":"cebpf4jnsgd1na2vs0mg"},{"bike_id":"b1d59cca-e28a-4678-b838-1155b378cd48","system_id":"levelo_inurba_marseille","lat":43.3354,"lon":5.3746,"is_reserved":false,"is_disabled":false,"rental_uris":{"android":"levelo://app?vid=b1d59cca-e28a-4678-b838-1155b378cd48","ios":"levelo://app?vid=b1d59cca-e28a-4678-b838-1155b378cd48"},"vehicle_type_id":"4","last_reported":1769350261,"current_range_meters":8000,"station_id":"st_d46tts09ee8s73dlu43g","pricing_plan_id":"cebpf4jnsgd1na2vs0mg"},{"bike_id":"c1aeaa10-dc7f-4501-b461-bb241314d426","system_id":"levelo_inurba_marseille","lat":43.23203,"lon":5.35552,"is_reserved":false,"is_disabled":false,"rental_uris":{"android":"levelo://app?vid=c1aeaa10-dc7f-4501-b461-bb241314d426","ios":"levelo://app?vid=c1aeaa10-dc7f-4501-b461-bb241314d426"},"vehicle_type_id":"4","last_reported":1769350261,"current_range_meters":8000,"station_id":"ce4bhu92rcd13ifvqi70","pricing_plan_id":"cebpf4jnsgd1na2vs0mg"},{"bike_id":"cd97a287-f3db-4bb8-af84-655827a2ff9f","system_id":"levelo_inurba_marseille","lat":43.23152,"lon":5.43711,"is_reserved":false,"is_disabled":false,"rental_uris":{"android":"levelo://app?vid=cd97a287-f3db-4bb8-af84-655827a2ff9f","ios":"levelo://app?vid=cd97a287-f3db-4bb8-af84-655827a2ff9f"},"vehicle_type_id":"4","last_reported":1769350261,"current_range_meters":8000,"station_id":"ce4bhmp2rcd13ifvqgog","pricing_plan_id":"cebpf4jnsgd1na2vs0mg"},{"bike_id":"a0465d4f-9ced-4178-ad4c-29e5c29e87ff","system_id":"levelo_inurba_marseille","lat":43.28483,"lon":5.48386,"is_reserved":false,"is_disabled":false,"rental_uris":{"android":"levelo://app?vid=a0465d4f-9ced-4178-ad4c-29e5c29e87ff","ios":"levelo://app?vid=a0465d4f-9ced-4178-ad4c-29e5c29e87ff"},"vehicle_type_id":"4","last_reported":1769350261,"current_range_meters":8000,"station_id":"","pricing_plan_id":"cebpf4jnsgd1na2vs0mg"},{"bike_id":"686c929c-1f7b-48db-afd4-ddeb7701cef2","system_id":"levelo_inurba_marseille","lat":43.28931,"lon":5.36628,"is_reserved":false,"is_disabled":false,"rental_uris":{"android":"levelo://app?vid=686c929c-1f7b-48db-afd4-ddeb7701cef2","ios":"levelo://app?vid=686c929c-1f7b-48db-afd4-ddeb7701cef2"},"vehicle_type_id":"4","last_reported":1769350261,"current_range_meters":8000,"station_id":"ce4bhap2rcd13ifvqek0","pricing_plan_id":"cebpf4jnsgd1na2vs0mg"},{"bike_id":"911f0371-0df0-45e8-a323-aedfe8ac7407","system_id":"levelo_inurba_marseille","lat":43.33158,"lon":5.37701,"is_reserved":false,"is_disabled":false,"rental_uris":{"android":"levelo://app?vid=911f0371-0df0-45e8-a323-aedfe8ac7407","ios":"levelo://app?vid=911f0371-0df0-45e8-a323-aedfe8ac7407"},"vehicle_type_id":"4","last_reported":1769350261,"current_range_meters":8000,"station_id":"st_d46cu089ee8s73dldbu0","pricing_plan_id":"cebpf4jnsgd1na2vs0mg"},{"bike_id":"9313abb2-b4dd-4478-8ad1-082ec047c3ed","system_id":"levelo_inurba_marseille","lat":43.26553,"lon":5.37283,"is_reserved":false,"is_disabled":false,"rental_uris":{"android":"levelo://app?vid=9313abb2-b4dd-4478-8ad1-082ec047c3ed","ios":"levelo://app?vid=9313abb2-b4dd-4478-8ad1-082ec047c3ed"},"vehicle_type_id":"4","last_reported":1769350261,"current_range_meters":8000,"station_id":"ce4bhg12rcd13ifvqf70","pricing_plan_id":"cebpf4jnsgd1na2vs0mg"},{"bike_id":"3ce0fbf9-3853-4b7d-802e-15d45fe9db9a","system_id":"levelo_inurba_marseille","lat":43.26205,"lon":5.37888,"is_reserved":false,"is_disabled":false,"rental_uris":{"android":"levelo://app?vid=3ce0fbf9-3853-4b7d-802e-15d45fe9db9a","ios":"levelo://app?vid=3ce0fbf9-3853-4b7d-802e-15d45fe9db9a"},"vehicle_type_id":"4","last_reported":1769350261,"current_range_meters":8000,"station_id":"ce4bhjp2rcd13ifvqg90","pricing_plan_id":"cebpf4jnsgd1na2vs0mg"},{"bike_id":"876ac817-c1de-4d59-a160-e12114ae46c0","system_id":"levelo_inurba_marseille","lat":43.31304,"lon":5.36646,"is_reserved":false,"is_disabled":false,"rental_uris":{"android":"levelo://app?vid=876ac817-c1de-4d59-a160-e12114ae46c0","ios":"levelo://app?vid=876ac817-c1de-4d59-a160-e12114ae46c0"},"vehicle_type_id":"4","last_reported":1769350261,"current_range_meters":8000,"station_id":"","pricing_plan_id":"cebpf4jnsgd1na2vs0mg"},{"bike_id":"0c11bc30-1254-4e35-b530-31f7fd6a4b39","system_id":"levelo_inurba_marseille","lat":43.30016,"lon":5.37361,"is_reserved":false,"is_disabled":false,"rental_uris":{"android":"levelo://app?vid=0c11bc30-1254-4e35-b530-31f7fd6a4b39","ios":"levelo://app?vid=0c11bc30-1254-4e35-b530-31f7fd6a4b39"},"vehicle_type_id":"4","last_reported":1769350261,"current_range_meters":8000,"station_id":"","pricing_plan_id":"cebpf4jnsgd1na2vs0mg"},{"bike_id":"6c29796b-91a7-4fca-91ba-1f981077ace9","system_id":"levelo_inurba_marseille","lat":43.23154,"lon":5.43703,"is_reserved":false,"is_disabled":false,"rental_uris":{"android":"levelo://app?vid=6c29796b-91a7-4fca-91ba-1f981077ace9","ios":"levelo://app?vid=6c29796b-91a7-4fca-91ba-1f981077ace9"},"vehicle_type_id":"4","last_reported":1769350261,"current_range_meters":8000,"station_id":"ce4bhmp2rcd13ifvqgog","pricing_plan_id":"cebpf4jnsgd1na2vs0mg"},{"bike_id":"e19418ad-aa76-4b1d-a53d-977a549e82e9","system_id":"levelo_inurba_marseille","lat":43.23193,"lon":5.35555,"is_reserved":false,"is_disabled":false,"rental_uris":{"android":"levelo://app?vid=e19418ad-aa76-4b1d-a53d-977a549e82e9","ios":"levelo://app?vid=e19418ad-aa76-4b1d-a53d-977a549e82e9"},"vehicle_type_id":"4","last_reported":1769350261,"current_range_meters":8000,"station_id":"ce4bhu92rcd13ifvqi70","pricing_plan_id":"cebpf4jnsgd1na2vs0mg"},{"bike_id":"4e8fb272-4881-4fd0-9f58-3796236a95e4","system_id":"levelo_inurba_marseille","lat":43.29581,"lon":5.37473,"is_reserved":false,"is_disabled":false,"rental_uris":{"android":"levelo://app?vid=4e8fb272-4881-4fd0-9f58-3796236a95e4","ios":"levelo://app?vid=4e8fb272-4881-4fd0-9f58-3796236a95e4"},"vehicle_type_id":"4","last_reported":1769350261,"current_range_meters":8000,"station_id":"ce4bgh92rcd13ifvqb50","pricing_plan_id":"cebpf4jnsgd1na2vs0mg"},{"bike_id":"cb980299-f339-4f0a-b60c-187591b4f01c","system_id":"levelo_inurba_marseille","lat":43.28658,"lon":5.36341,"is_reserved":false,"is_disabled":false,"rental_uris":{"android":"levelo://app?vid=cb980299-f339-4f0a-b60c-187591b4f01c","ios":"levelo://app?vid=cb980299-f339-4f0a-b60c-187591b4f01c"},"vehicle_type_id":"4","last_reported":1769350261,"current_range_meters":8000,"station_id":"ce4bhah2rcd13ifvqej0","pricing_plan_id":"cebpf4jnsgd1na2vs0mg"},{"bike_id":"2489dbb0-fbf3-43ee-818b-e714a7a761f4","system_id":"levelo_inurba_marseille","lat":43.29583,"lon":5.3672,"is_reserved":false,"is_disabled":false,"rental_uris":{"android":"levelo://app?vid=2489dbb0-fbf3-43ee-818b-e714a7a761f4","ios":"levelo://app?vid=2489dbb0-fbf3-43ee-818b-e714a7a761f4"},"vehicle_type_id":"4","last_reported":1769350261,"current_range_meters":8000,"station_id":"ce4bgph2rcd13ifvqc2g","pricing_plan_id":"cebpf4jnsgd1na2vs0mg"},{"bike_id":"dbf02342-dd3c-4a35-a4ad-2560cfa2e190","system_id":"levelo_inurba_marseille","lat":43.21745,"lon":5.34608,"is_reserved":false,"is_disabled":false,"rental_uris":{"android":"levelo://app?vid=dbf02342-dd3c-4a35-a4ad-2560cfa2e190","ios":"levelo://app?vid=dbf02342-dd3c-4a35-a4ad-2560cfa2e190"},"vehicle_type_id":"4","last_reported":1769350261,"current_range_meters":8000,"station_id":"st_cvj6r9ubvosntc0bgbag","pricing_plan_id":"cebpf4jnsgd1na2vs0mg"},{"bike_id":"cc77ab8d-f6fe-4e5f-b2b5-a4170aed5189","system_id":"levelo_inurba_marseille","lat":43.24954,"lon":5.40497,"is_reserved":false,"is_disabled":false,"rental_uris":{"android":"levelo://app?vid=cc77ab8d-f6fe-4e5f-b2b5-a4170aed5189","ios":"levelo://app?vid=cc77ab8d-f6fe-4e5f-b2b5-a4170aed5189"},"vehicle_type_id":"4","last_reported":1769350261,"current_range_meters":8000,"station_id":"st_d2ngiaodas8pm72gd1h0","pricing_plan_id":"cebpf4jnsgd1na2vs0mg"},{"bike_id":"7d6232c1-2c3f-4ac7-80ff-eb6d21c5143b","system_id":"levelo_inurba_marseille","lat":43.25509,"lon":5.37653,"is_reserved":false,"is_disabled":false,"rental_uris":{"android":"levelo://app?vid=7d6232c1-2c3f-4ac7-80ff-eb6d21c5143b","ios":"levelo://app?vid=7d6232c1-2c3f-4ac7-80ff-eb6d21c5143b"},"vehicle_type_id":"4","last_reported":1769350261,"current_range_meters":8000,"station_id":"ce4bhh12rcd13ifvqff0","pricing_plan_id":"cebpf4jnsgd1na2vs0mg"},{"bike_id":"e73f1781-62f4-4a23-b153-6815bc29f05e","system_id":"levelo_inurba_marseille","lat":43.29311,"lon":5.41185,"is_reserved":false,"is_disabled":false,"rental_uris":{"android":"levelo://app?vid=e73f1781-62f4-4a23-b153-6815bc29f05e","ios":"levelo://app?vid=e73f1781-62f4-4a23-b153-6815bc29f05e"},"vehicle_type_id":"4","last_reported":1769350261,"current_range_meters":8000,"station_id":"","pricing_plan_id":"cebpf4jnsgd1na2vs0mg"},{"bike_id":"99bc9e46-2a2d-4354-b606-97e38b1b91d7","system_id":"levelo_inurba_marseille","lat":43.23945,"lon":5.37589,"is_reserved":false,"is_disabled":false,"rental_uris":{"android":"levelo://app?vid=99bc9e46-2a2d-4354-b606-97e38b1b91d7","ios":"levelo://app?vid=99bc9e46-2a2d-4354-b606-97e38b1b91d7"},"vehicle_type_id":"4","last_reported":1769350261,"current_range_meters":8000,"station_id":"","pricing_plan_id":"cebpf4jnsgd1na2vs0mg"},{"bike_id":"2e46861b-c9e2-4124-8fb2-9f2e778640d7","system_id":"levelo_inurba_marseille","lat":43.21738,"lon":5.34605,"is_reserved":false,"is_disabled":false,"rental_uris":{"android":"levelo://app?vid=2e46861b-c9e2-4124-8fb2-9f2e778640d7","ios":"levelo://app?vid=2e46861b-c9e2-4124-8fb2-9f2e778640d7"},"vehicle_type_id":"4","last_reported":1769350261,"current_range_meters":8400,"station_id":"st_cvj6r9ubvosntc0bgbag","pricing_plan_id":"cebpf4jnsgd1na2vs0mg"},{"bike_id":"4ecf6c12-33e8-4135-b4a4-e6c4ddb448fc","system_id":"levelo_inurba_marseille","lat":43.24073,"lon":5.37752,"is_reserved":false,"is_disabled":false,"rental_uris":{"android":"levelo://app?vid=4ecf6c12-33e8-4135-b4a4-e6c4ddb448fc","ios":"levelo://app?vid=4ecf6c12-33e8-4135-b4a4-e6c4ddb448fc"},"vehicle_type_id":"4","last_reported":1769350261,"current_range_meters":8400,"station_id":"ce4bhnp2rcd13ifvqgvg","pricing_plan_id":"cebpf4jnsgd1na2vs0mg"},{"bike_id":"a31d4b1b-7a61-4655-ae18-d5254ed9b3a3","system_id":"levelo_inurba_marseille","lat":43.28539,"lon":5.44097,"is_reserved":false,"is_disabled":false,"rental_uris":{"android":"levelo://app?vid=a31d4b1b-7a61-4655-ae18-d5254ed9b3a3","ios":"levelo://app?vid=a31d4b1b-7a61-4655-ae18-d5254ed9b3a3"},"vehicle_type_id":"4","last_reported":1769350261,"current_range_meters":8400,"station_id":"st_d3j3df2ikq2c7380ej80","pricing_plan_id":"cebpf4jnsgd1na2vs0mg"},{"bike_id":"367a6bfa-022d-4ac7-9a7a-fafdb9ad5966","system_id":"levelo_inurba_marseille","lat":43.23185,"lon":5.39993,"is_reserved":false,"is_disabled":true,"rental_uris":{"android":"levelo://app?vid=367a6bfa-022d-4ac7-9a7a-fafdb9ad5966","ios":"levelo://app?vid=367a6bfa-022d-4ac7-9a7a-fafdb9ad5966"},"vehicle_type_id":"4","last_reported":1769350261,"current_range_meters":8400,"station_id":"ce4bhn12rcd13ifvqgqg","pricing_plan_id":"cebpf4jnsgd1na2vs0mg"},{"bike_id":"fe8f16c0-7c2c-4db5-9830-9c506d68052e","system_id":"levelo_inurba_marseille","lat":43.25123,"lon":5.40309,"is_reserved":false,"is_disabled":false,"rental_uris":{"android":"levelo://app?vid=fe8f16c0-7c2c-4db5-9830-9c506d68052e","ios":"levelo://app?vid=fe8f16c0-7c2c-4db5-9830-9c506d68052e"},"vehicle_type_id":"4","last_reported":1769350261,"current_range_meters":8400,"station_id":"ce4bhlh2rcd13ifvqgig","pricing_plan_id":"cebpf4jnsgd1na2vs0mg"},{"bike_id":"91d94f8f-bf04-4f53-b0a2-ffd68db2b3e5","system_id":"levelo_inurba_marseille","lat":43.29621,"lon":5.37175,"is_reserved":false,"is_disabled":false,"rental_uris":{"android":"levelo://app?vid=91d94f8f-bf04-4f53-b0a2-ffd68db2b3e5","ios":"levelo://app?vid=91d94f8f-bf04-4f53-b0a2-ffd68db2b3e5"},"vehicle_type_id":"4","last_reported":1769350261,"current_range_meters":8400,"station_id":"ce4bgnh2rcd13ifvqc0g","pricing_plan_id":"cebpf4jnsgd1na2vs0mg"},{"bike_id":"b075d711-d93d-4120-85f9-64fa0a4a9a99","system_id":"levelo_inurba_marseille","lat":43.22558,"lon":5.41616,"is_reserved":false,"is_disabled":false,"rental_uris":{"android":"levelo://app?vid=b075d711-d93d-4120-85f9-64fa0a4a9a99","ios":"levelo://app?vid=b075d711-d93d-4120-85f9-64fa0a4a9a99"},"vehicle_type_id":"4","last_reported":1769350261,"current_range_meters":8400,"station_id":"st_d2o4gvlbi1j2169b742g","pricing_plan_id":"cebpf4jnsgd1na2vs0mg"},{"bike_id":"500a807b-2dab-4995-a78d-d98aedb6eb89","system_id":"levelo_inurba_marseille","lat":43.27182,"lon":5.40986,"is_reserved":false,"is_disabled":false,"rental_uris":{"android":"levelo://app?vid=500a807b-2dab-4995-a78d-d98aedb6eb89","ios":"levelo://app?vid=500a807b-2dab-4995-a78d-d98aedb6eb89"},"vehicle_type_id":"4","last_reported":1769350261,"current_range_meters":8400,"station_id":"ce4bhl12rcd13ifvqgf0","pricing_plan_id":"cebpf4jnsgd1na2vs0mg"},{"bike_id":"a7d2959e-278b-41d6-9192-a644114b55de","system_id":"levelo_inurba_marseille","lat":43.23784,"lon":5.36631,"is_reserved":false,"is_disabled":false,"rental_uris":{"android":"levelo://app?vid=a7d2959e-278b-41d6-9192-a644114b55de","ios":"levelo://app?vid=a7d2959e-278b-41d6-9192-a644114b55de"},"vehicle_type_id":"4","last_reported":1769350261,"current_range_meters":8400,"station_id":"st_d3nk18o9ro0c73en2l3g","pricing_plan_id":"cebpf4jnsgd1na2vs0mg"},{"bike_id":"ea53cb96-b018-4a32-8207-3b5118a7a50d","system_id":"levelo_inurba_marseille","lat":43.321002,"lon":5.367825,"is_reserved":false,"is_disabled":false,"rental_uris":{"android":"levelo://app?vid=ea53cb96-b018-4a32-8207-3b5118a7a50d","ios":"levelo://app?vid=ea53cb96-b018-4a32-8207-3b5118a7a50d"},"vehicle_type_id":"4","last_reported":1769350261,"current_range_meters":8400,"station_id":"ce4bhrh2rcd13ifvqhug","pricing_plan_id":"cebpf4jnsgd1na2vs0mg"},{"bike_id":"fa11a93c-3b00-4dc4-86f6-194b855df82f","system_id":"levelo_inurba_marseille","lat":43.21129,"lon":5.34573,"is_reserved":false,"is_disabled":false,"rental_uris":{"android":"levelo://app?vid=fa11a93c-3b00-4dc4-86f6-194b855df82f","ios":"levelo://app?vid=fa11a93c-3b00-4dc4-86f6-194b855df82f"},"vehicle_type_id":"4","last_reported":1769350261,"current_range_meters":8400,"station_id":"","pricing_plan_id":"cebpf4jnsgd1na2vs0mg"},{"bike_id":"39febb2d-a402-440c-a637-c5b1307d4b3c","system_id":"levelo_inurba_marseille","lat":43.29929,"lon":5.36529,"is_reserved":false,"is_disabled":false,"rental_uris":{"android":"levelo://app?vid=39febb2d-a402-440c-a637-c5b1307d4b3c","ios":"levelo://app?vid=39febb2d-a402-440c-a637-c5b1307d4b3c"},"vehicle_type_id":"4","last_reported":1769350261,"current_range_meters":8400,"station_id":"ce4bgm92rcd13ifvqbr0","pricing_plan_id":"cebpf4jnsgd1na2vs0mg"},{"bike_id":"ca006b1c-64f2-4772-acb4-e94321165aec","system_id":"levelo_inurba_marseille","lat":43.305489,"lon":5.367403,"is_reserved":false,"is_disabled":false,"rental_uris":{"android":"levelo://app?vid=ca006b1c-64f2-4772-acb4-e94321165aec","ios":"levelo://app?vid=ca006b1c-64f2-4772-acb4-e94321165aec"},"vehicle_type_id":"4","last_reported":1769350261,"current_range_meters":8400,"station_id":"ce4bgn92rcd13ifvqbvg","pricing_plan_id":"cebpf4jnsgd1na2vs0mg"},{"bike_id":"9961cf4b-76de-42b3-8fbc-a018c32fd71a","system_id":"levelo_inurba_marseille","lat":43.29933,"lon":5.36511,"is_reserved":false,"is_disabled":false,"rental_uris":{"android":"levelo://app?vid=9961cf4b-76de-42b3-8fbc-a018c32fd71a","ios":"levelo://app?vid=9961cf4b-76de-42b3-8fbc-a018c32fd71a"},"vehicle_type_id":"4","last_reported":1769350261,"current_range_meters":8400,"station_id":"ce4bgm92rcd13ifvqbr0","pricing_plan_id":"cebpf4jnsgd1na2vs0mg"},{"bike_id":"9536a92a-01ab-4017-8488-26a8fa6880af","system_id":"levelo_inurba_marseille","lat":43.25922,"lon":5.40918,"is_reserved":false,"is_disabled":false,"rental_uris":{"android":"levelo://app?vid=9536a92a-01ab-4017-8488-26a8fa6880af","ios":"levelo://app?vid=9536a92a-01ab-4017-8488-26a8fa6880af"},"vehicle_type_id":"4","last_reported":1769350261,"current_range_meters":8400,"station_id":"ce4bhm92rcd13ifvqglg","pricing_plan_id":"cebpf4jnsgd1na2vs0mg"},{"bike_id":"66d4be23-ae95-49d1-b662-3598a5835ea3","system_id":"levelo_inurba_marseille","lat":43.26559,"lon":5.37285,"is_reserved":false,"is_disabled":false,"rental_uris":{"android":"levelo://app?vid=66d4be23-ae95-49d1-b662-3598a5835ea3","ios":"levelo://app?vid=66d4be23-ae95-49d1-b662-3598a5835ea3"},"vehicle_type_id":"4","last_reported":1769350261,"current_range_meters":8400,"station_id":"ce4bhg12rcd13ifvqf70","pricing_plan_id":"cebpf4jnsgd1na2vs0mg"},{"bike_id":"23e8e2b5-e425-472a-bc08-b0b79ef75ac3","system_id":"levelo_inurba_marseille","lat":43.28535,"lon":5.44076,"is_reserved":false,"is_disabled":false,"rental_uris":{"android":"levelo://app?vid=23e8e2b5-e425-472a-bc08-b0b79ef75ac3","ios":"levelo://app?vid=23e8e2b5-e425-472a-bc08-b0b79ef75ac3"},"vehicle_type_id":"4","last_reported":1769350261,"current_range_meters":8400,"station_id":"st_d3j3df2ikq2c7380ej80","pricing_plan_id":"cebpf4jnsgd1na2vs0mg"},{"bike_id":"ea34cff5-28c6-490b-b5ef-683ca0cf5cac","system_id":"levelo_inurba_marseille","lat":43.29191,"lon":5.35807,"is_reserved":false,"is_disabled":false,"rental_uris":{"android":"levelo://app?vid=ea34cff5-28c6-490b-b5ef-683ca0cf5cac","ios":"levelo://app?vid=ea34cff5-28c6-490b-b5ef-683ca0cf5cac"},"vehicle_type_id":"4","last_reported":1769350261,"current_range_meters":8400,"station_id":"ce4bhb12rcd13ifvqel0","pricing_plan_id":"cebpf4jnsgd1na2vs0mg"},{"bike_id":"ae4e992a-eb37-4dc7-9aba-00b8edffe743","system_id":"levelo_inurba_marseille","lat":43.24072,"lon":5.37755,"is_reserved":false,"is_disabled":false,"rental_uris":{"android":"levelo://app?vid=ae4e992a-eb37-4dc7-9aba-00b8edffe743","ios":"levelo://app?vid=ae4e992a-eb37-4dc7-9aba-00b8edffe743"},"vehicle_type_id":"4","last_reported":1769350261,"current_range_meters":8400,"station_id":"ce4bhnp2rcd13ifvqgvg","pricing_plan_id":"cebpf4jnsgd1na2vs0mg"},{"bike_id":"202f1104-5acd-4ad3-972a-1bdbd896c535","system_id":"levelo_inurba_marseille","lat":43.32363,"lon":5.36833,"is_reserved":false,"is_disabled":false,"rental_uris":{"android":"levelo://app?vid=202f1104-5acd-4ad3-972a-1bdbd896c535","ios":"levelo://app?vid=202f1104-5acd-4ad3-972a-1bdbd896c535"},"vehicle_type_id":"4","last_reported":1769350261,"current_range_meters":8400,"station_id":"ce4bhsh2rcd13ifvqi2g","pricing_plan_id":"cebpf4jnsgd1na2vs0mg"},{"bike_id":"b6222950-116d-4e89-b6ac-8e94e0a6c8df","system_id":"levelo_inurba_marseille","lat":43.28607,"lon":5.37066,"is_reserved":false,"is_disabled":false,"rental_uris":{"android":"levelo://app?vid=b6222950-116d-4e89-b6ac-8e94e0a6c8df","ios":"levelo://app?vid=b6222950-116d-4e89-b6ac-8e94e0a6c8df"},"vehicle_type_id":"4","last_reported":1769350261,"current_range_meters":8400,"station_id":"ce4bht12rcd13ifvqi60","pricing_plan_id":"cebpf4jnsgd1na2vs0mg"},{"bike_id":"281c13db-7575-4f01-8cb4-ab2b2ff0bb6c","system_id":"levelo_inurba_marseille","lat":43.2306,"lon":5.35505,"is_reserved":false,"is_disabled":false,"rental_uris":{"android":"levelo://app?vid=281c13db-7575-4f01-8cb4-ab2b2ff0bb6c","ios":"levelo://app?vid=281c13db-7575-4f01-8cb4-ab2b2ff0bb6c"},"vehicle_type_id":"4","last_reported":1769350261,"current_range_meters":8400,"station_id":"cpo3342slgdg3j2ifvpg","pricing_plan_id":"cebpf4jnsgd1na2vs0mg"},{"bike_id":"e959387d-37cd-4623-804b-f65c3d541b05","system_id":"levelo_inurba_marseille","lat":43.29616,"lon":5.37173,"is_reserved":false,"is_disabled":false,"rental_uris":{"android":"levelo://app?vid=e959387d-37cd-4623-804b-f65c3d541b05","ios":"levelo://app?vid=e959387d-37cd-4623-804b-f65c3d541b05"},"vehicle_type_id":"4","last_reported":1769350261,"current_range_meters":8400,"station_id":"ce4bgnh2rcd13ifvqc0g","pricing_plan_id":"cebpf4jnsgd1na2vs0mg"},{"bike_id":"a4947efe-5470-447a-8d88-595cff3685c1","system_id":"levelo_inurba_marseille","lat":43.21746,"lon":5.34601,"is_reserved":false,"is_disabled":false,"rental_uris":{"android":"levelo://app?vid=a4947efe-5470-447a-8d88-595cff3685c1","ios":"levelo://app?vid=a4947efe-5470-447a-8d88-595cff3685c1"},"vehicle_type_id":"4","last_reported":1769350261,"current_range_meters":8800,"station_id":"st_cvj6r9ubvosntc0bgbag","pricing_plan_id":"cebpf4jnsgd1na2vs0mg"},{"bike_id":"16ac6a98-72f5-44f8-b1d4-83d2f7e68694","system_id":"levelo_inurba_marseille","lat":43.24094,"lon":5.37745,"is_reserved":false,"is_disabled":false,"rental_uris":{"android":"levelo://app?vid=16ac6a98-72f5-44f8-b1d4-83d2f7e68694","ios":"levelo://app?vid=16ac6a98-72f5-44f8-b1d4-83d2f7e68694"},"vehicle_type_id":"4","last_reported":1769350261,"current_range_meters":8800,"station_id":"ce4bhnp2rcd13ifvqgvg","pricing_plan_id":"cebpf4jnsgd1na2vs0mg"},{"bike_id":"af1a3621-d057-4ad0-b71e-c2bbcd71736a","system_id":"levelo_inurba_marseille","lat":43.30185,"lon":5.366,"is_reserved":false,"is_disabled":true,"rental_uris":{"android":"levelo://app?vid=af1a3621-d057-4ad0-b71e-c2bbcd71736a","ios":"levelo://app?vid=af1a3621-d057-4ad0-b71e-c2bbcd71736a"},"vehicle_type_id":"4","last_reported":1769350261,"current_range_meters":8800,"station_id":"ce4bgrh2rcd13ifvqc8g","pricing_plan_id":"cebpf4jnsgd1na2vs0mg"},{"bike_id":"dea969c0-1e1e-4f04-aa1c-2420f6f01cf2","system_id":"levelo_inurba_marseille","lat":43.21736,"lon":5.34603,"is_reserved":false,"is_disabled":false,"rental_uris":{"android":"levelo://app?vid=dea969c0-1e1e-4f04-aa1c-2420f6f01cf2","ios":"levelo://app?vid=dea969c0-1e1e-4f04-aa1c-2420f6f01cf2"},"vehicle_type_id":"4","last_reported":1769350261,"current_range_meters":8800,"station_id":"st_cvj6r9ubvosntc0bgbag","pricing_plan_id":"cebpf4jnsgd1na2vs0mg"},{"bike_id":"0a9315ef-49dd-4e1c-90ba-9ac1028ca5d9","system_id":"levelo_inurba_marseille","lat":43.321092,"lon":5.36766,"is_reserved":false,"is_disabled":false,"rental_uris":{"android":"levelo://app?vid=0a9315ef-49dd-4e1c-90ba-9ac1028ca5d9","ios":"levelo://app?vid=0a9315ef-49dd-4e1c-90ba-9ac1028ca5d9"},"vehicle_type_id":"4","last_reported":1769350261,"current_range_meters":8800,"station_id":"ce4bhrh2rcd13ifvqhug","pricing_plan_id":"cebpf4jnsgd1na2vs0mg"},{"bike_id":"f4fb2262-4c53-411a-80f0-edefef28f751","system_id":"levelo_inurba_marseille","lat":43.30607,"lon":5.39351,"is_reserved":false,"is_disabled":false,"rental_uris":{"android":"levelo://app?vid=f4fb2262-4c53-411a-80f0-edefef28f751","ios":"levelo://app?vid=f4fb2262-4c53-411a-80f0-edefef28f751"},"vehicle_type_id":"4","last_reported":1769350261,"current_range_meters":8800,"station_id":"ce4bh0p2rcd13ifvqd80","pricing_plan_id":"cebpf4jnsgd1na2vs0mg"},{"bike_id":"35de4117-1885-471d-ae81-ebbd7b148d3a","system_id":"levelo_inurba_marseille","lat":43.28152,"lon":5.42636,"is_reserved":false,"is_disabled":false,"rental_uris":{"android":"levelo://app?vid=35de4117-1885-471d-ae81-ebbd7b148d3a","ios":"levelo://app?vid=35de4117-1885-471d-ae81-ebbd7b148d3a"},"vehicle_type_id":"4","last_reported":1769350261,"current_range_meters":8800,"station_id":"ce4bhnh2rcd13ifvqgug","pricing_plan_id":"cebpf4jnsgd1na2vs0mg"},{"bike_id":"b0d2c80e-ed15-4930-af0a-5bfc09a11396","system_id":"levelo_inurba_marseille","lat":43.22936,"lon":5.35374,"is_reserved":false,"is_disabled":false,"rental_uris":{"android":"levelo://app?vid=b0d2c80e-ed15-4930-af0a-5bfc09a11396","ios":"levelo://app?vid=b0d2c80e-ed15-4930-af0a-5bfc09a11396"},"vehicle_type_id":"4","last_reported":1769350261,"current_range_meters":8800,"station_id":"cpo3532slgdg3j2ikp40","pricing_plan_id":"cebpf4jnsgd1na2vs0mg"},{"bike_id":"fdd9efc7-53e9-441d-b99b-586302834715","system_id":"levelo_inurba_marseille","lat":43.296934,"lon":5.372851,"is_reserved":false,"is_disabled":false,"rental_uris":{"android":"levelo://app?vid=fdd9efc7-53e9-441d-b99b-586302834715","ios":"levelo://app?vid=fdd9efc7-53e9-441d-b99b-586302834715"},"vehicle_type_id":"4","last_reported":1769350261,"current_range_meters":8800,"station_id":"ce4bgk12rcd13ifvqbj0","pricing_plan_id":"cebpf4jnsgd1na2vs0mg"},{"bike_id":"0cb11f49-fd12-4588-8331-049df29e4932","system_id":"levelo_inurba_marseille","lat":43.23782,"lon":5.36632,"is_reserved":false,"is_disabled":false,"rental_uris":{"android":"levelo://app?vid=0cb11f49-fd12-4588-8331-049df29e4932","ios":"levelo://app?vid=0cb11f49-fd12-4588-8331-049df29e4932"},"vehicle_type_id":"4","last_reported":1769350261,"current_range_meters":8800,"station_id":"st_d3nk18o9ro0c73en2l3g","pricing_plan_id":"cebpf4jnsgd1na2vs0mg"},{"bike_id":"5620fd0b-568e-406e-8104-b0555da61e8a","system_id":"levelo_inurba_marseille","lat":43.2842,"lon":5.48455,"is_reserved":false,"is_disabled":false,"rental_uris":{"android":"levelo://app?vid=5620fd0b-568e-406e-8104-b0555da61e8a","ios":"levelo://app?vid=5620fd0b-568e-406e-8104-b0555da61e8a"},"vehicle_type_id":"4","last_reported":1769350261,"current_range_meters":8800,"station_id":"","pricing_plan_id":"cebpf4jnsgd1na2vs0mg"},{"bike_id":"6b03ada9-beb1-4397-aab8-27781ac0b0d3","system_id":"levelo_inurba_marseille","lat":43.25122,"lon":5.40309,"is_reserved":false,"is_disabled":false,"rental_uris":{"android":"levelo://app?vid=6b03ada9-beb1-4397-aab8-27781ac0b0d3","ios":"levelo://app?vid=6b03ada9-beb1-4397-aab8-27781ac0b0d3"},"vehicle_type_id":"4","last_reported":1769350261,"current_range_meters":8800,"station_id":"ce4bhlh2rcd13ifvqgig","pricing_plan_id":"cebpf4jnsgd1na2vs0mg"},{"bike_id":"53198413-049a-45a9-8cde-151eda89e50c","system_id":"levelo_inurba_marseille","lat":43.297302,"lon":5.376889,"is_reserved":false,"is_disabled":false,"rental_uris":{"android":"levelo://app?vid=53198413-049a-45a9-8cde-151eda89e50c","ios":"levelo://app?vid=53198413-049a-45a9-8cde-151eda89e50c"},"vehicle_type_id":"4","last_reported":1769350261,"current_range_meters":8800,"station_id":"ce4bgkh2rcd13ifvqbl0","pricing_plan_id":"cebpf4jnsgd1na2vs0mg"},{"bike_id":"d9afd374-790a-426e-b386-c9a0a325b893","system_id":"levelo_inurba_marseille","lat":43.3054,"lon":5.36522,"is_reserved":false,"is_disabled":false,"rental_uris":{"android":"levelo://app?vid=d9afd374-790a-426e-b386-c9a0a325b893","ios":"levelo://app?vid=d9afd374-790a-426e-b386-c9a0a325b893"},"vehicle_type_id":"4","last_reported":1769350261,"current_range_meters":8800,"station_id":"ce4bgs12rcd13ifvqcag","pricing_plan_id":"cebpf4jnsgd1na2vs0mg"},{"bike_id":"c08e6b0b-5cbe-438d-b67a-68d6379c4c29","system_id":"levelo_inurba_marseille","lat":43.28676,"lon":5.38685,"is_reserved":false,"is_disabled":false,"rental_uris":{"android":"levelo://app?vid=c08e6b0b-5cbe-438d-b67a-68d6379c4c29","ios":"levelo://app?vid=c08e6b0b-5cbe-438d-b67a-68d6379c4c29"},"vehicle_type_id":"4","last_reported":1769350261,"current_range_meters":8800,"station_id":"ce4bh492rcd13ifvqdug","pricing_plan_id":"cebpf4jnsgd1na2vs0mg"},{"bike_id":"edf41950-9240-4c8c-b480-5f1bf85542b9","system_id":"levelo_inurba_marseille","lat":43.3014,"lon":5.37417,"is_reserved":false,"is_disabled":false,"rental_uris":{"android":"levelo://app?vid=edf41950-9240-4c8c-b480-5f1bf85542b9","ios":"levelo://app?vid=edf41950-9240-4c8c-b480-5f1bf85542b9"},"vehicle_type_id":"4","last_reported":1769350261,"current_range_meters":8800,"station_id":"ce4bgs92rcd13ifvqcc0","pricing_plan_id":"cebpf4jnsgd1na2vs0mg"},{"bike_id":"872ca787-ea41-43ac-9081-3181ff9b1e3b","system_id":"levelo_inurba_marseille","lat":43.2738,"lon":5.36257,"is_reserved":false,"is_disabled":false,"rental_uris":{"android":"levelo://app?vid=872ca787-ea41-43ac-9081-3181ff9b1e3b","ios":"levelo://app?vid=872ca787-ea41-43ac-9081-3181ff9b1e3b"},"vehicle_type_id":"4","last_reported":1769350261,"current_range_meters":8800,"station_id":"ce4bhbh2rcd13ifvqeo0","pricing_plan_id":"cebpf4jnsgd1na2vs0mg"},{"bike_id":"ffb6a194-260f-4933-8da9-320ddd27531e","system_id":"levelo_inurba_marseille","lat":43.25103,"lon":5.39512,"is_reserved":false,"is_disabled":false,"rental_uris":{"android":"levelo://app?vid=ffb6a194-260f-4933-8da9-320ddd27531e","ios":"levelo://app?vid=ffb6a194-260f-4933-8da9-320ddd27531e"},"vehicle_type_id":"4","last_reported":1769350261,"current_range_meters":8800,"station_id":"ce4bhm12rcd13ifvqgkg","pricing_plan_id":"cebpf4jnsgd1na2vs0mg"},{"bike_id":"2a90b32b-f550-4685-9b26-0ed6251ae886","system_id":"levelo_inurba_marseille","lat":43.26227,"lon":5.40452,"is_reserved":false,"is_disabled":false,"rental_uris":{"android":"levelo://app?vid=2a90b32b-f550-4685-9b26-0ed6251ae886","ios":"levelo://app?vid=2a90b32b-f550-4685-9b26-0ed6251ae886"},"vehicle_type_id":"4","last_reported":1769350261,"current_range_meters":9200,"station_id":"ce4bhmh2rcd13ifvqgmg","pricing_plan_id":"cebpf4jnsgd1na2vs0mg"},{"bike_id":"9713f383-b08e-4426-b8eb-983d4865231f","system_id":"levelo_inurba_marseille","lat":43.24432,"lon":5.37082,"is_reserved":false,"is_disabled":false,"rental_uris":{"android":"levelo://app?vid=9713f383-b08e-4426-b8eb-983d4865231f","ios":"levelo://app?vid=9713f383-b08e-4426-b8eb-983d4865231f"},"vehicle_type_id":"4","last_reported":1769350261,"current_range_meters":9200,"station_id":"ce4bhhh2rcd13ifvqfk0","pricing_plan_id":"cebpf4jnsgd1na2vs0mg"},{"bike_id":"6252b5bc-7f21-4a5c-90b2-fb54de33b122","system_id":"levelo_inurba_marseille","lat":43.24398,"lon":5.37062,"is_reserved":false,"is_disabled":false,"rental_uris":{"android":"levelo://app?vid=6252b5bc-7f21-4a5c-90b2-fb54de33b122","ios":"levelo://app?vid=6252b5bc-7f21-4a5c-90b2-fb54de33b122"},"vehicle_type_id":"4","last_reported":1769350261,"current_range_meters":9200,"station_id":"ce4bhhh2rcd13ifvqfk0","pricing_plan_id":"cebpf4jnsgd1na2vs0mg"},{"bike_id":"a15856db-9ac7-49b1-8876-30be7c45105f","system_id":"levelo_inurba_marseille","lat":43.25,"lon":5.38939,"is_reserved":false,"is_disabled":false,"rental_uris":{"android":"levelo://app?vid=a15856db-9ac7-49b1-8876-30be7c45105f","ios":"levelo://app?vid=a15856db-9ac7-49b1-8876-30be7c45105f"},"vehicle_type_id":"4","last_reported":1769350261,"current_range_meters":9200,"station_id":"ce4bhgp2rcd13ifvqfd0","pricing_plan_id":"cebpf4jnsgd1na2vs0mg"},{"bike_id":"e43980cc-a87a-420a-ba3d-68e614ac754e","system_id":"levelo_inurba_marseille","lat":43.29615,"lon":5.377195,"is_reserved":false,"is_disabled":false,"rental_uris":{"android":"levelo://app?vid=e43980cc-a87a-420a-ba3d-68e614ac754e","ios":"levelo://app?vid=e43980cc-a87a-420a-ba3d-68e614ac754e"},"vehicle_type_id":"4","last_reported":1769350261,"current_range_meters":9200,"station_id":"ce4bgi92rcd13ifvqb90","pricing_plan_id":"cebpf4jnsgd1na2vs0mg"},{"bike_id":"c0313abf-12fb-419d-943d-7cc5fd78e7ca","system_id":"levelo_inurba_marseille","lat":43.31236,"lon":5.36647,"is_reserved":false,"is_disabled":false,"rental_uris":{"android":"levelo://app?vid=c0313abf-12fb-419d-943d-7cc5fd78e7ca","ios":"levelo://app?vid=c0313abf-12fb-419d-943d-7cc5fd78e7ca"},"vehicle_type_id":"4","last_reported":1769350261,"current_range_meters":9200,"station_id":"","pricing_plan_id":"cebpf4jnsgd1na2vs0mg"},{"bike_id":"14a0bf97-5da9-4224-8def-de9f4b384230","system_id":"levelo_inurba_marseille","lat":43.25331,"lon":5.42164,"is_reserved":false,"is_disabled":false,"rental_uris":{"android":"levelo://app?vid=14a0bf97-5da9-4224-8def-de9f4b384230","ios":"levelo://app?vid=14a0bf97-5da9-4224-8def-de9f4b384230"},"vehicle_type_id":"4","last_reported":1769350261,"current_range_meters":9200,"station_id":"st_d2m65c5bi1j21697t3ng","pricing_plan_id":"cebpf4jnsgd1na2vs0mg"},{"bike_id":"5790f69f-3566-47eb-a22a-5db09c68b579","system_id":"levelo_inurba_marseille","lat":43.28629,"lon":5.35085,"is_reserved":false,"is_disabled":false,"rental_uris":{"android":"levelo://app?vid=5790f69f-3566-47eb-a22a-5db09c68b579","ios":"levelo://app?vid=5790f69f-3566-47eb-a22a-5db09c68b579"},"vehicle_type_id":"4","last_reported":1769350261,"current_range_meters":9200,"station_id":"ce4bhch2rcd13ifvqeug","pricing_plan_id":"cebpf4jnsgd1na2vs0mg"},{"bike_id":"d86d0a6e-08c4-4ac1-8a62-13d22b9dfc39","system_id":"levelo_inurba_marseille","lat":43.29928,"lon":5.3655,"is_reserved":false,"is_disabled":false,"rental_uris":{"android":"levelo://app?vid=d86d0a6e-08c4-4ac1-8a62-13d22b9dfc39","ios":"levelo://app?vid=d86d0a6e-08c4-4ac1-8a62-13d22b9dfc39"},"vehicle_type_id":"4","last_reported":1769350261,"current_range_meters":9200,"station_id":"ce4bgm92rcd13ifvqbr0","pricing_plan_id":"cebpf4jnsgd1na2vs0mg"},{"bike_id":"13e845c1-45c6-494f-9d2b-060389b216e7","system_id":"levelo_inurba_marseille","lat":43.28939,"lon":5.36646,"is_reserved":false,"is_disabled":false,"rental_uris":{"android":"levelo://app?vid=13e845c1-45c6-494f-9d2b-060389b216e7","ios":"levelo://app?vid=13e845c1-45c6-494f-9d2b-060389b216e7"},"vehicle_type_id":"4","last_reported":1769350261,"current_range_meters":9200,"station_id":"ce4bhap2rcd13ifvqek0","pricing_plan_id":"cebpf4jnsgd1na2vs0mg"},{"bike_id":"4e1ea1cf-b58b-46f4-b385-98f553a0e86f","system_id":"levelo_inurba_marseille","lat":43.28151,"lon":5.42649,"is_reserved":false,"is_disabled":false,"rental_uris":{"android":"levelo://app?vid=4e1ea1cf-b58b-46f4-b385-98f553a0e86f","ios":"levelo://app?vid=4e1ea1cf-b58b-46f4-b385-98f553a0e86f"},"vehicle_type_id":"4","last_reported":1769350261,"current_range_meters":9200,"station_id":"ce4bhnh2rcd13ifvqgug","pricing_plan_id":"cebpf4jnsgd1na2vs0mg"},{"bike_id":"788f43e3-3009-4d1d-84bf-10435baec16f","system_id":"levelo_inurba_marseille","lat":43.26367,"lon":5.41094,"is_reserved":false,"is_disabled":false,"rental_uris":{"android":"levelo://app?vid=788f43e3-3009-4d1d-84bf-10435baec16f","ios":"levelo://app?vid=788f43e3-3009-4d1d-84bf-10435baec16f"},"vehicle_type_id":"4","last_reported":1769350261,"current_range_meters":9200,"station_id":"st_d4e5ca6na9uc73bfl5fg","pricing_plan_id":"cebpf4jnsgd1na2vs0mg"},{"bike_id":"b8b10137-8c02-488c-ac38-a06db031ad26","system_id":"levelo_inurba_marseille","lat":43.2854,"lon":5.44084,"is_reserved":false,"is_disabled":false,"rental_uris":{"android":"levelo://app?vid=b8b10137-8c02-488c-ac38-a06db031ad26","ios":"levelo://app?vid=b8b10137-8c02-488c-ac38-a06db031ad26"},"vehicle_type_id":"4","last_reported":1769350261,"current_range_meters":9200,"station_id":"st_d3j3df2ikq2c7380ej80","pricing_plan_id":"cebpf4jnsgd1na2vs0mg"},{"bike_id":"ccf326ac-ae0a-4ffb-a071-520b4c6f402c","system_id":"levelo_inurba_marseille","lat":43.33157,"lon":5.37674,"is_reserved":false,"is_disabled":false,"rental_uris":{"android":"levelo://app?vid=ccf326ac-ae0a-4ffb-a071-520b4c6f402c","ios":"levelo://app?vid=ccf326ac-ae0a-4ffb-a071-520b4c6f402c"},"vehicle_type_id":"4","last_reported":1769350261,"current_range_meters":9200,"station_id":"st_d46cu089ee8s73dldbu0","pricing_plan_id":"cebpf4jnsgd1na2vs0mg"},{"bike_id":"bb62f49c-45fb-4645-98d5-5cdc91d7b5a7","system_id":"levelo_inurba_marseille","lat":43.27374,"lon":5.36261,"is_reserved":false,"is_disabled":false,"rental_uris":{"android":"levelo://app?vid=bb62f49c-45fb-4645-98d5-5cdc91d7b5a7","ios":"levelo://app?vid=bb62f49c-45fb-4645-98d5-5cdc91d7b5a7"},"vehicle_type_id":"4","last_reported":1769350261,"current_range_meters":9200,"station_id":"ce4bhbh2rcd13ifvqeo0","pricing_plan_id":"cebpf4jnsgd1na2vs0mg"},{"bike_id":"29c4cbb8-ec44-4df1-9cfe-1630b788c91c","system_id":"levelo_inurba_marseille","lat":43.28269,"lon":5.35061,"is_reserved":false,"is_disabled":false,"rental_uris":{"android":"levelo://app?vid=29c4cbb8-ec44-4df1-9cfe-1630b788c91c","ios":"levelo://app?vid=29c4cbb8-ec44-4df1-9cfe-1630b788c91c"},"vehicle_type_id":"4","last_reported":1769350261,"current_range_meters":9200,"station_id":"ce4bhbp2rcd13ifvqerg","pricing_plan_id":"cebpf4jnsgd1na2vs0mg"},{"bike_id":"5729f989-a005-46c0-8797-8d0dfcdbc20f","system_id":"levelo_inurba_marseille","lat":43.2804,"lon":5.36945,"is_reserved":false,"is_disabled":false,"rental_uris":{"android":"levelo://app?vid=5729f989-a005-46c0-8797-8d0dfcdbc20f","ios":"levelo://app?vid=5729f989-a005-46c0-8797-8d0dfcdbc20f"},"vehicle_type_id":"4","last_reported":1769350261,"current_range_meters":9200,"station_id":"ce4bha12rcd13ifvqef0","pricing_plan_id":"cebpf4jnsgd1na2vs0mg"},{"bike_id":"da2da7ab-8091-4fdd-9786-09c4907e3c80","system_id":"levelo_inurba_marseille","lat":43.21749,"lon":5.34608,"is_reserved":false,"is_disabled":false,"rental_uris":{"android":"levelo://app?vid=da2da7ab-8091-4fdd-9786-09c4907e3c80","ios":"levelo://app?vid=da2da7ab-8091-4fdd-9786-09c4907e3c80"},"vehicle_type_id":"4","last_reported":1769350261,"current_range_meters":9200,"station_id":"st_cvj6r9ubvosntc0bgbag","pricing_plan_id":"cebpf4jnsgd1na2vs0mg"},{"bike_id":"5a924aa5-a60a-459f-9ce9-4aee6291d40d","system_id":"levelo_inurba_marseille","lat":43.241535,"lon":5.36405,"is_reserved":false,"is_disabled":false,"rental_uris":{"android":"levelo://app?vid=5a924aa5-a60a-459f-9ce9-4aee6291d40d","ios":"levelo://app?vid=5a924aa5-a60a-459f-9ce9-4aee6291d40d"},"vehicle_type_id":"4","last_reported":1769350261,"current_range_meters":9600,"station_id":"cpo36qri1sfpv3e86is0","pricing_plan_id":"cebpf4jnsgd1na2vs0mg"},{"bike_id":"dcc795f5-34a5-4b33-89a8-38509adc68cb","system_id":"levelo_inurba_marseille","lat":43.31356,"lon":5.3674,"is_reserved":false,"is_disabled":false,"rental_uris":{"android":"levelo://app?vid=dcc795f5-34a5-4b33-89a8-38509adc68cb","ios":"levelo://app?vid=dcc795f5-34a5-4b33-89a8-38509adc68cb"},"vehicle_type_id":"4","last_reported":1769350261,"current_range_meters":9600,"station_id":"ce4bgr92rcd13ifvqc6g","pricing_plan_id":"cebpf4jnsgd1na2vs0mg"},{"bike_id":"a412b551-de48-49a2-a43e-b0193ba01773","system_id":"levelo_inurba_marseille","lat":43.29181,"lon":5.39316,"is_reserved":false,"is_disabled":true,"rental_uris":{"android":"levelo://app?vid=a412b551-de48-49a2-a43e-b0193ba01773","ios":"levelo://app?vid=a412b551-de48-49a2-a43e-b0193ba01773"},"vehicle_type_id":"4","last_reported":1769350261,"current_range_meters":9600,"station_id":"ce4bh192rcd13ifvqdd0","pricing_plan_id":"cebpf4jnsgd1na2vs0mg"},{"bike_id":"aeb4cc61-129c-4f69-a2a4-8c1cdbb3353c","system_id":"levelo_inurba_marseille","lat":43.24087,"lon":5.37751,"is_reserved":false,"is_disabled":false,"rental_uris":{"android":"levelo://app?vid=aeb4cc61-129c-4f69-a2a4-8c1cdbb3353c","ios":"levelo://app?vid=aeb4cc61-129c-4f69-a2a4-8c1cdbb3353c"},"vehicle_type_id":"4","last_reported":1769350261,"current_range_meters":9600,"station_id":"ce4bhnp2rcd13ifvqgvg","pricing_plan_id":"cebpf4jnsgd1na2vs0mg"},{"bike_id":"5c1bd3fc-3930-41c2-ad9d-fd6d99e3e308","system_id":"levelo_inurba_marseille","lat":43.21187,"lon":5.35076,"is_reserved":false,"is_disabled":false,"rental_uris":{"android":"levelo://app?vid=5c1bd3fc-3930-41c2-ad9d-fd6d99e3e308","ios":"levelo://app?vid=5c1bd3fc-3930-41c2-ad9d-fd6d99e3e308"},"vehicle_type_id":"4","last_reported":1769350261,"current_range_meters":9600,"station_id":"st_cvj6sg6p6f1abm77japg","pricing_plan_id":"cebpf4jnsgd1na2vs0mg"},{"bike_id":"5d411b85-7b12-4358-9445-6cfeeebcda1f","system_id":"levelo_inurba_marseille","lat":43.276096,"lon":5.361036,"is_reserved":false,"is_disabled":false,"rental_uris":{"android":"levelo://app?vid=5d411b85-7b12-4358-9445-6cfeeebcda1f","ios":"levelo://app?vid=5d411b85-7b12-4358-9445-6cfeeebcda1f"},"vehicle_type_id":"4","last_reported":1769350261,"current_range_meters":9600,"station_id":"ce4bgj92rcd13ifvqbe0","pricing_plan_id":"cebpf4jnsgd1na2vs0mg"},{"bike_id":"c8ae4aa3-7ee9-4aa4-8ee4-e2e48c3061c7","system_id":"levelo_inurba_marseille","lat":43.30375,"lon":5.42478,"is_reserved":false,"is_disabled":false,"rental_uris":{"android":"levelo://app?vid=c8ae4aa3-7ee9-4aa4-8ee4-e2e48c3061c7","ios":"levelo://app?vid=c8ae4aa3-7ee9-4aa4-8ee4-e2e48c3061c7"},"vehicle_type_id":"4","last_reported":1769350261,"current_range_meters":9600,"station_id":"ce4bhoh2rcd13ifvqh6g","pricing_plan_id":"cebpf4jnsgd1na2vs0mg"},