{"last_updated":1686927985,"ttl":30,"version":"2.2","data":{"bikes":[{"bike_id":"89ed0edc-ab1c-46f7-9801-b58b816aa9a2","system_id":"levelo_inurba_marseille","lat":43.312239,"lon":5.368562,"is_reserved":false,"is_disabled":false,"rental_uris":{"android":"levelo://app?vid=89ed0edc-ab1c-46f7-9801-b58b816aa9a2","ios":"levelo://app?vid=89ed0edc-ab1c-46f7-9801-b58b816aa9a2"},"vehicle_type_id":"4","last_reported":1686927986,"current_range_meters":1200,"station_id":"ce4bgl92rcd13ifvqbq0","pricing_plan_id":"free"},{"bike_id":"b0f82895-b694-4c40-9e91-01a0834f9c55","system_id":"levelo_inurba_marseille","lat":43.308606,"lon":5.372099,"is_reserved":false,"is_disabled":false,"rental_uris":{"android":"levelo://app?vid=b0f82895-b694-4c40-9e91-01a0834f9c55","ios":"levelo://app?vid=b0f82895-b694-4c40-9e91-01a0834f9c55"},"vehicle_type_id":"4","last_reported":1686927986,"current_range_meters":21200,"station_id":"ce4bguh2rcd13ifvqckg","pricing_plan_id":"free"},{"bike_id":"d2db3e70-c012-43a8-9e5a-4f34fe13f821","system_id":"levelo_inurba_marseille","lat":43.305706,"lon":5.365654,"is_reserved":false,"is_disabled":false,"rental_uris":{"android":"levelo://app?vid=d2db3e70-c012-43a8-9e5a-4f34fe13f821","ios":"levelo://app?vid=d2db3e70-c012-43a8-9e5a-4f34fe13f821"},"vehicle_type_id":"4","last_reported":1686927986,"current_range_meters":9200,"station_id":"ce4bgs12rcd13ifvqcag","pricing_plan_id":"free"},{"bike_id":"9ed930ce-2dd7-4dce-814a-5955f9463475","system_id":"levelo_inurba_marseille","lat":43.305706,"lon":5.365654,"is_reserved":false,"is_disabled":false,"rental_uris":{"android":"levelo://app?vid=9ed930ce-2dd7-4dce-814a-5955f9463475","ios":"levelo://app?vid=9ed930ce-2dd7-4dce-814a-5955f9463475"},"vehicle_type_id":"4","last_reported":1686927986,"current_range_meters":6800,"station_id":"ce4bgs12rcd13ifvqcag","pricing_plan_id":"free"},{"bike_id":"323886d6-619d-4185-b524-60bfd1d06c73","system_id":"levelo_inurba_marseille","lat":43.305706,"lon":5.365654,"is_reserved":false,"is_disabled":false,"rental_uris":{"android":"levelo://app?vid=323886d6-619d-4185-b524-60bfd1d06c73","ios":"levelo://app?vid=323886d6-619d-4185-b524-60bfd1d06c73"},"vehicle_type_id":"4","last_reported":1686927986,"current_range_meters":11600,"station_id":"ce4bgs12rcd13ifvqcag","pricing_plan_id":"free"},{"bike_id":"c6c83951-5765-42ae-916f-bab69b618192","system_id":"levelo_inurba_marseille","lat":43.305706,"lon":5.365654,"is_reserved":false,"is_disabled":false,"rental_uris":{"android":"levelo://app?vid=c6c83951-5765-42ae-916f-bab69b618192","ios":"levelo://app?vid=c6c83951-5765-42ae-916f-bab69b618192"},"vehicle_type_id":"4","last_reported":1686927986,"current_range_meters":3600,"station_id":"ce4bgs12rcd13ifvqcag","pricing_plan_id":"free"},{"bike_id":"75bb6431-d99f-4b7e-8db9-9911d2c1ab5e","system_id":"levelo_inurba_marseille","lat":43.305706,"lon":5.365654,"is_reserved":false,"is_disabled":false,"rental_uris":{"android":"levelo://app?vid=75bb6431-d99f-4b7e-8db9-9911d2c1ab5e","ios":"levelo://app?vid=75bb6431-d99f-4b7e-8db9-9911d2c1ab5e"},"vehicle_type_id":"4","last_reported":1686927986,"current_range_meters":2000,"station_id":"ce4bgs12rcd13ifvqcag","pricing_plan_id":"free"},{"bike_id":"89bf0b6f-d196-492c-86b3-d3155fd03cf3","system_id":"levelo_inurba_marseille","lat":43.305706,"lon":5.365654,"is_reserved":false,"is_disabled":false,"rental_uris":{"android":"levelo://app?vid=89bf0b6f-d196-492c-86b3-d3155fd03cf3","ios":"levelo://app?vid=89bf0b6f-d196-492c-86b3-d3155fd03cf3"},"vehicle_type_id":"4","last_reported":1686927986,"current_range_meters":13600,"station_id":"ce4bgs12rcd13ifvqcag","pricing_plan_id":"free"},{"bike_id":"cd413a4f-e00e-4891-bdd7-177bafe1f297","system_id":"levelo_inurba_marseille","lat":43.311125,"lon":5.377624,"is_reserved":false,"is_disabled":false,"rental_uris":{"android":"levelo://app?vid=cd413a4f-e00e-4891-bdd7-177bafe1f297","ios":"levelo://app?vid=cd413a4f-e00e-4891-bdd7-177bafe1f297"},"vehicle_type_id":"4","last_reported":1686927986,"current_range_meters":26400,"station_id":"ce4bgt92rcd13ifvqcg0","pricing_plan_id":"free"},{"bike_id":"43860e87-db31-4d3c-b2dc-f20e3a55b86c","system_id":"levelo_inurba_marseille","lat":43.31132,"lon":5.37817,"is_reserved":false,"is_disabled":false,"rental_uris":{"android":"levelo://app?vid=43860e87-db31-4d3c-b2dc-f20e3a55b86c","ios":"levelo://app?vid=43860e87-db31-4d3c-b2dc-f20e3a55b86c"},"vehicle_type_id":"4","last_reported":1686927986,"current_range_meters":11600,"station_id":"","pricing_plan_id":"free"},{"bike_id":"8cda5bed-2e8e-4a65-ad36-f9b2a692ce98","system_id":"levelo_inurba_marseille","lat":43.317075,"lon":5.377367,"is_reserved":false,"is_disabled":false,"rental_uris":{"android":"levelo://app?vid=8cda5bed-2e8e-4a65-ad36-f9b2a692ce98","ios":"levelo://app?vid=8cda5bed-2e8e-4a65-ad36-f9b2a692ce98"},"vehicle_type_id":"4","last_reported":1686927986,"current_range_meters":18800,"station_id":"ce4bgth2rcd13ifvqch0","pricing_plan_id":"free"},{"bike_id":"2424216c-0462-4ad0-b127-d0366c91b61c","system_id":"levelo_inurba_marseille","lat":43.31713,"lon":5.37757,"is_reserved":false,"is_disabled":false,"rental_uris":{"android":"levelo://app?vid=2424216c-0462-4ad0-b127-d0366c91b61c","ios":"levelo://app?vid=2424216c-0462-4ad0-b127-d0366c91b61c"},"vehicle_type_id":"4","last_reported":1686927986,"current_range_meters":30000,"station_id":"ce4bgth2rcd13ifvqch0","pricing_plan_id":"free"},{"bike_id":"3d5f511e-1fc9-4b72-ae77-6251a9edff4e","system_id":"levelo_inurba_marseille","lat":43.317075,"lon":5.377367,"is_reserved":false,"is_disabled":false,"rental_uris":{"android":"levelo://app?vid=3d5f511e-1fc9-4b72-ae77-6251a9edff4e","ios":"levelo://app?vid=3d5f511e-1fc9-4b72-ae77-6251a9edff4e"},"vehicle_type_id":"4","last_reported":1686927986,"current_range_meters":31600,"station_id":"ce4bgth2rcd13ifvqch0","pricing_plan_id":"free"},{"bike_id":"156d0da5-aaf7-4bd0-bb9e-79dc41a2d471","system_id":"levelo_inurba_marseille","lat":43.317075,"lon":5.377367,"is_reserved":false,"is_disabled":false,"rental_uris":{"android":"levelo://app?vid=156d0da5-aaf7-4bd0-bb9e-79dc41a2d471","ios":"levelo://app?vid=156d0da5-aaf7-4bd0-bb9e-79dc41a2d471"},"vehicle_type_id":"4","last_reported":1686927986,"current_range_meters":3600,"station_id":"ce4bgth2rcd13ifvqch0","pricing_plan_id":"free"},{"bike_id":"bf5e29c2-0ca3-4bf7-a44f-9f518b68c89f","system_id":"levelo_inurba_marseille","lat":43.317075,"lon":5.377367,"is_reserved":false,"is_disabled":false,"rental_uris":{"android":"levelo://app?vid=bf5e29c2-0ca3-4bf7-a44f-9f518b68c89f","ios":"levelo://app?vid=bf5e29c2-0ca3-4bf7-a44f-9f518b68c89f"},"vehicle_type_id":"4","last_reported":1686927986,"current_range_meters":28800,"station_id":"ce4bgth2rcd13ifvqch0","pricing_plan_id":"free"},{"bike_id":"2b50e898-eaeb-4a64-a575-e2a9f6d50f3c","system_id":"levelo_inurba_marseille","lat":43.30319,"lon":5.36893,"is_reserved":false,"is_disabled":false,"rental_uris":{"android":"levelo://app?vid=2b50e898-eaeb-4a64-a575-e2a9f6d50f3c","ios":"levelo://app?vid=2b50e898-eaeb-4a64-a575-e2a9f6d50f3c"},"vehicle_type_id":"4","last_reported":1686927986,"current_range_meters":26800,"station_id":"ce4bgqh2rcd13ifvqc5g","pricing_plan_id":"free"},{"bike_id":"f2558fe1-b459-4d2a-93d3-8196c5543e15","system_id":"levelo_inurba_marseille","lat":43.315293,"lon":5.380349,"is_reserved":false,"is_disabled":false,"rental_uris":{"android":"levelo://app?vid=f2558fe1-b459-4d2a-93d3-8196c5543e15","ios":"levelo://app?vid=f2558fe1-b459-4d2a-93d3-8196c5543e15"},"vehicle_type_id":"4","last_reported":1686927986,"current_range_meters":25200,"station_id":"ce4bhsp2rcd13ifvqi50","pricing_plan_id":"free"},{"bike_id":"6ac3acf7-2c68-4cb9-8e48-4869ad2ef0e6","system_id":"levelo_inurba_marseille","lat":43.315293,"lon":5.380349,"is_reserved":false,"is_disabled":false,"rental_uris":{"android":"levelo://app?vid=6ac3acf7-2c68-4cb9-8e48-4869ad2ef0e6","ios":"levelo://app?vid=6ac3acf7-2c68-4cb9-8e48-4869ad2ef0e6"},"vehicle_type_id":"4","last_reported":1686927986,"current_range_meters":12800,"station_id":"ce4bhsp2rcd13ifvqi50","pricing_plan_id":"free"},{"bike_id":"8882b98f-663d-40f8-be4b-d43880ad85ef","system_id":"levelo_inurba_marseille","lat":43.3032,"lon":5.37405,"is_reserved":false,"is_disabled":false,"rental_uris":{"android":"levelo://app?vid=8882b98f-663d-40f8-be4b-d43880ad85ef","ios":"levelo://app?vid=8882b98f-663d-40f8-be4b-d43880ad85ef"},"vehicle_type_id":"4","last_reported":1686927986,"current_range_meters":21600,"station_id":"","pricing_plan_id":"free"},{"bike_id":"ae33307b-fcd5-479b-9ae1-9002ed226c6e","system_id":"levelo_inurba_marseille","lat":43.308012,"lon":5.381511,"is_reserved":false,"is_disabled":false,"rental_uris":{"android":"levelo://app?vid=ae33307b-fcd5-479b-9ae1-9002ed226c6e","ios":"levelo://app?vid=ae33307b-fcd5-479b-9ae1-9002ed226c6e"},"vehicle_type_id":"4","last_reported":1686927986,"current_range_meters":14800,"station_id":"ce4bgt12rcd13ifvqce0","pricing_plan_id":"free"},{"bike_id":"0fd1a507-e4a9-4864-be20-15d0b0fe0b3d","system_id":"levelo_inurba_marseille","lat":43.304606,"lon":5.379026,"is_reserved":false,"is_disabled":false,"rental_uris":{"android":"levelo://app?vid=0fd1a507-e4a9-4864-be20-15d0b0fe0b3d","ios":"levelo://app?vid=0fd1a507-e4a9-4864-be20-15d0b0fe0b3d"},"vehicle_type_id":"4","last_reported":1686927986,"current_range_meters":0,"station_id":"ce4bgup2rcd13ifvqcn0","pricing_plan_id":"free"},{"bike_id":"fc4a69da-5dee-4c68-8631-20ee11bc487b","system_id":"levelo_inurba_marseille","lat":43.304606,"lon":5.379026,"is_reserved":false,"is_disabled":false,"rental_uris":{"android":"levelo://app?vid=fc4a69da-5dee-4c68-8631-20ee11bc487b","ios":"levelo://app?vid=fc4a69da-5dee-4c68-8631-20ee11bc487b"},"vehicle_type_id":"4","last_reported":1686927986,"current_range_meters":30000,"station_id":"ce4bgup2rcd13ifvqcn0","pricing_plan_id":"free"},{"bike_id":"43fc693e-f2a9-4aec-8fd9-d094bb02cb70","system_id":"levelo_inurba_marseille","lat":43.304606,"lon":5.379026,"is_reserved":false,"is_disabled":false,"rental_uris":{"android":"levelo://app?vid=43fc693e-f2a9-4aec-8fd9-d094bb02cb70","ios":"levelo://app?vid=43fc693e-f2a9-4aec-8fd9-d094bb02cb70"},"vehicle_type_id":"4","last_reported":1686927986,"current_range_meters":24800,"station_id":"ce4bgup2rcd13ifvqcn0","pricing_plan_id":"free"},{"bike_id":"a70b5a0d-8a5d-4193-9705-52cd57c5deba","system_id":"levelo_inurba_marseille","lat":43.304109,"lon":5.378415,"is_reserved":false,"is_disabled":false,"rental_uris":{"android":"levelo://app?vid=a70b5a0d-8a5d-4193-9705-52cd57c5deba","ios":"levelo://app?vid=a70b5a0d-8a5d-4193-9705-52cd57c5deba"},"vehicle_type_id":"4","last_reported":1686927986,"current_range_meters":0,"station_id":"","pricing_plan_id":"free"},{"bike_id":"32827146-2d6b-4fb1-b00e-6b2f535ca544","system_id":"levelo_inurba_marseille","lat":43.30486,"lon":5.3794,"is_reserved":false,"is_disabled":false,"rental_uris":{"android":"levelo://app?vid=32827146-2d6b-4fb1-b00e-6b2f535ca544","ios":"levelo://app?vid=32827146-2d6b-4fb1-b00e-6b2f535ca544"},"vehicle_type_id":"4","last_reported":1686927986,"current_range_meters":31200,"station_id":"","pricing_plan_id":"free"},{"bike_id":"c98d1cd7-2573-491b-8f3e-c60632586c20","system_id":"levelo_inurba_marseille","lat":43.302784,"lon":5.377158,"is_reserved":false,"is_disabled":false,"rental_uris":{"android":"levelo://app?vid=c98d1cd7-2573-491b-8f3e-c60632586c20","ios":"levelo://app?vid=c98d1cd7-2573-491b-8f3e-c60632586c20"},"vehicle_type_id":"4","last_reported":1686927986,"current_range_meters":18000,"station_id":"ce4bguh2rcd13ifvqcj0","pricing_plan_id":"free"},{"bike_id":"147b7af4-2ca8-4606-b03e-d4ed1f0f6a92","system_id":"levelo_inurba_marseille","lat":43.30143,"lon":5.37413,"is_reserved":false,"is_disabled":false,"rental_uris":{"android":"levelo://app?vid=147b7af4-2ca8-4606-b03e-d4ed1f0f6a92","ios":"levelo://app?vid=147b7af4-2ca8-4606-b03e-d4ed1f0f6a92"},"vehicle_type_id":"4","last_reported":1686927986,"current_range_meters":4800,"station_id":"ce4bgs92rcd13ifvqcc0","pricing_plan_id":"free"},{"bike_id":"b6aabf64-a702-4ca1-80da-b8059ee02a35","system_id":"levelo_inurba_marseille","lat":43.32,"lon":5.38167,"is_reserved":false,"is_disabled":false,"rental_uris":{"android":"levelo://app?vid=b6aabf64-a702-4ca1-80da-b8059ee02a35","ios":"levelo://app?vid=b6aabf64-a702-4ca1-80da-b8059ee02a35"},"vehicle_type_id":"4","last_reported":1686927986,"current_range_meters":23600,"station_id":"ce4bhr12rcd13ifvqhpg","pricing_plan_id":"free"},{"bike_id":"662c50fb-6082-4e07-b4c0-5605981937db","system_id":"levelo_inurba_marseille","lat":43.319935,"lon":5.381699,"is_reserved":false,"is_disabled":false,"rental_uris":{"android":"levelo://app?vid=662c50fb-6082-4e07-b4c0-5605981937db","ios":"levelo://app?vid=662c50fb-6082-4e07-b4c0-5605981937db"},"vehicle_type_id":"4","last_reported":1686927986,"current_range_meters":0,"station_id":"ce4bhr12rcd13ifvqhpg","pricing_plan_id":"free"},{"bike_id":"72e39c55-eedb-436a-9386-c053d79f0a57","system_id":"levelo_inurba_marseille","lat":43.31999,"lon":5.38171,"is_reserved":false,"is_disabled":false,"rental_uris":{"android":"levelo://app?vid=72e39c55-eedb-436a-9386-c053d79f0a57","ios":"levelo://app?vid=72e39c55-eedb-436a-9386-c053d79f0a57"},"vehicle_type_id":"4","last_reported":1686927986,"current_range_meters":11200,"station_id":"ce4bhr12rcd13ifvqhpg","pricing_plan_id":"free"},{"bike_id":"d68dea1c-e943-4ebe-8777-fa2d7bae82ac","system_id":"levelo_inurba_marseille","lat":43.32001,"lon":5.3817,"is_reserved":false,"is_disabled":false,"rental_uris":{"android":"levelo://app?vid=d68dea1c-e943-4ebe-8777-fa2d7bae82ac","ios":"levelo://app?vid=d68dea1c-e943-4ebe-8777-fa2d7bae82ac"},"vehicle_type_id":"4","last_reported":1686927986,"current_range_meters":26000,"station_id":"ce4bhr12rcd13ifvqhpg","pricing_plan_id":"free"},{"bike_id":"eb3d05e6-f5ca-462c-b479-ef9ee894c77c","system_id":"levelo_inurba_marseille","lat":43.319935,"lon":5.381699,"is_reserved":false,"is_disabled":false,"rental_uris":{"android":"levelo://app?vid=eb3d05e6-f5ca-462c-b479-ef9ee894c77c","ios":"levelo://app?vid=eb3d05e6-f5ca-462c-b479-ef9ee894c77c"},"vehicle_type_id":"4","last_reported":1686927986,"current_range_meters":5600,"station_id":"ce4bhr12rcd13ifvqhpg","pricing_plan_id":"free"},{"bike_id":"a899ae4d-69c9-421e-a4dc-c091862ee7d2","system_id":"levelo_inurba_marseille","lat":43.299222,"lon":5.365554,"is_reserved":false,"is_disabled":false,"rental_uris":{"android":"levelo://app?vid=a899ae4d-69c9-421e-a4dc-c091862ee7d2","ios":"levelo://app?vid=a899ae4d-69c9-421e-a4dc-c091862ee7d2"},"vehicle_type_id":"4","last_reported":1686927986,"current_range_meters":17600,"station_id":"ce4bgm92rcd13ifvqbr0","pricing_plan_id":"free"},{"bike_id":"17821687-1dd7-4a30-ad86-f947177fd6fa","system_id":"levelo_inurba_marseille","lat":43.29941,"lon":5.36542,"is_reserved":false,"is_disabled":false,"rental_uris":{"android":"levelo://app?vid=17821687-1dd7-4a30-ad86-f947177fd6fa","ios":"levelo://app?vid=17821687-1dd7-4a30-ad86-f947177fd6fa"},"vehicle_type_id":"4","last_reported":1686927986,"current_range_meters":8000,"station_id":"","pricing_plan_id":"free"},{"bike_id":"330412da-b9eb-49fa-9ba0-9288ee9ddd31","system_id":"levelo_inurba_marseille","lat":43.30046,"lon":5.37521,"is_reserved":false,"is_disabled":false,"rental_uris":{"android":"levelo://app?vid=330412da-b9eb-49fa-9ba0-9288ee9ddd31","ios":"levelo://app?vid=330412da-b9eb-49fa-9ba0-9288ee9ddd31"},"vehicle_type_id":"4","last_reported":1686927986,"current_range_meters":22800,"station_id":"","pricing_plan_id":"free"},{"bike_id":"b4319196-1a7b-4b61-89e4-4aa01abde76c","system_id":"levelo_inurba_marseille","lat":43.273613,"lon":5.362705,"is_reserved":false,"is_disabled":false,"rental_uris":{"android":"levelo://app?vid=b4319196-1a7b-4b61-89e4-4aa01abde76c","ios":"levelo://app?vid=b4319196-1a7b-4b61-89e4-4aa01abde76c"},"vehicle_type_id":"4","last_reported":1686927986,"current_range_meters":26000,"station_id":"ce4bhbh2rcd13ifvqeo0","pricing_plan_id":"free"},{"bike_id":"36940129-41c5-4b4c-8bb8-d9143597862f","system_id":"levelo_inurba_marseille","lat":43.297794,"lon":5.370888,"is_reserved":false,"is_disabled":false,"rental_uris":{"android":"levelo://app?vid=36940129-41c5-4b4c-8bb8-d9143597862f","ios":"levelo://app?vid=36940129-41c5-4b4c-8bb8-d9143597862f"},"vehicle_type_id":"4","last_reported":1686927986,"current_range_meters":7200,"station_id":"ce4bgop2rcd13ifvqc1g","pricing_plan_id":"free"},{"bike_id":"f1800c4c-0ded-4b12-ae0e-e115859ad399","system_id":"levelo_inurba_marseille","lat":43.328288,"lon":5.366856,"is_reserved":false,"is_disabled":false,"rental_uris":{"android":"levelo://app?vid=f1800c4c-0ded-4b12-ae0e-e115859ad399","ios":"levelo://app?vid=f1800c4c-0ded-4b12-ae0e-e115859ad399"},"vehicle_type_id":"4","last_reported":1686927986,"current_range_meters":16800,"station_id":"ce4bhs92rcd13ifvqi0g","pricing_plan_id":"free"},{"bike_id":"b03d88f8-bf3f-46ac-9bbf-b15e89df07c3","system_id":"levelo_inurba_marseille","lat":43.3283,"lon":5.36675,"is_reserved":false,"is_disabled":false,"rental_uris":{"android":"levelo://app?vid=b03d88f8-bf3f-46ac-9bbf-b15e89df07c3","ios":"levelo://app?vid=b03d88f8-bf3f-46ac-9bbf-b15e89df07c3"},"vehicle_type_id":"4","last_reported":1686927986,"current_range_meters":9600,"station_id":"ce4bhs92rcd13ifvqi0g","pricing_plan_id":"free"},{"bike_id":"5aea4ff9-b794-49fa-b864-ba4cf0a9088f","system_id":"levelo_inurba_marseille","lat":43.328371,"lon":5.366912,"is_reserved":false,"is_disabled":false,"rental_uris":{"android":"levelo://app?vid=5aea4ff9-b794-49fa-b864-ba4cf0a9088f","ios":"levelo://app?vid=5aea4ff9-b794-49fa-b864-ba4cf0a9088f"},"vehicle_type_id":"4","last_reported":1686927986,"current_range_meters":3200,"station_id":"ce4bhs92rcd13ifvqi0g","pricing_plan_id":"free"},{"bike_id":"ff794f1f-9e95-4490-8283-62c81133f947","system_id":"levelo_inurba_marseille","lat":43.2968,"lon":5.37291,"is_reserved":false,"is_disabled":false,"rental_uris":{"android":"levelo://app?vid=ff794f1f-9e95-4490-8283-62c81133f947","ios":"levelo://app?vid=ff794f1f-9e95-4490-8283-62c81133f947"},"vehicle_type_id":"4","last_reported":1686927986,"current_range_meters":28400,"station_id":"ce4bgk12rcd13ifvqbj0","pricing_plan_id":"free"},{"bike_id":"94f5486e-cf76-4504-9be7-6ec96d195003","system_id":"levelo_inurba_marseille","lat":43.2968,"lon":5.37291,"is_reserved":false,"is_disabled":false,"rental_uris":{"android":"levelo://app?vid=94f5486e-cf76-4504-9be7-6ec96d195003","ios":"levelo://app?vid=94f5486e-cf76-4504-9be7-6ec96d195003"},"vehicle_type_id":"4","last_reported":1686927986,"current_range_meters":25600,"station_id":"ce4bgk12rcd13ifvqbj0","pricing_plan_id":"free"},{"bike_id":"88d0330c-5bb0-4a19-9b65-d4683b42e015","system_id":"levelo_inurba_marseille","lat":43.29683,"lon":5.36046,"is_reserved":false,"is_disabled":false,"rental_uris":{"android":"levelo://app?vid=88d0330c-5bb0-4a19-9b65-d4683b42e015","ios":"levelo://app?vid=88d0330c-5bb0-4a19-9b65-d4683b42e015"},"vehicle_type_id":"4","last_reported":1686927986,"current_range_meters":10000,"station_id":"ce4bgpp2rcd13ifvqc3g","pricing_plan_id":"free"},{"bike_id":"fb227a44-3c35-4da3-95b2-dbb0562d86bf","system_id":"levelo_inurba_marseille","lat":43.299028,"lon":5.381509,"is_reserved":false,"is_disabled":false,"rental_uris":{"android":"levelo://app?vid=fb227a44-3c35-4da3-95b2-dbb0562d86bf","ios":"levelo://app?vid=fb227a44-3c35-4da3-95b2-dbb0562d86bf"},"vehicle_type_id":"4","last_reported":1686927986,"current_range_meters":0,"station_id":"ce4bgj12rcd13ifvqbc0","pricing_plan_id":"free"},{"bike_id":"4df51899-8f3b-432a-b4cd-fa8ed196da1c","system_id":"levelo_inurba_marseille","lat":43.299028,"lon":5.381509,"is_reserved":false,"is_disabled":false,"rental_uris":{"android":"levelo://app?vid=4df51899-8f3b-432a-b4cd-fa8ed196da1c","ios":"levelo://app?vid=4df51899-8f3b-432a-b4cd-fa8ed196da1c"},"vehicle_type_id":"4","last_reported":1686927986,"current_range_meters":5600,"station_id":"ce4bgj12rcd13ifvqbc0","pricing_plan_id":"free"},{"bike_id":"594580d1-bf89-4536-9cfb-2a67b624f36a","system_id":"levelo_inurba_marseille","lat":43.298037,"lon":5.381066,"is_reserved":false,"is_disabled":false,"rental_uris":{"android":"levelo://app?vid=594580d1-bf89-4536-9cfb-2a67b624f36a","ios":"levelo://app?vid=594580d1-bf89-4536-9cfb-2a67b624f36a"},"vehicle_type_id":"4","last_reported":1686927986,"current_range_meters":11200,"station_id":"ce4bgip2rcd13ifvqbb0","pricing_plan_id":"free"},{"bike_id":"75258418-984e-4f71-b4a0-13f67b126a6a","system_id":"levelo_inurba_marseille","lat":43.29582,"lon":5.3752,"is_reserved":false,"is_disabled":false,"rental_uris":{"android":"levelo://app?vid=75258418-984e-4f71-b4a0-13f67b126a6a","ios":"levelo://app?vid=75258418-984e-4f71-b4a0-13f67b126a6a"},"vehicle_type_id":"4","last_reported":1686927986,"current_range_meters":23200,"station_id":"ce4bgh92rcd13ifvqb50","pricing_plan_id":"free"},{"bike_id":"250c8a96-8498-4211-b8f3-1b00a8d1fbaf","system_id":"levelo_inurba_marseille","lat":43.296477,"lon":5.37768,"is_reserved":false,"is_disabled":false,"rental_uris":{"android":"levelo://app?vid=250c8a96-8498-4211-b8f3-1b00a8d1fbaf","ios":"levelo://app?vid=250c8a96-8498-4211-b8f3-1b00a8d1fbaf"},"vehicle_type_id":"4","last_reported":1686927986,"current_range_meters":20000,"station_id":"","pricing_plan_id":"free"},{"bike_id":"e08d72f6-fbf2-49d3-b896-068255d35f0a","system_id":"levelo_inurba_marseille","lat":43.29574,"lon":5.37526,"is_reserved":false,"is_disabled":false,"rental_uris":{"android":"levelo://app?vid=e08d72f6-fbf2-49d3-b896-068255d35f0a","ios":"levelo://app?vid=e08d72f6-fbf2-49d3-b896-068255d35f0a"},"vehicle_type_id":"4","last_reported":1686927986,"current_range_meters":21200,"station_id":"ce4bgh92rcd13ifvqb50","pricing_plan_id":"free"},{"bike_id":"d3a6d64a-3d59-4707-b096-60ede873a619","system_id":"levelo_inurba_marseille","lat":43.30434,"lon":5.38893,"is_reserved":false,"is_disabled":false,"rental_uris":{"android":"levelo://app?vid=d3a6d64a-3d59-4707-b096-60ede873a619","ios":"levelo://app?vid=d3a6d64a-3d59-4707-b096-60ede873a619"},"vehicle_type_id":"4","last_reported":1686927986,"current_range_meters":8800,"station_id":"ce4bgk12rcd13ifvqbi0","pricing_plan_id":"free"},{"bike_id":"1da4bf2e-9449-4cea-b988-4be0bd80e8a0","system_id":"levelo_inurba_marseille","lat":43.295748,"lon":5.37522,"is_reserved":false,"is_disabled":false,"rental_uris":{"android":"levelo://app?vid=1da4bf2e-9449-4cea-b988-4be0bd80e8a0","ios":"levelo://app?vid=1da4bf2e-9449-4cea-b988-4be0bd80e8a0"},"vehicle_type_id":"4","last_reported":1686927986,"current_range_meters":27200,"station_id":"ce4bgh92rcd13ifvqb50","pricing_plan_id":"free"},{"bike_id":"5c26534a-7f42-4b87-8557-de9216fc9566","system_id":"levelo_inurba_marseille","lat":43.296277,"lon":5.377108,"is_reserved":false,"is_disabled":false,"rental_uris":{"android":"levelo://app?vid=5c26534a-7f42-4b87-8557-de9216fc9566","ios":"levelo://app?vid=5c26534a-7f42-4b87-8557-de9216fc9566"},"vehicle_type_id":"4","last_reported":1686927986,"current_range_meters":800,"station_id":"ce4bgi92rcd13ifvqb90","pricing_plan_id":"free"},{"bike_id":"78c7d20f-f5a2-4e3d-92bf-7cfca8830820","system_id":"levelo_inurba_marseille","lat":43.296277,"lon":5.377108,"is_reserved":false,"is_disabled":false,"rental_uris":{"android":"levelo://app?vid=78c7d20f-f5a2-4e3d-92bf-7cfca8830820","ios":"levelo://app?vid=78c7d20f-f5a2-4e3d-92bf-7cfca8830820"},"vehicle_type_id":"4","last_reported":1686927986,"current_range_meters":12400,"station_id":"ce4bgi92rcd13ifvqb90","pricing_plan_id":"free"},{"bike_id":"b0988f54-738e-4f3a-8ece-9befcf0e346d","system_id":"levelo_inurba_marseille","lat":43.29615,"lon":5.37719,"is_reserved":false,"is_disabled":false,"rental_uris":{"android":"levelo://app?vid=b0988f54-738e-4f3a-8ece-9befcf0e346d","ios":"levelo://app?vid=b0988f54-738e-4f3a-8ece-9befcf0e346d"},"vehicle_type_id":"4","last_reported":1686927986,"current_range_meters":4800,"station_id":"ce4bgi92rcd13ifvqb90","pricing_plan_id":"free"},{"bike_id":"c52ff747-76d4-4a6d-b3b7-1e3643b869ec","system_id":"levelo_inurba_marseille","lat":43.299707,"lon":5.384859,"is_reserved":false,"is_disabled":false,"rental_uris":{"android":"levelo://app?vid=c52ff747-76d4-4a6d-b3b7-1e3643b869ec","ios":"levelo://app?vid=c52ff747-76d4-4a6d-b3b7-1e3643b869ec"},"vehicle_type_id":"4","last_reported":1686927986,"current_range_meters":14800,"station_id":"ce4bgj92rcd13ifvqbd0","pricing_plan_id":"free"},{"bike_id":"aaa60d84-af1f-4168-a7c8-b5be50e39831","system_id":"levelo_inurba_marseille","lat":43.299707,"lon":5.384859,"is_reserved":false,"is_disabled":false,"rental_uris":{"android":"levelo://app?vid=aaa60d84-af1f-4168-a7c8-b5be50e39831","ios":"levelo://app?vid=aaa60d84-af1f-4168-a7c8-b5be50e39831"},"vehicle_type_id":"4","last_reported":1686927986,"current_range_meters":13600,"station_id":"ce4bgj92rcd13ifvqbd0","pricing_plan_id":"free"},{"bike_id":"d299e4f9-9e0e-40f1-8374-b0f5753efc77","system_id":"levelo_inurba_marseille","lat":43.299717,"lon":5.384845,"is_reserved":false,"is_disabled":false,"rental_uris":{"android":"levelo://app?vid=d299e4f9-9e0e-40f1-8374-b0f5753efc77","ios":"levelo://app?vid=d299e4f9-9e0e-40f1-8374-b0f5753efc77"},"vehicle_type_id":"4","last_reported":1686927986,"current_range_meters":7200,"station_id":"ce4bgj92rcd13ifvqbd0","pricing_plan_id":"free"},{"bike_id":"2c9ad911-25e0-4222-8751-d809dfadd582","system_id":"levelo_inurba_marseille","lat":43.32365,"lon":5.38869,"is_reserved":false,"is_disabled":false,"rental_uris":{"android":"levelo://app?vid=2c9ad911-25e0-4222-8751-d809dfadd582","ios":"levelo://app?vid=2c9ad911-25e0-4222-8751-d809dfadd582"},"vehicle_type_id":"4","last_reported":1686927986,"current_range_meters":30400,"station_id":"ce4bhqp2rcd13ifvqhog","pricing_plan_id":"free"},{"bike_id":"78215555-c896-40a2-aa66-c1d318a07622","system_id":"levelo_inurba_marseille","lat":43.32366,"lon":5.38874,"is_reserved":false,"is_disabled":false,"rental_uris":{"android":"levelo://app?vid=78215555-c896-40a2-aa66-c1d318a07622","ios":"levelo://app?vid=78215555-c896-40a2-aa66-c1d318a07622"},"vehicle_type_id":"4","last_reported":1686927986,"current_range_meters":10000,"station_id":"ce4bhqp2rcd13ifvqhog","pricing_plan_id":"free"},{"bike_id":"8ff43016-effc-4157-b871-584c11706f73","system_id":"levelo_inurba_marseille","lat":43.32369,"lon":5.38874,"is_reserved":false,"is_disabled":false,"rental_uris":{"android":"levelo://app?vid=8ff43016-effc-4157-b871-584c11706f73","ios":"levelo://app?vid=8ff43016-effc-4157-b871-584c11706f73"},"vehicle_type_id":"4","last_reported":1686927986,"current_range_meters":28400,"station_id":"ce4bhqp2rcd13ifvqhog","pricing_plan_id":"free"},{"bike_id":"242f12a2-fa6d-4b5f-9c1c-53e395dd5e66","system_id":"levelo_inurba_marseille","lat":43.32363,"lon":5.38885,"is_reserved":false,"is_disabled":false,"rental_uris":{"android":"levelo://app?vid=242f12a2-fa6d-4b5f-9c1c-53e395dd5e66","ios":"levelo://app?vid=242f12a2-fa6d-4b5f-9c1c-53e395dd5e66"},"vehicle_type_id":"4","last_reported":1686927986,"current_range_meters":19200,"station_id":"ce4bhqp2rcd13ifvqhog","pricing_plan_id":"free"},{"bike_id":"a9a2f008-3476-4c2e-bcae-168fe3f7a1b5","system_id":"levelo_inurba_marseille","lat":43.32367,"lon":5.388836,"is_reserved":false,"is_disabled":false,"rental_uris":{"android":"levelo://app?vid=a9a2f008-3476-4c2e-bcae-168fe3f7a1b5","ios":"levelo://app?vid=a9a2f008-3476-4c2e-bcae-168fe3f7a1b5"},"vehicle_type_id":"4","last_reported":1686927986,"current_range_meters":29200,"station_id":"ce4bhqp2rcd13ifvqhog","pricing_plan_id":"free"},{"bike_id":"45853ba0-1ea4-4590-9874-7e79f1c15803","system_id":"levelo_inurba_marseille","lat":43.32367,"lon":5.388836,"is_reserved":false,"is_disabled":false,"rental_uris":{"android":"levelo://app?vid=45853ba0-1ea4-4590-9874-7e79f1c15803","ios":"levelo://app?vid=45853ba0-1ea4-4590-9874-7e79f1c15803"},"vehicle_type_id":"4","last_reported":1686927986,"current_range_meters":3600,"station_id":"ce4bhqp2rcd13ifvqhog","pricing_plan_id":"free"},{"bike_id":"10ed1d6c-d00a-444f-af8c-4218677a8970","system_id":"levelo_inurba_marseille","lat":43.305994,"lon":5.393687,"is_reserved":false,"is_disabled":false,"rental_uris":{"android":"levelo://app?vid=10ed1d6c-d00a-444f-af8c-4218677a8970","ios":"levelo://app?vid=10ed1d6c-d00a-444f-af8c-4218677a8970"},"vehicle_type_id":"4","last_reported":1686927986,"current_range_meters":2400,"station_id":"ce4bh0p2rcd13ifvqd80","pricing_plan_id":"free"},{"bike_id":"8b008e9c-20e6-4e43-bfbb-aa5c0f7bfc4b","system_id":"levelo_inurba_marseille","lat":43.29272,"lon":5.35988,"is_reserved":false,"is_disabled":false,"rental_uris":{"android":"levelo://app?vid=8b008e9c-20e6-4e43-bfbb-aa5c0f7bfc4b","ios":"levelo://app?vid=8b008e9c-20e6-4e43-bfbb-aa5c0f7bfc4b"},"vehicle_type_id":"4","last_reported":1686927986,"current_range_meters":13200,"station_id":"","pricing_plan_id":"free"},{"bike_id":"1e5e8e88-8a3a-4350-8981-227299b08dd6","system_id":"levelo_inurba_marseille","lat":43.2936,"lon":5.37835,"is_reserved":false,"is_disabled":false,"rental_uris":{"android":"levelo://app?vid=1e5e8e88-8a3a-4350-8981-227299b08dd6","ios":"levelo://app?vid=1e5e8e88-8a3a-4350-8981-227299b08dd6"},"vehicle_type_id":"4","last_reported":1686927986,"current_range_meters":2400,"station_id":"ce4bgjh2rcd13ifvqbf0","pricing_plan_id":"free"},{"bike_id":"54db2890-c06f-4a85-97c0-ec02e95b00d2","system_id":"levelo_inurba_marseille","lat":43.30085,"lon":5.390856,"is_reserved":false,"is_disabled":false,"rental_uris":{"android":"levelo://app?vid=54db2890-c06f-4a85-97c0-ec02e95b00d2","ios":"levelo://app?vid=54db2890-c06f-4a85-97c0-ec02e95b00d2"},"vehicle_type_id":"4","last_reported":1686927986,"current_range_meters":1200,"station_id":"ce4bh192rcd13ifvqdb0","pricing_plan_id":"free"},{"bike_id":"75c8cddc-6c9d-4234-bdba-a13a798db173","system_id":"levelo_inurba_marseille","lat":43.313291,"lon":5.396838,"is_reserved":false,"is_disabled":false,"rental_uris":{"android":"levelo://app?vid=75c8cddc-6c9d-4234-bdba-a13a798db173","ios":"levelo://app?vid=75c8cddc-6c9d-4234-bdba-a13a798db173"},"vehicle_type_id":"4","last_reported":1686927986,"current_range_meters":4400,"station_id":"ce4bgvp2rcd13ifvqcu0","pricing_plan_id":"free"},{"bike_id":"89cb5ddf-0667-45cf-84ba-61a7e63827a0","system_id":"levelo_inurba_marseille","lat":43.291994,"lon":5.357886,"is_reserved":false,"is_disabled":false,"rental_uris":{"android":"levelo://app?vid=89cb5ddf-0667-45cf-84ba-61a7e63827a0","ios":"levelo://app?vid=89cb5ddf-0667-45cf-84ba-61a7e63827a0"},"vehicle_type_id":"4","last_reported":1686927986,"current_range_meters":22000,"station_id":"ce4bhb12rcd13ifvqel0","pricing_plan_id":"free"},{"bike_id":"f26e2ba8-86f9-4f5b-9613-572057fb34eb","system_id":"levelo_inurba_marseille","lat":43.29529,"lon":5.385581,"is_reserved":false,"is_disabled":false,"rental_uris":{"android":"levelo://app?vid=f26e2ba8-86f9-4f5b-9613-572057fb34eb","ios":"levelo://app?vid=f26e2ba8-86f9-4f5b-9613-572057fb34eb"},"vehicle_type_id":"4","last_reported":1686927986,"current_range_meters":0,"station_id":"ce4bgih2rcd13ifvqba0","pricing_plan_id":"free"},{"bike_id":"f8b421c8-13db-4f7b-8726-e59af0dc9f03","system_id":"levelo_inurba_marseille","lat":43.29084,"lon":5.37197,"is_reserved":false,"is_disabled":false,"rental_uris":{"android":"levelo://app?vid=f8b421c8-13db-4f7b-8726-e59af0dc9f03","ios":"levelo://app?vid=f8b421c8-13db-4f7b-8726-e59af0dc9f03"},"vehicle_type_id":"4","last_reported":1686927986,"current_range_meters":21600,"station_id":"ce4bh492rcd13ifvqdug","pricing_plan_id":"free"},{"bike_id":"bbed9bd7-d3af-4f28-9fa9-fdb0d5bc450d","system_id":"levelo_inurba_marseille","lat":43.302008,"lon":5.394694,"is_reserved":false,"is_disabled":false,"rental_uris":{"android":"levelo://app?vid=bbed9bd7-d3af-4f28-9fa9-fdb0d5bc450d","ios":"levelo://app?vid=bbed9bd7-d3af-4f28-9fa9-fdb0d5bc450d"},"vehicle_type_id":"4","last_reported":1686927986,"current_range_meters":0,"station_id":"ce4bh0p2rcd13ifvqd70","pricing_plan_id":"free"},{"bike_id":"38eb09af-7166-42b9-865e-84246929498f","system_id":"levelo_inurba_marseille","lat":43.29431,"lon":5.38621,"is_reserved":false,"is_disabled":false,"rental_uris":{"android":"levelo://app?vid=38eb09af-7166-42b9-865e-84246929498f","ios":"levelo://app?vid=38eb09af-7166-42b9-865e-84246929498f"},"vehicle_type_id":"4","last_reported":1686927986,"current_range_meters":31200,"station_id":"ce4bh2h2rcd13ifvqdh0","pricing_plan_id":"free"},{"bike_id":"82d83cd9-bb1a-4360-acdc-0b97df81b9d1","system_id":"levelo_inurba_marseille","lat":43.294162,"lon":5.386292,"is_reserved":false,"is_disabled":false,"rental_uris":{"android":"levelo://app?vid=82d83cd9-bb1a-4360-acdc-0b97df81b9d1","ios":"levelo://app?vid=82d83cd9-bb1a-4360-acdc-0b97df81b9d1"},"vehicle_type_id":"4","last_reported":1686927986,"current_range_meters":9200,"station_id":"ce4bh2h2rcd13ifvqdh0","pricing_plan_id":"free"},{"bike_id":"63d43508-d18d-46cd-9c31-559d2458295f","system_id":"levelo_inurba_marseille","lat":43.294162,"lon":5.386292,"is_reserved":false,"is_disabled":false,"rental_uris":{"android":"levelo://app?vid=63d43508-d18d-46cd-9c31-559d2458295f","ios":"levelo://app?vid=63d43508-d18d-46cd-9c31-559d2458295f"},"vehicle_type_id":"4","last_reported":1686927986,"current_range_meters":0,"station_id":"ce4bh2h2rcd13ifvqdh0","pricing_plan_id":"free"},{"bike_id":"98cd0643-bfe3-4420-8d94-da194d0e8c67","system_id":"levelo_inurba_marseille","lat":43.294162,"lon":5.386292,"is_reserved":false,"is_disabled":false,"rental_uris":{"android":"levelo://app?vid=98cd0643-bfe3-4420-8d94-da194d0e8c67","ios":"levelo://app?vid=98cd0643-bfe3-4420-8d94-da194d0e8c67"},"vehicle_type_id":"4","last_reported":1686927986,"current_range_meters":12400,"station_id":"ce4bh2h2rcd13ifvqdh0","pricing_plan_id":"free"},{"bike_id":"a0d46f55-c0a7-464f-8a22-03c8ae2c894b","system_id":"levelo_inurba_marseille","lat":43.294162,"lon":5.386292,"is_reserved":false,"is_disabled":false,"rental_uris":{"android":"levelo://app?vid=a0d46f55-c0a7-464f-8a22-03c8ae2c894b","ios":"levelo://app?vid=a0d46f55-c0a7-464f-8a22-03c8ae2c894b"},"vehicle_type_id":"4","last_reported":1686927986,"current_range_meters":23200,"station_id":"ce4bh2h2rcd13ifvqdh0","pricing_plan_id":"free"},{"bike_id":"85d5d023-d051-425f-8c39-d0b8c64f8fbd","system_id":"levelo_inurba_marseille","lat":43.3304,"lon":5.38914,"is_reserved":false,"is_disabled":false,"rental_uris":{"android":"levelo://app?vid=85d5d023-d051-425f-8c39-d0b8c64f8fbd","ios":"levelo://app?vid=85d5d023-d051-425f-8c39-d0b8c64f8fbd"},"vehicle_type_id":"4","last_reported":1686927986,"current_range_meters":29200,"station_id":"ce4bhr92rcd13ifvqhrg","pricing_plan_id":"free"},{"bike_id":"c5e9470b-b093-4159-96a1-c5eddb541542","system_id":"levelo_inurba_marseille","lat":43.330442,"lon":5.389148,"is_reserved":false,"is_disabled":false,"rental_uris":{"android":"levelo://app?vid=c5e9470b-b093-4159-96a1-c5eddb541542","ios":"levelo://app?vid=c5e9470b-b093-4159-96a1-c5eddb541542"},"vehicle_type_id":"4","last_reported":1686927986,"current_range_meters":24400,"station_id":"ce4bhr92rcd13ifvqhrg","pricing_plan_id":"free"},{"bike_id":"6836d606-3264-4fac-8c3e-1bc7caae6a15","system_id":"levelo_inurba_marseille","lat":43.290104,"lon":5.356111,"is_reserved":false,"is_disabled":false,"rental_uris":{"android":"levelo://app?vid=6836d606-3264-4fac-8c3e-1bc7caae6a15","ios":"levelo://app?vid=6836d606-3264-4fac-8c3e-1bc7caae6a15"},"vehicle_type_id":"4","last_reported":1686927986,"current_range_meters":18000,"station_id":"ce4bhb92rcd13ifvqen0","pricing_plan_id":"free"},{"bike_id":"11c4adb5-5f72-447c-9db2-785e0c8fe7c6","system_id":"levelo_inurba_marseille","lat":43.330442,"lon":5.389148,"is_reserved":false,"is_disabled":false,"rental_uris":{"android":"levelo://app?vid=11c4adb5-5f72-447c-9db2-785e0c8fe7c6","ios":"levelo://app?vid=11c4adb5-5f72-447c-9db2-785e0c8fe7c6"},"vehicle_type_id":"4","last_reported":1686927986,"current_range_meters":2400,"station_id":"ce4bhr92rcd13ifvqhrg","pricing_plan_id":"free"},{"bike_id":"a4d2814a-ff66-466e-b091-93a97eadc809","system_id":"levelo_inurba_marseille","lat":43.33051,"lon":5.38918,"is_reserved":false,"is_disabled":false,"rental_uris":{"android":"levelo://app?vid=a4d2814a-ff66-466e-b091-93a97eadc809","ios":"levelo://app?vid=a4d2814a-ff66-466e-b091-93a97eadc809"},"vehicle_type_id":"4","last_reported":1686927986,"current_range_meters":28400,"station_id":"ce4bhr92rcd13ifvqhrg","pricing_plan_id":"free"},{"bike_id":"327d7ff4-fd22-4c5e-b62e-1b86575924f8","system_id":"levelo_inurba_marseille","lat":43.290995,"lon":5.381361,"is_reserved":false,"is_disabled":false,"rental_uris":{"android":"levelo://app?vid=327d7ff4-fd22-4c5e-b62e-1b86575924f8","ios":"levelo://app?vid=327d7ff4-fd22-4c5e-b62e-1b86575924f8"},"vehicle_type_id":"4","last_reported":1686927986,"current_range_meters":12800,"station_id":"ce4bh512rcd13ifvqe2g","pricing_plan_id":"free"},{"bike_id":"27275d6c-117c-44ef-bf66-6735384a4c43","system_id":"levelo_inurba_marseille","lat":43.290995,"lon":5.381361,"is_reserved":false,"is_disabled":false,"rental_uris":{"android":"levelo://app?vid=27275d6c-117c-44ef-bf66-6735384a4c43","ios":"levelo://app?vid=27275d6c-117c-44ef-bf66-6735384a4c43"},"vehicle_type_id":"4","last_reported":1686927986,"current_range_meters":10000,"station_id":"ce4bh512rcd13ifvqe2g","pricing_plan_id":"free"},{"bike_id":"723b0689-3a00-4161-98b5-42a8f7aa315c","system_id":"levelo_inurba_marseille","lat":43.295169,"lon":5.390426,"is_reserved":false,"is_disabled":false,"rental_uris":{"android":"levelo://app?vid=723b0689-3a00-4161-98b5-42a8f7aa315c","ios":"levelo://app?vid=723b0689-3a00-4161-98b5-42a8f7aa315c"},"vehicle_type_id":"4","last_reported":1686927986,"current_range_meters":400,"station_id":"ce4bh3p2rcd13ifvqdp0","pricing_plan_id":"free"},{"bike_id":"09cefd10-dece-4e07-af3f-3fbc3f90e199","system_id":"levelo_inurba_marseille","lat":43.29029,"lon":5.38133,"is_reserved":false,"is_disabled":false,"rental_uris":{"android":"levelo://app?vid=09cefd10-dece-4e07-af3f-3fbc3f90e199","ios":"levelo://app?vid=09cefd10-dece-4e07-af3f-3fbc3f90e199"},"vehicle_type_id":"4","last_reported":1686927986,"current_range_meters":13200,"station_id":"ce4bh4p2rcd13ifvqe1g","pricing_plan_id":"free"},{"bike_id":"c0fb8083-e02d-4dec-b1b9-fa095e6c5b75","system_id":"levelo_inurba_marseille","lat":43.337396,"lon":5.374526,"is_reserved":false,"is_disabled":false,"rental_uris":{"android":"levelo://app?vid=c0fb8083-e02d-4dec-b1b9-fa095e6c5b75","ios":"levelo://app?vid=c0fb8083-e02d-4dec-b1b9-fa095e6c5b75"},"vehicle_type_id":"4","last_reported":1686927986,"current_range_meters":800,"station_id":"ce4bhp92rcd13ifvqhag","pricing_plan_id":"free"},{"bike_id":"9891e7a2-71fc-4253-b732-b33f17c6ff8a","system_id":"levelo_inurba_marseille","lat":43.309371,"lon":5.401449,"is_reserved":false,"is_disabled":false,"rental_uris":{"android":"levelo://app?vid=9891e7a2-71fc-4253-b732-b33f17c6ff8a","ios":"levelo://app?vid=9891e7a2-71fc-4253-b732-b33f17c6ff8a"},"vehicle_type_id":"4","last_reported":1686927986,"current_range_meters":1600,"station_id":"ce4bgvp2rcd13ifvqct0","pricing_plan_id":"free"},{"bike_id":"8da8c021-3e78-4a58-b67b-7ba4886e892f","system_id":"levelo_inurba_marseille","lat":43.309371,"lon":5.401449,"is_reserved":false,"is_disabled":false,"rental_uris":{"android":"levelo://app?vid=8da8c021-3e78-4a58-b67b-7ba4886e892f","ios":"levelo://app?vid=8da8c021-3e78-4a58-b67b-7ba4886e892f"},"vehicle_type_id":"4","last_reported":1686927986,"current_range_meters":22400,"station_id":"ce4bgvp2rcd13ifvqct0","pricing_plan_id":"free"},{"bike_id":"604204c6-1cee-471e-9b75-48e414441c02","system_id":"levelo_inurba_marseille","lat":43.30149,"lon":5.3987,"is_reserved":false,"is_disabled":false,"rental_uris":{"android":"levelo://app?vid=604204c6-1cee-471e-9b75-48e414441c02","ios":"levelo://app?vid=604204c6-1cee-471e-9b75-48e414441c02"},"vehicle_type_id":"4","last_reported":1686927986,"current_range_meters":0,"station_id":"","pricing_plan_id":"free"},{"bike_id":"68d03b6f-83cc-4df5-b868-881b59422117","system_id":"levelo_inurba_marseille","lat":43.298681,"lon":5.397225,"is_reserved":false,"is_disabled":false,"rental_uris":{"android":"levelo://app?vid=68d03b6f-83cc-4df5-b868-881b59422117","ios":"levelo://app?vid=68d03b6f-83cc-4df5-b868-881b59422117"},"vehicle_type_id":"4","last_reported":1686927986,"current_range_meters":0,"station_id":"ce4bh0h2rcd13ifvqd50","pricing_plan_id":"free"},{"bike_id":"f6dd91bd-11da-4c4d-8c21-e1eb9b3fa1c5","system_id":"levelo_inurba_marseille","lat":43.298681,"lon":5.397225,"is_reserved":false,"is_disabled":false,"rental_uris":{"android":"levelo://app?vid=f6dd91bd-11da-4c4d-8c21-e1eb9b3fa1c5","ios":"levelo://app?vid=f6dd91bd-11da-4c4d-8c21-e1eb9b3fa1c5"},"vehicle_type_id":"4","last_reported":1686927986,"current_range_meters":2000,"station_id":"ce4bh0h2rcd13ifvqd50","pricing_plan_id":"free"},{"bike_id":"86633f1d-876b-4131-87b8-7b8116d888ee","system_id":"levelo_inurba_marseille","lat":43.302759,"lon":5.400793,"is_reserved":false,"is_disabled":false,"rental_uris":{"android":"levelo://app?vid=86633f1d-876b-4131-87b8-7b8116d888ee","ios":"levelo://app?vid=86633f1d-876b-4131-87b8-7b8116d888ee"},"vehicle_type_id":"4","last_reported":1686927986,"current_range_meters":2000,"station_id":"ce4bgvh2rcd13ifvqcs0","pricing_plan_id":"free"},{"bike_id":"0cfaf365-b36d-48d8-9385-8988698e0732","system_id":"levelo_inurba_marseille","lat":43.291994,"lon":5.392907,"is_reserved":false,"is_disabled":false,"rental_uris":{"android":"levelo://app?vid=0cfaf365-b36d-48d8-9385-8988698e0732","ios":"levelo://app?vid=0cfaf365-b36d-48d8-9385-8988698e0732"},"vehicle_type_id":"4","last_reported":1686927986,"current_range_meters":2800,"station_id":"ce4bh192rcd13ifvqdd0","pricing_plan_id":"free"},{"bike_id":"37818cf1-64c1-4cf8-987b-042dfa530f66","system_id":"levelo_inurba_marseille","lat":43.291994,"lon":5.392907,"is_reserved":false,"is_disabled":false,"rental_uris":{"android":"levelo://app?vid=37818cf1-64c1-4cf8-987b-042dfa530f66","ios":"levelo://app?vid=37818cf1-64c1-4cf8-987b-042dfa530f66"},"vehicle_type_id":"4","last_reported":1686927986,"current_range_meters":12400,"station_id":"ce4bh192rcd13ifvqdd0","pricing_plan_id":"free"},{"bike_id":"2ff73f4c-e7a4-4495-a756-832a25fae537","system_id":"levelo_inurba_marseille","lat":43.284534,"lon":5.358662,"is_reserved":false,"is_disabled":false,"rental_uris":{"android":"levelo://app?vid=2ff73f4c-e7a4-4495-a756-832a25fae537","ios":"levelo://app?vid=2ff73f4c-e7a4-4495-a756-832a25fae537"},"vehicle_type_id":"4","last_reported":1686927986,"current_range_meters":24000,"station_id":"ce4bhah2rcd13ifvqei0","pricing_plan_id":"free"},{"bike_id":"3b0f8552-6b51-4710-a76c-c592a2f439f0","system_id":"levelo_inurba_marseille","lat":43.28469,"lon":5.35887,"is_reserved":false,"is_disabled":false,"rental_uris":{"android":"levelo://app?vid=3b0f8552-6b51-4710-a76c-c592a2f439f0","ios":"levelo://app?vid=3b0f8552-6b51-4710-a76c-c592a2f439f0"},"vehicle_type_id":"4","last_reported":1686927986,"current_range_meters":7600,"station_id":"ce4bhah2rcd13ifvqei0","pricing_plan_id":"free"},{"bike_id":"0138d021-5ae8-4288-a299-275fec5013e4","system_id":"levelo_inurba_marseille","lat":43.28465,"lon":5.35895,"is_reserved":false,"is_disabled":false,"rental_uris":{"android":"levelo://app?vid=0138d021-5ae8-4288-a299-275fec5013e4","ios":"levelo://app?vid=0138d021-5ae8-4288-a299-275fec5013e4"},"vehicle_type_id":"4","last_reported":1686927986,"current_range_meters":1600,"station_id":"ce4bhah2rcd13ifvqei0","pricing_plan_id":"free"},{"bike_id":"bd5fe969-2e5f-4898-ac65-21a43316b231","system_id":"levelo_inurba_marseille","lat":43.284534,"lon":5.358662,"is_reserved":false,"is_disabled":false,"rental_uris":{"android":"levelo://app?vid=bd5fe969-2e5f-4898-ac65-21a43316b231","ios":"levelo://app?vid=bd5fe969-2e5f-4898-ac65-21a43316b231"},"vehicle_type_id":"4","last_reported":1686927986,"current_range_meters":21200,"station_id":"ce4bhah2rcd13ifvqei0","pricing_plan_id":"free"},{"bike_id":"8b685400-638c-4d88-9e04-8f550389cbb9","system_id":"levelo_inurba_marseille","lat":43.286039,"lon":5.370681,"is_reserved":false,"is_disabled":false,"rental_uris":{"android":"levelo://app?vid=8b685400-638c-4d88-9e04-8f550389cbb9","ios":"levelo://app?vid=8b685400-638c-4d88-9e04-8f550389cbb9"},"vehicle_type_id":"4","last_reported":1686927986,"current_range_meters":800,"station_id":"ce4bht12rcd13ifvqi60","pricing_plan_id":"free"},{"bike_id":"d93d75e7-e37e-49ea-9adc-e234f7ebc401","system_id":"levelo_inurba_marseille","lat":43.294314,"lon":5.397498,"is_reserved":false,"is_disabled":false,"rental_uris":{"android":"levelo://app?vid=d93d75e7-e37e-49ea-9adc-e234f7ebc401","ios":"levelo://app?vid=d93d75e7-e37e-49ea-9adc-e234f7ebc401"},"vehicle_type_id":"4","last_reported":1686927986,"current_range_meters":20800,"station_id":"ce4bh3h2rcd13ifvqdo0","pricing_plan_id":"free"},{"bike_id":"e3ffba2d-482c-4a0c-a2d9-99e2c9f5c96e","system_id":"levelo_inurba_marseille","lat":43.294314,"lon":5.397498,"is_reserved":false,"is_disabled":false,"rental_uris":{"android":"levelo://app?vid=e3ffba2d-482c-4a0c-a2d9-99e2c9f5c96e","ios":"levelo://app?vid=e3ffba2d-482c-4a0c-a2d9-99e2c9f5c96e"},"vehicle_type_id":"4","last_reported":1686927986,"current_range_meters":1600,"station_id":"ce4bh3h2rcd13ifvqdo0","pricing_plan_id":"free"},{"bike_id":"2cc4b459-8ed4-4db7-93ad-bb239b271763","system_id":"levelo_inurba_marseille","lat":43.28618,"lon":5.35107,"is_reserved":false,"is_disabled":false,"rental_uris":{"android":"levelo://app?vid=2cc4b459-8ed4-4db7-93ad-bb239b271763","ios":"levelo://app?vid=2cc4b459-8ed4-4db7-93ad-bb239b271763"},"vehicle_type_id":"4","last_reported":1686927986,"current_range_meters":19200,"station_id":"ce4bhch2rcd13ifvqeug","pricing_plan_id":"free"},{"bike_id":"d9a40c2c-8b1c-4cbd-ba16-813910a2120d","system_id":"levelo_inurba_marseille","lat":43.286137,"lon":5.351005,"is_reserved":false,"is_disabled":false,"rental_uris":{"android":"levelo://app?vid=d9a40c2c-8b1c-4cbd-ba16-813910a2120d","ios":"levelo://app?vid=d9a40c2c-8b1c-4cbd-ba16-813910a2120d"},"vehicle_type_id":"4","last_reported":1686927986,"current_range_meters":0,"station_id":"","pricing_plan_id":"free"},{"bike_id":"8d75760d-8f94-4bad-b3ca-afdb4ece1dfa","system_id":"levelo_inurba_marseille","lat":43.295713,"lon":5.399639,"is_reserved":false,"is_disabled":false,"rental_uris":{"android":"levelo://app?vid=8d75760d-8f94-4bad-b3ca-afdb4ece1dfa","ios":"levelo://app?vid=8d75760d-8f94-4bad-b3ca-afdb4ece1dfa"},"vehicle_type_id":"4","last_reported":1686927986,"current_range_meters":22800,"station_id":"ce4bh312rcd13ifvqdj0","pricing_plan_id":"free"},{"bike_id":"2157f1ab-dc85-4366-9a28-238cf3e3c614","system_id":"levelo_inurba_marseille","lat":43.295713,"lon":5.399639,"is_reserved":false,"is_disabled":false,"rental_uris":{"android":"levelo://app?vid=2157f1ab-dc85-4366-9a28-238cf3e3c614","ios":"levelo://app?vid=2157f1ab-dc85-4366-9a28-238cf3e3c614"},"vehicle_type_id":"4","last_reported":1686927986,"current_range_meters":31600,"station_id":"ce4bh312rcd13ifvqdj0","pricing_plan_id":"free"},{"bike_id":"077e7ac6-a35d-4917-87fd-98957f4d205d","system_id":"levelo_inurba_marseille","lat":43.295713,"lon":5.399639,"is_reserved":false,"is_disabled":false,"rental_uris":{"android":"levelo://app?vid=077e7ac6-a35d-4917-87fd-98957f4d205d","ios":"levelo://app?vid=077e7ac6-a35d-4917-87fd-98957f4d205d"},"vehicle_type_id":"4","last_reported":1686927986,"current_range_meters":16800,"station_id":"ce4bh312rcd13ifvqdj0","pricing_plan_id":"free"},{"bike_id":"16e5fedd-6e86-436a-a0a2-72c7cd60a6ea","system_id":"levelo_inurba_marseille","lat":43.323464,"lon":5.406297,"is_reserved":false,"is_disabled":false,"rental_uris":{"android":"levelo://app?vid=16e5fedd-6e86-436a-a0a2-72c7cd60a6ea","ios":"levelo://app?vid=16e5fedd-6e86-436a-a0a2-72c7cd60a6ea"},"vehicle_type_id":"4","last_reported":1686927986,"current_range_meters":31200,"station_id":"ce4bhq92rcd13ifvqhjg","pricing_plan_id":"free"},{"bike_id":"29576d86-4369-49af-9765-677caefc7f8f","system_id":"levelo_inurba_marseille","lat":43.284793,"lon":5.384113,"is_reserved":false,"is_disabled":false,"rental_uris":{"android":"levelo://app?vid=29576d86-4369-49af-9765-677caefc7f8f","ios":"levelo://app?vid=29576d86-4369-49af-9765-677caefc7f8f"},"vehicle_type_id":"4","last_reported":1686927986,"current_range_meters":18000,"station_id":"ce4bh512rcd13ifvqe3g","pricing_plan_id":"free"},{"bike_id":"804bb76a-272e-43d3-85aa-f3607532ce38","system_id":"levelo_inurba_marseille","lat":43.288501,"lon":5.393087,"is_reserved":false,"is_disabled":false,"rental_uris":{"android":"levelo://app?vid=804bb76a-272e-43d3-85aa-f3607532ce38","ios":"levelo://app?vid=804bb76a-272e-43d3-85aa-f3607532ce38"},"vehicle_type_id":"4","last_reported":1686927986,"current_range_meters":800,"station_id":"ce4bh2p2rcd13ifvqdi0","pricing_plan_id":"free"},{"bike_id":"52f7b0a4-7f89-4715-9d70-0ead7517e41a","system_id":"levelo_inurba_marseille","lat":43.288501,"lon":5.393087,"is_reserved":false,"is_disabled":false,"rental_uris":{"android":"levelo://app?vid=52f7b0a4-7f89-4715-9d70-0ead7517e41a","ios":"levelo://app?vid=52f7b0a4-7f89-4715-9d70-0ead7517e41a"},"vehicle_type_id":"4","last_reported":1686927986,"current_range_meters":10000,"station_id":"ce4bh2p2rcd13ifvqdi0","pricing_plan_id":"free"},{"bike_id":"45458b33-9669-4879-8a18-f8dda0a40cdd","system_id":"levelo_inurba_marseille","lat":43.283498,"lon":5.380948,"is_reserved":false,"is_disabled":false,"rental_uris":{"android":"levelo://app?vid=45458b33-9669-4879-8a18-f8dda0a40cdd","ios":"levelo://app?vid=45458b33-9669-4879-8a18-f8dda0a40cdd"},"vehicle_type_id":"4","last_reported":1686927986,"current_range_meters":2800,"station_id":"ce4bh412rcd13ifvqdr0","pricing_plan_id":"free"},{"bike_id":"519cb9cd-ea6a-4f0b-a1a9-16d98aa9f147","system_id":"levelo_inurba_marseille","lat":43.284219,"lon":5.3497,"is_reserved":false,"is_disabled":false,"rental_uris":{"android":"levelo://app?vid=519cb9cd-ea6a-4f0b-a1a9-16d98aa9f147","ios":"levelo://app?vid=519cb9cd-ea6a-4f0b-a1a9-16d98aa9f147"},"vehicle_type_id":"4","last_reported":1686927986,"current_range_meters":30400,"station_id":"ce4bhbh2rcd13ifvqepg","pricing_plan_id":"free"},{"bike_id":"00b4d942-d645-4a17-a320-9c02b5ecca68","system_id":"levelo_inurba_marseille","lat":43.288497,"lon":5.393089,"is_reserved":false,"is_disabled":false,"rental_uris":{"android":"levelo://app?vid=00b4d942-d645-4a17-a320-9c02b5ecca68","ios":"levelo://app?vid=00b4d942-d645-4a17-a320-9c02b5ecca68"},"vehicle_type_id":"4","last_reported":1686927986,"current_range_meters":29200,"station_id":"ce4bh2p2rcd13ifvqdi0","pricing_plan_id":"free"},{"bike_id":"1494c99d-f285-4896-8ec3-b900245bdf01","system_id":"levelo_inurba_marseille","lat":43.283498,"lon":5.380948,"is_reserved":false,"is_disabled":false,"rental_uris":{"android":"levelo://app?vid=1494c99d-f285-4896-8ec3-b900245bdf01","ios":"levelo://app?vid=1494c99d-f285-4896-8ec3-b900245bdf01"},"vehicle_type_id":"4","last_reported":1686927986,"current_range_meters":24800,"station_id":"ce4bh412rcd13ifvqdr0","pricing_plan_id":"free"},{"bike_id":"7c2a9ed7-34b4-4fcd-86e0-70409d9ca7e2","system_id":"levelo_inurba_marseille","lat":43.283498,"lon":5.380948,"is_reserved":false,"is_disabled":false,"rental_uris":{"android":"levelo://app?vid=7c2a9ed7-34b4-4fcd-86e0-70409d9ca7e2","ios":"levelo://app?vid=7c2a9ed7-34b4-4fcd-86e0-70409d9ca7e2"},"vehicle_type_id":"4","last_reported":1686927986,"current_range_meters":22800,"station_id":"ce4bh412rcd13ifvqdr0","pricing_plan_id":"free"},{"bike_id":"36ca348c-5b9e-4dad-be0c-72c80ab3500a","system_id":"levelo_inurba_marseille","lat":43.284219,"lon":5.3497,"is_reserved":false,"is_disabled":false,"rental_uris":{"android":"levelo://app?vid=36ca348c-5b9e-4dad-be0c-72c80ab3500a","ios":"levelo://app?vid=36ca348c-5b9e-4dad-be0c-72c80ab3500a"},"vehicle_type_id":"4","last_reported":1686927986,"current_range_meters":26000,"station_id":"ce4bhbh2rcd13ifvqepg","pricing_plan_id":"free"},{"bike_id":"ed4a17a6-753e-469e-b2e9-e1f377a6a479","system_id":"levelo_inurba_marseille","lat":43.28426,"lon":5.34991,"is_reserved":false,"is_disabled":false,"rental_uris":{"android":"levelo://app?vid=ed4a17a6-753e-469e-b2e9-e1f377a6a479","ios":"levelo://app?vid=ed4a17a6-753e-469e-b2e9-e1f377a6a479"},"vehicle_type_id":"4","last_reported":1686927986,"current_range_meters":22000,"station_id":"ce4bhbh2rcd13ifvqepg","pricing_plan_id":"free"},{"bike_id":"5389fee3-6913-4c90-99b7-469f70f31baa","system_id":"levelo_inurba_marseille","lat":43.28425,"lon":5.34983,"is_reserved":false,"is_disabled":false,"rental_uris":{"android":"levelo://app?vid=5389fee3-6913-4c90-99b7-469f70f31baa","ios":"levelo://app?vid=5389fee3-6913-4c90-99b7-469f70f31baa"},"vehicle_type_id":"4","last_reported":1686927986,"current_range_meters":25200,"station_id":"ce4bhbh2rcd13ifvqepg","pricing_plan_id":"free"},{"bike_id":"a6790631-ef52-41c6-be7b-f2681abbe85a","system_id":"levelo_inurba_marseille","lat":43.28422,"lon":5.34991,"is_reserved":false,"is_disabled":false,"rental_uris":{"android":"levelo://app?vid=a6790631-ef52-41c6-be7b-f2681abbe85a","ios":"levelo://app?vid=a6790631-ef52-41c6-be7b-f2681abbe85a"},"vehicle_type_id":"4","last_reported":1686927986,"current_range_meters":14800,"station_id":"ce4bhbh2rcd13ifvqepg","pricing_plan_id":"free"},{"bike_id":"84009cd9-d118-4860-bf41-7c4d0e0e6199","system_id":"levelo_inurba_marseille","lat":43.284219,"lon":5.3497,"is_reserved":false,"is_disabled":false,"rental_uris":{"android":"levelo://app?vid=84009cd9-d118-4860-bf41-7c4d0e0e6199","ios":"levelo://app?vid=84009cd9-d118-4860-bf41-7c4d0e0e6199"},"vehicle_type_id":"4","last_reported":1686927986,"current_range_meters":21600,"station_id":"ce4bhbh2rcd13ifvqepg","pricing_plan_id":"free"},{"bike_id":"d755afe6-61f5-49b9-978a-3058ee409e2d","system_id":"levelo_inurba_marseille","lat":43.28424,"lon":5.34978,"is_reserved":false,"is_disabled":false,"rental_uris":{"android":"levelo://app?vid=d755afe6-61f5-49b9-978a-3058ee409e2d","ios":"levelo://app?vid=d755afe6-61f5-49b9-978a-3058ee409e2d"},"vehicle_type_id":"4","last_reported":1686927986,"current_range_meters":13200,"station_id":"ce4bhbh2rcd13ifvqepg","pricing_plan_id":"free"},{"bike_id":"9f915451-07c1-4cef-9243-ac50e6b26cd0","system_id":"levelo_inurba_marseille","lat":43.28422,"lon":5.34983,"is_reserved":false,"is_disabled":false,"rental_uris":{"android":"levelo://app?vid=9f915451-07c1-4cef-9243-ac50e6b26cd0","ios":"levelo://app?vid=9f915451-07c1-4cef-9243-ac50e6b26cd0"},"vehicle_type_id":"4","last_reported":1686927986,"current_range_meters":2400,"station_id":"ce4bhbh2rcd13ifvqepg","pricing_plan_id":"free"},{"bike_id":"5fee6b19-1a91-42d7-a4bd-78f4e838ba50","system_id":"levelo_inurba_marseille","lat":43.2842,"lon":5.34986,"is_reserved":false,"is_disabled":false,"rental_uris":{"android":"levelo://app?vid=5fee6b19-1a91-42d7-a4bd-78f4e838ba50","ios":"levelo://app?vid=5fee6b19-1a91-42d7-a4bd-78f4e838ba50"},"vehicle_type_id":"4","last_reported":1686927986,"current_range_meters":14400,"station_id":"ce4bhbh2rcd13ifvqepg","pricing_plan_id":"free"},{"bike_id":"5093d537-e080-4624-a3ff-7bb35f59447c","system_id":"levelo_inurba_marseille","lat":43.284219,"lon":5.3497,"is_reserved":false,"is_disabled":false,"rental_uris":{"android":"levelo://app?vid=5093d537-e080-4624-a3ff-7bb35f59447c","ios":"levelo://app?vid=5093d537-e080-4624-a3ff-7bb35f59447c"},"vehicle_type_id":"4","last_reported":1686927986,"current_range_meters":31200,"station_id":"ce4bhbh2rcd13ifvqepg","pricing_plan_id":"free"},{"bike_id":"61b8ccfb-c5a8-4198-bb27-7725c2660c6a","system_id":"levelo_inurba_marseille","lat":43.28419,"lon":5.34987,"is_reserved":false,"is_disabled":false,"rental_uris":{"android":"levelo://app?vid=61b8ccfb-c5a8-4198-bb27-7725c2660c6a","ios":"levelo://app?vid=61b8ccfb-c5a8-4198-bb27-7725c2660c6a"},"vehicle_type_id":"4","last_reported":1686927986,"current_range_meters":6400,"station_id":"ce4bhbh2rcd13ifvqepg","pricing_plan_id":"free"},{"bike_id":"9fb535d5-7b04-44fa-8928-69d79ef686c9","system_id":"levelo_inurba_marseille","lat":43.28422,"lon":5.34976,"is_reserved":false,"is_disabled":false,"rental_uris":{"android":"levelo://app?vid=9fb535d5-7b04-44fa-8928-69d79ef686c9","ios":"levelo://app?vid=9fb535d5-7b04-44fa-8928-69d79ef686c9"},"vehicle_type_id":"4","last_reported":1686927986,"current_range_meters":24800,"station_id":"ce4bhbh2rcd13ifvqepg","pricing_plan_id":"free"},{"bike_id":"a86be2f6-7f45-4656-a047-2864772738b8","system_id":"levelo_inurba_marseille","lat":43.2842,"lon":5.34982,"is_reserved":false,"is_disabled":false,"rental_uris":{"android":"levelo://app?vid=a86be2f6-7f45-4656-a047-2864772738b8","ios":"levelo://app?vid=a86be2f6-7f45-4656-a047-2864772738b8"},"vehicle_type_id":"4","last_reported":1686927986,"current_range_meters":21600,"station_id":"ce4bhbh2rcd13ifvqepg","pricing_plan_id":"free"},{"bike_id":"25c5385c-b865-47df-b209-13eb543b1903","system_id":"levelo_inurba_marseille","lat":43.284219,"lon":5.3497,"is_reserved":false,"is_disabled":false,"rental_uris":{"android":"levelo://app?vid=25c5385c-b865-47df-b209-13eb543b1903","ios":"levelo://app?vid=25c5385c-b865-47df-b209-13eb543b1903"},"vehicle_type_id":"4","last_reported":1686927986,"current_range_meters":12400,"station_id":"ce4bhbh2rcd13ifvqepg","pricing_plan_id":"free"},{"bike_id":"1faede54-0d1f-401b-8a33-05a9077fd9f5","system_id":"levelo_inurba_marseille","lat":43.28413,"lon":5.34983,"is_reserved":false,"is_disabled":false,"rental_uris":{"android":"levelo://app?vid=1faede54-0d1f-401b-8a33-05a9077fd9f5","ios":"levelo://app?vid=1faede54-0d1f-401b-8a33-05a9077fd9f5"},"vehicle_type_id":"4","last_reported":1686927986,"current_range_meters":31200,"station_id":"ce4bhbh2rcd13ifvqepg","pricing_plan_id":"free"},{"bike_id":"1ce6b854-a76d-442b-9409-df923048799b","system_id":"levelo_inurba_marseille","lat":43.28412,"lon":5.34978,"is_reserved":false,"is_disabled":false,"rental_uris":{"android":"levelo://app?vid=1ce6b854-a76d-442b-9409-df923048799b","ios":"levelo://app?vid=1ce6b854-a76d-442b-9409-df923048799b"},"vehicle_type_id":"4","last_reported":1686927986,"current_range_meters":24800,"station_id":"ce4bhbh2rcd13ifvqepg","pricing_plan_id":"free"},{"bike_id":"117efb08-9322-455f-be4b-c0ceaf99e165","system_id":"levelo_inurba_marseille","lat":43.282744,"lon":5.350533,"is_reserved":false,"is_disabled":false,"rental_uris":{"android":"levelo://app?vid=117efb08-9322-455f-be4b-c0ceaf99e165","ios":"levelo://app?vid=117efb08-9322-455f-be4b-c0ceaf99e165"},"vehicle_type_id":"4","last_reported":1686927986,"current_range_meters":11600,"station_id":"ce4bhbp2rcd13ifvqerg","pricing_plan_id":"free"},{"bike_id":"9107940b-d9a2-4639-9861-99e6b4ad2533","system_id":"levelo_inurba_marseille","lat":43.28281,"lon":5.35067,"is_reserved":false,"is_disabled":false,"rental_uris":{"android":"levelo://app?vid=9107940b-d9a2-4639-9861-99e6b4ad2533","ios":"levelo://app?vid=9107940b-d9a2-4639-9861-99e6b4ad2533"},"vehicle_type_id":"4","last_reported":1686927986,"current_range_meters":22000,"station_id":"ce4bhbp2rcd13ifvqerg","pricing_plan_id":"free"},{"bike_id":"2c935e45-fc97-4368-9ba6-437e854706d5","system_id":"levelo_inurba_marseille","lat":43.28278,"lon":5.35068,"is_reserved":false,"is_disabled":false,"rental_uris":{"android":"levelo://app?vid=2c935e45-fc97-4368-9ba6-437e854706d5","ios":"levelo://app?vid=2c935e45-fc97-4368-9ba6-437e854706d5"},"vehicle_type_id":"4","last_reported":1686927986,"current_range_meters":22400,"station_id":"ce4bhbp2rcd13ifvqerg","pricing_plan_id":"free"},{"bike_id":"23c08ff5-0bd7-47da-b15d-19b45afa82a2","system_id":"levelo_inurba_marseille","lat":43.28278,"lon":5.35062,"is_reserved":false,"is_disabled":false,"rental_uris":{"android":"levelo://app?vid=23c08ff5-0bd7-47da-b15d-19b45afa82a2","ios":"levelo://app?vid=23c08ff5-0bd7-47da-b15d-19b45afa82a2"},"vehicle_type_id":"4","last_reported":1686927986,"current_range_meters":18000,"station_id":"ce4bhbp2rcd13ifvqerg","pricing_plan_id":"free"},{"bike_id":"e2c3a0aa-7f22-492a-a04d-15e355466059","system_id":"levelo_inurba_marseille","lat":43.32879,"lon":5.40534,"is_reserved":false,"is_disabled":false,"rental_uris":{"android":"levelo://app?vid=e2c3a0aa-7f22-492a-a04d-15e355466059","ios":"levelo://app?vid=e2c3a0aa-7f22-492a-a04d-15e355466059"},"vehicle_type_id":"4","last_reported":1686927986,"current_range_meters":12800,"station_id":"","pricing_plan_id":"free"},{"bike_id":"3e9c2deb-799a-40be-9063-d5e906c6a111","system_id":"levelo_inurba_marseille","lat":43.282744,"lon":5.350533,"is_reserved":false,"is_disabled":false,"rental_uris":{"android":"levelo://app?vid=3e9c2deb-799a-40be-9063-d5e906c6a111","ios":"levelo://app?vid=3e9c2deb-799a-40be-9063-d5e906c6a111"},"vehicle_type_id":"4","last_reported":1686927986,"current_range_meters":31200,"station_id":"ce4bhbp2rcd13ifvqerg","pricing_plan_id":"free"},{"bike_id":"8aa62da5-ec73-4053-a979-6474afb7b5ac","system_id":"levelo_inurba_marseille","lat":43.2827,"lon":5.35061,"is_reserved":false,"is_disabled":false,"rental_uris":{"android":"levelo://app?vid=8aa62da5-ec73-4053-a979-6474afb7b5ac","ios":"levelo://app?vid=8aa62da5-ec73-4053-a979-6474afb7b5ac"},"vehicle_type_id":"4","last_reported":1686927986,"current_range_meters":7600,"station_id":"ce4bhbp2rcd13ifvqerg","pricing_plan_id":"free"},{"bike_id":"986e9951-2228-40d5-be39-ca5e383f99b6","system_id":"levelo_inurba_marseille","lat":43.28264,"lon":5.35072,"is_reserved":false,"is_disabled":false,"rental_uris":{"android":"levelo://app?vid=986e9951-2228-40d5-be39-ca5e383f99b6","ios":"levelo://app?vid=986e9951-2228-40d5-be39-ca5e383f99b6"},"vehicle_type_id":"4","last_reported":1686927986,"current_range_meters":400,"station_id":"ce4bhbp2rcd13ifvqerg","pricing_plan_id":"free"},{"bike_id":"c2f15555-06a3-4b90-8cf6-3b78578f5a5c","system_id":"levelo_inurba_marseille","lat":43.28262,"lon":5.35061,"is_reserved":false,"is_disabled":false,"rental_uris":{"android":"levelo://app?vid=c2f15555-06a3-4b90-8cf6-3b78578f5a5c","ios":"levelo://app?vid=c2f15555-06a3-4b90-8cf6-3b78578f5a5c"},"vehicle_type_id":"4","last_reported":1686927986,"current_range_meters":3200,"station_id":"ce4bhbp2rcd13ifvqerg","pricing_plan_id":"free"},{"bike_id":"872d46ca-b632-4d2e-8bb4-fc2f0825f120","system_id":"levelo_inurba_marseille","lat":43.290412,"lon":5.399633,"is_reserved":false,"is_disabled":false,"rental_uris":{"android":"levelo://app?vid=872d46ca-b632-4d2e-8bb4-fc2f0825f120","ios":"levelo://app?vid=872d46ca-b632-4d2e-8bb4-fc2f0825f120"},"vehicle_type_id":"4","last_reported":1686927986,"current_range_meters":0,"station_id":"ce4bh392rcd13ifvqdm0","pricing_plan_id":"free"},{"bike_id":"a0aa7a88-fb18-451a-87f8-614f4739022d","system_id":"levelo_inurba_marseille","lat":43.290412,"lon":5.399633,"is_reserved":false,"is_disabled":false,"rental_uris":{"android":"levelo://app?vid=a0aa7a88-fb18-451a-87f8-614f4739022d","ios":"levelo://app?vid=a0aa7a88-fb18-451a-87f8-614f4739022d"},"vehicle_type_id":"4","last_reported":1686927986,"current_range_meters":2800,"station_id":"ce4bh392rcd13ifvqdm0","pricing_plan_id":"free"},{"bike_id":"30fd2bdd-1056-433d-983d-5a82705efdcd","system_id":"levelo_inurba_marseille","lat":43.296263,"lon":5.40601,"is_reserved":false,"is_disabled":false,"rental_uris":{"android":"levelo://app?vid=30fd2bdd-1056-433d-983d-5a82705efdcd","ios":"levelo://app?vid=30fd2bdd-1056-433d-983d-5a82705efdcd"},"vehicle_type_id":"4","last_reported":1686927986,"current_range_meters":0,"station_id":"ce4bh0h2rcd13ifvqd60","pricing_plan_id":"free"},{"bike_id":"58250f20-c15a-406e-802b-56b73a8302ba","system_id":"levelo_inurba_marseille","lat":43.285742,"lon":5.395004,"is_reserved":false,"is_disabled":false,"rental_uris":{"android":"levelo://app?vid=58250f20-c15a-406e-802b-56b73a8302ba","ios":"levelo://app?vid=58250f20-c15a-406e-802b-56b73a8302ba"},"vehicle_type_id":"4","last_reported":1686927986,"current_range_meters":2000,"station_id":"ce4bh292rcd13ifvqdg0","pricing_plan_id":"free"},{"bike_id":"a977e052-4c2f-4bd2-9fd3-31efe35a10fc","system_id":"levelo_inurba_marseille","lat":43.2857,"lon":5.39502,"is_reserved":false,"is_disabled":false,"rental_uris":{"android":"levelo://app?vid=a977e052-4c2f-4bd2-9fd3-31efe35a10fc","ios":"levelo://app?vid=a977e052-4c2f-4bd2-9fd3-31efe35a10fc"},"vehicle_type_id":"4","last_reported":1686927986,"current_range_meters":22400,"station_id":"ce4bh292rcd13ifvqdg0","pricing_plan_id":"free"},{"bike_id":"74a59d6c-d6c7-460f-bba7-ce13812ac794","system_id":"levelo_inurba_marseille","lat":43.32664,"lon":5.40991,"is_reserved":false,"is_disabled":false,"rental_uris":{"android":"levelo://app?vid=74a59d6c-d6c7-460f-bba7-ce13812ac794","ios":"levelo://app?vid=74a59d6c-d6c7-460f-bba7-ce13812ac794"},"vehicle_type_id":"4","last_reported":1686927986,"current_range_meters":20800,"station_id":"ce4bhpp2rcd13ifvqhgg","pricing_plan_id":"free"},{"bike_id":"319acd4f-9666-4ac2-ae0b-2a10aac97fcd","system_id":"levelo_inurba_marseille","lat":43.326605,"lon":5.409903,"is_reserved":false,"is_disabled":false,"rental_uris":{"android":"levelo://app?vid=319acd4f-9666-4ac2-ae0b-2a10aac97fcd","ios":"levelo://app?vid=319acd4f-9666-4ac2-ae0b-2a10aac97fcd"},"vehicle_type_id":"4","last_reported":1686927986,"current_range_meters":21600,"station_id":"ce4bhpp2rcd13ifvqhgg","pricing_plan_id":"free"},{"bike_id":"68689d4c-f8b6-4682-b231-8e152533c36b","system_id":"levelo_inurba_marseille","lat":43.326605,"lon":5.409903,"is_reserved":false,"is_disabled":false,"rental_uris":{"android":"levelo://app?vid=68689d4c-f8b6-4682-b231-8e152533c36b","ios":"levelo://app?vid=68689d4c-f8b6-4682-b231-8e152533c36b"},"vehicle_type_id":"4","last_reported":1686927986,"current_range_meters":24800,"station_id":"ce4bhpp2rcd13ifvqhgg","pricing_plan_id":"free"},{"bike_id":"0a64b4ed-5ac9-4204-acbf-2a3bbe782d23","system_id":"levelo_inurba_marseille","lat":43.27911,"lon":5.38022,"is_reserved":false,"is_disabled":false,"rental_uris":{"android":"levelo://app?vid=0a64b4ed-5ac9-4204-acbf-2a3bbe782d23","ios":"levelo://app?vid=0a64b4ed-5ac9-4204-acbf-2a3bbe782d23"},"vehicle_type_id":"4","last_reported":1686927986,"current_range_meters":19200,"station_id":"","pricing_plan_id":"free"},{"bike_id":"5c56fa74-7b2f-410d-95dc-116341645e69","system_id":"levelo_inurba_marseille","lat":43.287154,"lon":5.399979,"is_reserved":false,"is_disabled":false,"rental_uris":{"android":"levelo://app?vid=5c56fa74-7b2f-410d-95dc-116341645e69","ios":"levelo://app?vid=5c56fa74-7b2f-410d-95dc-116341645e69"},"vehicle_type_id":"4","last_reported":1686927986,"current_range_meters":8000,"station_id":"ce4bho92rcd13ifvqh3g","pricing_plan_id":"free"},{"bike_id":"b27001cf-10db-407d-9e35-e4eba4d64dd7","system_id":"levelo_inurba_marseille","lat":43.287154,"lon":5.399979,"is_reserved":false,"is_disabled":false,"rental_uris":{"android":"levelo://app?vid=b27001cf-10db-407d-9e35-e4eba4d64dd7","ios":"levelo://app?vid=b27001cf-10db-407d-9e35-e4eba4d64dd7"},"vehicle_type_id":"4","last_reported":1686927986,"current_range_meters":0,"station_id":"ce4bho92rcd13ifvqh3g","pricing_plan_id":"free"},{"bike_id":"8288e8ed-1d01-461e-8fda-17a2d99d0a04","system_id":"levelo_inurba_marseille","lat":43.32047,"lon":5.41533,"is_reserved":false,"is_disabled":false,"rental_uris":{"android":"levelo://app?vid=8288e8ed-1d01-461e-8fda-17a2d99d0a04","ios":"levelo://app?vid=8288e8ed-1d01-461e-8fda-17a2d99d0a04"},"vehicle_type_id":"4","last_reported":1686927986,"current_range_meters":31200,"station_id":"ce4bhq92rcd13ifvqhkg","pricing_plan_id":"free"},{"bike_id":"62dddf75-3d98-479a-923a-bd343e67449d","system_id":"levelo_inurba_marseille","lat":43.320045,"lon":5.415048,"is_reserved":false,"is_disabled":false,"rental_uris":{"android":"levelo://app?vid=62dddf75-3d98-479a-923a-bd343e67449d","ios":"levelo://app?vid=62dddf75-3d98-479a-923a-bd343e67449d"},"vehicle_type_id":"4","last_reported":1686927986,"current_range_meters":0,"station_id":"ce4bhq92rcd13ifvqhkg","pricing_plan_id":"free"},{"bike_id":"7be9f628-a1dd-4275-9865-30860a3d0b49","system_id":"levelo_inurba_marseille","lat":43.32056,"lon":5.41541,"is_reserved":false,"is_disabled":false,"rental_uris":{"android":"levelo://app?vid=7be9f628-a1dd-4275-9865-30860a3d0b49","ios":"levelo://app?vid=7be9f628-a1dd-4275-9865-30860a3d0b49"},"vehicle_type_id":"4","last_reported":1686927986,"current_range_meters":23600,"station_id":"","pricing_plan_id":"free"},{"bike_id":"a23bcb30-ebff-4895-8072-b4cc1cd87a80","system_id":"levelo_inurba_marseille","lat":43.32062,"lon":5.4154,"is_reserved":false,"is_disabled":false,"rental_uris":{"android":"levelo://app?vid=a23bcb30-ebff-4895-8072-b4cc1cd87a80","ios":"levelo://app?vid=a23bcb30-ebff-4895-8072-b4cc1cd87a80"},"vehicle_type_id":"4","last_reported":1686927986,"current_range_meters":21600,"station_id":"ce4bhq92rcd13ifvqhkg","pricing_plan_id":"free"},{"bike_id":"baa0e06c-4acd-4008-ad45-23ad4ab4b5a2","system_id":"levelo_inurba_marseille","lat":43.279742,"lon":5.38744,"is_reserved":false,"is_disabled":false,"rental_uris":{"android":"levelo://app?vid=baa0e06c-4acd-4008-ad45-23ad4ab4b5a2","ios":"levelo://app?vid=baa0e06c-4acd-4008-ad45-23ad4ab4b5a2"},"vehicle_type_id":"4","last_reported":1686927986,"current_range_meters":0,"station_id":"ce4bhg12rcd13ifvqf80","pricing_plan_id":"free"},{"bike_id":"78ec6ddb-79e9-4d1d-a66c-d1bff871d1cc","system_id":"levelo_inurba_marseille","lat":43.29263,"lon":5.40912,"is_reserved":false,"is_disabled":false,"rental_uris":{"android":"levelo://app?vid=78ec6ddb-79e9-4d1d-a66c-d1bff871d1cc","ios":"levelo://app?vid=78ec6ddb-79e9-4d1d-a66c-d1bff871d1cc"},"vehicle_type_id":"4","last_reported":1686927986,"current_range_meters":0,"station_id":"ce4bh192rcd13ifvqdc0","pricing_plan_id":"free"},{"bike_id":"c14070a0-0d4d-4d04-b80c-5918decb60ad","system_id":"levelo_inurba_marseille","lat":43.29263,"lon":5.40919,"is_reserved":false,"is_disabled":false,"rental_uris":{"android":"levelo://app?vid=c14070a0-0d4d-4d04-b80c-5918decb60ad","ios":"levelo://app?vid=c14070a0-0d4d-4d04-b80c-5918decb60ad"},"vehicle_type_id":"4","last_reported":1686927986,"current_range_meters":4800,"station_id":"ce4bh192rcd13ifvqdc0","pricing_plan_id":"free"},{"bike_id":"6f60e0cf-d4cb-497a-8aaf-113347c06d20","system_id":"levelo_inurba_marseille","lat":43.276179,"lon":5.361009,"is_reserved":false,"is_disabled":false,"rental_uris":{"android":"levelo://app?vid=6f60e0cf-d4cb-497a-8aaf-113347c06d20","ios":"levelo://app?vid=6f60e0cf-d4cb-497a-8aaf-113347c06d20"},"vehicle_type_id":"4","last_reported":1686927986,"current_range_meters":25200,"station_id":"ce4bgj92rcd13ifvqbe0","pricing_plan_id":"free"},{"bike_id":"33b3d43f-696e-4c5e-9801-829becb8adf5","system_id":"levelo_inurba_marseille","lat":43.32547,"lon":5.41436,"is_reserved":false,"is_disabled":false,"rental_uris":{"android":"levelo://app?vid=33b3d43f-696e-4c5e-9801-829becb8adf5","ios":"levelo://app?vid=33b3d43f-696e-4c5e-9801-829becb8adf5"},"vehicle_type_id":"4","last_reported":1686927986,"current_range_meters":18400,"station_id":"","pricing_plan_id":"free"},{"bike_id":"db1f9fd2-7be9-42ca-b3f9-a3b9d5bc68fd","system_id":"levelo_inurba_marseille","lat":43.27618,"lon":5.361009,"is_reserved":false,"is_disabled":false,"rental_uris":{"android":"levelo://app?vid=db1f9fd2-7be9-42ca-b3f9-a3b9d5bc68fd","ios":"levelo://app?vid=db1f9fd2-7be9-42ca-b3f9-a3b9d5bc68fd"},"vehicle_type_id":"4","last_reported":1686927986,"current_range_meters":18400,"station_id":"ce4bgj92rcd13ifvqbe0","pricing_plan_id":"free"},{"bike_id":"8f714ab9-6f41-47b2-9284-97205b88934f","system_id":"levelo_inurba_marseille","lat":43.325233,"lon":5.414318,"is_reserved":false,"is_disabled":false,"rental_uris":{"android":"levelo://app?vid=8f714ab9-6f41-47b2-9284-97205b88934f","ios":"levelo://app?vid=8f714ab9-6f41-47b2-9284-97205b88934f"},"vehicle_type_id":"4","last_reported":1686927986,"current_range_meters":30000,"station_id":"ce4bhq12rcd13ifvqhhg","pricing_plan_id":"free"},{"bike_id":"6efdd409-87d3-47bc-bb39-3948ccbe7d05","system_id":"levelo_inurba_marseille","lat":43.32551,"lon":5.4144,"is_reserved":false,"is_disabled":false,"rental_uris":{"android":"levelo://app?vid=6efdd409-87d3-47bc-bb39-3948ccbe7d05","ios":"levelo://app?vid=6efdd409-87d3-47bc-bb39-3948ccbe7d05"},"vehicle_type_id":"4","last_reported":1686927986,"current_range_meters":31200,"station_id":"","pricing_plan_id":"free"},{"bike_id":"27e3d8de-2128-4872-abc7-3f2b117c8823","system_id":"levelo_inurba_marseille","lat":43.325233,"lon":5.414318,"is_reserved":false,"is_disabled":false,"rental_uris":{"android":"levelo://app?vid=27e3d8de-2128-4872-abc7-3f2b117c8823","ios":"levelo://app?vid=27e3d8de-2128-4872-abc7-3f2b117c8823"},"vehicle_type_id":"4","last_reported":1686927986,"current_range_meters":24000,"station_id":"ce4bhq12rcd13ifvqhhg","pricing_plan_id":"free"},{"bike_id":"ad0f8923-aa7d-498b-be1e-cf84e483f980","system_id":"levelo_inurba_marseille","lat":43.325233,"lon":5.414318,"is_reserved":false,"is_disabled":false,"rental_uris":{"android":"levelo://app?vid=ad0f8923-aa7d-498b-be1e-cf84e483f980","ios":"levelo://app?vid=ad0f8923-aa7d-498b-be1e-cf84e483f980"},"vehicle_type_id":"4","last_reported":1686927986,"current_range_meters":31200,"station_id":"ce4bhq12rcd13ifvqhhg","pricing_plan_id":"free"},{"bike_id":"98a7910e-4386-477a-ae94-ad5d040bd1f9","system_id":"levelo_inurba_marseille","lat":43.276179,"lon":5.361009,"is_reserved":false,"is_disabled":false,"rental_uris":{"android":"levelo://app?vid=98a7910e-4386-477a-ae94-ad5d040bd1f9","ios":"levelo://app?vid=98a7910e-4386-477a-ae94-ad5d040bd1f9"},"vehicle_type_id":"4","last_reported":1686927986,"current_range_meters":21200,"station_id":"ce4bgj92rcd13ifvqbe0","pricing_plan_id":"free"},{"bike_id":"dcc9ca36-85ea-4441-8402-1828d7cfe66a","system_id":"levelo_inurba_marseille","lat":43.325233,"lon":5.414318,"is_reserved":false,"is_disabled":false,"rental_uris":{"android":"levelo://app?vid=dcc9ca36-85ea-4441-8402-1828d7cfe66a","ios":"levelo://app?vid=dcc9ca36-85ea-4441-8402-1828d7cfe66a"},"vehicle_type_id":"4","last_reported":1686927986,"current_range_meters":29200,"station_id":"ce4bhq12rcd13ifvqhhg","pricing_plan_id":"free"},{"bike_id":"8536a898-7e69-4037-9f53-21da4bd360ab","system_id":"levelo_inurba_marseille","lat":43.32553,"lon":5.41442,"is_reserved":false,"is_disabled":false,"rental_uris":{"android":"levelo://app?vid=8536a898-7e69-4037-9f53-21da4bd360ab","ios":"levelo://app?vid=8536a898-7e69-4037-9f53-21da4bd360ab"},"vehicle_type_id":"4","last_reported":1686927986,"current_range_meters":22800,"station_id":"","pricing_plan_id":"free"},{"bike_id":"650c4eaa-ce3b-438f-ac86-9285008d9ad0","system_id":"levelo_inurba_marseille","lat":43.32548,"lon":5.41447,"is_reserved":false,"is_disabled":false,"rental_uris":{"android":"levelo://app?vid=650c4eaa-ce3b-438f-ac86-9285008d9ad0","ios":"levelo://app?vid=650c4eaa-ce3b-438f-ac86-9285008d9ad0"},"vehicle_type_id":"4","last_reported":1686927986,"current_range_meters":22000,"station_id":"","pricing_plan_id":"free"},{"bike_id":"5022f31c-3431-48c0-899d-4f3fa33c4729","system_id":"levelo_inurba_marseille","lat":43.325233,"lon":5.414318,"is_reserved":false,"is_disabled":false,"rental_uris":{"android":"levelo://app?vid=5022f31c-3431-48c0-899d-4f3fa33c4729","ios":"levelo://app?vid=5022f31c-3431-48c0-899d-4f3fa33c4729"},"vehicle_type_id":"4","last_reported":1686927986,"current_range_meters":31600,"station_id":"ce4bhq12rcd13ifvqhhg","pricing_plan_id":"free"},{"bike_id":"4123155c-5d4a-42ab-a23e-5b0de2331798","system_id":"levelo_inurba_marseille","lat":43.32555,"lon":5.41447,"is_reserved":false,"is_disabled":false,"rental_uris":{"android":"levelo://app?vid=4123155c-5d4a-42ab-a23e-5b0de2331798","ios":"levelo://app?vid=4123155c-5d4a-42ab-a23e-5b0de2331798"},"vehicle_type_id":"4","last_reported":1686927986,"current_range_meters":31200,"station_id":"","pricing_plan_id":"free"},{"bike_id":"14879316-f806-4126-a1c8-392baf369196","system_id":"levelo_inurba_marseille","lat":43.32556,"lon":5.41448,"is_reserved":false,"is_disabled":false,"rental_uris":{"android":"levelo://app?vid=14879316-f806-4126-a1c8-392baf369196","ios":"levelo://app?vid=14879316-f806-4126-a1c8-392baf369196"},"vehicle_type_id":"4","last_reported":1686927986,"current_range_meters":31200,"station_id":"","pricing_plan_id":"free"},{"bike_id":"6a5c0dc4-3be3-4ccb-8338-4ae2e78bfe61","system_id":"levelo_inurba_marseille","lat":43.32552,"lon":5.41455,"is_reserved":false,"is_disabled":false,"rental_uris":{"android":"levelo://app?vid=6a5c0dc4-3be3-4ccb-8338-4ae2e78bfe61","ios":"levelo://app?vid=6a5c0dc4-3be3-4ccb-8338-4ae2e78bfe61"},"vehicle_type_id":"4","last_reported":1686927986,"current_range_meters":22800,"station_id":"ce4bhq12rcd13ifvqhhg","pricing_plan_id":"free"},{"bike_id":"e2b669bf-9903-4304-af1c-4268471170c3","system_id":"levelo_inurba_marseille","lat":43.280784,"lon":5.396622,"is_reserved":false,"is_disabled":false,"rental_uris":{"android":"levelo://app?vid=e2b669bf-9903-4304-af1c-4268471170c3","ios":"levelo://app?vid=e2b669bf-9903-4304-af1c-4268471170c3"},"vehicle_type_id":"4","last_reported":1686927986,"current_range_meters":3600,"station_id":"ce4bho12rcd13ifvqh2g","pricing_plan_id":"free"},{"bike_id":"6b3611d1-617a-4b48-92f3-e66c7526efaf","system_id":"levelo_inurba_marseille","lat":43.30354,"lon":5.41873,"is_reserved":false,"is_disabled":false,"rental_uris":{"android":"levelo://app?vid=6b3611d1-617a-4b48-92f3-e66c7526efaf","ios":"levelo://app?vid=6b3611d1-617a-4b48-92f3-e66c7526efaf"},"vehicle_type_id":"4","last_reported":1686927986,"current_range_meters":8800,"station_id":"","pricing_plan_id":"free"},{"bike_id":"e5b4fd11-2494-4519-95c8-56924eb00e1a","system_id":"levelo_inurba_marseille","lat":43.27385,"lon":5.36244,"is_reserved":false,"is_disabled":false,"rental_uris":{"android":"levelo://app?vid=e5b4fd11-2494-4519-95c8-56924eb00e1a","ios":"levelo://app?vid=e5b4fd11-2494-4519-95c8-56924eb00e1a"},"vehicle_type_id":"4","last_reported":1686927986,"current_range_meters":6800,"station_id":"","pricing_plan_id":"free"},{"bike_id":"e54a67a2-3441-421d-9302-f9c52d2be558","system_id":"levelo_inurba_marseille","lat":43.27383,"lon":5.36245,"is_reserved":false,"is_disabled":false,"rental_uris":{"android":"levelo://app?vid=e54a67a2-3441-421d-9302-f9c52d2be558","ios":"levelo://app?vid=e54a67a2-3441-421d-9302-f9c52d2be558"},"vehicle_type_id":"4","last_reported":1686927986,"current_range_meters":1600,"station_id":"","pricing_plan_id":"free"},{"bike_id":"c1c840ae-c4cf-4c9a-bcca-9dfa3e8a60b4","system_id":"levelo_inurba_marseille","lat":43.27381,"lon":5.36255,"is_reserved":false,"is_disabled":false,"rental_uris":{"android":"levelo://app?vid=c1c840ae-c4cf-4c9a-bcca-9dfa3e8a60b4","ios":"levelo://app?vid=c1c840ae-c4cf-4c9a-bcca-9dfa3e8a60b4"},"vehicle_type_id":"4","last_reported":1686927986,"current_range_meters":5200,"station_id":"ce4bhbh2rcd13ifvqeo0","pricing_plan_id":"free"},{"bike_id":"8ef46634-92f9-40e2-bffa-396ff63c69af","system_id":"levelo_inurba_marseille","lat":43.2738,"lon":5.36266,"is_reserved":false,"is_disabled":false,"rental_uris":{"android":"levelo://app?vid=8ef46634-92f9-40e2-bffa-396ff63c69af","ios":"levelo://app?vid=8ef46634-92f9-40e2-bffa-396ff63c69af"},"vehicle_type_id":"4","last_reported":1686927986,"current_range_meters":0,"station_id":"ce4bhbh2rcd13ifvqeo0","pricing_plan_id":"free"},{"bike_id":"3b73cdc2-cf0b-4b63-8afe-f088f7321201","system_id":"levelo_inurba_marseille","lat":43.27381,"lon":5.36246,"is_reserved":false,"is_disabled":false,"rental_uris":{"android":"levelo://app?vid=3b73cdc2-cf0b-4b63-8afe-f088f7321201","ios":"levelo://app?vid=3b73cdc2-cf0b-4b63-8afe-f088f7321201"},"vehicle_type_id":"4","last_reported":1686927986,"current_range_meters":29200,"station_id":"","pricing_plan_id":"free"},{"bike_id":"c7e0a65f-2a9e-44ac-a348-8f068f090aca","system_id":"levelo_inurba_marseille","lat":43.27379,"lon":5.36253,"is_reserved":false,"is_disabled":false,"rental_uris":{"android":"levelo://app?vid=c7e0a65f-2a9e-44ac-a348-8f068f090aca","ios":"levelo://app?vid=c7e0a65f-2a9e-44ac-a348-8f068f090aca"},"vehicle_type_id":"4","last_reported":1686927986,"current_range_meters":4000,"station_id":"ce4bhbh2rcd13ifvqeo0","pricing_plan_id":"free"},{"bike_id":"7434affb-b156-4582-8782-77b5b83f23be","system_id":"levelo_inurba_marseille","lat":43.27379,"lon":5.36253,"is_reserved":false,"is_disabled":false,"rental_uris":{"android":"levelo://app?vid=7434affb-b156-4582-8782-77b5b83f23be","ios":"levelo://app?vid=7434affb-b156-4582-8782-77b5b83f23be"},"vehicle_type_id":"4","last_reported":1686927986,"current_range_meters":16800,"station_id":"ce4bhbh2rcd13ifvqeo0","pricing_plan_id":"free"},{"bike_id":"4da7073c-30df-467d-9878-4ca07923940f","system_id":"levelo_inurba_marseille","lat":43.27378,"lon":5.36259,"is_reserved":false,"is_disabled":false,"rental_uris":{"android":"levelo://app?vid=4da7073c-30df-467d-9878-4ca07923940f","ios":"levelo://app?vid=4da7073c-30df-467d-9878-4ca07923940f"},"vehicle_type_id":"4","last_reported":1686927986,"current_range_meters":16800,"station_id":"ce4bhbh2rcd13ifvqeo0","pricing_plan_id":"free"},{"bike_id":"a5d9e0ee-6477-446f-84bd-f36f9987e2be","system_id":"levelo_inurba_marseille","lat":43.275625,"lon":5.384392,"is_reserved":false,"is_disabled":false,"rental_uris":{"android":"levelo://app?vid=a5d9e0ee-6477-446f-84bd-f36f9987e2be","ios":"levelo://app?vid=a5d9e0ee-6477-446f-84bd-f36f9987e2be"},"vehicle_type_id":"4","last_reported":1686927986,"current_range_meters":1600,"station_id":"ce4bhh92rcd13ifvqfi0","pricing_plan_id":"free"},{"bike_id":"ab06f2f7-2316-4c7f-93e5-46e361e57fed","system_id":"levelo_inurba_marseille","lat":43.27378,"lon":5.36245,"is_reserved":false,"is_disabled":false,"rental_uris":{"android":"levelo://app?vid=ab06f2f7-2316-4c7f-93e5-46e361e57fed","ios":"levelo://app?vid=ab06f2f7-2316-4c7f-93e5-46e361e57fed"},"vehicle_type_id":"4","last_reported":1686927986,"current_range_meters":31200,"station_id":"","pricing_plan_id":"free"},{"bike_id":"2f6ac3c5-f862-4b9e-9cad-ba36328f14eb","system_id":"levelo_inurba_marseille","lat":43.27377,"lon":5.36254,"is_reserved":false,"is_disabled":false,"rental_uris":{"android":"levelo://app?vid=2f6ac3c5-f862-4b9e-9cad-ba36328f14eb","ios":"levelo://app?vid=2f6ac3c5-f862-4b9e-9cad-ba36328f14eb"},"vehicle_type_id":"4","last_reported":1686927986,"current_range_meters":18000,"station_id":"ce4bhbh2rcd13ifvqeo0","pricing_plan_id":"free"},{"bike_id":"bffe5e24-f78a-4bad-8132-c849827f72f8","system_id":"levelo_inurba_marseille","lat":43.27376,"lon":5.36259,"is_reserved":false,"is_disabled":false,"rental_uris":{"android":"levelo://app?vid=bffe5e24-f78a-4bad-8132-c849827f72f8","ios":"levelo://app?vid=bffe5e24-f78a-4bad-8132-c849827f72f8"},"vehicle_type_id":"4","last_reported":1686927986,"current_range_meters":0,"station_id":"ce4bhbh2rcd13ifvqeo0","pricing_plan_id":"free"},{"bike_id":"aa1dea5d-9cc3-4b5f-b53c-7cde439616a5","system_id":"levelo_inurba_marseille","lat":43.27376,"lon":5.36256,"is_reserved":false,"is_disabled":false,"rental_uris":{"android":"levelo://app?vid=aa1dea5d-9cc3-4b5f-b53c-7cde439616a5","ios":"levelo://app?vid=aa1dea5d-9cc3-4b5f-b53c-7cde439616a5"},"vehicle_type_id":"4","last_reported":1686927986,"current_range_meters":0,"station_id":"ce4bhbh2rcd13ifvqeo0","pricing_plan_id":"free"},{"bike_id":"b1d613fc-2019-4cf7-8b93-e880cb98d47a","system_id":"levelo_inurba_marseille","lat":43.27376,"lon":5.36253,"is_reserved":false,"is_disabled":false,"rental_uris":{"android":"levelo://app?vid=b1d613fc-2019-4cf7-8b93-e880cb98d47a","ios":"levelo://app?vid=b1d613fc-2019-4cf7-8b93-e880cb98d47a"},"vehicle_type_id":"4","last_reported":1686927986,"current_range_meters":18800,"station_id":"ce4bhbh2rcd13ifvqeo0","pricing_plan_id":"free"},{"bike_id":"35faa3cc-c1a8-4364-93b5-dbdfc5bc2870","system_id":"levelo_inurba_marseille","lat":43.273613,"lon":5.362705,"is_reserved":false,"is_disabled":false,"rental_uris":{"android":"levelo://app?vid=35faa3cc-c1a8-4364-93b5-dbdfc5bc2870","ios":"levelo://app?vid=35faa3cc-c1a8-4364-93b5-dbdfc5bc2870"},"vehicle_type_id":"4","last_reported":1686927986,"current_range_meters":30400,"station_id":"ce4bhbh2rcd13ifvqeo0","pricing_plan_id":"free"},{"bike_id":"7f474921-bfd1-49f9-b0ca-34571a93931b","system_id":"levelo_inurba_marseille","lat":43.273609,"lon":5.362708,"is_reserved":false,"is_disabled":false,"rental_uris":{"android":"levelo://app?vid=7f474921-bfd1-49f9-b0ca-34571a93931b","ios":"levelo://app?vid=7f474921-bfd1-49f9-b0ca-34571a93931b"},"vehicle_type_id":"4","last_reported":1686927986,"current_range_meters":31200,"station_id":"ce4bhbh2rcd13ifvqeo0","pricing_plan_id":"free"},{"bike_id":"5249c5af-30b7-4c20-8f43-161f81807e61","system_id":"levelo_inurba_marseille","lat":43.27376,"lon":5.3625,"is_reserved":false,"is_disabled":false,"rental_uris":{"android":"levelo://app?vid=5249c5af-30b7-4c20-8f43-161f81807e61","ios":"levelo://app?vid=5249c5af-30b7-4c20-8f43-161f81807e61"},"vehicle_type_id":"4","last_reported":1686927986,"current_range_meters":10400,"station_id":"ce4bhbh2rcd13ifvqeo0","pricing_plan_id":"free"},{"bike_id":"309b70e8-aa59-4d0c-9891-d91454f8aee7","system_id":"levelo_inurba_marseille","lat":43.27376,"lon":5.36244,"is_reserved":false,"is_disabled":false,"rental_uris":{"android":"levelo://app?vid=309b70e8-aa59-4d0c-9891-d91454f8aee7","ios":"levelo://app?vid=309b70e8-aa59-4d0c-9891-d91454f8aee7"},"vehicle_type_id":"4","last_reported":1686927986,"current_range_meters":31200,"station_id":"","pricing_plan_id":"free"},{"bike_id":"3aee56e0-1042-4021-8331-692b564a860c","system_id":"levelo_inurba_marseille","lat":43.27376,"lon":5.36241,"is_reserved":false,"is_disabled":false,"rental_uris":{"android":"levelo://app?vid=3aee56e0-1042-4021-8331-692b564a860c","ios":"levelo://app?vid=3aee56e0-1042-4021-8331-692b564a860c"},"vehicle_type_id":"4","last_reported":1686927986,"current_range_meters":18800,"station_id":"","pricing_plan_id":"free"},{"bike_id":"e188b579-9469-4753-b2b6-fcdb265da509","system_id":"levelo_inurba_marseille","lat":43.27376,"lon":5.36239,"is_reserved":false,"is_disabled":false,"rental_uris":{"android":"levelo://app?vid=e188b579-9469-4753-b2b6-fcdb265da509","ios":"levelo://app?vid=e188b579-9469-4753-b2b6-fcdb265da509"},"vehicle_type_id":"4","last_reported":1686927986,"current_range_meters":5600,"station_id":"","pricing_plan_id":"free"},{"bike_id":"11411911-14f4-49e4-8871-6b209163b39f","system_id":"levelo_inurba_marseille","lat":43.27375,"lon":5.36253,"is_reserved":false,"is_disabled":false,"rental_uris":{"android":"levelo://app?vid=11411911-14f4-49e4-8871-6b209163b39f","ios":"levelo://app?vid=11411911-14f4-49e4-8871-6b209163b39f"},"vehicle_type_id":"4","last_reported":1686927986,"current_range_meters":26400,"station_id":"ce4bhbh2rcd13ifvqeo0","pricing_plan_id":"free"},{"bike_id":"43aac3ff-0eb9-4fa9-9c75-986eb1083d9d","system_id":"levelo_inurba_marseille","lat":43.27374,"lon":5.36258,"is_reserved":false,"is_disabled":false,"rental_uris":{"android":"levelo://app?vid=43aac3ff-0eb9-4fa9-9c75-986eb1083d9d","ios":"levelo://app?vid=43aac3ff-0eb9-4fa9-9c75-986eb1083d9d"},"vehicle_type_id":"4","last_reported":1686927986,"current_range_meters":31200,"station_id":"ce4bhbh2rcd13ifvqeo0","pricing_plan_id":"free"},{"bike_id":"52506ea8-ef70-41fc-ab24-b1481d0d0917","system_id":"levelo_inurba_marseille","lat":43.27374,"lon":5.36252,"is_reserved":false,"is_disabled":false,"rental_uris":{"android":"levelo://app?vid=52506ea8-ef70-41fc-ab24-b1481d0d0917","ios":"levelo://app?vid=52506ea8-ef70-41fc-ab24-b1481d0d0917"},"vehicle_type_id":"4","last_reported":1686927986,"current_range_meters":2800,"station_id":"ce4bhbh2rcd13ifvqeo0","pricing_plan_id":"free"},{"bike_id":"9ca666b2-8b18-4143-b8c1-91ee48b72c22","system_id":"levelo_inurba_marseille","lat":43.273609,"lon":5.362708,"is_reserved":false,"is_disabled":false,"rental_uris":{"android":"levelo://app?vid=9ca666b2-8b18-4143-b8c1-91ee48b72c22","ios":"levelo://app?vid=9ca666b2-8b18-4143-b8c1-91ee48b72c22"},"vehicle_type_id":"4","last_reported":1686927986,"current_range_meters":29200,"station_id":"ce4bhbh2rcd13ifvqeo0","pricing_plan_id":"free"},{"bike_id":"ff0a3bc5-cd57-4d45-99dc-99f05ec0dd56","system_id":"levelo_inurba_marseille","lat":43.273613,"lon":5.362705,"is_reserved":false,"is_disabled":false,"rental_uris":{"android":"levelo://app?vid=ff0a3bc5-cd57-4d45-99dc-99f05ec0dd56","ios":"levelo://app?vid=ff0a3bc5-cd57-4d45-99dc-99f05ec0dd56"},"vehicle_type_id":"4","last_reported":1686927986,"current_range_meters":31200,"station_id":"ce4bhbh2rcd13ifvqeo0","pricing_plan_id":"free"},{"bike_id":"c69eec3c-9010-45a6-8160-ab7f815b3cd2","system_id":"levelo_inurba_marseille","lat":43.33612,"lon":5.410321,"is_reserved":false,"is_disabled":false,"rental_uris":{"android":"levelo://app?vid=c69eec3c-9010-45a6-8160-ab7f815b3cd2","ios":"levelo://app?vid=c69eec3c-9010-45a6-8160-ab7f815b3cd2"},"vehicle_type_id":"4","last_reported":1686927986,"current_range_meters":17200,"station_id":"ce4bhqh2rcd13ifvqhmg","pricing_plan_id":"free"},{"bike_id":"949c3b93-9525-4f53-ac82-9c7f5c90c1ae","system_id":"levelo_inurba_marseille","lat":43.33612,"lon":5.410321,"is_reserved":false,"is_disabled":false,"rental_uris":{"android":"levelo://app?vid=949c3b93-9525-4f53-ac82-9c7f5c90c1ae","ios":"levelo://app?vid=949c3b93-9525-4f53-ac82-9c7f5c90c1ae"},"vehicle_type_id":"4","last_reported":1686927986,"current_range_meters":31200,"station_id":"ce4bhqh2rcd13ifvqhmg","pricing_plan_id":"free"},{"bike_id":"c01b1e19-6377-4ecb-8f16-f12ca2666974","system_id":"levelo_inurba_marseille","lat":43.336134,"lon":5.410341,"is_reserved":false,"is_disabled":false,"rental_uris":{"android":"levelo://app?vid=c01b1e19-6377-4ecb-8f16-f12ca2666974","ios":"levelo://app?vid=c01b1e19-6377-4ecb-8f16-f12ca2666974"},"vehicle_type_id":"4","last_reported":1686927986,"current_range_meters":21600,"station_id":"ce4bhqh2rcd13ifvqhmg","pricing_plan_id":"free"},{"bike_id":"3fdb20cc-fc5b-4039-b55b-89d461f4a89c","system_id":"levelo_inurba_marseille","lat":43.336134,"lon":5.410341,"is_reserved":false,"is_disabled":false,"rental_uris":{"android":"levelo://app?vid=3fdb20cc-fc5b-4039-b55b-89d461f4a89c","ios":"levelo://app?vid=3fdb20cc-fc5b-4039-b55b-89d461f4a89c"},"vehicle_type_id":"4","last_reported":1686927986,"current_range_meters":31200,"station_id":"ce4bhqh2rcd13ifvqhmg","pricing_plan_id":"free"},{"bike_id":"3123fecf-8555-4431-974b-abaab72abf2c","system_id":"levelo_inurba_marseille","lat":43.336134,"lon":5.410341,"is_reserved":false,"is_disabled":false,"rental_uris":{"android":"levelo://app?vid=3123fecf-8555-4431-974b-abaab72abf2c","ios":"levelo://app?vid=3123fecf-8555-4431-974b-abaab72abf2c"},"vehicle_type_id":"4","last_reported":1686927986,"current_range_meters":31200,"station_id":"ce4bhqh2rcd13ifvqhmg","pricing_plan_id":"free"},{"bike_id":"f9d39d98-d9a2-40b7-92e6-35c5502bd5d2","system_id":"levelo_inurba_marseille","lat":43.3361,"lon":5.41025,"is_reserved":false,"is_disabled":false,"rental_uris":{"android":"levelo://app?vid=f9d39d98-d9a2-40b7-92e6-35c5502bd5d2","ios":"levelo://app?vid=f9d39d98-d9a2-40b7-92e6-35c5502bd5d2"},"vehicle_type_id":"4","last_reported":1686927986,"current_range_meters":7200,"station_id":"ce4bhqh2rcd13ifvqhmg","pricing_plan_id":"free"},{"bike_id":"0754c359-ce59-46d6-aedf-1aa15d2160dd","system_id":"levelo_inurba_marseille","lat":43.33612,"lon":5.410321,"is_reserved":false,"is_disabled":false,"rental_uris":{"android":"levelo://app?vid=0754c359-ce59-46d6-aedf-1aa15d2160dd","ios":"levelo://app?vid=0754c359-ce59-46d6-aedf-1aa15d2160dd"},"vehicle_type_id":"4","last_reported":1686927986,"current_range_meters":31600,"station_id":"ce4bhqh2rcd13ifvqhmg","pricing_plan_id":"free"},{"bike_id":"e74cb710-8ccf-47f6-89b6-2dce42fcf571","system_id":"levelo_inurba_marseille","lat":43.33612,"lon":5.410321,"is_reserved":false,"is_disabled":false,"rental_uris":{"android":"levelo://app?vid=e74cb710-8ccf-47f6-89b6-2dce42fcf571","ios":"levelo://app?vid=e74cb710-8ccf-47f6-89b6-2dce42fcf571"},"vehicle_type_id":"4","last_reported":1686927986,"current_range_meters":31600,"station_id":"ce4bhqh2rcd13ifvqhmg","pricing_plan_id":"free"},{"bike_id":"52b0cf20-b817-4500-9e91-fb6a023f8f55","system_id":"levelo_inurba_marseille","lat":43.33612,"lon":5.410321,"is_reserved":false,"is_disabled":false,"rental_uris":{"android":"levelo://app?vid=52b0cf20-b817-4500-9e91-fb6a023f8f55","ios":"levelo://app?vid=52b0cf20-b817-4500-9e91-fb6a023f8f55"},"vehicle_type_id":"4","last_reported":1686927986,"current_range_meters":24000,"station_id":"ce4bhqh2rcd13ifvqhmg","pricing_plan_id":"free"},{"bike_id":"6f22018e-1136-4ec9-885b-d3542e29b330","system_id":"levelo_inurba_marseille","lat":43.275625,"lon":5.384392,"is_reserved":false,"is_disabled":false,"rental_uris":{"android":"levelo://app?vid=6f22018e-1136-4ec9-885b-d3542e29b330","ios":"levelo://app?vid=6f22018e-1136-4ec9-885b-d3542e29b330"},"vehicle_type_id":"4","last_reported":1686927986,"current_range_meters":9200,"station_id":"ce4bhh92rcd13ifvqfi0","pricing_plan_id":"free"},{"bike_id":"1f75982b-231c-454a-b874-39fc086ea29d","system_id":"levelo_inurba_marseille","lat":43.276769,"lon":5.388787,"is_reserved":false,"is_disabled":false,"rental_uris":{"android":"levelo://app?vid=1f75982b-231c-454a-b874-39fc086ea29d","ios":"levelo://app?vid=1f75982b-231c-454a-b874-39fc086ea29d"},"vehicle_type_id":"4","last_reported":1686927986,"current_range_meters":3200,"station_id":"ce4bhi12rcd13ifvqfo0","pricing_plan_id":"free"},{"bike_id":"e2947688-7dc0-4b83-8ec1-9910059c19ae","system_id":"levelo_inurba_marseille","lat":43.29492,"lon":5.41938,"is_reserved":false,"is_disabled":false,"rental_uris":{"android":"levelo://app?vid=e2947688-7dc0-4b83-8ec1-9910059c19ae","ios":"levelo://app?vid=e2947688-7dc0-4b83-8ec1-9910059c19ae"},"vehicle_type_id":"4","last_reported":1686927986,"current_range_meters":4000,"station_id":"ce4bhph2rcd13ifvqhdg","pricing_plan_id":"free"},{"bike_id":"05fc9b36-c745-4aff-8a62-7c557ba2b920","system_id":"levelo_inurba_marseille","lat":43.27426,"lon":5.39402,"is_reserved":false,"is_disabled":false,"rental_uris":{"android":"levelo://app?vid=05fc9b36-c745-4aff-8a62-7c557ba2b920","ios":"levelo://app?vid=05fc9b36-c745-4aff-8a62-7c557ba2b920"},"vehicle_type_id":"4","last_reported":1686927986,"current_range_meters":400,"station_id":"","pricing_plan_id":"free"},{"bike_id":"d935d06a-c11d-4867-9a37-00949c4dc678","system_id":"levelo_inurba_marseille","lat":43.27424,"lon":5.39411,"is_reserved":false,"is_disabled":false,"rental_uris":{"android":"levelo://app?vid=d935d06a-c11d-4867-9a37-00949c4dc678","ios":"levelo://app?vid=d935d06a-c11d-4867-9a37-00949c4dc678"},"vehicle_type_id":"4","last_reported":1686927986,"current_range_meters":15200,"station_id":"","pricing_plan_id":"free"},{"bike_id":"f82c4e0b-ce86-4de4-962b-f266d6ba506e","system_id":"levelo_inurba_marseille","lat":43.273125,"lon":5.390731,"is_reserved":false,"is_disabled":false,"rental_uris":{"android":"levelo://app?vid=f82c4e0b-ce86-4de4-962b-f266d6ba506e","ios":"levelo://app?vid=f82c4e0b-ce86-4de4-962b-f266d6ba506e"},"vehicle_type_id":"4","last_reported":1686927986,"current_range_meters":26400,"station_id":"ce4bhgp2rcd13ifvqfe0","pricing_plan_id":"free"},{"bike_id":"adb8831c-35ea-4e1c-baaf-6b1a0717bf1d","system_id":"levelo_inurba_marseille","lat":43.29548,"lon":5.42281,"is_reserved":false,"is_disabled":false,"rental_uris":{"android":"levelo://app?vid=adb8831c-35ea-4e1c-baaf-6b1a0717bf1d","ios":"levelo://app?vid=adb8831c-35ea-4e1c-baaf-6b1a0717bf1d"},"vehicle_type_id":"4","last_reported":1686927986,"current_range_meters":27600,"station_id":"ce4bhph2rcd13ifvqhdg","pricing_plan_id":"free"},{"bike_id":"b9a53e50-7078-434a-9c19-a1c5262e3988","system_id":"levelo_inurba_marseille","lat":43.29552,"lon":5.42289,"is_reserved":false,"is_disabled":false,"rental_uris":{"android":"levelo://app?vid=b9a53e50-7078-434a-9c19-a1c5262e3988","ios":"levelo://app?vid=b9a53e50-7078-434a-9c19-a1c5262e3988"},"vehicle_type_id":"4","last_reported":1686927986,"current_range_meters":14000,"station_id":"ce4bhph2rcd13ifvqhdg","pricing_plan_id":"free"},{"bike_id":"ae72b3ac-2461-4841-aef5-f9e22b519879","system_id":"levelo_inurba_marseille","lat":43.295511,"lon":5.422926,"is_reserved":false,"is_disabled":false,"rental_uris":{"android":"levelo://app?vid=ae72b3ac-2461-4841-aef5-f9e22b519879","ios":"levelo://app?vid=ae72b3ac-2461-4841-aef5-f9e22b519879"},"vehicle_type_id":"4","last_reported":1686927986,"current_range_meters":15600,"station_id":"ce4bhph2rcd13ifvqhdg","pricing_plan_id":"free"},{"bike_id":"aea83ede-ffb9-4d3a-820b-38ad1147e5e7","system_id":"levelo_inurba_marseille","lat":43.272116,"lon":5.391763,"is_reserved":false,"is_disabled":false,"rental_uris":{"android":"levelo://app?vid=aea83ede-ffb9-4d3a-820b-38ad1147e5e7","ios":"levelo://app?vid=aea83ede-ffb9-4d3a-820b-38ad1147e5e7"},"vehicle_type_id":"4","last_reported":1686927986,"current_range_meters":22000,"station_id":"ce4bhhp2rcd13ifvqfm0","pricing_plan_id":"free"},{"bike_id":"46bfcc54-873b-4c05-97fa-4a83246f3b06","system_id":"levelo_inurba_marseille","lat":43.272116,"lon":5.391763,"is_reserved":false,"is_disabled":false,"rental_uris":{"android":"levelo://app?vid=46bfcc54-873b-4c05-97fa-4a83246f3b06","ios":"levelo://app?vid=46bfcc54-873b-4c05-97fa-4a83246f3b06"},"vehicle_type_id":"4","last_reported":1686927986,"current_range_meters":28400,"station_id":"ce4bhhp2rcd13ifvqfm0","pricing_plan_id":"free"},{"bike_id":"94d6b2ab-1907-41de-af02-8e15c174de1b","system_id":"levelo_inurba_marseille","lat":43.272116,"lon":5.391763,"is_reserved":false,"is_disabled":false,"rental_uris":{"android":"levelo://app?vid=94d6b2ab-1907-41de-af02-8e15c174de1b","ios":"levelo://app?vid=94d6b2ab-1907-41de-af02-8e15c174de1b"},"vehicle_type_id":"4","last_reported":1686927986,"current_range_meters":0,"station_id":"ce4bhhp2rcd13ifvqfm0","pricing_plan_id":"free"},{"bike_id":"ed01e5cf-9cbf-4a4b-8805-363d6097d248","system_id":"levelo_inurba_marseille","lat":43.272116,"lon":5.391747,"is_reserved":false,"is_disabled":false,"rental_uris":{"android":"levelo://app?vid=ed01e5cf-9cbf-4a4b-8805-363d6097d248","ios":"levelo://app?vid=ed01e5cf-9cbf-4a4b-8805-363d6097d248"},"vehicle_type_id":"4","last_reported":1686927986,"current_range_meters":11600,"station_id":"ce4bhhp2rcd13ifvqfm0","pricing_plan_id":"free"},{"bike_id":"2120af9a-4630-46c9-9f2f-a5341797fa1e","system_id":"levelo_inurba_marseille","lat":43.278128,"lon":5.407195,"is_reserved":false,"is_disabled":false,"rental_uris":{"android":"levelo://app?vid=2120af9a-4630-46c9-9f2f-a5341797fa1e","ios":"levelo://app?vid=2120af9a-4630-46c9-9f2f-a5341797fa1e"},"vehicle_type_id":"4","last_reported":1686927986,"current_range_meters":18400,"station_id":"ce4bhnh2rcd13ifvqgtg","pricing_plan_id":"free"},{"bike_id":"84fa32c5-d7c4-42a0-b3b4-337985395ea1","system_id":"levelo_inurba_marseille","lat":43.278128,"lon":5.407195,"is_reserved":false,"is_disabled":false,"rental_uris":{"android":"levelo://app?vid=84fa32c5-d7c4-42a0-b3b4-337985395ea1","ios":"levelo://app?vid=84fa32c5-d7c4-42a0-b3b4-337985395ea1"},"vehicle_type_id":"4","last_reported":1686927986,"current_range_meters":8800,"station_id":"ce4bhnh2rcd13ifvqgtg","pricing_plan_id":"free"},{"bike_id":"2275b903-24f0-4a68-b1e2-9da600fe5866","system_id":"levelo_inurba_marseille","lat":43.278128,"lon":5.407195,"is_reserved":false,"is_disabled":false,"rental_uris":{"android":"levelo://app?vid=2275b903-24f0-4a68-b1e2-9da600fe5866","ios":"levelo://app?vid=2275b903-24f0-4a68-b1e2-9da600fe5866"},"vehicle_type_id":"4","last_reported":1686927986,"current_range_meters":12800,"station_id":"ce4bhnh2rcd13ifvqgtg","pricing_plan_id":"free"},{"bike_id":"6275aaca-a354-407f-be44-df40f2969d44","system_id":"levelo_inurba_marseille","lat":43.26681,"lon":5.38268,"is_reserved":false,"is_disabled":false,"rental_uris":{"android":"levelo://app?vid=6275aaca-a354-407f-be44-df40f2969d44","ios":"levelo://app?vid=6275aaca-a354-407f-be44-df40f2969d44"},"vehicle_type_id":"4","last_reported":1686927986,"current_range_meters":31200,"station_id":"ce4bhg92rcd13ifvqf90","pricing_plan_id":"free"},{"bike_id":"cfba2fbe-9ed5-423f-b411-8d6c38451715","system_id":"levelo_inurba_marseille","lat":43.2668,"lon":5.3827,"is_reserved":false,"is_disabled":false,"rental_uris":{"android":"levelo://app?vid=cfba2fbe-9ed5-423f-b411-8d6c38451715","ios":"levelo://app?vid=cfba2fbe-9ed5-423f-b411-8d6c38451715"},"vehicle_type_id":"4","last_reported":1686927986,"current_range_meters":31200,"station_id":"ce4bhg92rcd13ifvqf90","pricing_plan_id":"free"},{"bike_id":"9d6c5cde-eff7-4b73-b548-40eaa3c6f21c","system_id":"levelo_inurba_marseille","lat":43.27999,"lon":5.41657,"is_reserved":false,"is_disabled":false,"rental_uris":{"android":"levelo://app?vid=9d6c5cde-eff7-4b73-b548-40eaa3c6f21c","ios":"levelo://app?vid=9d6c5cde-eff7-4b73-b548-40eaa3c6f21c"},