{"last_updated":1735394807,"ttl":60,"version":"2.2","data":{"bikes":[{"bike_id":"a9b5fd0e-1baf-45fb-bc8f-7ad95357031b","system_id":"levelo_inurba_marseille","lat":43.29924,"lon":5.3747,"is_reserved":false,"is_disabled":false,"rental_uris":{"android":"levelo://app?vid=a9b5fd0e-1baf-45fb-bc8f-7ad95357031b","ios":"levelo://app?vid=a9b5fd0e-1baf-45fb-bc8f-7ad95357031b"},"vehicle_type_id":"4","last_reported":1735394808,"current_range_meters":38800,"station_id":"ce4bgjh2rcd13ifvqbg0","pricing_plan_id":"cebpf4jnsgd1na2vs0mg"},{"bike_id":"2ed45135-f72f-4f5f-8e15-52e1df76058d","system_id":"levelo_inurba_marseille","lat":43.2886,"lon":5.35857,"is_reserved":false,"is_disabled":false,"rental_uris":{"android":"levelo://app?vid=2ed45135-f72f-4f5f-8e15-52e1df76058d","ios":"levelo://app?vid=2ed45135-f72f-4f5f-8e15-52e1df76058d"},"vehicle_type_id":"4","last_reported":1735394808,"current_range_meters":26800,"station_id":"ce4bhb12rcd13ifvqem0","pricing_plan_id":"cebpf4jnsgd1na2vs0mg"},{"bike_id":"b37ae28c-5660-4c59-8b49-a0b00d609b48","system_id":"levelo_inurba_marseille","lat":43.29513,"lon":5.37504,"is_reserved":false,"is_disabled":false,"rental_uris":{"android":"levelo://app?vid=b37ae28c-5660-4c59-8b49-a0b00d609b48","ios":"levelo://app?vid=b37ae28c-5660-4c59-8b49-a0b00d609b48"},"vehicle_type_id":"4","last_reported":1735394808,"current_range_meters":17600,"station_id":"ce4bgkp2rcd13ifvqbmg","pricing_plan_id":"cebpf4jnsgd1na2vs0mg"},{"bike_id":"ea199cab-5a00-4a5e-963d-5a87e75a7433","system_id":"levelo_inurba_marseille","lat":43.24389,"lon":5.37057,"is_reserved":false,"is_disabled":false,"rental_uris":{"android":"levelo://app?vid=ea199cab-5a00-4a5e-963d-5a87e75a7433","ios":"levelo://app?vid=ea199cab-5a00-4a5e-963d-5a87e75a7433"},"vehicle_type_id":"4","last_reported":1735394808,"current_range_meters":38800,"station_id":"ce4bhhh2rcd13ifvqfk0","pricing_plan_id":"cebpf4jnsgd1na2vs0mg"},{"bike_id":"52a67948-c4dc-4ef0-8b62-d6318d86139d","system_id":"levelo_inurba_marseille","lat":43.30538,"lon":5.36537,"is_reserved":false,"is_disabled":false,"rental_uris":{"android":"levelo://app?vid=52a67948-c4dc-4ef0-8b62-d6318d86139d","ios":"levelo://app?vid=52a67948-c4dc-4ef0-8b62-d6318d86139d"},"vehicle_type_id":"4","last_reported":1735394808,"current_range_meters":23200,"station_id":"ce4bgs12rcd13ifvqcag","pricing_plan_id":"cebpf4jnsgd1na2vs0mg"},{"bike_id":"4def4882-e804-4c7f-ad72-1d6041f29fab","system_id":"levelo_inurba_marseille","lat":43.2893,"lon":5.3663,"is_reserved":false,"is_disabled":false,"rental_uris":{"android":"levelo://app?vid=4def4882-e804-4c7f-ad72-1d6041f29fab","ios":"levelo://app?vid=4def4882-e804-4c7f-ad72-1d6041f29fab"},"vehicle_type_id":"4","last_reported":1735394808,"current_range_meters":22000,"station_id":"ce4bhap2rcd13ifvqek0","pricing_plan_id":"cebpf4jnsgd1na2vs0mg"},{"bike_id":"17467958-a151-40f2-98e4-bb65ea00e49d","system_id":"levelo_inurba_marseille","lat":43.27946,"lon":5.41059,"is_reserved":false,"is_disabled":false,"rental_uris":{"android":"levelo://app?vid=17467958-a151-40f2-98e4-bb65ea00e49d","ios":"levelo://app?vid=17467958-a151-40f2-98e4-bb65ea00e49d"},"vehicle_type_id":"4","last_reported":1735394808,"current_range_meters":36800,"station_id":"ce4bhnp2rcd13ifvqh0g","pricing_plan_id":"cebpf4jnsgd1na2vs0mg"},{"bike_id":"1c3c158d-b02a-4bee-8d42-3bf09b0f655a","system_id":"levelo_inurba_marseille","lat":43.32367,"lon":5.38887,"is_reserved":false,"is_disabled":false,"rental_uris":{"android":"levelo://app?vid=1c3c158d-b02a-4bee-8d42-3bf09b0f655a","ios":"levelo://app?vid=1c3c158d-b02a-4bee-8d42-3bf09b0f655a"},"vehicle_type_id":"4","last_reported":1735394808,"current_range_meters":23200,"station_id":"ce4bhqp2rcd13ifvqhog","pricing_plan_id":"cebpf4jnsgd1na2vs0mg"},{"bike_id":"3991aac2-ec7f-43c8-801f-23e11845f2d6","system_id":"levelo_inurba_marseille","lat":43.28147,"lon":5.42641,"is_reserved":false,"is_disabled":false,"rental_uris":{"android":"levelo://app?vid=3991aac2-ec7f-43c8-801f-23e11845f2d6","ios":"levelo://app?vid=3991aac2-ec7f-43c8-801f-23e11845f2d6"},"vehicle_type_id":"4","last_reported":1735394808,"current_range_meters":38800,"station_id":"ce4bhnh2rcd13ifvqgug","pricing_plan_id":"cebpf4jnsgd1na2vs0mg"},{"bike_id":"70380e57-1aa2-4e30-915d-84efe3860d40","system_id":"levelo_inurba_marseille","lat":43.29605,"lon":5.38105,"is_reserved":false,"is_disabled":false,"rental_uris":{"android":"levelo://app?vid=70380e57-1aa2-4e30-915d-84efe3860d40","ios":"levelo://app?vid=70380e57-1aa2-4e30-915d-84efe3860d40"},"vehicle_type_id":"4","last_reported":1735394808,"current_range_meters":32400,"station_id":"ce4bgl12rcd13ifvqbo0","pricing_plan_id":"cebpf4jnsgd1na2vs0mg"},{"bike_id":"aa910906-3ca2-4107-80e1-4fe46d1472a6","system_id":"levelo_inurba_marseille","lat":43.320439,"lon":5.415632,"is_reserved":false,"is_disabled":false,"rental_uris":{"android":"levelo://app?vid=aa910906-3ca2-4107-80e1-4fe46d1472a6","ios":"levelo://app?vid=aa910906-3ca2-4107-80e1-4fe46d1472a6"},"vehicle_type_id":"4","last_reported":1735394808,"current_range_meters":30400,"station_id":"ce4bhq92rcd13ifvqhkg","pricing_plan_id":"cebpf4jnsgd1na2vs0mg"},{"bike_id":"7086282e-a571-475e-9869-4f96b3bd7481","system_id":"levelo_inurba_marseille","lat":43.29577,"lon":5.375,"is_reserved":false,"is_disabled":false,"rental_uris":{"android":"levelo://app?vid=7086282e-a571-475e-9869-4f96b3bd7481","ios":"levelo://app?vid=7086282e-a571-475e-9869-4f96b3bd7481"},"vehicle_type_id":"4","last_reported":1735394808,"current_range_meters":36400,"station_id":"ce4bgh92rcd13ifvqb50","pricing_plan_id":"cebpf4jnsgd1na2vs0mg"},{"bike_id":"f4ab519a-4bf7-44ef-a033-b806cea138a3","system_id":"levelo_inurba_marseille","lat":43.24082,"lon":5.37763,"is_reserved":false,"is_disabled":false,"rental_uris":{"android":"levelo://app?vid=f4ab519a-4bf7-44ef-a033-b806cea138a3","ios":"levelo://app?vid=f4ab519a-4bf7-44ef-a033-b806cea138a3"},"vehicle_type_id":"4","last_reported":1735394808,"current_range_meters":35200,"station_id":"ce4bhnp2rcd13ifvqgvg","pricing_plan_id":"cebpf4jnsgd1na2vs0mg"},{"bike_id":"6ad1742e-8bff-4c51-a529-dfe59edb730a","system_id":"levelo_inurba_marseille","lat":43.29927,"lon":5.3746,"is_reserved":false,"is_disabled":false,"rental_uris":{"android":"levelo://app?vid=6ad1742e-8bff-4c51-a529-dfe59edb730a","ios":"levelo://app?vid=6ad1742e-8bff-4c51-a529-dfe59edb730a"},"vehicle_type_id":"4","last_reported":1735394808,"current_range_meters":32800,"station_id":"ce4bgjh2rcd13ifvqbg0","pricing_plan_id":"cebpf4jnsgd1na2vs0mg"},{"bike_id":"15dbc128-9fc6-4e82-9c2b-29267fff5efa","system_id":"levelo_inurba_marseille","lat":43.27361,"lon":5.36252,"is_reserved":false,"is_disabled":false,"rental_uris":{"android":"levelo://app?vid=15dbc128-9fc6-4e82-9c2b-29267fff5efa","ios":"levelo://app?vid=15dbc128-9fc6-4e82-9c2b-29267fff5efa"},"vehicle_type_id":"4","last_reported":1735394808,"current_range_meters":30400,"station_id":"ce4bhbh2rcd13ifvqeo0","pricing_plan_id":"cebpf4jnsgd1na2vs0mg"},{"bike_id":"4b0fd93f-ab44-4d17-9609-4abb396d054c","system_id":"levelo_inurba_marseille","lat":43.23191,"lon":5.35555,"is_reserved":false,"is_disabled":false,"rental_uris":{"android":"levelo://app?vid=4b0fd93f-ab44-4d17-9609-4abb396d054c","ios":"levelo://app?vid=4b0fd93f-ab44-4d17-9609-4abb396d054c"},"vehicle_type_id":"4","last_reported":1735394808,"current_range_meters":35200,"station_id":"ce4bhu92rcd13ifvqi70","pricing_plan_id":"cebpf4jnsgd1na2vs0mg"},{"bike_id":"7e9b58ee-83f7-4fc1-8cf2-cdc5ff9690a0","system_id":"levelo_inurba_marseille","lat":43.26958,"lon":5.40289,"is_reserved":false,"is_disabled":false,"rental_uris":{"android":"levelo://app?vid=7e9b58ee-83f7-4fc1-8cf2-cdc5ff9690a0","ios":"levelo://app?vid=7e9b58ee-83f7-4fc1-8cf2-cdc5ff9690a0"},"vehicle_type_id":"4","last_reported":1735394808,"current_range_meters":29600,"station_id":"cjm6bp8fraef2m0cb0m0","pricing_plan_id":"cebpf4jnsgd1na2vs0mg"},{"bike_id":"2ef2e471-93ec-4ccd-b94c-3589912eb812","system_id":"levelo_inurba_marseille","lat":43.29621,"lon":5.37156,"is_reserved":false,"is_disabled":false,"rental_uris":{"android":"levelo://app?vid=2ef2e471-93ec-4ccd-b94c-3589912eb812","ios":"levelo://app?vid=2ef2e471-93ec-4ccd-b94c-3589912eb812"},"vehicle_type_id":"4","last_reported":1735394808,"current_range_meters":36000,"station_id":"ce4bgnh2rcd13ifvqc0g","pricing_plan_id":"cebpf4jnsgd1na2vs0mg"},{"bike_id":"49f357b8-810a-449f-bac1-34e866d42624","system_id":"levelo_inurba_marseille","lat":43.31756,"lon":5.39021,"is_reserved":false,"is_disabled":false,"rental_uris":{"android":"levelo://app?vid=49f357b8-810a-449f-bac1-34e866d42624","ios":"levelo://app?vid=49f357b8-810a-449f-bac1-34e866d42624"},"vehicle_type_id":"4","last_reported":1735394808,"current_range_meters":16000,"station_id":"ce4bhqp2rcd13ifvqhng","pricing_plan_id":"cebpf4jnsgd1na2vs0mg"},{"bike_id":"f91532b8-e828-4bd7-8be4-9f9fff44be9e","system_id":"levelo_inurba_marseille","lat":43.28726,"lon":5.37939,"is_reserved":false,"is_disabled":false,"rental_uris":{"android":"levelo://app?vid=f91532b8-e828-4bd7-8be4-9f9fff44be9e","ios":"levelo://app?vid=f91532b8-e828-4bd7-8be4-9f9fff44be9e"},"vehicle_type_id":"4","last_reported":1735394808,"current_range_meters":16000,"station_id":"ce4bh9p2rcd13ifvqec0","pricing_plan_id":"cebpf4jnsgd1na2vs0mg"},{"bike_id":"e3e1f527-7670-429c-9e33-f18200f2c82a","system_id":"levelo_inurba_marseille","lat":43.25495,"lon":5.37653,"is_reserved":false,"is_disabled":false,"rental_uris":{"android":"levelo://app?vid=e3e1f527-7670-429c-9e33-f18200f2c82a","ios":"levelo://app?vid=e3e1f527-7670-429c-9e33-f18200f2c82a"},"vehicle_type_id":"4","last_reported":1735394808,"current_range_meters":34800,"station_id":"ce4bhh12rcd13ifvqff0","pricing_plan_id":"cebpf4jnsgd1na2vs0mg"},{"bike_id":"794cf6e4-d5ad-4fdd-81be-1d8413bde123","system_id":"levelo_inurba_marseille","lat":43.29927,"lon":5.36554,"is_reserved":false,"is_disabled":false,"rental_uris":{"android":"levelo://app?vid=794cf6e4-d5ad-4fdd-81be-1d8413bde123","ios":"levelo://app?vid=794cf6e4-d5ad-4fdd-81be-1d8413bde123"},"vehicle_type_id":"4","last_reported":1735394808,"current_range_meters":28800,"station_id":"ce4bgm92rcd13ifvqbr0","pricing_plan_id":"cebpf4jnsgd1na2vs0mg"},{"bike_id":"ef0c2a07-1396-49b8-9101-0d549d0b4b4d","system_id":"levelo_inurba_marseille","lat":43.28264,"lon":5.35079,"is_reserved":false,"is_disabled":false,"rental_uris":{"android":"levelo://app?vid=ef0c2a07-1396-49b8-9101-0d549d0b4b4d","ios":"levelo://app?vid=ef0c2a07-1396-49b8-9101-0d549d0b4b4d"},"vehicle_type_id":"4","last_reported":1735394808,"current_range_meters":27200,"station_id":"ce4bhbp2rcd13ifvqerg","pricing_plan_id":"cebpf4jnsgd1na2vs0mg"},{"bike_id":"857344dd-6be1-4d34-90e7-6f62afbbef2e","system_id":"levelo_inurba_marseille","lat":43.32104,"lon":5.36776,"is_reserved":false,"is_disabled":false,"rental_uris":{"android":"levelo://app?vid=857344dd-6be1-4d34-90e7-6f62afbbef2e","ios":"levelo://app?vid=857344dd-6be1-4d34-90e7-6f62afbbef2e"},"vehicle_type_id":"4","last_reported":1735394808,"current_range_meters":32800,"station_id":"ce4bhrh2rcd13ifvqhug","pricing_plan_id":"cebpf4jnsgd1na2vs0mg"},{"bike_id":"954b83cc-836b-487b-a767-c52a7aa4dcf6","system_id":"levelo_inurba_marseille","lat":43.26554,"lon":5.37278,"is_reserved":false,"is_disabled":false,"rental_uris":{"android":"levelo://app?vid=954b83cc-836b-487b-a767-c52a7aa4dcf6","ios":"levelo://app?vid=954b83cc-836b-487b-a767-c52a7aa4dcf6"},"vehicle_type_id":"4","last_reported":1735394808,"current_range_meters":18800,"station_id":"ce4bhg12rcd13ifvqf70","pricing_plan_id":"cebpf4jnsgd1na2vs0mg"},{"bike_id":"6f3ae57c-be3d-4195-906d-36eda90d6eb6","system_id":"levelo_inurba_marseille","lat":43.29229,"lon":5.36065,"is_reserved":false,"is_disabled":false,"rental_uris":{"android":"levelo://app?vid=6f3ae57c-be3d-4195-906d-36eda90d6eb6","ios":"levelo://app?vid=6f3ae57c-be3d-4195-906d-36eda90d6eb6"},"vehicle_type_id":"4","last_reported":1735394808,"current_range_meters":24400,"station_id":"ce4bhbh2rcd13ifvqeqg","pricing_plan_id":"cebpf4jnsgd1na2vs0mg"},{"bike_id":"595b770a-6283-4c5a-81d3-40f82231fc59","system_id":"levelo_inurba_marseille","lat":43.28476,"lon":5.38431,"is_reserved":false,"is_disabled":false,"rental_uris":{"android":"levelo://app?vid=595b770a-6283-4c5a-81d3-40f82231fc59","ios":"levelo://app?vid=595b770a-6283-4c5a-81d3-40f82231fc59"},"vehicle_type_id":"4","last_reported":1735394808,"current_range_meters":28000,"station_id":"ce4bh512rcd13ifvqe3g","pricing_plan_id":"cebpf4jnsgd1na2vs0mg"},{"bike_id":"25d5267a-def5-45dc-a9cf-29b34bdb713a","system_id":"levelo_inurba_marseille","lat":43.2926,"lon":5.38442,"is_reserved":false,"is_disabled":false,"rental_uris":{"android":"levelo://app?vid=25d5267a-def5-45dc-a9cf-29b34bdb713a","ios":"levelo://app?vid=25d5267a-def5-45dc-a9cf-29b34bdb713a"},"vehicle_type_id":"4","last_reported":1735394808,"current_range_meters":33200,"station_id":"ce4bh692rcd13ifvqea0","pricing_plan_id":"cebpf4jnsgd1na2vs0mg"},{"bike_id":"ad66ce9d-e2b2-4064-ae7f-fe87403c632b","system_id":"levelo_inurba_marseille","lat":43.23098,"lon":5.35426,"is_reserved":false,"is_disabled":false,"rental_uris":{"android":"levelo://app?vid=ad66ce9d-e2b2-4064-ae7f-fe87403c632b","ios":"levelo://app?vid=ad66ce9d-e2b2-4064-ae7f-fe87403c632b"},"vehicle_type_id":"4","last_reported":1735394808,"current_range_meters":21600,"station_id":"cpo3342slgdg3j2ifvpg","pricing_plan_id":"cebpf4jnsgd1na2vs0mg"},{"bike_id":"9dc50328-2090-4126-a279-30b064fcbaa8","system_id":"levelo_inurba_marseille","lat":43.2945,"lon":5.3975,"is_reserved":false,"is_disabled":false,"rental_uris":{"android":"levelo://app?vid=9dc50328-2090-4126-a279-30b064fcbaa8","ios":"levelo://app?vid=9dc50328-2090-4126-a279-30b064fcbaa8"},"vehicle_type_id":"4","last_reported":1735394808,"current_range_meters":38800,"station_id":"ce4bh3h2rcd13ifvqdo0","pricing_plan_id":"cebpf4jnsgd1na2vs0mg"},{"bike_id":"045fe637-bb82-4cd1-b376-5f179f83b4f0","system_id":"levelo_inurba_marseille","lat":43.273815,"lon":5.362623,"is_reserved":false,"is_disabled":false,"rental_uris":{"android":"levelo://app?vid=045fe637-bb82-4cd1-b376-5f179f83b4f0","ios":"levelo://app?vid=045fe637-bb82-4cd1-b376-5f179f83b4f0"},"vehicle_type_id":"4","last_reported":1735394808,"current_range_meters":30800,"station_id":"ce4bhbh2rcd13ifvqeo0","pricing_plan_id":"cebpf4jnsgd1na2vs0mg"},{"bike_id":"aa524046-cbee-4f2f-afd6-e01e8b1ed6f4","system_id":"levelo_inurba_marseille","lat":43.2903,"lon":5.35918,"is_reserved":false,"is_disabled":false,"rental_uris":{"android":"levelo://app?vid=aa524046-cbee-4f2f-afd6-e01e8b1ed6f4","ios":"levelo://app?vid=aa524046-cbee-4f2f-afd6-e01e8b1ed6f4"},"vehicle_type_id":"4","last_reported":1735394808,"current_range_meters":37600,"station_id":"ce4bha92rcd13ifvqeg0","pricing_plan_id":"cebpf4jnsgd1na2vs0mg"},{"bike_id":"a3e50e76-2a05-4896-964a-b79c28831291","system_id":"levelo_inurba_marseille","lat":43.30535,"lon":5.36561,"is_reserved":false,"is_disabled":false,"rental_uris":{"android":"levelo://app?vid=a3e50e76-2a05-4896-964a-b79c28831291","ios":"levelo://app?vid=a3e50e76-2a05-4896-964a-b79c28831291"},"vehicle_type_id":"4","last_reported":1735394808,"current_range_meters":8000,"station_id":"ce4bgs12rcd13ifvqcag","pricing_plan_id":"cebpf4jnsgd1na2vs0mg"},{"bike_id":"22d132b3-2616-4d76-9ea8-013e091bdb90","system_id":"levelo_inurba_marseille","lat":43.25006,"lon":5.38926,"is_reserved":false,"is_disabled":false,"rental_uris":{"android":"levelo://app?vid=22d132b3-2616-4d76-9ea8-013e091bdb90","ios":"levelo://app?vid=22d132b3-2616-4d76-9ea8-013e091bdb90"},"vehicle_type_id":"4","last_reported":1735394808,"current_range_meters":29600,"station_id":"ce4bhgp2rcd13ifvqfd0","pricing_plan_id":"cebpf4jnsgd1na2vs0mg"},{"bike_id":"d0533ccb-11ce-46dc-9cca-daa9f7a4985a","system_id":"levelo_inurba_marseille","lat":43.29547,"lon":5.42288,"is_reserved":false,"is_disabled":false,"rental_uris":{"android":"levelo://app?vid=d0533ccb-11ce-46dc-9cca-daa9f7a4985a","ios":"levelo://app?vid=d0533ccb-11ce-46dc-9cca-daa9f7a4985a"},"vehicle_type_id":"4","last_reported":1735394808,"current_range_meters":38800,"station_id":"ce4bhph2rcd13ifvqhdg","pricing_plan_id":"cebpf4jnsgd1na2vs0mg"},{"bike_id":"295be83c-17fe-40e4-9eab-8cbd607afc6b","system_id":"levelo_inurba_marseille","lat":43.31754,"lon":5.3902,"is_reserved":false,"is_disabled":false,"rental_uris":{"android":"levelo://app?vid=295be83c-17fe-40e4-9eab-8cbd607afc6b","ios":"levelo://app?vid=295be83c-17fe-40e4-9eab-8cbd607afc6b"},"vehicle_type_id":"4","last_reported":1735394808,"current_range_meters":28800,"station_id":"ce4bhqp2rcd13ifvqhng","pricing_plan_id":"cebpf4jnsgd1na2vs0mg"},{"bike_id":"daef0f94-988f-4230-b125-62ce3474d24c","system_id":"levelo_inurba_marseille","lat":43.27672,"lon":5.38933,"is_reserved":false,"is_disabled":false,"rental_uris":{"android":"levelo://app?vid=daef0f94-988f-4230-b125-62ce3474d24c","ios":"levelo://app?vid=daef0f94-988f-4230-b125-62ce3474d24c"},"vehicle_type_id":"4","last_reported":1735394808,"current_range_meters":37600,"station_id":"ce4bhi12rcd13ifvqfo0","pricing_plan_id":"cebpf4jnsgd1na2vs0mg"},{"bike_id":"a69d1136-5aef-4753-aff3-1201a568ad37","system_id":"levelo_inurba_marseille","lat":43.28278,"lon":5.35076,"is_reserved":false,"is_disabled":false,"rental_uris":{"android":"levelo://app?vid=a69d1136-5aef-4753-aff3-1201a568ad37","ios":"levelo://app?vid=a69d1136-5aef-4753-aff3-1201a568ad37"},"vehicle_type_id":"4","last_reported":1735394808,"current_range_meters":38800,"station_id":"ce4bhbp2rcd13ifvqerg","pricing_plan_id":"cebpf4jnsgd1na2vs0mg"},{"bike_id":"df505920-b7e1-4f0a-8645-ba4405f002e4","system_id":"levelo_inurba_marseille","lat":43.29705,"lon":5.37663,"is_reserved":false,"is_disabled":false,"rental_uris":{"android":"levelo://app?vid=df505920-b7e1-4f0a-8645-ba4405f002e4","ios":"levelo://app?vid=df505920-b7e1-4f0a-8645-ba4405f002e4"},"vehicle_type_id":"4","last_reported":1735394808,"current_range_meters":20400,"station_id":"ce4bgkh2rcd13ifvqbl0","pricing_plan_id":"cebpf4jnsgd1na2vs0mg"},{"bike_id":"879d8d2d-aea4-4c68-8405-16edb1cace8d","system_id":"levelo_inurba_marseille","lat":43.2827,"lon":5.35078,"is_reserved":false,"is_disabled":false,"rental_uris":{"android":"levelo://app?vid=879d8d2d-aea4-4c68-8405-16edb1cace8d","ios":"levelo://app?vid=879d8d2d-aea4-4c68-8405-16edb1cace8d"},"vehicle_type_id":"4","last_reported":1735394808,"current_range_meters":39200,"station_id":"ce4bhbp2rcd13ifvqerg","pricing_plan_id":"cebpf4jnsgd1na2vs0mg"},{"bike_id":"caab34a4-5264-4b72-a12f-e55159fe93b6","system_id":"levelo_inurba_marseille","lat":43.27071,"lon":5.42293,"is_reserved":false,"is_disabled":false,"rental_uris":{"android":"levelo://app?vid=caab34a4-5264-4b72-a12f-e55159fe93b6","ios":"levelo://app?vid=caab34a4-5264-4b72-a12f-e55159fe93b6"},"vehicle_type_id":"4","last_reported":1735394808,"current_range_meters":28800,"station_id":"ce4bhk92rcd13ifvqgb0","pricing_plan_id":"cebpf4jnsgd1na2vs0mg"},{"bike_id":"a6578c90-0373-4754-babd-9fd05616d49f","system_id":"levelo_inurba_marseille","lat":43.291974,"lon":5.358607,"is_reserved":false,"is_disabled":false,"rental_uris":{"android":"levelo://app?vid=a6578c90-0373-4754-babd-9fd05616d49f","ios":"levelo://app?vid=a6578c90-0373-4754-babd-9fd05616d49f"},"vehicle_type_id":"4","last_reported":1735394808,"current_range_meters":30400,"station_id":"","pricing_plan_id":"cebpf4jnsgd1na2vs0mg"},{"bike_id":"e5582f1b-2fc8-434e-aeb6-8b809add67ca","system_id":"levelo_inurba_marseille","lat":43.27988,"lon":5.41658,"is_reserved":false,"is_disabled":false,"rental_uris":{"android":"levelo://app?vid=e5582f1b-2fc8-434e-aeb6-8b809add67ca","ios":"levelo://app?vid=e5582f1b-2fc8-434e-aeb6-8b809add67ca"},"vehicle_type_id":"4","last_reported":1735394808,"current_range_meters":36800,"station_id":"ce4bho12rcd13ifvqh1g","pricing_plan_id":"cebpf4jnsgd1na2vs0mg"},{"bike_id":"dc6d7d0c-eecb-42fd-a119-b074a9406448","system_id":"levelo_inurba_marseille","lat":43.32347,"lon":5.38892,"is_reserved":false,"is_disabled":false,"rental_uris":{"android":"levelo://app?vid=dc6d7d0c-eecb-42fd-a119-b074a9406448","ios":"levelo://app?vid=dc6d7d0c-eecb-42fd-a119-b074a9406448"},"vehicle_type_id":"4","last_reported":1735394808,"current_range_meters":29600,"station_id":"ce4bhqp2rcd13ifvqhog","pricing_plan_id":"cebpf4jnsgd1na2vs0mg"},{"bike_id":"efdc8661-a0f3-4d19-90da-c58f06d18d3a","system_id":"levelo_inurba_marseille","lat":43.30605,"lon":5.37208,"is_reserved":false,"is_disabled":false,"rental_uris":{"android":"levelo://app?vid=efdc8661-a0f3-4d19-90da-c58f06d18d3a","ios":"levelo://app?vid=efdc8661-a0f3-4d19-90da-c58f06d18d3a"},"vehicle_type_id":"4","last_reported":1735394808,"current_range_meters":16800,"station_id":"ce4bgqh2rcd13ifvqc4g","pricing_plan_id":"cebpf4jnsgd1na2vs0mg"},{"bike_id":"4ad74d8b-8ae9-457f-ab8d-cb1469c368fa","system_id":"levelo_inurba_marseille","lat":43.28933,"lon":5.3963,"is_reserved":false,"is_disabled":false,"rental_uris":{"android":"levelo://app?vid=4ad74d8b-8ae9-457f-ab8d-cb1469c368fa","ios":"levelo://app?vid=4ad74d8b-8ae9-457f-ab8d-cb1469c368fa"},"vehicle_type_id":"4","last_reported":1735394808,"current_range_meters":24800,"station_id":"ce4bh3h2rcd13ifvqdn0","pricing_plan_id":"cebpf4jnsgd1na2vs0mg"},{"bike_id":"70d19c25-8ccd-4e58-ab7a-a78e2691387c","system_id":"levelo_inurba_marseille","lat":43.28616,"lon":5.35102,"is_reserved":false,"is_disabled":false,"rental_uris":{"android":"levelo://app?vid=70d19c25-8ccd-4e58-ab7a-a78e2691387c","ios":"levelo://app?vid=70d19c25-8ccd-4e58-ab7a-a78e2691387c"},"vehicle_type_id":"4","last_reported":1735394808,"current_range_meters":24000,"station_id":"ce4bhch2rcd13ifvqeug","pricing_plan_id":"cebpf4jnsgd1na2vs0mg"},{"bike_id":"33e4c278-497a-4992-9269-3f4bd7a2ca60","system_id":"levelo_inurba_marseille","lat":43.29917,"lon":5.37488,"is_reserved":false,"is_disabled":false,"rental_uris":{"android":"levelo://app?vid=33e4c278-497a-4992-9269-3f4bd7a2ca60","ios":"levelo://app?vid=33e4c278-497a-4992-9269-3f4bd7a2ca60"},"vehicle_type_id":"4","last_reported":1735394808,"current_range_meters":38800,"station_id":"ce4bgjh2rcd13ifvqbg0","pricing_plan_id":"cebpf4jnsgd1na2vs0mg"},{"bike_id":"4e1b440e-dc87-47f0-92e1-32a898eeb09a","system_id":"levelo_inurba_marseille","lat":43.32048,"lon":5.41578,"is_reserved":false,"is_disabled":false,"rental_uris":{"android":"levelo://app?vid=4e1b440e-dc87-47f0-92e1-32a898eeb09a","ios":"levelo://app?vid=4e1b440e-dc87-47f0-92e1-32a898eeb09a"},"vehicle_type_id":"4","last_reported":1735394808,"current_range_meters":36800,"station_id":"ce4bhq92rcd13ifvqhkg","pricing_plan_id":"cebpf4jnsgd1na2vs0mg"},{"bike_id":"c0c3e5c6-edc3-41c4-8feb-85aaa21b750a","system_id":"levelo_inurba_marseille","lat":43.32049,"lon":5.41581,"is_reserved":false,"is_disabled":false,"rental_uris":{"android":"levelo://app?vid=c0c3e5c6-edc3-41c4-8feb-85aaa21b750a","ios":"levelo://app?vid=c0c3e5c6-edc3-41c4-8feb-85aaa21b750a"},"vehicle_type_id":"4","last_reported":1735394808,"current_range_meters":36400,"station_id":"ce4bhq92rcd13ifvqhkg","pricing_plan_id":"cebpf4jnsgd1na2vs0mg"},{"bike_id":"1614b641-51e8-4939-86a4-49d02c2889c7","system_id":"levelo_inurba_marseille","lat":43.2737,"lon":5.36252,"is_reserved":false,"is_disabled":false,"rental_uris":{"android":"levelo://app?vid=1614b641-51e8-4939-86a4-49d02c2889c7","ios":"levelo://app?vid=1614b641-51e8-4939-86a4-49d02c2889c7"},"vehicle_type_id":"4","last_reported":1735394808,"current_range_meters":8800,"station_id":"ce4bhbh2rcd13ifvqeo0","pricing_plan_id":"cebpf4jnsgd1na2vs0mg"},{"bike_id":"e69ab0c5-1695-45ca-8016-82896093badb","system_id":"levelo_inurba_marseille","lat":43.2972,"lon":5.37658,"is_reserved":false,"is_disabled":false,"rental_uris":{"android":"levelo://app?vid=e69ab0c5-1695-45ca-8016-82896093badb","ios":"levelo://app?vid=e69ab0c5-1695-45ca-8016-82896093badb"},"vehicle_type_id":"4","last_reported":1735394808,"current_range_meters":29600,"station_id":"ce4bgkh2rcd13ifvqbl0","pricing_plan_id":"cebpf4jnsgd1na2vs0mg"},{"bike_id":"d456d07f-78b4-4e51-add9-4dd83f1bbf6d","system_id":"levelo_inurba_marseille","lat":43.29277,"lon":5.36853,"is_reserved":false,"is_disabled":false,"rental_uris":{"android":"levelo://app?vid=d456d07f-78b4-4e51-add9-4dd83f1bbf6d","ios":"levelo://app?vid=d456d07f-78b4-4e51-add9-4dd83f1bbf6d"},"vehicle_type_id":"4","last_reported":1735394808,"current_range_meters":38800,"station_id":"ce4bhbp2rcd13ifvqesg","pricing_plan_id":"cebpf4jnsgd1na2vs0mg"},{"bike_id":"d52e85d5-4ed3-4669-a4bd-91d52a00ad41","system_id":"levelo_inurba_marseille","lat":43.28272,"lon":5.35077,"is_reserved":false,"is_disabled":false,"rental_uris":{"android":"levelo://app?vid=d52e85d5-4ed3-4669-a4bd-91d52a00ad41","ios":"levelo://app?vid=d52e85d5-4ed3-4669-a4bd-91d52a00ad41"},"vehicle_type_id":"4","last_reported":1735394808,"current_range_meters":38000,"station_id":"ce4bhbp2rcd13ifvqerg","pricing_plan_id":"cebpf4jnsgd1na2vs0mg"},{"bike_id":"0d571639-e2ae-4ecc-8d12-414612b9fe18","system_id":"levelo_inurba_marseille","lat":43.29898,"lon":5.38144,"is_reserved":false,"is_disabled":false,"rental_uris":{"android":"levelo://app?vid=0d571639-e2ae-4ecc-8d12-414612b9fe18","ios":"levelo://app?vid=0d571639-e2ae-4ecc-8d12-414612b9fe18"},"vehicle_type_id":"4","last_reported":1735394808,"current_range_meters":38400,"station_id":"ce4bgj12rcd13ifvqbc0","pricing_plan_id":"cebpf4jnsgd1na2vs0mg"},{"bike_id":"9135ddc8-67d3-47df-8406-e305ff373be2","system_id":"levelo_inurba_marseille","lat":43.2847,"lon":5.3841,"is_reserved":false,"is_disabled":false,"rental_uris":{"android":"levelo://app?vid=9135ddc8-67d3-47df-8406-e305ff373be2","ios":"levelo://app?vid=9135ddc8-67d3-47df-8406-e305ff373be2"},"vehicle_type_id":"4","last_reported":1735394808,"current_range_meters":30800,"station_id":"ce4bh512rcd13ifvqe3g","pricing_plan_id":"cebpf4jnsgd1na2vs0mg"},{"bike_id":"d6144803-d96b-4980-90a1-d59f6d11564c","system_id":"levelo_inurba_marseille","lat":43.28153,"lon":5.42646,"is_reserved":false,"is_disabled":false,"rental_uris":{"android":"levelo://app?vid=d6144803-d96b-4980-90a1-d59f6d11564c","ios":"levelo://app?vid=d6144803-d96b-4980-90a1-d59f6d11564c"},"vehicle_type_id":"4","last_reported":1735394808,"current_range_meters":11200,"station_id":"ce4bhnh2rcd13ifvqgug","pricing_plan_id":"cebpf4jnsgd1na2vs0mg"},{"bike_id":"125766fb-bb9e-4063-abf4-d8649b751513","system_id":"levelo_inurba_marseille","lat":43.3096,"lon":5.39041,"is_reserved":false,"is_disabled":false,"rental_uris":{"android":"levelo://app?vid=125766fb-bb9e-4063-abf4-d8649b751513","ios":"levelo://app?vid=125766fb-bb9e-4063-abf4-d8649b751513"},"vehicle_type_id":"4","last_reported":1735394808,"current_range_meters":27600,"station_id":"ce4bgup2rcd13ifvqco0","pricing_plan_id":"cebpf4jnsgd1na2vs0mg"},{"bike_id":"ccb516a0-ceae-40f5-9bf3-6aa809b499bc","system_id":"levelo_inurba_marseille","lat":43.24545,"lon":5.39526,"is_reserved":false,"is_disabled":false,"rental_uris":{"android":"levelo://app?vid=ccb516a0-ceae-40f5-9bf3-6aa809b499bc","ios":"levelo://app?vid=ccb516a0-ceae-40f5-9bf3-6aa809b499bc"},"vehicle_type_id":"4","last_reported":1735394808,"current_range_meters":12800,"station_id":"ce4bhlp2rcd13ifvqgjg","pricing_plan_id":"cebpf4jnsgd1na2vs0mg"},{"bike_id":"88824f9a-e97a-4bcc-b167-9d37de3eaac5","system_id":"levelo_inurba_marseille","lat":43.2306,"lon":5.35492,"is_reserved":false,"is_disabled":false,"rental_uris":{"android":"levelo://app?vid=88824f9a-e97a-4bcc-b167-9d37de3eaac5","ios":"levelo://app?vid=88824f9a-e97a-4bcc-b167-9d37de3eaac5"},"vehicle_type_id":"4","last_reported":1735394808,"current_range_meters":16400,"station_id":"cpo3342slgdg3j2ifvpg","pricing_plan_id":"cebpf4jnsgd1na2vs0mg"},{"bike_id":"52080eba-0ad8-41b2-a8aa-58ae0120f64f","system_id":"levelo_inurba_marseille","lat":43.29009,"lon":5.35613,"is_reserved":false,"is_disabled":false,"rental_uris":{"android":"levelo://app?vid=52080eba-0ad8-41b2-a8aa-58ae0120f64f","ios":"levelo://app?vid=52080eba-0ad8-41b2-a8aa-58ae0120f64f"},"vehicle_type_id":"4","last_reported":1735394808,"current_range_meters":38800,"station_id":"ce4bhb92rcd13ifvqen0","pricing_plan_id":"cebpf4jnsgd1na2vs0mg"},{"bike_id":"204f0bfe-4513-4fef-9e32-daabf22ab3b1","system_id":"levelo_inurba_marseille","lat":43.299726,"lon":5.371694,"is_reserved":false,"is_disabled":false,"rental_uris":{"android":"levelo://app?vid=204f0bfe-4513-4fef-9e32-daabf22ab3b1","ios":"levelo://app?vid=204f0bfe-4513-4fef-9e32-daabf22ab3b1"},"vehicle_type_id":"4","last_reported":1735394808,"current_range_meters":38800,"station_id":"ce4bgr92rcd13ifvqc7g","pricing_plan_id":"cebpf4jnsgd1na2vs0mg"},{"bike_id":"a818f93d-22ad-482b-a6a1-cb891a3bc650","system_id":"levelo_inurba_marseille","lat":43.23247,"lon":5.35575,"is_reserved":false,"is_disabled":false,"rental_uris":{"android":"levelo://app?vid=a818f93d-22ad-482b-a6a1-cb891a3bc650","ios":"levelo://app?vid=a818f93d-22ad-482b-a6a1-cb891a3bc650"},"vehicle_type_id":"4","last_reported":1735394808,"current_range_meters":31200,"station_id":"","pricing_plan_id":"cebpf4jnsgd1na2vs0mg"},{"bike_id":"ae8f8cdf-d1f9-4519-9c49-1aed0fe5c5ba","system_id":"levelo_inurba_marseille","lat":43.3054,"lon":5.36704,"is_reserved":false,"is_disabled":false,"rental_uris":{"android":"levelo://app?vid=ae8f8cdf-d1f9-4519-9c49-1aed0fe5c5ba","ios":"levelo://app?vid=ae8f8cdf-d1f9-4519-9c49-1aed0fe5c5ba"},"vehicle_type_id":"4","last_reported":1735394808,"current_range_meters":38800,"station_id":"ce4bgrp2rcd13ifvqc9g","pricing_plan_id":"cebpf4jnsgd1na2vs0mg"},{"bike_id":"09898dd2-84ad-4911-a21d-d1f0823964b3","system_id":"levelo_inurba_marseille","lat":43.29611,"lon":5.3773,"is_reserved":false,"is_disabled":false,"rental_uris":{"android":"levelo://app?vid=09898dd2-84ad-4911-a21d-d1f0823964b3","ios":"levelo://app?vid=09898dd2-84ad-4911-a21d-d1f0823964b3"},"vehicle_type_id":"4","last_reported":1735394808,"current_range_meters":39200,"station_id":"ce4bgi92rcd13ifvqb90","pricing_plan_id":"cebpf4jnsgd1na2vs0mg"},{"bike_id":"2f4d88ff-6678-4ca5-ae90-a5a14ea5e14c","system_id":"levelo_inurba_marseille","lat":43.28266,"lon":5.35081,"is_reserved":false,"is_disabled":false,"rental_uris":{"android":"levelo://app?vid=2f4d88ff-6678-4ca5-ae90-a5a14ea5e14c","ios":"levelo://app?vid=2f4d88ff-6678-4ca5-ae90-a5a14ea5e14c"},"vehicle_type_id":"4","last_reported":1735394808,"current_range_meters":35200,"station_id":"ce4bhbp2rcd13ifvqerg","pricing_plan_id":"cebpf4jnsgd1na2vs0mg"},{"bike_id":"40eee063-b95d-4d32-aca8-c581cf8477cf","system_id":"levelo_inurba_marseille","lat":43.250224,"lon":5.389173,"is_reserved":false,"is_disabled":false,"rental_uris":{"android":"levelo://app?vid=40eee063-b95d-4d32-aca8-c581cf8477cf","ios":"levelo://app?vid=40eee063-b95d-4d32-aca8-c581cf8477cf"},"vehicle_type_id":"4","last_reported":1735394808,"current_range_meters":24800,"station_id":"ce4bhgp2rcd13ifvqfd0","pricing_plan_id":"cebpf4jnsgd1na2vs0mg"},{"bike_id":"e24159a9-a30e-45ca-a06d-dd78d34876d6","system_id":"levelo_inurba_marseille","lat":43.2849,"lon":5.3842,"is_reserved":false,"is_disabled":false,"rental_uris":{"android":"levelo://app?vid=e24159a9-a30e-45ca-a06d-dd78d34876d6","ios":"levelo://app?vid=e24159a9-a30e-45ca-a06d-dd78d34876d6"},"vehicle_type_id":"4","last_reported":1735394808,"current_range_meters":36000,"station_id":"ce4bh512rcd13ifvqe3g","pricing_plan_id":"cebpf4jnsgd1na2vs0mg"},{"bike_id":"4143740a-fea0-47ab-bf03-4b91a64e7a38","system_id":"levelo_inurba_marseille","lat":43.30641,"lon":5.40095,"is_reserved":false,"is_disabled":false,"rental_uris":{"android":"levelo://app?vid=4143740a-fea0-47ab-bf03-4b91a64e7a38","ios":"levelo://app?vid=4143740a-fea0-47ab-bf03-4b91a64e7a38"},"vehicle_type_id":"4","last_reported":1735394808,"current_range_meters":39200,"station_id":"ce4bh112rcd13ifvqda0","pricing_plan_id":"cebpf4jnsgd1na2vs0mg"},{"bike_id":"5be3d17a-9c8c-40c8-a7f5-11e9744dd0b7","system_id":"levelo_inurba_marseille","lat":43.28495,"lon":5.38427,"is_reserved":false,"is_disabled":false,"rental_uris":{"android":"levelo://app?vid=5be3d17a-9c8c-40c8-a7f5-11e9744dd0b7","ios":"levelo://app?vid=5be3d17a-9c8c-40c8-a7f5-11e9744dd0b7"},"vehicle_type_id":"4","last_reported":1735394808,"current_range_meters":38800,"station_id":"ce4bh512rcd13ifvqe3g","pricing_plan_id":"cebpf4jnsgd1na2vs0mg"},{"bike_id":"f68fd285-a938-47dc-a9ab-f00533ec3997","system_id":"levelo_inurba_marseille","lat":43.29033,"lon":5.38641,"is_reserved":false,"is_disabled":false,"rental_uris":{"android":"levelo://app?vid=f68fd285-a938-47dc-a9ab-f00533ec3997","ios":"levelo://app?vid=f68fd285-a938-47dc-a9ab-f00533ec3997"},"vehicle_type_id":"4","last_reported":1735394808,"current_range_meters":32400,"station_id":"ce4bh4p2rcd13ifvqe0g","pricing_plan_id":"cebpf4jnsgd1na2vs0mg"},{"bike_id":"e73e6057-e6e9-407b-a17e-f4e119a96aba","system_id":"levelo_inurba_marseille","lat":43.32107,"lon":5.36779,"is_reserved":false,"is_disabled":false,"rental_uris":{"android":"levelo://app?vid=e73e6057-e6e9-407b-a17e-f4e119a96aba","ios":"levelo://app?vid=e73e6057-e6e9-407b-a17e-f4e119a96aba"},"vehicle_type_id":"4","last_reported":1735394808,"current_range_meters":16000,"station_id":"ce4bhrh2rcd13ifvqhug","pricing_plan_id":"cebpf4jnsgd1na2vs0mg"},{"bike_id":"031dc0ac-f253-4e89-9f68-a0bf92006f1d","system_id":"levelo_inurba_marseille","lat":43.31272,"lon":5.40167,"is_reserved":false,"is_disabled":false,"rental_uris":{"android":"levelo://app?vid=031dc0ac-f253-4e89-9f68-a0bf92006f1d","ios":"levelo://app?vid=031dc0ac-f253-4e89-9f68-a0bf92006f1d"},"vehicle_type_id":"4","last_reported":1735394808,"current_range_meters":5600,"station_id":"ce4bh092rcd13ifvqd30","pricing_plan_id":"cebpf4jnsgd1na2vs0mg"},{"bike_id":"8c91810d-a0be-44d5-9187-c976025769a5","system_id":"levelo_inurba_marseille","lat":43.27991,"lon":5.40032,"is_reserved":false,"is_disabled":false,"rental_uris":{"android":"levelo://app?vid=8c91810d-a0be-44d5-9187-c976025769a5","ios":"levelo://app?vid=8c91810d-a0be-44d5-9187-c976025769a5"},"vehicle_type_id":"4","last_reported":1735394808,"current_range_meters":18800,"station_id":"ce4bho92rcd13ifvqh4g","pricing_plan_id":"cebpf4jnsgd1na2vs0mg"},{"bike_id":"062008cc-a7ec-41fc-ab0a-02aee794153b","system_id":"levelo_inurba_marseille","lat":43.27069,"lon":5.42275,"is_reserved":false,"is_disabled":false,"rental_uris":{"android":"levelo://app?vid=062008cc-a7ec-41fc-ab0a-02aee794153b","ios":"levelo://app?vid=062008cc-a7ec-41fc-ab0a-02aee794153b"},"vehicle_type_id":"4","last_reported":1735394808,"current_range_meters":36800,"station_id":"ce4bhk92rcd13ifvqgb0","pricing_plan_id":"cebpf4jnsgd1na2vs0mg"},{"bike_id":"57103b12-06fc-494b-9a1a-1903f8f245d5","system_id":"levelo_inurba_marseille","lat":43.27987,"lon":5.41671,"is_reserved":false,"is_disabled":false,"rental_uris":{"android":"levelo://app?vid=57103b12-06fc-494b-9a1a-1903f8f245d5","ios":"levelo://app?vid=57103b12-06fc-494b-9a1a-1903f8f245d5"},"vehicle_type_id":"4","last_reported":1735394808,"current_range_meters":22800,"station_id":"ce4bho12rcd13ifvqh1g","pricing_plan_id":"cebpf4jnsgd1na2vs0mg"},{"bike_id":"2b2d2e1c-db43-401c-b745-caba7864cfd6","system_id":"levelo_inurba_marseille","lat":43.27377,"lon":5.36258,"is_reserved":false,"is_disabled":false,"rental_uris":{"android":"levelo://app?vid=2b2d2e1c-db43-401c-b745-caba7864cfd6","ios":"levelo://app?vid=2b2d2e1c-db43-401c-b745-caba7864cfd6"},"vehicle_type_id":"4","last_reported":1735394808,"current_range_meters":38800,"station_id":"ce4bhbh2rcd13ifvqeo0","pricing_plan_id":"cebpf4jnsgd1na2vs0mg"},{"bike_id":"20f4e438-1366-4a84-bf7d-a2e481186e28","system_id":"levelo_inurba_marseille","lat":43.28471,"lon":5.38408,"is_reserved":false,"is_disabled":false,"rental_uris":{"android":"levelo://app?vid=20f4e438-1366-4a84-bf7d-a2e481186e28","ios":"levelo://app?vid=20f4e438-1366-4a84-bf7d-a2e481186e28"},"vehicle_type_id":"4","last_reported":1735394808,"current_range_meters":38800,"station_id":"ce4bh512rcd13ifvqe3g","pricing_plan_id":"cebpf4jnsgd1na2vs0mg"},{"bike_id":"59e5fbcf-0a71-43d5-bdc4-ccc0984c5e1a","system_id":"levelo_inurba_marseille","lat":43.29536,"lon":5.375,"is_reserved":false,"is_disabled":false,"rental_uris":{"android":"levelo://app?vid=59e5fbcf-0a71-43d5-bdc4-ccc0984c5e1a","ios":"levelo://app?vid=59e5fbcf-0a71-43d5-bdc4-ccc0984c5e1a"},"vehicle_type_id":"4","last_reported":1735394808,"current_range_meters":10800,"station_id":"ce4bgkp2rcd13ifvqbmg","pricing_plan_id":"cebpf4jnsgd1na2vs0mg"},{"bike_id":"96266aa3-f88f-4e03-9d1d-82f3aff3a305","system_id":"levelo_inurba_marseille","lat":43.28489,"lon":5.38562,"is_reserved":false,"is_disabled":false,"rental_uris":{"android":"levelo://app?vid=96266aa3-f88f-4e03-9d1d-82f3aff3a305","ios":"levelo://app?vid=96266aa3-f88f-4e03-9d1d-82f3aff3a305"},"vehicle_type_id":"4","last_reported":1735394808,"current_range_meters":38000,"station_id":"ce4bh8p2rcd13ifvqeb0","pricing_plan_id":"cebpf4jnsgd1na2vs0mg"},{"bike_id":"74efadb3-6150-400e-a7ae-4b006e40a1fd","system_id":"levelo_inurba_marseille","lat":43.28478,"lon":5.38408,"is_reserved":false,"is_disabled":false,"rental_uris":{"android":"levelo://app?vid=74efadb3-6150-400e-a7ae-4b006e40a1fd","ios":"levelo://app?vid=74efadb3-6150-400e-a7ae-4b006e40a1fd"},"vehicle_type_id":"4","last_reported":1735394808,"current_range_meters":35600,"station_id":"ce4bh512rcd13ifvqe3g","pricing_plan_id":"cebpf4jnsgd1na2vs0mg"},{"bike_id":"375d5811-de8b-418c-91ed-82d921ddce21","system_id":"levelo_inurba_marseille","lat":43.29711,"lon":5.36601,"is_reserved":false,"is_disabled":false,"rental_uris":{"android":"levelo://app?vid=375d5811-de8b-418c-91ed-82d921ddce21","ios":"levelo://app?vid=375d5811-de8b-418c-91ed-82d921ddce21"},"vehicle_type_id":"4","last_reported":1735394808,"current_range_meters":38800,"station_id":"ce4bgn12rcd13ifvqbt0","pricing_plan_id":"cebpf4jnsgd1na2vs0mg"},{"bike_id":"f523f994-10cd-4740-b49c-26b69297a317","system_id":"levelo_inurba_marseille","lat":43.25123,"lon":5.40322,"is_reserved":false,"is_disabled":false,"rental_uris":{"android":"levelo://app?vid=f523f994-10cd-4740-b49c-26b69297a317","ios":"levelo://app?vid=f523f994-10cd-4740-b49c-26b69297a317"},"vehicle_type_id":"4","last_reported":1735394808,"current_range_meters":30800,"station_id":"ce4bhlh2rcd13ifvqgig","pricing_plan_id":"cebpf4jnsgd1na2vs0mg"},{"bike_id":"b55683c1-3164-4e8c-98bf-e56e94fb8d33","system_id":"levelo_inurba_marseille","lat":43.27614,"lon":5.36104,"is_reserved":false,"is_disabled":false,"rental_uris":{"android":"levelo://app?vid=b55683c1-3164-4e8c-98bf-e56e94fb8d33","ios":"levelo://app?vid=b55683c1-3164-4e8c-98bf-e56e94fb8d33"},"vehicle_type_id":"4","last_reported":1735394808,"current_range_meters":12800,"station_id":"ce4bgj92rcd13ifvqbe0","pricing_plan_id":"cebpf4jnsgd1na2vs0mg"},{"bike_id":"db2c549d-e98a-4769-95fa-52946ad4fb3d","system_id":"levelo_inurba_marseille","lat":43.2985,"lon":5.36282,"is_reserved":false,"is_disabled":false,"rental_uris":{"android":"levelo://app?vid=db2c549d-e98a-4769-95fa-52946ad4fb3d","ios":"levelo://app?vid=db2c549d-e98a-4769-95fa-52946ad4fb3d"},"vehicle_type_id":"4","last_reported":1735394808,"current_range_meters":36800,"station_id":"ce4bgpp2rcd13ifvqc3g","pricing_plan_id":"cebpf4jnsgd1na2vs0mg"},{"bike_id":"06cb9db3-5173-4e30-b394-f221ce1c8457","system_id":"levelo_inurba_marseille","lat":43.30136,"lon":5.39873,"is_reserved":false,"is_disabled":false,"rental_uris":{"android":"levelo://app?vid=06cb9db3-5173-4e30-b394-f221ce1c8457","ios":"levelo://app?vid=06cb9db3-5173-4e30-b394-f221ce1c8457"},"vehicle_type_id":"4","last_reported":1735394808,"current_range_meters":23200,"station_id":"ce4bh0h2rcd13ifvqd40","pricing_plan_id":"cebpf4jnsgd1na2vs0mg"},{"bike_id":"ecfc6ce4-b55a-44c1-9d1b-67614a66c087","system_id":"levelo_inurba_marseille","lat":43.27055,"lon":5.40268,"is_reserved":false,"is_disabled":false,"rental_uris":{"android":"levelo://app?vid=ecfc6ce4-b55a-44c1-9d1b-67614a66c087","ios":"levelo://app?vid=ecfc6ce4-b55a-44c1-9d1b-67614a66c087"},"vehicle_type_id":"4","last_reported":1735394808,"current_range_meters":34000,"station_id":"ce4bhk92rcd13ifvqgc0","pricing_plan_id":"cebpf4jnsgd1na2vs0mg"},{"bike_id":"223dd20f-b934-4101-90b0-f4f286646534","system_id":"levelo_inurba_marseille","lat":43.29415,"lon":5.38625,"is_reserved":false,"is_disabled":false,"rental_uris":{"android":"levelo://app?vid=223dd20f-b934-4101-90b0-f4f286646534","ios":"levelo://app?vid=223dd20f-b934-4101-90b0-f4f286646534"},"vehicle_type_id":"4","last_reported":1735394808,"current_range_meters":24800,"station_id":"ce4bh2h2rcd13ifvqdh0","pricing_plan_id":"cebpf4jnsgd1na2vs0mg"},{"bike_id":"a3b5e29c-4425-483d-9fe4-2d25fea7803f","system_id":"levelo_inurba_marseille","lat":43.25009,"lon":5.38911,"is_reserved":false,"is_disabled":false,"rental_uris":{"android":"levelo://app?vid=a3b5e29c-4425-483d-9fe4-2d25fea7803f","ios":"levelo://app?vid=a3b5e29c-4425-483d-9fe4-2d25fea7803f"},"vehicle_type_id":"4","last_reported":1735394808,"current_range_meters":28000,"station_id":"ce4bhgp2rcd13ifvqfd0","pricing_plan_id":"cebpf4jnsgd1na2vs0mg"},{"bike_id":"89bd1e03-d2e1-4927-8b6b-64f0f297535a","system_id":"levelo_inurba_marseille","lat":43.26213,"lon":5.37443,"is_reserved":false,"is_disabled":false,"rental_uris":{"android":"levelo://app?vid=89bd1e03-d2e1-4927-8b6b-64f0f297535a","ios":"levelo://app?vid=89bd1e03-d2e1-4927-8b6b-64f0f297535a"},"vehicle_type_id":"4","last_reported":1735394808,"current_range_meters":16400,"station_id":"ce4bhgp2rcd13ifvqfc0","pricing_plan_id":"cebpf4jnsgd1na2vs0mg"},{"bike_id":"dfad354b-0d8f-4c65-82fd-afb0d4089090","system_id":"levelo_inurba_marseille","lat":43.23278,"lon":5.354,"is_reserved":false,"is_disabled":false,"rental_uris":{"android":"levelo://app?vid=dfad354b-0d8f-4c65-82fd-afb0d4089090","ios":"levelo://app?vid=dfad354b-0d8f-4c65-82fd-afb0d4089090"},"vehicle_type_id":"4","last_reported":1735394808,"current_range_meters":23200,"station_id":"","pricing_plan_id":"cebpf4jnsgd1na2vs0mg"},{"bike_id":"174cb319-3670-4989-9001-7383cc4305eb","system_id":"levelo_inurba_marseille","lat":43.23196,"lon":5.355563,"is_reserved":false,"is_disabled":false,"rental_uris":{"android":"levelo://app?vid=174cb319-3670-4989-9001-7383cc4305eb","ios":"levelo://app?vid=174cb319-3670-4989-9001-7383cc4305eb"},"vehicle_type_id":"4","last_reported":1735394808,"current_range_meters":10000,"station_id":"ce4bhu92rcd13ifvqi70","pricing_plan_id":"cebpf4jnsgd1na2vs0mg"},{"bike_id":"7bd44d09-e872-4291-b548-1cbe40f16cac","system_id":"levelo_inurba_marseille","lat":43.28146,"lon":5.42639,"is_reserved":false,"is_disabled":false,"rental_uris":{"android":"levelo://app?vid=7bd44d09-e872-4291-b548-1cbe40f16cac","ios":"levelo://app?vid=7bd44d09-e872-4291-b548-1cbe40f16cac"},"vehicle_type_id":"4","last_reported":1735394808,"current_range_meters":28000,"station_id":"ce4bhnh2rcd13ifvqgug","pricing_plan_id":"cebpf4jnsgd1na2vs0mg"},{"bike_id":"3f5b4d3b-643e-4d36-91f9-8e177f67ec39","system_id":"levelo_inurba_marseille","lat":43.25581,"lon":5.38234,"is_reserved":false,"is_disabled":false,"rental_uris":{"android":"levelo://app?vid=3f5b4d3b-643e-4d36-91f9-8e177f67ec39","ios":"levelo://app?vid=3f5b4d3b-643e-4d36-91f9-8e177f67ec39"},"vehicle_type_id":"4","last_reported":1735394808,"current_range_meters":38400,"station_id":"ce4bhih2rcd13ifvqfs0","pricing_plan_id":"cebpf4jnsgd1na2vs0mg"},{"bike_id":"84c56a7d-e64a-42e9-a2e6-9cc18ae79555","system_id":"levelo_inurba_marseille","lat":43.28424,"lon":5.3499,"is_reserved":false,"is_disabled":false,"rental_uris":{"android":"levelo://app?vid=84c56a7d-e64a-42e9-a2e6-9cc18ae79555","ios":"levelo://app?vid=84c56a7d-e64a-42e9-a2e6-9cc18ae79555"},"vehicle_type_id":"4","last_reported":1735394808,"current_range_meters":18800,"station_id":"ce4bhbh2rcd13ifvqepg","pricing_plan_id":"cebpf4jnsgd1na2vs0mg"},{"bike_id":"3506829e-c8ee-412a-b6de-98e0fa1fe79c","system_id":"levelo_inurba_marseille","lat":43.27378,"lon":5.36253,"is_reserved":false,"is_disabled":false,"rental_uris":{"android":"levelo://app?vid=3506829e-c8ee-412a-b6de-98e0fa1fe79c","ios":"levelo://app?vid=3506829e-c8ee-412a-b6de-98e0fa1fe79c"},"vehicle_type_id":"4","last_reported":1735394808,"current_range_meters":28800,"station_id":"ce4bhbh2rcd13ifvqeo0","pricing_plan_id":"cebpf4jnsgd1na2vs0mg"},{"bike_id":"359ddae0-5d3f-4b29-8d32-daa2bb9138da","system_id":"levelo_inurba_marseille","lat":43.29726,"lon":5.37682,"is_reserved":false,"is_disabled":false,"rental_uris":{"android":"levelo://app?vid=359ddae0-5d3f-4b29-8d32-daa2bb9138da","ios":"levelo://app?vid=359ddae0-5d3f-4b29-8d32-daa2bb9138da"},"vehicle_type_id":"4","last_reported":1735394808,"current_range_meters":34800,"station_id":"ce4bgkh2rcd13ifvqbl0","pricing_plan_id":"cebpf4jnsgd1na2vs0mg"},{"bike_id":"1107b56a-98a5-4a01-8449-9eba086fee5a","system_id":"levelo_inurba_marseille","lat":43.29073,"lon":5.39883,"is_reserved":false,"is_disabled":true,"rental_uris":{"android":"levelo://app?vid=1107b56a-98a5-4a01-8449-9eba086fee5a","ios":"levelo://app?vid=1107b56a-98a5-4a01-8449-9eba086fee5a"},"vehicle_type_id":"4","last_reported":1735394808,"current_range_meters":20000,"station_id":"","pricing_plan_id":"cebpf4jnsgd1na2vs0mg"},{"bike_id":"6923ea4c-6f92-4fb1-ad05-9a683bd3ab7b","system_id":"levelo_inurba_marseille","lat":43.29563,"lon":5.37514,"is_reserved":false,"is_disabled":false,"rental_uris":{"android":"levelo://app?vid=6923ea4c-6f92-4fb1-ad05-9a683bd3ab7b","ios":"levelo://app?vid=6923ea4c-6f92-4fb1-ad05-9a683bd3ab7b"},"vehicle_type_id":"4","last_reported":1735394808,"current_range_meters":37600,"station_id":"ce4bgh92rcd13ifvqb50","pricing_plan_id":"cebpf4jnsgd1na2vs0mg"},{"bike_id":"11a0ffca-220f-4915-8ee5-56db1deea1c4","system_id":"levelo_inurba_marseille","lat":43.29565,"lon":5.37502,"is_reserved":false,"is_disabled":false,"rental_uris":{"android":"levelo://app?vid=11a0ffca-220f-4915-8ee5-56db1deea1c4","ios":"levelo://app?vid=11a0ffca-220f-4915-8ee5-56db1deea1c4"},"vehicle_type_id":"4","last_reported":1735394808,"current_range_meters":30000,"station_id":"ce4bgh92rcd13ifvqb50","pricing_plan_id":"cebpf4jnsgd1na2vs0mg"},{"bike_id":"1059b4eb-db73-4bb3-935c-c9bec1afc329","system_id":"levelo_inurba_marseille","lat":43.25104,"lon":5.40325,"is_reserved":false,"is_disabled":false,"rental_uris":{"android":"levelo://app?vid=1059b4eb-db73-4bb3-935c-c9bec1afc329","ios":"levelo://app?vid=1059b4eb-db73-4bb3-935c-c9bec1afc329"},"vehicle_type_id":"4","last_reported":1735394808,"current_range_meters":33600,"station_id":"ce4bhlh2rcd13ifvqgig","pricing_plan_id":"cebpf4jnsgd1na2vs0mg"},{"bike_id":"c9b97fb7-b709-4c26-ae01-dabf637bc152","system_id":"levelo_inurba_marseille","lat":43.27811,"lon":5.4071,"is_reserved":false,"is_disabled":false,"rental_uris":{"android":"levelo://app?vid=c9b97fb7-b709-4c26-ae01-dabf637bc152","ios":"levelo://app?vid=c9b97fb7-b709-4c26-ae01-dabf637bc152"},"vehicle_type_id":"4","last_reported":1735394808,"current_range_meters":28000,"station_id":"ce4bhnh2rcd13ifvqgtg","pricing_plan_id":"cebpf4jnsgd1na2vs0mg"},{"bike_id":"4485f98a-c081-40ff-aeab-5967b9ceab6a","system_id":"levelo_inurba_marseille","lat":43.30673,"lon":5.38182,"is_reserved":false,"is_disabled":false,"rental_uris":{"android":"levelo://app?vid=4485f98a-c081-40ff-aeab-5967b9ceab6a","ios":"levelo://app?vid=4485f98a-c081-40ff-aeab-5967b9ceab6a"},"vehicle_type_id":"4","last_reported":1735394808,"current_range_meters":25200,"station_id":"","pricing_plan_id":"cebpf4jnsgd1na2vs0mg"},{"bike_id":"7a7ed23e-c88c-4704-a47c-c0df0dd34a61","system_id":"levelo_inurba_marseille","lat":43.26914,"lon":5.38936,"is_reserved":false,"is_disabled":false,"rental_uris":{"android":"levelo://app?vid=7a7ed23e-c88c-4704-a47c-c0df0dd34a61","ios":"levelo://app?vid=7a7ed23e-c88c-4704-a47c-c0df0dd34a61"},"vehicle_type_id":"4","last_reported":1735394808,"current_range_meters":34800,"station_id":"ce4bhhh2rcd13ifvqfl0","pricing_plan_id":"cebpf4jnsgd1na2vs0mg"},{"bike_id":"3fbbac4e-077e-476b-9b1a-9cc6e989ecb0","system_id":"levelo_inurba_marseille","lat":43.25015,"lon":5.38917,"is_reserved":false,"is_disabled":false,"rental_uris":{"android":"levelo://app?vid=3fbbac4e-077e-476b-9b1a-9cc6e989ecb0","ios":"levelo://app?vid=3fbbac4e-077e-476b-9b1a-9cc6e989ecb0"},"vehicle_type_id":"4","last_reported":1735394808,"current_range_meters":35200,"station_id":"ce4bhgp2rcd13ifvqfd0","pricing_plan_id":"cebpf4jnsgd1na2vs0mg"},{"bike_id":"fe6b0021-eae5-4dda-bbb6-8b37de152728","system_id":"levelo_inurba_marseille","lat":43.29764,"lon":5.37085,"is_reserved":false,"is_disabled":false,"rental_uris":{"android":"levelo://app?vid=fe6b0021-eae5-4dda-bbb6-8b37de152728","ios":"levelo://app?vid=fe6b0021-eae5-4dda-bbb6-8b37de152728"},"vehicle_type_id":"4","last_reported":1735394808,"current_range_meters":39200,"station_id":"ce4bgop2rcd13ifvqc1g","pricing_plan_id":"cebpf4jnsgd1na2vs0mg"},{"bike_id":"9d3d459d-d416-4406-9acb-4263a87f73a0","system_id":"levelo_inurba_marseille","lat":43.23194,"lon":5.35553,"is_reserved":false,"is_disabled":false,"rental_uris":{"android":"levelo://app?vid=9d3d459d-d416-4406-9acb-4263a87f73a0","ios":"levelo://app?vid=9d3d459d-d416-4406-9acb-4263a87f73a0"},"vehicle_type_id":"4","last_reported":1735394808,"current_range_meters":28000,"station_id":"ce4bhu92rcd13ifvqi70","pricing_plan_id":"cebpf4jnsgd1na2vs0mg"},{"bike_id":"ef4e1f81-7c5b-4014-bdf4-75279c1a5b88","system_id":"levelo_inurba_marseille","lat":43.30561,"lon":5.36565,"is_reserved":false,"is_disabled":false,"rental_uris":{"android":"levelo://app?vid=ef4e1f81-7c5b-4014-bdf4-75279c1a5b88","ios":"levelo://app?vid=ef4e1f81-7c5b-4014-bdf4-75279c1a5b88"},"vehicle_type_id":"4","last_reported":1735394808,"current_range_meters":28000,"station_id":"ce4bgs12rcd13ifvqcag","pricing_plan_id":"cebpf4jnsgd1na2vs0mg"},{"bike_id":"a909b1c1-49e2-4bea-9afe-a5dced89742a","system_id":"levelo_inurba_marseille","lat":43.27377,"lon":5.36255,"is_reserved":false,"is_disabled":false,"rental_uris":{"android":"levelo://app?vid=a909b1c1-49e2-4bea-9afe-a5dced89742a","ios":"levelo://app?vid=a909b1c1-49e2-4bea-9afe-a5dced89742a"},"vehicle_type_id":"4","last_reported":1735394808,"current_range_meters":6000,"station_id":"ce4bhbh2rcd13ifvqeo0","pricing_plan_id":"cebpf4jnsgd1na2vs0mg"},{"bike_id":"f88f16ef-ff6a-41e6-9722-2354ad5f3b6b","system_id":"levelo_inurba_marseille","lat":43.29378,"lon":5.37854,"is_reserved":false,"is_disabled":false,"rental_uris":{"android":"levelo://app?vid=f88f16ef-ff6a-41e6-9722-2354ad5f3b6b","ios":"levelo://app?vid=f88f16ef-ff6a-41e6-9722-2354ad5f3b6b"},"vehicle_type_id":"4","last_reported":1735394808,"current_range_meters":35600,"station_id":"ce4bgjh2rcd13ifvqbf0","pricing_plan_id":"cebpf4jnsgd1na2vs0mg"},{"bike_id":"738c7806-933e-41c8-baf6-af4cb4628eac","system_id":"levelo_inurba_marseille","lat":43.303,"lon":5.36898,"is_reserved":false,"is_disabled":false,"rental_uris":{"android":"levelo://app?vid=738c7806-933e-41c8-baf6-af4cb4628eac","ios":"levelo://app?vid=738c7806-933e-41c8-baf6-af4cb4628eac"},"vehicle_type_id":"4","last_reported":1735394808,"current_range_meters":38800,"station_id":"ce4bgqh2rcd13ifvqc5g","pricing_plan_id":"cebpf4jnsgd1na2vs0mg"},{"bike_id":"41e441a8-4ad2-4bf0-81ba-96c35feaf6d8","system_id":"levelo_inurba_marseille","lat":43.28148,"lon":5.42646,"is_reserved":false,"is_disabled":false,"rental_uris":{"android":"levelo://app?vid=41e441a8-4ad2-4bf0-81ba-96c35feaf6d8","ios":"levelo://app?vid=41e441a8-4ad2-4bf0-81ba-96c35feaf6d8"},"vehicle_type_id":"4","last_reported":1735394808,"current_range_meters":34000,"station_id":"ce4bhnh2rcd13ifvqgug","pricing_plan_id":"cebpf4jnsgd1na2vs0mg"},{"bike_id":"ff26efd5-b991-418f-9a1f-fd72cadb1f79","system_id":"levelo_inurba_marseille","lat":43.31736,"lon":5.37757,"is_reserved":false,"is_disabled":false,"rental_uris":{"android":"levelo://app?vid=ff26efd5-b991-418f-9a1f-fd72cadb1f79","ios":"levelo://app?vid=ff26efd5-b991-418f-9a1f-fd72cadb1f79"},"vehicle_type_id":"4","last_reported":1735394808,"current_range_meters":38000,"station_id":"ce4bgth2rcd13ifvqch0","pricing_plan_id":"cebpf4jnsgd1na2vs0mg"},{"bike_id":"ad954c5e-731b-466c-b7a3-d28bedadb5f9","system_id":"levelo_inurba_marseille","lat":43.27374,"lon":5.36267,"is_reserved":false,"is_disabled":false,"rental_uris":{"android":"levelo://app?vid=ad954c5e-731b-466c-b7a3-d28bedadb5f9","ios":"levelo://app?vid=ad954c5e-731b-466c-b7a3-d28bedadb5f9"},"vehicle_type_id":"4","last_reported":1735394808,"current_range_meters":33200,"station_id":"ce4bhbh2rcd13ifvqeo0","pricing_plan_id":"cebpf4jnsgd1na2vs0mg"},{"bike_id":"c286a10a-713f-4ddd-bf35-cd0a1017a138","system_id":"levelo_inurba_marseille","lat":43.29578,"lon":5.36738,"is_reserved":false,"is_disabled":false,"rental_uris":{"android":"levelo://app?vid=c286a10a-713f-4ddd-bf35-cd0a1017a138","ios":"levelo://app?vid=c286a10a-713f-4ddd-bf35-cd0a1017a138"},"vehicle_type_id":"4","last_reported":1735394808,"current_range_meters":36800,"station_id":"ce4bgph2rcd13ifvqc2g","pricing_plan_id":"cebpf4jnsgd1na2vs0mg"},{"bike_id":"0040c17c-e92e-44b5-a6fb-3621bcac561f","system_id":"levelo_inurba_marseille","lat":43.2708,"lon":5.42276,"is_reserved":false,"is_disabled":false,"rental_uris":{"android":"levelo://app?vid=0040c17c-e92e-44b5-a6fb-3621bcac561f","ios":"levelo://app?vid=0040c17c-e92e-44b5-a6fb-3621bcac561f"},"vehicle_type_id":"4","last_reported":1735394808,"current_range_meters":25600,"station_id":"ce4bhk92rcd13ifvqgb0","pricing_plan_id":"cebpf4jnsgd1na2vs0mg"},{"bike_id":"01803604-37da-41eb-85ea-bca97c6b6bd4","system_id":"levelo_inurba_marseille","lat":43.29845,"lon":5.36279,"is_reserved":false,"is_disabled":false,"rental_uris":{"android":"levelo://app?vid=01803604-37da-41eb-85ea-bca97c6b6bd4","ios":"levelo://app?vid=01803604-37da-41eb-85ea-bca97c6b6bd4"},"vehicle_type_id":"4","last_reported":1735394808,"current_range_meters":34000,"station_id":"ce4bgpp2rcd13ifvqc3g","pricing_plan_id":"cebpf4jnsgd1na2vs0mg"},{"bike_id":"1a18bfda-4db7-441f-899e-8c2cf1accb71","system_id":"levelo_inurba_marseille","lat":43.30537,"lon":5.36542,"is_reserved":false,"is_disabled":false,"rental_uris":{"android":"levelo://app?vid=1a18bfda-4db7-441f-899e-8c2cf1accb71","ios":"levelo://app?vid=1a18bfda-4db7-441f-899e-8c2cf1accb71"},"vehicle_type_id":"4","last_reported":1735394808,"current_range_meters":39200,"station_id":"ce4bgs12rcd13ifvqcag","pricing_plan_id":"cebpf4jnsgd1na2vs0mg"},{"bike_id":"416ab53b-279a-422e-99c8-cc6e97f84422","system_id":"levelo_inurba_marseille","lat":43.29549,"lon":5.37509,"is_reserved":false,"is_disabled":false,"rental_uris":{"android":"levelo://app?vid=416ab53b-279a-422e-99c8-cc6e97f84422","ios":"levelo://app?vid=416ab53b-279a-422e-99c8-cc6e97f84422"},"vehicle_type_id":"4","last_reported":1735394808,"current_range_meters":38000,"station_id":"ce4bgkp2rcd13ifvqbmg","pricing_plan_id":"cebpf4jnsgd1na2vs0mg"},{"bike_id":"9330c3d3-b201-436f-aa9e-355e010ee145","system_id":"levelo_inurba_marseille","lat":43.28507,"lon":5.38449,"is_reserved":false,"is_disabled":false,"rental_uris":{"android":"levelo://app?vid=9330c3d3-b201-436f-aa9e-355e010ee145","ios":"levelo://app?vid=9330c3d3-b201-436f-aa9e-355e010ee145"},"vehicle_type_id":"4","last_reported":1735394808,"current_range_meters":30400,"station_id":"ce4bh512rcd13ifvqe3g","pricing_plan_id":"cebpf4jnsgd1na2vs0mg"},{"bike_id":"ba36f771-12f6-4971-ab3f-820bec936705","system_id":"levelo_inurba_marseille","lat":43.29004,"lon":5.35615,"is_reserved":false,"is_disabled":false,"rental_uris":{"android":"levelo://app?vid=ba36f771-12f6-4971-ab3f-820bec936705","ios":"levelo://app?vid=ba36f771-12f6-4971-ab3f-820bec936705"},"vehicle_type_id":"4","last_reported":1735394808,"current_range_meters":16800,"station_id":"ce4bhb92rcd13ifvqen0","pricing_plan_id":"cebpf4jnsgd1na2vs0mg"},{"bike_id":"99b4e1b7-5f57-4619-b0ca-7da19a43d447","system_id":"levelo_inurba_marseille","lat":43.29918,"lon":5.36526,"is_reserved":false,"is_disabled":false,"rental_uris":{"android":"levelo://app?vid=99b4e1b7-5f57-4619-b0ca-7da19a43d447","ios":"levelo://app?vid=99b4e1b7-5f57-4619-b0ca-7da19a43d447"},"vehicle_type_id":"4","last_reported":1735394808,"current_range_meters":22000,"station_id":"ce4bgm92rcd13ifvqbr0","pricing_plan_id":"cebpf4jnsgd1na2vs0mg"},{"bike_id":"5a739918-86a4-42e4-92e1-44829e474d06","system_id":"levelo_inurba_marseille","lat":43.29259,"lon":5.38434,"is_reserved":false,"is_disabled":false,"rental_uris":{"android":"levelo://app?vid=5a739918-86a4-42e4-92e1-44829e474d06","ios":"levelo://app?vid=5a739918-86a4-42e4-92e1-44829e474d06"},"vehicle_type_id":"4","last_reported":1735394808,"current_range_meters":11200,"station_id":"ce4bh692rcd13ifvqea0","pricing_plan_id":"cebpf4jnsgd1na2vs0mg"},{"bike_id":"356fd92d-e963-40e6-b40e-58fc72ac9553","system_id":"levelo_inurba_marseille","lat":43.32108,"lon":5.3678,"is_reserved":false,"is_disabled":false,"rental_uris":{"android":"levelo://app?vid=356fd92d-e963-40e6-b40e-58fc72ac9553","ios":"levelo://app?vid=356fd92d-e963-40e6-b40e-58fc72ac9553"},"vehicle_type_id":"4","last_reported":1735394808,"current_range_meters":14000,"station_id":"ce4bhrh2rcd13ifvqhug","pricing_plan_id":"cebpf4jnsgd1na2vs0mg"},{"bike_id":"b9946797-e770-48ac-9bc5-6937e6a4e5a7","system_id":"levelo_inurba_marseille","lat":43.25502,"lon":5.37655,"is_reserved":false,"is_disabled":false,"rental_uris":{"android":"levelo://app?vid=b9946797-e770-48ac-9bc5-6937e6a4e5a7","ios":"levelo://app?vid=b9946797-e770-48ac-9bc5-6937e6a4e5a7"},"vehicle_type_id":"4","last_reported":1735394808,"current_range_meters":39200,"station_id":"ce4bhh12rcd13ifvqff0","pricing_plan_id":"cebpf4jnsgd1na2vs0mg"},{"bike_id":"90c942c7-cc9f-4ca0-a4bf-cccb4ac71e6f","system_id":"levelo_inurba_marseille","lat":43.25737,"lon":5.41116,"is_reserved":false,"is_disabled":false,"rental_uris":{"android":"levelo://app?vid=90c942c7-cc9f-4ca0-a4bf-cccb4ac71e6f","ios":"levelo://app?vid=90c942c7-cc9f-4ca0-a4bf-cccb4ac71e6f"},"vehicle_type_id":"4","last_reported":1735394808,"current_range_meters":34000,"station_id":"ce4bhkp2rcd13ifvqgd0","pricing_plan_id":"cebpf4jnsgd1na2vs0mg"},{"bike_id":"ab8ae7ac-747c-44a2-9124-f8c73363883e","system_id":"levelo_inurba_marseille","lat":43.28464,"lon":5.38415,"is_reserved":false,"is_disabled":false,"rental_uris":{"android":"levelo://app?vid=ab8ae7ac-747c-44a2-9124-f8c73363883e","ios":"levelo://app?vid=ab8ae7ac-747c-44a2-9124-f8c73363883e"},"vehicle_type_id":"4","last_reported":1735394808,"current_range_meters":38800,"station_id":"ce4bh512rcd13ifvqe3g","pricing_plan_id":"cebpf4jnsgd1na2vs0mg"},{"bike_id":"90ed6077-bca5-4c05-9b40-989d297f4346","system_id":"levelo_inurba_marseille","lat":43.29879,"lon":5.39742,"is_reserved":false,"is_disabled":false,"rental_uris":{"android":"levelo://app?vid=90ed6077-bca5-4c05-9b40-989d297f4346","ios":"levelo://app?vid=90ed6077-bca5-4c05-9b40-989d297f4346"},"vehicle_type_id":"4","last_reported":1735394808,"current_range_meters":38800,"station_id":"ce4bh0h2rcd13ifvqd50","pricing_plan_id":"cebpf4jnsgd1na2vs0mg"},{"bike_id":"917d3ead-ff60-4dbe-8951-c623ab6e5697","system_id":"levelo_inurba_marseille","lat":43.30258,"lon":5.40083,"is_reserved":false,"is_disabled":false,"rental_uris":{"android":"levelo://app?vid=917d3ead-ff60-4dbe-8951-c623ab6e5697","ios":"levelo://app?vid=917d3ead-ff60-4dbe-8951-c623ab6e5697"},"vehicle_type_id":"4","last_reported":1735394808,"current_range_meters":38800,"station_id":"ce4bgvh2rcd13ifvqcs0","pricing_plan_id":"cebpf4jnsgd1na2vs0mg"},{"bike_id":"9fa57387-8cab-4068-bbfc-f71cf5d92d2d","system_id":"levelo_inurba_marseille","lat":43.29536,"lon":5.37511,"is_reserved":false,"is_disabled":false,"rental_uris":{"android":"levelo://app?vid=9fa57387-8cab-4068-bbfc-f71cf5d92d2d","ios":"levelo://app?vid=9fa57387-8cab-4068-bbfc-f71cf5d92d2d"},"vehicle_type_id":"4","last_reported":1735394808,"current_range_meters":35600,"station_id":"ce4bgkp2rcd13ifvqbmg","pricing_plan_id":"cebpf4jnsgd1na2vs0mg"},{"bike_id":"d8384d9b-3058-4127-84d5-0e7e5e808457","system_id":"levelo_inurba_marseille","lat":43.29782,"lon":5.3809,"is_reserved":false,"is_disabled":false,"rental_uris":{"android":"levelo://app?vid=d8384d9b-3058-4127-84d5-0e7e5e808457","ios":"levelo://app?vid=d8384d9b-3058-4127-84d5-0e7e5e808457"},"vehicle_type_id":"4","last_reported":1735394808,"current_range_meters":28800,"station_id":"ce4bgip2rcd13ifvqbb0","pricing_plan_id":"cebpf4jnsgd1na2vs0mg"},{"bike_id":"e8718ad8-52e8-42fb-af68-b806e0c8c535","system_id":"levelo_inurba_marseille","lat":43.23181,"lon":5.39988,"is_reserved":false,"is_disabled":false,"rental_uris":{"android":"levelo://app?vid=e8718ad8-52e8-42fb-af68-b806e0c8c535","ios":"levelo://app?vid=e8718ad8-52e8-42fb-af68-b806e0c8c535"},"vehicle_type_id":"4","last_reported":1735394808,"current_range_meters":38000,"station_id":"ce4bhn12rcd13ifvqgqg","pricing_plan_id":"cebpf4jnsgd1na2vs0mg"},{"bike_id":"b7a4b1b5-bb9d-4cbf-89e5-08a62d9f327f","system_id":"levelo_inurba_marseille","lat":43.26034,"lon":5.3755,"is_reserved":false,"is_disabled":false,"rental_uris":{"android":"levelo://app?vid=b7a4b1b5-bb9d-4cbf-89e5-08a62d9f327f","ios":"levelo://app?vid=b7a4b1b5-bb9d-4cbf-89e5-08a62d9f327f"},"vehicle_type_id":"4","last_reported":1735394808,"current_range_meters":28800,"station_id":"ce4bhgh2rcd13ifvqfa0","pricing_plan_id":"cebpf4jnsgd1na2vs0mg"},{"bike_id":"673ed0fe-3027-4e1f-9efc-2804b0e32190","system_id":"levelo_inurba_marseille","lat":43.26688,"lon":5.38272,"is_reserved":false,"is_disabled":false,"rental_uris":{"android":"levelo://app?vid=673ed0fe-3027-4e1f-9efc-2804b0e32190","ios":"levelo://app?vid=673ed0fe-3027-4e1f-9efc-2804b0e32190"},"vehicle_type_id":"4","last_reported":1735394808,"current_range_meters":12000,"station_id":"ce4bhg92rcd13ifvqf90","pricing_plan_id":"cebpf4jnsgd1na2vs0mg"},{"bike_id":"7bc24a62-81b3-4a88-bc5e-a1f6c49f1a60","system_id":"levelo_inurba_marseille","lat":43.28693,"lon":5.38678,"is_reserved":false,"is_disabled":false,"rental_uris":{"android":"levelo://app?vid=7bc24a62-81b3-4a88-bc5e-a1f6c49f1a60","ios":"levelo://app?vid=7bc24a62-81b3-4a88-bc5e-a1f6c49f1a60"},"vehicle_type_id":"4","last_reported":1735394808,"current_range_meters":38800,"station_id":"ce4bh492rcd13ifvqdug","pricing_plan_id":"cebpf4jnsgd1na2vs0mg"},{"bike_id":"40822f4e-2455-4aa6-9c57-2e5ab1f1eb2a","system_id":"levelo_inurba_marseille","lat":43.3088,"lon":5.39645,"is_reserved":false,"is_disabled":false,"rental_uris":{"android":"levelo://app?vid=40822f4e-2455-4aa6-9c57-2e5ab1f1eb2a","ios":"levelo://app?vid=40822f4e-2455-4aa6-9c57-2e5ab1f1eb2a"},"vehicle_type_id":"4","last_reported":1735394808,"current_range_meters":36800,"station_id":"ce4bh012rcd13ifvqcv0","pricing_plan_id":"cebpf4jnsgd1na2vs0mg"},{"bike_id":"4edf1a42-d1cb-4e42-a8d9-af12f276347c","system_id":"levelo_inurba_marseille","lat":43.26939,"lon":5.40259,"is_reserved":false,"is_disabled":false,"rental_uris":{"android":"levelo://app?vid=4edf1a42-d1cb-4e42-a8d9-af12f276347c","ios":"levelo://app?vid=4edf1a42-d1cb-4e42-a8d9-af12f276347c"},"vehicle_type_id":"4","last_reported":1735394808,"current_range_meters":38800,"station_id":"cjm6bp8fraef2m0cb0m0","pricing_plan_id":"cebpf4jnsgd1na2vs0mg"},{"bike_id":"e251fbdc-aee1-4174-a904-a67fb7c0b1da","system_id":"levelo_inurba_marseille","lat":43.31756,"lon":5.3902,"is_reserved":false,"is_disabled":false,"rental_uris":{"android":"levelo://app?vid=e251fbdc-aee1-4174-a904-a67fb7c0b1da","ios":"levelo://app?vid=e251fbdc-aee1-4174-a904-a67fb7c0b1da"},"vehicle_type_id":"4","last_reported":1735394808,"current_range_meters":26800,"station_id":"ce4bhqp2rcd13ifvqhng","pricing_plan_id":"cebpf4jnsgd1na2vs0mg"},{"bike_id":"e4c477c2-7de5-4221-8c03-48f7497fb7c9","system_id":"levelo_inurba_marseille","lat":43.30784,"lon":5.37659,"is_reserved":false,"is_disabled":false,"rental_uris":{"android":"levelo://app?vid=e4c477c2-7de5-4221-8c03-48f7497fb7c9","ios":"levelo://app?vid=e4c477c2-7de5-4221-8c03-48f7497fb7c9"},"vehicle_type_id":"4","last_reported":1735394808,"current_range_meters":38800,"station_id":"ce4bgv92rcd13ifvqcq0","pricing_plan_id":"cebpf4jnsgd1na2vs0mg"},{"bike_id":"56b241bf-b36d-481e-8832-cb5ec1013c73","system_id":"levelo_inurba_marseille","lat":43.31477,"lon":5.37303,"is_reserved":false,"is_disabled":false,"rental_uris":{"android":"levelo://app?vid=56b241bf-b36d-481e-8832-cb5ec1013c73","ios":"levelo://app?vid=56b241bf-b36d-481e-8832-cb5ec1013c73"},"vehicle_type_id":"4","last_reported":1735394808,"current_range_meters":39200,"station_id":"ce4bgt12rcd13ifvqcd0","pricing_plan_id":"cebpf4jnsgd1na2vs0mg"},{"bike_id":"182697cb-2219-4e08-8291-846687f91a97","system_id":"levelo_inurba_marseille","lat":43.28152,"lon":5.4264,"is_reserved":false,"is_disabled":false,"rental_uris":{"android":"levelo://app?vid=182697cb-2219-4e08-8291-846687f91a97","ios":"levelo://app?vid=182697cb-2219-4e08-8291-846687f91a97"},"vehicle_type_id":"4","last_reported":1735394808,"current_range_meters":4400,"station_id":"ce4bhnh2rcd13ifvqgug","pricing_plan_id":"cebpf4jnsgd1na2vs0mg"},{"bike_id":"0e2e2a21-ac7e-4ad7-a25e-487c50aecf5f","system_id":"levelo_inurba_marseille","lat":43.29192,"lon":5.35826,"is_reserved":false,"is_disabled":false,"rental_uris":{"android":"levelo://app?vid=0e2e2a21-ac7e-4ad7-a25e-487c50aecf5f","ios":"levelo://app?vid=0e2e2a21-ac7e-4ad7-a25e-487c50aecf5f"},"vehicle_type_id":"4","last_reported":1735394808,"current_range_meters":38800,"station_id":"ce4bhb12rcd13ifvqel0","pricing_plan_id":"cebpf4jnsgd1na2vs0mg"},{"bike_id":"e07f17cb-27ad-4f87-ba7c-7a4bd3b83819","system_id":"levelo_inurba_marseille","lat":43.324778,"lon":5.36573,"is_reserved":false,"is_disabled":false,"rental_uris":{"android":"levelo://app?vid=e07f17cb-27ad-4f87-ba7c-7a4bd3b83819","ios":"levelo://app?vid=e07f17cb-27ad-4f87-ba7c-7a4bd3b83819"},"vehicle_type_id":"4","last_reported":1735394808,"current_range_meters":38800,"station_id":"ce4bhs12rcd13ifvqhvg","pricing_plan_id":"cebpf4jnsgd1na2vs0mg"},{"bike_id":"622825f4-100c-4370-a3e7-a2ac977f5898","system_id":"levelo_inurba_marseille","lat":43.29904,"lon":5.38154,"is_reserved":false,"is_disabled":false,"rental_uris":{"android":"levelo://app?vid=622825f4-100c-4370-a3e7-a2ac977f5898","ios":"levelo://app?vid=622825f4-100c-4370-a3e7-a2ac977f5898"},"vehicle_type_id":"4","last_reported":1735394808,"current_range_meters":38000,"station_id":"ce4bgj12rcd13ifvqbc0","pricing_plan_id":"cebpf4jnsgd1na2vs0mg"},{"bike_id":"5b4261eb-532f-47b4-916f-3d8dfa407159","system_id":"levelo_inurba_marseille","lat":43.30082,"lon":5.39084,"is_reserved":false,"is_disabled":false,"rental_uris":{"android":"levelo://app?vid=5b4261eb-532f-47b4-916f-3d8dfa407159","ios":"levelo://app?vid=5b4261eb-532f-47b4-916f-3d8dfa407159"},"vehicle_type_id":"4","last_reported":1735394808,"current_range_meters":37600,"station_id":"ce4bh192rcd13ifvqdb0","pricing_plan_id":"cebpf4jnsgd1na2vs0mg"},{"bike_id":"8a324e82-fc6f-428c-8634-fa950d167b96","system_id":"levelo_inurba_marseille","lat":43.28972,"lon":5.37842,"is_reserved":false,"is_disabled":false,"rental_uris":{"android":"levelo://app?vid=8a324e82-fc6f-428c-8634-fa950d167b96","ios":"levelo://app?vid=8a324e82-fc6f-428c-8634-fa950d167b96"},"vehicle_type_id":"4","last_reported":1735394808,"current_range_meters":36000,"station_id":"ce4bh9p2rcd13ifvqed0","pricing_plan_id":"cebpf4jnsgd1na2vs0mg"},{"bike_id":"019e8db9-95d5-4e58-8946-262c4aa1167a","system_id":"levelo_inurba_marseille","lat":43.30532,"lon":5.36552,"is_reserved":false,"is_disabled":false,"rental_uris":{"android":"levelo://app?vid=019e8db9-95d5-4e58-8946-262c4aa1167a","ios":"levelo://app?vid=019e8db9-95d5-4e58-8946-262c4aa1167a"},"vehicle_type_id":"4","last_reported":1735394808,"current_range_meters":19200,"station_id":"ce4bgs12rcd13ifvqcag","pricing_plan_id":"cebpf4jnsgd1na2vs0mg"},{"bike_id":"02d1a785-568f-4790-a926-13accf20c75a","system_id":"levelo_inurba_marseille","lat":43.27989,"lon":5.41655,"is_reserved":false,"is_disabled":false,"rental_uris":{"android":"levelo://app?vid=02d1a785-568f-4790-a926-13accf20c75a","ios":"levelo://app?vid=02d1a785-568f-4790-a926-13accf20c75a"},"vehicle_type_id":"4","last_reported":1735394808,"current_range_meters":23200,"station_id":"ce4bho12rcd13ifvqh1g","pricing_plan_id":"cebpf4jnsgd1na2vs0mg"},{"bike_id":"84f342da-b355-4ce3-bc05-a6609a467057","system_id":"levelo_inurba_marseille","lat":43.27377,"lon":5.36255,"is_reserved":false,"is_disabled":false,"rental_uris":{"android":"levelo://app?vid=84f342da-b355-4ce3-bc05-a6609a467057","ios":"levelo://app?vid=84f342da-b355-4ce3-bc05-a6609a467057"},"vehicle_type_id":"4","last_reported":1735394808,"current_range_meters":28400,"station_id":"ce4bhbh2rcd13ifvqeo0","pricing_plan_id":"cebpf4jnsgd1na2vs0mg"},{"bike_id":"309a9554-13e3-4a27-8da4-4d931614d914","system_id":"levelo_inurba_marseille","lat":43.29024,"lon":5.38133,"is_reserved":false,"is_disabled":true,"rental_uris":{"android":"levelo://app?vid=309a9554-13e3-4a27-8da4-4d931614d914","ios":"levelo://app?vid=309a9554-13e3-4a27-8da4-4d931614d914"},"vehicle_type_id":"4","last_reported":1735394808,"current_range_meters":7200,"station_id":"ce4bh4p2rcd13ifvqe1g","pricing_plan_id":"cebpf4jnsgd1na2vs0mg"},{"bike_id":"49a507bf-b1db-419a-85bd-cf24383740da","system_id":"levelo_inurba_marseille","lat":43.27207,"lon":5.39176,"is_reserved":false,"is_disabled":false,"rental_uris":{"android":"levelo://app?vid=49a507bf-b1db-419a-85bd-cf24383740da","ios":"levelo://app?vid=49a507bf-b1db-419a-85bd-cf24383740da"},"vehicle_type_id":"4","last_reported":1735394808,"current_range_meters":8800,"station_id":"ce4bhhp2rcd13ifvqfm0","pricing_plan_id":"cebpf4jnsgd1na2vs0mg"},{"bike_id":"d5ddbfd8-c695-45c7-8f75-3f1b7776c13d","system_id":"levelo_inurba_marseille","lat":43.22925,"lon":5.35375,"is_reserved":false,"is_disabled":false,"rental_uris":{"android":"levelo://app?vid=d5ddbfd8-c695-45c7-8f75-3f1b7776c13d","ios":"levelo://app?vid=d5ddbfd8-c695-45c7-8f75-3f1b7776c13d"},"vehicle_type_id":"4","last_reported":1735394808,"current_range_meters":38800,"station_id":"cpo3532slgdg3j2ikp40","pricing_plan_id":"cebpf4jnsgd1na2vs0mg"},{"bike_id":"eeb0d433-3c14-490c-a1c3-e6268649a012","system_id":"levelo_inurba_marseille","lat":43.27062,"lon":5.42303,"is_reserved":false,"is_disabled":false,"rental_uris":{"android":"levelo://app?vid=eeb0d433-3c14-490c-a1c3-e6268649a012","ios":"levelo://app?vid=eeb0d433-3c14-490c-a1c3-e6268649a012"},"vehicle_type_id":"4","last_reported":1735394808,"current_range_meters":36800,"station_id":"ce4bhk92rcd13ifvqgb0","pricing_plan_id":"cebpf4jnsgd1na2vs0mg"},{"bike_id":"2d76d9f4-5ac3-420c-b7d3-8710df44025b","system_id":"levelo_inurba_marseille","lat":43.29554,"lon":5.42291,"is_reserved":false,"is_disabled":false,"rental_uris":{"android":"levelo://app?vid=2d76d9f4-5ac3-420c-b7d3-8710df44025b","ios":"levelo://app?vid=2d76d9f4-5ac3-420c-b7d3-8710df44025b"},"vehicle_type_id":"4","last_reported":1735394808,"current_range_meters":15200,"station_id":"ce4bhph2rcd13ifvqhdg","pricing_plan_id":"cebpf4jnsgd1na2vs0mg"},{"bike_id":"5477d212-35e2-4622-b27a-bfe5ff434d03","system_id":"levelo_inurba_marseille","lat":43.337603,"lon":5.374424,"is_reserved":false,"is_disabled":false,"rental_uris":{"android":"levelo://app?vid=5477d212-35e2-4622-b27a-bfe5ff434d03","ios":"levelo://app?vid=5477d212-35e2-4622-b27a-bfe5ff434d03"},"vehicle_type_id":"4","last_reported":1735394808,"current_range_meters":25200,"station_id":"","pricing_plan_id":"cebpf4jnsgd1na2vs0mg"},{"bike_id":"e8e2e96e-2308-45a6-abf7-9e1457bbae07","system_id":"levelo_inurba_marseille","lat":43.2951,"lon":5.3904,"is_reserved":false,"is_disabled":false,"rental_uris":{"android":"levelo://app?vid=e8e2e96e-2308-45a6-abf7-9e1457bbae07","ios":"levelo://app?vid=e8e2e96e-2308-45a6-abf7-9e1457bbae07"},"vehicle_type_id":"4","last_reported":1735394808,"current_range_meters":33600,"station_id":"ce4bh3p2rcd13ifvqdp0","pricing_plan_id":"cebpf4jnsgd1na2vs0mg"},{"bike_id":"254571ce-4bff-437b-8e26-03b746d4984d","system_id":"levelo_inurba_marseille","lat":43.31365,"lon":5.38497,"is_reserved":false,"is_disabled":false,"rental_uris":{"android":"levelo://app?vid=254571ce-4bff-437b-8e26-03b746d4984d","ios":"levelo://app?vid=254571ce-4bff-437b-8e26-03b746d4984d"},"vehicle_type_id":"4","last_reported":1735394808,"current_range_meters":37600,"station_id":"ce4bgt92rcd13ifvqcf0","pricing_plan_id":"cebpf4jnsgd1na2vs0mg"},{"bike_id":"c5f023bd-77a6-4905-9b77-c1f279efdec6","system_id":"levelo_inurba_marseille","lat":43.27994,"lon":5.41662,"is_reserved":false,"is_disabled":false,"rental_uris":{"android":"levelo://app?vid=c5f023bd-77a6-4905-9b77-c1f279efdec6","ios":"levelo://app?vid=c5f023bd-77a6-4905-9b77-c1f279efdec6"},"vehicle_type_id":"4","last_reported":1735394808,"current_range_meters":24000,"station_id":"ce4bho12rcd13ifvqh1g","pricing_plan_id":"cebpf4jnsgd1na2vs0mg"},{"bike_id":"a0d0282f-0cd4-4b0e-a54b-4eb6db624394","system_id":"levelo_inurba_marseille","lat":43.25583,"lon":5.38229,"is_reserved":false,"is_disabled":false,"rental_uris":{"android":"levelo://app?vid=a0d0282f-0cd4-4b0e-a54b-4eb6db624394","ios":"levelo://app?vid=a0d0282f-0cd4-4b0e-a54b-4eb6db624394"},"vehicle_type_id":"4","last_reported":1735394808,"current_range_meters":38800,"station_id":"ce4bhih2rcd13ifvqfs0","pricing_plan_id":"cebpf4jnsgd1na2vs0mg"},{"bike_id":"33e71b84-5f6c-4d33-8955-6bd6b0f39e75","system_id":"levelo_inurba_marseille","lat":43.29183,"lon":5.39308,"is_reserved":false,"is_disabled":false,"rental_uris":{"android":"levelo://app?vid=33e71b84-5f6c-4d33-8955-6bd6b0f39e75","ios":"levelo://app?vid=33e71b84-5f6c-4d33-8955-6bd6b0f39e75"},"vehicle_type_id":"4","last_reported":1735394808,"current_range_meters":35200,"station_id":"ce4bh192rcd13ifvqdd0","pricing_plan_id":"cebpf4jnsgd1na2vs0mg"},{"bike_id":"eb7dfe78-b047-4a41-86fc-30512e1cee2f","system_id":"levelo_inurba_marseille","lat":43.30535,"lon":5.36566,"is_reserved":false,"is_disabled":false,"rental_uris":{"android":"levelo://app?vid=eb7dfe78-b047-4a41-86fc-30512e1cee2f","ios":"levelo://app?vid=eb7dfe78-b047-4a41-86fc-30512e1cee2f"},"vehicle_type_id":"4","last_reported":1735394808,"current_range_meters":30000,"station_id":"ce4bgs12rcd13ifvqcag","pricing_plan_id":"cebpf4jnsgd1na2vs0mg"},{"bike_id":"cdf0580d-2eb0-4416-bf6d-dfab9d520a64","system_id":"levelo_inurba_marseille","lat":43.31223,"lon":5.36865,"is_reserved":false,"is_disabled":false,"rental_uris":{"android":"levelo://app?vid=cdf0580d-2eb0-4416-bf6d-dfab9d520a64","ios":"levelo://app?vid=cdf0580d-2eb0-4416-bf6d-dfab9d520a64"},"vehicle_type_id":"4","last_reported":1735394808,"current_range_meters":32000,"station_id":"ce4bgl92rcd13ifvqbq0","pricing_plan_id":"cebpf4jnsgd1na2vs0mg"},{"bike_id":"9e1270da-d311-45d0-87a1-483e70dd8d69","system_id":"levelo_inurba_marseille","lat":43.29543,"lon":5.37497,"is_reserved":false,"is_disabled":false,"rental_uris":{"android":"levelo://app?vid=9e1270da-d311-45d0-87a1-483e70dd8d69","ios":"levelo://app?vid=9e1270da-d311-45d0-87a1-483e70dd8d69"},"vehicle_type_id":"4","last_reported":1735394808,"current_range_meters":9600,"station_id":"ce4bgkp2rcd13ifvqbmg","pricing_plan_id":"cebpf4jnsgd1na2vs0mg"},{"bike_id":"3dccb918-d8b3-4b61-94bf-9ba4d738cec8","system_id":"levelo_inurba_marseille","lat":43.29556,"lon":5.42295,"is_reserved":false,"is_disabled":false,"rental_uris":{"android":"levelo://app?vid=3dccb918-d8b3-4b61-94bf-9ba4d738cec8","ios":"levelo://app?vid=3dccb918-d8b3-4b61-94bf-9ba4d738cec8"},"vehicle_type_id":"4","last_reported":1735394808,"current_range_meters":25200,"station_id":"ce4bhph2rcd13ifvqhdg","pricing_plan_id":"cebpf4jnsgd1na2vs0mg"},{"bike_id":"cedf33c7-0c6e-44d0-b641-3d4f75e24128","system_id":"levelo_inurba_marseille","lat":43.3054,"lon":5.36531,"is_reserved":false,"is_disabled":false,"rental_uris":{"android":"levelo://app?vid=cedf33c7-0c6e-44d0-b641-3d4f75e24128","ios":"levelo://app?vid=cedf33c7-0c6e-44d0-b641-3d4f75e24128"},"vehicle_type_id":"4","last_reported":1735394808,"current_range_meters":33200,"station_id":"ce4bgs12rcd13ifvqcag","pricing_plan_id":"cebpf4jnsgd1na2vs0mg"},{"bike_id":"ce391c99-c1d6-4555-9b26-f5b7a5fa066d","system_id":"levelo_inurba_marseille","lat":43.28364,"lon":5.38092,"is_reserved":false,"is_disabled":true,"rental_uris":{"android":"levelo://app?vid=ce391c99-c1d6-4555-9b26-f5b7a5fa066d","ios":"levelo://app?vid=ce391c99-c1d6-4555-9b26-f5b7a5fa066d"},"vehicle_type_id":"4","last_reported":1735394808,"current_range_meters":1600,"station_id":"ce4bh412rcd13ifvqdr0","pricing_plan_id":"cebpf4jnsgd1na2vs0mg"},{"bike_id":"e82fa968-8cc5-4e9d-9e64-93cbca02a3c9","system_id":"levelo_inurba_marseille","lat":43.29515,"lon":5.37503,"is_reserved":false,"is_disabled":false,"rental_uris":{"android":"levelo://app?vid=e82fa968-8cc5-4e9d-9e64-93cbca02a3c9","ios":"levelo://app?vid=e82fa968-8cc5-4e9d-9e64-93cbca02a3c9"},"vehicle_type_id":"4","last_reported":1735394808,"current_range_meters":11600,"station_id":"ce4bgkp2rcd13ifvqbmg","pricing_plan_id":"cebpf4jnsgd1na2vs0mg"},{"bike_id":"6bd48d81-28e7-45d3-91bb-c861a5a2eba5","system_id":"levelo_inurba_marseille","lat":43.26929,"lon":5.40233,"is_reserved":false,"is_disabled":false,"rental_uris":{"android":"levelo://app?vid=6bd48d81-28e7-45d3-91bb-c861a5a2eba5","ios":"levelo://app?vid=6bd48d81-28e7-45d3-91bb-c861a5a2eba5"},"vehicle_type_id":"4","last_reported":1735394808,"current_range_meters":38400,"station_id":"cjm6bp8fraef2m0cb0m0","pricing_plan_id":"cebpf4jnsgd1na2vs0mg"},{"bike_id":"3875ab2b-b01a-4fae-9fa7-769189809e4c","system_id":"levelo_inurba_marseille","lat":43.29687,"lon":5.37293,"is_reserved":false,"is_disabled":false,"rental_uris":{"android":"levelo://app?vid=3875ab2b-b01a-4fae-9fa7-769189809e4c","ios":"levelo://app?vid=3875ab2b-b01a-4fae-9fa7-769189809e4c"},"vehicle_type_id":"4","last_reported":1735394808,"current_range_meters":14000,"station_id":"ce4bgk12rcd13ifvqbj0","pricing_plan_id":"cebpf4jnsgd1na2vs0mg"},{"bike_id":"bdef0a8e-67a7-4601-96b6-e11c72c3ff0c","system_id":"levelo_inurba_marseille","lat":43.28936,"lon":5.39635,"is_reserved":false,"is_disabled":false,"rental_uris":{"android":"levelo://app?vid=bdef0a8e-67a7-4601-96b6-e11c72c3ff0c","ios":"levelo://app?vid=bdef0a8e-67a7-4601-96b6-e11c72c3ff0c"},"vehicle_type_id":"4","last_reported":1735394808,"current_range_meters":37600,"station_id":"ce4bh3h2rcd13ifvqdn0","pricing_plan_id":"cebpf4jnsgd1na2vs0mg"},{"bike_id":"27001726-4b0a-4ba0-8261-5a303bdee373","system_id":"levelo_inurba_marseille","lat":43.27537,"lon":5.38457,"is_reserved":false,"is_disabled":false,"rental_uris":{"android":"levelo://app?vid=27001726-4b0a-4ba0-8261-5a303bdee373","ios":"levelo://app?vid=27001726-4b0a-4ba0-8261-5a303bdee373"},"vehicle_type_id":"4","last_reported":1735394808,"current_range_meters":39200,"station_id":"ce4bhh92rcd13ifvqfi0","pricing_plan_id":"cebpf4jnsgd1na2vs0mg"},{"bike_id":"421c6551-132c-4015-aab8-f2eccc5315e9","system_id":"levelo_inurba_marseille","lat":43.30568,"lon":5.37252,"is_reserved":false,"is_disabled":false,"rental_uris":{"android":"levelo://app?vid=421c6551-132c-4015-aab8-f2eccc5315e9","ios":"levelo://app?vid=421c6551-132c-4015-aab8-f2eccc5315e9"},"vehicle_type_id":"4","last_reported":1735394808,"current_range_meters":35200,"station_id":"ce4bgqh2rcd13ifvqc4g","pricing_plan_id":"cebpf4jnsgd1na2vs0mg"},{"bike_id":"3033130e-e058-407c-873d-c349ef6f19a0","system_id":"levelo_inurba_marseille","lat":43.29534,"lon":5.39032,"is_reserved":false,"is_disabled":false,"rental_uris":{"android":"levelo://app?vid=3033130e-e058-407c-873d-c349ef6f19a0","ios":"levelo://app?vid=3033130e-e058-407c-873d-c349ef6f19a0"},"vehicle_type_id":"4","last_reported":1735394808,"current_range_meters":32000,"station_id":"ce4bh3p2rcd13ifvqdp0","pricing_plan_id":"cebpf4jnsgd1na2vs0mg"},{"bike_id":"16eb736d-6bbb-49c0-b5c4-ac0ac23d3352","system_id":"levelo_inurba_marseille","lat":43.23183,"lon":5.35554,"is_reserved":false,"is_disabled":false,"rental_uris":{"android":"levelo://app?vid=16eb736d-6bbb-49c0-b5c4-ac0ac23d3352","ios":"levelo://app?vid=16eb736d-6bbb-49c0-b5c4-ac0ac23d3352"},"vehicle_type_id":"4","last_reported":1735394808,"current_range_meters":2800,"station_id":"","pricing_plan_id":"cebpf4jnsgd1na2vs0mg"},{"bike_id":"d7294cd5-2623-434f-b244-c391219a24d9","system_id":"levelo_inurba_marseille","lat":43.30534,"lon":5.36713,"is_reserved":false,"is_disabled":false,"rental_uris":{"android":"levelo://app?vid=d7294cd5-2623-434f-b244-c391219a24d9","ios":"levelo://app?vid=d7294cd5-2623-434f-b244-c391219a24d9"},"vehicle_type_id":"4","last_reported":1735394808,"current_range_meters":27200,"station_id":"ce4bgrp2rcd13ifvqc9g","pricing_plan_id":"cebpf4jnsgd1na2vs0mg"},{"bike_id":"87a48cd1-ce9b-4509-ad0f-3bd3aa23cbe9","system_id":"levelo_inurba_marseille","lat":43.30534,"lon":5.36712,"is_reserved":false,"is_disabled":false,"rental_uris":{"android":"levelo://app?vid=87a48cd1-ce9b-4509-ad0f-3bd3aa23cbe9","ios":"levelo://app?vid=87a48cd1-ce9b-4509-ad0f-3bd3aa23cbe9"},"vehicle_type_id":"4","last_reported":1735394808,"current_range_meters":38800,"station_id":"ce4bgrp2rcd13ifvqc9g","pricing_plan_id":"cebpf4jnsgd1na2vs0mg"},{"bike_id":"7ed14772-43fd-4e91-9682-602d4d8bddbc","system_id":"levelo_inurba_marseille","lat":43.2465,"lon":5.38899,"is_reserved":false,"is_disabled":false,"rental_uris":{"android":"levelo://app?vid=7ed14772-43fd-4e91-9682-602d4d8bddbc","ios":"levelo://app?vid=7ed14772-43fd-4e91-9682-602d4d8bddbc"},"vehicle_type_id":"4","last_reported":1735394808,"current_range_meters":38800,"station_id":"ce4bhg12rcd13ifvqf60","pricing_plan_id":"cebpf4jnsgd1na2vs0mg"},{"bike_id":"bb8bfb2b-6b72-412c-929c-03030cbb22d8","system_id":"levelo_inurba_marseille","lat":43.28658,"lon":5.38688,"is_reserved":false,"is_disabled":false,"rental_uris":{"android":"levelo://app?vid=bb8bfb2b-6b72-412c-929c-03030cbb22d8","ios":"levelo://app?vid=bb8bfb2b-6b72-412c-929c-03030cbb22d8"},"vehicle_type_id":"4","last_reported":1735394808,"current_range_meters":17600,"station_id":"ce4bh492rcd13ifvqdug","pricing_plan_id":"cebpf4jnsgd1na2vs0mg"},{"bike_id":"c9e5d6c6-5601-4769-be5c-20fef93ca121","system_id":"levelo_inurba_marseille","lat":43.24164,"lon":5.36392,"is_reserved":false,"is_disabled":false,"rental_uris":{"android":"levelo://app?vid=c9e5d6c6-5601-4769-be5c-20fef93ca121","ios":"levelo://app?vid=c9e5d6c6-5601-4769-be5c-20fef93ca121"},"vehicle_type_id":"4","last_reported":1735394808,"current_range_meters":17200,"station_id":"cpo36qri1sfpv3e86is0","pricing_plan_id":"cebpf4jnsgd1na2vs0mg"},{"bike_id":"e23a7d55-7ce1-4f20-a71a-26c06c907d82","system_id":"levelo_inurba_marseille","lat":43.27955,"lon":5.41049,"is_reserved":false,"is_disabled":false,"rental_uris":{"android":"levelo://app?vid=e23a7d55-7ce1-4f20-a71a-26c06c907d82","ios":"levelo://app?vid=e23a7d55-7ce1-4f20-a71a-26c06c907d82"},"vehicle_type_id":"4","last_reported":1735394808,"current_range_meters":36000,"station_id":"ce4bhnp2rcd13ifvqh0g","pricing_plan_id":"cebpf4jnsgd1na2vs0mg"},{"bike_id":"88d25dc6-77d7-4a14-94e3-b489df5b3b63","system_id":"levelo_inurba_marseille","lat":43.32468,"lon":5.3658,"is_reserved":false,"is_disabled":false,"rental_uris":{"android":"levelo://app?vid=88d25dc6-77d7-4a14-94e3-b489df5b3b63","ios":"levelo://app?vid=88d25dc6-77d7-4a14-94e3-b489df5b3b63"},"vehicle_type_id":"4","last_reported":1735394808,"current_range_meters":38800,"station_id":"ce4bhs12rcd13ifvqhvg","pricing_plan_id":"cebpf4jnsgd1na2vs0mg"},{"bike_id":"5367a292-5564-4681-91cd-97babb89fc00","system_id":"levelo_inurba_marseille","lat":43.22931,"lon":5.35378,"is_reserved":false,"is_disabled":true,"rental_uris":{"android":"levelo://app?vid=5367a292-5564-4681-91cd-97babb89fc00","ios":"levelo://app?vid=5367a292-5564-4681-91cd-97babb89fc00"},"vehicle_type_id":"4","last_reported":1735394808,"current_range_meters":400,"station_id":"cpo3532slgdg3j2ikp40","pricing_plan_id":"cebpf4jnsgd1na2vs0mg"},{"bike_id":"b63b9eb6-fafc-4c7c-ad91-57273b105b52","system_id":"levelo_inurba_marseille","lat":43.29901,"lon":5.38156,"is_reserved":false,"is_disabled":false,"rental_uris":{"android":"levelo://app?vid=b63b9eb6-fafc-4c7c-ad91-57273b105b52","ios":"levelo://app?vid=b63b9eb6-fafc-4c7c-ad91-57273b105b52"},"vehicle_type_id":"4","last_reported":1735394808,"current_range_meters":38400,"station_id":"ce4bgj12rcd13ifvqbc0","pricing_plan_id":"cebpf4jnsgd1na2vs0mg"},{"bike_id":"de232bad-3e21-431e-839f-079b9c87c08a","system_id":"levelo_inurba_marseille","lat":43.28934,"lon":5.39627,"is_reserved":false,"is_disabled":false,"rental_uris":{"android":"levelo://app?vid=de232bad-3e21-431e-839f-079b9c87c08a","ios":"levelo://app?vid=de232bad-3e21-431e-839f-079b9c87c08a"},"vehicle_type_id":"4","last_reported":1735394808,"current_range_meters":35600,"station_id":"ce4bh3h2rcd13ifvqdn0","pricing_plan_id":"cebpf4jnsgd1na2vs0mg"},{"bike_id":"1e1703c0-eb7e-4820-bacc-fe926f0c13a4","system_id":"levelo_inurba_marseille","lat":43.29006,"lon":5.3561,"is_reserved":false,"is_disabled":false,"rental_uris":{"android":"levelo://app?vid=1e1703c0-eb7e-4820-bacc-fe926f0c13a4","ios":"levelo://app?vid=1e1703c0-eb7e-4820-bacc-fe926f0c13a4"},"vehicle_type_id":"4","last_reported":1735394808,"current_range_meters":30000,"station_id":"ce4bhb92rcd13ifvqen0","pricing_plan_id":"cebpf4jnsgd1na2vs0mg"},{"bike_id":"f83dded0-e4d8-47a4-8324-7d51c5d0e918","system_id":"levelo_inurba_marseille","lat":43.30198,"lon":5.3809,"is_reserved":false,"is_disabled":false,"rental_uris":{"android":"levelo://app?vid=f83dded0-e4d8-47a4-8324-7d51c5d0e918","ios":"levelo://app?vid=f83dded0-e4d8-47a4-8324-7d51c5d0e918"},"vehicle_type_id":"4","last_reported":1735394808,"current_range_meters":35200,"station_id":"","pricing_plan_id":"cebpf4jnsgd1na2vs0mg"},{"bike_id":"9d4286ea-5fb9-44b2-a09c-2b79cf0971cf","system_id":"levelo_inurba_marseille","lat":43.27384,"lon":5.36262,"is_reserved":false,"is_disabled":false,"rental_uris":{"android":"levelo://app?vid=9d4286ea-5fb9-44b2-a09c-2b79cf0971cf","ios":"levelo://app?vid=9d4286ea-5fb9-44b2-a09c-2b79cf0971cf"},"vehicle_type_id":"4","last_reported":1735394808,"current_range_meters":20800,"station_id":"ce4bhbh2rcd13ifvqeo0","pricing_plan_id":"cebpf4jnsgd1na2vs0mg"},{"bike_id":"580e0a66-5502-4a5a-b4ed-77bbd591b4f0","system_id":"levelo_inurba_marseille","lat":43.27047,"lon":5.40275,"is_reserved":false,"is_disabled":false,"rental_uris":{"android":"levelo://app?vid=580e0a66-5502-4a5a-b4ed-77bbd591b4f0","ios":"levelo://app?vid=580e0a66-5502-4a5a-b4ed-77bbd591b4f0"},"vehicle_type_id":"4","last_reported":1735394808,"current_range_meters":32000,"station_id":"ce4bhk92rcd13ifvqgc0","pricing_plan_id":"cebpf4jnsgd1na2vs0mg"},{"bike_id":"eadabbdf-f27e-4542-81b8-57f38bbe0912","system_id":"levelo_inurba_marseille","lat":43.28476,"lon":5.38433,"is_reserved":false,"is_disabled":false,"rental_uris":{"android":"levelo://app?vid=eadabbdf-f27e-4542-81b8-57f38bbe0912","ios":"levelo://app?vid=eadabbdf-f27e-4542-81b8-57f38bbe0912"},"vehicle_type_id":"4","last_reported":1735394808,"current_range_meters":12000,"station_id":"ce4bh512rcd13ifvqe3g","pricing_plan_id":"cebpf4jnsgd1na2vs0mg"},{"bike_id":"deb74dd6-caed-4958-9dd1-d5f6f39c849d","system_id":"levelo_inurba_marseille","lat":43.29841,"lon":5.36288,"is_reserved":false,"is_disabled":false,"rental_uris":{"android":"levelo://app?vid=deb74dd6-caed-4958-9dd1-d5f6f39c849d","ios":"levelo://app?vid=deb74dd6-caed-4958-9dd1-d5f6f39c849d"},"vehicle_type_id":"4","last_reported":1735394808,"current_range_meters":25200,"station_id":"ce4bgpp2rcd13ifvqc3g","pricing_plan_id":"cebpf4jnsgd1na2vs0mg"},{"bike_id":"15c2670d-f807-47f7-9fbe-1c14fcb46679","system_id":"levelo_inurba_marseille","lat":43.28477,"lon":5.38411,"is_reserved":false,"is_disabled":false,"rental_uris":{"android":"levelo://app?vid=15c2670d-f807-47f7-9fbe-1c14fcb46679","ios":"levelo://app?vid=15c2670d-f807-47f7-9fbe-1c14fcb46679"},"vehicle_type_id":"4","last_reported":1735394808,"current_range_meters":22400,"station_id":"ce4bh512rcd13ifvqe3g","pricing_plan_id":"cebpf4jnsgd1na2vs0mg"},{"bike_id":"0869301a-63d0-4228-8b67-c47ca7686146","system_id":"levelo_inurba_marseille","lat":43.29875,"lon":5.39733,"is_reserved":false,"is_disabled":false,"rental_uris":{"android":"levelo://app?vid=0869301a-63d0-4228-8b67-c47ca7686146","ios":"levelo://app?vid=0869301a-63d0-4228-8b67-c47ca7686146"},"vehicle_type_id":"4","last_reported":1735394808,"current_range_meters":39200,"station_id":"ce4bh0h2rcd13ifvqd50","pricing_plan_id":"cebpf4jnsgd1na2vs0mg"},{"bike_id":"c962fb46-5ea5-4907-8407-84ffd84f2be6","system_id":"levelo_inurba_marseille","lat":43.2908,"lon":5.37181,"is_reserved":false,"is_disabled":false,"rental_uris":{"android":"levelo://app?vid=c962fb46-5ea5-4907-8407-84ffd84f2be6","ios":"levelo://app?vid=c962fb46-5ea5-4907-8407-84ffd84f2be6"},"vehicle_type_id":"4","last_reported":1735394808,"current_range_meters":38800,"station_id":"ce4bh5p2rcd13ifvqe4g","pricing_plan_id":"cebpf4jnsgd1na2vs0mg"},{"bike_id":"16d30438-d609-4c9b-be36-cc109ff785a9","system_id":"levelo_inurba_marseille","lat":43.2981,"lon":5.40429,"is_reserved":false,"is_disabled":false,"rental_uris":{"android":"levelo://app?vid=16d30438-d609-4c9b-be36-cc109ff785a9","ios":"levelo://app?vid=16d30438-d609-4c9b-be36-cc109ff785a9"},"vehicle_type_id":"4","last_reported":1735394808,"current_range_meters":24000,"station_id":"ce4bh112rcd13ifvqd90","pricing_plan_id":"cebpf4jnsgd1na2vs0mg"},{"bike_id":"293671a8-67e1-4d08-a7c6-ed1760e6dded","system_id":"levelo_inurba_marseille","lat":43.31756,"lon":5.39031,"is_reserved":false,"is_disabled":false,"rental_uris":{"android":"levelo://app?vid=293671a8-67e1-4d08-a7c6-ed1760e6dded","ios":"levelo://app?vid=293671a8-67e1-4d08-a7c6-ed1760e6dded"},"vehicle_type_id":"4","last_reported":1735394808,"current_range_meters":36000,"station_id":"ce4bhqp2rcd13ifvqhng","pricing_plan_id":"cebpf4jnsgd1na2vs0mg"},{"bike_id":"bd3ac147-083a-4f21-98c3-872c160c262e","system_id":"levelo_inurba_marseille","lat":43.26806,"lon":5.40269,"is_reserved":false,"is_disabled":false,"rental_uris":{"android":"levelo://app?vid=bd3ac147-083a-4f21-98c3-872c160c262e","ios":"levelo://app?vid=bd3ac147-083a-4f21-98c3-872c160c262e"},"vehicle_type_id":"4","last_reported":1735394808,"current_range_meters":22000,"station_id":"ce501612rcd8frsf0b60","pricing_plan_id":"cebpf4jnsgd1na2vs0mg"},{"bike_id":"b23c0590-ef54-41cd-8583-62a444448403","system_id":"levelo_inurba_marseille","lat":43.298455,"lon":5.3629,"is_reserved":false,"is_disabled":false,"rental_uris":{"android":"levelo://app?vid=b23c0590-ef54-41cd-8583-62a444448403","ios":"levelo://app?vid=b23c0590-ef54-41cd-8583-62a444448403"},"vehicle_type_id":"4","last_reported":1735394808,"current_range_meters":35600,"station_id":"ce4bgpp2rcd13ifvqc3g","pricing_plan_id":"cebpf4jnsgd1na2vs0mg"},{"bike_id":"dac94ecf-3203-4c89-acc0-21c14e979588","system_id":"levelo_inurba_marseille","lat":43.26701,"lon":5.3829,"is_reserved":false,"is_disabled":false,"rental_uris":{"android":"levelo://app?vid=dac94ecf-3203-4c89-acc0-21c14e979588","ios":"levelo://app?vid=dac94ecf-3203-4c89-acc0-21c14e979588"},"vehicle_type_id":"4","last_reported":1735394808,"current_range_meters":32000,"station_id":"ce4bhg92rcd13ifvqf90","pricing_plan_id":"cebpf4jnsgd1na2vs0mg"},{"bike_id":"598bbdda-da2a-42e0-8e4b-8cda47ca303a","system_id":"levelo_inurba_marseille","lat":43.31231,"lon":5.3686,"is_reserved":false,"is_disabled":false,"rental_uris":{"android":"levelo://app?vid=598bbdda-da2a-42e0-8e4b-8cda47ca303a","ios":"levelo://app?vid=598bbdda-da2a-42e0-8e4b-8cda47ca303a"},"vehicle_type_id":"4","last_reported":1735394808,"current_range_meters":22000,"station_id":"ce4bgl92rcd13ifvqbq0","pricing_plan_id":"cebpf4jnsgd1na2vs0mg"},{"bike_id":"8bee1476-d272-445a-a620-649d316f1bcd","system_id":"levelo_inurba_marseille","lat":43.30149,"lon":5.381,"is_reserved":false,"is_disabled":false,"rental_uris":{"android":"levelo://app?vid=8bee1476-d272-445a-a620-649d316f1bcd","ios":"levelo://app?vid=8bee1476-d272-445a-a620-649d316f1bcd"},"vehicle_type_id":"4","last_reported":1735394808,"current_range_meters":17600,"station_id":"ce4bgjp2rcd13ifvqbh0","pricing_plan_id":"cebpf4jnsgd1na2vs0mg"},{"bike_id":"d787e330-e288-4e1c-926a-5bcb7a236ca2","system_id":"levelo_inurba_marseille","lat":43.28157,"lon":5.42641,"is_reserved":false,"is_disabled":false,"rental_uris":{"android":"levelo://app?vid=d787e330-e288-4e1c-926a-5bcb7a236ca2","ios":"levelo://app?vid=d787e330-e288-4e1c-926a-5bcb7a236ca2"},"vehicle_type_id":"4","last_reported":1735394808,"current_range_meters":28000,"station_id":"ce4bhnh2rcd13ifvqgug","pricing_plan_id":"cebpf4jnsgd1na2vs0mg"},{"bike_id":"2ae705de-6574-464b-ab9f-3d33c1b2a845","system_id":"levelo_inurba_marseille","lat":43.25871,"lon":5.39892,"is_reserved":false,"is_disabled":false,"rental_uris":{"android":"levelo://app?vid=2ae705de-6574-464b-ab9f-3d33c1b2a845","ios":"levelo://app?vid=2ae705de-6574-464b-ab9f-3d33c1b2a845"},"vehicle_type_id":"4","last_reported":1735394808,"current_range_meters":38800,"station_id":"ce4bhl92rcd13ifvqghg","pricing_plan_id":"cebpf4jnsgd1na2vs0mg"},{"bike_id":"9f14593c-6bea-4127-b1fc-c4fadd694d26","system_id":"levelo_inurba_marseille","lat":43.27672,"lon":5.38902,"is_reserved":false,"is_disabled":false,"rental_uris":{"android":"levelo://app?vid=9f14593c-6bea-4127-b1fc-c4fadd694d26","ios":"levelo://app?vid=9f14593c-6bea-4127-b1fc-c4fadd694d26"},"vehicle_type_id":"4","last_reported":1735394808,"current_range_meters":24400,"station_id":"ce4bhi12rcd13ifvqfo0","pricing_plan_id":"cebpf4jnsgd1na2vs0mg"},{"bike_id":"281af59c-53bc-446e-a47b-82e4315674de","system_id":"levelo_inurba_marseille","lat":43.29783,"lon":5.37102,"is_reserved":false,"is_disabled":false,"rental_uris":{"android":"levelo://app?vid=281af59c-53bc-446e-a47b-82e4315674de","ios":"levelo://app?vid=281af59c-53bc-446e-a47b-82e4315674de"},"vehicle_type_id":"4","last_reported":1735394808,"current_range_meters":38800,"station_id":"ce4bgop2rcd13ifvqc1g","pricing_plan_id":"cebpf4jnsgd1na2vs0mg"},{"bike_id":"3b4909f5-d4f4-482b-be00-88be0de94366","system_id":"levelo_inurba_marseille","lat":43.27378,"lon":5.36253,"is_reserved":false,"is_disabled":false,"rental_uris":{"android":"levelo://app?vid=3b4909f5-d4f4-482b-be00-88be0de94366","ios":"levelo://app?vid=3b4909f5-d4f4-482b-be00-88be0de94366"},"vehicle_type_id":"4","last_reported":1735394808,"current_range_meters":20000,"station_id":"ce4bhbh2rcd13ifvqeo0","pricing_plan_id":"cebpf4jnsgd1na2vs0mg"},{"bike_id":"6b579508-5354-439e-a4e0-4261173e8d8b","system_id":"levelo_inurba_marseille","lat":43.299117,"lon":5.374757,"is_reserved":false,"is_disabled":false,"rental_uris":{"android":"levelo://app?vid=6b579508-5354-439e-a4e0-4261173e8d8b","ios":"levelo://app?vid=6b579508-5354-439e-a4e0-4261173e8d8b"},"vehicle_type_id":"4","last_reported":1735394808,"current_range_meters":38800,"station_id":"ce4bgjh2rcd13ifvqbg0","pricing_plan_id":"cebpf4jnsgd1na2vs0mg"},{"bike_id":"767738db-724a-4991-a211-2dfd88fdf628","system_id":"levelo_inurba_marseille","lat":43.29305,"lon":5.37465,"is_reserved":false,"is_disabled":false,"rental_uris":{"android":"levelo://app?vid=767738db-724a-4991-a211-2dfd88fdf628","ios":"levelo://app?vid=767738db-724a-4991-a211-2dfd88fdf628"},"vehicle_type_id":"4","last_reported":1735394808,"current_range_meters":19200,"station_id":"ce4bgi12rcd13ifvqb70","pricing_plan_id":"cebpf4jnsgd1na2vs0mg"},{"bike_id":"fc55ee07-cb79-4880-8466-c9fe9e754cca","system_id":"levelo_inurba_marseille","lat":43.32375,"lon":5.36758,"is_reserved":false,"is_disabled":false,"rental_uris":{"android":"levelo://app?vid=fc55ee07-cb79-4880-8466-c9fe9e754cca","ios":"levelo://app?vid=fc55ee07-cb79-4880-8466-c9fe9e754cca"},"vehicle_type_id":"4","last_reported":1735394808,"current_range_meters":23200,"station_id":"ce4bhsh2rcd13ifvqi2g","pricing_plan_id":"cebpf4jnsgd1na2vs0mg"},{"bike_id":"ccdbfb0c-9f4b-4c6f-919d-2f7ab27f06f7","system_id":"levelo_inurba_marseille","lat":43.29275,"lon":5.38435,"is_reserved":false,"is_disabled":false,"rental_uris":{"android":"levelo://app?vid=ccdbfb0c-9f4b-4c6f-919d-2f7ab27f06f7","ios":"levelo://app?vid=ccdbfb0c-9f4b-4c6f-919d-2f7ab27f06f7"},"vehicle_type_id":"4","last_reported":1735394808,"current_range_meters":8800,"station_id":"ce4bh692rcd13ifvqea0","pricing_plan_id":"cebpf4jnsgd1na2vs0mg"},{"bike_id":"ffc2d679-3a4c-45e9-9a44-5ce4c4db5ea0","system_id":"levelo_inurba_marseille","lat":43.31755,"lon":5.39016,"is_reserved":false,"is_disabled":false,"rental_uris":{"android":"levelo://app?vid=ffc2d679-3a4c-45e9-9a44-5ce4c4db5ea0","ios":"levelo://app?vid=ffc2d679-3a4c-45e9-9a44-5ce4c4db5ea0"},"vehicle_type_id":"4","last_reported":1735394808,"current_range_meters":22400,"station_id":"ce4bhqp2rcd13ifvqhng","pricing_plan_id":"cebpf4jnsgd1na2vs0mg"},{"bike_id":"e66bfa74-9d11-484a-82a0-ee03e52a4906","system_id":"levelo_inurba_marseille","lat":43.29733,"lon":5.37705,"is_reserved":false,"is_disabled":false,"rental_uris":{"android":"levelo://app?vid=e66bfa74-9d11-484a-82a0-ee03e52a4906","ios":"levelo://app?vid=e66bfa74-9d11-484a-82a0-ee03e52a4906"},"vehicle_type_id":"4","last_reported":1735394808,"current_range_meters":37600,"station_id":"ce4bgkh2rcd13ifvqbl0","pricing_plan_id":"cebpf4jnsgd1na2vs0mg"},{"bike_id":"dde2fa47-bd4b-4d77-97b4-72ddef67362c","system_id":"levelo_inurba_marseille","lat":43.26211,"lon":5.37441,"is_reserved":false,"is_disabled":false,"rental_uris":{"android":"levelo://app?vid=dde2fa47-bd4b-4d77-97b4-72ddef67362c","ios":"levelo://app?vid=dde2fa47-bd4b-4d77-97b4-72ddef67362c"},"vehicle_type_id":"4","last_reported":1735394808,"current_range_meters":33200,"station_id":"ce4bhgp2rcd13ifvqfc0","pricing_plan_id":"cebpf4jnsgd1na2vs0mg"},{"bike_id":"c9104bc5-aae2-44ff-8912-d8e270edbb68","system_id":"levelo_inurba_marseille","lat":43.27988,"lon":5.387343,"is_reserved":false,"is_disabled":false,"rental_uris":{"android":"levelo://app?vid=c9104bc5-aae2-44ff-8912-d8e270edbb68","ios":"levelo://app?vid=c9104bc5-aae2-44ff-8912-d8e270edbb68"},"vehicle_type_id":"4","last_reported":1735394808,"current_range_meters":36800,"station_id":"ce4bhg12rcd13ifvqf80","pricing_plan_id":"cebpf4jnsgd1na2vs0mg"},{"bike_id":"3743979e-b188-4d28-a6ef-d2e96700d9b1","system_id":"levelo_inurba_marseille","lat":43.29798,"lon":5.37077,"is_reserved":false,"is_disabled":false,"rental_uris":{"android":"levelo://app?vid=3743979e-b188-4d28-a6ef-d2e96700d9b1","ios":"levelo://app?vid=3743979e-b188-4d28-a6ef-d2e96700d9b1"},"vehicle_type_id":"4","last_reported":1735394808,"current_range_meters":37600,"station_id":"ce4bgop2rcd13ifvqc1g","pricing_plan_id":"cebpf4jnsgd1na2vs0mg"},{"bike_id":"5f5e6df0-e91d-4ce4-b9f7-2fe1b0f0dba5","system_id":"levelo_inurba_marseille","lat":43.2696,"lon":5.38658,"is_reserved":false,"is_disabled":false,"rental_uris":{"android":"levelo://app?vid=5f5e6df0-e91d-4ce4-b9f7-2fe1b0f0dba5","ios":"levelo://app?vid=5f5e6df0-e91d-4ce4-b9f7-2fe1b0f0dba5"},"vehicle_type_id":"4","last_reported":1735394808,"current_range_meters":24400,"station_id":"ce4bhh92rcd13ifvqfh0","pricing_plan_id":"cebpf4jnsgd1na2vs0mg"},{"bike_id":"fed4ae3c-669c-4ef8-a7f6-6ffc6974466d","system_id":"levelo_inurba_marseille","lat":43.29557,"lon":5.37491,"is_reserved":false,"is_disabled":false,"rental_uris":{"android":"levelo://app?vid=fed4ae3c-669c-4ef8-a7f6-6ffc6974466d","ios":"levelo://app?vid=fed4ae3c-669c-4ef8-a7f6-6ffc6974466d"},"vehicle_type_id":"4","last_reported":1735394808,"current_range_meters":38800,"station_id":"ce4bgkp2rcd13ifvqbmg","pricing_plan_id":"cebpf4jnsgd1na2vs0mg"},{"bike_id":"08e1b2a1-c8aa-49f1-aed8-1b67e146442e","system_id":"levelo_inurba_marseille","lat":43.28419,"lon":5.3499,"is_reserved":false,"is_disabled":false,"rental_uris":{"android":"levelo://app?vid=08e1b2a1-c8aa-49f1-aed8-1b67e146442e","ios":"levelo://app?vid=08e1b2a1-c8aa-49f1-aed8-1b67e146442e"},"vehicle_type_id":"4","last_reported":1735394808,"current_range_meters":23200,"station_id":"ce4bhbh2rcd13ifvqepg","pricing_plan_id":"cebpf4jnsgd1na2vs0mg"},{"bike_id":"83830a46-f3a4-4506-b996-32d3c1a80099","system_id":"levelo_inurba_marseille","lat":43.27991,"lon":5.40007,"is_reserved":false,"is_disabled":false,"rental_uris":{"android":"levelo://app?vid=83830a46-f3a4-4506-b996-32d3c1a80099","ios":"levelo://app?vid=83830a46-f3a4-4506-b996-32d3c1a80099"},"vehicle_type_id":"4","last_reported":1735394808,"current_range_meters":22000,"station_id":"ce4bho92rcd13ifvqh4g","pricing_plan_id":"cebpf4jnsgd1na2vs0mg"},{"bike_id":"71472b59-3a52-4b90-81ac-b5ccb3920d76","system_id":"levelo_inurba_marseille","lat":43.23196,"lon":5.35554,"is_reserved":false,"is_disabled":false,"rental_uris":{"android":"levelo://app?vid=71472b59-3a52-4b90-81ac-b5ccb3920d76","ios":"levelo://app?vid=71472b59-3a52-4b90-81ac-b5ccb3920d76"},"vehicle_type_id":"4","last_reported":1735394808,"current_range_meters":24800,"station_id":"","pricing_plan_id":"cebpf4jnsgd1na2vs0mg"},