{"last_updated":1757747280,"ttl":60,"version":"2.2","data":{"bikes":[{"bike_id":"3d158a28-bece-4b10-9f82-ab3eb3313408","system_id":"levelo_inurba_marseille","lat":43.337608,"lon":5.374356,"is_reserved":false,"is_disabled":false,"rental_uris":{"android":"levelo://app?vid=3d158a28-bece-4b10-9f82-ab3eb3313408","ios":"levelo://app?vid=3d158a28-bece-4b10-9f82-ab3eb3313408"},"vehicle_type_id":"4","last_reported":1757747280,"current_range_meters":2800,"station_id":"","pricing_plan_id":"cebpf4jnsgd1na2vs0mg"},{"bike_id":"9c3a2073-bc98-42a1-a691-0a7b7be57bf8","system_id":"levelo_inurba_marseille","lat":43.29516,"lon":5.3639,"is_reserved":false,"is_disabled":false,"rental_uris":{"android":"levelo://app?vid=9c3a2073-bc98-42a1-a691-0a7b7be57bf8","ios":"levelo://app?vid=9c3a2073-bc98-42a1-a691-0a7b7be57bf8"},"vehicle_type_id":"4","last_reported":1757747280,"current_range_meters":2800,"station_id":"","pricing_plan_id":"cebpf4jnsgd1na2vs0mg"},{"bike_id":"5e81dbaa-a75c-4561-8127-a72e1908ea2b","system_id":"levelo_inurba_marseille","lat":43.23191,"lon":5.35557,"is_reserved":false,"is_disabled":false,"rental_uris":{"android":"levelo://app?vid=5e81dbaa-a75c-4561-8127-a72e1908ea2b","ios":"levelo://app?vid=5e81dbaa-a75c-4561-8127-a72e1908ea2b"},"vehicle_type_id":"4","last_reported":1757747280,"current_range_meters":2800,"station_id":"ce4bhu92rcd13ifvqi70","pricing_plan_id":"cebpf4jnsgd1na2vs0mg"},{"bike_id":"a75b69f1-1da0-4b1c-ab2e-1193fad3813c","system_id":"levelo_inurba_marseille","lat":43.2895,"lon":5.36385,"is_reserved":false,"is_disabled":false,"rental_uris":{"android":"levelo://app?vid=a75b69f1-1da0-4b1c-ab2e-1193fad3813c","ios":"levelo://app?vid=a75b69f1-1da0-4b1c-ab2e-1193fad3813c"},"vehicle_type_id":"4","last_reported":1757747280,"current_range_meters":2800,"station_id":"ce4bhc92rcd13ifvqetg","pricing_plan_id":"cebpf4jnsgd1na2vs0mg"},{"bike_id":"c14ddda8-05f2-4275-9b78-7f7a5455b6b9","system_id":"levelo_inurba_marseille","lat":43.308225,"lon":5.373913,"is_reserved":false,"is_disabled":false,"rental_uris":{"android":"levelo://app?vid=c14ddda8-05f2-4275-9b78-7f7a5455b6b9","ios":"levelo://app?vid=c14ddda8-05f2-4275-9b78-7f7a5455b6b9"},"vehicle_type_id":"4","last_reported":1757747280,"current_range_meters":3200,"station_id":"","pricing_plan_id":"cebpf4jnsgd1na2vs0mg"},{"bike_id":"42a5bc1e-233e-4d1d-8156-ea908421be63","system_id":"levelo_inurba_marseille","lat":43.24074,"lon":5.37758,"is_reserved":false,"is_disabled":false,"rental_uris":{"android":"levelo://app?vid=42a5bc1e-233e-4d1d-8156-ea908421be63","ios":"levelo://app?vid=42a5bc1e-233e-4d1d-8156-ea908421be63"},"vehicle_type_id":"4","last_reported":1757747280,"current_range_meters":3200,"station_id":"ce4bhnp2rcd13ifvqgvg","pricing_plan_id":"cebpf4jnsgd1na2vs0mg"},{"bike_id":"2f90fbdf-e2db-444f-928b-42e117670f18","system_id":"levelo_inurba_marseille","lat":43.337608,"lon":5.374358,"is_reserved":false,"is_disabled":false,"rental_uris":{"android":"levelo://app?vid=2f90fbdf-e2db-444f-928b-42e117670f18","ios":"levelo://app?vid=2f90fbdf-e2db-444f-928b-42e117670f18"},"vehicle_type_id":"4","last_reported":1757747280,"current_range_meters":3600,"station_id":"","pricing_plan_id":"cebpf4jnsgd1na2vs0mg"},{"bike_id":"6627b7c8-d245-498c-97ae-1bca49ecd6d9","system_id":"levelo_inurba_marseille","lat":43.32078,"lon":5.44776,"is_reserved":false,"is_disabled":false,"rental_uris":{"android":"levelo://app?vid=6627b7c8-d245-498c-97ae-1bca49ecd6d9","ios":"levelo://app?vid=6627b7c8-d245-498c-97ae-1bca49ecd6d9"},"vehicle_type_id":"4","last_reported":1757747280,"current_range_meters":3600,"station_id":"","pricing_plan_id":"cebpf4jnsgd1na2vs0mg"},{"bike_id":"97514a44-1f4d-4ae1-a270-04ca7b75c621","system_id":"levelo_inurba_marseille","lat":43.2886,"lon":5.42524,"is_reserved":false,"is_disabled":false,"rental_uris":{"android":"levelo://app?vid=97514a44-1f4d-4ae1-a270-04ca7b75c621","ios":"levelo://app?vid=97514a44-1f4d-4ae1-a270-04ca7b75c621"},"vehicle_type_id":"4","last_reported":1757747280,"current_range_meters":3600,"station_id":"","pricing_plan_id":"cebpf4jnsgd1na2vs0mg"},{"bike_id":"4d7c223f-2439-4e88-bc34-342812ce1f1f","system_id":"levelo_inurba_marseille","lat":43.292584,"lon":5.409105,"is_reserved":false,"is_disabled":false,"rental_uris":{"android":"levelo://app?vid=4d7c223f-2439-4e88-bc34-342812ce1f1f","ios":"levelo://app?vid=4d7c223f-2439-4e88-bc34-342812ce1f1f"},"vehicle_type_id":"4","last_reported":1757747280,"current_range_meters":3600,"station_id":"ce4bh192rcd13ifvqdc0","pricing_plan_id":"cebpf4jnsgd1na2vs0mg"},{"bike_id":"7ca9c8c0-0ba1-46c1-82d7-00280a54cffe","system_id":"levelo_inurba_marseille","lat":43.30471,"lon":5.37524,"is_reserved":false,"is_disabled":false,"rental_uris":{"android":"levelo://app?vid=7ca9c8c0-0ba1-46c1-82d7-00280a54cffe","ios":"levelo://app?vid=7ca9c8c0-0ba1-46c1-82d7-00280a54cffe"},"vehicle_type_id":"4","last_reported":1757747280,"current_range_meters":3600,"station_id":"","pricing_plan_id":"cebpf4jnsgd1na2vs0mg"},{"bike_id":"b468df8b-ffb2-4882-bf13-e4a81f7a0984","system_id":"levelo_inurba_marseille","lat":43.24167,"lon":5.36399,"is_reserved":false,"is_disabled":false,"rental_uris":{"android":"levelo://app?vid=b468df8b-ffb2-4882-bf13-e4a81f7a0984","ios":"levelo://app?vid=b468df8b-ffb2-4882-bf13-e4a81f7a0984"},"vehicle_type_id":"4","last_reported":1757747280,"current_range_meters":4000,"station_id":"cpo36qri1sfpv3e86is0","pricing_plan_id":"cebpf4jnsgd1na2vs0mg"},{"bike_id":"794979d7-71c6-460c-ba47-f6e6760f7270","system_id":"levelo_inurba_marseille","lat":43.31081,"lon":5.42432,"is_reserved":false,"is_disabled":false,"rental_uris":{"android":"levelo://app?vid=794979d7-71c6-460c-ba47-f6e6760f7270","ios":"levelo://app?vid=794979d7-71c6-460c-ba47-f6e6760f7270"},"vehicle_type_id":"4","last_reported":1757747280,"current_range_meters":4400,"station_id":"ce4bhp92rcd13ifvqhag","pricing_plan_id":"cebpf4jnsgd1na2vs0mg"},{"bike_id":"9d78e28e-45b1-4ff9-b6a3-05c3507831af","system_id":"levelo_inurba_marseille","lat":43.306298,"lon":5.366413,"is_reserved":false,"is_disabled":false,"rental_uris":{"android":"levelo://app?vid=9d78e28e-45b1-4ff9-b6a3-05c3507831af","ios":"levelo://app?vid=9d78e28e-45b1-4ff9-b6a3-05c3507831af"},"vehicle_type_id":"4","last_reported":1757747280,"current_range_meters":4400,"station_id":"","pricing_plan_id":"cebpf4jnsgd1na2vs0mg"},{"bike_id":"9ef26e0c-6f01-4b10-90fe-cec11146e852","system_id":"levelo_inurba_marseille","lat":43.3103,"lon":5.37269,"is_reserved":false,"is_disabled":false,"rental_uris":{"android":"levelo://app?vid=9ef26e0c-6f01-4b10-90fe-cec11146e852","ios":"levelo://app?vid=9ef26e0c-6f01-4b10-90fe-cec11146e852"},"vehicle_type_id":"4","last_reported":1757747280,"current_range_meters":4800,"station_id":"","pricing_plan_id":"cebpf4jnsgd1na2vs0mg"},{"bike_id":"2a0498a5-6d5b-4727-9d06-c8b9f99bca29","system_id":"levelo_inurba_marseille","lat":43.28452,"lon":5.39209,"is_reserved":false,"is_disabled":false,"rental_uris":{"android":"levelo://app?vid=2a0498a5-6d5b-4727-9d06-c8b9f99bca29","ios":"levelo://app?vid=2a0498a5-6d5b-4727-9d06-c8b9f99bca29"},"vehicle_type_id":"4","last_reported":1757747280,"current_range_meters":4800,"station_id":"ce4bhoh2rcd13ifvqh5g","pricing_plan_id":"cebpf4jnsgd1na2vs0mg"},{"bike_id":"738a1141-4bff-4bed-ab58-9f74036b33ab","system_id":"levelo_inurba_marseille","lat":43.2927,"lon":5.38776,"is_reserved":false,"is_disabled":false,"rental_uris":{"android":"levelo://app?vid=738a1141-4bff-4bed-ab58-9f74036b33ab","ios":"levelo://app?vid=738a1141-4bff-4bed-ab58-9f74036b33ab"},"vehicle_type_id":"4","last_reported":1757747280,"current_range_meters":5600,"station_id":"","pricing_plan_id":"cebpf4jnsgd1na2vs0mg"},{"bike_id":"58bed1fe-a58e-4ed9-b96a-7b9df80d52ee","system_id":"levelo_inurba_marseille","lat":43.30205,"lon":5.39462,"is_reserved":false,"is_disabled":false,"rental_uris":{"android":"levelo://app?vid=58bed1fe-a58e-4ed9-b96a-7b9df80d52ee","ios":"levelo://app?vid=58bed1fe-a58e-4ed9-b96a-7b9df80d52ee"},"vehicle_type_id":"4","last_reported":1757747280,"current_range_meters":6000,"station_id":"ce4bh0p2rcd13ifvqd70","pricing_plan_id":"cebpf4jnsgd1na2vs0mg"},{"bike_id":"f54274c6-0ecd-4812-8a10-f08e5e6a9621","system_id":"levelo_inurba_marseille","lat":43.28868,"lon":5.42529,"is_reserved":false,"is_disabled":false,"rental_uris":{"android":"levelo://app?vid=f54274c6-0ecd-4812-8a10-f08e5e6a9621","ios":"levelo://app?vid=f54274c6-0ecd-4812-8a10-f08e5e6a9621"},"vehicle_type_id":"4","last_reported":1757747280,"current_range_meters":6000,"station_id":"","pricing_plan_id":"cebpf4jnsgd1na2vs0mg"},{"bike_id":"85bd5459-5b3c-423c-90a5-65977c644259","system_id":"levelo_inurba_marseille","lat":43.22519,"lon":5.34844,"is_reserved":false,"is_disabled":true,"rental_uris":{"android":"levelo://app?vid=85bd5459-5b3c-423c-90a5-65977c644259","ios":"levelo://app?vid=85bd5459-5b3c-423c-90a5-65977c644259"},"vehicle_type_id":"4","last_reported":1757747280,"current_range_meters":6000,"station_id":"","pricing_plan_id":"cebpf4jnsgd1na2vs0mg"},{"bike_id":"9f12ee84-2583-459d-9326-b86b3d47bd92","system_id":"levelo_inurba_marseille","lat":43.30892,"lon":5.39665,"is_reserved":false,"is_disabled":false,"rental_uris":{"android":"levelo://app?vid=9f12ee84-2583-459d-9326-b86b3d47bd92","ios":"levelo://app?vid=9f12ee84-2583-459d-9326-b86b3d47bd92"},"vehicle_type_id":"4","last_reported":1757747280,"current_range_meters":6400,"station_id":"ce4bh012rcd13ifvqcv0","pricing_plan_id":"cebpf4jnsgd1na2vs0mg"},{"bike_id":"8e823669-a05c-4f14-a05f-6373bb94f16b","system_id":"levelo_inurba_marseille","lat":43.307288,"lon":5.372792,"is_reserved":false,"is_disabled":false,"rental_uris":{"android":"levelo://app?vid=8e823669-a05c-4f14-a05f-6373bb94f16b","ios":"levelo://app?vid=8e823669-a05c-4f14-a05f-6373bb94f16b"},"vehicle_type_id":"4","last_reported":1757747280,"current_range_meters":6400,"station_id":"","pricing_plan_id":"cebpf4jnsgd1na2vs0mg"},{"bike_id":"25b06ca6-59f6-4cab-9a2f-ece142030779","system_id":"levelo_inurba_marseille","lat":43.25076,"lon":5.39502,"is_reserved":false,"is_disabled":false,"rental_uris":{"android":"levelo://app?vid=25b06ca6-59f6-4cab-9a2f-ece142030779","ios":"levelo://app?vid=25b06ca6-59f6-4cab-9a2f-ece142030779"},"vehicle_type_id":"4","last_reported":1757747280,"current_range_meters":6400,"station_id":"ce4bhm12rcd13ifvqgkg","pricing_plan_id":"cebpf4jnsgd1na2vs0mg"},{"bike_id":"0a180902-13a6-4de2-a6fc-e04d96d9b351","system_id":"levelo_inurba_marseille","lat":43.28955,"lon":5.38426,"is_reserved":false,"is_disabled":true,"rental_uris":{"android":"levelo://app?vid=0a180902-13a6-4de2-a6fc-e04d96d9b351","ios":"levelo://app?vid=0a180902-13a6-4de2-a6fc-e04d96d9b351"},"vehicle_type_id":"4","last_reported":1757747280,"current_range_meters":6400,"station_id":"ce4bh612rcd13ifvqe6g","pricing_plan_id":"cebpf4jnsgd1na2vs0mg"},{"bike_id":"54868907-63ea-40a5-8f3a-4ac6edb4c05c","system_id":"levelo_inurba_marseille","lat":43.29184,"lon":5.37777,"is_reserved":false,"is_disabled":false,"rental_uris":{"android":"levelo://app?vid=54868907-63ea-40a5-8f3a-4ac6edb4c05c","ios":"levelo://app?vid=54868907-63ea-40a5-8f3a-4ac6edb4c05c"},"vehicle_type_id":"4","last_reported":1757747280,"current_range_meters":6400,"station_id":"","pricing_plan_id":"cebpf4jnsgd1na2vs0mg"},{"bike_id":"fe8d88d6-81c3-42a8-85bb-3d0aa4841db3","system_id":"levelo_inurba_marseille","lat":43.337444,"lon":5.374475,"is_reserved":false,"is_disabled":false,"rental_uris":{"android":"levelo://app?vid=fe8d88d6-81c3-42a8-85bb-3d0aa4841db3","ios":"levelo://app?vid=fe8d88d6-81c3-42a8-85bb-3d0aa4841db3"},"vehicle_type_id":"4","last_reported":1757747280,"current_range_meters":6400,"station_id":"","pricing_plan_id":"cebpf4jnsgd1na2vs0mg"},{"bike_id":"d1de2b7d-3583-4df3-8bfa-43eda5116068","system_id":"levelo_inurba_marseille","lat":43.3374,"lon":5.37468,"is_reserved":false,"is_disabled":false,"rental_uris":{"android":"levelo://app?vid=d1de2b7d-3583-4df3-8bfa-43eda5116068","ios":"levelo://app?vid=d1de2b7d-3583-4df3-8bfa-43eda5116068"},"vehicle_type_id":"4","last_reported":1757747280,"current_range_meters":6400,"station_id":"","pricing_plan_id":"cebpf4jnsgd1na2vs0mg"},{"bike_id":"d1208639-5703-4ac3-a303-6e72a5788218","system_id":"levelo_inurba_marseille","lat":43.33753,"lon":5.37475,"is_reserved":false,"is_disabled":false,"rental_uris":{"android":"levelo://app?vid=d1208639-5703-4ac3-a303-6e72a5788218","ios":"levelo://app?vid=d1208639-5703-4ac3-a303-6e72a5788218"},"vehicle_type_id":"4","last_reported":1757747280,"current_range_meters":6400,"station_id":"","pricing_plan_id":"cebpf4jnsgd1na2vs0mg"},{"bike_id":"999df056-799c-417e-807e-52608d0b797e","system_id":"levelo_inurba_marseille","lat":43.297101,"lon":5.377007,"is_reserved":false,"is_disabled":false,"rental_uris":{"android":"levelo://app?vid=999df056-799c-417e-807e-52608d0b797e","ios":"levelo://app?vid=999df056-799c-417e-807e-52608d0b797e"},"vehicle_type_id":"4","last_reported":1757747280,"current_range_meters":6800,"station_id":"","pricing_plan_id":"cebpf4jnsgd1na2vs0mg"},{"bike_id":"5a292930-92a9-468b-a446-4f40dfd975cb","system_id":"levelo_inurba_marseille","lat":43.25139,"lon":5.403304,"is_reserved":false,"is_disabled":false,"rental_uris":{"android":"levelo://app?vid=5a292930-92a9-468b-a446-4f40dfd975cb","ios":"levelo://app?vid=5a292930-92a9-468b-a446-4f40dfd975cb"},"vehicle_type_id":"4","last_reported":1757747280,"current_range_meters":6800,"station_id":"ce4bhlh2rcd13ifvqgig","pricing_plan_id":"cebpf4jnsgd1na2vs0mg"},{"bike_id":"f36f3ca3-42f9-44ec-b85d-26c7a536128a","system_id":"levelo_inurba_marseille","lat":43.27062,"lon":5.42273,"is_reserved":false,"is_disabled":false,"rental_uris":{"android":"levelo://app?vid=f36f3ca3-42f9-44ec-b85d-26c7a536128a","ios":"levelo://app?vid=f36f3ca3-42f9-44ec-b85d-26c7a536128a"},"vehicle_type_id":"4","last_reported":1757747280,"current_range_meters":6800,"station_id":"ce4bhk92rcd13ifvqgb0","pricing_plan_id":"cebpf4jnsgd1na2vs0mg"},{"bike_id":"af16c13a-6ac8-4e65-8443-a6d4f13969f1","system_id":"levelo_inurba_marseille","lat":43.29689,"lon":5.37282,"is_reserved":false,"is_disabled":false,"rental_uris":{"android":"levelo://app?vid=af16c13a-6ac8-4e65-8443-a6d4f13969f1","ios":"levelo://app?vid=af16c13a-6ac8-4e65-8443-a6d4f13969f1"},"vehicle_type_id":"4","last_reported":1757747280,"current_range_meters":6800,"station_id":"ce4bgk12rcd13ifvqbj0","pricing_plan_id":"cebpf4jnsgd1na2vs0mg"},{"bike_id":"15880fe2-2dd6-4418-ad49-0361975a9966","system_id":"levelo_inurba_marseille","lat":43.310773,"lon":5.38367,"is_reserved":false,"is_disabled":false,"rental_uris":{"android":"levelo://app?vid=15880fe2-2dd6-4418-ad49-0361975a9966","ios":"levelo://app?vid=15880fe2-2dd6-4418-ad49-0361975a9966"},"vehicle_type_id":"4","last_reported":1757747280,"current_range_meters":6800,"station_id":"ce4bgv92rcd13ifvqcr0","pricing_plan_id":"cebpf4jnsgd1na2vs0mg"},{"bike_id":"c89fe839-d3de-4199-ac15-6d473e8659f0","system_id":"levelo_inurba_marseille","lat":43.28101,"lon":5.37835,"is_reserved":false,"is_disabled":false,"rental_uris":{"android":"levelo://app?vid=c89fe839-d3de-4199-ac15-6d473e8659f0","ios":"levelo://app?vid=c89fe839-d3de-4199-ac15-6d473e8659f0"},"vehicle_type_id":"4","last_reported":1757747280,"current_range_meters":6800,"station_id":"ce4bha12rcd13ifvqee0","pricing_plan_id":"cebpf4jnsgd1na2vs0mg"},{"bike_id":"96e259ac-64d9-4cf7-81fe-9077e2e7bec8","system_id":"levelo_inurba_marseille","lat":43.29583,"lon":5.39967,"is_reserved":false,"is_disabled":true,"rental_uris":{"android":"levelo://app?vid=96e259ac-64d9-4cf7-81fe-9077e2e7bec8","ios":"levelo://app?vid=96e259ac-64d9-4cf7-81fe-9077e2e7bec8"},"vehicle_type_id":"4","last_reported":1757747280,"current_range_meters":7200,"station_id":"ce4bh312rcd13ifvqdj0","pricing_plan_id":"cebpf4jnsgd1na2vs0mg"},{"bike_id":"3770f718-4725-4847-95fb-880d044fede7","system_id":"levelo_inurba_marseille","lat":43.286977,"lon":5.399789,"is_reserved":false,"is_disabled":false,"rental_uris":{"android":"levelo://app?vid=3770f718-4725-4847-95fb-880d044fede7","ios":"levelo://app?vid=3770f718-4725-4847-95fb-880d044fede7"},"vehicle_type_id":"4","last_reported":1757747280,"current_range_meters":7200,"station_id":"ce4bho92rcd13ifvqh3g","pricing_plan_id":"cebpf4jnsgd1na2vs0mg"},{"bike_id":"966fccfb-edf5-45b0-8efd-ce67125d4a08","system_id":"levelo_inurba_marseille","lat":43.3003,"lon":5.37838,"is_reserved":false,"is_disabled":false,"rental_uris":{"android":"levelo://app?vid=966fccfb-edf5-45b0-8efd-ce67125d4a08","ios":"levelo://app?vid=966fccfb-edf5-45b0-8efd-ce67125d4a08"},"vehicle_type_id":"4","last_reported":1757747280,"current_range_meters":8000,"station_id":"","pricing_plan_id":"cebpf4jnsgd1na2vs0mg"},{"bike_id":"7db384a7-4267-4cd8-b9e7-7ca132b3d121","system_id":"levelo_inurba_marseille","lat":43.33885,"lon":5.3555,"is_reserved":false,"is_disabled":false,"rental_uris":{"android":"levelo://app?vid=7db384a7-4267-4cd8-b9e7-7ca132b3d121","ios":"levelo://app?vid=7db384a7-4267-4cd8-b9e7-7ca132b3d121"},"vehicle_type_id":"4","last_reported":1757747280,"current_range_meters":8000,"station_id":"","pricing_plan_id":"cebpf4jnsgd1na2vs0mg"},{"bike_id":"be9aca03-15e3-4c8f-924c-bd9c835f0f8f","system_id":"levelo_inurba_marseille","lat":43.23963,"lon":5.36634,"is_reserved":false,"is_disabled":false,"rental_uris":{"android":"levelo://app?vid=be9aca03-15e3-4c8f-924c-bd9c835f0f8f","ios":"levelo://app?vid=be9aca03-15e3-4c8f-924c-bd9c835f0f8f"},"vehicle_type_id":"4","last_reported":1757747280,"current_range_meters":8000,"station_id":"ce4bhi12rcd13ifvqfp0","pricing_plan_id":"cebpf4jnsgd1na2vs0mg"},{"bike_id":"afce0ce4-102b-4ac0-8e6a-1f528aea77b2","system_id":"levelo_inurba_marseille","lat":43.29273,"lon":5.38402,"is_reserved":false,"is_disabled":false,"rental_uris":{"android":"levelo://app?vid=afce0ce4-102b-4ac0-8e6a-1f528aea77b2","ios":"levelo://app?vid=afce0ce4-102b-4ac0-8e6a-1f528aea77b2"},"vehicle_type_id":"4","last_reported":1757747280,"current_range_meters":8000,"station_id":"ce4bh692rcd13ifvqea0","pricing_plan_id":"cebpf4jnsgd1na2vs0mg"},{"bike_id":"2e254a41-8b54-478b-b362-270d343fdf60","system_id":"levelo_inurba_marseille","lat":43.28933,"lon":5.3665,"is_reserved":false,"is_disabled":false,"rental_uris":{"android":"levelo://app?vid=2e254a41-8b54-478b-b362-270d343fdf60","ios":"levelo://app?vid=2e254a41-8b54-478b-b362-270d343fdf60"},"vehicle_type_id":"4","last_reported":1757747280,"current_range_meters":8000,"station_id":"ce4bhap2rcd13ifvqek0","pricing_plan_id":"cebpf4jnsgd1na2vs0mg"},{"bike_id":"5d0cd144-b10f-406c-80ec-f92f1626f000","system_id":"levelo_inurba_marseille","lat":43.30926,"lon":5.40161,"is_reserved":false,"is_disabled":false,"rental_uris":{"android":"levelo://app?vid=5d0cd144-b10f-406c-80ec-f92f1626f000","ios":"levelo://app?vid=5d0cd144-b10f-406c-80ec-f92f1626f000"},"vehicle_type_id":"4","last_reported":1757747280,"current_range_meters":8400,"station_id":"ce4bgvp2rcd13ifvqct0","pricing_plan_id":"cebpf4jnsgd1na2vs0mg"},{"bike_id":"ac568d9b-aa32-4551-90e7-9697d0dfd168","system_id":"levelo_inurba_marseille","lat":43.32332,"lon":5.367243,"is_reserved":false,"is_disabled":false,"rental_uris":{"android":"levelo://app?vid=ac568d9b-aa32-4551-90e7-9697d0dfd168","ios":"levelo://app?vid=ac568d9b-aa32-4551-90e7-9697d0dfd168"},"vehicle_type_id":"4","last_reported":1757747280,"current_range_meters":8400,"station_id":"ce4bhsh2rcd13ifvqi2g","pricing_plan_id":"cebpf4jnsgd1na2vs0mg"},{"bike_id":"799195ec-b884-46fa-8e8e-94f3a290a369","system_id":"levelo_inurba_marseille","lat":43.308646,"lon":5.396557,"is_reserved":false,"is_disabled":false,"rental_uris":{"android":"levelo://app?vid=799195ec-b884-46fa-8e8e-94f3a290a369","ios":"levelo://app?vid=799195ec-b884-46fa-8e8e-94f3a290a369"},"vehicle_type_id":"4","last_reported":1757747280,"current_range_meters":8400,"station_id":"ce4bh012rcd13ifvqcv0","pricing_plan_id":"cebpf4jnsgd1na2vs0mg"},{"bike_id":"a04909f0-8cf2-4881-9eb9-dc7d2fda7c17","system_id":"levelo_inurba_marseille","lat":43.28938,"lon":5.36365,"is_reserved":false,"is_disabled":false,"rental_uris":{"android":"levelo://app?vid=a04909f0-8cf2-4881-9eb9-dc7d2fda7c17","ios":"levelo://app?vid=a04909f0-8cf2-4881-9eb9-dc7d2fda7c17"},"vehicle_type_id":"4","last_reported":1757747280,"current_range_meters":8400,"station_id":"ce4bhc92rcd13ifvqetg","pricing_plan_id":"cebpf4jnsgd1na2vs0mg"},{"bike_id":"3744f56c-7cca-40c8-b6cd-134f3d931aa1","system_id":"levelo_inurba_marseille","lat":43.249537,"lon":5.405106,"is_reserved":false,"is_disabled":false,"rental_uris":{"android":"levelo://app?vid=3744f56c-7cca-40c8-b6cd-134f3d931aa1","ios":"levelo://app?vid=3744f56c-7cca-40c8-b6cd-134f3d931aa1"},"vehicle_type_id":"4","last_reported":1757747280,"current_range_meters":8400,"station_id":"st_d2ngiaodas8pm72gd1h0","pricing_plan_id":"cebpf4jnsgd1na2vs0mg"},{"bike_id":"eae656ae-9e8b-4fb1-962a-193ff4a95a65","system_id":"levelo_inurba_marseille","lat":43.30195,"lon":5.38089,"is_reserved":false,"is_disabled":false,"rental_uris":{"android":"levelo://app?vid=eae656ae-9e8b-4fb1-962a-193ff4a95a65","ios":"levelo://app?vid=eae656ae-9e8b-4fb1-962a-193ff4a95a65"},"vehicle_type_id":"4","last_reported":1757747280,"current_range_meters":8400,"station_id":"ce4bgjp2rcd13ifvqbh0","pricing_plan_id":"cebpf4jnsgd1na2vs0mg"},{"bike_id":"e5c8c08c-00c4-4390-8693-409e206118ae","system_id":"levelo_inurba_marseille","lat":43.28937,"lon":5.39624,"is_reserved":false,"is_disabled":false,"rental_uris":{"android":"levelo://app?vid=e5c8c08c-00c4-4390-8693-409e206118ae","ios":"levelo://app?vid=e5c8c08c-00c4-4390-8693-409e206118ae"},"vehicle_type_id":"4","last_reported":1757747280,"current_range_meters":8800,"station_id":"ce4bh3h2rcd13ifvqdn0","pricing_plan_id":"cebpf4jnsgd1na2vs0mg"},{"bike_id":"855d4688-4e9f-45f2-9d04-edf1011db44d","system_id":"levelo_inurba_marseille","lat":43.29785,"lon":5.38111,"is_reserved":false,"is_disabled":false,"rental_uris":{"android":"levelo://app?vid=855d4688-4e9f-45f2-9d04-edf1011db44d","ios":"levelo://app?vid=855d4688-4e9f-45f2-9d04-edf1011db44d"},"vehicle_type_id":"4","last_reported":1757747280,"current_range_meters":8800,"station_id":"ce4bgip2rcd13ifvqbb0","pricing_plan_id":"cebpf4jnsgd1na2vs0mg"},{"bike_id":"7474d631-da14-44c6-af0e-b1a867b3896c","system_id":"levelo_inurba_marseille","lat":43.24949,"lon":5.40491,"is_reserved":false,"is_disabled":false,"rental_uris":{"android":"levelo://app?vid=7474d631-da14-44c6-af0e-b1a867b3896c","ios":"levelo://app?vid=7474d631-da14-44c6-af0e-b1a867b3896c"},"vehicle_type_id":"4","last_reported":1757747280,"current_range_meters":8800,"station_id":"st_d2ngiaodas8pm72gd1h0","pricing_plan_id":"cebpf4jnsgd1na2vs0mg"},{"bike_id":"20882e73-389d-4f56-b0d8-7864fcf93d3c","system_id":"levelo_inurba_marseille","lat":43.28037,"lon":5.36948,"is_reserved":false,"is_disabled":false,"rental_uris":{"android":"levelo://app?vid=20882e73-389d-4f56-b0d8-7864fcf93d3c","ios":"levelo://app?vid=20882e73-389d-4f56-b0d8-7864fcf93d3c"},"vehicle_type_id":"4","last_reported":1757747280,"current_range_meters":8800,"station_id":"ce4bha12rcd13ifvqef0","pricing_plan_id":"cebpf4jnsgd1na2vs0mg"},{"bike_id":"069b0fee-af69-4958-a06e-d0bd95d527ee","system_id":"levelo_inurba_marseille","lat":43.211914,"lon":5.350748,"is_reserved":false,"is_disabled":false,"rental_uris":{"android":"levelo://app?vid=069b0fee-af69-4958-a06e-d0bd95d527ee","ios":"levelo://app?vid=069b0fee-af69-4958-a06e-d0bd95d527ee"},"vehicle_type_id":"4","last_reported":1757747280,"current_range_meters":8800,"station_id":"st_cvj6sg6p6f1abm77japg","pricing_plan_id":"cebpf4jnsgd1na2vs0mg"},{"bike_id":"7fa34ec0-a293-418f-bfd5-6e8a3d326e13","system_id":"levelo_inurba_marseille","lat":43.309955,"lon":5.375306,"is_reserved":false,"is_disabled":false,"rental_uris":{"android":"levelo://app?vid=7fa34ec0-a293-418f-bfd5-6e8a3d326e13","ios":"levelo://app?vid=7fa34ec0-a293-418f-bfd5-6e8a3d326e13"},"vehicle_type_id":"4","last_reported":1757747280,"current_range_meters":8800,"station_id":"","pricing_plan_id":"cebpf4jnsgd1na2vs0mg"},{"bike_id":"79119c90-deb5-4e4d-aa11-4cdffe585eb4","system_id":"levelo_inurba_marseille","lat":43.30148,"lon":5.38076,"is_reserved":false,"is_disabled":false,"rental_uris":{"android":"levelo://app?vid=79119c90-deb5-4e4d-aa11-4cdffe585eb4","ios":"levelo://app?vid=79119c90-deb5-4e4d-aa11-4cdffe585eb4"},"vehicle_type_id":"4","last_reported":1757747280,"current_range_meters":9200,"station_id":"ce4bgjp2rcd13ifvqbh0","pricing_plan_id":"cebpf4jnsgd1na2vs0mg"},{"bike_id":"68422fda-945c-402d-b886-a4fecef0c346","system_id":"levelo_inurba_marseille","lat":43.29185,"lon":5.37193,"is_reserved":false,"is_disabled":true,"rental_uris":{"android":"levelo://app?vid=68422fda-945c-402d-b886-a4fecef0c346","ios":"levelo://app?vid=68422fda-945c-402d-b886-a4fecef0c346"},"vehicle_type_id":"4","last_reported":1757747280,"current_range_meters":9200,"station_id":"ce4bha92rcd13ifvqeh0","pricing_plan_id":"cebpf4jnsgd1na2vs0mg"},{"bike_id":"51e9eeea-270a-4052-ae23-1c52965089f9","system_id":"levelo_inurba_marseille","lat":43.306687,"lon":5.400716,"is_reserved":false,"is_disabled":false,"rental_uris":{"android":"levelo://app?vid=51e9eeea-270a-4052-ae23-1c52965089f9","ios":"levelo://app?vid=51e9eeea-270a-4052-ae23-1c52965089f9"},"vehicle_type_id":"4","last_reported":1757747280,"current_range_meters":9200,"station_id":"ce4bh112rcd13ifvqda0","pricing_plan_id":"cebpf4jnsgd1na2vs0mg"},{"bike_id":"0e0c8dec-1a42-46dd-bb35-7088192ded70","system_id":"levelo_inurba_marseille","lat":43.29711,"lon":5.3715,"is_reserved":false,"is_disabled":false,"rental_uris":{"android":"levelo://app?vid=0e0c8dec-1a42-46dd-bb35-7088192ded70","ios":"levelo://app?vid=0e0c8dec-1a42-46dd-bb35-7088192ded70"},"vehicle_type_id":"4","last_reported":1757747280,"current_range_meters":9600,"station_id":"","pricing_plan_id":"cebpf4jnsgd1na2vs0mg"},{"bike_id":"e77461fd-9a53-40b2-b8aa-bd1c93db50c1","system_id":"levelo_inurba_marseille","lat":43.32353,"lon":5.38174,"is_reserved":false,"is_disabled":false,"rental_uris":{"android":"levelo://app?vid=e77461fd-9a53-40b2-b8aa-bd1c93db50c1","ios":"levelo://app?vid=e77461fd-9a53-40b2-b8aa-bd1c93db50c1"},"vehicle_type_id":"4","last_reported":1757747280,"current_range_meters":9600,"station_id":"","pricing_plan_id":"cebpf4jnsgd1na2vs0mg"},{"bike_id":"3bd595b7-af3b-43b1-8697-1bcb2a61af6f","system_id":"levelo_inurba_marseille","lat":43.27995,"lon":5.40026,"is_reserved":false,"is_disabled":true,"rental_uris":{"android":"levelo://app?vid=3bd595b7-af3b-43b1-8697-1bcb2a61af6f","ios":"levelo://app?vid=3bd595b7-af3b-43b1-8697-1bcb2a61af6f"},"vehicle_type_id":"4","last_reported":1757747280,"current_range_meters":9600,"station_id":"ce4bho92rcd13ifvqh4g","pricing_plan_id":"cebpf4jnsgd1na2vs0mg"},{"bike_id":"90bff353-82c7-441a-9eff-f25eb8d012b8","system_id":"levelo_inurba_marseille","lat":43.24946,"lon":5.40496,"is_reserved":false,"is_disabled":false,"rental_uris":{"android":"levelo://app?vid=90bff353-82c7-441a-9eff-f25eb8d012b8","ios":"levelo://app?vid=90bff353-82c7-441a-9eff-f25eb8d012b8"},"vehicle_type_id":"4","last_reported":1757747280,"current_range_meters":9600,"station_id":"st_d2ngiaodas8pm72gd1h0","pricing_plan_id":"cebpf4jnsgd1na2vs0mg"},{"bike_id":"8d156254-22bc-4e70-b344-be1b38d6ced7","system_id":"levelo_inurba_marseille","lat":43.31343,"lon":5.39749,"is_reserved":false,"is_disabled":false,"rental_uris":{"android":"levelo://app?vid=8d156254-22bc-4e70-b344-be1b38d6ced7","ios":"levelo://app?vid=8d156254-22bc-4e70-b344-be1b38d6ced7"},"vehicle_type_id":"4","last_reported":1757747280,"current_range_meters":9600,"station_id":"","pricing_plan_id":"cebpf4jnsgd1na2vs0mg"},{"bike_id":"7283f511-322a-43c1-aa27-0111315bc0d3","system_id":"levelo_inurba_marseille","lat":43.231942,"lon":5.355563,"is_reserved":false,"is_disabled":false,"rental_uris":{"android":"levelo://app?vid=7283f511-322a-43c1-aa27-0111315bc0d3","ios":"levelo://app?vid=7283f511-322a-43c1-aa27-0111315bc0d3"},"vehicle_type_id":"4","last_reported":1757747280,"current_range_meters":10000,"station_id":"ce4bhu92rcd13ifvqi70","pricing_plan_id":"cebpf4jnsgd1na2vs0mg"},{"bike_id":"5f2c0397-404f-46d4-b455-199285197a5d","system_id":"levelo_inurba_marseille","lat":43.2465,"lon":5.43131,"is_reserved":false,"is_disabled":false,"rental_uris":{"android":"levelo://app?vid=5f2c0397-404f-46d4-b455-199285197a5d","ios":"levelo://app?vid=5f2c0397-404f-46d4-b455-199285197a5d"},"vehicle_type_id":"4","last_reported":1757747280,"current_range_meters":10000,"station_id":"st_d2m6c4gdas8pm72e190g","pricing_plan_id":"cebpf4jnsgd1na2vs0mg"},{"bike_id":"abcd2d8c-c258-49f9-a065-bdd280dc3442","system_id":"levelo_inurba_marseille","lat":43.30422,"lon":5.39752,"is_reserved":false,"is_disabled":false,"rental_uris":{"android":"levelo://app?vid=abcd2d8c-c258-49f9-a065-bdd280dc3442","ios":"levelo://app?vid=abcd2d8c-c258-49f9-a065-bdd280dc3442"},"vehicle_type_id":"4","last_reported":1757747280,"current_range_meters":10000,"station_id":"ce4bh092rcd13ifvqd20","pricing_plan_id":"cebpf4jnsgd1na2vs0mg"},{"bike_id":"b677a153-860e-4df8-a1f6-19f0a9d140a7","system_id":"levelo_inurba_marseille","lat":43.30156,"lon":5.38089,"is_reserved":false,"is_disabled":false,"rental_uris":{"android":"levelo://app?vid=b677a153-860e-4df8-a1f6-19f0a9d140a7","ios":"levelo://app?vid=b677a153-860e-4df8-a1f6-19f0a9d140a7"},"vehicle_type_id":"4","last_reported":1757747280,"current_range_meters":10000,"station_id":"ce4bgjp2rcd13ifvqbh0","pricing_plan_id":"cebpf4jnsgd1na2vs0mg"},{"bike_id":"650ea3da-ed87-45a8-a967-2473f6cb529b","system_id":"levelo_inurba_marseille","lat":43.29636,"lon":5.40614,"is_reserved":false,"is_disabled":false,"rental_uris":{"android":"levelo://app?vid=650ea3da-ed87-45a8-a967-2473f6cb529b","ios":"levelo://app?vid=650ea3da-ed87-45a8-a967-2473f6cb529b"},"vehicle_type_id":"4","last_reported":1757747280,"current_range_meters":10000,"station_id":"ce4bh0h2rcd13ifvqd60","pricing_plan_id":"cebpf4jnsgd1na2vs0mg"},{"bike_id":"87d40452-5d2d-45aa-b97e-8a4e7bb5535a","system_id":"levelo_inurba_marseille","lat":43.3169,"lon":5.40476,"is_reserved":false,"is_disabled":false,"rental_uris":{"android":"levelo://app?vid=87d40452-5d2d-45aa-b97e-8a4e7bb5535a","ios":"levelo://app?vid=87d40452-5d2d-45aa-b97e-8a4e7bb5535a"},"vehicle_type_id":"4","last_reported":1757747280,"current_range_meters":10000,"station_id":"ce4bh012rcd13ifvqd00","pricing_plan_id":"cebpf4jnsgd1na2vs0mg"},{"bike_id":"972b4c5f-3a00-4bb2-9116-b81f2cecc9f2","system_id":"levelo_inurba_marseille","lat":43.33764,"lon":5.37483,"is_reserved":false,"is_disabled":false,"rental_uris":{"android":"levelo://app?vid=972b4c5f-3a00-4bb2-9116-b81f2cecc9f2","ios":"levelo://app?vid=972b4c5f-3a00-4bb2-9116-b81f2cecc9f2"},"vehicle_type_id":"4","last_reported":1757747280,"current_range_meters":10000,"station_id":"","pricing_plan_id":"cebpf4jnsgd1na2vs0mg"},{"bike_id":"32fcfe27-9e6b-472f-b15f-1f97904444ae","system_id":"levelo_inurba_marseille","lat":43.23178,"lon":5.43716,"is_reserved":false,"is_disabled":false,"rental_uris":{"android":"levelo://app?vid=32fcfe27-9e6b-472f-b15f-1f97904444ae","ios":"levelo://app?vid=32fcfe27-9e6b-472f-b15f-1f97904444ae"},"vehicle_type_id":"4","last_reported":1757747280,"current_range_meters":10000,"station_id":"ce4bhmp2rcd13ifvqgog","pricing_plan_id":"cebpf4jnsgd1na2vs0mg"},{"bike_id":"8a7bc743-c542-4527-b1bd-d1fa66e8e6f8","system_id":"levelo_inurba_marseille","lat":43.3014,"lon":5.37416,"is_reserved":false,"is_disabled":false,"rental_uris":{"android":"levelo://app?vid=8a7bc743-c542-4527-b1bd-d1fa66e8e6f8","ios":"levelo://app?vid=8a7bc743-c542-4527-b1bd-d1fa66e8e6f8"},"vehicle_type_id":"4","last_reported":1757747280,"current_range_meters":10800,"station_id":"ce4bgs92rcd13ifvqcc0","pricing_plan_id":"cebpf4jnsgd1na2vs0mg"},{"bike_id":"f4c73375-56c8-4d6b-a64c-003996b01c55","system_id":"levelo_inurba_marseille","lat":43.29259,"lon":5.40917,"is_reserved":false,"is_disabled":false,"rental_uris":{"android":"levelo://app?vid=f4c73375-56c8-4d6b-a64c-003996b01c55","ios":"levelo://app?vid=f4c73375-56c8-4d6b-a64c-003996b01c55"},"vehicle_type_id":"4","last_reported":1757747280,"current_range_meters":10800,"station_id":"ce4bh192rcd13ifvqdc0","pricing_plan_id":"cebpf4jnsgd1na2vs0mg"},{"bike_id":"f4b2dfd1-c03e-48bc-85ee-76afe2a44f28","system_id":"levelo_inurba_marseille","lat":43.30141,"lon":5.38083,"is_reserved":false,"is_disabled":false,"rental_uris":{"android":"levelo://app?vid=f4b2dfd1-c03e-48bc-85ee-76afe2a44f28","ios":"levelo://app?vid=f4b2dfd1-c03e-48bc-85ee-76afe2a44f28"},"vehicle_type_id":"4","last_reported":1757747280,"current_range_meters":10800,"station_id":"ce4bgjp2rcd13ifvqbh0","pricing_plan_id":"cebpf4jnsgd1na2vs0mg"},{"bike_id":"b558f3d9-0976-438a-9dec-f10977a5d937","system_id":"levelo_inurba_marseille","lat":43.260653,"lon":5.393891,"is_reserved":false,"is_disabled":false,"rental_uris":{"android":"levelo://app?vid=b558f3d9-0976-438a-9dec-f10977a5d937","ios":"levelo://app?vid=b558f3d9-0976-438a-9dec-f10977a5d937"},"vehicle_type_id":"4","last_reported":1757747280,"current_range_meters":10800,"station_id":"ce4bhh92rcd13ifvqfj0","pricing_plan_id":"cebpf4jnsgd1na2vs0mg"},{"bike_id":"d1a2d227-a72b-48f9-803e-12a9db38892f","system_id":"levelo_inurba_marseille","lat":43.307654,"lon":5.370919,"is_reserved":false,"is_disabled":false,"rental_uris":{"android":"levelo://app?vid=d1a2d227-a72b-48f9-803e-12a9db38892f","ios":"levelo://app?vid=d1a2d227-a72b-48f9-803e-12a9db38892f"},"vehicle_type_id":"4","last_reported":1757747280,"current_range_meters":11200,"station_id":"","pricing_plan_id":"cebpf4jnsgd1na2vs0mg"},{"bike_id":"0f25d523-7df0-46a9-a7c6-e984fe228d86","system_id":"levelo_inurba_marseille","lat":43.29538,"lon":5.38544,"is_reserved":false,"is_disabled":true,"rental_uris":{"android":"levelo://app?vid=0f25d523-7df0-46a9-a7c6-e984fe228d86","ios":"levelo://app?vid=0f25d523-7df0-46a9-a7c6-e984fe228d86"},"vehicle_type_id":"4","last_reported":1757747280,"current_range_meters":11200,"station_id":"ce4bgih2rcd13ifvqba0","pricing_plan_id":"cebpf4jnsgd1na2vs0mg"},{"bike_id":"efa41bb1-3310-4c1b-b08b-8ce62c8e424b","system_id":"levelo_inurba_marseille","lat":43.27067,"lon":5.42283,"is_reserved":false,"is_disabled":false,"rental_uris":{"android":"levelo://app?vid=efa41bb1-3310-4c1b-b08b-8ce62c8e424b","ios":"levelo://app?vid=efa41bb1-3310-4c1b-b08b-8ce62c8e424b"},"vehicle_type_id":"4","last_reported":1757747280,"current_range_meters":11200,"station_id":"ce4bhk92rcd13ifvqgb0","pricing_plan_id":"cebpf4jnsgd1na2vs0mg"},{"bike_id":"92f19319-f485-4a8f-bbcf-8e354baa2dbd","system_id":"levelo_inurba_marseille","lat":43.286143,"lon":5.351079,"is_reserved":false,"is_disabled":false,"rental_uris":{"android":"levelo://app?vid=92f19319-f485-4a8f-bbcf-8e354baa2dbd","ios":"levelo://app?vid=92f19319-f485-4a8f-bbcf-8e354baa2dbd"},"vehicle_type_id":"4","last_reported":1757747280,"current_range_meters":11200,"station_id":"ce4bhbh2rcd13ifvqeo0","pricing_plan_id":"cebpf4jnsgd1na2vs0mg"},{"bike_id":"77c523f3-8f56-49d7-9596-1b54b067c4ba","system_id":"levelo_inurba_marseille","lat":43.28173,"lon":5.42649,"is_reserved":false,"is_disabled":false,"rental_uris":{"android":"levelo://app?vid=77c523f3-8f56-49d7-9596-1b54b067c4ba","ios":"levelo://app?vid=77c523f3-8f56-49d7-9596-1b54b067c4ba"},"vehicle_type_id":"4","last_reported":1757747280,"current_range_meters":11200,"station_id":"ce4bhnh2rcd13ifvqgug","pricing_plan_id":"cebpf4jnsgd1na2vs0mg"},{"bike_id":"ced5462d-ee0d-4d22-a76c-c1aecf6c99da","system_id":"levelo_inurba_marseille","lat":43.24393,"lon":5.37064,"is_reserved":false,"is_disabled":false,"rental_uris":{"android":"levelo://app?vid=ced5462d-ee0d-4d22-a76c-c1aecf6c99da","ios":"levelo://app?vid=ced5462d-ee0d-4d22-a76c-c1aecf6c99da"},"vehicle_type_id":"4","last_reported":1757747280,"current_range_meters":11200,"station_id":"ce4bhhh2rcd13ifvqfk0","pricing_plan_id":"cebpf4jnsgd1na2vs0mg"},{"bike_id":"775af279-8ac9-4585-9121-809be9b13265","system_id":"levelo_inurba_marseille","lat":43.337775,"lon":5.374412,"is_reserved":false,"is_disabled":false,"rental_uris":{"android":"levelo://app?vid=775af279-8ac9-4585-9121-809be9b13265","ios":"levelo://app?vid=775af279-8ac9-4585-9121-809be9b13265"},"vehicle_type_id":"4","last_reported":1757747280,"current_range_meters":11600,"station_id":"","pricing_plan_id":"cebpf4jnsgd1na2vs0mg"},{"bike_id":"985c4f56-c378-4f55-b5bf-d2ba1346b657","system_id":"levelo_inurba_marseille","lat":43.28916,"lon":5.38405,"is_reserved":false,"is_disabled":true,"rental_uris":{"android":"levelo://app?vid=985c4f56-c378-4f55-b5bf-d2ba1346b657","ios":"levelo://app?vid=985c4f56-c378-4f55-b5bf-d2ba1346b657"},"vehicle_type_id":"4","last_reported":1757747280,"current_range_meters":11600,"station_id":"ce4bh612rcd13ifvqe6g","pricing_plan_id":"cebpf4jnsgd1na2vs0mg"},{"bike_id":"a9dd239d-c821-4547-a71f-93364a17f0be","system_id":"levelo_inurba_marseille","lat":43.24668,"lon":5.38159,"is_reserved":false,"is_disabled":false,"rental_uris":{"android":"levelo://app?vid=a9dd239d-c821-4547-a71f-93364a17f0be","ios":"levelo://app?vid=a9dd239d-c821-4547-a71f-93364a17f0be"},"vehicle_type_id":"4","last_reported":1757747280,"current_range_meters":11600,"station_id":"ce4bhih2rcd13ifvqfr0","pricing_plan_id":"cebpf4jnsgd1na2vs0mg"},{"bike_id":"4266b374-d4bf-4fd2-bb94-51b2d7d40946","system_id":"levelo_inurba_marseille","lat":43.22565,"lon":5.41637,"is_reserved":false,"is_disabled":false,"rental_uris":{"android":"levelo://app?vid=4266b374-d4bf-4fd2-bb94-51b2d7d40946","ios":"levelo://app?vid=4266b374-d4bf-4fd2-bb94-51b2d7d40946"},"vehicle_type_id":"4","last_reported":1757747280,"current_range_meters":11600,"station_id":"st_d2o4gvlbi1j2169b742g","pricing_plan_id":"cebpf4jnsgd1na2vs0mg"},{"bike_id":"9ea214cd-c5f8-441b-9338-7fcf595de156","system_id":"levelo_inurba_marseille","lat":43.211949,"lon":5.350662,"is_reserved":false,"is_disabled":false,"rental_uris":{"android":"levelo://app?vid=9ea214cd-c5f8-441b-9338-7fcf595de156","ios":"levelo://app?vid=9ea214cd-c5f8-441b-9338-7fcf595de156"},"vehicle_type_id":"4","last_reported":1757747280,"current_range_meters":12000,"station_id":"st_cvj6sg6p6f1abm77japg","pricing_plan_id":"cebpf4jnsgd1na2vs0mg"},{"bike_id":"53f10107-b156-4409-8459-04eec8976b56","system_id":"levelo_inurba_marseille","lat":43.31122,"lon":5.37786,"is_reserved":false,"is_disabled":false,"rental_uris":{"android":"levelo://app?vid=53f10107-b156-4409-8459-04eec8976b56","ios":"levelo://app?vid=53f10107-b156-4409-8459-04eec8976b56"},"vehicle_type_id":"4","last_reported":1757747280,"current_range_meters":12000,"station_id":"ce4bgt92rcd13ifvqcg0","pricing_plan_id":"cebpf4jnsgd1na2vs0mg"},{"bike_id":"50c1903d-ab01-40a9-b508-9d8175c268e3","system_id":"levelo_inurba_marseille","lat":43.30461,"lon":5.37907,"is_reserved":false,"is_disabled":false,"rental_uris":{"android":"levelo://app?vid=50c1903d-ab01-40a9-b508-9d8175c268e3","ios":"levelo://app?vid=50c1903d-ab01-40a9-b508-9d8175c268e3"},"vehicle_type_id":"4","last_reported":1757747280,"current_range_meters":12000,"station_id":"ce4bgup2rcd13ifvqcn0","pricing_plan_id":"cebpf4jnsgd1na2vs0mg"},{"bike_id":"ea48e056-8815-438d-8ab2-91584e8db843","system_id":"levelo_inurba_marseille","lat":43.30604,"lon":5.37226,"is_reserved":false,"is_disabled":false,"rental_uris":{"android":"levelo://app?vid=ea48e056-8815-438d-8ab2-91584e8db843","ios":"levelo://app?vid=ea48e056-8815-438d-8ab2-91584e8db843"},"vehicle_type_id":"4","last_reported":1757747280,"current_range_meters":12000,"station_id":"ce4bgqh2rcd13ifvqc4g","pricing_plan_id":"cebpf4jnsgd1na2vs0mg"},{"bike_id":"f24cd637-2a13-4120-b81f-882de2ef79b6","system_id":"levelo_inurba_marseille","lat":43.309307,"lon":5.40146,"is_reserved":false,"is_disabled":false,"rental_uris":{"android":"levelo://app?vid=f24cd637-2a13-4120-b81f-882de2ef79b6","ios":"levelo://app?vid=f24cd637-2a13-4120-b81f-882de2ef79b6"},"vehicle_type_id":"4","last_reported":1757747280,"current_range_meters":12000,"station_id":"ce4bgvp2rcd13ifvqct0","pricing_plan_id":"cebpf4jnsgd1na2vs0mg"},{"bike_id":"b2aeb6a5-74a2-46fb-ba9a-314058d95425","system_id":"levelo_inurba_marseille","lat":43.231947,"lon":5.355484,"is_reserved":false,"is_disabled":false,"rental_uris":{"android":"levelo://app?vid=b2aeb6a5-74a2-46fb-ba9a-314058d95425","ios":"levelo://app?vid=b2aeb6a5-74a2-46fb-ba9a-314058d95425"},"vehicle_type_id":"4","last_reported":1757747280,"current_range_meters":12000,"station_id":"ce4bhu92rcd13ifvqi70","pricing_plan_id":"cebpf4jnsgd1na2vs0mg"},{"bike_id":"49672130-5e5d-4bd8-b10c-10c3bec7a880","system_id":"levelo_inurba_marseille","lat":43.35016,"lon":5.35049,"is_reserved":false,"is_disabled":false,"rental_uris":{"android":"levelo://app?vid=49672130-5e5d-4bd8-b10c-10c3bec7a880","ios":"levelo://app?vid=49672130-5e5d-4bd8-b10c-10c3bec7a880"},"vehicle_type_id":"4","last_reported":1757747280,"current_range_meters":12400,"station_id":"","pricing_plan_id":"cebpf4jnsgd1na2vs0mg"},{"bike_id":"bcb29bc0-e4ef-4edd-92d8-9da23bdbe30c","system_id":"levelo_inurba_marseille","lat":43.2998,"lon":5.38498,"is_reserved":false,"is_disabled":false,"rental_uris":{"android":"levelo://app?vid=bcb29bc0-e4ef-4edd-92d8-9da23bdbe30c","ios":"levelo://app?vid=bcb29bc0-e4ef-4edd-92d8-9da23bdbe30c"},"vehicle_type_id":"4","last_reported":1757747280,"current_range_meters":12400,"station_id":"ce4bgj92rcd13ifvqbd0","pricing_plan_id":"cebpf4jnsgd1na2vs0mg"},{"bike_id":"a24c4696-920b-4645-847f-87e0b46915a6","system_id":"levelo_inurba_marseille","lat":43.324283,"lon":5.424903,"is_reserved":false,"is_disabled":false,"rental_uris":{"android":"levelo://app?vid=a24c4696-920b-4645-847f-87e0b46915a6","ios":"levelo://app?vid=a24c4696-920b-4645-847f-87e0b46915a6"},"vehicle_type_id":"4","last_reported":1757747280,"current_range_meters":12400,"station_id":"","pricing_plan_id":"cebpf4jnsgd1na2vs0mg"},{"bike_id":"1ba2be1e-b865-42fa-b3db-53ab36f461a1","system_id":"levelo_inurba_marseille","lat":43.3046,"lon":5.37905,"is_reserved":false,"is_disabled":false,"rental_uris":{"android":"levelo://app?vid=1ba2be1e-b865-42fa-b3db-53ab36f461a1","ios":"levelo://app?vid=1ba2be1e-b865-42fa-b3db-53ab36f461a1"},"vehicle_type_id":"4","last_reported":1757747280,"current_range_meters":12400,"station_id":"ce4bgup2rcd13ifvqcn0","pricing_plan_id":"cebpf4jnsgd1na2vs0mg"},{"bike_id":"6515536f-56de-4109-b7a1-24c742aed225","system_id":"levelo_inurba_marseille","lat":43.320225,"lon":5.372296,"is_reserved":false,"is_disabled":false,"rental_uris":{"android":"levelo://app?vid=6515536f-56de-4109-b7a1-24c742aed225","ios":"levelo://app?vid=6515536f-56de-4109-b7a1-24c742aed225"},"vehicle_type_id":"4","last_reported":1757747280,"current_range_meters":12400,"station_id":"","pricing_plan_id":"cebpf4jnsgd1na2vs0mg"},{"bike_id":"9fdce098-492a-40f9-ae29-95caf53fef79","system_id":"levelo_inurba_marseille","lat":43.32701,"lon":5.3917,"is_reserved":false,"is_disabled":false,"rental_uris":{"android":"levelo://app?vid=9fdce098-492a-40f9-ae29-95caf53fef79","ios":"levelo://app?vid=9fdce098-492a-40f9-ae29-95caf53fef79"},"vehicle_type_id":"4","last_reported":1757747280,"current_range_meters":12400,"station_id":"","pricing_plan_id":"cebpf4jnsgd1na2vs0mg"},{"bike_id":"7f696ba1-833f-412e-8b5d-d4d815a574fc","system_id":"levelo_inurba_marseille","lat":43.298315,"lon":5.371529,"is_reserved":false,"is_disabled":false,"rental_uris":{"android":"levelo://app?vid=7f696ba1-833f-412e-8b5d-d4d815a574fc","ios":"levelo://app?vid=7f696ba1-833f-412e-8b5d-d4d815a574fc"},"vehicle_type_id":"4","last_reported":1757747280,"current_range_meters":12400,"station_id":"","pricing_plan_id":"cebpf4jnsgd1na2vs0mg"},{"bike_id":"c3ef1d19-6e61-42ec-a85b-5f65fadbb4be","system_id":"levelo_inurba_marseille","lat":43.2962,"lon":5.37172,"is_reserved":false,"is_disabled":false,"rental_uris":{"android":"levelo://app?vid=c3ef1d19-6e61-42ec-a85b-5f65fadbb4be","ios":"levelo://app?vid=c3ef1d19-6e61-42ec-a85b-5f65fadbb4be"},"vehicle_type_id":"4","last_reported":1757747280,"current_range_meters":12400,"station_id":"ce4bgnh2rcd13ifvqc0g","pricing_plan_id":"cebpf4jnsgd1na2vs0mg"},{"bike_id":"f24676c2-f465-43d7-900d-92eae19384f8","system_id":"levelo_inurba_marseille","lat":43.29952,"lon":5.38486,"is_reserved":false,"is_disabled":false,"rental_uris":{"android":"levelo://app?vid=f24676c2-f465-43d7-900d-92eae19384f8","ios":"levelo://app?vid=f24676c2-f465-43d7-900d-92eae19384f8"},"vehicle_type_id":"4","last_reported":1757747280,"current_range_meters":12800,"station_id":"ce4bgj92rcd13ifvqbd0","pricing_plan_id":"cebpf4jnsgd1na2vs0mg"},{"bike_id":"a8200689-d7b2-4d2e-b5a2-52cc95231e31","system_id":"levelo_inurba_marseille","lat":43.241662,"lon":5.363908,"is_reserved":false,"is_disabled":false,"rental_uris":{"android":"levelo://app?vid=a8200689-d7b2-4d2e-b5a2-52cc95231e31","ios":"levelo://app?vid=a8200689-d7b2-4d2e-b5a2-52cc95231e31"},"vehicle_type_id":"4","last_reported":1757747280,"current_range_meters":12800,"station_id":"cpo36qri1sfpv3e86is0","pricing_plan_id":"cebpf4jnsgd1na2vs0mg"},{"bike_id":"468b29b7-c0e4-4fb5-98d3-7139e8424f60","system_id":"levelo_inurba_marseille","lat":43.321092,"lon":5.367989,"is_reserved":false,"is_disabled":false,"rental_uris":{"android":"levelo://app?vid=468b29b7-c0e4-4fb5-98d3-7139e8424f60","ios":"levelo://app?vid=468b29b7-c0e4-4fb5-98d3-7139e8424f60"},"vehicle_type_id":"4","last_reported":1757747280,"current_range_meters":12800,"station_id":"ce4bhrh2rcd13ifvqhug","pricing_plan_id":"cebpf4jnsgd1na2vs0mg"},{"bike_id":"858374bb-59c5-4ecc-9916-a26e9e545707","system_id":"levelo_inurba_marseille","lat":43.25399,"lon":5.41909,"is_reserved":false,"is_disabled":false,"rental_uris":{"android":"levelo://app?vid=858374bb-59c5-4ecc-9916-a26e9e545707","ios":"levelo://app?vid=858374bb-59c5-4ecc-9916-a26e9e545707"},"vehicle_type_id":"4","last_reported":1757747280,"current_range_meters":12800,"station_id":"","pricing_plan_id":"cebpf4jnsgd1na2vs0mg"},{"bike_id":"7650a074-bf1c-46f9-a956-be6537254832","system_id":"levelo_inurba_marseille","lat":43.23134,"lon":5.43734,"is_reserved":false,"is_disabled":false,"rental_uris":{"android":"levelo://app?vid=7650a074-bf1c-46f9-a956-be6537254832","ios":"levelo://app?vid=7650a074-bf1c-46f9-a956-be6537254832"},"vehicle_type_id":"4","last_reported":1757747280,"current_range_meters":12800,"station_id":"ce4bhmp2rcd13ifvqgog","pricing_plan_id":"cebpf4jnsgd1na2vs0mg"},{"bike_id":"afa5b270-1b82-4b90-8fe4-7ae439ce006b","system_id":"levelo_inurba_marseille","lat":43.279871,"lon":5.416593,"is_reserved":false,"is_disabled":false,"rental_uris":{"android":"levelo://app?vid=afa5b270-1b82-4b90-8fe4-7ae439ce006b","ios":"levelo://app?vid=afa5b270-1b82-4b90-8fe4-7ae439ce006b"},"vehicle_type_id":"4","last_reported":1757747280,"current_range_meters":12800,"station_id":"ce4bho12rcd13ifvqh1g","pricing_plan_id":"cebpf4jnsgd1na2vs0mg"},{"bike_id":"77144e18-7296-45b8-8964-6871aee1d9a2","system_id":"levelo_inurba_marseille","lat":43.29568,"lon":5.39986,"is_reserved":false,"is_disabled":false,"rental_uris":{"android":"levelo://app?vid=77144e18-7296-45b8-8964-6871aee1d9a2","ios":"levelo://app?vid=77144e18-7296-45b8-8964-6871aee1d9a2"},"vehicle_type_id":"4","last_reported":1757747280,"current_range_meters":12800,"station_id":"ce4bh312rcd13ifvqdj0","pricing_plan_id":"cebpf4jnsgd1na2vs0mg"},{"bike_id":"eb63930d-877a-441f-b341-64b2d52383d4","system_id":"levelo_inurba_marseille","lat":43.330303,"lon":5.39073,"is_reserved":false,"is_disabled":true,"rental_uris":{"android":"levelo://app?vid=eb63930d-877a-441f-b341-64b2d52383d4","ios":"levelo://app?vid=eb63930d-877a-441f-b341-64b2d52383d4"},"vehicle_type_id":"4","last_reported":1757747280,"current_range_meters":12800,"station_id":"ce4bhr92rcd13ifvqhrg","pricing_plan_id":"cebpf4jnsgd1na2vs0mg"},{"bike_id":"10dfb71d-b4fe-4c66-9e42-a774a54e4626","system_id":"levelo_inurba_marseille","lat":43.251177,"lon":5.403294,"is_reserved":false,"is_disabled":false,"rental_uris":{"android":"levelo://app?vid=10dfb71d-b4fe-4c66-9e42-a774a54e4626","ios":"levelo://app?vid=10dfb71d-b4fe-4c66-9e42-a774a54e4626"},"vehicle_type_id":"4","last_reported":1757747280,"current_range_meters":12800,"station_id":"ce4bhlh2rcd13ifvqgig","pricing_plan_id":"cebpf4jnsgd1na2vs0mg"},{"bike_id":"87b66328-2dfb-4005-b4e3-b1beae9a9a65","system_id":"levelo_inurba_marseille","lat":43.30929,"lon":5.40165,"is_reserved":false,"is_disabled":false,"rental_uris":{"android":"levelo://app?vid=87b66328-2dfb-4005-b4e3-b1beae9a9a65","ios":"levelo://app?vid=87b66328-2dfb-4005-b4e3-b1beae9a9a65"},"vehicle_type_id":"4","last_reported":1757747280,"current_range_meters":13600,"station_id":"ce4bgvp2rcd13ifvqct0","pricing_plan_id":"cebpf4jnsgd1na2vs0mg"},{"bike_id":"d987f56d-76e3-4f7b-9b84-5022d38036d0","system_id":"levelo_inurba_marseille","lat":43.25338,"lon":5.42185,"is_reserved":false,"is_disabled":false,"rental_uris":{"android":"levelo://app?vid=d987f56d-76e3-4f7b-9b84-5022d38036d0","ios":"levelo://app?vid=d987f56d-76e3-4f7b-9b84-5022d38036d0"},"vehicle_type_id":"4","last_reported":1757747280,"current_range_meters":13600,"station_id":"st_d2m65c5bi1j21697t3ng","pricing_plan_id":"cebpf4jnsgd1na2vs0mg"},{"bike_id":"85e137ee-ba02-4875-8407-865445509c75","system_id":"levelo_inurba_marseille","lat":43.28162,"lon":5.42627,"is_reserved":false,"is_disabled":true,"rental_uris":{"android":"levelo://app?vid=85e137ee-ba02-4875-8407-865445509c75","ios":"levelo://app?vid=85e137ee-ba02-4875-8407-865445509c75"},"vehicle_type_id":"4","last_reported":1757747280,"current_range_meters":13600,"station_id":"ce4bhnh2rcd13ifvqgug","pricing_plan_id":"cebpf4jnsgd1na2vs0mg"},{"bike_id":"140f33b8-1102-4f7e-b0ef-d83c5cd8bb96","system_id":"levelo_inurba_marseille","lat":43.23181,"lon":5.35563,"is_reserved":false,"is_disabled":false,"rental_uris":{"android":"levelo://app?vid=140f33b8-1102-4f7e-b0ef-d83c5cd8bb96","ios":"levelo://app?vid=140f33b8-1102-4f7e-b0ef-d83c5cd8bb96"},"vehicle_type_id":"4","last_reported":1757747280,"current_range_meters":13600,"station_id":"ce4bhu92rcd13ifvqi70","pricing_plan_id":"cebpf4jnsgd1na2vs0mg"},{"bike_id":"f7227a9d-ccec-467a-b8e4-33a04dd40777","system_id":"levelo_inurba_marseille","lat":43.30456,"lon":5.37918,"is_reserved":false,"is_disabled":false,"rental_uris":{"android":"levelo://app?vid=f7227a9d-ccec-467a-b8e4-33a04dd40777","ios":"levelo://app?vid=f7227a9d-ccec-467a-b8e4-33a04dd40777"},"vehicle_type_id":"4","last_reported":1757747280,"current_range_meters":13600,"station_id":"ce4bgup2rcd13ifvqcn0","pricing_plan_id":"cebpf4jnsgd1na2vs0mg"},{"bike_id":"7068895e-81c5-46c1-85a7-fdbb8280530f","system_id":"levelo_inurba_marseille","lat":43.23965,"lon":5.36638,"is_reserved":false,"is_disabled":false,"rental_uris":{"android":"levelo://app?vid=7068895e-81c5-46c1-85a7-fdbb8280530f","ios":"levelo://app?vid=7068895e-81c5-46c1-85a7-fdbb8280530f"},"vehicle_type_id":"4","last_reported":1757747280,"current_range_meters":13600,"station_id":"ce4bhi12rcd13ifvqfp0","pricing_plan_id":"cebpf4jnsgd1na2vs0mg"},{"bike_id":"0c78ed8a-2af8-4f2c-895d-0de884f1c9f2","system_id":"levelo_inurba_marseille","lat":43.29886,"lon":5.43672,"is_reserved":false,"is_disabled":false,"rental_uris":{"android":"levelo://app?vid=0c78ed8a-2af8-4f2c-895d-0de884f1c9f2","ios":"levelo://app?vid=0c78ed8a-2af8-4f2c-895d-0de884f1c9f2"},"vehicle_type_id":"4","last_reported":1757747280,"current_range_meters":13600,"station_id":"ce4bhpp2rcd13ifvqhfg","pricing_plan_id":"cebpf4jnsgd1na2vs0mg"},{"bike_id":"091601b3-3c5a-42ff-866e-cde10b59b3c0","system_id":"levelo_inurba_marseille","lat":43.30758,"lon":5.37461,"is_reserved":false,"is_disabled":false,"rental_uris":{"android":"levelo://app?vid=091601b3-3c5a-42ff-866e-cde10b59b3c0","ios":"levelo://app?vid=091601b3-3c5a-42ff-866e-cde10b59b3c0"},"vehicle_type_id":"4","last_reported":1757747280,"current_range_meters":13600,"station_id":"","pricing_plan_id":"cebpf4jnsgd1na2vs0mg"},{"bike_id":"5d2d49c3-df0a-4e43-a031-b4854d84eee8","system_id":"levelo_inurba_marseille","lat":43.23965,"lon":5.36626,"is_reserved":false,"is_disabled":false,"rental_uris":{"android":"levelo://app?vid=5d2d49c3-df0a-4e43-a031-b4854d84eee8","ios":"levelo://app?vid=5d2d49c3-df0a-4e43-a031-b4854d84eee8"},"vehicle_type_id":"4","last_reported":1757747280,"current_range_meters":14000,"station_id":"ce4bhi12rcd13ifvqfp0","pricing_plan_id":"cebpf4jnsgd1na2vs0mg"},{"bike_id":"6bc4356b-2683-48df-86f6-4f8709c558c6","system_id":"levelo_inurba_marseille","lat":43.24946,"lon":5.40468,"is_reserved":false,"is_disabled":true,"rental_uris":{"android":"levelo://app?vid=6bc4356b-2683-48df-86f6-4f8709c558c6","ios":"levelo://app?vid=6bc4356b-2683-48df-86f6-4f8709c558c6"},"vehicle_type_id":"4","last_reported":1757747280,"current_range_meters":14000,"station_id":"st_d2ngiaodas8pm72gd1h0","pricing_plan_id":"cebpf4jnsgd1na2vs0mg"},{"bike_id":"e43fdc27-4283-4e61-97ff-9c2689a8903a","system_id":"levelo_inurba_marseille","lat":43.246598,"lon":5.381612,"is_reserved":false,"is_disabled":false,"rental_uris":{"android":"levelo://app?vid=e43fdc27-4283-4e61-97ff-9c2689a8903a","ios":"levelo://app?vid=e43fdc27-4283-4e61-97ff-9c2689a8903a"},"vehicle_type_id":"4","last_reported":1757747280,"current_range_meters":14000,"station_id":"ce4bhih2rcd13ifvqfr0","pricing_plan_id":"cebpf4jnsgd1na2vs0mg"},{"bike_id":"8a4d2a94-6dcc-48a7-bce6-1f6f98746be6","system_id":"levelo_inurba_marseille","lat":43.275091,"lon":5.42437,"is_reserved":false,"is_disabled":false,"rental_uris":{"android":"levelo://app?vid=8a4d2a94-6dcc-48a7-bce6-1f6f98746be6","ios":"levelo://app?vid=8a4d2a94-6dcc-48a7-bce6-1f6f98746be6"},"vehicle_type_id":"4","last_reported":1757747280,"current_range_meters":14000,"station_id":"ce4bhn92rcd13ifvqgrg","pricing_plan_id":"cebpf4jnsgd1na2vs0mg"},{"bike_id":"dcae514d-9200-43c1-9267-dee91427cf46","system_id":"levelo_inurba_marseille","lat":43.25096,"lon":5.39527,"is_reserved":false,"is_disabled":false,"rental_uris":{"android":"levelo://app?vid=dcae514d-9200-43c1-9267-dee91427cf46","ios":"levelo://app?vid=dcae514d-9200-43c1-9267-dee91427cf46"},"vehicle_type_id":"4","last_reported":1757747280,"current_range_meters":14000,"station_id":"ce4bhm12rcd13ifvqgkg","pricing_plan_id":"cebpf4jnsgd1na2vs0mg"},{"bike_id":"84be000e-b186-4e60-8aaa-b7a0f42a7175","system_id":"levelo_inurba_marseille","lat":43.337616,"lon":5.374353,"is_reserved":false,"is_disabled":false,"rental_uris":{"android":"levelo://app?vid=84be000e-b186-4e60-8aaa-b7a0f42a7175","ios":"levelo://app?vid=84be000e-b186-4e60-8aaa-b7a0f42a7175"},"vehicle_type_id":"4","last_reported":1757747280,"current_range_meters":14400,"station_id":"","pricing_plan_id":"cebpf4jnsgd1na2vs0mg"},{"bike_id":"9f13e3a4-d10f-4c9f-9d20-fdf23ab151a6","system_id":"levelo_inurba_marseille","lat":43.255799,"lon":5.38236,"is_reserved":false,"is_disabled":true,"rental_uris":{"android":"levelo://app?vid=9f13e3a4-d10f-4c9f-9d20-fdf23ab151a6","ios":"levelo://app?vid=9f13e3a4-d10f-4c9f-9d20-fdf23ab151a6"},"vehicle_type_id":"4","last_reported":1757747280,"current_range_meters":14400,"station_id":"ce4bhih2rcd13ifvqfs0","pricing_plan_id":"cebpf4jnsgd1na2vs0mg"},{"bike_id":"d5c98035-fc72-4062-a3ec-13203f68e8ed","system_id":"levelo_inurba_marseille","lat":43.28866,"lon":5.42521,"is_reserved":false,"is_disabled":false,"rental_uris":{"android":"levelo://app?vid=d5c98035-fc72-4062-a3ec-13203f68e8ed","ios":"levelo://app?vid=d5c98035-fc72-4062-a3ec-13203f68e8ed"},"vehicle_type_id":"4","last_reported":1757747280,"current_range_meters":14400,"station_id":"","pricing_plan_id":"cebpf4jnsgd1na2vs0mg"},{"bike_id":"e213f39e-a4d8-4608-9f3f-d29cabced392","system_id":"levelo_inurba_marseille","lat":43.3025,"lon":5.4008,"is_reserved":false,"is_disabled":false,"rental_uris":{"android":"levelo://app?vid=e213f39e-a4d8-4608-9f3f-d29cabced392","ios":"levelo://app?vid=e213f39e-a4d8-4608-9f3f-d29cabced392"},"vehicle_type_id":"4","last_reported":1757747280,"current_range_meters":14800,"station_id":"ce4bgvh2rcd13ifvqcs0","pricing_plan_id":"cebpf4jnsgd1na2vs0mg"},{"bike_id":"1f361235-877f-4750-ae21-f35369fb4a6c","system_id":"levelo_inurba_marseille","lat":43.3094,"lon":5.40185,"is_reserved":false,"is_disabled":false,"rental_uris":{"android":"levelo://app?vid=1f361235-877f-4750-ae21-f35369fb4a6c","ios":"levelo://app?vid=1f361235-877f-4750-ae21-f35369fb4a6c"},"vehicle_type_id":"4","last_reported":1757747280,"current_range_meters":14800,"station_id":"ce4bgvp2rcd13ifvqct0","pricing_plan_id":"cebpf4jnsgd1na2vs0mg"},{"bike_id":"7dc00165-e583-4bd0-bbf8-f77743c96ba8","system_id":"levelo_inurba_marseille","lat":43.32364,"lon":5.36758,"is_reserved":false,"is_disabled":false,"rental_uris":{"android":"levelo://app?vid=7dc00165-e583-4bd0-bbf8-f77743c96ba8","ios":"levelo://app?vid=7dc00165-e583-4bd0-bbf8-f77743c96ba8"},"vehicle_type_id":"4","last_reported":1757747280,"current_range_meters":14800,"station_id":"ce4bhsh2rcd13ifvqi2g","pricing_plan_id":"cebpf4jnsgd1na2vs0mg"},{"bike_id":"a18d488d-bc79-4ae3-9700-f844975e97be","system_id":"levelo_inurba_marseille","lat":43.310879,"lon":5.424333,"is_reserved":false,"is_disabled":false,"rental_uris":{"android":"levelo://app?vid=a18d488d-bc79-4ae3-9700-f844975e97be","ios":"levelo://app?vid=a18d488d-bc79-4ae3-9700-f844975e97be"},"vehicle_type_id":"4","last_reported":1757747280,"current_range_meters":14800,"station_id":"ce4bhp92rcd13ifvqhag","pricing_plan_id":"cebpf4jnsgd1na2vs0mg"},{"bike_id":"acbda467-4ecd-4d26-a947-d9c0c64aed5c","system_id":"levelo_inurba_marseille","lat":43.30469,"lon":5.37893,"is_reserved":false,"is_disabled":false,"rental_uris":{"android":"levelo://app?vid=acbda467-4ecd-4d26-a947-d9c0c64aed5c","ios":"levelo://app?vid=acbda467-4ecd-4d26-a947-d9c0c64aed5c"},"vehicle_type_id":"4","last_reported":1757747280,"current_range_meters":14800,"station_id":"ce4bgup2rcd13ifvqcn0","pricing_plan_id":"cebpf4jnsgd1na2vs0mg"},{"bike_id":"43e5cf96-33fc-449a-907e-ecdb633d22ff","system_id":"levelo_inurba_marseille","lat":43.30148,"lon":5.39908,"is_reserved":false,"is_disabled":false,"rental_uris":{"android":"levelo://app?vid=43e5cf96-33fc-449a-907e-ecdb633d22ff","ios":"levelo://app?vid=43e5cf96-33fc-449a-907e-ecdb633d22ff"},"vehicle_type_id":"4","last_reported":1757747280,"current_range_meters":14400,"station_id":"ce4bh0h2rcd13ifvqd40","pricing_plan_id":"cebpf4jnsgd1na2vs0mg"},{"bike_id":"02dbb44c-70e3-4a7a-b86e-6159cc35ba47","system_id":"levelo_inurba_marseille","lat":43.29587,"lon":5.38689,"is_reserved":false,"is_disabled":false,"rental_uris":{"android":"levelo://app?vid=02dbb44c-70e3-4a7a-b86e-6159cc35ba47","ios":"levelo://app?vid=02dbb44c-70e3-4a7a-b86e-6159cc35ba47"},"vehicle_type_id":"4","last_reported":1757747280,"current_range_meters":14800,"station_id":"ce4bgih2rcd13ifvqba0","pricing_plan_id":"cebpf4jnsgd1na2vs0mg"},{"bike_id":"55d59e02-f5a5-4e1a-9360-556e842fa2a4","system_id":"levelo_inurba_marseille","lat":43.33764,"lon":5.37496,"is_reserved":false,"is_disabled":false,"rental_uris":{"android":"levelo://app?vid=55d59e02-f5a5-4e1a-9360-556e842fa2a4","ios":"levelo://app?vid=55d59e02-f5a5-4e1a-9360-556e842fa2a4"},"vehicle_type_id":"4","last_reported":1757747280,"current_range_meters":15200,"station_id":"","pricing_plan_id":"cebpf4jnsgd1na2vs0mg"},{"bike_id":"d5fe8587-d577-4927-9f03-bf5f1fa338f3","system_id":"levelo_inurba_marseille","lat":43.326288,"lon":5.375237,"is_reserved":false,"is_disabled":false,"rental_uris":{"android":"levelo://app?vid=d5fe8587-d577-4927-9f03-bf5f1fa338f3","ios":"levelo://app?vid=d5fe8587-d577-4927-9f03-bf5f1fa338f3"},"vehicle_type_id":"4","last_reported":1757747280,"current_range_meters":15200,"station_id":"","pricing_plan_id":"cebpf4jnsgd1na2vs0mg"},{"bike_id":"ba130961-8fba-495b-b802-0f3495419d49","system_id":"levelo_inurba_marseille","lat":43.309254,"lon":5.401566,"is_reserved":false,"is_disabled":false,"rental_uris":{"android":"levelo://app?vid=ba130961-8fba-495b-b802-0f3495419d49","ios":"levelo://app?vid=ba130961-8fba-495b-b802-0f3495419d49"},"vehicle_type_id":"4","last_reported":1757747280,"current_range_meters":15200,"station_id":"ce4bgvp2rcd13ifvqct0","pricing_plan_id":"cebpf4jnsgd1na2vs0mg"},{"bike_id":"22056c1f-5a5a-4970-84ab-9172106e8c1b","system_id":"levelo_inurba_marseille","lat":43.26245,"lon":5.39796,"is_reserved":false,"is_disabled":false,"rental_uris":{"android":"levelo://app?vid=22056c1f-5a5a-4970-84ab-9172106e8c1b","ios":"levelo://app?vid=22056c1f-5a5a-4970-84ab-9172106e8c1b"},"vehicle_type_id":"4","last_reported":1757747280,"current_range_meters":15200,"station_id":"","pricing_plan_id":"cebpf4jnsgd1na2vs0mg"},{"bike_id":"68489bd7-5f5c-4661-bada-ef101f8e01b1","system_id":"levelo_inurba_marseille","lat":43.32355,"lon":5.38885,"is_reserved":false,"is_disabled":false,"rental_uris":{"android":"levelo://app?vid=68489bd7-5f5c-4661-bada-ef101f8e01b1","ios":"levelo://app?vid=68489bd7-5f5c-4661-bada-ef101f8e01b1"},"vehicle_type_id":"4","last_reported":1757747280,"current_range_meters":15200,"station_id":"ce4bhqp2rcd13ifvqhog","pricing_plan_id":"cebpf4jnsgd1na2vs0mg"},{"bike_id":"e070b75e-fc98-4218-ad5b-9ca77c7498d8","system_id":"levelo_inurba_marseille","lat":43.25328,"lon":5.42167,"is_reserved":false,"is_disabled":false,"rental_uris":{"android":"levelo://app?vid=e070b75e-fc98-4218-ad5b-9ca77c7498d8","ios":"levelo://app?vid=e070b75e-fc98-4218-ad5b-9ca77c7498d8"},"vehicle_type_id":"4","last_reported":1757747280,"current_range_meters":16000,"station_id":"st_d2m65c5bi1j21697t3ng","pricing_plan_id":"cebpf4jnsgd1na2vs0mg"},{"bike_id":"f8ffd399-b74b-428b-b8c5-652d37f4b22c","system_id":"levelo_inurba_marseille","lat":43.24938,"lon":5.40496,"is_reserved":false,"is_disabled":false,"rental_uris":{"android":"levelo://app?vid=f8ffd399-b74b-428b-b8c5-652d37f4b22c","ios":"levelo://app?vid=f8ffd399-b74b-428b-b8c5-652d37f4b22c"},"vehicle_type_id":"4","last_reported":1757747280,"current_range_meters":16000,"station_id":"st_d2ngiaodas8pm72gd1h0","pricing_plan_id":"cebpf4jnsgd1na2vs0mg"},{"bike_id":"d9c66413-fc0c-4d58-b9df-c55859e73212","system_id":"levelo_inurba_marseille","lat":43.28458,"lon":5.35902,"is_reserved":false,"is_disabled":true,"rental_uris":{"android":"levelo://app?vid=d9c66413-fc0c-4d58-b9df-c55859e73212","ios":"levelo://app?vid=d9c66413-fc0c-4d58-b9df-c55859e73212"},"vehicle_type_id":"4","last_reported":1757747280,"current_range_meters":16000,"station_id":"ce4bhah2rcd13ifvqei0","pricing_plan_id":"cebpf4jnsgd1na2vs0mg"},{"bike_id":"beb6189c-c21e-4836-b631-6b5c31a632d8","system_id":"levelo_inurba_marseille","lat":43.22563,"lon":5.41637,"is_reserved":false,"is_disabled":false,"rental_uris":{"android":"levelo://app?vid=beb6189c-c21e-4836-b631-6b5c31a632d8","ios":"levelo://app?vid=beb6189c-c21e-4836-b631-6b5c31a632d8"},"vehicle_type_id":"4","last_reported":1757747280,"current_range_meters":16000,"station_id":"st_d2o4gvlbi1j2169b742g","pricing_plan_id":"cebpf4jnsgd1na2vs0mg"},{"bike_id":"0f0e66ec-5f1c-40a8-8c5d-5ba1924a75a6","system_id":"levelo_inurba_marseille","lat":43.28408,"lon":5.37522,"is_reserved":false,"is_disabled":false,"rental_uris":{"android":"levelo://app?vid=0f0e66ec-5f1c-40a8-8c5d-5ba1924a75a6","ios":"levelo://app?vid=0f0e66ec-5f1c-40a8-8c5d-5ba1924a75a6"},"vehicle_type_id":"4","last_reported":1757747280,"current_range_meters":16000,"station_id":"ce4bh412rcd13ifvqds0","pricing_plan_id":"cebpf4jnsgd1na2vs0mg"},{"bike_id":"d9c11a94-d122-4240-b95b-24fdee8810ac","system_id":"levelo_inurba_marseille","lat":43.282724,"lon":5.399116,"is_reserved":false,"is_disabled":false,"rental_uris":{"android":"levelo://app?vid=d9c11a94-d122-4240-b95b-24fdee8810ac","ios":"levelo://app?vid=d9c11a94-d122-4240-b95b-24fdee8810ac"},"vehicle_type_id":"4","last_reported":1757747280,"current_range_meters":16000,"station_id":"","pricing_plan_id":"cebpf4jnsgd1na2vs0mg"},{"bike_id":"cd104b68-7370-4e88-ba9c-1edeee0f6c77","system_id":"levelo_inurba_marseille","lat":43.2518,"lon":5.4245,"is_reserved":false,"is_disabled":false,"rental_uris":{"android":"levelo://app?vid=cd104b68-7370-4e88-ba9c-1edeee0f6c77","ios":"levelo://app?vid=cd104b68-7370-4e88-ba9c-1edeee0f6c77"},"vehicle_type_id":"4","last_reported":1757747280,"current_range_meters":16400,"station_id":"","pricing_plan_id":"cebpf4jnsgd1na2vs0mg"},{"bike_id":"e7a329bd-ed66-4ac7-aaba-63f2810ddd86","system_id":"levelo_inurba_marseille","lat":43.31904,"lon":5.373073,"is_reserved":false,"is_disabled":false,"rental_uris":{"android":"levelo://app?vid=e7a329bd-ed66-4ac7-aaba-63f2810ddd86","ios":"levelo://app?vid=e7a329bd-ed66-4ac7-aaba-63f2810ddd86"},"vehicle_type_id":"4","last_reported":1757747280,"current_range_meters":16400,"station_id":"","pricing_plan_id":"cebpf4jnsgd1na2vs0mg"},{"bike_id":"1bd07d49-9ddf-47b9-97ed-19427f874804","system_id":"levelo_inurba_marseille","lat":43.30129,"lon":5.39871,"is_reserved":false,"is_disabled":false,"rental_uris":{"android":"levelo://app?vid=1bd07d49-9ddf-47b9-97ed-19427f874804","ios":"levelo://app?vid=1bd07d49-9ddf-47b9-97ed-19427f874804"},"vehicle_type_id":"4","last_reported":1757747280,"current_range_meters":16400,"station_id":"ce4bh0h2rcd13ifvqd40","pricing_plan_id":"cebpf4jnsgd1na2vs0mg"},{"bike_id":"b81ac566-30ab-45f4-a917-e0cb422aff7d","system_id":"levelo_inurba_marseille","lat":43.25116,"lon":5.40326,"is_reserved":false,"is_disabled":false,"rental_uris":{"android":"levelo://app?vid=b81ac566-30ab-45f4-a917-e0cb422aff7d","ios":"levelo://app?vid=b81ac566-30ab-45f4-a917-e0cb422aff7d"},"vehicle_type_id":"4","last_reported":1757747280,"current_range_meters":16400,"station_id":"ce4bhlh2rcd13ifvqgig","pricing_plan_id":"cebpf4jnsgd1na2vs0mg"},{"bike_id":"63f62ab8-ad4f-46eb-a955-5eb7c8ca62d1","system_id":"levelo_inurba_marseille","lat":43.25337,"lon":5.42181,"is_reserved":false,"is_disabled":false,"rental_uris":{"android":"levelo://app?vid=63f62ab8-ad4f-46eb-a955-5eb7c8ca62d1","ios":"levelo://app?vid=63f62ab8-ad4f-46eb-a955-5eb7c8ca62d1"},"vehicle_type_id":"4","last_reported":1757747280,"current_range_meters":16400,"station_id":"st_d2m65c5bi1j21697t3ng","pricing_plan_id":"cebpf4jnsgd1na2vs0mg"},{"bike_id":"566b1f71-e6f7-4b45-845a-581254de6061","system_id":"levelo_inurba_marseille","lat":43.274983,"lon":5.424484,"is_reserved":false,"is_disabled":false,"rental_uris":{"android":"levelo://app?vid=566b1f71-e6f7-4b45-845a-581254de6061","ios":"levelo://app?vid=566b1f71-e6f7-4b45-845a-581254de6061"},"vehicle_type_id":"4","last_reported":1757747280,"current_range_meters":16400,"station_id":"ce4bhn92rcd13ifvqgrg","pricing_plan_id":"cebpf4jnsgd1na2vs0mg"},{"bike_id":"31195751-bbc1-4ea5-8068-c21d8881b649","system_id":"levelo_inurba_marseille","lat":43.240593,"lon":5.377213,"is_reserved":false,"is_disabled":false,"rental_uris":{"android":"levelo://app?vid=31195751-bbc1-4ea5-8068-c21d8881b649","ios":"levelo://app?vid=31195751-bbc1-4ea5-8068-c21d8881b649"},"vehicle_type_id":"4","last_reported":1757747280,"current_range_meters":16800,"station_id":"ce4bhnp2rcd13ifvqgvg","pricing_plan_id":"cebpf4jnsgd1na2vs0mg"},{"bike_id":"0698b43c-1f5f-4fe9-bc60-835539c760ec","system_id":"levelo_inurba_marseille","lat":43.28749,"lon":5.37027,"is_reserved":false,"is_disabled":false,"rental_uris":{"android":"levelo://app?vid=0698b43c-1f5f-4fe9-bc60-835539c760ec","ios":"levelo://app?vid=0698b43c-1f5f-4fe9-bc60-835539c760ec"},"vehicle_type_id":"4","last_reported":1757747280,"current_range_meters":16800,"station_id":"","pricing_plan_id":"cebpf4jnsgd1na2vs0mg"},{"bike_id":"7f3327a2-114b-44a9-b064-b2a89b4e6c39","system_id":"levelo_inurba_marseille","lat":43.24182,"lon":5.39725,"is_reserved":false,"is_disabled":false,"rental_uris":{"android":"levelo://app?vid=7f3327a2-114b-44a9-b064-b2a89b4e6c39","ios":"levelo://app?vid=7f3327a2-114b-44a9-b064-b2a89b4e6c39"},"vehicle_type_id":"4","last_reported":1757747280,"current_range_meters":16800,"station_id":"ce4bhn12rcd13ifvqgpg","pricing_plan_id":"cebpf4jnsgd1na2vs0mg"},{"bike_id":"6ce09d0f-f80f-40c7-88c5-4e4555de0566","system_id":"levelo_inurba_marseille","lat":43.29543,"lon":5.39411,"is_reserved":false,"is_disabled":true,"rental_uris":{"android":"levelo://app?vid=6ce09d0f-f80f-40c7-88c5-4e4555de0566","ios":"levelo://app?vid=6ce09d0f-f80f-40c7-88c5-4e4555de0566"},"vehicle_type_id":"4","last_reported":1757747280,"current_range_meters":16800,"station_id":"ce4bh292rcd13ifvqdf0","pricing_plan_id":"cebpf4jnsgd1na2vs0mg"},{"bike_id":"ef4366e2-1abe-4b6e-80b6-2675457b8ba0","system_id":"levelo_inurba_marseille","lat":43.2405,"lon":5.37758,"is_reserved":false,"is_disabled":false,"rental_uris":{"android":"levelo://app?vid=ef4366e2-1abe-4b6e-80b6-2675457b8ba0","ios":"levelo://app?vid=ef4366e2-1abe-4b6e-80b6-2675457b8ba0"},"vehicle_type_id":"4","last_reported":1757747280,"current_range_meters":16800,"station_id":"ce4bhnp2rcd13ifvqgvg","pricing_plan_id":"cebpf4jnsgd1na2vs0mg"},{"bike_id":"1eaf7d24-f23e-4e79-b6f5-17176bccc028","system_id":"levelo_inurba_marseille","lat":43.279552,"lon":5.387247,"is_reserved":false,"is_disabled":true,"rental_uris":{"android":"levelo://app?vid=1eaf7d24-f23e-4e79-b6f5-17176bccc028","ios":"levelo://app?vid=1eaf7d24-f23e-4e79-b6f5-17176bccc028"},"vehicle_type_id":"4","last_reported":1757747280,"current_range_meters":16800,"station_id":"ce4bhg12rcd13ifvqf80","pricing_plan_id":"cebpf4jnsgd1na2vs0mg"},{"bike_id":"ee42c31a-b74b-4b2d-917a-cd50dc10c6ce","system_id":"levelo_inurba_marseille","lat":43.33049,"lon":5.39054,"is_reserved":false,"is_disabled":false,"rental_uris":{"android":"levelo://app?vid=ee42c31a-b74b-4b2d-917a-cd50dc10c6ce","ios":"levelo://app?vid=ee42c31a-b74b-4b2d-917a-cd50dc10c6ce"},"vehicle_type_id":"4","last_reported":1757747280,"current_range_meters":16800,"station_id":"ce4bhr92rcd13ifvqhrg","pricing_plan_id":"cebpf4jnsgd1na2vs0mg"},{"bike_id":"c5cba6d7-e282-4417-a818-5fc0802dcb08","system_id":"levelo_inurba_marseille","lat":43.33761,"lon":5.3745,"is_reserved":false,"is_disabled":false,"rental_uris":{"android":"levelo://app?vid=c5cba6d7-e282-4417-a818-5fc0802dcb08","ios":"levelo://app?vid=c5cba6d7-e282-4417-a818-5fc0802dcb08"},"vehicle_type_id":"4","last_reported":1757747280,"current_range_meters":16800,"station_id":"","pricing_plan_id":"cebpf4jnsgd1na2vs0mg"},{"bike_id":"40207740-3997-48f7-a3a9-b19ccf0a0c3b","system_id":"levelo_inurba_marseille","lat":43.3041,"lon":5.41306,"is_reserved":false,"is_disabled":false,"rental_uris":{"android":"levelo://app?vid=40207740-3997-48f7-a3a9-b19ccf0a0c3b","ios":"levelo://app?vid=40207740-3997-48f7-a3a9-b19ccf0a0c3b"},"vehicle_type_id":"4","last_reported":1757747280,"current_range_meters":16800,"station_id":"ce4bhop2rcd13ifvqh8g","pricing_plan_id":"cebpf4jnsgd1na2vs0mg"},{"bike_id":"c682ef70-00bc-4415-9b10-9a35bd5ddcc1","system_id":"levelo_inurba_marseille","lat":43.274991,"lon":5.424504,"is_reserved":false,"is_disabled":false,"rental_uris":{"android":"levelo://app?vid=c682ef70-00bc-4415-9b10-9a35bd5ddcc1","ios":"levelo://app?vid=c682ef70-00bc-4415-9b10-9a35bd5ddcc1"},"vehicle_type_id":"4","last_reported":1757747280,"current_range_meters":17200,"station_id":"ce4bhn92rcd13ifvqgrg","pricing_plan_id":"cebpf4jnsgd1na2vs0mg"},{"bike_id":"6fb5cb97-53ae-4a68-9c22-dcc5cae46a4e","system_id":"levelo_inurba_marseille","lat":43.30109,"lon":5.39883,"is_reserved":false,"is_disabled":false,"rental_uris":{"android":"levelo://app?vid=6fb5cb97-53ae-4a68-9c22-dcc5cae46a4e","ios":"levelo://app?vid=6fb5cb97-53ae-4a68-9c22-dcc5cae46a4e"},"vehicle_type_id":"4","last_reported":1757747280,"current_range_meters":16800,"station_id":"ce4bh0h2rcd13ifvqd40","pricing_plan_id":"cebpf4jnsgd1na2vs0mg"},{"bike_id":"39a5770b-4a4d-4691-a011-808b644e6c2b","system_id":"levelo_inurba_marseille","lat":43.275852,"lon":5.417641,"is_reserved":false,"is_disabled":false,"rental_uris":{"android":"levelo://app?vid=39a5770b-4a4d-4691-a011-808b644e6c2b","ios":"levelo://app?vid=39a5770b-4a4d-4691-a011-808b644e6c2b"},"vehicle_type_id":"4","last_reported":1757747280,"current_range_meters":17200,"station_id":"","pricing_plan_id":"cebpf4jnsgd1na2vs0mg"},{"bike_id":"9df52c70-6127-40c8-b57a-28a090e0499a","system_id":"levelo_inurba_marseille","lat":43.31288,"lon":5.40192,"is_reserved":false,"is_disabled":false,"rental_uris":{"android":"levelo://app?vid=9df52c70-6127-40c8-b57a-28a090e0499a","ios":"levelo://app?vid=9df52c70-6127-40c8-b57a-28a090e0499a"},"vehicle_type_id":"4","last_reported":1757747280,"current_range_meters":17200,"station_id":"ce4bh092rcd13ifvqd30","pricing_plan_id":"cebpf4jnsgd1na2vs0mg"},{"bike_id":"d50939ff-72cd-4b68-8002-44541c79e2d1","system_id":"levelo_inurba_marseille","lat":43.33603,"lon":5.41021,"is_reserved":false,"is_disabled":false,"rental_uris":{"android":"levelo://app?vid=d50939ff-72cd-4b68-8002-44541c79e2d1","ios":"levelo://app?vid=d50939ff-72cd-4b68-8002-44541c79e2d1"},"vehicle_type_id":"4","last_reported":1757747280,"current_range_meters":17200,"station_id":"ce4bhqh2rcd13ifvqhmg","pricing_plan_id":"cebpf4jnsgd1na2vs0mg"},{"bike_id":"6fb14e85-987f-4d04-a851-9c06a9ad4c8d","system_id":"levelo_inurba_marseille","lat":43.29718,"lon":5.37713,"is_reserved":false,"is_disabled":false,"rental_uris":{"android":"levelo://app?vid=6fb14e85-987f-4d04-a851-9c06a9ad4c8d","ios":"levelo://app?vid=6fb14e85-987f-4d04-a851-9c06a9ad4c8d"},"vehicle_type_id":"4","last_reported":1757747280,"current_range_meters":17600,"station_id":"ce4bgkh2rcd13ifvqbl0","pricing_plan_id":"cebpf4jnsgd1na2vs0mg"},{"bike_id":"0418ed23-d4c6-49db-b310-d4f985bd3bc3","system_id":"levelo_inurba_marseille","lat":43.321094,"lon":5.367921,"is_reserved":false,"is_disabled":false,"rental_uris":{"android":"levelo://app?vid=0418ed23-d4c6-49db-b310-d4f985bd3bc3","ios":"levelo://app?vid=0418ed23-d4c6-49db-b310-d4f985bd3bc3"},"vehicle_type_id":"4","last_reported":1757747280,"current_range_meters":17600,"station_id":"ce4bhrh2rcd13ifvqhug","pricing_plan_id":"cebpf4jnsgd1na2vs0mg"},{"bike_id":"f25e3bda-5e1a-43ac-81fa-872411454589","system_id":"levelo_inurba_marseille","lat":43.24609,"lon":5.39251,"is_reserved":false,"is_disabled":false,"rental_uris":{"android":"levelo://app?vid=f25e3bda-5e1a-43ac-81fa-872411454589","ios":"levelo://app?vid=f25e3bda-5e1a-43ac-81fa-872411454589"},"vehicle_type_id":"4","last_reported":1757747280,"current_range_meters":17600,"station_id":"","pricing_plan_id":"cebpf4jnsgd1na2vs0mg"},{"bike_id":"a5c5de9d-d203-409f-b07e-87974e4d4f08","system_id":"levelo_inurba_marseille","lat":43.2481,"lon":5.37448,"is_reserved":false,"is_disabled":false,"rental_uris":{"android":"levelo://app?vid=a5c5de9d-d203-409f-b07e-87974e4d4f08","ios":"levelo://app?vid=a5c5de9d-d203-409f-b07e-87974e4d4f08"},"vehicle_type_id":"4","last_reported":1757747280,"current_range_meters":17600,"station_id":"ce4bhgh2rcd13ifvqfb0","pricing_plan_id":"cebpf4jnsgd1na2vs0mg"},{"bike_id":"986f11d8-1003-4830-932e-a59ca28f5df3","system_id":"levelo_inurba_marseille","lat":43.22934,"lon":5.353764,"is_reserved":false,"is_disabled":false,"rental_uris":{"android":"levelo://app?vid=986f11d8-1003-4830-932e-a59ca28f5df3","ios":"levelo://app?vid=986f11d8-1003-4830-932e-a59ca28f5df3"},"vehicle_type_id":"4","last_reported":1757747280,"current_range_meters":17600,"station_id":"cpo3532slgdg3j2ikp40","pricing_plan_id":"cebpf4jnsgd1na2vs0mg"},{"bike_id":"3edab8b5-08ab-4bd7-a8e3-46e14fec2b69","system_id":"levelo_inurba_marseille","lat":43.22569,"lon":5.41646,"is_reserved":false,"is_disabled":false,"rental_uris":{"android":"levelo://app?vid=3edab8b5-08ab-4bd7-a8e3-46e14fec2b69","ios":"levelo://app?vid=3edab8b5-08ab-4bd7-a8e3-46e14fec2b69"},"vehicle_type_id":"4","last_reported":1757747280,"current_range_meters":17600,"station_id":"st_d2o4gvlbi1j2169b742g","pricing_plan_id":"cebpf4jnsgd1na2vs0mg"},{"bike_id":"9613ee4d-bd84-40ec-a183-9abb4af6a1b6","system_id":"levelo_inurba_marseille","lat":43.3236,"lon":5.36758,"is_reserved":false,"is_disabled":false,"rental_uris":{"android":"levelo://app?vid=9613ee4d-bd84-40ec-a183-9abb4af6a1b6","ios":"levelo://app?vid=9613ee4d-bd84-40ec-a183-9abb4af6a1b6"},"vehicle_type_id":"4","last_reported":1757747280,"current_range_meters":17600,"station_id":"ce4bhsh2rcd13ifvqi2g","pricing_plan_id":"cebpf4jnsgd1na2vs0mg"},{"bike_id":"3bc338fd-b3c5-4caa-b6e6-3c70a52689ba","system_id":"levelo_inurba_marseille","lat":43.31596,"lon":5.38909,"is_reserved":false,"is_disabled":false,"rental_uris":{"android":"levelo://app?vid=3bc338fd-b3c5-4caa-b6e6-3c70a52689ba","ios":"levelo://app?vid=3bc338fd-b3c5-4caa-b6e6-3c70a52689ba"},"vehicle_type_id":"4","last_reported":1757747280,"current_range_meters":17600,"station_id":"","pricing_plan_id":"cebpf4jnsgd1na2vs0mg"},{"bike_id":"30443e1c-48dc-461b-b077-7a716761f2a8","system_id":"levelo_inurba_marseille","lat":43.30213,"lon":5.39455,"is_reserved":false,"is_disabled":false,"rental_uris":{"android":"levelo://app?vid=30443e1c-48dc-461b-b077-7a716761f2a8","ios":"levelo://app?vid=30443e1c-48dc-461b-b077-7a716761f2a8"},"vehicle_type_id":"4","last_reported":1757747280,"current_range_meters":18000,"station_id":"ce4bh0p2rcd13ifvqd70","pricing_plan_id":"cebpf4jnsgd1na2vs0mg"},{"bike_id":"b3680fc6-d8f0-424e-ad3e-08cae069ca79","system_id":"levelo_inurba_marseille","lat":43.23193,"lon":5.40003,"is_reserved":false,"is_disabled":true,"rental_uris":{"android":"levelo://app?vid=b3680fc6-d8f0-424e-ad3e-08cae069ca79","ios":"levelo://app?vid=b3680fc6-d8f0-424e-ad3e-08cae069ca79"},"vehicle_type_id":"4","last_reported":1757747280,"current_range_meters":18000,"station_id":"ce4bhn12rcd13ifvqgqg","pricing_plan_id":"cebpf4jnsgd1na2vs0mg"},{"bike_id":"bf63aad8-dedf-479f-beb1-66de6615be39","system_id":"levelo_inurba_marseille","lat":43.27953,"lon":5.41052,"is_reserved":false,"is_disabled":false,"rental_uris":{"android":"levelo://app?vid=bf63aad8-dedf-479f-beb1-66de6615be39","ios":"levelo://app?vid=bf63aad8-dedf-479f-beb1-66de6615be39"},"vehicle_type_id":"4","last_reported":1757747280,"current_range_meters":18000,"station_id":"ce4bhnp2rcd13ifvqh0g","pricing_plan_id":"cebpf4jnsgd1na2vs0mg"},{"bike_id":"099dc754-cf09-4145-b6fa-59b333ab25e3","system_id":"levelo_inurba_marseille","lat":43.24624,"lon":5.4317,"is_reserved":false,"is_disabled":false,"rental_uris":{"android":"levelo://app?vid=099dc754-cf09-4145-b6fa-59b333ab25e3","ios":"levelo://app?vid=099dc754-cf09-4145-b6fa-59b333ab25e3"},"vehicle_type_id":"4","last_reported":1757747280,"current_range_meters":18000,"station_id":"st_d2m6c4gdas8pm72e190g","pricing_plan_id":"cebpf4jnsgd1na2vs0mg"},{"bike_id":"4d6e6605-7f16-44fa-a19a-c138ee7cb360","system_id":"levelo_inurba_marseille","lat":43.337434,"lon":5.374649,"is_reserved":false,"is_disabled":false,"rental_uris":{"android":"levelo://app?vid=4d6e6605-7f16-44fa-a19a-c138ee7cb360","ios":"levelo://app?vid=4d6e6605-7f16-44fa-a19a-c138ee7cb360"},"vehicle_type_id":"4","last_reported":1757747280,"current_range_meters":18000,"station_id":"","pricing_plan_id":"cebpf4jnsgd1na2vs0mg"},{"bike_id":"020e11fc-7572-40b0-a045-8b9615398614","system_id":"levelo_inurba_marseille","lat":43.2841,"lon":5.37558,"is_reserved":false,"is_disabled":false,"rental_uris":{"android":"levelo://app?vid=020e11fc-7572-40b0-a045-8b9615398614","ios":"levelo://app?vid=020e11fc-7572-40b0-a045-8b9615398614"},"vehicle_type_id":"4","last_reported":1757747280,"current_range_meters":18000,"station_id":"ce4bh412rcd13ifvqds0","pricing_plan_id":"cebpf4jnsgd1na2vs0mg"},{"bike_id":"0993bc77-02b3-4f58-9048-8039fd513152","system_id":"levelo_inurba_marseille","lat":43.330255,"lon":5.390324,"is_reserved":false,"is_disabled":false,"rental_uris":{"android":"levelo://app?vid=0993bc77-02b3-4f58-9048-8039fd513152","ios":"levelo://app?vid=0993bc77-02b3-4f58-9048-8039fd513152"},"vehicle_type_id":"4","last_reported":1757747280,"current_range_meters":18800,"station_id":"ce4bhr92rcd13ifvqhrg","pricing_plan_id":"cebpf4jnsgd1na2vs0mg"},{"bike_id":"8cba11da-a32c-4855-bd62-3db08b7c1962","system_id":"levelo_inurba_marseille","lat":43.29093,"lon":5.40181,"is_reserved":false,"is_disabled":false,"rental_uris":{"android":"levelo://app?vid=8cba11da-a32c-4855-bd62-3db08b7c1962","ios":"levelo://app?vid=8cba11da-a32c-4855-bd62-3db08b7c1962"},"vehicle_type_id":"4","last_reported":1757747280,"current_range_meters":18800,"station_id":"","pricing_plan_id":"cebpf4jnsgd1na2vs0mg"},{"bike_id":"05ee8dff-7a47-4f44-8b6b-77898321f2c3","system_id":"levelo_inurba_marseille","lat":43.30948,"lon":5.3903,"is_reserved":false,"is_disabled":false,"rental_uris":{"android":"levelo://app?vid=05ee8dff-7a47-4f44-8b6b-77898321f2c3","ios":"levelo://app?vid=05ee8dff-7a47-4f44-8b6b-77898321f2c3"},"vehicle_type_id":"4","last_reported":1757747280,"current_range_meters":18800,"station_id":"ce4bgup2rcd13ifvqco0","pricing_plan_id":"cebpf4jnsgd1na2vs0mg"},{"bike_id":"695bc73c-02f9-4c78-a8d4-70d9461761ac","system_id":"levelo_inurba_marseille","lat":43.28144,"lon":5.42632,"is_reserved":false,"is_disabled":false,"rental_uris":{"android":"levelo://app?vid=695bc73c-02f9-4c78-a8d4-70d9461761ac","ios":"levelo://app?vid=695bc73c-02f9-4c78-a8d4-70d9461761ac"},"vehicle_type_id":"4","last_reported":1757747280,"current_range_meters":18800,"station_id":"ce4bhnh2rcd13ifvqgug","pricing_plan_id":"cebpf4jnsgd1na2vs0mg"},{"bike_id":"9b49ad0c-cd5f-42fa-bf89-dc07fc8b3cb8","system_id":"levelo_inurba_marseille","lat":43.30553,"lon":5.392,"is_reserved":false,"is_disabled":false,"rental_uris":{"android":"levelo://app?vid=9b49ad0c-cd5f-42fa-bf89-dc07fc8b3cb8","ios":"levelo://app?vid=9b49ad0c-cd5f-42fa-bf89-dc07fc8b3cb8"},"vehicle_type_id":"4","last_reported":1757747280,"current_range_meters":18800,"station_id":"","pricing_plan_id":"cebpf4jnsgd1na2vs0mg"},{"bike_id":"14e2496b-54f5-4a71-8a7b-f668d23f2674","system_id":"levelo_inurba_marseille","lat":43.25702,"lon":5.41111,"is_reserved":false,"is_disabled":false,"rental_uris":{"android":"levelo://app?vid=14e2496b-54f5-4a71-8a7b-f668d23f2674","ios":"levelo://app?vid=14e2496b-54f5-4a71-8a7b-f668d23f2674"},"vehicle_type_id":"4","last_reported":1757747280,"current_range_meters":18800,"station_id":"ce4bhkp2rcd13ifvqgd0","pricing_plan_id":"cebpf4jnsgd1na2vs0mg"},{"bike_id":"4b8017e1-b0ec-4670-8eb7-609bfc309955","system_id":"levelo_inurba_marseille","lat":43.249599,"lon":5.404971,"is_reserved":false,"is_disabled":false,"rental_uris":{"android":"levelo://app?vid=4b8017e1-b0ec-4670-8eb7-609bfc309955","ios":"levelo://app?vid=4b8017e1-b0ec-4670-8eb7-609bfc309955"},"vehicle_type_id":"4","last_reported":1757747280,"current_range_meters":18800,"station_id":"st_d2ngiaodas8pm72gd1h0","pricing_plan_id":"cebpf4jnsgd1na2vs0mg"},{"bike_id":"cf598a45-3e64-4164-b570-1a150a235702","system_id":"levelo_inurba_marseille","lat":43.308879,"lon":5.396331,"is_reserved":false,"is_disabled":false,"rental_uris":{"android":"levelo://app?vid=cf598a45-3e64-4164-b570-1a150a235702","ios":"levelo://app?vid=cf598a45-3e64-4164-b570-1a150a235702"},"vehicle_type_id":"4","last_reported":1757747280,"current_range_meters":18800,"station_id":"ce4bh012rcd13ifvqcv0","pricing_plan_id":"cebpf4jnsgd1na2vs0mg"},{"bike_id":"c75bfa20-483b-42f7-8a25-5f10e08a57b0","system_id":"levelo_inurba_marseille","lat":43.3212,"lon":5.367824,"is_reserved":false,"is_disabled":false,"rental_uris":{"android":"levelo://app?vid=c75bfa20-483b-42f7-8a25-5f10e08a57b0","ios":"levelo://app?vid=c75bfa20-483b-42f7-8a25-5f10e08a57b0"},"vehicle_type_id":"4","last_reported":1757747280,"current_range_meters":18800,"station_id":"ce4bhrh2rcd13ifvqhug","pricing_plan_id":"cebpf4jnsgd1na2vs0mg"},{"bike_id":"4b4ff564-3277-498f-90b9-e8d941658649","system_id":"levelo_inurba_marseille","lat":43.27971,"lon":5.38719,"is_reserved":false,"is_disabled":false,"rental_uris":{"android":"levelo://app?vid=4b4ff564-3277-498f-90b9-e8d941658649","ios":"levelo://app?vid=4b4ff564-3277-498f-90b9-e8d941658649"},"vehicle_type_id":"4","last_reported":1757747280,"current_range_meters":18800,"station_id":"ce4bhg12rcd13ifvqf80","pricing_plan_id":"cebpf4jnsgd1na2vs0mg"},{"bike_id":"7bdef384-ffff-48d4-978c-17723b73a480","system_id":"levelo_inurba_marseille","lat":43.29701,"lon":5.37301,"is_reserved":false,"is_disabled":false,"rental_uris":{"android":"levelo://app?vid=7bdef384-ffff-48d4-978c-17723b73a480","ios":"levelo://app?vid=7bdef384-ffff-48d4-978c-17723b73a480"},"vehicle_type_id":"4","last_reported":1757747280,"current_range_meters":19200,"station_id":"ce4bgk12rcd13ifvqbj0","pricing_plan_id":"cebpf4jnsgd1na2vs0mg"},{"bike_id":"085d1fc3-832e-4bb8-9dab-596c869e48fd","system_id":"levelo_inurba_marseille","lat":43.282132,"lon":5.390456,"is_reserved":false,"is_disabled":true,"rental_uris":{"android":"levelo://app?vid=085d1fc3-832e-4bb8-9dab-596c869e48fd","ios":"levelo://app?vid=085d1fc3-832e-4bb8-9dab-596c869e48fd"},"vehicle_type_id":"4","last_reported":1757747280,"current_range_meters":19200,"station_id":"ce4bhn92rcd13ifvqgsg","pricing_plan_id":"cebpf4jnsgd1na2vs0mg"},{"bike_id":"4de2e286-2aa2-4b64-acc2-1b608ab4b806","system_id":"levelo_inurba_marseille","lat":43.2904,"lon":5.39935,"is_reserved":false,"is_disabled":false,"rental_uris":{"android":"levelo://app?vid=4de2e286-2aa2-4b64-acc2-1b608ab4b806","ios":"levelo://app?vid=4de2e286-2aa2-4b64-acc2-1b608ab4b806"},"vehicle_type_id":"4","last_reported":1757747280,"current_range_meters":19200,"station_id":"ce4bh392rcd13ifvqdm0","pricing_plan_id":"cebpf4jnsgd1na2vs0mg"},{"bike_id":"5476d906-b0c2-4d37-81e0-6fc56d7abe48","system_id":"levelo_inurba_marseille","lat":43.31705,"lon":5.37684,"is_reserved":false,"is_disabled":false,"rental_uris":{"android":"levelo://app?vid=5476d906-b0c2-4d37-81e0-6fc56d7abe48","ios":"levelo://app?vid=5476d906-b0c2-4d37-81e0-6fc56d7abe48"},"vehicle_type_id":"4","last_reported":1757747280,"current_range_meters":19200,"station_id":"ce4bgth2rcd13ifvqch0","pricing_plan_id":"cebpf4jnsgd1na2vs0mg"},{"bike_id":"f2489e58-1b08-43cd-9100-ada550c3c384","system_id":"levelo_inurba_marseille","lat":43.24809,"lon":5.37461,"is_reserved":false,"is_disabled":false,"rental_uris":{"android":"levelo://app?vid=f2489e58-1b08-43cd-9100-ada550c3c384","ios":"levelo://app?vid=f2489e58-1b08-43cd-9100-ada550c3c384"},"vehicle_type_id":"4","last_reported":1757747280,"current_range_meters":19200,"station_id":"ce4bhgh2rcd13ifvqfb0","pricing_plan_id":"cebpf4jnsgd1na2vs0mg"},{"bike_id":"fb7654a2-f2ec-4a94-93b8-2422c35d98a2","system_id":"levelo_inurba_marseille","lat":43.28516,"lon":5.35911,"is_reserved":false,"is_disabled":false,"rental_uris":{"android":"levelo://app?vid=fb7654a2-f2ec-4a94-93b8-2422c35d98a2","ios":"levelo://app?vid=fb7654a2-f2ec-4a94-93b8-2422c35d98a2"},"vehicle_type_id":"4","last_reported":1757747280,"current_range_meters":19200,"station_id":"","pricing_plan_id":"cebpf4jnsgd1na2vs0mg"},{"bike_id":"ff744283-21ef-4c65-9de5-27f50be3b9b0","system_id":"levelo_inurba_marseille","lat":43.29047,"lon":5.39978,"is_reserved":false,"is_disabled":false,"rental_uris":{"android":"levelo://app?vid=ff744283-21ef-4c65-9de5-27f50be3b9b0","ios":"levelo://app?vid=ff744283-21ef-4c65-9de5-27f50be3b9b0"},"vehicle_type_id":"4","last_reported":1757747280,"current_range_meters":19200,"station_id":"ce4bh392rcd13ifvqdm0","pricing_plan_id":"cebpf4jnsgd1na2vs0mg"},{"bike_id":"415ca60b-828e-4661-acf8-e54b1078786d","system_id":"levelo_inurba_marseille","lat":43.29014,"lon":5.38109,"is_reserved":false,"is_disabled":false,"rental_uris":{"android":"levelo://app?vid=415ca60b-828e-4661-acf8-e54b1078786d","ios":"levelo://app?vid=415ca60b-828e-4661-acf8-e54b1078786d"},"vehicle_type_id":"4","last_reported":1757747280,"current_range_meters":19600,"station_id":"ce4bh4p2rcd13ifvqe1g","pricing_plan_id":"cebpf4jnsgd1na2vs0mg"},{"bike_id":"161bd8fd-9cb7-4ecd-9466-0191f3af218a","system_id":"levelo_inurba_marseille","lat":43.25483,"lon":5.37667,"is_reserved":false,"is_disabled":false,"rental_uris":{"android":"levelo://app?vid=161bd8fd-9cb7-4ecd-9466-0191f3af218a","ios":"levelo://app?vid=161bd8fd-9cb7-4ecd-9466-0191f3af218a"},"vehicle_type_id":"4","last_reported":1757747280,"current_range_meters":19600,"station_id":"ce4bhh12rcd13ifvqff0","pricing_plan_id":"cebpf4jnsgd1na2vs0mg"},{"bike_id":"21a355ea-199f-49b4-9881-f8ede24bf5af","system_id":"levelo_inurba_marseille","lat":43.29034,"lon":5.35909,"is_reserved":false,"is_disabled":true,"rental_uris":{"android":"levelo://app?vid=21a355ea-199f-49b4-9881-f8ede24bf5af","ios":"levelo://app?vid=21a355ea-199f-49b4-9881-f8ede24bf5af"},"vehicle_type_id":"4","last_reported":1757747280,"current_range_meters":19600,"station_id":"ce4bha92rcd13ifvqeg0","pricing_plan_id":"cebpf4jnsgd1na2vs0mg"},{"bike_id":"ef94e107-b5fd-44f7-a023-fb0854a2be56","system_id":"levelo_inurba_marseille","lat":43.28593,"lon":5.35108,"is_reserved":false,"is_disabled":true,"rental_uris":{"android":"levelo://app?vid=ef94e107-b5fd-44f7-a023-fb0854a2be56","ios":"levelo://app?vid=ef94e107-b5fd-44f7-a023-fb0854a2be56"},"vehicle_type_id":"4","last_reported":1757747280,"current_range_meters":19600,"station_id":"ce4bhch2rcd13ifvqeug","pricing_plan_id":"cebpf4jnsgd1na2vs0mg"},{"bike_id":"f9a13c36-133c-4fe2-9358-75a6762c885a","system_id":"levelo_inurba_marseille","lat":43.290343,"lon":5.359311,"is_reserved":false,"is_disabled":true,"rental_uris":{"android":"levelo://app?vid=f9a13c36-133c-4fe2-9358-75a6762c885a","ios":"levelo://app?vid=f9a13c36-133c-4fe2-9358-75a6762c885a"},"vehicle_type_id":"4","last_reported":1757747280,"current_range_meters":19600,"station_id":"ce4bha92rcd13ifvqeg0","pricing_plan_id":"cebpf4jnsgd1na2vs0mg"},{"bike_id":"4267d3eb-6ee1-42a7-be84-1833a1145b48","system_id":"levelo_inurba_marseille","lat":43.29218,"lon":5.3609,"is_reserved":false,"is_disabled":false,"rental_uris":{"android":"levelo://app?vid=4267d3eb-6ee1-42a7-be84-1833a1145b48","ios":"levelo://app?vid=4267d3eb-6ee1-42a7-be84-1833a1145b48"},"vehicle_type_id":"4","last_reported":1757747280,"current_range_meters":19600,"station_id":"ce4bhbh2rcd13ifvqeqg","pricing_plan_id":"cebpf4jnsgd1na2vs0mg"},{"bike_id":"5f5e3aae-5efd-4332-a210-23dfdfa72833","system_id":"levelo_inurba_marseille","lat":43.284058,"lon":5.375072,"is_reserved":false,"is_disabled":false,"rental_uris":{"android":"levelo://app?vid=5f5e3aae-5efd-4332-a210-23dfdfa72833","ios":"levelo://app?vid=5f5e3aae-5efd-4332-a210-23dfdfa72833"},"vehicle_type_id":"4","last_reported":1757747280,"current_range_meters":20000,"station_id":"ce4bh412rcd13ifvqds0","pricing_plan_id":"cebpf4jnsgd1na2vs0mg"},{"bike_id":"a1e80537-ba87-4c0c-9e2c-ec8e183fe66a","system_id":"levelo_inurba_marseille","lat":43.298582,"lon":5.36301,"is_reserved":false,"is_disabled":true,"rental_uris":{"android":"levelo://app?vid=a1e80537-ba87-4c0c-9e2c-ec8e183fe66a","ios":"levelo://app?vid=a1e80537-ba87-4c0c-9e2c-ec8e183fe66a"},"vehicle_type_id":"4","last_reported":1757747280,"current_range_meters":20000,"station_id":"ce4bgpp2rcd13ifvqc3g","pricing_plan_id":"cebpf4jnsgd1na2vs0mg"},{"bike_id":"5d66df86-a3b7-4823-89ca-7b28b24b8f9a","system_id":"levelo_inurba_marseille","lat":43.24071,"lon":5.37751,"is_reserved":false,"is_disabled":false,"rental_uris":{"android":"levelo://app?vid=5d66df86-a3b7-4823-89ca-7b28b24b8f9a","ios":"levelo://app?vid=5d66df86-a3b7-4823-89ca-7b28b24b8f9a"},"vehicle_type_id":"4","last_reported":1757747280,"current_range_meters":20000,"station_id":"ce4bhnp2rcd13ifvqgvg","pricing_plan_id":"cebpf4jnsgd1na2vs0mg"},{"bike_id":"d9c4202c-de13-4428-8c40-40d90faf1618","system_id":"levelo_inurba_marseille","lat":43.31356,"lon":5.3707,"is_reserved":false,"is_disabled":false,"rental_uris":{"android":"levelo://app?vid=d9c4202c-de13-4428-8c40-40d90faf1618","ios":"levelo://app?vid=d9c4202c-de13-4428-8c40-40d90faf1618"},"vehicle_type_id":"4","last_reported":1757747280,"current_range_meters":20000,"station_id":"","pricing_plan_id":"cebpf4jnsgd1na2vs0mg"},{"bike_id":"38fb07ef-d51a-4a81-a159-85cbf3466ec5","system_id":"levelo_inurba_marseille","lat":43.296075,"lon":5.377337,"is_reserved":false,"is_disabled":true,"rental_uris":{"android":"levelo://app?vid=38fb07ef-d51a-4a81-a159-85cbf3466ec5","ios":"levelo://app?vid=38fb07ef-d51a-4a81-a159-85cbf3466ec5"},"vehicle_type_id":"4","last_reported":1757747280,"current_range_meters":20000,"station_id":"ce4bgi92rcd13ifvqb90","pricing_plan_id":"cebpf4jnsgd1na2vs0mg"},{"bike_id":"f2f27af9-98e4-496b-a804-f3223cd8e43a","system_id":"levelo_inurba_marseille","lat":43.225334,"lon":5.348323,"is_reserved":false,"is_disabled":true,"rental_uris":{"android":"levelo://app?vid=f2f27af9-98e4-496b-a804-f3223cd8e43a","ios":"levelo://app?vid=f2f27af9-98e4-496b-a804-f3223cd8e43a"},"vehicle_type_id":"4","last_reported":1757747280,"current_range_meters":20000,"station_id":"st_cvj5dfep6f1abm77gieg","pricing_plan_id":"cebpf4jnsgd1na2vs0mg"},{"bike_id":"8ab60a89-bd14-40d7-b359-020ea126cfef","system_id":"levelo_inurba_marseille","lat":43.323616,"lon":5.36752,"is_reserved":false,"is_disabled":false,"rental_uris":{"android":"levelo://app?vid=8ab60a89-bd14-40d7-b359-020ea126cfef","ios":"levelo://app?vid=8ab60a89-bd14-40d7-b359-020ea126cfef"},"vehicle_type_id":"4","last_reported":1757747280,"current_range_meters":20000,"station_id":"ce4bhsh2rcd13ifvqi2g","pricing_plan_id":"cebpf4jnsgd1na2vs0mg"},{"bike_id":"cfccc89a-5d54-40ed-b7f4-c7a0fcbc6642","system_id":"levelo_inurba_marseille","lat":43.30947,"lon":5.39029,"is_reserved":false,"is_disabled":false,"rental_uris":{"android":"levelo://app?vid=cfccc89a-5d54-40ed-b7f4-c7a0fcbc6642","ios":"levelo://app?vid=cfccc89a-5d54-40ed-b7f4-c7a0fcbc6642"},"vehicle_type_id":"4","last_reported":1757747280,"current_range_meters":20000,"station_id":"ce4bgup2rcd13ifvqco0","pricing_plan_id":"cebpf4jnsgd1na2vs0mg"},{"bike_id":"d9e0c818-cda2-40f3-9d69-4d79eefe1a97","system_id":"levelo_inurba_marseille","lat":43.24948,"lon":5.40502,"is_reserved":false,"is_disabled":false,"rental_uris":{"android":"levelo://app?vid=d9e0c818-cda2-40f3-9d69-4d79eefe1a97","ios":"levelo://app?vid=d9e0c818-cda2-40f3-9d69-4d79eefe1a97"},"vehicle_type_id":"4","last_reported":1757747280,"current_range_meters":20000,"station_id":"st_d2ngiaodas8pm72gd1h0","pricing_plan_id":"cebpf4jnsgd1na2vs0mg"},{"bike_id":"6dc300f8-4c74-4a84-9e31-daec34120ce3","system_id":"levelo_inurba_marseille","lat":43.333866,"lon":5.419804,"is_reserved":false,"is_disabled":false,"rental_uris":{"android":"levelo://app?vid=6dc300f8-4c74-4a84-9e31-daec34120ce3","ios":"levelo://app?vid=6dc300f8-4c74-4a84-9e31-daec34120ce3"},"vehicle_type_id":"4","last_reported":1757747280,"current_range_meters":20000,"station_id":"","pricing_plan_id":"cebpf4jnsgd1na2vs0mg"},{"bike_id":"b17e70f5-688e-41fc-91f6-23673c9db800","system_id":"levelo_inurba_marseille","lat":43.30935,"lon":5.40144,"is_reserved":false,"is_disabled":false,"rental_uris":{"android":"levelo://app?vid=b17e70f5-688e-41fc-91f6-23673c9db800","ios":"levelo://app?vid=b17e70f5-688e-41fc-91f6-23673c9db800"},"vehicle_type_id":"4","last_reported":1757747280,"current_range_meters":20000,"station_id":"ce4bgvp2rcd13ifvqct0","pricing_plan_id":"cebpf4jnsgd1na2vs0mg"},{"bike_id":"314c54bf-6fda-45c7-9b81-07b2b61ac08b","system_id":"levelo_inurba_marseille","lat":43.31734,"lon":5.40452,"is_reserved":false,"is_disabled":false,"rental_uris":{"android":"levelo://app?vid=314c54bf-6fda-45c7-9b81-07b2b61ac08b","ios":"levelo://app?vid=314c54bf-6fda-45c7-9b81-07b2b61ac08b"},"vehicle_type_id":"4","last_reported":1757747280,"current_range_meters":20400,"station_id":"ce4bh012rcd13ifvqd00","pricing_plan_id":"cebpf4jnsgd1na2vs0mg"},{"bike_id":"20d08a36-fa04-454f-b381-5c66030c764a","system_id":"levelo_inurba_marseille","lat":43.31509,"lon":5.37299,"is_reserved":false,"is_disabled":false,"rental_uris":{"android":"levelo://app?vid=20d08a36-fa04-454f-b381-5c66030c764a","ios":"levelo://app?vid=20d08a36-fa04-454f-b381-5c66030c764a"},"vehicle_type_id":"4","last_reported":1757747280,"current_range_meters":20400,"station_id":"ce4bgt12rcd13ifvqcd0","pricing_plan_id":"cebpf4jnsgd1na2vs0mg"},{"bike_id":"b5dd9592-219f-492d-b5bb-70fda2be2288","system_id":"levelo_inurba_marseille","lat":43.3106,"lon":5.38353,"is_reserved":false,"is_disabled":false,"rental_uris":{"android":"levelo://app?vid=b5dd9592-219f-492d-b5bb-70fda2be2288","ios":"levelo://app?vid=b5dd9592-219f-492d-b5bb-70fda2be2288"},"vehicle_type_id":"4","last_reported":1757747280,"current_range_meters":20400,"station_id":"ce4bgv92rcd13ifvqcr0","pricing_plan_id":"cebpf4jnsgd1na2vs0mg"},{"bike_id":"d0b51c92-8919-40a8-81c9-9ab53ac118e3","system_id":"levelo_inurba_marseille","lat":43.33013,"lon":5.39041,"is_reserved":false,"is_disabled":false,"rental_uris":{"android":"levelo://app?vid=d0b51c92-8919-40a8-81c9-9ab53ac118e3","ios":"levelo://app?vid=d0b51c92-8919-40a8-81c9-9ab53ac118e3"},"vehicle_type_id":"4","last_reported":1757747280,"current_range_meters":20400,"station_id":"ce4bhr92rcd13ifvqhrg","pricing_plan_id":"cebpf4jnsgd1na2vs0mg"},{"bike_id":"35f64a10-f14e-414c-aaad-30a388fa92a4","system_id":"levelo_inurba_marseille","lat":43.2866,"lon":5.36403,"is_reserved":false,"is_disabled":false,"rental_uris":{"android":"levelo://app?vid=35f64a10-f14e-414c-aaad-30a388fa92a4","ios":"levelo://app?vid=35f64a10-f14e-414c-aaad-30a388fa92a4"},"vehicle_type_id":"4","last_reported":1757747280,"current_range_meters":20400,"station_id":"","pricing_plan_id":"cebpf4jnsgd1na2vs0mg"},{"bike_id":"97e59ac0-fa91-4ea3-8eeb-17d2ec19f33f","system_id":"levelo_inurba_marseille","lat":43.311234,"lon":5.37769,"is_reserved":false,"is_disabled":false,"rental_uris":{"android":"levelo://app?vid=97e59ac0-fa91-4ea3-8eeb-17d2ec19f33f","ios":"levelo://app?vid=97e59ac0-fa91-4ea3-8eeb-17d2ec19f33f"},"vehicle_type_id":"4","last_reported":1757747280,"current_range_meters":20400,"station_id":"ce4bgt92rcd13ifvqcg0","pricing_plan_id":"cebpf4jnsgd1na2vs0mg"},{"bike_id":"c46c3b62-4630-4bc4-ab57-ccdd00e3d687","system_id":"levelo_inurba_marseille","lat":43.29036,"lon":5.39991,"is_reserved":false,"is_disabled":false,"rental_uris":{"android":"levelo://app?vid=c46c3b62-4630-4bc4-ab57-ccdd00e3d687","ios":"levelo://app?vid=c46c3b62-4630-4bc4-ab57-ccdd00e3d687"},"vehicle_type_id":"4","last_reported":1757747280,"current_range_meters":20400,"station_id":"ce4bh392rcd13ifvqdm0","pricing_plan_id":"cebpf4jnsgd1na2vs0mg"},{"bike_id":"3283b7c7-ca97-44fb-913e-ab5791ec7c6a","system_id":"levelo_inurba_marseille","lat":43.30384,"lon":5.42477,"is_reserved":false,"is_disabled":false,"rental_uris":{"android":"levelo://app?vid=3283b7c7-ca97-44fb-913e-ab5791ec7c6a","ios":"levelo://app?vid=3283b7c7-ca97-44fb-913e-ab5791ec7c6a"},"vehicle_type_id":"4","last_reported":1757747280,"current_range_meters":20800,"station_id":"ce4bhoh2rcd13ifvqh6g","pricing_plan_id":"cebpf4jnsgd1na2vs0mg"},{"bike_id":"69154674-8aaa-4d29-bdba-2ea7e7c4c005","system_id":"levelo_inurba_marseille","lat":43.3108,"lon":5.42442,"is_reserved":false,"is_disabled":false,"rental_uris":{"android":"levelo://app?vid=69154674-8aaa-4d29-bdba-2ea7e7c4c005","ios":"levelo://app?vid=69154674-8aaa-4d29-bdba-2ea7e7c4c005"},"vehicle_type_id":"4","last_reported":1757747280,"current_range_meters":20800,"station_id":"ce4bhp92rcd13ifvqhag","pricing_plan_id":"cebpf4jnsgd1na2vs0mg"},{"bike_id":"aa363d9e-9000-4f98-9e6d-adf7642d1e59","system_id":"levelo_inurba_marseille","lat":43.270708,"lon":5.42275,"is_reserved":false,"is_disabled":false,"rental_uris":{"android":"levelo://app?vid=aa363d9e-9000-4f98-9e6d-adf7642d1e59","ios":"levelo://app?vid=aa363d9e-9000-4f98-9e6d-adf7642d1e59"},"vehicle_type_id":"4","last_reported":1757747280,"current_range_meters":20800,"station_id":"ce4bhk92rcd13ifvqgb0","pricing_plan_id":"cebpf4jnsgd1na2vs0mg"},{"bike_id":"19bb9ad9-ce5f-4ce5-8233-51f18b2bd485","system_id":"levelo_inurba_marseille","lat":43.29031,"lon":5.39969,"is_reserved":false,"is_disabled":false,"rental_uris":{"android":"levelo://app?vid=19bb9ad9-ce5f-4ce5-8233-51f18b2bd485","ios":"levelo://app?vid=19bb9ad9-ce5f-4ce5-8233-51f18b2bd485"},"vehicle_type_id":"4","last_reported":1757747280,"current_range_meters":21600,"station_id":"ce4bh392rcd13ifvqdm0","pricing_plan_id":"cebpf4jnsgd1na2vs0mg"},{"bike_id":"c79f98a5-b132-4d8b-b050-5e48074dc6fe","system_id":"levelo_inurba_marseille","lat":43.31718,"lon":5.40462,"is_reserved":false,"is_disabled":false,"rental_uris":{"android":"levelo://app?vid=c79f98a5-b132-4d8b-b050-5e48074dc6fe","ios":"levelo://app?vid=c79f98a5-b132-4d8b-b050-5e48074dc6fe"},"vehicle_type_id":"4","last_reported":1757747280,"current_range_meters":21600,"station_id":"ce4bh012rcd13ifvqd00","pricing_plan_id":"cebpf4jnsgd1na2vs0mg"},{"bike_id":"22f29fde-4cf5-4a9b-994a-0e2fd1967670","system_id":"levelo_inurba_marseille","lat":43.24168,"lon":5.36422,"is_reserved":false,"is_disabled":false,"rental_uris":{"android":"levelo://app?vid=22f29fde-4cf5-4a9b-994a-0e2fd1967670","ios":"levelo://app?vid=22f29fde-4cf5-4a9b-994a-0e2fd1967670"},