{"last_updated":1779101760,"ttl":60,"version":"2.2","data":{"bikes":[{"bike_id":"89424039-8de3-4863-a0cd-5928fc1d9eda","system_id":"levelo_inurba_marseille","lat":43.30921,"lon":5.3684,"is_reserved":false,"is_disabled":false,"rental_uris":{"android":"levelo://app?vid=89424039-8de3-4863-a0cd-5928fc1d9eda","ios":"levelo://app?vid=89424039-8de3-4863-a0cd-5928fc1d9eda"},"vehicle_type_id":"4","last_reported":1779101761,"current_range_meters":2800,"station_id":"ce4bgn92rcd13ifvqbvg","pricing_plan_id":"cebpf4jnsgd1na2vs0mg"},{"bike_id":"330a636a-41f6-4ce4-8589-430c5d2cb25b","system_id":"levelo_inurba_marseille","lat":43.28854,"lon":5.4251,"is_reserved":false,"is_disabled":false,"rental_uris":{"android":"levelo://app?vid=330a636a-41f6-4ce4-8589-430c5d2cb25b","ios":"levelo://app?vid=330a636a-41f6-4ce4-8589-430c5d2cb25b"},"vehicle_type_id":"4","last_reported":1779101761,"current_range_meters":2800,"station_id":"st_d3b462108ojc7389ooeg","pricing_plan_id":"cebpf4jnsgd1na2vs0mg"},{"bike_id":"6c9c1d53-5da9-467a-9252-c3b05ac07162","system_id":"levelo_inurba_marseille","lat":43.29885,"lon":5.37866,"is_reserved":false,"is_disabled":false,"rental_uris":{"android":"levelo://app?vid=6c9c1d53-5da9-467a-9252-c3b05ac07162","ios":"levelo://app?vid=6c9c1d53-5da9-467a-9252-c3b05ac07162"},"vehicle_type_id":"4","last_reported":1779101761,"current_range_meters":2800,"station_id":"","pricing_plan_id":"cebpf4jnsgd1na2vs0mg"},{"bike_id":"f5fdad27-a479-49d2-a266-0ca35622c322","system_id":"levelo_inurba_marseille","lat":43.30425,"lon":5.41269,"is_reserved":false,"is_disabled":false,"rental_uris":{"android":"levelo://app?vid=f5fdad27-a479-49d2-a266-0ca35622c322","ios":"levelo://app?vid=f5fdad27-a479-49d2-a266-0ca35622c322"},"vehicle_type_id":"4","last_reported":1779101761,"current_range_meters":2800,"station_id":"ce4bhop2rcd13ifvqh8g","pricing_plan_id":"cebpf4jnsgd1na2vs0mg"},{"bike_id":"58f139ed-a9db-46fe-b024-cc6d01799291","system_id":"levelo_inurba_marseille","lat":43.29322,"lon":5.37444,"is_reserved":false,"is_disabled":true,"rental_uris":{"android":"levelo://app?vid=58f139ed-a9db-46fe-b024-cc6d01799291","ios":"levelo://app?vid=58f139ed-a9db-46fe-b024-cc6d01799291"},"vehicle_type_id":"4","last_reported":1779101761,"current_range_meters":2800,"station_id":"ce4bgi12rcd13ifvqb70","pricing_plan_id":"cebpf4jnsgd1na2vs0mg"},{"bike_id":"e43089a7-35e8-4840-9254-b5f7b49fe083","system_id":"levelo_inurba_marseille","lat":43.26572,"lon":5.3901,"is_reserved":false,"is_disabled":false,"rental_uris":{"android":"levelo://app?vid=e43089a7-35e8-4840-9254-b5f7b49fe083","ios":"levelo://app?vid=e43089a7-35e8-4840-9254-b5f7b49fe083"},"vehicle_type_id":"4","last_reported":1779101761,"current_range_meters":2800,"station_id":"ce4bhe12rcd13ifvqf30","pricing_plan_id":"cebpf4jnsgd1na2vs0mg"},{"bike_id":"c9e9fdd5-9999-4049-89c9-d33f10650123","system_id":"levelo_inurba_marseille","lat":43.27423,"lon":5.39423,"is_reserved":false,"is_disabled":true,"rental_uris":{"android":"levelo://app?vid=c9e9fdd5-9999-4049-89c9-d33f10650123","ios":"levelo://app?vid=c9e9fdd5-9999-4049-89c9-d33f10650123"},"vehicle_type_id":"4","last_reported":1779101761,"current_range_meters":2800,"station_id":"ce4bhdp2rcd13ifvqf20","pricing_plan_id":"cebpf4jnsgd1na2vs0mg"},{"bike_id":"90e5cef0-f35c-4fb9-8610-1cbb7fced56d","system_id":"levelo_inurba_marseille","lat":43.28659,"lon":5.36344,"is_reserved":false,"is_disabled":false,"rental_uris":{"android":"levelo://app?vid=90e5cef0-f35c-4fb9-8610-1cbb7fced56d","ios":"levelo://app?vid=90e5cef0-f35c-4fb9-8610-1cbb7fced56d"},"vehicle_type_id":"4","last_reported":1779101761,"current_range_meters":2800,"station_id":"ce4bhah2rcd13ifvqej0","pricing_plan_id":"cebpf4jnsgd1na2vs0mg"},{"bike_id":"d114623f-77ac-4a84-b537-40acd1678c98","system_id":"levelo_inurba_marseille","lat":43.2683,"lon":5.40826,"is_reserved":false,"is_disabled":false,"rental_uris":{"android":"levelo://app?vid=d114623f-77ac-4a84-b537-40acd1678c98","ios":"levelo://app?vid=d114623f-77ac-4a84-b537-40acd1678c98"},"vehicle_type_id":"4","last_reported":1779101761,"current_range_meters":2800,"station_id":"","pricing_plan_id":"cebpf4jnsgd1na2vs0mg"},{"bike_id":"6b3c50c9-c64d-42b1-a54a-ecf4ecdd662c","system_id":"levelo_inurba_marseille","lat":43.31661,"lon":5.36839,"is_reserved":false,"is_disabled":false,"rental_uris":{"android":"levelo://app?vid=6b3c50c9-c64d-42b1-a54a-ecf4ecdd662c","ios":"levelo://app?vid=6b3c50c9-c64d-42b1-a54a-ecf4ecdd662c"},"vehicle_type_id":"4","last_reported":1779101761,"current_range_meters":2800,"station_id":"","pricing_plan_id":"cebpf4jnsgd1na2vs0mg"},{"bike_id":"e31133fa-834a-42ba-bf55-ad118de5acb7","system_id":"levelo_inurba_marseille","lat":43.292801,"lon":5.401149,"is_reserved":false,"is_disabled":true,"rental_uris":{"android":"levelo://app?vid=e31133fa-834a-42ba-bf55-ad118de5acb7","ios":"levelo://app?vid=e31133fa-834a-42ba-bf55-ad118de5acb7"},"vehicle_type_id":"4","last_reported":1779101761,"current_range_meters":3200,"station_id":"ce4bh312rcd13ifvqdk0","pricing_plan_id":"cebpf4jnsgd1na2vs0mg"},{"bike_id":"b0b32c28-46aa-4d47-99a7-750f19df7701","system_id":"levelo_inurba_marseille","lat":43.25207,"lon":5.37417,"is_reserved":false,"is_disabled":false,"rental_uris":{"android":"levelo://app?vid=b0b32c28-46aa-4d47-99a7-750f19df7701","ios":"levelo://app?vid=b0b32c28-46aa-4d47-99a7-750f19df7701"},"vehicle_type_id":"4","last_reported":1779101761,"current_range_meters":3200,"station_id":"","pricing_plan_id":"cebpf4jnsgd1na2vs0mg"},{"bike_id":"564eb424-2181-4cbf-aae4-e204f41a03fe","system_id":"levelo_inurba_marseille","lat":43.284821,"lon":5.38416,"is_reserved":false,"is_disabled":false,"rental_uris":{"android":"levelo://app?vid=564eb424-2181-4cbf-aae4-e204f41a03fe","ios":"levelo://app?vid=564eb424-2181-4cbf-aae4-e204f41a03fe"},"vehicle_type_id":"4","last_reported":1779101761,"current_range_meters":3200,"station_id":"","pricing_plan_id":"cebpf4jnsgd1na2vs0mg"},{"bike_id":"f262cf4f-72e2-4b37-b8fc-e600808c4245","system_id":"levelo_inurba_marseille","lat":43.32471,"lon":5.36579,"is_reserved":false,"is_disabled":false,"rental_uris":{"android":"levelo://app?vid=f262cf4f-72e2-4b37-b8fc-e600808c4245","ios":"levelo://app?vid=f262cf4f-72e2-4b37-b8fc-e600808c4245"},"vehicle_type_id":"4","last_reported":1779101761,"current_range_meters":3200,"station_id":"ce4bhs12rcd13ifvqhvg","pricing_plan_id":"cebpf4jnsgd1na2vs0mg"},{"bike_id":"1b0078d8-cecf-4417-98d3-3d9cdcc5d27a","system_id":"levelo_inurba_marseille","lat":43.30122,"lon":5.43097,"is_reserved":false,"is_disabled":false,"rental_uris":{"android":"levelo://app?vid=1b0078d8-cecf-4417-98d3-3d9cdcc5d27a","ios":"levelo://app?vid=1b0078d8-cecf-4417-98d3-3d9cdcc5d27a"},"vehicle_type_id":"4","last_reported":1779101761,"current_range_meters":3200,"station_id":"st_d3js3co5814s73ftftug","pricing_plan_id":"cebpf4jnsgd1na2vs0mg"},{"bike_id":"e7a3758e-0fcc-409b-b5a9-f8623ac41fdc","system_id":"levelo_inurba_marseille","lat":43.29408,"lon":5.37859,"is_reserved":false,"is_disabled":false,"rental_uris":{"android":"levelo://app?vid=e7a3758e-0fcc-409b-b5a9-f8623ac41fdc","ios":"levelo://app?vid=e7a3758e-0fcc-409b-b5a9-f8623ac41fdc"},"vehicle_type_id":"4","last_reported":1779101761,"current_range_meters":3200,"station_id":"ce4bgjh2rcd13ifvqbf0","pricing_plan_id":"cebpf4jnsgd1na2vs0mg"},{"bike_id":"13508917-3aca-4d79-b61b-9041b5e509e7","system_id":"levelo_inurba_marseille","lat":43.30931,"lon":5.40135,"is_reserved":false,"is_disabled":false,"rental_uris":{"android":"levelo://app?vid=13508917-3aca-4d79-b61b-9041b5e509e7","ios":"levelo://app?vid=13508917-3aca-4d79-b61b-9041b5e509e7"},"vehicle_type_id":"4","last_reported":1779101761,"current_range_meters":3200,"station_id":"ce4bgvp2rcd13ifvqct0","pricing_plan_id":"cebpf4jnsgd1na2vs0mg"},{"bike_id":"d1a0354c-b7f4-44f1-9261-0977a9189cfd","system_id":"levelo_inurba_marseille","lat":43.24076,"lon":5.37758,"is_reserved":false,"is_disabled":false,"rental_uris":{"android":"levelo://app?vid=d1a0354c-b7f4-44f1-9261-0977a9189cfd","ios":"levelo://app?vid=d1a0354c-b7f4-44f1-9261-0977a9189cfd"},"vehicle_type_id":"4","last_reported":1779101761,"current_range_meters":3200,"station_id":"ce4bhnp2rcd13ifvqgvg","pricing_plan_id":"cebpf4jnsgd1na2vs0mg"},{"bike_id":"760a3039-90de-4fcd-8f95-a35c793d84c8","system_id":"levelo_inurba_marseille","lat":43.30303,"lon":5.36887,"is_reserved":false,"is_disabled":false,"rental_uris":{"android":"levelo://app?vid=760a3039-90de-4fcd-8f95-a35c793d84c8","ios":"levelo://app?vid=760a3039-90de-4fcd-8f95-a35c793d84c8"},"vehicle_type_id":"4","last_reported":1779101761,"current_range_meters":3200,"station_id":"ce4bgqh2rcd13ifvqc5g","pricing_plan_id":"cebpf4jnsgd1na2vs0mg"},{"bike_id":"9314a24d-6708-4e7c-a4f4-6a0607e13471","system_id":"levelo_inurba_marseille","lat":43.25589,"lon":5.38218,"is_reserved":false,"is_disabled":false,"rental_uris":{"android":"levelo://app?vid=9314a24d-6708-4e7c-a4f4-6a0607e13471","ios":"levelo://app?vid=9314a24d-6708-4e7c-a4f4-6a0607e13471"},"vehicle_type_id":"4","last_reported":1779101761,"current_range_meters":3200,"station_id":"ce4bhih2rcd13ifvqfs0","pricing_plan_id":"cebpf4jnsgd1na2vs0mg"},{"bike_id":"391ab54a-0590-472a-9c9d-cf7500de5206","system_id":"levelo_inurba_marseille","lat":43.28149,"lon":5.42648,"is_reserved":false,"is_disabled":false,"rental_uris":{"android":"levelo://app?vid=391ab54a-0590-472a-9c9d-cf7500de5206","ios":"levelo://app?vid=391ab54a-0590-472a-9c9d-cf7500de5206"},"vehicle_type_id":"4","last_reported":1779101761,"current_range_meters":3200,"station_id":"ce4bhnh2rcd13ifvqgug","pricing_plan_id":"cebpf4jnsgd1na2vs0mg"},{"bike_id":"e642271c-003a-48b3-8496-b1a16f40db40","system_id":"levelo_inurba_marseille","lat":43.27813,"lon":5.40711,"is_reserved":false,"is_disabled":false,"rental_uris":{"android":"levelo://app?vid=e642271c-003a-48b3-8496-b1a16f40db40","ios":"levelo://app?vid=e642271c-003a-48b3-8496-b1a16f40db40"},"vehicle_type_id":"4","last_reported":1779101761,"current_range_meters":3200,"station_id":"ce4bhnh2rcd13ifvqgtg","pricing_plan_id":"cebpf4jnsgd1na2vs0mg"},{"bike_id":"c81726f5-4a23-4789-9730-0b0978563010","system_id":"levelo_inurba_marseille","lat":43.29058,"lon":5.39963,"is_reserved":false,"is_disabled":false,"rental_uris":{"android":"levelo://app?vid=c81726f5-4a23-4789-9730-0b0978563010","ios":"levelo://app?vid=c81726f5-4a23-4789-9730-0b0978563010"},"vehicle_type_id":"4","last_reported":1779101761,"current_range_meters":3600,"station_id":"ce4bh392rcd13ifvqdm0","pricing_plan_id":"cebpf4jnsgd1na2vs0mg"},{"bike_id":"1f990ee6-2363-49ea-b979-563c1ee85cbf","system_id":"levelo_inurba_marseille","lat":43.27216,"lon":5.39147,"is_reserved":false,"is_disabled":false,"rental_uris":{"android":"levelo://app?vid=1f990ee6-2363-49ea-b979-563c1ee85cbf","ios":"levelo://app?vid=1f990ee6-2363-49ea-b979-563c1ee85cbf"},"vehicle_type_id":"4","last_reported":1779101761,"current_range_meters":3600,"station_id":"ce4bhhp2rcd13ifvqfm0","pricing_plan_id":"cebpf4jnsgd1na2vs0mg"},{"bike_id":"8c240bb7-ac48-48dd-b7c1-1519c2b2db9f","system_id":"levelo_inurba_marseille","lat":43.22925,"lon":5.35372,"is_reserved":false,"is_disabled":true,"rental_uris":{"android":"levelo://app?vid=8c240bb7-ac48-48dd-b7c1-1519c2b2db9f","ios":"levelo://app?vid=8c240bb7-ac48-48dd-b7c1-1519c2b2db9f"},"vehicle_type_id":"4","last_reported":1779101761,"current_range_meters":3600,"station_id":"cpo3532slgdg3j2ikp40","pricing_plan_id":"cebpf4jnsgd1na2vs0mg"},{"bike_id":"dddb3db8-5fb6-4fa6-8a81-cb219cefc513","system_id":"levelo_inurba_marseille","lat":43.2745,"lon":5.39379,"is_reserved":false,"is_disabled":false,"rental_uris":{"android":"levelo://app?vid=dddb3db8-5fb6-4fa6-8a81-cb219cefc513","ios":"levelo://app?vid=dddb3db8-5fb6-4fa6-8a81-cb219cefc513"},"vehicle_type_id":"4","last_reported":1779101761,"current_range_meters":3600,"station_id":"ce4bhdp2rcd13ifvqf20","pricing_plan_id":"cebpf4jnsgd1na2vs0mg"},{"bike_id":"8679d5c2-59e6-4d42-bafc-1828e297af0f","system_id":"levelo_inurba_marseille","lat":43.21217,"lon":5.3504,"is_reserved":false,"is_disabled":false,"rental_uris":{"android":"levelo://app?vid=8679d5c2-59e6-4d42-bafc-1828e297af0f","ios":"levelo://app?vid=8679d5c2-59e6-4d42-bafc-1828e297af0f"},"vehicle_type_id":"4","last_reported":1779101761,"current_range_meters":3600,"station_id":"","pricing_plan_id":"cebpf4jnsgd1na2vs0mg"},{"bike_id":"fbd87423-b2de-4fe9-bb40-075fd157f65c","system_id":"levelo_inurba_marseille","lat":43.29311,"lon":5.37449,"is_reserved":false,"is_disabled":false,"rental_uris":{"android":"levelo://app?vid=fbd87423-b2de-4fe9-bb40-075fd157f65c","ios":"levelo://app?vid=fbd87423-b2de-4fe9-bb40-075fd157f65c"},"vehicle_type_id":"4","last_reported":1779101761,"current_range_meters":3600,"station_id":"ce4bgi12rcd13ifvqb70","pricing_plan_id":"cebpf4jnsgd1na2vs0mg"},{"bike_id":"a00fb7c0-9f3a-4897-b63e-5c5887812c2b","system_id":"levelo_inurba_marseille","lat":43.26217,"lon":5.37427,"is_reserved":false,"is_disabled":false,"rental_uris":{"android":"levelo://app?vid=a00fb7c0-9f3a-4897-b63e-5c5887812c2b","ios":"levelo://app?vid=a00fb7c0-9f3a-4897-b63e-5c5887812c2b"},"vehicle_type_id":"4","last_reported":1779101761,"current_range_meters":3600,"station_id":"ce4bhgp2rcd13ifvqfc0","pricing_plan_id":"cebpf4jnsgd1na2vs0mg"},{"bike_id":"51682ceb-de12-42e7-ac6f-c9ad11899fc1","system_id":"levelo_inurba_marseille","lat":43.26176,"lon":5.40457,"is_reserved":false,"is_disabled":false,"rental_uris":{"android":"levelo://app?vid=51682ceb-de12-42e7-ac6f-c9ad11899fc1","ios":"levelo://app?vid=51682ceb-de12-42e7-ac6f-c9ad11899fc1"},"vehicle_type_id":"4","last_reported":1779101761,"current_range_meters":3600,"station_id":"ce4bhmh2rcd13ifvqgmg","pricing_plan_id":"cebpf4jnsgd1na2vs0mg"},{"bike_id":"2481a0ea-27f9-43b3-aaa6-3738d21a3d09","system_id":"levelo_inurba_marseille","lat":43.26938,"lon":5.38912,"is_reserved":false,"is_disabled":false,"rental_uris":{"android":"levelo://app?vid=2481a0ea-27f9-43b3-aaa6-3738d21a3d09","ios":"levelo://app?vid=2481a0ea-27f9-43b3-aaa6-3738d21a3d09"},"vehicle_type_id":"4","last_reported":1779101761,"current_range_meters":3600,"station_id":"ce4bhhh2rcd13ifvqfl0","pricing_plan_id":"cebpf4jnsgd1na2vs0mg"},{"bike_id":"bf02e6bc-e537-47b7-9880-b68178c77797","system_id":"levelo_inurba_marseille","lat":43.2869,"lon":5.37372,"is_reserved":false,"is_disabled":false,"rental_uris":{"android":"levelo://app?vid=bf02e6bc-e537-47b7-9880-b68178c77797","ios":"levelo://app?vid=bf02e6bc-e537-47b7-9880-b68178c77797"},"vehicle_type_id":"4","last_reported":1779101761,"current_range_meters":3600,"station_id":"ce4bh3p2rcd13ifvqdq0","pricing_plan_id":"cebpf4jnsgd1na2vs0mg"},{"bike_id":"95429a0d-7a20-424d-8b0a-71c7e3c0fa8e","system_id":"levelo_inurba_marseille","lat":43.295,"lon":5.4329,"is_reserved":false,"is_disabled":false,"rental_uris":{"android":"levelo://app?vid=95429a0d-7a20-424d-8b0a-71c7e3c0fa8e","ios":"levelo://app?vid=95429a0d-7a20-424d-8b0a-71c7e3c0fa8e"},"vehicle_type_id":"4","last_reported":1779101761,"current_range_meters":4000,"station_id":"st_d3j5ugp08ojc73fj9d10","pricing_plan_id":"cebpf4jnsgd1na2vs0mg"},{"bike_id":"50aaf4f8-23e4-4752-9718-860aa83f1c8b","system_id":"levelo_inurba_marseille","lat":43.29079,"lon":5.37163,"is_reserved":false,"is_disabled":true,"rental_uris":{"android":"levelo://app?vid=50aaf4f8-23e4-4752-9718-860aa83f1c8b","ios":"levelo://app?vid=50aaf4f8-23e4-4752-9718-860aa83f1c8b"},"vehicle_type_id":"4","last_reported":1779101761,"current_range_meters":4000,"station_id":"ce4bh5p2rcd13ifvqe4g","pricing_plan_id":"cebpf4jnsgd1na2vs0mg"},{"bike_id":"eb68c35f-ecf7-4054-9bf5-6082a4198aef","system_id":"levelo_inurba_marseille","lat":43.29053,"lon":5.39938,"is_reserved":false,"is_disabled":false,"rental_uris":{"android":"levelo://app?vid=eb68c35f-ecf7-4054-9bf5-6082a4198aef","ios":"levelo://app?vid=eb68c35f-ecf7-4054-9bf5-6082a4198aef"},"vehicle_type_id":"4","last_reported":1779101761,"current_range_meters":4000,"station_id":"ce4bh392rcd13ifvqdm0","pricing_plan_id":"cebpf4jnsgd1na2vs0mg"},{"bike_id":"e0bb6494-3107-45d5-bf57-d23876a00455","system_id":"levelo_inurba_marseille","lat":43.21218,"lon":5.35014,"is_reserved":false,"is_disabled":false,"rental_uris":{"android":"levelo://app?vid=e0bb6494-3107-45d5-bf57-d23876a00455","ios":"levelo://app?vid=e0bb6494-3107-45d5-bf57-d23876a00455"},"vehicle_type_id":"4","last_reported":1779101761,"current_range_meters":4000,"station_id":"","pricing_plan_id":"cebpf4jnsgd1na2vs0mg"},{"bike_id":"07320c7a-ad3b-459c-9e31-35cdba0e19d4","system_id":"levelo_inurba_marseille","lat":43.23198,"lon":5.35546,"is_reserved":false,"is_disabled":false,"rental_uris":{"android":"levelo://app?vid=07320c7a-ad3b-459c-9e31-35cdba0e19d4","ios":"levelo://app?vid=07320c7a-ad3b-459c-9e31-35cdba0e19d4"},"vehicle_type_id":"4","last_reported":1779101761,"current_range_meters":4000,"station_id":"ce4bhu92rcd13ifvqi70","pricing_plan_id":"cebpf4jnsgd1na2vs0mg"},{"bike_id":"7f6b3f84-04d6-423c-a073-7e8082d5f399","system_id":"levelo_inurba_marseille","lat":43.27486,"lon":5.42399,"is_reserved":false,"is_disabled":false,"rental_uris":{"android":"levelo://app?vid=7f6b3f84-04d6-423c-a073-7e8082d5f399","ios":"levelo://app?vid=7f6b3f84-04d6-423c-a073-7e8082d5f399"},"vehicle_type_id":"4","last_reported":1779101761,"current_range_meters":4000,"station_id":"ce4bhn92rcd13ifvqgrg","pricing_plan_id":"cebpf4jnsgd1na2vs0mg"},{"bike_id":"4495d6d6-9f55-4adf-a830-0bc8f32771d5","system_id":"levelo_inurba_marseille","lat":43.26577,"lon":5.3902,"is_reserved":false,"is_disabled":false,"rental_uris":{"android":"levelo://app?vid=4495d6d6-9f55-4adf-a830-0bc8f32771d5","ios":"levelo://app?vid=4495d6d6-9f55-4adf-a830-0bc8f32771d5"},"vehicle_type_id":"4","last_reported":1779101761,"current_range_meters":4000,"station_id":"ce4bhe12rcd13ifvqf30","pricing_plan_id":"cebpf4jnsgd1na2vs0mg"},{"bike_id":"511c8465-290f-4f26-8b97-6874edfdcb29","system_id":"levelo_inurba_marseille","lat":43.3047,"lon":5.38872,"is_reserved":false,"is_disabled":false,"rental_uris":{"android":"levelo://app?vid=511c8465-290f-4f26-8b97-6874edfdcb29","ios":"levelo://app?vid=511c8465-290f-4f26-8b97-6874edfdcb29"},"vehicle_type_id":"4","last_reported":1779101761,"current_range_meters":4000,"station_id":"ce4bgk12rcd13ifvqbi0","pricing_plan_id":"cebpf4jnsgd1na2vs0mg"},{"bike_id":"45af3a97-fef4-45a1-b9df-e8265caf6ba9","system_id":"levelo_inurba_marseille","lat":43.28244,"lon":5.35066,"is_reserved":false,"is_disabled":false,"rental_uris":{"android":"levelo://app?vid=45af3a97-fef4-45a1-b9df-e8265caf6ba9","ios":"levelo://app?vid=45af3a97-fef4-45a1-b9df-e8265caf6ba9"},"vehicle_type_id":"4","last_reported":1779101761,"current_range_meters":4000,"station_id":"ce4bhbp2rcd13ifvqerg","pricing_plan_id":"cebpf4jnsgd1na2vs0mg"},{"bike_id":"101e3fe0-5bd6-4baa-907e-66750b864581","system_id":"levelo_inurba_marseille","lat":43.25514,"lon":5.37634,"is_reserved":false,"is_disabled":false,"rental_uris":{"android":"levelo://app?vid=101e3fe0-5bd6-4baa-907e-66750b864581","ios":"levelo://app?vid=101e3fe0-5bd6-4baa-907e-66750b864581"},"vehicle_type_id":"4","last_reported":1779101761,"current_range_meters":4000,"station_id":"ce4bhh12rcd13ifvqff0","pricing_plan_id":"cebpf4jnsgd1na2vs0mg"},{"bike_id":"3d3c182e-6f08-4049-9d97-80253a030ebc","system_id":"levelo_inurba_marseille","lat":43.30595,"lon":5.3933,"is_reserved":false,"is_disabled":false,"rental_uris":{"android":"levelo://app?vid=3d3c182e-6f08-4049-9d97-80253a030ebc","ios":"levelo://app?vid=3d3c182e-6f08-4049-9d97-80253a030ebc"},"vehicle_type_id":"4","last_reported":1779101761,"current_range_meters":4000,"station_id":"ce4bh0p2rcd13ifvqd80","pricing_plan_id":"cebpf4jnsgd1na2vs0mg"},{"bike_id":"66429297-f300-4e74-b716-11686d1f12b2","system_id":"levelo_inurba_marseille","lat":43.29879,"lon":5.39724,"is_reserved":false,"is_disabled":false,"rental_uris":{"android":"levelo://app?vid=66429297-f300-4e74-b716-11686d1f12b2","ios":"levelo://app?vid=66429297-f300-4e74-b716-11686d1f12b2"},"vehicle_type_id":"4","last_reported":1779101761,"current_range_meters":4000,"station_id":"ce4bh0h2rcd13ifvqd50","pricing_plan_id":"cebpf4jnsgd1na2vs0mg"},{"bike_id":"2cd48a35-42f5-4905-a545-77ef65266664","system_id":"levelo_inurba_marseille","lat":43.29664,"lon":5.37769,"is_reserved":false,"is_disabled":false,"rental_uris":{"android":"levelo://app?vid=2cd48a35-42f5-4905-a545-77ef65266664","ios":"levelo://app?vid=2cd48a35-42f5-4905-a545-77ef65266664"},"vehicle_type_id":"4","last_reported":1779101761,"current_range_meters":4400,"station_id":"","pricing_plan_id":"cebpf4jnsgd1na2vs0mg"},{"bike_id":"b933ad0e-7133-455e-925d-8a53bf107052","system_id":"levelo_inurba_marseille","lat":43.26591,"lon":5.39019,"is_reserved":false,"is_disabled":false,"rental_uris":{"android":"levelo://app?vid=b933ad0e-7133-455e-925d-8a53bf107052","ios":"levelo://app?vid=b933ad0e-7133-455e-925d-8a53bf107052"},"vehicle_type_id":"4","last_reported":1779101761,"current_range_meters":4400,"station_id":"ce4bhe12rcd13ifvqf30","pricing_plan_id":"cebpf4jnsgd1na2vs0mg"},{"bike_id":"5e56cd77-6774-4be3-9ca0-c8a85f7d3abc","system_id":"levelo_inurba_marseille","lat":43.29307,"lon":5.37168,"is_reserved":false,"is_disabled":false,"rental_uris":{"android":"levelo://app?vid=5e56cd77-6774-4be3-9ca0-c8a85f7d3abc","ios":"levelo://app?vid=5e56cd77-6774-4be3-9ca0-c8a85f7d3abc"},"vehicle_type_id":"4","last_reported":1779101761,"current_range_meters":4400,"station_id":"ce4bgh92rcd13ifvqb40","pricing_plan_id":"cebpf4jnsgd1na2vs0mg"},{"bike_id":"76c4a852-3fac-448d-b88a-2c0cc2603c0e","system_id":"levelo_inurba_marseille","lat":43.27207,"lon":5.39191,"is_reserved":false,"is_disabled":false,"rental_uris":{"android":"levelo://app?vid=76c4a852-3fac-448d-b88a-2c0cc2603c0e","ios":"levelo://app?vid=76c4a852-3fac-448d-b88a-2c0cc2603c0e"},"vehicle_type_id":"4","last_reported":1779101761,"current_range_meters":4400,"station_id":"ce4bhhp2rcd13ifvqfm0","pricing_plan_id":"cebpf4jnsgd1na2vs0mg"},{"bike_id":"31b768ac-36c4-4b11-aea9-7241535441da","system_id":"levelo_inurba_marseille","lat":43.24391,"lon":5.37046,"is_reserved":false,"is_disabled":true,"rental_uris":{"android":"levelo://app?vid=31b768ac-36c4-4b11-aea9-7241535441da","ios":"levelo://app?vid=31b768ac-36c4-4b11-aea9-7241535441da"},"vehicle_type_id":"4","last_reported":1779101761,"current_range_meters":4400,"station_id":"ce4bhhh2rcd13ifvqfk0","pricing_plan_id":"cebpf4jnsgd1na2vs0mg"},{"bike_id":"7d2abee1-16bd-4221-a89b-2102960176b2","system_id":"levelo_inurba_marseille","lat":43.27215,"lon":5.39182,"is_reserved":false,"is_disabled":false,"rental_uris":{"android":"levelo://app?vid=7d2abee1-16bd-4221-a89b-2102960176b2","ios":"levelo://app?vid=7d2abee1-16bd-4221-a89b-2102960176b2"},"vehicle_type_id":"4","last_reported":1779101761,"current_range_meters":4400,"station_id":"ce4bhhp2rcd13ifvqfm0","pricing_plan_id":"cebpf4jnsgd1na2vs0mg"},{"bike_id":"288660cf-bebc-4fde-9752-40418b123ea6","system_id":"levelo_inurba_marseille","lat":43.24087,"lon":5.37746,"is_reserved":false,"is_disabled":false,"rental_uris":{"android":"levelo://app?vid=288660cf-bebc-4fde-9752-40418b123ea6","ios":"levelo://app?vid=288660cf-bebc-4fde-9752-40418b123ea6"},"vehicle_type_id":"4","last_reported":1779101761,"current_range_meters":4400,"station_id":"ce4bhnp2rcd13ifvqgvg","pricing_plan_id":"cebpf4jnsgd1na2vs0mg"},{"bike_id":"9fecfe3e-0287-4db3-b231-5ec7e0e44c7c","system_id":"levelo_inurba_marseille","lat":43.29439,"lon":5.39744,"is_reserved":false,"is_disabled":false,"rental_uris":{"android":"levelo://app?vid=9fecfe3e-0287-4db3-b231-5ec7e0e44c7c","ios":"levelo://app?vid=9fecfe3e-0287-4db3-b231-5ec7e0e44c7c"},"vehicle_type_id":"4","last_reported":1779101761,"current_range_meters":4400,"station_id":"ce4bh3h2rcd13ifvqdo0","pricing_plan_id":"cebpf4jnsgd1na2vs0mg"},{"bike_id":"80cc7be8-e95e-4d57-afd7-767e38f6fffc","system_id":"levelo_inurba_marseille","lat":43.297599,"lon":5.427774,"is_reserved":false,"is_disabled":false,"rental_uris":{"android":"levelo://app?vid=80cc7be8-e95e-4d57-afd7-767e38f6fffc","ios":"levelo://app?vid=80cc7be8-e95e-4d57-afd7-767e38f6fffc"},"vehicle_type_id":"4","last_reported":1779101761,"current_range_meters":4400,"station_id":"st_d3md5207bmas73dh9klg","pricing_plan_id":"cebpf4jnsgd1na2vs0mg"},{"bike_id":"fb0676c1-dc0e-4326-8d4f-72c9a9a0d810","system_id":"levelo_inurba_marseille","lat":43.23898,"lon":5.37443,"is_reserved":false,"is_disabled":false,"rental_uris":{"android":"levelo://app?vid=fb0676c1-dc0e-4326-8d4f-72c9a9a0d810","ios":"levelo://app?vid=fb0676c1-dc0e-4326-8d4f-72c9a9a0d810"},"vehicle_type_id":"4","last_reported":1779101761,"current_range_meters":4400,"station_id":"st_d6sm7csbq4hs73f8fpjg","pricing_plan_id":"cebpf4jnsgd1na2vs0mg"},{"bike_id":"e94a5c83-8e3b-4298-a490-a2539ea392f9","system_id":"levelo_inurba_marseille","lat":43.28465,"lon":5.35877,"is_reserved":false,"is_disabled":false,"rental_uris":{"android":"levelo://app?vid=e94a5c83-8e3b-4298-a490-a2539ea392f9","ios":"levelo://app?vid=e94a5c83-8e3b-4298-a490-a2539ea392f9"},"vehicle_type_id":"4","last_reported":1779101761,"current_range_meters":4400,"station_id":"ce4bhah2rcd13ifvqei0","pricing_plan_id":"cebpf4jnsgd1na2vs0mg"},{"bike_id":"ab68bf5d-0f46-4b50-a43d-028742a4cdf8","system_id":"levelo_inurba_marseille","lat":43.293725,"lon":5.378546,"is_reserved":false,"is_disabled":false,"rental_uris":{"android":"levelo://app?vid=ab68bf5d-0f46-4b50-a43d-028742a4cdf8","ios":"levelo://app?vid=ab68bf5d-0f46-4b50-a43d-028742a4cdf8"},"vehicle_type_id":"4","last_reported":1779101761,"current_range_meters":4800,"station_id":"ce4bgjh2rcd13ifvqbf0","pricing_plan_id":"cebpf4jnsgd1na2vs0mg"},{"bike_id":"6f122b0f-e6ac-47f3-a249-c90f0d04d98a","system_id":"levelo_inurba_marseille","lat":43.23786,"lon":5.36631,"is_reserved":false,"is_disabled":false,"rental_uris":{"android":"levelo://app?vid=6f122b0f-e6ac-47f3-a249-c90f0d04d98a","ios":"levelo://app?vid=6f122b0f-e6ac-47f3-a249-c90f0d04d98a"},"vehicle_type_id":"4","last_reported":1779101761,"current_range_meters":4800,"station_id":"st_d3nk18o9ro0c73en2l3g","pricing_plan_id":"cebpf4jnsgd1na2vs0mg"},{"bike_id":"3395ed59-878e-488c-b281-0a6cc27a0a5d","system_id":"levelo_inurba_marseille","lat":43.30351,"lon":5.40425,"is_reserved":false,"is_disabled":false,"rental_uris":{"android":"levelo://app?vid=3395ed59-878e-488c-b281-0a6cc27a0a5d","ios":"levelo://app?vid=3395ed59-878e-488c-b281-0a6cc27a0a5d"},"vehicle_type_id":"4","last_reported":1779101761,"current_range_meters":4800,"station_id":"ce4bh012rcd13ifvqd10","pricing_plan_id":"cebpf4jnsgd1na2vs0mg"},{"bike_id":"d4e5493c-beb0-44dd-8026-90bced6da08c","system_id":"levelo_inurba_marseille","lat":43.337444,"lon":5.374475,"is_reserved":false,"is_disabled":false,"rental_uris":{"android":"levelo://app?vid=d4e5493c-beb0-44dd-8026-90bced6da08c","ios":"levelo://app?vid=d4e5493c-beb0-44dd-8026-90bced6da08c"},"vehicle_type_id":"4","last_reported":1779101761,"current_range_meters":4800,"station_id":"","pricing_plan_id":"cebpf4jnsgd1na2vs0mg"},{"bike_id":"c95655ee-27ee-4579-a579-5cbd174ce434","system_id":"levelo_inurba_marseille","lat":43.25335,"lon":5.42166,"is_reserved":false,"is_disabled":false,"rental_uris":{"android":"levelo://app?vid=c95655ee-27ee-4579-a579-5cbd174ce434","ios":"levelo://app?vid=c95655ee-27ee-4579-a579-5cbd174ce434"},"vehicle_type_id":"4","last_reported":1779101761,"current_range_meters":4800,"station_id":"st_d2m65c5bi1j21697t3ng","pricing_plan_id":"cebpf4jnsgd1na2vs0mg"},{"bike_id":"24e46131-ff6e-4d10-93c2-3efb32ea1cb0","system_id":"levelo_inurba_marseille","lat":43.29312,"lon":5.37405,"is_reserved":false,"is_disabled":false,"rental_uris":{"android":"levelo://app?vid=24e46131-ff6e-4d10-93c2-3efb32ea1cb0","ios":"levelo://app?vid=24e46131-ff6e-4d10-93c2-3efb32ea1cb0"},"vehicle_type_id":"4","last_reported":1779101761,"current_range_meters":4800,"station_id":"ce4bgi12rcd13ifvqb70","pricing_plan_id":"cebpf4jnsgd1na2vs0mg"},{"bike_id":"c3f0931a-b98e-4ec6-aa39-67278fb8aaff","system_id":"levelo_inurba_marseille","lat":43.31891,"lon":5.36781,"is_reserved":false,"is_disabled":false,"rental_uris":{"android":"levelo://app?vid=c3f0931a-b98e-4ec6-aa39-67278fb8aaff","ios":"levelo://app?vid=c3f0931a-b98e-4ec6-aa39-67278fb8aaff"},"vehicle_type_id":"4","last_reported":1779101761,"current_range_meters":5600,"station_id":"st_d6o2h0d0559c73evc1b0","pricing_plan_id":"cebpf4jnsgd1na2vs0mg"},{"bike_id":"625464b4-147a-48f6-bf40-061c517b341f","system_id":"levelo_inurba_marseille","lat":43.30481,"lon":5.37889,"is_reserved":false,"is_disabled":false,"rental_uris":{"android":"levelo://app?vid=625464b4-147a-48f6-bf40-061c517b341f","ios":"levelo://app?vid=625464b4-147a-48f6-bf40-061c517b341f"},"vehicle_type_id":"4","last_reported":1779101761,"current_range_meters":5600,"station_id":"ce4bgup2rcd13ifvqcn0","pricing_plan_id":"cebpf4jnsgd1na2vs0mg"},{"bike_id":"a3234625-5d82-4626-a685-04e4dda6725f","system_id":"levelo_inurba_marseille","lat":43.26503,"lon":5.3954,"is_reserved":false,"is_disabled":false,"rental_uris":{"android":"levelo://app?vid=a3234625-5d82-4626-a685-04e4dda6725f","ios":"levelo://app?vid=a3234625-5d82-4626-a685-04e4dda6725f"},"vehicle_type_id":"4","last_reported":1779101761,"current_range_meters":5600,"station_id":"ce4bhi12rcd13ifvqfq0","pricing_plan_id":"cebpf4jnsgd1na2vs0mg"},{"bike_id":"ec7da78e-f44e-4425-813b-b7a34b08d52f","system_id":"levelo_inurba_marseille","lat":43.33145,"lon":5.37667,"is_reserved":false,"is_disabled":false,"rental_uris":{"android":"levelo://app?vid=ec7da78e-f44e-4425-813b-b7a34b08d52f","ios":"levelo://app?vid=ec7da78e-f44e-4425-813b-b7a34b08d52f"},"vehicle_type_id":"4","last_reported":1779101761,"current_range_meters":5600,"station_id":"st_d46cu089ee8s73dldbu0","pricing_plan_id":"cebpf4jnsgd1na2vs0mg"},{"bike_id":"7df43883-c1e0-4da1-a102-d45e33555e9a","system_id":"levelo_inurba_marseille","lat":43.30192,"lon":5.39968,"is_reserved":false,"is_disabled":false,"rental_uris":{"android":"levelo://app?vid=7df43883-c1e0-4da1-a102-d45e33555e9a","ios":"levelo://app?vid=7df43883-c1e0-4da1-a102-d45e33555e9a"},"vehicle_type_id":"4","last_reported":1779101761,"current_range_meters":5600,"station_id":"","pricing_plan_id":"cebpf4jnsgd1na2vs0mg"},{"bike_id":"9d18dc58-248c-49c8-a233-5fa2af77daec","system_id":"levelo_inurba_marseille","lat":43.28646,"lon":5.37799,"is_reserved":false,"is_disabled":false,"rental_uris":{"android":"levelo://app?vid=9d18dc58-248c-49c8-a233-5fa2af77daec","ios":"levelo://app?vid=9d18dc58-248c-49c8-a233-5fa2af77daec"},"vehicle_type_id":"4","last_reported":1779101761,"current_range_meters":5600,"station_id":"","pricing_plan_id":"cebpf4jnsgd1na2vs0mg"},{"bike_id":"afc57c0b-45ad-40f4-abc2-ae83c891f66e","system_id":"levelo_inurba_marseille","lat":43.21197,"lon":5.35067,"is_reserved":false,"is_disabled":false,"rental_uris":{"android":"levelo://app?vid=afc57c0b-45ad-40f4-abc2-ae83c891f66e","ios":"levelo://app?vid=afc57c0b-45ad-40f4-abc2-ae83c891f66e"},"vehicle_type_id":"4","last_reported":1779101761,"current_range_meters":5600,"station_id":"st_cvj6sg6p6f1abm77japg","pricing_plan_id":"cebpf4jnsgd1na2vs0mg"},{"bike_id":"aad801e2-06ea-4839-8de3-c82f73b824b5","system_id":"levelo_inurba_marseille","lat":43.27719,"lon":5.38319,"is_reserved":false,"is_disabled":false,"rental_uris":{"android":"levelo://app?vid=aad801e2-06ea-4839-8de3-c82f73b824b5","ios":"levelo://app?vid=aad801e2-06ea-4839-8de3-c82f73b824b5"},"vehicle_type_id":"4","last_reported":1779101761,"current_range_meters":5600,"station_id":"","pricing_plan_id":"cebpf4jnsgd1na2vs0mg"},{"bike_id":"4fc79a0b-a889-4b07-94ad-10d4b0f67722","system_id":"levelo_inurba_marseille","lat":43.2956,"lon":5.42274,"is_reserved":false,"is_disabled":false,"rental_uris":{"android":"levelo://app?vid=4fc79a0b-a889-4b07-94ad-10d4b0f67722","ios":"levelo://app?vid=4fc79a0b-a889-4b07-94ad-10d4b0f67722"},"vehicle_type_id":"4","last_reported":1779101761,"current_range_meters":5600,"station_id":"ce4bhph2rcd13ifvqhdg","pricing_plan_id":"cebpf4jnsgd1na2vs0mg"},{"bike_id":"f695fd79-dd4f-4048-a035-ff771609545b","system_id":"levelo_inurba_marseille","lat":43.317093,"lon":5.377448,"is_reserved":false,"is_disabled":false,"rental_uris":{"android":"levelo://app?vid=f695fd79-dd4f-4048-a035-ff771609545b","ios":"levelo://app?vid=f695fd79-dd4f-4048-a035-ff771609545b"},"vehicle_type_id":"4","last_reported":1779101761,"current_range_meters":5600,"station_id":"ce4bgth2rcd13ifvqch0","pricing_plan_id":"cebpf4jnsgd1na2vs0mg"},{"bike_id":"2ff20ed5-be39-446e-879e-77efef83c760","system_id":"levelo_inurba_marseille","lat":43.28704,"lon":5.46672,"is_reserved":false,"is_disabled":false,"rental_uris":{"android":"levelo://app?vid=2ff20ed5-be39-446e-879e-77efef83c760","ios":"levelo://app?vid=2ff20ed5-be39-446e-879e-77efef83c760"},"vehicle_type_id":"4","last_reported":1779101761,"current_range_meters":5600,"station_id":"st_d6tc3vkotcvc738tfjhg","pricing_plan_id":"cebpf4jnsgd1na2vs0mg"},{"bike_id":"59b2432e-f424-4c75-ba04-57a073a9c3ce","system_id":"levelo_inurba_marseille","lat":43.31355,"lon":5.44132,"is_reserved":false,"is_disabled":false,"rental_uris":{"android":"levelo://app?vid=59b2432e-f424-4c75-ba04-57a073a9c3ce","ios":"levelo://app?vid=59b2432e-f424-4c75-ba04-57a073a9c3ce"},"vehicle_type_id":"4","last_reported":1779101761,"current_range_meters":5600,"station_id":"","pricing_plan_id":"cebpf4jnsgd1na2vs0mg"},{"bike_id":"ca8deebd-3892-4cd3-95b9-93993366f63e","system_id":"levelo_inurba_marseille","lat":43.26215,"lon":5.40431,"is_reserved":false,"is_disabled":true,"rental_uris":{"android":"levelo://app?vid=ca8deebd-3892-4cd3-95b9-93993366f63e","ios":"levelo://app?vid=ca8deebd-3892-4cd3-95b9-93993366f63e"},"vehicle_type_id":"4","last_reported":1779101761,"current_range_meters":5600,"station_id":"ce4bhmh2rcd13ifvqgmg","pricing_plan_id":"cebpf4jnsgd1na2vs0mg"},{"bike_id":"97ef0eaa-07a1-41e5-96b2-af004dd36978","system_id":"levelo_inurba_marseille","lat":43.288593,"lon":5.42519,"is_reserved":false,"is_disabled":true,"rental_uris":{"android":"levelo://app?vid=97ef0eaa-07a1-41e5-96b2-af004dd36978","ios":"levelo://app?vid=97ef0eaa-07a1-41e5-96b2-af004dd36978"},"vehicle_type_id":"4","last_reported":1779101761,"current_range_meters":6000,"station_id":"st_d3b462108ojc7389ooeg","pricing_plan_id":"cebpf4jnsgd1na2vs0mg"},{"bike_id":"55fd0741-f693-4c0e-bc61-157606e04439","system_id":"levelo_inurba_marseille","lat":43.32581,"lon":5.39922,"is_reserved":false,"is_disabled":false,"rental_uris":{"android":"levelo://app?vid=55fd0741-f693-4c0e-bc61-157606e04439","ios":"levelo://app?vid=55fd0741-f693-4c0e-bc61-157606e04439"},"vehicle_type_id":"4","last_reported":1779101761,"current_range_meters":6000,"station_id":"","pricing_plan_id":"cebpf4jnsgd1na2vs0mg"},{"bike_id":"55f74d0e-4228-4b5a-9832-433d39491ea1","system_id":"levelo_inurba_marseille","lat":43.26234,"lon":5.38762,"is_reserved":false,"is_disabled":false,"rental_uris":{"android":"levelo://app?vid=55f74d0e-4228-4b5a-9832-433d39491ea1","ios":"levelo://app?vid=55f74d0e-4228-4b5a-9832-433d39491ea1"},"vehicle_type_id":"4","last_reported":1779101761,"current_range_meters":6000,"station_id":"","pricing_plan_id":"cebpf4jnsgd1na2vs0mg"},{"bike_id":"76483057-aa19-441c-af55-216e6ef2b5ac","system_id":"levelo_inurba_marseille","lat":43.22565,"lon":5.41611,"is_reserved":false,"is_disabled":false,"rental_uris":{"android":"levelo://app?vid=76483057-aa19-441c-af55-216e6ef2b5ac","ios":"levelo://app?vid=76483057-aa19-441c-af55-216e6ef2b5ac"},"vehicle_type_id":"4","last_reported":1779101761,"current_range_meters":6000,"station_id":"st_d2o4gvlbi1j2169b742g","pricing_plan_id":"cebpf4jnsgd1na2vs0mg"},{"bike_id":"01845a61-de18-446a-9ed7-60f2228b8aeb","system_id":"levelo_inurba_marseille","lat":43.312333,"lon":5.368486,"is_reserved":false,"is_disabled":false,"rental_uris":{"android":"levelo://app?vid=01845a61-de18-446a-9ed7-60f2228b8aeb","ios":"levelo://app?vid=01845a61-de18-446a-9ed7-60f2228b8aeb"},"vehicle_type_id":"4","last_reported":1779101761,"current_range_meters":6000,"station_id":"ce4bgl92rcd13ifvqbq0","pricing_plan_id":"cebpf4jnsgd1na2vs0mg"},{"bike_id":"b92a21d3-7b69-445c-a358-48cd346a6e33","system_id":"levelo_inurba_marseille","lat":43.23953,"lon":5.36632,"is_reserved":false,"is_disabled":false,"rental_uris":{"android":"levelo://app?vid=b92a21d3-7b69-445c-a358-48cd346a6e33","ios":"levelo://app?vid=b92a21d3-7b69-445c-a358-48cd346a6e33"},"vehicle_type_id":"4","last_reported":1779101761,"current_range_meters":6000,"station_id":"ce4bhi12rcd13ifvqfp0","pricing_plan_id":"cebpf4jnsgd1na2vs0mg"},{"bike_id":"b633a8c8-0bd1-4355-a613-2003f9a85d0d","system_id":"levelo_inurba_marseille","lat":43.30561,"lon":5.38412,"is_reserved":false,"is_disabled":false,"rental_uris":{"android":"levelo://app?vid=b633a8c8-0bd1-4355-a613-2003f9a85d0d","ios":"levelo://app?vid=b633a8c8-0bd1-4355-a613-2003f9a85d0d"},"vehicle_type_id":"4","last_reported":1779101761,"current_range_meters":6000,"station_id":"ce4bgg92rcd13ifvqb30","pricing_plan_id":"cebpf4jnsgd1na2vs0mg"},{"bike_id":"36dbd5c1-ebea-44c2-904d-c22e6829467f","system_id":"levelo_inurba_marseille","lat":43.28289,"lon":5.35059,"is_reserved":false,"is_disabled":false,"rental_uris":{"android":"levelo://app?vid=36dbd5c1-ebea-44c2-904d-c22e6829467f","ios":"levelo://app?vid=36dbd5c1-ebea-44c2-904d-c22e6829467f"},"vehicle_type_id":"4","last_reported":1779101761,"current_range_meters":6000,"station_id":"ce4bhbp2rcd13ifvqerg","pricing_plan_id":"cebpf4jnsgd1na2vs0mg"},{"bike_id":"0d1a79a5-0439-420b-b704-2297d9514563","system_id":"levelo_inurba_marseille","lat":43.2656,"lon":5.37274,"is_reserved":false,"is_disabled":false,"rental_uris":{"android":"levelo://app?vid=0d1a79a5-0439-420b-b704-2297d9514563","ios":"levelo://app?vid=0d1a79a5-0439-420b-b704-2297d9514563"},"vehicle_type_id":"4","last_reported":1779101761,"current_range_meters":6000,"station_id":"ce4bhg12rcd13ifvqf70","pricing_plan_id":"cebpf4jnsgd1na2vs0mg"},{"bike_id":"32f85f5f-b69c-4a87-beeb-2bb2eb4b3d3b","system_id":"levelo_inurba_marseille","lat":43.32112,"lon":5.3677,"is_reserved":false,"is_disabled":false,"rental_uris":{"android":"levelo://app?vid=32f85f5f-b69c-4a87-beeb-2bb2eb4b3d3b","ios":"levelo://app?vid=32f85f5f-b69c-4a87-beeb-2bb2eb4b3d3b"},"vehicle_type_id":"4","last_reported":1779101761,"current_range_meters":6000,"station_id":"ce4bhrh2rcd13ifvqhug","pricing_plan_id":"cebpf4jnsgd1na2vs0mg"},{"bike_id":"f8b40f5c-23a8-4c98-aeb4-cd897c93d92b","system_id":"levelo_inurba_marseille","lat":43.305298,"lon":5.384195,"is_reserved":false,"is_disabled":true,"rental_uris":{"android":"levelo://app?vid=f8b40f5c-23a8-4c98-aeb4-cd897c93d92b","ios":"levelo://app?vid=f8b40f5c-23a8-4c98-aeb4-cd897c93d92b"},"vehicle_type_id":"4","last_reported":1779101761,"current_range_meters":6400,"station_id":"ce4bgg92rcd13ifvqb30","pricing_plan_id":"cebpf4jnsgd1na2vs0mg"},{"bike_id":"7b6b191c-2196-4eff-a204-e6551d1afb89","system_id":"levelo_inurba_marseille","lat":43.27062,"lon":5.38323,"is_reserved":false,"is_disabled":false,"rental_uris":{"android":"levelo://app?vid=7b6b191c-2196-4eff-a204-e6551d1afb89","ios":"levelo://app?vid=7b6b191c-2196-4eff-a204-e6551d1afb89"},"vehicle_type_id":"4","last_reported":1779101761,"current_range_meters":6400,"station_id":"st_d3n2fo6cfp8s73cte1j0","pricing_plan_id":"cebpf4jnsgd1na2vs0mg"},{"bike_id":"3b6b498c-50c0-4e2a-a27e-00b316f42ae6","system_id":"levelo_inurba_marseille","lat":43.24173,"lon":5.36383,"is_reserved":false,"is_disabled":true,"rental_uris":{"android":"levelo://app?vid=3b6b498c-50c0-4e2a-a27e-00b316f42ae6","ios":"levelo://app?vid=3b6b498c-50c0-4e2a-a27e-00b316f42ae6"},"vehicle_type_id":"4","last_reported":1779101761,"current_range_meters":6400,"station_id":"cpo36qri1sfpv3e86is0","pricing_plan_id":"cebpf4jnsgd1na2vs0mg"},{"bike_id":"9e4605bd-fb5f-4dea-85c6-6d392142aaa8","system_id":"levelo_inurba_marseille","lat":43.29719,"lon":5.41626,"is_reserved":false,"is_disabled":false,"rental_uris":{"android":"levelo://app?vid=9e4605bd-fb5f-4dea-85c6-6d392142aaa8","ios":"levelo://app?vid=9e4605bd-fb5f-4dea-85c6-6d392142aaa8"},"vehicle_type_id":"4","last_reported":1779101761,"current_range_meters":6400,"station_id":"","pricing_plan_id":"cebpf4jnsgd1na2vs0mg"},{"bike_id":"6f02c462-5be8-4fd9-bd86-49563918d3d3","system_id":"levelo_inurba_marseille","lat":43.31927,"lon":5.36772,"is_reserved":false,"is_disabled":false,"rental_uris":{"android":"levelo://app?vid=6f02c462-5be8-4fd9-bd86-49563918d3d3","ios":"levelo://app?vid=6f02c462-5be8-4fd9-bd86-49563918d3d3"},"vehicle_type_id":"4","last_reported":1779101761,"current_range_meters":6400,"station_id":"st_d6o2h0d0559c73evc1b0","pricing_plan_id":"cebpf4jnsgd1na2vs0mg"},{"bike_id":"6af6017b-eea9-4eac-aee8-0b6a5feac954","system_id":"levelo_inurba_marseille","lat":43.29573,"lon":5.37495,"is_reserved":false,"is_disabled":false,"rental_uris":{"android":"levelo://app?vid=6af6017b-eea9-4eac-aee8-0b6a5feac954","ios":"levelo://app?vid=6af6017b-eea9-4eac-aee8-0b6a5feac954"},"vehicle_type_id":"4","last_reported":1779101761,"current_range_meters":6400,"station_id":"ce4bgh92rcd13ifvqb50","pricing_plan_id":"cebpf4jnsgd1na2vs0mg"},{"bike_id":"d38099c2-1142-42c4-85f3-f5b4b8485bfe","system_id":"levelo_inurba_marseille","lat":43.29219,"lon":5.3601,"is_reserved":false,"is_disabled":true,"rental_uris":{"android":"levelo://app?vid=d38099c2-1142-42c4-85f3-f5b4b8485bfe","ios":"levelo://app?vid=d38099c2-1142-42c4-85f3-f5b4b8485bfe"},"vehicle_type_id":"4","last_reported":1779101761,"current_range_meters":6400,"station_id":"ce4bhbh2rcd13ifvqeqg","pricing_plan_id":"cebpf4jnsgd1na2vs0mg"},{"bike_id":"86f1dc22-88fd-48a5-9fbe-a5776408d581","system_id":"levelo_inurba_marseille","lat":43.29984,"lon":5.37184,"is_reserved":false,"is_disabled":false,"rental_uris":{"android":"levelo://app?vid=86f1dc22-88fd-48a5-9fbe-a5776408d581","ios":"levelo://app?vid=86f1dc22-88fd-48a5-9fbe-a5776408d581"},"vehicle_type_id":"4","last_reported":1779101761,"current_range_meters":6400,"station_id":"ce4bgr92rcd13ifvqc7g","pricing_plan_id":"cebpf4jnsgd1na2vs0mg"},{"bike_id":"83ff3bf3-f4bc-4d70-8d34-a9163bbf6abe","system_id":"levelo_inurba_marseille","lat":43.24654,"lon":5.38883,"is_reserved":false,"is_disabled":false,"rental_uris":{"android":"levelo://app?vid=83ff3bf3-f4bc-4d70-8d34-a9163bbf6abe","ios":"levelo://app?vid=83ff3bf3-f4bc-4d70-8d34-a9163bbf6abe"},"vehicle_type_id":"4","last_reported":1779101761,"current_range_meters":6400,"station_id":"ce4bhg12rcd13ifvqf60","pricing_plan_id":"cebpf4jnsgd1na2vs0mg"},{"bike_id":"f46dc198-f447-4b28-8d13-72a1d78dd32a","system_id":"levelo_inurba_marseille","lat":43.29005,"lon":5.35469,"is_reserved":false,"is_disabled":false,"rental_uris":{"android":"levelo://app?vid=f46dc198-f447-4b28-8d13-72a1d78dd32a","ios":"levelo://app?vid=f46dc198-f447-4b28-8d13-72a1d78dd32a"},"vehicle_type_id":"4","last_reported":1779101761,"current_range_meters":6800,"station_id":"","pricing_plan_id":"cebpf4jnsgd1na2vs0mg"},{"bike_id":"c1224642-d4b6-4364-9e15-5ab4e10f334e","system_id":"levelo_inurba_marseille","lat":43.33531,"lon":5.3746,"is_reserved":false,"is_disabled":false,"rental_uris":{"android":"levelo://app?vid=c1224642-d4b6-4364-9e15-5ab4e10f334e","ios":"levelo://app?vid=c1224642-d4b6-4364-9e15-5ab4e10f334e"},"vehicle_type_id":"4","last_reported":1779101761,"current_range_meters":6800,"station_id":"st_d46tts09ee8s73dlu43g","pricing_plan_id":"cebpf4jnsgd1na2vs0mg"},{"bike_id":"db960f4a-934d-42fd-bf86-106830c47c14","system_id":"levelo_inurba_marseille","lat":43.26216,"lon":5.37414,"is_reserved":false,"is_disabled":false,"rental_uris":{"android":"levelo://app?vid=db960f4a-934d-42fd-bf86-106830c47c14","ios":"levelo://app?vid=db960f4a-934d-42fd-bf86-106830c47c14"},"vehicle_type_id":"4","last_reported":1779101761,"current_range_meters":6800,"station_id":"ce4bhgp2rcd13ifvqfc0","pricing_plan_id":"cebpf4jnsgd1na2vs0mg"},{"bike_id":"5fcb808e-817c-4970-948b-98f3a12d54fe","system_id":"levelo_inurba_marseille","lat":43.24663,"lon":5.38138,"is_reserved":false,"is_disabled":false,"rental_uris":{"android":"levelo://app?vid=5fcb808e-817c-4970-948b-98f3a12d54fe","ios":"levelo://app?vid=5fcb808e-817c-4970-948b-98f3a12d54fe"},"vehicle_type_id":"4","last_reported":1779101761,"current_range_meters":6800,"station_id":"ce4bhih2rcd13ifvqfr0","pricing_plan_id":"cebpf4jnsgd1na2vs0mg"},{"bike_id":"c8285c1f-86d5-41f6-8319-9b80e3266155","system_id":"levelo_inurba_marseille","lat":43.24805,"lon":5.37453,"is_reserved":false,"is_disabled":false,"rental_uris":{"android":"levelo://app?vid=c8285c1f-86d5-41f6-8319-9b80e3266155","ios":"levelo://app?vid=c8285c1f-86d5-41f6-8319-9b80e3266155"},"vehicle_type_id":"4","last_reported":1779101761,"current_range_meters":6800,"station_id":"ce4bhgh2rcd13ifvqfb0","pricing_plan_id":"cebpf4jnsgd1na2vs0mg"},{"bike_id":"8dc26ed5-8c71-4346-85db-cec7e9ba1200","system_id":"levelo_inurba_marseille","lat":43.29525,"lon":5.39399,"is_reserved":false,"is_disabled":false,"rental_uris":{"android":"levelo://app?vid=8dc26ed5-8c71-4346-85db-cec7e9ba1200","ios":"levelo://app?vid=8dc26ed5-8c71-4346-85db-cec7e9ba1200"},"vehicle_type_id":"4","last_reported":1779101761,"current_range_meters":6800,"station_id":"ce4bh292rcd13ifvqdf0","pricing_plan_id":"cebpf4jnsgd1na2vs0mg"},{"bike_id":"2ebdcfdd-fb10-40b1-81c2-4602d9ab164c","system_id":"levelo_inurba_marseille","lat":43.303012,"lon":5.392092,"is_reserved":false,"is_disabled":false,"rental_uris":{"android":"levelo://app?vid=2ebdcfdd-fb10-40b1-81c2-4602d9ab164c","ios":"levelo://app?vid=2ebdcfdd-fb10-40b1-81c2-4602d9ab164c"},"vehicle_type_id":"4","last_reported":1779101761,"current_range_meters":6800,"station_id":"ce4bgkh2rcd13ifvqbk0","pricing_plan_id":"cebpf4jnsgd1na2vs0mg"},{"bike_id":"f0155b3f-a757-41e6-a885-d929684d0a3c","system_id":"levelo_inurba_marseille","lat":43.30593,"lon":5.36576,"is_reserved":false,"is_disabled":false,"rental_uris":{"android":"levelo://app?vid=f0155b3f-a757-41e6-a885-d929684d0a3c","ios":"levelo://app?vid=f0155b3f-a757-41e6-a885-d929684d0a3c"},"vehicle_type_id":"4","last_reported":1779101761,"current_range_meters":6800,"station_id":"ce4bgs12rcd13ifvqcag","pricing_plan_id":"cebpf4jnsgd1na2vs0mg"},{"bike_id":"6953f6ec-c376-4767-bfc2-637b20139890","system_id":"levelo_inurba_marseille","lat":43.280058,"lon":5.400168,"is_reserved":false,"is_disabled":false,"rental_uris":{"android":"levelo://app?vid=6953f6ec-c376-4767-bfc2-637b20139890","ios":"levelo://app?vid=6953f6ec-c376-4767-bfc2-637b20139890"},"vehicle_type_id":"4","last_reported":1779101761,"current_range_meters":6800,"station_id":"ce4bho92rcd13ifvqh4g","pricing_plan_id":"cebpf4jnsgd1na2vs0mg"},{"bike_id":"ab186b43-665e-40a5-ba53-2f582e97d90e","system_id":"levelo_inurba_marseille","lat":43.24386,"lon":5.3705,"is_reserved":false,"is_disabled":false,"rental_uris":{"android":"levelo://app?vid=ab186b43-665e-40a5-ba53-2f582e97d90e","ios":"levelo://app?vid=ab186b43-665e-40a5-ba53-2f582e97d90e"},"vehicle_type_id":"4","last_reported":1779101761,"current_range_meters":6800,"station_id":"ce4bhhh2rcd13ifvqfk0","pricing_plan_id":"cebpf4jnsgd1na2vs0mg"},{"bike_id":"56611aee-4a97-497f-a541-b301e0a4b4f4","system_id":"levelo_inurba_marseille","lat":43.33259,"lon":5.40581,"is_reserved":false,"is_disabled":false,"rental_uris":{"android":"levelo://app?vid=56611aee-4a97-497f-a541-b301e0a4b4f4","ios":"levelo://app?vid=56611aee-4a97-497f-a541-b301e0a4b4f4"},"vehicle_type_id":"4","last_reported":1779101761,"current_range_meters":6800,"station_id":"","pricing_plan_id":"cebpf4jnsgd1na2vs0mg"},{"bike_id":"c623969d-9d5b-4982-8ed5-9eeac6433e73","system_id":"levelo_inurba_marseille","lat":43.29042,"lon":5.39955,"is_reserved":false,"is_disabled":false,"rental_uris":{"android":"levelo://app?vid=c623969d-9d5b-4982-8ed5-9eeac6433e73","ios":"levelo://app?vid=c623969d-9d5b-4982-8ed5-9eeac6433e73"},"vehicle_type_id":"4","last_reported":1779101761,"current_range_meters":6800,"station_id":"ce4bh392rcd13ifvqdm0","pricing_plan_id":"cebpf4jnsgd1na2vs0mg"},{"bike_id":"e54ea30f-3cd1-4fa1-ab2a-4ba3a51b20d6","system_id":"levelo_inurba_marseille","lat":43.23193,"lon":5.35559,"is_reserved":false,"is_disabled":true,"rental_uris":{"android":"levelo://app?vid=e54ea30f-3cd1-4fa1-ab2a-4ba3a51b20d6","ios":"levelo://app?vid=e54ea30f-3cd1-4fa1-ab2a-4ba3a51b20d6"},"vehicle_type_id":"4","last_reported":1779101761,"current_range_meters":6800,"station_id":"ce4bhu92rcd13ifvqi70","pricing_plan_id":"cebpf4jnsgd1na2vs0mg"},{"bike_id":"195daac4-2d02-45b9-b6ea-e41c5081ef12","system_id":"levelo_inurba_marseille","lat":43.305607,"lon":5.365545,"is_reserved":false,"is_disabled":false,"rental_uris":{"android":"levelo://app?vid=195daac4-2d02-45b9-b6ea-e41c5081ef12","ios":"levelo://app?vid=195daac4-2d02-45b9-b6ea-e41c5081ef12"},"vehicle_type_id":"4","last_reported":1779101761,"current_range_meters":6800,"station_id":"ce4bgs12rcd13ifvqcag","pricing_plan_id":"cebpf4jnsgd1na2vs0mg"},{"bike_id":"b8c9fcbc-35d1-461b-a44e-b89c8940e12d","system_id":"levelo_inurba_marseille","lat":43.30538,"lon":5.36495,"is_reserved":false,"is_disabled":false,"rental_uris":{"android":"levelo://app?vid=b8c9fcbc-35d1-461b-a44e-b89c8940e12d","ios":"levelo://app?vid=b8c9fcbc-35d1-461b-a44e-b89c8940e12d"},"vehicle_type_id":"4","last_reported":1779101761,"current_range_meters":6800,"station_id":"","pricing_plan_id":"cebpf4jnsgd1na2vs0mg"},{"bike_id":"2dfb8d61-a819-4507-a1cd-30ecbeb78fbb","system_id":"levelo_inurba_marseille","lat":43.32765,"lon":5.36578,"is_reserved":false,"is_disabled":false,"rental_uris":{"android":"levelo://app?vid=2dfb8d61-a819-4507-a1cd-30ecbeb78fbb","ios":"levelo://app?vid=2dfb8d61-a819-4507-a1cd-30ecbeb78fbb"},"vehicle_type_id":"4","last_reported":1779101761,"current_range_meters":6800,"station_id":"ce4bhs12rcd13ifvqhvg","pricing_plan_id":"cebpf4jnsgd1na2vs0mg"},{"bike_id":"51b873cd-d3ee-4055-b87c-e03c56da9856","system_id":"levelo_inurba_marseille","lat":43.29934,"lon":5.3745,"is_reserved":false,"is_disabled":false,"rental_uris":{"android":"levelo://app?vid=51b873cd-d3ee-4055-b87c-e03c56da9856","ios":"levelo://app?vid=51b873cd-d3ee-4055-b87c-e03c56da9856"},"vehicle_type_id":"4","last_reported":1779101761,"current_range_meters":7200,"station_id":"ce4bgjh2rcd13ifvqbg0","pricing_plan_id":"cebpf4jnsgd1na2vs0mg"},{"bike_id":"42dbbf5b-6ac7-42b8-bccf-5a39103443a0","system_id":"levelo_inurba_marseille","lat":43.29922,"lon":5.37458,"is_reserved":false,"is_disabled":true,"rental_uris":{"android":"levelo://app?vid=42dbbf5b-6ac7-42b8-bccf-5a39103443a0","ios":"levelo://app?vid=42dbbf5b-6ac7-42b8-bccf-5a39103443a0"},"vehicle_type_id":"4","last_reported":1779101761,"current_range_meters":7200,"station_id":"ce4bgjh2rcd13ifvqbg0","pricing_plan_id":"cebpf4jnsgd1na2vs0mg"},{"bike_id":"a0cb39b0-598e-4931-8254-259bce3a8a85","system_id":"levelo_inurba_marseille","lat":43.23898,"lon":5.37451,"is_reserved":false,"is_disabled":false,"rental_uris":{"android":"levelo://app?vid=a0cb39b0-598e-4931-8254-259bce3a8a85","ios":"levelo://app?vid=a0cb39b0-598e-4931-8254-259bce3a8a85"},"vehicle_type_id":"4","last_reported":1779101761,"current_range_meters":7200,"station_id":"st_d6sm7csbq4hs73f8fpjg","pricing_plan_id":"cebpf4jnsgd1na2vs0mg"},{"bike_id":"0094ce04-dcec-477a-9493-079ee05aed0c","system_id":"levelo_inurba_marseille","lat":43.29736,"lon":5.37531,"is_reserved":false,"is_disabled":false,"rental_uris":{"android":"levelo://app?vid=0094ce04-dcec-477a-9493-079ee05aed0c","ios":"levelo://app?vid=0094ce04-dcec-477a-9493-079ee05aed0c"},"vehicle_type_id":"4","last_reported":1779101761,"current_range_meters":7200,"station_id":"","pricing_plan_id":"cebpf4jnsgd1na2vs0mg"},{"bike_id":"337944ab-2471-4b0c-aa3d-b9012fa440d2","system_id":"levelo_inurba_marseille","lat":43.30529,"lon":5.36541,"is_reserved":false,"is_disabled":false,"rental_uris":{"android":"levelo://app?vid=337944ab-2471-4b0c-aa3d-b9012fa440d2","ios":"levelo://app?vid=337944ab-2471-4b0c-aa3d-b9012fa440d2"},"vehicle_type_id":"4","last_reported":1779101761,"current_range_meters":7200,"station_id":"ce4bgs12rcd13ifvqcag","pricing_plan_id":"cebpf4jnsgd1na2vs0mg"},{"bike_id":"b11abbb0-a4f2-4c2f-bfea-e02e2dba1181","system_id":"levelo_inurba_marseille","lat":43.30966,"lon":5.39026,"is_reserved":false,"is_disabled":false,"rental_uris":{"android":"levelo://app?vid=b11abbb0-a4f2-4c2f-bfea-e02e2dba1181","ios":"levelo://app?vid=b11abbb0-a4f2-4c2f-bfea-e02e2dba1181"},"vehicle_type_id":"4","last_reported":1779101761,"current_range_meters":7200,"station_id":"ce4bgup2rcd13ifvqco0","pricing_plan_id":"cebpf4jnsgd1na2vs0mg"},{"bike_id":"bbf0de05-7059-4b6f-b226-2442185906dc","system_id":"levelo_inurba_marseille","lat":43.28047,"lon":5.39651,"is_reserved":false,"is_disabled":false,"rental_uris":{"android":"levelo://app?vid=bbf0de05-7059-4b6f-b226-2442185906dc","ios":"levelo://app?vid=bbf0de05-7059-4b6f-b226-2442185906dc"},"vehicle_type_id":"4","last_reported":1779101761,"current_range_meters":7200,"station_id":"ce4bho12rcd13ifvqh2g","pricing_plan_id":"cebpf4jnsgd1na2vs0mg"},{"bike_id":"42707d6f-4581-4bd7-a210-c1a06576b84d","system_id":"levelo_inurba_marseille","lat":43.26562,"lon":5.40317,"is_reserved":false,"is_disabled":false,"rental_uris":{"android":"levelo://app?vid=42707d6f-4581-4bd7-a210-c1a06576b84d","ios":"levelo://app?vid=42707d6f-4581-4bd7-a210-c1a06576b84d"},"vehicle_type_id":"4","last_reported":1779101761,"current_range_meters":7200,"station_id":"ce4bhmp2rcd13ifvqgng","pricing_plan_id":"cebpf4jnsgd1na2vs0mg"},{"bike_id":"e5d3f8e5-7fc2-4063-b550-2d1f9611ba34","system_id":"levelo_inurba_marseille","lat":43.2122,"lon":5.35044,"is_reserved":false,"is_disabled":false,"rental_uris":{"android":"levelo://app?vid=e5d3f8e5-7fc2-4063-b550-2d1f9611ba34","ios":"levelo://app?vid=e5d3f8e5-7fc2-4063-b550-2d1f9611ba34"},"vehicle_type_id":"4","last_reported":1779101761,"current_range_meters":7200,"station_id":"","pricing_plan_id":"cebpf4jnsgd1na2vs0mg"},{"bike_id":"d44560ef-91da-49bd-a364-a5b2d02ccdca","system_id":"levelo_inurba_marseille","lat":43.32359,"lon":5.3673,"is_reserved":false,"is_disabled":false,"rental_uris":{"android":"levelo://app?vid=d44560ef-91da-49bd-a364-a5b2d02ccdca","ios":"levelo://app?vid=d44560ef-91da-49bd-a364-a5b2d02ccdca"},"vehicle_type_id":"4","last_reported":1779101761,"current_range_meters":7200,"station_id":"ce4bhsh2rcd13ifvqi2g","pricing_plan_id":"cebpf4jnsgd1na2vs0mg"},{"bike_id":"6af654b7-7a8b-457b-ad58-fba21b09801a","system_id":"levelo_inurba_marseille","lat":43.32129,"lon":5.36745,"is_reserved":false,"is_disabled":false,"rental_uris":{"android":"levelo://app?vid=6af654b7-7a8b-457b-ad58-fba21b09801a","ios":"levelo://app?vid=6af654b7-7a8b-457b-ad58-fba21b09801a"},"vehicle_type_id":"4","last_reported":1779101761,"current_range_meters":7200,"station_id":"ce4bhrh2rcd13ifvqhug","pricing_plan_id":"cebpf4jnsgd1na2vs0mg"},{"bike_id":"d80ee3ed-e49c-4dab-a7b5-1955512632d7","system_id":"levelo_inurba_marseille","lat":43.23893,"lon":5.37456,"is_reserved":false,"is_disabled":false,"rental_uris":{"android":"levelo://app?vid=d80ee3ed-e49c-4dab-a7b5-1955512632d7","ios":"levelo://app?vid=d80ee3ed-e49c-4dab-a7b5-1955512632d7"},"vehicle_type_id":"4","last_reported":1779101761,"current_range_meters":7200,"station_id":"st_d6sm7csbq4hs73f8fpjg","pricing_plan_id":"cebpf4jnsgd1na2vs0mg"},{"bike_id":"4186dfeb-6486-452a-b576-6d84b6f3abc3","system_id":"levelo_inurba_marseille","lat":43.26191,"lon":5.37442,"is_reserved":false,"is_disabled":false,"rental_uris":{"android":"levelo://app?vid=4186dfeb-6486-452a-b576-6d84b6f3abc3","ios":"levelo://app?vid=4186dfeb-6486-452a-b576-6d84b6f3abc3"},"vehicle_type_id":"4","last_reported":1779101761,"current_range_meters":7200,"station_id":"ce4bhgp2rcd13ifvqfc0","pricing_plan_id":"cebpf4jnsgd1na2vs0mg"},{"bike_id":"13f78ea7-01ca-482c-83dc-66eb20001cc4","system_id":"levelo_inurba_marseille","lat":43.24669,"lon":5.38158,"is_reserved":false,"is_disabled":false,"rental_uris":{"android":"levelo://app?vid=13f78ea7-01ca-482c-83dc-66eb20001cc4","ios":"levelo://app?vid=13f78ea7-01ca-482c-83dc-66eb20001cc4"},"vehicle_type_id":"4","last_reported":1779101761,"current_range_meters":7200,"station_id":"ce4bhih2rcd13ifvqfr0","pricing_plan_id":"cebpf4jnsgd1na2vs0mg"},{"bike_id":"81b0a0c2-2fa0-4ac6-86a3-ec68f8950e3d","system_id":"levelo_inurba_marseille","lat":43.23905,"lon":5.37427,"is_reserved":false,"is_disabled":false,"rental_uris":{"android":"levelo://app?vid=81b0a0c2-2fa0-4ac6-86a3-ec68f8950e3d","ios":"levelo://app?vid=81b0a0c2-2fa0-4ac6-86a3-ec68f8950e3d"},"vehicle_type_id":"4","last_reported":1779101761,"current_range_meters":7200,"station_id":"st_d6sm7csbq4hs73f8fpjg","pricing_plan_id":"cebpf4jnsgd1na2vs0mg"},{"bike_id":"eb341610-d2af-4792-bb37-bd6fcf20ebcd","system_id":"levelo_inurba_marseille","lat":43.27964,"lon":5.37023,"is_reserved":false,"is_disabled":false,"rental_uris":{"android":"levelo://app?vid=eb341610-d2af-4792-bb37-bd6fcf20ebcd","ios":"levelo://app?vid=eb341610-d2af-4792-bb37-bd6fcf20ebcd"},"vehicle_type_id":"4","last_reported":1779101761,"current_range_meters":7200,"station_id":"","pricing_plan_id":"cebpf4jnsgd1na2vs0mg"},{"bike_id":"5064e4d1-a4b8-4d4d-9cf4-b90eda56c5de","system_id":"levelo_inurba_marseille","lat":43.33527,"lon":5.37458,"is_reserved":false,"is_disabled":false,"rental_uris":{"android":"levelo://app?vid=5064e4d1-a4b8-4d4d-9cf4-b90eda56c5de","ios":"levelo://app?vid=5064e4d1-a4b8-4d4d-9cf4-b90eda56c5de"},"vehicle_type_id":"4","last_reported":1779101761,"current_range_meters":7200,"station_id":"st_d46tts09ee8s73dlu43g","pricing_plan_id":"cebpf4jnsgd1na2vs0mg"},{"bike_id":"5a1c8a28-d79f-4b07-a4d8-bce75ba2c426","system_id":"levelo_inurba_marseille","lat":43.2586,"lon":5.39902,"is_reserved":false,"is_disabled":true,"rental_uris":{"android":"levelo://app?vid=5a1c8a28-d79f-4b07-a4d8-bce75ba2c426","ios":"levelo://app?vid=5a1c8a28-d79f-4b07-a4d8-bce75ba2c426"},"vehicle_type_id":"4","last_reported":1779101761,"current_range_meters":8000,"station_id":"ce4bhl92rcd13ifvqghg","pricing_plan_id":"cebpf4jnsgd1na2vs0mg"},{"bike_id":"19c5b28f-d6fd-429b-adec-c7ffbcf9709e","system_id":"levelo_inurba_marseille","lat":43.27619,"lon":5.36104,"is_reserved":false,"is_disabled":false,"rental_uris":{"android":"levelo://app?vid=19c5b28f-d6fd-429b-adec-c7ffbcf9709e","ios":"levelo://app?vid=19c5b28f-d6fd-429b-adec-c7ffbcf9709e"},"vehicle_type_id":"4","last_reported":1779101761,"current_range_meters":8000,"station_id":"ce4bgj92rcd13ifvqbe0","pricing_plan_id":"cebpf4jnsgd1na2vs0mg"},{"bike_id":"faa06730-cf85-4be3-9b7d-be3ca98c7110","system_id":"levelo_inurba_marseille","lat":43.23163,"lon":5.43696,"is_reserved":false,"is_disabled":false,"rental_uris":{"android":"levelo://app?vid=faa06730-cf85-4be3-9b7d-be3ca98c7110","ios":"levelo://app?vid=faa06730-cf85-4be3-9b7d-be3ca98c7110"},"vehicle_type_id":"4","last_reported":1779101761,"current_range_meters":8000,"station_id":"ce4bhmp2rcd13ifvqgog","pricing_plan_id":"cebpf4jnsgd1na2vs0mg"},{"bike_id":"cdf86d5d-36d2-40b1-80c9-d432877c31bd","system_id":"levelo_inurba_marseille","lat":43.33349,"lon":5.40953,"is_reserved":false,"is_disabled":false,"rental_uris":{"android":"levelo://app?vid=cdf86d5d-36d2-40b1-80c9-d432877c31bd","ios":"levelo://app?vid=cdf86d5d-36d2-40b1-80c9-d432877c31bd"},"vehicle_type_id":"4","last_reported":1779101761,"current_range_meters":8000,"station_id":"","pricing_plan_id":"cebpf4jnsgd1na2vs0mg"},{"bike_id":"1c2eb4d1-e613-4047-a77c-317fbe0accea","system_id":"levelo_inurba_marseille","lat":43.29279,"lon":5.38429,"is_reserved":false,"is_disabled":true,"rental_uris":{"android":"levelo://app?vid=1c2eb4d1-e613-4047-a77c-317fbe0accea","ios":"levelo://app?vid=1c2eb4d1-e613-4047-a77c-317fbe0accea"},"vehicle_type_id":"4","last_reported":1779101761,"current_range_meters":8000,"station_id":"ce4bh692rcd13ifvqea0","pricing_plan_id":"cebpf4jnsgd1na2vs0mg"},{"bike_id":"aa6f1b1f-198f-4f2e-bc53-139d34d8da93","system_id":"levelo_inurba_marseille","lat":43.2798,"lon":5.4228,"is_reserved":false,"is_disabled":false,"rental_uris":{"android":"levelo://app?vid=aa6f1b1f-198f-4f2e-bc53-139d34d8da93","ios":"levelo://app?vid=aa6f1b1f-198f-4f2e-bc53-139d34d8da93"},"vehicle_type_id":"4","last_reported":1779101761,"current_range_meters":8000,"station_id":"","pricing_plan_id":"cebpf4jnsgd1na2vs0mg"},{"bike_id":"19cf5c86-2ba5-4747-9069-858830f978a6","system_id":"levelo_inurba_marseille","lat":43.27352,"lon":5.39098,"is_reserved":false,"is_disabled":false,"rental_uris":{"android":"levelo://app?vid=19cf5c86-2ba5-4747-9069-858830f978a6","ios":"levelo://app?vid=19cf5c86-2ba5-4747-9069-858830f978a6"},"vehicle_type_id":"4","last_reported":1779101761,"current_range_meters":8000,"station_id":"ce4bhgp2rcd13ifvqfe0","pricing_plan_id":"cebpf4jnsgd1na2vs0mg"},{"bike_id":"ca4926b2-5c65-4dd2-ac6a-142d3a6ca3bf","system_id":"levelo_inurba_marseille","lat":43.279084,"lon":5.39575,"is_reserved":false,"is_disabled":false,"rental_uris":{"android":"levelo://app?vid=ca4926b2-5c65-4dd2-ac6a-142d3a6ca3bf","ios":"levelo://app?vid=ca4926b2-5c65-4dd2-ac6a-142d3a6ca3bf"},"vehicle_type_id":"4","last_reported":1779101761,"current_range_meters":8000,"station_id":"ce4bhf92rcd13ifvqf40","pricing_plan_id":"cebpf4jnsgd1na2vs0mg"},{"bike_id":"10c40cfe-a85e-4b41-8bf4-cac807013e28","system_id":"levelo_inurba_marseille","lat":43.29613,"lon":5.3748,"is_reserved":false,"is_disabled":false,"rental_uris":{"android":"levelo://app?vid=10c40cfe-a85e-4b41-8bf4-cac807013e28","ios":"levelo://app?vid=10c40cfe-a85e-4b41-8bf4-cac807013e28"},"vehicle_type_id":"4","last_reported":1779101761,"current_range_meters":8000,"station_id":"ce4bgh92rcd13ifvqb50","pricing_plan_id":"cebpf4jnsgd1na2vs0mg"},{"bike_id":"9e2fe2f7-d6df-4ab9-966a-e0a262530a00","system_id":"levelo_inurba_marseille","lat":43.24808,"lon":5.37454,"is_reserved":false,"is_disabled":false,"rental_uris":{"android":"levelo://app?vid=9e2fe2f7-d6df-4ab9-966a-e0a262530a00","ios":"levelo://app?vid=9e2fe2f7-d6df-4ab9-966a-e0a262530a00"},"vehicle_type_id":"4","last_reported":1779101761,"current_range_meters":8000,"station_id":"ce4bhgh2rcd13ifvqfb0","pricing_plan_id":"cebpf4jnsgd1na2vs0mg"},{"bike_id":"74034aa4-404c-459e-89e0-42c2d7a653aa","system_id":"levelo_inurba_marseille","lat":43.282644,"lon":5.350565,"is_reserved":false,"is_disabled":false,"rental_uris":{"android":"levelo://app?vid=74034aa4-404c-459e-89e0-42c2d7a653aa","ios":"levelo://app?vid=74034aa4-404c-459e-89e0-42c2d7a653aa"},"vehicle_type_id":"4","last_reported":1779101761,"current_range_meters":8000,"station_id":"ce4bhbp2rcd13ifvqerg","pricing_plan_id":"cebpf4jnsgd1na2vs0mg"},{"bike_id":"204a845c-788b-4060-b5a6-ff9c8836ed9e","system_id":"levelo_inurba_marseille","lat":43.25497,"lon":5.376498,"is_reserved":false,"is_disabled":false,"rental_uris":{"android":"levelo://app?vid=204a845c-788b-4060-b5a6-ff9c8836ed9e","ios":"levelo://app?vid=204a845c-788b-4060-b5a6-ff9c8836ed9e"},"vehicle_type_id":"4","last_reported":1779101761,"current_range_meters":8000,"station_id":"ce4bhh12rcd13ifvqff0","pricing_plan_id":"cebpf4jnsgd1na2vs0mg"},{"bike_id":"0eb7dcc8-7dcb-4e6d-86f4-f74d3be61278","system_id":"levelo_inurba_marseille","lat":43.28991,"lon":5.35627,"is_reserved":false,"is_disabled":false,"rental_uris":{"android":"levelo://app?vid=0eb7dcc8-7dcb-4e6d-86f4-f74d3be61278","ios":"levelo://app?vid=0eb7dcc8-7dcb-4e6d-86f4-f74d3be61278"},"vehicle_type_id":"4","last_reported":1779101761,"current_range_meters":8000,"station_id":"ce4bhb92rcd13ifvqen0","pricing_plan_id":"cebpf4jnsgd1na2vs0mg"},{"bike_id":"9c0b5568-112f-4925-adf1-e9e3b0d18590","system_id":"levelo_inurba_marseille","lat":43.21201,"lon":5.35066,"is_reserved":false,"is_disabled":false,"rental_uris":{"android":"levelo://app?vid=9c0b5568-112f-4925-adf1-e9e3b0d18590","ios":"levelo://app?vid=9c0b5568-112f-4925-adf1-e9e3b0d18590"},"vehicle_type_id":"4","last_reported":1779101761,"current_range_meters":8000,"station_id":"st_cvj6sg6p6f1abm77japg","pricing_plan_id":"cebpf4jnsgd1na2vs0mg"},{"bike_id":"b3f30d04-5f84-4e29-a178-0663c008a833","system_id":"levelo_inurba_marseille","lat":43.28934,"lon":5.36367,"is_reserved":false,"is_disabled":false,"rental_uris":{"android":"levelo://app?vid=b3f30d04-5f84-4e29-a178-0663c008a833","ios":"levelo://app?vid=b3f30d04-5f84-4e29-a178-0663c008a833"},"vehicle_type_id":"4","last_reported":1779101761,"current_range_meters":8000,"station_id":"ce4bhc92rcd13ifvqetg","pricing_plan_id":"cebpf4jnsgd1na2vs0mg"},{"bike_id":"edafa11b-ef07-4642-a2e0-4347ab797182","system_id":"levelo_inurba_marseille","lat":43.25583,"lon":5.38213,"is_reserved":false,"is_disabled":false,"rental_uris":{"android":"levelo://app?vid=edafa11b-ef07-4642-a2e0-4347ab797182","ios":"levelo://app?vid=edafa11b-ef07-4642-a2e0-4347ab797182"},"vehicle_type_id":"4","last_reported":1779101761,"current_range_meters":8000,"station_id":"ce4bhih2rcd13ifvqfs0","pricing_plan_id":"cebpf4jnsgd1na2vs0mg"},{"bike_id":"033509a1-ede6-4701-8a20-cefe5dd573c1","system_id":"levelo_inurba_marseille","lat":43.21203,"lon":5.35042,"is_reserved":false,"is_disabled":false,"rental_uris":{"android":"levelo://app?vid=033509a1-ede6-4701-8a20-cefe5dd573c1","ios":"levelo://app?vid=033509a1-ede6-4701-8a20-cefe5dd573c1"},"vehicle_type_id":"4","last_reported":1779101761,"current_range_meters":8000,"station_id":"st_cvj6sg6p6f1abm77japg","pricing_plan_id":"cebpf4jnsgd1na2vs0mg"},{"bike_id":"9a08543b-2a32-4400-9f32-37d6f5eace35","system_id":"levelo_inurba_marseille","lat":43.29183,"lon":5.39351,"is_reserved":false,"is_disabled":false,"rental_uris":{"android":"levelo://app?vid=9a08543b-2a32-4400-9f32-37d6f5eace35","ios":"levelo://app?vid=9a08543b-2a32-4400-9f32-37d6f5eace35"},"vehicle_type_id":"4","last_reported":1779101761,"current_range_meters":8400,"station_id":"ce4bh192rcd13ifvqdd0","pricing_plan_id":"cebpf4jnsgd1na2vs0mg"},{"bike_id":"75efe605-5258-498d-bb66-7e6c47458e93","system_id":"levelo_inurba_marseille","lat":43.22573,"lon":5.41608,"is_reserved":false,"is_disabled":false,"rental_uris":{"android":"levelo://app?vid=75efe605-5258-498d-bb66-7e6c47458e93","ios":"levelo://app?vid=75efe605-5258-498d-bb66-7e6c47458e93"},"vehicle_type_id":"4","last_reported":1779101761,"current_range_meters":8400,"station_id":"st_d2o4gvlbi1j2169b742g","pricing_plan_id":"cebpf4jnsgd1na2vs0mg"},{"bike_id":"1f8259a9-7e55-4812-b53f-6d999496a759","system_id":"levelo_inurba_marseille","lat":43.28702,"lon":5.46659,"is_reserved":false,"is_disabled":false,"rental_uris":{"android":"levelo://app?vid=1f8259a9-7e55-4812-b53f-6d999496a759","ios":"levelo://app?vid=1f8259a9-7e55-4812-b53f-6d999496a759"},"vehicle_type_id":"4","last_reported":1779101761,"current_range_meters":8400,"station_id":"st_d6tc3vkotcvc738tfjhg","pricing_plan_id":"cebpf4jnsgd1na2vs0mg"},{"bike_id":"4c48a5d0-2afe-4d69-be97-969991a30b2c","system_id":"levelo_inurba_marseille","lat":43.23136,"lon":5.43767,"is_reserved":false,"is_disabled":false,"rental_uris":{"android":"levelo://app?vid=4c48a5d0-2afe-4d69-be97-969991a30b2c","ios":"levelo://app?vid=4c48a5d0-2afe-4d69-be97-969991a30b2c"},"vehicle_type_id":"4","last_reported":1779101761,"current_range_meters":8400,"station_id":"","pricing_plan_id":"cebpf4jnsgd1na2vs0mg"},{"bike_id":"2dce65cd-bdd0-4a47-9756-d5f1f5f9ad1e","system_id":"levelo_inurba_marseille","lat":43.225329,"lon":5.348395,"is_reserved":false,"is_disabled":false,"rental_uris":{"android":"levelo://app?vid=2dce65cd-bdd0-4a47-9756-d5f1f5f9ad1e","ios":"levelo://app?vid=2dce65cd-bdd0-4a47-9756-d5f1f5f9ad1e"},"vehicle_type_id":"4","last_reported":1779101761,"current_range_meters":8400,"station_id":"st_cvj5dfep6f1abm77gieg","pricing_plan_id":"cebpf4jnsgd1na2vs0mg"},{"bike_id":"e7e5dadc-a9fd-44f1-820b-6c718f91eea3","system_id":"levelo_inurba_marseille","lat":43.25617,"lon":5.4198,"is_reserved":false,"is_disabled":false,"rental_uris":{"android":"levelo://app?vid=e7e5dadc-a9fd-44f1-820b-6c718f91eea3","ios":"levelo://app?vid=e7e5dadc-a9fd-44f1-820b-6c718f91eea3"},"vehicle_type_id":"4","last_reported":1779101761,"current_range_meters":8400,"station_id":"","pricing_plan_id":"cebpf4jnsgd1na2vs0mg"},{"bike_id":"86b60641-99f0-479b-94fb-67201a628640","system_id":"levelo_inurba_marseille","lat":43.23185,"lon":5.39978,"is_reserved":false,"is_disabled":false,"rental_uris":{"android":"levelo://app?vid=86b60641-99f0-479b-94fb-67201a628640","ios":"levelo://app?vid=86b60641-99f0-479b-94fb-67201a628640"},"vehicle_type_id":"4","last_reported":1779101761,"current_range_meters":8400,"station_id":"ce4bhn12rcd13ifvqgqg","pricing_plan_id":"cebpf4jnsgd1na2vs0mg"},{"bike_id":"b9ca77f1-80fa-475b-9a37-ec72feacc5df","system_id":"levelo_inurba_marseille","lat":43.29799,"lon":5.44054,"is_reserved":false,"is_disabled":false,"rental_uris":{"android":"levelo://app?vid=b9ca77f1-80fa-475b-9a37-ec72feacc5df","ios":"levelo://app?vid=b9ca77f1-80fa-475b-9a37-ec72feacc5df"},"vehicle_type_id":"4","last_reported":1779101761,"current_range_meters":8400,"station_id":"st_d3jp68qikq2c7381ktn0","pricing_plan_id":"cebpf4jnsgd1na2vs0mg"},{"bike_id":"17ba3c19-387f-4e2e-b73c-a02294ccdd28","system_id":"levelo_inurba_marseille","lat":43.22576,"lon":5.4158,"is_reserved":false,"is_disabled":false,"rental_uris":{"android":"levelo://app?vid=17ba3c19-387f-4e2e-b73c-a02294ccdd28","ios":"levelo://app?vid=17ba3c19-387f-4e2e-b73c-a02294ccdd28"},"vehicle_type_id":"4","last_reported":1779101761,"current_range_meters":8400,"station_id":"st_d2o4gvlbi1j2169b742g","pricing_plan_id":"cebpf4jnsgd1na2vs0mg"},{"bike_id":"3ffbca03-d979-4d9f-9fc0-f4a4f9b37c11","system_id":"levelo_inurba_marseille","lat":43.21209,"lon":5.3503,"is_reserved":false,"is_disabled":false,"rental_uris":{"android":"levelo://app?vid=3ffbca03-d979-4d9f-9fc0-f4a4f9b37c11","ios":"levelo://app?vid=3ffbca03-d979-4d9f-9fc0-f4a4f9b37c11"},"vehicle_type_id":"4","last_reported":1779101761,"current_range_meters":8400,"station_id":"","pricing_plan_id":"cebpf4jnsgd1na2vs0mg"},{"bike_id":"c0d467e6-6fef-4d21-8af4-af3c30cfe717","system_id":"levelo_inurba_marseille","lat":43.29794,"lon":5.36497,"is_reserved":false,"is_disabled":false,"rental_uris":{"android":"levelo://app?vid=c0d467e6-6fef-4d21-8af4-af3c30cfe717","ios":"levelo://app?vid=c0d467e6-6fef-4d21-8af4-af3c30cfe717"},"vehicle_type_id":"4","last_reported":1779101761,"current_range_meters":8400,"station_id":"","pricing_plan_id":"cebpf4jnsgd1na2vs0mg"},{"bike_id":"445b416e-fc11-440a-89b6-ff95611eda88","system_id":"levelo_inurba_marseille","lat":43.2873,"lon":5.36078,"is_reserved":false,"is_disabled":false,"rental_uris":{"android":"levelo://app?vid=445b416e-fc11-440a-89b6-ff95611eda88","ios":"levelo://app?vid=445b416e-fc11-440a-89b6-ff95611eda88"},"vehicle_type_id":"4","last_reported":1779101761,"current_range_meters":8400,"station_id":"cki0cbj6b192h4jlfktg","pricing_plan_id":"cebpf4jnsgd1na2vs0mg"},{"bike_id":"44eeaa05-498c-44d2-b86e-caba013d027b","system_id":"levelo_inurba_marseille","lat":43.29766,"lon":5.42745,"is_reserved":false,"is_disabled":false,"rental_uris":{"android":"levelo://app?vid=44eeaa05-498c-44d2-b86e-caba013d027b","ios":"levelo://app?vid=44eeaa05-498c-44d2-b86e-caba013d027b"},"vehicle_type_id":"4","last_reported":1779101761,"current_range_meters":8400,"station_id":"st_d3md5207bmas73dh9klg","pricing_plan_id":"cebpf4jnsgd1na2vs0mg"},{"bike_id":"1778bc71-bd85-4eb7-9ae8-824d7542fb47","system_id":"levelo_inurba_marseille","lat":43.28708,"lon":5.46665,"is_reserved":false,"is_disabled":false,"rental_uris":{"android":"levelo://app?vid=1778bc71-bd85-4eb7-9ae8-824d7542fb47","ios":"levelo://app?vid=1778bc71-bd85-4eb7-9ae8-824d7542fb47"},"vehicle_type_id":"4","last_reported":1779101761,"current_range_meters":8400,"station_id":"st_d6tc3vkotcvc738tfjhg","pricing_plan_id":"cebpf4jnsgd1na2vs0mg"},{"bike_id":"e96bc043-e63e-4616-91fe-f2f7bc00b9f6","system_id":"levelo_inurba_marseille","lat":43.23905,"lon":5.37441,"is_reserved":false,"is_disabled":false,"rental_uris":{"android":"levelo://app?vid=e96bc043-e63e-4616-91fe-f2f7bc00b9f6","ios":"levelo://app?vid=e96bc043-e63e-4616-91fe-f2f7bc00b9f6"},"vehicle_type_id":"4","last_reported":1779101761,"current_range_meters":8400,"station_id":"st_d6sm7csbq4hs73f8fpjg","pricing_plan_id":"cebpf4jnsgd1na2vs0mg"},{"bike_id":"aa271fab-7f3d-4439-96a9-6dd344951bca","system_id":"levelo_inurba_marseille","lat":43.27435,"lon":5.39422,"is_reserved":false,"is_disabled":false,"rental_uris":{"android":"levelo://app?vid=aa271fab-7f3d-4439-96a9-6dd344951bca","ios":"levelo://app?vid=aa271fab-7f3d-4439-96a9-6dd344951bca"},"vehicle_type_id":"4","last_reported":1779101761,"current_range_meters":8400,"station_id":"ce4bhdp2rcd13ifvqf20","pricing_plan_id":"cebpf4jnsgd1na2vs0mg"},{"bike_id":"650d4325-cb16-45bb-bf60-9df050ade8d6","system_id":"levelo_inurba_marseille","lat":43.28173,"lon":5.42615,"is_reserved":false,"is_disabled":false,"rental_uris":{"android":"levelo://app?vid=650d4325-cb16-45bb-bf60-9df050ade8d6","ios":"levelo://app?vid=650d4325-cb16-45bb-bf60-9df050ade8d6"},"vehicle_type_id":"4","last_reported":1779101761,"current_range_meters":8400,"station_id":"ce4bhnh2rcd13ifvqgug","pricing_plan_id":"cebpf4jnsgd1na2vs0mg"},{"bike_id":"97c69175-d1ad-40e4-8f81-c03384638a19","system_id":"levelo_inurba_marseille","lat":43.31344,"lon":5.3671,"is_reserved":false,"is_disabled":false,"rental_uris":{"android":"levelo://app?vid=97c69175-d1ad-40e4-8f81-c03384638a19","ios":"levelo://app?vid=97c69175-d1ad-40e4-8f81-c03384638a19"},"vehicle_type_id":"4","last_reported":1779101761,"current_range_meters":8400,"station_id":"ce4bgr92rcd13ifvqc6g","pricing_plan_id":"cebpf4jnsgd1na2vs0mg"},{"bike_id":"0996956d-2f84-4490-b61d-b12efce54d59","system_id":"levelo_inurba_marseille","lat":43.2397,"lon":5.36606,"is_reserved":false,"is_disabled":false,"rental_uris":{"android":"levelo://app?vid=0996956d-2f84-4490-b61d-b12efce54d59","ios":"levelo://app?vid=0996956d-2f84-4490-b61d-b12efce54d59"},"vehicle_type_id":"4","last_reported":1779101761,"current_range_meters":8800,"station_id":"ce4bhi12rcd13ifvqfp0","pricing_plan_id":"cebpf4jnsgd1na2vs0mg"},{"bike_id":"32bb851f-5556-4431-ae90-09358d24cf84","system_id":"levelo_inurba_marseille","lat":43.30931,"lon":5.36872,"is_reserved":false,"is_disabled":false,"rental_uris":{"android":"levelo://app?vid=32bb851f-5556-4431-ae90-09358d24cf84","ios":"levelo://app?vid=32bb851f-5556-4431-ae90-09358d24cf84"},"vehicle_type_id":"4","last_reported":1779101761,"current_range_meters":8800,"station_id":"ce4bgn92rcd13ifvqbvg","pricing_plan_id":"cebpf4jnsgd1na2vs0mg"},{"bike_id":"d330ebaf-89a2-4938-8fb2-a03c97594a54","system_id":"levelo_inurba_marseille","lat":43.28969,"lon":5.37599,"is_reserved":false,"is_disabled":false,"rental_uris":{"android":"levelo://app?vid=d330ebaf-89a2-4938-8fb2-a03c97594a54","ios":"levelo://app?vid=d330ebaf-89a2-4938-8fb2-a03c97594a54"},"vehicle_type_id":"4","last_reported":1779101761,"current_range_meters":8800,"station_id":"","pricing_plan_id":"cebpf4jnsgd1na2vs0mg"},{"bike_id":"2d03e62f-ba8b-4d0b-92f6-555161cc53ff","system_id":"levelo_inurba_marseille","lat":43.29729,"lon":5.41325,"is_reserved":false,"is_disabled":false,"rental_uris":{"android":"levelo://app?vid=2d03e62f-ba8b-4d0b-92f6-555161cc53ff","ios":"levelo://app?vid=2d03e62f-ba8b-4d0b-92f6-555161cc53ff"},"vehicle_type_id":"4","last_reported":1779101761,"current_range_meters":8800,"station_id":"","pricing_plan_id":"cebpf4jnsgd1na2vs0mg"},{"bike_id":"8230f30e-4478-4fee-a10b-0de3352570b4","system_id":"levelo_inurba_marseille","lat":43.21224,"lon":5.3504,"is_reserved":false,"is_disabled":false,"rental_uris":{"android":"levelo://app?vid=8230f30e-4478-4fee-a10b-0de3352570b4","ios":"levelo://app?vid=8230f30e-4478-4fee-a10b-0de3352570b4"},"vehicle_type_id":"4","last_reported":1779101761,"current_range_meters":8800,"station_id":"","pricing_plan_id":"cebpf4jnsgd1na2vs0mg"},{"bike_id":"38144e7e-7da2-433a-832e-c5635f7b3b33","system_id":"levelo_inurba_marseille","lat":43.26218,"lon":5.37429,"is_reserved":false,"is_disabled":false,"rental_uris":{"android":"levelo://app?vid=38144e7e-7da2-433a-832e-c5635f7b3b33","ios":"levelo://app?vid=38144e7e-7da2-433a-832e-c5635f7b3b33"},"vehicle_type_id":"4","last_reported":1779101761,"current_range_meters":8800,"station_id":"ce4bhgp2rcd13ifvqfc0","pricing_plan_id":"cebpf4jnsgd1na2vs0mg"},{"bike_id":"6ea6c320-3fde-4b3f-983f-c4ea28652a4e","system_id":"levelo_inurba_marseille","lat":43.22559,"lon":5.41609,"is_reserved":false,"is_disabled":false,"rental_uris":{"android":"levelo://app?vid=6ea6c320-3fde-4b3f-983f-c4ea28652a4e","ios":"levelo://app?vid=6ea6c320-3fde-4b3f-983f-c4ea28652a4e"},"vehicle_type_id":"4","last_reported":1779101761,"current_range_meters":8800,"station_id":"st_d2o4gvlbi1j2169b742g","pricing_plan_id":"cebpf4jnsgd1na2vs0mg"},{"bike_id":"712fbea3-4204-4bbd-af84-db24a5ddd956","system_id":"levelo_inurba_marseille","lat":43.2407,"lon":5.37735,"is_reserved":false,"is_disabled":false,"rental_uris":{"android":"levelo://app?vid=712fbea3-4204-4bbd-af84-db24a5ddd956","ios":"levelo://app?vid=712fbea3-4204-4bbd-af84-db24a5ddd956"},"vehicle_type_id":"4","last_reported":1779101761,"current_range_meters":8800,"station_id":"ce4bhnp2rcd13ifvqgvg","pricing_plan_id":"cebpf4jnsgd1na2vs0mg"},{"bike_id":"f5b2583c-fbe9-4655-8c99-477d7b88dd53","system_id":"levelo_inurba_marseille","lat":43.31122,"lon":5.38322,"is_reserved":false,"is_disabled":false,"rental_uris":{"android":"levelo://app?vid=f5b2583c-fbe9-4655-8c99-477d7b88dd53","ios":"levelo://app?vid=f5b2583c-fbe9-4655-8c99-477d7b88dd53"},"vehicle_type_id":"4","last_reported":1779101761,"current_range_meters":8800,"station_id":"","pricing_plan_id":"cebpf4jnsgd1na2vs0mg"},{"bike_id":"5400e439-3395-4ca0-9749-3886460ee27e","system_id":"levelo_inurba_marseille","lat":43.28164,"lon":5.42635,"is_reserved":false,"is_disabled":false,"rental_uris":{"android":"levelo://app?vid=5400e439-3395-4ca0-9749-3886460ee27e","ios":"levelo://app?vid=5400e439-3395-4ca0-9749-3886460ee27e"},"vehicle_type_id":"4","last_reported":1779101761,"current_range_meters":8800,"station_id":"ce4bhnh2rcd13ifvqgug","pricing_plan_id":"cebpf4jnsgd1na2vs0mg"},{"bike_id":"fecbad9b-de34-45b5-aec9-0d12e826acd8","system_id":"levelo_inurba_marseille","lat":43.21182,"lon":5.35082,"is_reserved":false,"is_disabled":true,"rental_uris":{"android":"levelo://app?vid=fecbad9b-de34-45b5-aec9-0d12e826acd8","ios":"levelo://app?vid=fecbad9b-de34-45b5-aec9-0d12e826acd8"},"vehicle_type_id":"4","last_reported":1779101761,"current_range_meters":8800,"station_id":"st_cvj6sg6p6f1abm77japg","pricing_plan_id":"cebpf4jnsgd1na2vs0mg"},{"bike_id":"2d436315-62ff-4680-8754-fa8be25743e3","system_id":"levelo_inurba_marseille","lat":43.26347,"lon":5.41107,"is_reserved":false,"is_disabled":false,"rental_uris":{"android":"levelo://app?vid=2d436315-62ff-4680-8754-fa8be25743e3","ios":"levelo://app?vid=2d436315-62ff-4680-8754-fa8be25743e3"},"vehicle_type_id":"4","last_reported":1779101761,"current_range_meters":8800,"station_id":"st_d4e5ca6na9uc73bfl5fg","pricing_plan_id":"cebpf4jnsgd1na2vs0mg"},{"bike_id":"76822842-6de5-44db-bee3-28d0eed2902b","system_id":"levelo_inurba_marseille","lat":43.22923,"lon":5.35367,"is_reserved":false,"is_disabled":false,"rental_uris":{"android":"levelo://app?vid=76822842-6de5-44db-bee3-28d0eed2902b","ios":"levelo://app?vid=76822842-6de5-44db-bee3-28d0eed2902b"},"vehicle_type_id":"4","last_reported":1779101761,"current_range_meters":8800,"station_id":"cpo3532slgdg3j2ikp40","pricing_plan_id":"cebpf4jnsgd1na2vs0mg"},{"bike_id":"261c502d-f157-4e38-8832-33cf8786fbe5","system_id":"levelo_inurba_marseille","lat":43.29942,"lon":5.36541,"is_reserved":false,"is_disabled":false,"rental_uris":{"android":"levelo://app?vid=261c502d-f157-4e38-8832-33cf8786fbe5","ios":"levelo://app?vid=261c502d-f157-4e38-8832-33cf8786fbe5"},"vehicle_type_id":"4","last_reported":1779101761,"current_range_meters":8800,"station_id":"ce4bgm92rcd13ifvqbr0","pricing_plan_id":"cebpf4jnsgd1na2vs0mg"},{"bike_id":"2f794a7e-d94d-4b04-ad62-515dca25e4aa","system_id":"levelo_inurba_marseille","lat":43.28147,"lon":5.42636,"is_reserved":false,"is_disabled":false,"rental_uris":{"android":"levelo://app?vid=2f794a7e-d94d-4b04-ad62-515dca25e4aa","ios":"levelo://app?vid=2f794a7e-d94d-4b04-ad62-515dca25e4aa"},"vehicle_type_id":"4","last_reported":1779101761,"current_range_meters":8800,"station_id":"ce4bhnh2rcd13ifvqgug","pricing_plan_id":"cebpf4jnsgd1na2vs0mg"},{"bike_id":"5eff35b7-48e2-4bc6-9b84-6976b1766b38","system_id":"levelo_inurba_marseille","lat":43.31358,"lon":5.40256,"is_reserved":false,"is_disabled":false,"rental_uris":{"android":"levelo://app?vid=5eff35b7-48e2-4bc6-9b84-6976b1766b38","ios":"levelo://app?vid=5eff35b7-48e2-4bc6-9b84-6976b1766b38"},"vehicle_type_id":"4","last_reported":1779101761,"current_range_meters":8800,"station_id":"","pricing_plan_id":"cebpf4jnsgd1na2vs0mg"},{"bike_id":"227b126f-efaf-422d-a694-0785dbb77026","system_id":"levelo_inurba_marseille","lat":43.24389,"lon":5.37059,"is_reserved":false,"is_disabled":false,"rental_uris":{"android":"levelo://app?vid=227b126f-efaf-422d-a694-0785dbb77026","ios":"levelo://app?vid=227b126f-efaf-422d-a694-0785dbb77026"},"vehicle_type_id":"4","last_reported":1779101761,"current_range_meters":8800,"station_id":"ce4bhhh2rcd13ifvqfk0","pricing_plan_id":"cebpf4jnsgd1na2vs0mg"},{"bike_id":"f953e7df-9a8f-4f8e-8e56-6a5db7d34d82","system_id":"levelo_inurba_marseille","lat":43.269189,"lon":5.380411,"is_reserved":false,"is_disabled":false,"rental_uris":{"android":"levelo://app?vid=f953e7df-9a8f-4f8e-8e56-6a5db7d34d82","ios":"levelo://app?vid=f953e7df-9a8f-4f8e-8e56-6a5db7d34d82"},"vehicle_type_id":"4","last_reported":1779101761,"current_range_meters":9200,"station_id":"","pricing_plan_id":"cebpf4jnsgd1na2vs0mg"},{"bike_id":"70af99c7-0bac-4b75-af5f-a17f1b26f458","system_id":"levelo_inurba_marseille","lat":43.29306,"lon":5.37439,"is_reserved":false,"is_disabled":false,"rental_uris":{"android":"levelo://app?vid=70af99c7-0bac-4b75-af5f-a17f1b26f458","ios":"levelo://app?vid=70af99c7-0bac-4b75-af5f-a17f1b26f458"},"vehicle_type_id":"4","last_reported":1779101761,"current_range_meters":9200,"station_id":"ce4bgi12rcd13ifvqb70","pricing_plan_id":"cebpf4jnsgd1na2vs0mg"},{"bike_id":"5eb11d83-2461-40c2-9484-0a35868d2011","system_id":"levelo_inurba_marseille","lat":43.29756,"lon":5.4275,"is_reserved":false,"is_disabled":true,"rental_uris":{"android":"levelo://app?vid=5eb11d83-2461-40c2-9484-0a35868d2011","ios":"levelo://app?vid=5eb11d83-2461-40c2-9484-0a35868d2011"},"vehicle_type_id":"4","last_reported":1779101761,"current_range_meters":9200,"station_id":"st_d3md5207bmas73dh9klg","pricing_plan_id":"cebpf4jnsgd1na2vs0mg"},{"bike_id":"2e618a07-85fa-4e4c-b253-8730291eb108","system_id":"levelo_inurba_marseille","lat":43.2845,"lon":5.34968,"is_reserved":false,"is_disabled":true,"rental_uris":{"android":"levelo://app?vid=2e618a07-85fa-4e4c-b253-8730291eb108","ios":"levelo://app?vid=2e618a07-85fa-4e4c-b253-8730291eb108"},"vehicle_type_id":"4","last_reported":1779101761,"current_range_meters":9200,"station_id":"ce4bhbh2rcd13ifvqepg","pricing_plan_id":"cebpf4jnsgd1na2vs0mg"},{"bike_id":"3de4692f-f28c-47b3-890c-e7f58eab000e","system_id":"levelo_inurba_marseille","lat":43.25729,"lon":5.41097,"is_reserved":false,"is_disabled":false,"rental_uris":{"android":"levelo://app?vid=3de4692f-f28c-47b3-890c-e7f58eab000e","ios":"levelo://app?vid=3de4692f-f28c-47b3-890c-e7f58eab000e"},"vehicle_type_id":"4","last_reported":1779101761,"current_range_meters":9200,"station_id":"ce4bhkp2rcd13ifvqgd0","pricing_plan_id":"cebpf4jnsgd1na2vs0mg"},{"bike_id":"3fa88c71-3e50-4ab6-b520-3c123f8a8eaa","system_id":"levelo_inurba_marseille","lat":43.21182,"lon":5.3507,"is_reserved":false,"is_disabled":false,"rental_uris":{"android":"levelo://app?vid=3fa88c71-3e50-4ab6-b520-3c123f8a8eaa","ios":"levelo://app?vid=3fa88c71-3e50-4ab6-b520-3c123f8a8eaa"},"vehicle_type_id":"4","last_reported":1779101761,"current_range_meters":9200,"station_id":"st_cvj6sg6p6f1abm77japg","pricing_plan_id":"cebpf4jnsgd1na2vs0mg"},{"bike_id":"c3e00281-39cf-435b-be6d-2b31d4eac7d8","system_id":"levelo_inurba_marseille","lat":43.26561,"lon":5.37273,"is_reserved":false,"is_disabled":false,"rental_uris":{"android":"levelo://app?vid=c3e00281-39cf-435b-be6d-2b31d4eac7d8","ios":"levelo://app?vid=c3e00281-39cf-435b-be6d-2b31d4eac7d8"},"vehicle_type_id":"4","last_reported":1779101761,"current_range_meters":9200,"station_id":"ce4bhg12rcd13ifvqf70","pricing_plan_id":"cebpf4jnsgd1na2vs0mg"},{"bike_id":"045cb5aa-dd76-4bc3-acdc-8dd92238b0e6","system_id":"levelo_inurba_marseille","lat":43.24388,"lon":5.37037,"is_reserved":false,"is_disabled":false,"rental_uris":{"android":"levelo://app?vid=045cb5aa-dd76-4bc3-acdc-8dd92238b0e6","ios":"levelo://app?vid=045cb5aa-dd76-4bc3-acdc-8dd92238b0e6"},"vehicle_type_id":"4","last_reported":1779101761,"current_range_meters":9200,"station_id":"ce4bhhh2rcd13ifvqfk0","pricing_plan_id":"cebpf4jnsgd1na2vs0mg"},{"bike_id":"11ad010e-c156-49fe-aefe-f595d33923b8","system_id":"levelo_inurba_marseille","lat":43.2397,"lon":5.36611,"is_reserved":false,"is_disabled":false,"rental_uris":{"android":"levelo://app?vid=11ad010e-c156-49fe-aefe-f595d33923b8","ios":"levelo://app?vid=11ad010e-c156-49fe-aefe-f595d33923b8"},"vehicle_type_id":"4","last_reported":1779101761,"current_range_meters":9200,"station_id":"ce4bhi12rcd13ifvqfp0","pricing_plan_id":"cebpf4jnsgd1na2vs0mg"},{"bike_id":"9a147a82-1909-4624-8e35-bd6b119bb2af","system_id":"levelo_inurba_marseille","lat":43.30681,"lon":5.40056,"is_reserved":false,"is_disabled":true,"rental_uris":{"android":"levelo://app?vid=9a147a82-1909-4624-8e35-bd6b119bb2af","ios":"levelo://app?vid=9a147a82-1909-4624-8e35-bd6b119bb2af"},"vehicle_type_id":"4","last_reported":1779101761,"current_range_meters":9200,"station_id":"ce4bh112rcd13ifvqda0","pricing_plan_id":"cebpf4jnsgd1na2vs0mg"},{"bike_id":"688d9c44-a5f9-412b-a509-aecc0c73943e","system_id":"levelo_inurba_marseille","lat":43.29945,"lon":5.36537,"is_reserved":false,"is_disabled":false,"rental_uris":{"android":"levelo://app?vid=688d9c44-a5f9-412b-a509-aecc0c73943e","ios":"levelo://app?vid=688d9c44-a5f9-412b-a509-aecc0c73943e"},"vehicle_type_id":"4","last_reported":1779101761,"current_range_meters":9200,"station_id":"ce4bgm92rcd13ifvqbr0","pricing_plan_id":"cebpf4jnsgd1na2vs0mg"},{"bike_id":"e40439b8-70d1-4a31-b2ca-aacd85765f54","system_id":"levelo_inurba_marseille","lat":43.32101,"lon":5.36777,"is_reserved":false,"is_disabled":false,"rental_uris":{"android":"levelo://app?vid=e40439b8-70d1-4a31-b2ca-aacd85765f54","ios":"levelo://app?vid=e40439b8-70d1-4a31-b2ca-aacd85765f54"},"vehicle_type_id":"4","last_reported":1779101761,"current_range_meters":9200,"station_id":"ce4bhrh2rcd13ifvqhug","pricing_plan_id":"cebpf4jnsgd1na2vs0mg"},{"bike_id":"895d83ab-2464-4ce2-be88-1d7717b8e906","system_id":"levelo_inurba_marseille","lat":43.23196,"lon":5.39949,"is_reserved":false,"is_disabled":false,"rental_uris":{"android":"levelo://app?vid=895d83ab-2464-4ce2-be88-1d7717b8e906","ios":"levelo://app?vid=895d83ab-2464-4ce2-be88-1d7717b8e906"},"vehicle_type_id":"4","last_reported":1779101761,"current_range_meters":9200,"station_id":"ce4bhn12rcd13ifvqgqg","pricing_plan_id":"cebpf4jnsgd1na2vs0mg"},{"bike_id":"a8cc5db3-56fd-4a37-9585-f8d009cfb309","system_id":"levelo_inurba_marseille","lat":43.27421,"lon":5.40636,"is_reserved":false,"is_disabled":false,"rental_uris":{"android":"levelo://app?vid=a8cc5db3-56fd-4a37-9585-f8d009cfb309","ios":"levelo://app?vid=a8cc5db3-56fd-4a37-9585-f8d009cfb309"},"vehicle_type_id":"4","last_reported":1779101761,"current_range_meters":9200,"station_id":"","pricing_plan_id":"cebpf4jnsgd1na2vs0mg"},{"bike_id":"5560e211-9c1b-4574-a93c-8282436c2b79","system_id":"levelo_inurba_marseille","lat":43.28926,"lon":5.38383,"is_reserved":false,"is_disabled":false,"rental_uris":{"android":"levelo://app?vid=5560e211-9c1b-4574-a93c-8282436c2b79","ios":"levelo://app?vid=5560e211-9c1b-4574-a93c-8282436c2b79"},"vehicle_type_id":"4","last_reported":1779101761,"current_range_meters":9200,"station_id":"ce4bh612rcd13ifvqe6g","pricing_plan_id":"cebpf4jnsgd1na2vs0mg"},{"bike_id":"52fdaeab-d99b-42cc-b8c2-fd70a632bfa5","system_id":"levelo_inurba_marseille","lat":43.297131,"lon":5.377001,"is_reserved":false,"is_disabled":false,"rental_uris":{"android":"levelo://app?vid=52fdaeab-d99b-42cc-b8c2-fd70a632bfa5","ios":"levelo://app?vid=52fdaeab-d99b-42cc-b8c2-fd70a632bfa5"},"vehicle_type_id":"4","last_reported":1779101761,"current_range_meters":9200,"station_id":"ce4bgkh2rcd13ifvqbl0","pricing_plan_id":"cebpf4jnsgd1na2vs0mg"},{"bike_id":"3a16e8f2-c78d-4c95-83db-d57b0dd3fb86","system_id":"levelo_inurba_marseille","lat":43.27503,"lon":5.42462,"is_reserved":false,"is_disabled":false,"rental_uris":{"android":"levelo://app?vid=3a16e8f2-c78d-4c95-83db-d57b0dd3fb86","ios":"levelo://app?vid=3a16e8f2-c78d-4c95-83db-d57b0dd3fb86"},"vehicle_type_id":"4","last_reported":1779101761,"current_range_meters":9200,"station_id":"ce4bhn92rcd13ifvqgrg","pricing_plan_id":"cebpf4jnsgd1na2vs0mg"},{"bike_id":"07b743a0-ed91-4aba-a5da-93a214547fcd","system_id":"levelo_inurba_marseille","lat":43.29645,"lon":5.40556,"is_reserved":false,"is_disabled":false,"rental_uris":{"android":"levelo://app?vid=07b743a0-ed91-4aba-a5da-93a214547fcd","ios":"levelo://app?vid=07b743a0-ed91-4aba-a5da-93a214547fcd"},"vehicle_type_id":"4","last_reported":1779101761,"current_range_meters":9200,"station_id":"ce4bh0h2rcd13ifvqd60","pricing_plan_id":"cebpf4jnsgd1na2vs0mg"},{"bike_id":"0e35a7c1-82ee-4705-810e-48a9c5d0a58e","system_id":"levelo_inurba_marseille","lat":43.28696,"lon":5.39985,"is_reserved":false,"is_disabled":false,"rental_uris":{"android":"levelo://app?vid=0e35a7c1-82ee-4705-810e-48a9c5d0a58e","ios":"levelo://app?vid=0e35a7c1-82ee-4705-810e-48a9c5d0a58e"},"vehicle_type_id":"4","last_reported":1779101761,"current_range_meters":9200,"station_id":"ce4bho92rcd13ifvqh3g","pricing_plan_id":"cebpf4jnsgd1na2vs0mg"},{"bike_id":"c59933fc-1253-4219-b966-d44e97408aec","system_id":"levelo_inurba_marseille","lat":43.29678,"lon":5.37278,"is_reserved":false,"is_disabled":false,"rental_uris":{"android":"levelo://app?vid=c59933fc-1253-4219-b966-d44e97408aec","ios":"levelo://app?vid=c59933fc-1253-4219-b966-d44e97408aec"},"vehicle_type_id":"4","last_reported":1779101761,"current_range_meters":9200,"station_id":"ce4bgk12rcd13ifvqbj0","pricing_plan_id":"cebpf4jnsgd1na2vs0mg"},{"bike_id":"73daf4a1-11fc-4443-8a15-ecf9663e48de","system_id":"levelo_inurba_marseille","lat":43.28023,"lon":5.38376,"is_reserved":false,"is_disabled":false,"rental_uris":{"android":"levelo://app?vid=73daf4a1-11fc-4443-8a15-ecf9663e48de","ios":"levelo://app?vid=73daf4a1-11fc-4443-8a15-ecf9663e48de"},"vehicle_type_id":"4","last_reported":1779101761,"current_range_meters":9200,"station_id":"","pricing_plan_id":"cebpf4jnsgd1na2vs0mg"},{"bike_id":"b3fa934f-12b7-4016-8ba9-65694566bcb6","system_id":"levelo_inurba_marseille","lat":43.29031,"lon":5.38128,"is_reserved":false,"is_disabled":true,"rental_uris":{"android":"levelo://app?vid=b3fa934f-12b7-4016-8ba9-65694566bcb6","ios":"levelo://app?vid=b3fa934f-12b7-4016-8ba9-65694566bcb6"},"vehicle_type_id":"4","last_reported":1779101761,"current_range_meters":9600,"station_id":"ce4bh4p2rcd13ifvqe1g","pricing_plan_id":"cebpf4jnsgd1na2vs0mg"},{"bike_id":"999d2da4-2d77-45d6-aad3-ff298383e8f1","system_id":"levelo_inurba_marseille","lat":43.29739,"lon":5.37676,"is_reserved":false,"is_disabled":false,"rental_uris":{"android":"levelo://app?vid=999d2da4-2d77-45d6-aad3-ff298383e8f1","ios":"levelo://app?vid=999d2da4-2d77-45d6-aad3-ff298383e8f1"},"vehicle_type_id":"4","last_reported":1779101761,"current_range_meters":9600,"station_id":"ce4bgkh2rcd13ifvqbl0","pricing_plan_id":"cebpf4jnsgd1na2vs0mg"},{"bike_id":"8ee7e516-fa4c-49ae-accf-f1258e1b8f16","system_id":"levelo_inurba_marseille","lat":43.29322,"lon":5.37294,"is_reserved":false,"is_disabled":false,"rental_uris":{"android":"levelo://app?vid=8ee7e516-fa4c-49ae-accf-f1258e1b8f16","ios":"levelo://app?vid=8ee7e516-fa4c-49ae-accf-f1258e1b8f16"},"vehicle_type_id":"4","last_reported":1779101761,"current_range_meters":9600,"station_id":"","pricing_plan_id":"cebpf4jnsgd1na2vs0mg"},{"bike_id":"a77e2601-32de-4336-88af-7b368732932d","system_id":"levelo_inurba_marseille","lat":43.2903,"lon":5.38115,"is_reserved":false,"is_disabled":false,"rental_uris":{"android":"levelo://app?vid=a77e2601-32de-4336-88af-7b368732932d","ios":"levelo://app?vid=a77e2601-32de-4336-88af-7b368732932d"},"vehicle_type_id":"4","last_reported":1779101761,"current_range_meters":9600,"station_id":"ce4bh4p2rcd13ifvqe1g","pricing_plan_id":"cebpf4jnsgd1na2vs0mg"},{"bike_id":"a372ecf4-e71a-41bd-91da-d5bdee889c93","system_id":"levelo_inurba_marseille","lat":43.336057,"lon":5.410269,"is_reserved":false,"is_disabled":false,"rental_uris":{"android":"levelo://app?vid=a372ecf4-e71a-41bd-91da-d5bdee889c93","ios":"levelo://app?vid=a372ecf4-e71a-41bd-91da-d5bdee889c93"},"vehicle_type_id":"4","last_reported":1779101761,"current_range_meters":9600,"station_id":"ce4bhqh2rcd13ifvqhmg","pricing_plan_id":"cebpf4jnsgd1na2vs0mg"},{"bike_id":"2fbad4ff-3321-4ed4-955d-868f812d0490","system_id":"levelo_inurba_marseille","lat":43.24478,"lon":5.42541,"is_reserved":false,"is_disabled":false,"rental_uris":{"android":"levelo://app?vid=2fbad4ff-3321-4ed4-955d-868f812d0490","ios":"levelo://app?vid=2fbad4ff-3321-4ed4-955d-868f812d0490"},"vehicle_type_id":"4","last_reported":1779101761,"current_range_meters":9600,"station_id":"st_d4a3vfp97mjs738cd8kg","pricing_plan_id":"cebpf4jnsgd1na2vs0mg"},{"bike_id":"80a3b2e6-37cb-4b2b-94ac-255298caff0e","system_id":"levelo_inurba_marseille","lat":43.30277,"lon":5.37696,"is_reserved":false,"is_disabled":false,"rental_uris":{"android":"levelo://app?vid=80a3b2e6-37cb-4b2b-94ac-255298caff0e","ios":"levelo://app?vid=80a3b2e6-37cb-4b2b-94ac-255298caff0e"},"vehicle_type_id":"4","last_reported":1779101761,"current_range_meters":9600,"station_id":"ce4bguh2rcd13ifvqcj0","pricing_plan_id":"cebpf4jnsgd1na2vs0mg"},{"bike_id":"febcf90d-30c2-4eaa-b242-af71f32ceee2","system_id":"levelo_inurba_marseille","lat":43.28727,"lon":5.3793,"is_reserved":false,"is_disabled":false,"rental_uris":{"android":"levelo://app?vid=febcf90d-30c2-4eaa-b242-af71f32ceee2","ios":"levelo://app?vid=febcf90d-30c2-4eaa-b242-af71f32ceee2"},"vehicle_type_id":"4","last_reported":1779101761,"current_range_meters":9600,"station_id":"ce4bh9p2rcd13ifvqec0","pricing_plan_id":"cebpf4jnsgd1na2vs0mg"},{"bike_id":"98361811-51e6-42f0-a63a-7fb4652c8265","system_id":"levelo_inurba_marseille","lat":43.28005,"lon":5.39993,"is_reserved":false,"is_disabled":false,"rental_uris":{"android":"levelo://app?vid=98361811-51e6-42f0-a63a-7fb4652c8265","ios":"levelo://app?vid=98361811-51e6-42f0-a63a-7fb4652c8265"},"vehicle_type_id":"4","last_reported":1779101761,"current_range_meters":9600,"station_id":"","pricing_plan_id":"cebpf4jnsgd1na2vs0mg"},{"bike_id":"e3c58770-55cb-4cba-b20e-adac8a143892","system_id":"levelo_inurba_marseille","lat":43.24477,"lon":5.42534,"is_reserved":false,"is_disabled":false,"rental_uris":{"android":"levelo://app?vid=e3c58770-55cb-4cba-b20e-adac8a143892","ios":"levelo://app?vid=e3c58770-55cb-4cba-b20e-adac8a143892"},"vehicle_type_id":"4","last_reported":1779101761,"current_range_meters":9600,"station_id":"st_d4a3vfp97mjs738cd8kg","pricing_plan_id":"cebpf4jnsgd1na2vs0mg"},{"bike_id":"ea2b7db2-4ec0-4ed4-95e7-78571752cefd","system_id":"levelo_inurba_marseille","lat":43.24843,"lon":5.37431,"is_reserved":false,"is_disabled":false,"rental_uris":{"android":"levelo://app?vid=ea2b7db2-4ec0-4ed4-95e7-78571752cefd","ios":"levelo://app?vid=ea2b7db2-4ec0-4ed4-95e7-78571752cefd"},"vehicle_type_id":"4","last_reported":1779101761,"current_range_meters":9600,"station_id":"","pricing_plan_id":"cebpf4jnsgd1na2vs0mg"},{"bike_id":"e525c40c-37dc-4e8d-9ac2-9e5ca2656698","system_id":"levelo_inurba_marseille","lat":43.28698,"lon":5.46634,"is_reserved":false,"is_disabled":false,"rental_uris":{"android":"levelo://app?vid=e525c40c-37dc-4e8d-9ac2-9e5ca2656698","ios":"levelo://app?vid=e525c40c-37dc-4e8d-9ac2-9e5ca2656698"},"vehicle_type_id":"4","last_reported":1779101761,"current_range_meters":9600,"station_id":"st_d6tc3vkotcvc738tfjhg","pricing_plan_id":"cebpf4jnsgd1na2vs0mg"},{"bike_id":"84ace2a0-d086-4fd2-ba35-e9503cbabcc0","system_id":"levelo_inurba_marseille","lat":43.26777,"lon":5.39418,"is_reserved":false,"is_disabled":false,"rental_uris":{"android":"levelo://app?vid=84ace2a0-d086-4fd2-ba35-e9503cbabcc0","ios":"levelo://app?vid=84ace2a0-d086-4fd2-ba35-e9503cbabcc0"},"vehicle_type_id":"4","last_reported":1779101761,"current_range_meters":10000,"station_id":"ce4bhh12rcd13ifvqfg0","pricing_plan_id":"cebpf4jnsgd1na2vs0mg"},{"bike_id":"ffe2431a-6767-4271-9eca-64c8aef75552","system_id":"levelo_inurba_marseille","lat":43.24798,"lon":5.37453,"is_reserved":false,"is_disabled":false,"rental_uris":{"android":"levelo://app?vid=ffe2431a-6767-4271-9eca-64c8aef75552","ios":"levelo://app?vid=ffe2431a-6767-4271-9eca-64c8aef75552"},"vehicle_type_id":"4","last_reported":1779101761,"current_range_meters":10000,"station_id":"ce4bhgh2rcd13ifvqfb0","pricing_plan_id":"cebpf4jnsgd1na2vs0mg"},{"bike_id":"4a8fff30-cbc5-491d-8d3e-d22b568d1485","system_id":"levelo_inurba_marseille","lat":43.26432,"lon":5.37398,"is_reserved":false,"is_disabled":false,"rental_uris":{"android":"levelo://app?vid=4a8fff30-cbc5-491d-8d3e-d22b568d1485","ios":"levelo://app?vid=4a8fff30-cbc5-491d-8d3e-d22b568d1485"},"vehicle_type_id":"4","last_reported":1779101761,"current_range_meters":10000,"station_id":"","pricing_plan_id":"cebpf4jnsgd1na2vs0mg"},{"bike_id":"d284b1e8-21db-40eb-97a1-f4caa8b26bac","system_id":"levelo_inurba_marseille","lat":43.33539,"lon":5.37467,"is_reserved":false,"is_disabled":false,"rental_uris":{"android":"levelo://app?vid=d284b1e8-21db-40eb-97a1-f4caa8b26bac","ios":"levelo://app?vid=d284b1e8-21db-40eb-97a1-f4caa8b26bac"},"vehicle_type_id":"4","last_reported":1779101761,"current_range_meters":10000,"station_id":"st_d46tts09ee8s73dlu43g","pricing_plan_id":"cebpf4jnsgd1na2vs0mg"},{"bike_id":"0ee0866a-e05e-4244-9feb-48177e3a8a8f","system_id":"levelo_inurba_marseille","lat":43.31198,"lon":5.36859,"is_reserved":false,"is_disabled":false,"rental_uris":{"android":"levelo://app?vid=0ee0866a-e05e-4244-9feb-48177e3a8a8f","ios":"levelo://app?vid=0ee0866a-e05e-4244-9feb-48177e3a8a8f"},"vehicle_type_id":"4","last_reported":1779101761,"current_range_meters":10000,"station_id":"ce4bgl92rcd13ifvqbq0","pricing_plan_id":"cebpf4jnsgd1na2vs0mg"},{"bike_id":"81233419-72f7-49ef-bc9a-f51c3ee0acb9","system_id":"levelo_inurba_marseille","lat":43.24652,"lon":5.38881,"is_reserved":false,"is_disabled":false,"rental_uris":{"android":"levelo://app?vid=81233419-72f7-49ef-bc9a-f51c3ee0acb9","ios":"levelo://app?vid=81233419-72f7-49ef-bc9a-f51c3ee0acb9"},"vehicle_type_id":"4","last_reported":1779101761,"current_range_meters":10000,"station_id":"ce4bhg12rcd13ifvqf60","pricing_plan_id":"cebpf4jnsgd1na2vs0mg"},{"bike_id":"2ec33e78-0fcd-4d3f-949c-5f202d2c5181","system_id":"levelo_inurba_marseille","lat":43.24391,"lon":5.37047,"is_reserved":false,"is_disabled":false,"rental_uris":{"android":"levelo://app?vid=2ec33e78-0fcd-4d3f-949c-5f202d2c5181","ios":"levelo://app?vid=2ec33e78-0fcd-4d3f-949c-5f202d2c5181"},"vehicle_type_id":"4","last_reported":1779101761,"current_range_meters":10000,"station_id":"ce4bhhh2rcd13ifvqfk0","pricing_plan_id":"cebpf4jnsgd1na2vs0mg"},{"bike_id":"c84630c2-9489-42b7-93f3-65ac21427c09","system_id":"levelo_inurba_marseille","lat":43.296957,"lon":5.366058,"is_reserved":false,"is_disabled":false,"rental_uris":{"android":"levelo://app?vid=c84630c2-9489-42b7-93f3-65ac21427c09","ios":"levelo://app?vid=c84630c2-9489-42b7-93f3-65ac21427c09"},"vehicle_type_id":"4","last_reported":1779101761,"current_range_meters":10000,"station_id":"ce4bgn12rcd13ifvqbt0","pricing_plan_id":"cebpf4jnsgd1na2vs0mg"},{"bike_id":"89dcf81e-d685-4eb4-82aa-fe68a85d332a","system_id":"levelo_inurba_marseille","lat":43.32114,"lon":5.3677,"is_reserved":false,"is_disabled":false,"rental_uris":{"android":"levelo://app?vid=89dcf81e-d685-4eb4-82aa-fe68a85d332a","ios":"levelo://app?vid=89dcf81e-d685-4eb4-82aa-fe68a85d332a"},"vehicle_type_id":"4","last_reported":1779101761,"current_range_meters":10000,"station_id":"ce4bhrh2rcd13ifvqhug","pricing_plan_id":"cebpf4jnsgd1na2vs0mg"},{"bike_id":"c1d4d4a3-0a26-49a6-9462-366ffd98dd21","system_id":"levelo_inurba_marseille","lat":43.22928,"lon":5.35366,"is_reserved":false,"is_disabled":false,"rental_uris":{"android":"levelo://app?vid=c1d4d4a3-0a26-49a6-9462-366ffd98dd21","ios":"levelo://app?vid=c1d4d4a3-0a26-49a6-9462-366ffd98dd21"},