{"last_updated":1728968994,"ttl":60,"version":"2.2","data":{"bikes":[{"bike_id":"bdfebf5b-d2cc-4c8d-b7ba-e9fd07ad275f","system_id":"levelo_inurba_marseille","lat":43.30598,"lon":5.39353,"is_reserved":false,"is_disabled":false,"rental_uris":{"android":"levelo://app?vid=bdfebf5b-d2cc-4c8d-b7ba-e9fd07ad275f","ios":"levelo://app?vid=bdfebf5b-d2cc-4c8d-b7ba-e9fd07ad275f"},"vehicle_type_id":"4","last_reported":1728968994,"current_range_meters":38000,"station_id":"ce4bh0p2rcd13ifvqd80","pricing_plan_id":"cebpf4jnsgd1na2vs0mg"},{"bike_id":"10530386-7ea2-4630-9cfd-fe14c55cdb58","system_id":"levelo_inurba_marseille","lat":43.31756,"lon":5.39017,"is_reserved":false,"is_disabled":false,"rental_uris":{"android":"levelo://app?vid=10530386-7ea2-4630-9cfd-fe14c55cdb58","ios":"levelo://app?vid=10530386-7ea2-4630-9cfd-fe14c55cdb58"},"vehicle_type_id":"4","last_reported":1728968994,"current_range_meters":8400,"station_id":"ce4bhqp2rcd13ifvqhng","pricing_plan_id":"cebpf4jnsgd1na2vs0mg"},{"bike_id":"0e00236d-6c78-40f2-aabc-967513e135d4","system_id":"levelo_inurba_marseille","lat":43.287,"lon":5.37375,"is_reserved":false,"is_disabled":false,"rental_uris":{"android":"levelo://app?vid=0e00236d-6c78-40f2-aabc-967513e135d4","ios":"levelo://app?vid=0e00236d-6c78-40f2-aabc-967513e135d4"},"vehicle_type_id":"4","last_reported":1728968994,"current_range_meters":38400,"station_id":"ce4bh3p2rcd13ifvqdq0","pricing_plan_id":"cebpf4jnsgd1na2vs0mg"},{"bike_id":"cf4cabc2-1787-4d02-a606-03a61104119e","system_id":"levelo_inurba_marseille","lat":43.31329,"lon":5.397,"is_reserved":false,"is_disabled":false,"rental_uris":{"android":"levelo://app?vid=cf4cabc2-1787-4d02-a606-03a61104119e","ios":"levelo://app?vid=cf4cabc2-1787-4d02-a606-03a61104119e"},"vehicle_type_id":"4","last_reported":1728968994,"current_range_meters":36400,"station_id":"ce4bgvp2rcd13ifvqcu0","pricing_plan_id":"cebpf4jnsgd1na2vs0mg"},{"bike_id":"ac788206-ab8f-4ef0-a827-047740674c33","system_id":"levelo_inurba_marseille","lat":43.3126,"lon":5.3944,"is_reserved":false,"is_disabled":false,"rental_uris":{"android":"levelo://app?vid=ac788206-ab8f-4ef0-a827-047740674c33","ios":"levelo://app?vid=ac788206-ab8f-4ef0-a827-047740674c33"},"vehicle_type_id":"4","last_reported":1728968994,"current_range_meters":20800,"station_id":"","pricing_plan_id":"cebpf4jnsgd1na2vs0mg"},{"bike_id":"f4d5b4d2-0a44-42ed-ab83-851738facba2","system_id":"levelo_inurba_marseille","lat":43.27376,"lon":5.36258,"is_reserved":false,"is_disabled":false,"rental_uris":{"android":"levelo://app?vid=f4d5b4d2-0a44-42ed-ab83-851738facba2","ios":"levelo://app?vid=f4d5b4d2-0a44-42ed-ab83-851738facba2"},"vehicle_type_id":"4","last_reported":1728968994,"current_range_meters":21600,"station_id":"ce4bhbh2rcd13ifvqeo0","pricing_plan_id":"cebpf4jnsgd1na2vs0mg"},{"bike_id":"ab06f5b3-3c08-4bb2-ab1c-a3aa34c68d36","system_id":"levelo_inurba_marseille","lat":43.25088,"lon":5.3952,"is_reserved":false,"is_disabled":false,"rental_uris":{"android":"levelo://app?vid=ab06f5b3-3c08-4bb2-ab1c-a3aa34c68d36","ios":"levelo://app?vid=ab06f5b3-3c08-4bb2-ab1c-a3aa34c68d36"},"vehicle_type_id":"4","last_reported":1728968994,"current_range_meters":38400,"station_id":"ce4bhm12rcd13ifvqgkg","pricing_plan_id":"cebpf4jnsgd1na2vs0mg"},{"bike_id":"0b202908-bde3-48de-9c8a-4b68063a4c5c","system_id":"levelo_inurba_marseille","lat":43.30143,"lon":5.38084,"is_reserved":false,"is_disabled":false,"rental_uris":{"android":"levelo://app?vid=0b202908-bde3-48de-9c8a-4b68063a4c5c","ios":"levelo://app?vid=0b202908-bde3-48de-9c8a-4b68063a4c5c"},"vehicle_type_id":"4","last_reported":1728968994,"current_range_meters":36800,"station_id":"ce4bgjp2rcd13ifvqbh0","pricing_plan_id":"cebpf4jnsgd1na2vs0mg"},{"bike_id":"6c769316-75e3-4eba-8bca-7dffbdb7e41c","system_id":"levelo_inurba_marseille","lat":43.28461,"lon":5.35897,"is_reserved":false,"is_disabled":false,"rental_uris":{"android":"levelo://app?vid=6c769316-75e3-4eba-8bca-7dffbdb7e41c","ios":"levelo://app?vid=6c769316-75e3-4eba-8bca-7dffbdb7e41c"},"vehicle_type_id":"4","last_reported":1728968994,"current_range_meters":38000,"station_id":"ce4bhah2rcd13ifvqei0","pricing_plan_id":"cebpf4jnsgd1na2vs0mg"},{"bike_id":"2755adbb-60ab-4364-81ca-747263e4f152","system_id":"levelo_inurba_marseille","lat":43.30355,"lon":5.41882,"is_reserved":false,"is_disabled":false,"rental_uris":{"android":"levelo://app?vid=2755adbb-60ab-4364-81ca-747263e4f152","ios":"levelo://app?vid=2755adbb-60ab-4364-81ca-747263e4f152"},"vehicle_type_id":"4","last_reported":1728968994,"current_range_meters":31200,"station_id":"ce4bhop2rcd13ifvqh7g","pricing_plan_id":"cebpf4jnsgd1na2vs0mg"},{"bike_id":"ae58aa92-0ea5-4939-b683-b32e07156223","system_id":"levelo_inurba_marseille","lat":43.28476,"lon":5.38417,"is_reserved":false,"is_disabled":false,"rental_uris":{"android":"levelo://app?vid=ae58aa92-0ea5-4939-b683-b32e07156223","ios":"levelo://app?vid=ae58aa92-0ea5-4939-b683-b32e07156223"},"vehicle_type_id":"4","last_reported":1728968994,"current_range_meters":32800,"station_id":"ce4bh512rcd13ifvqe3g","pricing_plan_id":"cebpf4jnsgd1na2vs0mg"},{"bike_id":"ba0bc205-42c3-45aa-9387-1143bf833c8e","system_id":"levelo_inurba_marseille","lat":43.29275,"lon":5.36842,"is_reserved":false,"is_disabled":false,"rental_uris":{"android":"levelo://app?vid=ba0bc205-42c3-45aa-9387-1143bf833c8e","ios":"levelo://app?vid=ba0bc205-42c3-45aa-9387-1143bf833c8e"},"vehicle_type_id":"4","last_reported":1728968994,"current_range_meters":38000,"station_id":"ce4bhbp2rcd13ifvqesg","pricing_plan_id":"cebpf4jnsgd1na2vs0mg"},{"bike_id":"ef496cc4-c984-4941-ae55-09439776e097","system_id":"levelo_inurba_marseille","lat":43.30136,"lon":5.387789,"is_reserved":false,"is_disabled":false,"rental_uris":{"android":"levelo://app?vid=ef496cc4-c984-4941-ae55-09439776e097","ios":"levelo://app?vid=ef496cc4-c984-4941-ae55-09439776e097"},"vehicle_type_id":"4","last_reported":1728968994,"current_range_meters":36800,"station_id":"ce4bghh2rcd13ifvqb60","pricing_plan_id":"cebpf4jnsgd1na2vs0mg"},{"bike_id":"c66d2a40-3d16-47f5-9a5d-f3ce94e4d2af","system_id":"levelo_inurba_marseille","lat":43.3015,"lon":5.3807,"is_reserved":false,"is_disabled":false,"rental_uris":{"android":"levelo://app?vid=c66d2a40-3d16-47f5-9a5d-f3ce94e4d2af","ios":"levelo://app?vid=c66d2a40-3d16-47f5-9a5d-f3ce94e4d2af"},"vehicle_type_id":"4","last_reported":1728968994,"current_range_meters":26800,"station_id":"ce4bgjp2rcd13ifvqbh0","pricing_plan_id":"cebpf4jnsgd1na2vs0mg"},{"bike_id":"e0d609ec-d2fb-447a-aae2-ed2991c291e9","system_id":"levelo_inurba_marseille","lat":43.31172,"lon":5.3871,"is_reserved":false,"is_disabled":false,"rental_uris":{"android":"levelo://app?vid=e0d609ec-d2fb-447a-aae2-ed2991c291e9","ios":"levelo://app?vid=e0d609ec-d2fb-447a-aae2-ed2991c291e9"},"vehicle_type_id":"4","last_reported":1728968994,"current_range_meters":33200,"station_id":"ce4bgv12rcd13ifvqcp0","pricing_plan_id":"cebpf4jnsgd1na2vs0mg"},{"bike_id":"4fb899fb-c7f7-4299-8856-d588065fcc96","system_id":"levelo_inurba_marseille","lat":43.31723,"lon":5.424,"is_reserved":false,"is_disabled":false,"rental_uris":{"android":"levelo://app?vid=4fb899fb-c7f7-4299-8856-d588065fcc96","ios":"levelo://app?vid=4fb899fb-c7f7-4299-8856-d588065fcc96"},"vehicle_type_id":"4","last_reported":1728968994,"current_range_meters":38800,"station_id":"ce4bhp92rcd13ifvqhbg","pricing_plan_id":"cebpf4jnsgd1na2vs0mg"},{"bike_id":"58f13e0b-f545-4df4-bc1f-4c6e95704afc","system_id":"levelo_inurba_marseille","lat":43.28412,"lon":5.37509,"is_reserved":false,"is_disabled":false,"rental_uris":{"android":"levelo://app?vid=58f13e0b-f545-4df4-bc1f-4c6e95704afc","ios":"levelo://app?vid=58f13e0b-f545-4df4-bc1f-4c6e95704afc"},"vehicle_type_id":"4","last_reported":1728968994,"current_range_meters":37600,"station_id":"ce4bh412rcd13ifvqds0","pricing_plan_id":"cebpf4jnsgd1na2vs0mg"},{"bike_id":"dfe8030c-37d8-4b9c-a9e4-185e78aae511","system_id":"levelo_inurba_marseille","lat":43.31753,"lon":5.39014,"is_reserved":false,"is_disabled":false,"rental_uris":{"android":"levelo://app?vid=dfe8030c-37d8-4b9c-a9e4-185e78aae511","ios":"levelo://app?vid=dfe8030c-37d8-4b9c-a9e4-185e78aae511"},"vehicle_type_id":"4","last_reported":1728968994,"current_range_meters":38000,"station_id":"ce4bhqp2rcd13ifvqhng","pricing_plan_id":"cebpf4jnsgd1na2vs0mg"},{"bike_id":"1c5b8ae7-786d-445b-b9e1-97874f67f0a3","system_id":"levelo_inurba_marseille","lat":43.30784,"lon":5.37653,"is_reserved":false,"is_disabled":false,"rental_uris":{"android":"levelo://app?vid=1c5b8ae7-786d-445b-b9e1-97874f67f0a3","ios":"levelo://app?vid=1c5b8ae7-786d-445b-b9e1-97874f67f0a3"},"vehicle_type_id":"4","last_reported":1728968994,"current_range_meters":40000,"station_id":"ce4bgv92rcd13ifvqcq0","pricing_plan_id":"cebpf4jnsgd1na2vs0mg"},{"bike_id":"5d12803c-19db-45e4-a857-1fff9be49f25","system_id":"levelo_inurba_marseille","lat":43.25931,"lon":5.40906,"is_reserved":false,"is_disabled":false,"rental_uris":{"android":"levelo://app?vid=5d12803c-19db-45e4-a857-1fff9be49f25","ios":"levelo://app?vid=5d12803c-19db-45e4-a857-1fff9be49f25"},"vehicle_type_id":"4","last_reported":1728968994,"current_range_meters":36800,"station_id":"ce4bhm92rcd13ifvqglg","pricing_plan_id":"cebpf4jnsgd1na2vs0mg"},{"bike_id":"009e1944-5320-46ff-a5bd-7f170a6cc59c","system_id":"levelo_inurba_marseille","lat":43.310744,"lon":5.38348,"is_reserved":false,"is_disabled":false,"rental_uris":{"android":"levelo://app?vid=009e1944-5320-46ff-a5bd-7f170a6cc59c","ios":"levelo://app?vid=009e1944-5320-46ff-a5bd-7f170a6cc59c"},"vehicle_type_id":"4","last_reported":1728968994,"current_range_meters":38400,"station_id":"ce4bgv92rcd13ifvqcr0","pricing_plan_id":"cebpf4jnsgd1na2vs0mg"},{"bike_id":"2c9ed3c2-8f06-4c6d-9374-4d34c0d3ad6b","system_id":"levelo_inurba_marseille","lat":43.32663,"lon":5.40993,"is_reserved":false,"is_disabled":false,"rental_uris":{"android":"levelo://app?vid=2c9ed3c2-8f06-4c6d-9374-4d34c0d3ad6b","ios":"levelo://app?vid=2c9ed3c2-8f06-4c6d-9374-4d34c0d3ad6b"},"vehicle_type_id":"4","last_reported":1728968994,"current_range_meters":38800,"station_id":"ce4bhpp2rcd13ifvqhgg","pricing_plan_id":"cebpf4jnsgd1na2vs0mg"},{"bike_id":"681ce81d-57b9-40fa-9e7a-abaf3b46ed81","system_id":"levelo_inurba_marseille","lat":43.3015,"lon":5.38062,"is_reserved":false,"is_disabled":false,"rental_uris":{"android":"levelo://app?vid=681ce81d-57b9-40fa-9e7a-abaf3b46ed81","ios":"levelo://app?vid=681ce81d-57b9-40fa-9e7a-abaf3b46ed81"},"vehicle_type_id":"4","last_reported":1728968994,"current_range_meters":28000,"station_id":"ce4bgjp2rcd13ifvqbh0","pricing_plan_id":"cebpf4jnsgd1na2vs0mg"},{"bike_id":"c6cb8169-86d9-4979-b6d9-2235f845d6f0","system_id":"levelo_inurba_marseille","lat":43.31489,"lon":5.37306,"is_reserved":false,"is_disabled":false,"rental_uris":{"android":"levelo://app?vid=c6cb8169-86d9-4979-b6d9-2235f845d6f0","ios":"levelo://app?vid=c6cb8169-86d9-4979-b6d9-2235f845d6f0"},"vehicle_type_id":"4","last_reported":1728968994,"current_range_meters":38000,"station_id":"ce4bgt12rcd13ifvqcd0","pricing_plan_id":"cebpf4jnsgd1na2vs0mg"},{"bike_id":"4cf12dc6-3a4d-47f6-980f-7bb8edfa494b","system_id":"levelo_inurba_marseille","lat":43.30475,"lon":5.37909,"is_reserved":false,"is_disabled":false,"rental_uris":{"android":"levelo://app?vid=4cf12dc6-3a4d-47f6-980f-7bb8edfa494b","ios":"levelo://app?vid=4cf12dc6-3a4d-47f6-980f-7bb8edfa494b"},"vehicle_type_id":"4","last_reported":1728968994,"current_range_meters":27200,"station_id":"ce4bgup2rcd13ifvqcn0","pricing_plan_id":"cebpf4jnsgd1na2vs0mg"},{"bike_id":"99788043-9ff2-4d81-86f1-8ada557515db","system_id":"levelo_inurba_marseille","lat":43.26565,"lon":5.39016,"is_reserved":false,"is_disabled":false,"rental_uris":{"android":"levelo://app?vid=99788043-9ff2-4d81-86f1-8ada557515db","ios":"levelo://app?vid=99788043-9ff2-4d81-86f1-8ada557515db"},"vehicle_type_id":"4","last_reported":1728968994,"current_range_meters":38800,"station_id":"ce4bhe12rcd13ifvqf30","pricing_plan_id":"cebpf4jnsgd1na2vs0mg"},{"bike_id":"1c9343e4-7b78-402e-b1fe-6599c269887e","system_id":"levelo_inurba_marseille","lat":43.314515,"lon":5.37384,"is_reserved":false,"is_disabled":false,"rental_uris":{"android":"levelo://app?vid=1c9343e4-7b78-402e-b1fe-6599c269887e","ios":"levelo://app?vid=1c9343e4-7b78-402e-b1fe-6599c269887e"},"vehicle_type_id":"4","last_reported":1728968994,"current_range_meters":24800,"station_id":"","pricing_plan_id":"cebpf4jnsgd1na2vs0mg"},{"bike_id":"b42f2c24-44ff-457a-9a5c-112549c7964a","system_id":"levelo_inurba_marseille","lat":43.25118,"lon":5.40322,"is_reserved":false,"is_disabled":false,"rental_uris":{"android":"levelo://app?vid=b42f2c24-44ff-457a-9a5c-112549c7964a","ios":"levelo://app?vid=b42f2c24-44ff-457a-9a5c-112549c7964a"},"vehicle_type_id":"4","last_reported":1728968994,"current_range_meters":37600,"station_id":"ce4bhlh2rcd13ifvqgig","pricing_plan_id":"cebpf4jnsgd1na2vs0mg"},{"bike_id":"c0e3888e-399e-4c85-9a12-e8e6e066d5b4","system_id":"levelo_inurba_marseille","lat":43.28481,"lon":5.38547,"is_reserved":false,"is_disabled":false,"rental_uris":{"android":"levelo://app?vid=c0e3888e-399e-4c85-9a12-e8e6e066d5b4","ios":"levelo://app?vid=c0e3888e-399e-4c85-9a12-e8e6e066d5b4"},"vehicle_type_id":"4","last_reported":1728968994,"current_range_meters":30000,"station_id":"ce4bh8p2rcd13ifvqeb0","pricing_plan_id":"cebpf4jnsgd1na2vs0mg"},{"bike_id":"e259fdea-2883-4b1f-b581-43172e00c1a8","system_id":"levelo_inurba_marseille","lat":43.29796,"lon":5.38095,"is_reserved":false,"is_disabled":false,"rental_uris":{"android":"levelo://app?vid=e259fdea-2883-4b1f-b581-43172e00c1a8","ios":"levelo://app?vid=e259fdea-2883-4b1f-b581-43172e00c1a8"},"vehicle_type_id":"4","last_reported":1728968994,"current_range_meters":32000,"station_id":"ce4bgip2rcd13ifvqbb0","pricing_plan_id":"cebpf4jnsgd1na2vs0mg"},{"bike_id":"23d8bd7c-2dd6-4dbc-8138-b2a4ac4b4b56","system_id":"levelo_inurba_marseille","lat":43.31534,"lon":5.38031,"is_reserved":false,"is_disabled":false,"rental_uris":{"android":"levelo://app?vid=23d8bd7c-2dd6-4dbc-8138-b2a4ac4b4b56","ios":"levelo://app?vid=23d8bd7c-2dd6-4dbc-8138-b2a4ac4b4b56"},"vehicle_type_id":"4","last_reported":1728968994,"current_range_meters":36000,"station_id":"ce4bhsp2rcd13ifvqi50","pricing_plan_id":"cebpf4jnsgd1na2vs0mg"},{"bike_id":"01278a9e-9df9-414f-9298-8fc23308687f","system_id":"levelo_inurba_marseille","lat":43.30914,"lon":5.36855,"is_reserved":false,"is_disabled":false,"rental_uris":{"android":"levelo://app?vid=01278a9e-9df9-414f-9298-8fc23308687f","ios":"levelo://app?vid=01278a9e-9df9-414f-9298-8fc23308687f"},"vehicle_type_id":"4","last_reported":1728968994,"current_range_meters":38800,"station_id":"ce4bgn92rcd13ifvqbvg","pricing_plan_id":"cebpf4jnsgd1na2vs0mg"},{"bike_id":"725cf1f1-c36f-4257-98d4-57b786bdb67f","system_id":"levelo_inurba_marseille","lat":43.24649,"lon":5.38898,"is_reserved":false,"is_disabled":false,"rental_uris":{"android":"levelo://app?vid=725cf1f1-c36f-4257-98d4-57b786bdb67f","ios":"levelo://app?vid=725cf1f1-c36f-4257-98d4-57b786bdb67f"},"vehicle_type_id":"4","last_reported":1728968994,"current_range_meters":37600,"station_id":"ce4bhg12rcd13ifvqf60","pricing_plan_id":"cebpf4jnsgd1na2vs0mg"},{"bike_id":"21cee8c7-e7a5-4980-8e99-3dc300a8bda4","system_id":"levelo_inurba_marseille","lat":43.27974,"lon":5.38743,"is_reserved":false,"is_disabled":false,"rental_uris":{"android":"levelo://app?vid=21cee8c7-e7a5-4980-8e99-3dc300a8bda4","ios":"levelo://app?vid=21cee8c7-e7a5-4980-8e99-3dc300a8bda4"},"vehicle_type_id":"4","last_reported":1728968994,"current_range_meters":38800,"station_id":"ce4bhg12rcd13ifvqf80","pricing_plan_id":"cebpf4jnsgd1na2vs0mg"},{"bike_id":"028fce04-55e9-4ec3-b4a5-1b566b48b26b","system_id":"levelo_inurba_marseille","lat":43.32553,"lon":5.41449,"is_reserved":false,"is_disabled":false,"rental_uris":{"android":"levelo://app?vid=028fce04-55e9-4ec3-b4a5-1b566b48b26b","ios":"levelo://app?vid=028fce04-55e9-4ec3-b4a5-1b566b48b26b"},"vehicle_type_id":"4","last_reported":1728968994,"current_range_meters":24000,"station_id":"ce4bhq12rcd13ifvqhhg","pricing_plan_id":"cebpf4jnsgd1na2vs0mg"},{"bike_id":"0aa0a823-4192-4039-a41f-8b7be20c611d","system_id":"levelo_inurba_marseille","lat":43.31497,"lon":5.37303,"is_reserved":false,"is_disabled":false,"rental_uris":{"android":"levelo://app?vid=0aa0a823-4192-4039-a41f-8b7be20c611d","ios":"levelo://app?vid=0aa0a823-4192-4039-a41f-8b7be20c611d"},"vehicle_type_id":"4","last_reported":1728968994,"current_range_meters":9200,"station_id":"ce4bgt12rcd13ifvqcd0","pricing_plan_id":"cebpf4jnsgd1na2vs0mg"},{"bike_id":"05a48c1f-8542-4604-801f-8bcad6213878","system_id":"levelo_inurba_marseille","lat":43.34147,"lon":5.40903,"is_reserved":false,"is_disabled":false,"rental_uris":{"android":"levelo://app?vid=05a48c1f-8542-4604-801f-8bcad6213878","ios":"levelo://app?vid=05a48c1f-8542-4604-801f-8bcad6213878"},"vehicle_type_id":"4","last_reported":1728968994,"current_range_meters":17600,"station_id":"ce4bhqh2rcd13ifvqhlg","pricing_plan_id":"cebpf4jnsgd1na2vs0mg"},{"bike_id":"2b85a6e0-def7-4a19-ab1f-dffd44eebd82","system_id":"levelo_inurba_marseille","lat":43.32359,"lon":5.38887,"is_reserved":false,"is_disabled":false,"rental_uris":{"android":"levelo://app?vid=2b85a6e0-def7-4a19-ab1f-dffd44eebd82","ios":"levelo://app?vid=2b85a6e0-def7-4a19-ab1f-dffd44eebd82"},"vehicle_type_id":"4","last_reported":1728968994,"current_range_meters":10800,"station_id":"ce4bhqp2rcd13ifvqhog","pricing_plan_id":"cebpf4jnsgd1na2vs0mg"},{"bike_id":"2b698199-fd67-474e-a105-b79584c2aab2","system_id":"levelo_inurba_marseille","lat":43.31069,"lon":5.38354,"is_reserved":false,"is_disabled":false,"rental_uris":{"android":"levelo://app?vid=2b698199-fd67-474e-a105-b79584c2aab2","ios":"levelo://app?vid=2b698199-fd67-474e-a105-b79584c2aab2"},"vehicle_type_id":"4","last_reported":1728968994,"current_range_meters":18800,"station_id":"ce4bgv92rcd13ifvqcr0","pricing_plan_id":"cebpf4jnsgd1na2vs0mg"},{"bike_id":"02d20c80-1832-49a8-b20c-d886b909e3b2","system_id":"levelo_inurba_marseille","lat":43.29258,"lon":5.40908,"is_reserved":false,"is_disabled":false,"rental_uris":{"android":"levelo://app?vid=02d20c80-1832-49a8-b20c-d886b909e3b2","ios":"levelo://app?vid=02d20c80-1832-49a8-b20c-d886b909e3b2"},"vehicle_type_id":"4","last_reported":1728968994,"current_range_meters":33600,"station_id":"ce4bh192rcd13ifvqdc0","pricing_plan_id":"cebpf4jnsgd1na2vs0mg"},{"bike_id":"1eb0d291-c980-43c3-897c-b678fe3f7bcf","system_id":"levelo_inurba_marseille","lat":43.32343,"lon":5.40624,"is_reserved":false,"is_disabled":false,"rental_uris":{"android":"levelo://app?vid=1eb0d291-c980-43c3-897c-b678fe3f7bcf","ios":"levelo://app?vid=1eb0d291-c980-43c3-897c-b678fe3f7bcf"},"vehicle_type_id":"4","last_reported":1728968994,"current_range_meters":32400,"station_id":"ce4bhq92rcd13ifvqhjg","pricing_plan_id":"cebpf4jnsgd1na2vs0mg"},{"bike_id":"8fdd4147-e848-49f0-9c54-870bdb6cb1f5","system_id":"levelo_inurba_marseille","lat":43.33608,"lon":5.41026,"is_reserved":false,"is_disabled":false,"rental_uris":{"android":"levelo://app?vid=8fdd4147-e848-49f0-9c54-870bdb6cb1f5","ios":"levelo://app?vid=8fdd4147-e848-49f0-9c54-870bdb6cb1f5"},"vehicle_type_id":"4","last_reported":1728968994,"current_range_meters":36800,"station_id":"ce4bhqh2rcd13ifvqhmg","pricing_plan_id":"cebpf4jnsgd1na2vs0mg"},{"bike_id":"16108f92-6bb6-4625-8e86-043bb5e3efc3","system_id":"levelo_inurba_marseille","lat":43.33603,"lon":5.41017,"is_reserved":false,"is_disabled":false,"rental_uris":{"android":"levelo://app?vid=16108f92-6bb6-4625-8e86-043bb5e3efc3","ios":"levelo://app?vid=16108f92-6bb6-4625-8e86-043bb5e3efc3"},"vehicle_type_id":"4","last_reported":1728968994,"current_range_meters":38800,"station_id":"ce4bhqh2rcd13ifvqhmg","pricing_plan_id":"cebpf4jnsgd1na2vs0mg"},{"bike_id":"38f8e82f-b32d-4209-9f63-50ee9fadf9e5","system_id":"levelo_inurba_marseille","lat":43.27071,"lon":5.4228,"is_reserved":false,"is_disabled":false,"rental_uris":{"android":"levelo://app?vid=38f8e82f-b32d-4209-9f63-50ee9fadf9e5","ios":"levelo://app?vid=38f8e82f-b32d-4209-9f63-50ee9fadf9e5"},"vehicle_type_id":"4","last_reported":1728968994,"current_range_meters":38800,"station_id":"ce4bhk92rcd13ifvqgb0","pricing_plan_id":"cebpf4jnsgd1na2vs0mg"},{"bike_id":"fdfebcf8-fb17-4b40-8a78-d74a03d62b1a","system_id":"levelo_inurba_marseille","lat":43.23185,"lon":5.39978,"is_reserved":false,"is_disabled":false,"rental_uris":{"android":"levelo://app?vid=fdfebcf8-fb17-4b40-8a78-d74a03d62b1a","ios":"levelo://app?vid=fdfebcf8-fb17-4b40-8a78-d74a03d62b1a"},"vehicle_type_id":"4","last_reported":1728968994,"current_range_meters":28000,"station_id":"ce4bhn12rcd13ifvqgqg","pricing_plan_id":"cebpf4jnsgd1na2vs0mg"},{"bike_id":"3b39d073-558f-43a6-8552-9ea0f0a73eff","system_id":"levelo_inurba_marseille","lat":43.29005,"lon":5.35617,"is_reserved":false,"is_disabled":false,"rental_uris":{"android":"levelo://app?vid=3b39d073-558f-43a6-8552-9ea0f0a73eff","ios":"levelo://app?vid=3b39d073-558f-43a6-8552-9ea0f0a73eff"},"vehicle_type_id":"4","last_reported":1728968994,"current_range_meters":38400,"station_id":"ce4bhb92rcd13ifvqen0","pricing_plan_id":"cebpf4jnsgd1na2vs0mg"},{"bike_id":"154b46c0-b1ff-4568-869d-7ff34d76d51b","system_id":"levelo_inurba_marseille","lat":43.30243,"lon":5.40064,"is_reserved":false,"is_disabled":false,"rental_uris":{"android":"levelo://app?vid=154b46c0-b1ff-4568-869d-7ff34d76d51b","ios":"levelo://app?vid=154b46c0-b1ff-4568-869d-7ff34d76d51b"},"vehicle_type_id":"4","last_reported":1728968994,"current_range_meters":5600,"station_id":"ce4bgvh2rcd13ifvqcs0","pricing_plan_id":"cebpf4jnsgd1na2vs0mg"},{"bike_id":"089f7e4d-5e67-4252-9468-8ac863048356","system_id":"levelo_inurba_marseille","lat":43.30432,"lon":5.38885,"is_reserved":false,"is_disabled":false,"rental_uris":{"android":"levelo://app?vid=089f7e4d-5e67-4252-9468-8ac863048356","ios":"levelo://app?vid=089f7e4d-5e67-4252-9468-8ac863048356"},"vehicle_type_id":"4","last_reported":1728968994,"current_range_meters":38800,"station_id":"ce4bgk12rcd13ifvqbi0","pricing_plan_id":"cebpf4jnsgd1na2vs0mg"},{"bike_id":"4acaa12a-59a0-401c-a35a-9d542ce22a01","system_id":"levelo_inurba_marseille","lat":43.29891,"lon":5.43657,"is_reserved":false,"is_disabled":false,"rental_uris":{"android":"levelo://app?vid=4acaa12a-59a0-401c-a35a-9d542ce22a01","ios":"levelo://app?vid=4acaa12a-59a0-401c-a35a-9d542ce22a01"},"vehicle_type_id":"4","last_reported":1728968994,"current_range_meters":37600,"station_id":"ce4bhpp2rcd13ifvqhfg","pricing_plan_id":"cebpf4jnsgd1na2vs0mg"},{"bike_id":"27521189-a10b-488a-82b8-973812fa95e1","system_id":"levelo_inurba_marseille","lat":43.32482,"lon":5.36582,"is_reserved":false,"is_disabled":false,"rental_uris":{"android":"levelo://app?vid=27521189-a10b-488a-82b8-973812fa95e1","ios":"levelo://app?vid=27521189-a10b-488a-82b8-973812fa95e1"},"vehicle_type_id":"4","last_reported":1728968994,"current_range_meters":37600,"station_id":"ce4bhs12rcd13ifvqhvg","pricing_plan_id":"cebpf4jnsgd1na2vs0mg"},{"bike_id":"289d2d5b-50b3-4ed8-95dd-7acbaf331002","system_id":"levelo_inurba_marseille","lat":43.2928,"lon":5.40123,"is_reserved":false,"is_disabled":false,"rental_uris":{"android":"levelo://app?vid=289d2d5b-50b3-4ed8-95dd-7acbaf331002","ios":"levelo://app?vid=289d2d5b-50b3-4ed8-95dd-7acbaf331002"},"vehicle_type_id":"4","last_reported":1728968994,"current_range_meters":34000,"station_id":"ce4bh312rcd13ifvqdk0","pricing_plan_id":"cebpf4jnsgd1na2vs0mg"},{"bike_id":"8150ccdd-59c2-4d85-bdd9-531da04d1f17","system_id":"levelo_inurba_marseille","lat":43.30153,"lon":5.38084,"is_reserved":false,"is_disabled":false,"rental_uris":{"android":"levelo://app?vid=8150ccdd-59c2-4d85-bdd9-531da04d1f17","ios":"levelo://app?vid=8150ccdd-59c2-4d85-bdd9-531da04d1f17"},"vehicle_type_id":"4","last_reported":1728968994,"current_range_meters":35200,"station_id":"ce4bgjp2rcd13ifvqbh0","pricing_plan_id":"cebpf4jnsgd1na2vs0mg"},{"bike_id":"9db40ddd-438c-4b3e-acd4-f19cdf6b8d2b","system_id":"levelo_inurba_marseille","lat":43.24807,"lon":5.37451,"is_reserved":false,"is_disabled":false,"rental_uris":{"android":"levelo://app?vid=9db40ddd-438c-4b3e-acd4-f19cdf6b8d2b","ios":"levelo://app?vid=9db40ddd-438c-4b3e-acd4-f19cdf6b8d2b"},"vehicle_type_id":"4","last_reported":1728968994,"current_range_meters":32000,"station_id":"ce4bhgh2rcd13ifvqfb0","pricing_plan_id":"cebpf4jnsgd1na2vs0mg"},{"bike_id":"5724a621-30fc-4cf9-b14f-4b747b3dff4a","system_id":"levelo_inurba_marseille","lat":43.2466,"lon":5.3816,"is_reserved":false,"is_disabled":false,"rental_uris":{"android":"levelo://app?vid=5724a621-30fc-4cf9-b14f-4b747b3dff4a","ios":"levelo://app?vid=5724a621-30fc-4cf9-b14f-4b747b3dff4a"},"vehicle_type_id":"4","last_reported":1728968994,"current_range_meters":38800,"station_id":"ce4bhih2rcd13ifvqfr0","pricing_plan_id":"cebpf4jnsgd1na2vs0mg"},{"bike_id":"09a2e575-ef21-47f1-afdd-66b4617de5a0","system_id":"levelo_inurba_marseille","lat":43.28083,"lon":5.39644,"is_reserved":false,"is_disabled":false,"rental_uris":{"android":"levelo://app?vid=09a2e575-ef21-47f1-afdd-66b4617de5a0","ios":"levelo://app?vid=09a2e575-ef21-47f1-afdd-66b4617de5a0"},"vehicle_type_id":"4","last_reported":1728968994,"current_range_meters":38800,"station_id":"ce4bho12rcd13ifvqh2g","pricing_plan_id":"cebpf4jnsgd1na2vs0mg"},{"bike_id":"51ea1441-9738-4a97-808c-9b3f542e779b","system_id":"levelo_inurba_marseille","lat":43.29038,"lon":5.3994,"is_reserved":false,"is_disabled":false,"rental_uris":{"android":"levelo://app?vid=51ea1441-9738-4a97-808c-9b3f542e779b","ios":"levelo://app?vid=51ea1441-9738-4a97-808c-9b3f542e779b"},"vehicle_type_id":"4","last_reported":1728968994,"current_range_meters":11600,"station_id":"ce4bh392rcd13ifvqdm0","pricing_plan_id":"cebpf4jnsgd1na2vs0mg"},{"bike_id":"49be40e6-825f-4f85-95e7-732c4c0772ae","system_id":"levelo_inurba_marseille","lat":43.31323,"lon":5.3969,"is_reserved":false,"is_disabled":false,"rental_uris":{"android":"levelo://app?vid=49be40e6-825f-4f85-95e7-732c4c0772ae","ios":"levelo://app?vid=49be40e6-825f-4f85-95e7-732c4c0772ae"},"vehicle_type_id":"4","last_reported":1728968994,"current_range_meters":30000,"station_id":"ce4bgvp2rcd13ifvqcu0","pricing_plan_id":"cebpf4jnsgd1na2vs0mg"},{"bike_id":"70700c70-fa0c-4308-8c61-fb4893e7da37","system_id":"levelo_inurba_marseille","lat":43.30418,"lon":5.41289,"is_reserved":false,"is_disabled":false,"rental_uris":{"android":"levelo://app?vid=70700c70-fa0c-4308-8c61-fb4893e7da37","ios":"levelo://app?vid=70700c70-fa0c-4308-8c61-fb4893e7da37"},"vehicle_type_id":"4","last_reported":1728968994,"current_range_meters":37600,"station_id":"ce4bhop2rcd13ifvqh8g","pricing_plan_id":"cebpf4jnsgd1na2vs0mg"},{"bike_id":"ba87a5e1-78fc-4d10-8ebe-451ce5ee31ce","system_id":"levelo_inurba_marseille","lat":43.25578,"lon":5.3824,"is_reserved":false,"is_disabled":false,"rental_uris":{"android":"levelo://app?vid=ba87a5e1-78fc-4d10-8ebe-451ce5ee31ce","ios":"levelo://app?vid=ba87a5e1-78fc-4d10-8ebe-451ce5ee31ce"},"vehicle_type_id":"4","last_reported":1728968994,"current_range_meters":6800,"station_id":"ce4bhih2rcd13ifvqfs0","pricing_plan_id":"cebpf4jnsgd1na2vs0mg"},{"bike_id":"c3d7c0eb-3d86-4cb2-9661-09e5ae2b8029","system_id":"levelo_inurba_marseille","lat":43.27907,"lon":5.38005,"is_reserved":false,"is_disabled":false,"rental_uris":{"android":"levelo://app?vid=c3d7c0eb-3d86-4cb2-9661-09e5ae2b8029","ios":"levelo://app?vid=c3d7c0eb-3d86-4cb2-9661-09e5ae2b8029"},"vehicle_type_id":"4","last_reported":1728968994,"current_range_meters":38800,"station_id":"ce4bhf92rcd13ifvqf50","pricing_plan_id":"cebpf4jnsgd1na2vs0mg"},{"bike_id":"d68a13a4-a346-4048-9044-ed61653ff321","system_id":"levelo_inurba_marseille","lat":43.32662,"lon":5.4099,"is_reserved":false,"is_disabled":false,"rental_uris":{"android":"levelo://app?vid=d68a13a4-a346-4048-9044-ed61653ff321","ios":"levelo://app?vid=d68a13a4-a346-4048-9044-ed61653ff321"},"vehicle_type_id":"4","last_reported":1728968994,"current_range_meters":38400,"station_id":"ce4bhpp2rcd13ifvqhgg","pricing_plan_id":"cebpf4jnsgd1na2vs0mg"},{"bike_id":"a7ac06c3-430e-48f4-9ad6-5a0061e134a2","system_id":"levelo_inurba_marseille","lat":43.29255,"lon":5.40916,"is_reserved":false,"is_disabled":false,"rental_uris":{"android":"levelo://app?vid=a7ac06c3-430e-48f4-9ad6-5a0061e134a2","ios":"levelo://app?vid=a7ac06c3-430e-48f4-9ad6-5a0061e134a2"},"vehicle_type_id":"4","last_reported":1728968994,"current_range_meters":16000,"station_id":"ce4bh192rcd13ifvqdc0","pricing_plan_id":"cebpf4jnsgd1na2vs0mg"},{"bike_id":"7788dc4b-4f54-41ed-a1d3-a1984d58b388","system_id":"levelo_inurba_marseille","lat":43.28616,"lon":5.351,"is_reserved":false,"is_disabled":false,"rental_uris":{"android":"levelo://app?vid=7788dc4b-4f54-41ed-a1d3-a1984d58b388","ios":"levelo://app?vid=7788dc4b-4f54-41ed-a1d3-a1984d58b388"},"vehicle_type_id":"4","last_reported":1728968994,"current_range_meters":37600,"station_id":"ce4bhch2rcd13ifvqeug","pricing_plan_id":"cebpf4jnsgd1na2vs0mg"},{"bike_id":"e8fd743b-6305-49f6-9cda-5da5f3b2104d","system_id":"levelo_inurba_marseille","lat":43.25126,"lon":5.40317,"is_reserved":false,"is_disabled":false,"rental_uris":{"android":"levelo://app?vid=e8fd743b-6305-49f6-9cda-5da5f3b2104d","ios":"levelo://app?vid=e8fd743b-6305-49f6-9cda-5da5f3b2104d"},"vehicle_type_id":"4","last_reported":1728968994,"current_range_meters":38400,"station_id":"ce4bhlh2rcd13ifvqgig","pricing_plan_id":"cebpf4jnsgd1na2vs0mg"},{"bike_id":"995213a4-b0e8-4737-b0b6-5f59e564978e","system_id":"levelo_inurba_marseille","lat":43.33604,"lon":5.41022,"is_reserved":false,"is_disabled":false,"rental_uris":{"android":"levelo://app?vid=995213a4-b0e8-4737-b0b6-5f59e564978e","ios":"levelo://app?vid=995213a4-b0e8-4737-b0b6-5f59e564978e"},"vehicle_type_id":"4","last_reported":1728968994,"current_range_meters":8000,"station_id":"ce4bhqh2rcd13ifvqhmg","pricing_plan_id":"cebpf4jnsgd1na2vs0mg"},{"bike_id":"b178b062-35cd-4f92-91db-f4ae171fe0ea","system_id":"levelo_inurba_marseille","lat":43.292851,"lon":5.368404,"is_reserved":false,"is_disabled":false,"rental_uris":{"android":"levelo://app?vid=b178b062-35cd-4f92-91db-f4ae171fe0ea","ios":"levelo://app?vid=b178b062-35cd-4f92-91db-f4ae171fe0ea"},"vehicle_type_id":"4","last_reported":1728968994,"current_range_meters":11600,"station_id":"","pricing_plan_id":"cebpf4jnsgd1na2vs0mg"},{"bike_id":"252d1b20-655d-4314-9684-3fb736d1a505","system_id":"levelo_inurba_marseille","lat":43.30885,"lon":5.3964,"is_reserved":false,"is_disabled":false,"rental_uris":{"android":"levelo://app?vid=252d1b20-655d-4314-9684-3fb736d1a505","ios":"levelo://app?vid=252d1b20-655d-4314-9684-3fb736d1a505"},"vehicle_type_id":"4","last_reported":1728968994,"current_range_meters":36800,"station_id":"ce4bh012rcd13ifvqcv0","pricing_plan_id":"cebpf4jnsgd1na2vs0mg"},{"bike_id":"d302fb41-2c47-4a95-b7f9-3d90b4fa95cf","system_id":"levelo_inurba_marseille","lat":43.26558,"lon":5.37287,"is_reserved":false,"is_disabled":false,"rental_uris":{"android":"levelo://app?vid=d302fb41-2c47-4a95-b7f9-3d90b4fa95cf","ios":"levelo://app?vid=d302fb41-2c47-4a95-b7f9-3d90b4fa95cf"},"vehicle_type_id":"4","last_reported":1728968994,"current_range_meters":16800,"station_id":"ce4bhg12rcd13ifvqf70","pricing_plan_id":"cebpf4jnsgd1na2vs0mg"},{"bike_id":"b17bd6a0-4c14-4c8c-96d0-fdc1bec84ba5","system_id":"levelo_inurba_marseille","lat":43.31071,"lon":5.38346,"is_reserved":false,"is_disabled":false,"rental_uris":{"android":"levelo://app?vid=b17bd6a0-4c14-4c8c-96d0-fdc1bec84ba5","ios":"levelo://app?vid=b17bd6a0-4c14-4c8c-96d0-fdc1bec84ba5"},"vehicle_type_id":"4","last_reported":1728968994,"current_range_meters":9600,"station_id":"ce4bgv92rcd13ifvqcr0","pricing_plan_id":"cebpf4jnsgd1na2vs0mg"},{"bike_id":"a0004b86-0108-4a59-8420-8474f739e195","system_id":"levelo_inurba_marseille","lat":43.31759,"lon":5.39018,"is_reserved":false,"is_disabled":false,"rental_uris":{"android":"levelo://app?vid=a0004b86-0108-4a59-8420-8474f739e195","ios":"levelo://app?vid=a0004b86-0108-4a59-8420-8474f739e195"},"vehicle_type_id":"4","last_reported":1728968994,"current_range_meters":37600,"station_id":"ce4bhqp2rcd13ifvqhng","pricing_plan_id":"cebpf4jnsgd1na2vs0mg"},{"bike_id":"c0670d96-b06e-446b-a07e-6b5eeebc59d7","system_id":"levelo_inurba_marseille","lat":43.274948,"lon":5.424466,"is_reserved":false,"is_disabled":false,"rental_uris":{"android":"levelo://app?vid=c0670d96-b06e-446b-a07e-6b5eeebc59d7","ios":"levelo://app?vid=c0670d96-b06e-446b-a07e-6b5eeebc59d7"},"vehicle_type_id":"4","last_reported":1728968994,"current_range_meters":13600,"station_id":"ce4bhn92rcd13ifvqgrg","pricing_plan_id":"cebpf4jnsgd1na2vs0mg"},{"bike_id":"fc75fa28-69db-4cb3-85fb-3c7ea9927cfe","system_id":"levelo_inurba_marseille","lat":43.24665,"lon":5.38159,"is_reserved":false,"is_disabled":false,"rental_uris":{"android":"levelo://app?vid=fc75fa28-69db-4cb3-85fb-3c7ea9927cfe","ios":"levelo://app?vid=fc75fa28-69db-4cb3-85fb-3c7ea9927cfe"},"vehicle_type_id":"4","last_reported":1728968994,"current_range_meters":16000,"station_id":"ce4bhih2rcd13ifvqfr0","pricing_plan_id":"cebpf4jnsgd1na2vs0mg"},{"bike_id":"aa6f8b46-b3a2-4381-9f2b-74e08e3afb96","system_id":"levelo_inurba_marseille","lat":43.29277,"lon":5.401227,"is_reserved":false,"is_disabled":false,"rental_uris":{"android":"levelo://app?vid=aa6f8b46-b3a2-4381-9f2b-74e08e3afb96","ios":"levelo://app?vid=aa6f8b46-b3a2-4381-9f2b-74e08e3afb96"},"vehicle_type_id":"4","last_reported":1728968994,"current_range_meters":38400,"station_id":"ce4bh312rcd13ifvqdk0","pricing_plan_id":"cebpf4jnsgd1na2vs0mg"},{"bike_id":"a0d3d324-fa7e-4417-aee7-85012ecab44e","system_id":"levelo_inurba_marseille","lat":43.3422,"lon":5.44544,"is_reserved":false,"is_disabled":false,"rental_uris":{"android":"levelo://app?vid=a0d3d324-fa7e-4417-aee7-85012ecab44e","ios":"levelo://app?vid=a0d3d324-fa7e-4417-aee7-85012ecab44e"},"vehicle_type_id":"4","last_reported":1728968994,"current_range_meters":25200,"station_id":"","pricing_plan_id":"cebpf4jnsgd1na2vs0mg"},{"bike_id":"724c8533-6c2a-4d58-9645-9dc7cc8cde49","system_id":"levelo_inurba_marseille","lat":43.27183,"lon":5.40993,"is_reserved":false,"is_disabled":false,"rental_uris":{"android":"levelo://app?vid=724c8533-6c2a-4d58-9645-9dc7cc8cde49","ios":"levelo://app?vid=724c8533-6c2a-4d58-9645-9dc7cc8cde49"},"vehicle_type_id":"4","last_reported":1728968994,"current_range_meters":38800,"station_id":"ce4bhl12rcd13ifvqgf0","pricing_plan_id":"cebpf4jnsgd1na2vs0mg"},{"bike_id":"880da27e-9468-4933-9a69-bc77ef75e0be","system_id":"levelo_inurba_marseille","lat":43.30454,"lon":5.37902,"is_reserved":false,"is_disabled":false,"rental_uris":{"android":"levelo://app?vid=880da27e-9468-4933-9a69-bc77ef75e0be","ios":"levelo://app?vid=880da27e-9468-4933-9a69-bc77ef75e0be"},"vehicle_type_id":"4","last_reported":1728968994,"current_range_meters":28800,"station_id":"ce4bgup2rcd13ifvqcn0","pricing_plan_id":"cebpf4jnsgd1na2vs0mg"},{"bike_id":"5372f5b2-c668-4607-a7a8-9b311f260683","system_id":"levelo_inurba_marseille","lat":43.28925,"lon":5.38397,"is_reserved":false,"is_disabled":false,"rental_uris":{"android":"levelo://app?vid=5372f5b2-c668-4607-a7a8-9b311f260683","ios":"levelo://app?vid=5372f5b2-c668-4607-a7a8-9b311f260683"},"vehicle_type_id":"4","last_reported":1728968994,"current_range_meters":36000,"station_id":"ce4bh612rcd13ifvqe6g","pricing_plan_id":"cebpf4jnsgd1na2vs0mg"},{"bike_id":"0f231146-27df-4f00-9027-32244e4eeb81","system_id":"levelo_inurba_marseille","lat":43.2959,"lon":5.40015,"is_reserved":false,"is_disabled":false,"rental_uris":{"android":"levelo://app?vid=0f231146-27df-4f00-9027-32244e4eeb81","ios":"levelo://app?vid=0f231146-27df-4f00-9027-32244e4eeb81"},"vehicle_type_id":"4","last_reported":1728968994,"current_range_meters":28400,"station_id":"ce4bh312rcd13ifvqdj0","pricing_plan_id":"cebpf4jnsgd1na2vs0mg"},{"bike_id":"9b4cc07a-8e06-4f52-bccc-0f5b961a7294","system_id":"levelo_inurba_marseille","lat":43.24178,"lon":5.39731,"is_reserved":false,"is_disabled":false,"rental_uris":{"android":"levelo://app?vid=9b4cc07a-8e06-4f52-bccc-0f5b961a7294","ios":"levelo://app?vid=9b4cc07a-8e06-4f52-bccc-0f5b961a7294"},"vehicle_type_id":"4","last_reported":1728968994,"current_range_meters":35200,"station_id":"ce4bhn12rcd13ifvqgpg","pricing_plan_id":"cebpf4jnsgd1na2vs0mg"},{"bike_id":"9cbbe67b-d607-4d6c-8ade-aa1c5d82f4ea","system_id":"levelo_inurba_marseille","lat":43.2511,"lon":5.40325,"is_reserved":false,"is_disabled":false,"rental_uris":{"android":"levelo://app?vid=9cbbe67b-d607-4d6c-8ade-aa1c5d82f4ea","ios":"levelo://app?vid=9cbbe67b-d607-4d6c-8ade-aa1c5d82f4ea"},"vehicle_type_id":"4","last_reported":1728968994,"current_range_meters":38800,"station_id":"ce4bhlh2rcd13ifvqgig","pricing_plan_id":"cebpf4jnsgd1na2vs0mg"},{"bike_id":"8d9573d4-7764-4d2d-a694-6078fc66755d","system_id":"levelo_inurba_marseille","lat":43.30132,"lon":5.38782,"is_reserved":false,"is_disabled":false,"rental_uris":{"android":"levelo://app?vid=8d9573d4-7764-4d2d-a694-6078fc66755d","ios":"levelo://app?vid=8d9573d4-7764-4d2d-a694-6078fc66755d"},"vehicle_type_id":"4","last_reported":1728968994,"current_range_meters":27600,"station_id":"ce4bghh2rcd13ifvqb60","pricing_plan_id":"cebpf4jnsgd1na2vs0mg"},{"bike_id":"725778a0-0ed4-4bc0-918b-3b4879d33cad","system_id":"levelo_inurba_marseille","lat":43.31326,"lon":5.39701,"is_reserved":false,"is_disabled":false,"rental_uris":{"android":"levelo://app?vid=725778a0-0ed4-4bc0-918b-3b4879d33cad","ios":"levelo://app?vid=725778a0-0ed4-4bc0-918b-3b4879d33cad"},"vehicle_type_id":"4","last_reported":1728968994,"current_range_meters":26000,"station_id":"ce4bgvp2rcd13ifvqcu0","pricing_plan_id":"cebpf4jnsgd1na2vs0mg"},{"bike_id":"1e73027b-0c25-4e93-a48b-592f5c5b175f","system_id":"levelo_inurba_marseille","lat":43.30356,"lon":5.4187,"is_reserved":false,"is_disabled":false,"rental_uris":{"android":"levelo://app?vid=1e73027b-0c25-4e93-a48b-592f5c5b175f","ios":"levelo://app?vid=1e73027b-0c25-4e93-a48b-592f5c5b175f"},"vehicle_type_id":"4","last_reported":1728968994,"current_range_meters":33600,"station_id":"ce4bhop2rcd13ifvqh7g","pricing_plan_id":"cebpf4jnsgd1na2vs0mg"},{"bike_id":"572b3f5a-1091-4fa3-b694-ca3344cebf69","system_id":"levelo_inurba_marseille","lat":43.30586,"lon":5.39349,"is_reserved":false,"is_disabled":false,"rental_uris":{"android":"levelo://app?vid=572b3f5a-1091-4fa3-b694-ca3344cebf69","ios":"levelo://app?vid=572b3f5a-1091-4fa3-b694-ca3344cebf69"},"vehicle_type_id":"4","last_reported":1728968994,"current_range_meters":39200,"station_id":"ce4bh0p2rcd13ifvqd80","pricing_plan_id":"cebpf4jnsgd1na2vs0mg"},{"bike_id":"3504f3a0-44ab-42b7-bd29-b6c4f5e56540","system_id":"levelo_inurba_marseille","lat":43.25083,"lon":5.39519,"is_reserved":false,"is_disabled":false,"rental_uris":{"android":"levelo://app?vid=3504f3a0-44ab-42b7-bd29-b6c4f5e56540","ios":"levelo://app?vid=3504f3a0-44ab-42b7-bd29-b6c4f5e56540"},"vehicle_type_id":"4","last_reported":1728968994,"current_range_meters":38400,"station_id":"ce4bhm12rcd13ifvqgkg","pricing_plan_id":"cebpf4jnsgd1na2vs0mg"},{"bike_id":"82eb830f-5b8f-458d-9a87-361604c60adf","system_id":"levelo_inurba_marseille","lat":43.269426,"lon":5.402617,"is_reserved":false,"is_disabled":false,"rental_uris":{"android":"levelo://app?vid=82eb830f-5b8f-458d-9a87-361604c60adf","ios":"levelo://app?vid=82eb830f-5b8f-458d-9a87-361604c60adf"},"vehicle_type_id":"4","last_reported":1728968994,"current_range_meters":38800,"station_id":"cjm6bp8fraef2m0cb0m0","pricing_plan_id":"cebpf4jnsgd1na2vs0mg"},{"bike_id":"3afb0681-8fbd-47fe-8917-e12bc3cf488b","system_id":"levelo_inurba_marseille","lat":43.33722,"lon":5.39179,"is_reserved":false,"is_disabled":false,"rental_uris":{"android":"levelo://app?vid=3afb0681-8fbd-47fe-8917-e12bc3cf488b","ios":"levelo://app?vid=3afb0681-8fbd-47fe-8917-e12bc3cf488b"},"vehicle_type_id":"4","last_reported":1728968994,"current_range_meters":38800,"station_id":"ce4bhr92rcd13ifvqhsg","pricing_plan_id":"cebpf4jnsgd1na2vs0mg"},{"bike_id":"f25b9087-5c61-492d-8a81-c981d671dc2b","system_id":"levelo_inurba_marseille","lat":43.28273,"lon":5.3507,"is_reserved":false,"is_disabled":false,"rental_uris":{"android":"levelo://app?vid=f25b9087-5c61-492d-8a81-c981d671dc2b","ios":"levelo://app?vid=f25b9087-5c61-492d-8a81-c981d671dc2b"},"vehicle_type_id":"4","last_reported":1728968994,"current_range_meters":38800,"station_id":"ce4bhbp2rcd13ifvqerg","pricing_plan_id":"cebpf4jnsgd1na2vs0mg"},{"bike_id":"a732941c-85bc-42aa-bd93-04ae552d110c","system_id":"levelo_inurba_marseille","lat":43.308,"lon":5.43529,"is_reserved":false,"is_disabled":false,"rental_uris":{"android":"levelo://app?vid=a732941c-85bc-42aa-bd93-04ae552d110c","ios":"levelo://app?vid=a732941c-85bc-42aa-bd93-04ae552d110c"},"vehicle_type_id":"4","last_reported":1728968994,"current_range_meters":6000,"station_id":"ce4bhph2rcd13ifvqheg","pricing_plan_id":"cebpf4jnsgd1na2vs0mg"},{"bike_id":"5f9bbca4-c275-4b1d-bb90-de4434b02e5b","system_id":"levelo_inurba_marseille","lat":43.27492,"lon":5.42449,"is_reserved":false,"is_disabled":false,"rental_uris":{"android":"levelo://app?vid=5f9bbca4-c275-4b1d-bb90-de4434b02e5b","ios":"levelo://app?vid=5f9bbca4-c275-4b1d-bb90-de4434b02e5b"},"vehicle_type_id":"4","last_reported":1728968994,"current_range_meters":38000,"station_id":"ce4bhn92rcd13ifvqgrg","pricing_plan_id":"cebpf4jnsgd1na2vs0mg"},{"bike_id":"6525f9b8-889f-4b6f-aeae-3753602073d2","system_id":"levelo_inurba_marseille","lat":43.311615,"lon":5.421982,"is_reserved":false,"is_disabled":false,"rental_uris":{"android":"levelo://app?vid=6525f9b8-889f-4b6f-aeae-3753602073d2","ios":"levelo://app?vid=6525f9b8-889f-4b6f-aeae-3753602073d2"},"vehicle_type_id":"4","last_reported":1728968994,"current_range_meters":30000,"station_id":"ce4bhp92rcd13ifvqhag","pricing_plan_id":"cebpf4jnsgd1na2vs0mg"},{"bike_id":"ac01e824-d40b-4d7f-a0cc-589e84351732","system_id":"levelo_inurba_marseille","lat":43.30922,"lon":5.4014,"is_reserved":false,"is_disabled":false,"rental_uris":{"android":"levelo://app?vid=ac01e824-d40b-4d7f-a0cc-589e84351732","ios":"levelo://app?vid=ac01e824-d40b-4d7f-a0cc-589e84351732"},"vehicle_type_id":"4","last_reported":1728968994,"current_range_meters":38800,"station_id":"ce4bgvp2rcd13ifvqct0","pricing_plan_id":"cebpf4jnsgd1na2vs0mg"},{"bike_id":"853d1d57-0e31-41e4-8cef-dcc962d331fa","system_id":"levelo_inurba_marseille","lat":43.31485,"lon":5.3731,"is_reserved":false,"is_disabled":false,"rental_uris":{"android":"levelo://app?vid=853d1d57-0e31-41e4-8cef-dcc962d331fa","ios":"levelo://app?vid=853d1d57-0e31-41e4-8cef-dcc962d331fa"},"vehicle_type_id":"4","last_reported":1728968994,"current_range_meters":20000,"station_id":"ce4bgt12rcd13ifvqcd0","pricing_plan_id":"cebpf4jnsgd1na2vs0mg"},{"bike_id":"5017923a-b9e0-4769-95ab-eee05b5f533e","system_id":"levelo_inurba_marseille","lat":43.28493,"lon":5.38569,"is_reserved":false,"is_disabled":false,"rental_uris":{"android":"levelo://app?vid=5017923a-b9e0-4769-95ab-eee05b5f533e","ios":"levelo://app?vid=5017923a-b9e0-4769-95ab-eee05b5f533e"},"vehicle_type_id":"4","last_reported":1728968994,"current_range_meters":38800,"station_id":"ce4bh8p2rcd13ifvqeb0","pricing_plan_id":"cebpf4jnsgd1na2vs0mg"},{"bike_id":"a2a2eee2-67f1-4950-874b-99c0ac226d01","system_id":"levelo_inurba_marseille","lat":43.306411,"lon":5.400784,"is_reserved":false,"is_disabled":false,"rental_uris":{"android":"levelo://app?vid=a2a2eee2-67f1-4950-874b-99c0ac226d01","ios":"levelo://app?vid=a2a2eee2-67f1-4950-874b-99c0ac226d01"},"vehicle_type_id":"4","last_reported":1728968994,"current_range_meters":37600,"station_id":"ce4bh112rcd13ifvqda0","pricing_plan_id":"cebpf4jnsgd1na2vs0mg"},{"bike_id":"b837e3d7-eff5-4faa-8987-f8a010f8b690","system_id":"levelo_inurba_marseille","lat":43.30467,"lon":5.37911,"is_reserved":false,"is_disabled":false,"rental_uris":{"android":"levelo://app?vid=b837e3d7-eff5-4faa-8987-f8a010f8b690","ios":"levelo://app?vid=b837e3d7-eff5-4faa-8987-f8a010f8b690"},"vehicle_type_id":"4","last_reported":1728968994,"current_range_meters":20800,"station_id":"ce4bgup2rcd13ifvqcn0","pricing_plan_id":"cebpf4jnsgd1na2vs0mg"},{"bike_id":"77a5466a-03ba-4b57-bc93-2e99ba89f7bc","system_id":"levelo_inurba_marseille","lat":43.30279,"lon":5.37709,"is_reserved":false,"is_disabled":false,"rental_uris":{"android":"levelo://app?vid=77a5466a-03ba-4b57-bc93-2e99ba89f7bc","ios":"levelo://app?vid=77a5466a-03ba-4b57-bc93-2e99ba89f7bc"},"vehicle_type_id":"4","last_reported":1728968994,"current_range_meters":29600,"station_id":"ce4bguh2rcd13ifvqcj0","pricing_plan_id":"cebpf4jnsgd1na2vs0mg"},{"bike_id":"0ed0c075-e6fe-402d-bd25-ee3cc88443aa","system_id":"levelo_inurba_marseille","lat":43.25828,"lon":5.39428,"is_reserved":false,"is_disabled":false,"rental_uris":{"android":"levelo://app?vid=0ed0c075-e6fe-402d-bd25-ee3cc88443aa","ios":"levelo://app?vid=0ed0c075-e6fe-402d-bd25-ee3cc88443aa"},"vehicle_type_id":"4","last_reported":1728968994,"current_range_meters":38800,"station_id":"ce4bhip2rcd13ifvqft0","pricing_plan_id":"cebpf4jnsgd1na2vs0mg"},{"bike_id":"a32ac163-48ce-4b32-900d-2f39da2712bd","system_id":"levelo_inurba_marseille","lat":43.31759,"lon":5.39015,"is_reserved":false,"is_disabled":false,"rental_uris":{"android":"levelo://app?vid=a32ac163-48ce-4b32-900d-2f39da2712bd","ios":"levelo://app?vid=a32ac163-48ce-4b32-900d-2f39da2712bd"},"vehicle_type_id":"4","last_reported":1728968994,"current_range_meters":16400,"station_id":"ce4bhqp2rcd13ifvqhng","pricing_plan_id":"cebpf4jnsgd1na2vs0mg"},{"bike_id":"9baf4630-9073-486a-a0d5-ce2290767dc4","system_id":"levelo_inurba_marseille","lat":43.31061,"lon":5.38354,"is_reserved":false,"is_disabled":false,"rental_uris":{"android":"levelo://app?vid=9baf4630-9073-486a-a0d5-ce2290767dc4","ios":"levelo://app?vid=9baf4630-9073-486a-a0d5-ce2290767dc4"},"vehicle_type_id":"4","last_reported":1728968994,"current_range_meters":25200,"station_id":"ce4bgv92rcd13ifvqcr0","pricing_plan_id":"cebpf4jnsgd1na2vs0mg"},{"bike_id":"e02ae3f1-4d9a-4aae-b23f-fa8dc19dabc2","system_id":"levelo_inurba_marseille","lat":43.30466,"lon":5.37912,"is_reserved":false,"is_disabled":false,"rental_uris":{"android":"levelo://app?vid=e02ae3f1-4d9a-4aae-b23f-fa8dc19dabc2","ios":"levelo://app?vid=e02ae3f1-4d9a-4aae-b23f-fa8dc19dabc2"},"vehicle_type_id":"4","last_reported":1728968994,"current_range_meters":20800,"station_id":"ce4bgup2rcd13ifvqcn0","pricing_plan_id":"cebpf4jnsgd1na2vs0mg"},{"bike_id":"9fb43a77-46cc-4715-9324-2990fa90ce52","system_id":"levelo_inurba_marseille","lat":43.27425,"lon":5.39415,"is_reserved":false,"is_disabled":false,"rental_uris":{"android":"levelo://app?vid=9fb43a77-46cc-4715-9324-2990fa90ce52","ios":"levelo://app?vid=9fb43a77-46cc-4715-9324-2990fa90ce52"},"vehicle_type_id":"4","last_reported":1728968994,"current_range_meters":30000,"station_id":"ce4bhdp2rcd13ifvqf20","pricing_plan_id":"cebpf4jnsgd1na2vs0mg"},{"bike_id":"b97ac990-8c0e-4aa6-a428-6bf3d623b8ab","system_id":"levelo_inurba_marseille","lat":43.24546,"lon":5.3952,"is_reserved":false,"is_disabled":false,"rental_uris":{"android":"levelo://app?vid=b97ac990-8c0e-4aa6-a428-6bf3d623b8ab","ios":"levelo://app?vid=b97ac990-8c0e-4aa6-a428-6bf3d623b8ab"},"vehicle_type_id":"4","last_reported":1728968994,"current_range_meters":38800,"station_id":"ce4bhlp2rcd13ifvqgjg","pricing_plan_id":"cebpf4jnsgd1na2vs0mg"},{"bike_id":"c333d346-3a82-4cf1-ab36-d866fea6ec45","system_id":"levelo_inurba_marseille","lat":43.30147,"lon":5.38086,"is_reserved":false,"is_disabled":false,"rental_uris":{"android":"levelo://app?vid=c333d346-3a82-4cf1-ab36-d866fea6ec45","ios":"levelo://app?vid=c333d346-3a82-4cf1-ab36-d866fea6ec45"},"vehicle_type_id":"4","last_reported":1728968994,"current_range_meters":28800,"station_id":"ce4bgjp2rcd13ifvqbh0","pricing_plan_id":"cebpf4jnsgd1na2vs0mg"},{"bike_id":"d2ae8d7f-7b3a-472e-9aef-617bbb91fe40","system_id":"levelo_inurba_marseille","lat":43.300985,"lon":5.39084,"is_reserved":false,"is_disabled":false,"rental_uris":{"android":"levelo://app?vid=d2ae8d7f-7b3a-472e-9aef-617bbb91fe40","ios":"levelo://app?vid=d2ae8d7f-7b3a-472e-9aef-617bbb91fe40"},"vehicle_type_id":"4","last_reported":1728968994,"current_range_meters":10800,"station_id":"ce4bh192rcd13ifvqdb0","pricing_plan_id":"cebpf4jnsgd1na2vs0mg"},{"bike_id":"c3859e9b-f515-430b-a811-8bbd3362718f","system_id":"levelo_inurba_marseille","lat":43.3234,"lon":5.40616,"is_reserved":false,"is_disabled":false,"rental_uris":{"android":"levelo://app?vid=c3859e9b-f515-430b-a811-8bbd3362718f","ios":"levelo://app?vid=c3859e9b-f515-430b-a811-8bbd3362718f"},"vehicle_type_id":"4","last_reported":1728968994,"current_range_meters":28000,"station_id":"ce4bhq92rcd13ifvqhjg","pricing_plan_id":"cebpf4jnsgd1na2vs0mg"},{"bike_id":"07538918-d507-49c7-b40a-4119b7a280f9","system_id":"levelo_inurba_marseille","lat":43.25867,"lon":5.39899,"is_reserved":false,"is_disabled":false,"rental_uris":{"android":"levelo://app?vid=07538918-d507-49c7-b40a-4119b7a280f9","ios":"levelo://app?vid=07538918-d507-49c7-b40a-4119b7a280f9"},"vehicle_type_id":"4","last_reported":1728968994,"current_range_meters":30400,"station_id":"ce4bhl92rcd13ifvqghg","pricing_plan_id":"cebpf4jnsgd1na2vs0mg"},{"bike_id":"b80c714b-6a66-4d5c-832e-bd487c535a72","system_id":"levelo_inurba_marseille","lat":43.31109,"lon":5.38064,"is_reserved":false,"is_disabled":false,"rental_uris":{"android":"levelo://app?vid=b80c714b-6a66-4d5c-832e-bd487c535a72","ios":"levelo://app?vid=b80c714b-6a66-4d5c-832e-bd487c535a72"},"vehicle_type_id":"4","last_reported":1728968994,"current_range_meters":16800,"station_id":"ce4bgt92rcd13ifvqcf0","pricing_plan_id":"cebpf4jnsgd1na2vs0mg"},{"bike_id":"2140b6a3-5118-4150-823e-9225aeb56201","system_id":"levelo_inurba_marseille","lat":43.23187,"lon":5.35548,"is_reserved":false,"is_disabled":false,"rental_uris":{"android":"levelo://app?vid=2140b6a3-5118-4150-823e-9225aeb56201","ios":"levelo://app?vid=2140b6a3-5118-4150-823e-9225aeb56201"},"vehicle_type_id":"4","last_reported":1728968994,"current_range_meters":8400,"station_id":"ce4bhu92rcd13ifvqi70","pricing_plan_id":"cebpf4jnsgd1na2vs0mg"},{"bike_id":"03b56092-c058-4398-84a2-01f5466a7ddf","system_id":"levelo_inurba_marseille","lat":43.28334,"lon":5.38097,"is_reserved":false,"is_disabled":false,"rental_uris":{"android":"levelo://app?vid=03b56092-c058-4398-84a2-01f5466a7ddf","ios":"levelo://app?vid=03b56092-c058-4398-84a2-01f5466a7ddf"},"vehicle_type_id":"4","last_reported":1728968994,"current_range_meters":38800,"station_id":"ce4bh412rcd13ifvqdr0","pricing_plan_id":"cebpf4jnsgd1na2vs0mg"},{"bike_id":"478f5959-9690-4265-aea1-95006faa579d","system_id":"levelo_inurba_marseille","lat":43.2718,"lon":5.40991,"is_reserved":false,"is_disabled":false,"rental_uris":{"android":"levelo://app?vid=478f5959-9690-4265-aea1-95006faa579d","ios":"levelo://app?vid=478f5959-9690-4265-aea1-95006faa579d"},"vehicle_type_id":"4","last_reported":1728968994,"current_range_meters":38800,"station_id":"ce4bhl12rcd13ifvqgf0","pricing_plan_id":"cebpf4jnsgd1na2vs0mg"},{"bike_id":"5e3c4e0d-c8cf-4e2d-bc0c-a77ad4ef7d06","system_id":"levelo_inurba_marseille","lat":43.31758,"lon":5.39021,"is_reserved":false,"is_disabled":false,"rental_uris":{"android":"levelo://app?vid=5e3c4e0d-c8cf-4e2d-bc0c-a77ad4ef7d06","ios":"levelo://app?vid=5e3c4e0d-c8cf-4e2d-bc0c-a77ad4ef7d06"},"vehicle_type_id":"4","last_reported":1728968994,"current_range_meters":8800,"station_id":"ce4bhqp2rcd13ifvqhng","pricing_plan_id":"cebpf4jnsgd1na2vs0mg"},{"bike_id":"c3c7024d-57b6-478f-98eb-dab6fb52878b","system_id":"levelo_inurba_marseille","lat":43.2963,"lon":5.406,"is_reserved":false,"is_disabled":false,"rental_uris":{"android":"levelo://app?vid=c3c7024d-57b6-478f-98eb-dab6fb52878b","ios":"levelo://app?vid=c3c7024d-57b6-478f-98eb-dab6fb52878b"},"vehicle_type_id":"4","last_reported":1728968994,"current_range_meters":38800,"station_id":"ce4bh0h2rcd13ifvqd60","pricing_plan_id":"cebpf4jnsgd1na2vs0mg"},{"bike_id":"ad3a8670-165f-4afc-9f01-24e092308761","system_id":"levelo_inurba_marseille","lat":43.30144,"lon":5.38084,"is_reserved":false,"is_disabled":false,"rental_uris":{"android":"levelo://app?vid=ad3a8670-165f-4afc-9f01-24e092308761","ios":"levelo://app?vid=ad3a8670-165f-4afc-9f01-24e092308761"},"vehicle_type_id":"4","last_reported":1728968994,"current_range_meters":35200,"station_id":"ce4bgjp2rcd13ifvqbh0","pricing_plan_id":"cebpf4jnsgd1na2vs0mg"},{"bike_id":"ee2b0216-97a1-4753-a7d7-a27432d0b9bc","system_id":"levelo_inurba_marseille","lat":43.30149,"lon":5.3809,"is_reserved":false,"is_disabled":false,"rental_uris":{"android":"levelo://app?vid=ee2b0216-97a1-4753-a7d7-a27432d0b9bc","ios":"levelo://app?vid=ee2b0216-97a1-4753-a7d7-a27432d0b9bc"},"vehicle_type_id":"4","last_reported":1728968994,"current_range_meters":36000,"station_id":"ce4bgjp2rcd13ifvqbh0","pricing_plan_id":"cebpf4jnsgd1na2vs0mg"},{"bike_id":"02edf250-0bdc-44d6-9936-04b527fbc30e","system_id":"levelo_inurba_marseille","lat":43.24389,"lon":5.37054,"is_reserved":false,"is_disabled":false,"rental_uris":{"android":"levelo://app?vid=02edf250-0bdc-44d6-9936-04b527fbc30e","ios":"levelo://app?vid=02edf250-0bdc-44d6-9936-04b527fbc30e"},"vehicle_type_id":"4","last_reported":1728968994,"current_range_meters":11200,"station_id":"ce4bhhh2rcd13ifvqfk0","pricing_plan_id":"cebpf4jnsgd1na2vs0mg"},{"bike_id":"edc63a4c-18d9-4b2f-aa60-bcf75a32a19f","system_id":"levelo_inurba_marseille","lat":43.3079,"lon":5.37649,"is_reserved":false,"is_disabled":false,"rental_uris":{"android":"levelo://app?vid=edc63a4c-18d9-4b2f-aa60-bcf75a32a19f","ios":"levelo://app?vid=edc63a4c-18d9-4b2f-aa60-bcf75a32a19f"},"vehicle_type_id":"4","last_reported":1728968994,"current_range_meters":38000,"station_id":"ce4bgv92rcd13ifvqcq0","pricing_plan_id":"cebpf4jnsgd1na2vs0mg"},{"bike_id":"f6a02a73-ef56-49bb-ba7e-e7b3f41f5ca4","system_id":"levelo_inurba_marseille","lat":43.30424,"lon":5.39743,"is_reserved":false,"is_disabled":false,"rental_uris":{"android":"levelo://app?vid=f6a02a73-ef56-49bb-ba7e-e7b3f41f5ca4","ios":"levelo://app?vid=f6a02a73-ef56-49bb-ba7e-e7b3f41f5ca4"},"vehicle_type_id":"4","last_reported":1728968994,"current_range_meters":38400,"station_id":"ce4bh092rcd13ifvqd20","pricing_plan_id":"cebpf4jnsgd1na2vs0mg"},{"bike_id":"37fe95d8-983d-46c0-b0ba-5f6a355380bf","system_id":"levelo_inurba_marseille","lat":43.25495,"lon":5.37647,"is_reserved":false,"is_disabled":false,"rental_uris":{"android":"levelo://app?vid=37fe95d8-983d-46c0-b0ba-5f6a355380bf","ios":"levelo://app?vid=37fe95d8-983d-46c0-b0ba-5f6a355380bf"},"vehicle_type_id":"4","last_reported":1728968994,"current_range_meters":38000,"station_id":"ce4bhh12rcd13ifvqff0","pricing_plan_id":"cebpf4jnsgd1na2vs0mg"},{"bike_id":"8aa82f16-a6a0-4a14-9f25-838a8898f98d","system_id":"levelo_inurba_marseille","lat":43.26208,"lon":5.37441,"is_reserved":false,"is_disabled":false,"rental_uris":{"android":"levelo://app?vid=8aa82f16-a6a0-4a14-9f25-838a8898f98d","ios":"levelo://app?vid=8aa82f16-a6a0-4a14-9f25-838a8898f98d"},"vehicle_type_id":"4","last_reported":1728968994,"current_range_meters":38400,"station_id":"ce4bhgp2rcd13ifvqfc0","pricing_plan_id":"cebpf4jnsgd1na2vs0mg"},{"bike_id":"73dd10de-5743-4354-9834-4217a8450956","system_id":"levelo_inurba_marseille","lat":43.25,"lon":5.3893,"is_reserved":false,"is_disabled":false,"rental_uris":{"android":"levelo://app?vid=73dd10de-5743-4354-9834-4217a8450956","ios":"levelo://app?vid=73dd10de-5743-4354-9834-4217a8450956"},"vehicle_type_id":"4","last_reported":1728968994,"current_range_meters":30800,"station_id":"ce4bhgp2rcd13ifvqfd0","pricing_plan_id":"cebpf4jnsgd1na2vs0mg"},{"bike_id":"7cc5db3f-7c40-48b0-ab8a-ef1e22f35aea","system_id":"levelo_inurba_marseille","lat":43.30149,"lon":5.37409,"is_reserved":false,"is_disabled":false,"rental_uris":{"android":"levelo://app?vid=7cc5db3f-7c40-48b0-ab8a-ef1e22f35aea","ios":"levelo://app?vid=7cc5db3f-7c40-48b0-ab8a-ef1e22f35aea"},"vehicle_type_id":"4","last_reported":1728968994,"current_range_meters":24800,"station_id":"ce4bgs92rcd13ifvqcc0","pricing_plan_id":"cebpf4jnsgd1na2vs0mg"},{"bike_id":"2223a3bd-c75c-4118-93ca-21e03d665431","system_id":"levelo_inurba_marseille","lat":43.31118,"lon":5.37765,"is_reserved":false,"is_disabled":false,"rental_uris":{"android":"levelo://app?vid=2223a3bd-c75c-4118-93ca-21e03d665431","ios":"levelo://app?vid=2223a3bd-c75c-4118-93ca-21e03d665431"},"vehicle_type_id":"4","last_reported":1728968994,"current_range_meters":20800,"station_id":"ce4bgt92rcd13ifvqcg0","pricing_plan_id":"cebpf4jnsgd1na2vs0mg"},{"bike_id":"81005c71-8480-4978-bc63-a1e137caa2c6","system_id":"levelo_inurba_marseille","lat":43.30149,"lon":5.38078,"is_reserved":false,"is_disabled":false,"rental_uris":{"android":"levelo://app?vid=81005c71-8480-4978-bc63-a1e137caa2c6","ios":"levelo://app?vid=81005c71-8480-4978-bc63-a1e137caa2c6"},"vehicle_type_id":"4","last_reported":1728968994,"current_range_meters":28000,"station_id":"ce4bgjp2rcd13ifvqbh0","pricing_plan_id":"cebpf4jnsgd1na2vs0mg"},{"bike_id":"640c86e3-15bd-4d01-bdfe-eda17ea5431a","system_id":"levelo_inurba_marseille","lat":43.30145,"lon":5.3807,"is_reserved":false,"is_disabled":false,"rental_uris":{"android":"levelo://app?vid=640c86e3-15bd-4d01-bdfe-eda17ea5431a","ios":"levelo://app?vid=640c86e3-15bd-4d01-bdfe-eda17ea5431a"},"vehicle_type_id":"4","last_reported":1728968994,"current_range_meters":35600,"station_id":"ce4bgjp2rcd13ifvqbh0","pricing_plan_id":"cebpf4jnsgd1na2vs0mg"},{"bike_id":"1183d7b5-9c89-4b9a-87ff-0ccc49010bcd","system_id":"levelo_inurba_marseille","lat":43.31274,"lon":5.40172,"is_reserved":false,"is_disabled":false,"rental_uris":{"android":"levelo://app?vid=1183d7b5-9c89-4b9a-87ff-0ccc49010bcd","ios":"levelo://app?vid=1183d7b5-9c89-4b9a-87ff-0ccc49010bcd"},"vehicle_type_id":"4","last_reported":1728968994,"current_range_meters":9600,"station_id":"ce4bh092rcd13ifvqd30","pricing_plan_id":"cebpf4jnsgd1na2vs0mg"},{"bike_id":"e01e41b6-906b-4d38-bd47-8409331ef9cb","system_id":"levelo_inurba_marseille","lat":43.24164,"lon":5.36399,"is_reserved":false,"is_disabled":false,"rental_uris":{"android":"levelo://app?vid=e01e41b6-906b-4d38-bd47-8409331ef9cb","ios":"levelo://app?vid=e01e41b6-906b-4d38-bd47-8409331ef9cb"},"vehicle_type_id":"4","last_reported":1728968994,"current_range_meters":34800,"station_id":"cpo36qri1sfpv3e86is0","pricing_plan_id":"cebpf4jnsgd1na2vs0mg"},{"bike_id":"0eafdba6-2b03-4430-88b8-4e60c6aa4b07","system_id":"levelo_inurba_marseille","lat":43.30418,"lon":5.4128,"is_reserved":false,"is_disabled":false,"rental_uris":{"android":"levelo://app?vid=0eafdba6-2b03-4430-88b8-4e60c6aa4b07","ios":"levelo://app?vid=0eafdba6-2b03-4430-88b8-4e60c6aa4b07"},"vehicle_type_id":"4","last_reported":1728968994,"current_range_meters":38800,"station_id":"ce4bhop2rcd13ifvqh8g","pricing_plan_id":"cebpf4jnsgd1na2vs0mg"},{"bike_id":"55929b41-310e-44bd-90a8-cfde0775bf47","system_id":"levelo_inurba_marseille","lat":43.29984,"lon":5.3848,"is_reserved":false,"is_disabled":false,"rental_uris":{"android":"levelo://app?vid=55929b41-310e-44bd-90a8-cfde0775bf47","ios":"levelo://app?vid=55929b41-310e-44bd-90a8-cfde0775bf47"},"vehicle_type_id":"4","last_reported":1728968994,"current_range_meters":38400,"station_id":"ce4bgj92rcd13ifvqbd0","pricing_plan_id":"cebpf4jnsgd1na2vs0mg"},{"bike_id":"4d3da2c7-a256-4b90-980c-9a92764f835f","system_id":"levelo_inurba_marseille","lat":43.31223,"lon":5.36855,"is_reserved":false,"is_disabled":false,"rental_uris":{"android":"levelo://app?vid=4d3da2c7-a256-4b90-980c-9a92764f835f","ios":"levelo://app?vid=4d3da2c7-a256-4b90-980c-9a92764f835f"},"vehicle_type_id":"4","last_reported":1728968994,"current_range_meters":20000,"station_id":"ce4bgl92rcd13ifvqbq0","pricing_plan_id":"cebpf4jnsgd1na2vs0mg"},{"bike_id":"89211ee2-076f-4df3-92bd-cd8885f2e76d","system_id":"levelo_inurba_marseille","lat":43.23191,"lon":5.35556,"is_reserved":false,"is_disabled":false,"rental_uris":{"android":"levelo://app?vid=89211ee2-076f-4df3-92bd-cd8885f2e76d","ios":"levelo://app?vid=89211ee2-076f-4df3-92bd-cd8885f2e76d"},"vehicle_type_id":"4","last_reported":1728968994,"current_range_meters":38800,"station_id":"ce4bhu92rcd13ifvqi70","pricing_plan_id":"cebpf4jnsgd1na2vs0mg"},{"bike_id":"9207eef8-e68e-457b-992f-67b1caf8027a","system_id":"levelo_inurba_marseille","lat":43.28567,"lon":5.39502,"is_reserved":false,"is_disabled":false,"rental_uris":{"android":"levelo://app?vid=9207eef8-e68e-457b-992f-67b1caf8027a","ios":"levelo://app?vid=9207eef8-e68e-457b-992f-67b1caf8027a"},"vehicle_type_id":"4","last_reported":1728968994,"current_range_meters":38800,"station_id":"ce4bh292rcd13ifvqdg0","pricing_plan_id":"cebpf4jnsgd1na2vs0mg"},{"bike_id":"ef3a3b1c-0405-42b9-b9b0-0cb067cdd795","system_id":"levelo_inurba_marseille","lat":43.27325,"lon":5.39086,"is_reserved":false,"is_disabled":false,"rental_uris":{"android":"levelo://app?vid=ef3a3b1c-0405-42b9-b9b0-0cb067cdd795","ios":"levelo://app?vid=ef3a3b1c-0405-42b9-b9b0-0cb067cdd795"},"vehicle_type_id":"4","last_reported":1728968994,"current_range_meters":24000,"station_id":"ce4bhgp2rcd13ifvqfe0","pricing_plan_id":"cebpf4jnsgd1na2vs0mg"},{"bike_id":"6f108c79-169f-46fd-b08b-6b93e5050ee6","system_id":"levelo_inurba_marseille","lat":43.33736,"lon":5.39188,"is_reserved":false,"is_disabled":false,"rental_uris":{"android":"levelo://app?vid=6f108c79-169f-46fd-b08b-6b93e5050ee6","ios":"levelo://app?vid=6f108c79-169f-46fd-b08b-6b93e5050ee6"},"vehicle_type_id":"4","last_reported":1728968994,"current_range_meters":38000,"station_id":"ce4bhr92rcd13ifvqhsg","pricing_plan_id":"cebpf4jnsgd1na2vs0mg"},{"bike_id":"de485e34-9ebe-4f27-bc4c-a0b813191d55","system_id":"levelo_inurba_marseille","lat":43.31758,"lon":5.39017,"is_reserved":false,"is_disabled":false,"rental_uris":{"android":"levelo://app?vid=de485e34-9ebe-4f27-bc4c-a0b813191d55","ios":"levelo://app?vid=de485e34-9ebe-4f27-bc4c-a0b813191d55"},"vehicle_type_id":"4","last_reported":1728968994,"current_range_meters":29600,"station_id":"ce4bhqp2rcd13ifvqhng","pricing_plan_id":"cebpf4jnsgd1na2vs0mg"},{"bike_id":"d9486349-c332-407f-893d-bef322644bb8","system_id":"levelo_inurba_marseille","lat":43.30927,"lon":5.40152,"is_reserved":false,"is_disabled":false,"rental_uris":{"android":"levelo://app?vid=d9486349-c332-407f-893d-bef322644bb8","ios":"levelo://app?vid=d9486349-c332-407f-893d-bef322644bb8"},"vehicle_type_id":"4","last_reported":1728968994,"current_range_meters":23200,"station_id":"ce4bgvp2rcd13ifvqct0","pricing_plan_id":"cebpf4jnsgd1na2vs0mg"},{"bike_id":"4401e9fe-8fae-4df0-be02-0119e3aeedbd","system_id":"levelo_inurba_marseille","lat":43.33754,"lon":5.37437,"is_reserved":false,"is_disabled":false,"rental_uris":{"android":"levelo://app?vid=4401e9fe-8fae-4df0-be02-0119e3aeedbd","ios":"levelo://app?vid=4401e9fe-8fae-4df0-be02-0119e3aeedbd"},"vehicle_type_id":"4","last_reported":1728968994,"current_range_meters":32800,"station_id":"","pricing_plan_id":"cebpf4jnsgd1na2vs0mg"},{"bike_id":"c26c9bb1-b28c-40c1-a76c-f35d2916c182","system_id":"levelo_inurba_marseille","lat":43.24813,"lon":5.37458,"is_reserved":false,"is_disabled":false,"rental_uris":{"android":"levelo://app?vid=c26c9bb1-b28c-40c1-a76c-f35d2916c182","ios":"levelo://app?vid=c26c9bb1-b28c-40c1-a76c-f35d2916c182"},"vehicle_type_id":"4","last_reported":1728968994,"current_range_meters":12000,"station_id":"ce4bhgh2rcd13ifvqfb0","pricing_plan_id":"cebpf4jnsgd1na2vs0mg"},{"bike_id":"7407b431-bff5-4398-a903-ce772c985ca2","system_id":"levelo_inurba_marseille","lat":43.24386,"lon":5.37065,"is_reserved":false,"is_disabled":false,"rental_uris":{"android":"levelo://app?vid=7407b431-bff5-4398-a903-ce772c985ca2","ios":"levelo://app?vid=7407b431-bff5-4398-a903-ce772c985ca2"},"vehicle_type_id":"4","last_reported":1728968994,"current_range_meters":19200,"station_id":"ce4bhhh2rcd13ifvqfk0","pricing_plan_id":"cebpf4jnsgd1na2vs0mg"},{"bike_id":"916a54ad-a9e8-4577-90db-02834ceb456b","system_id":"levelo_inurba_marseille","lat":43.239746,"lon":5.36648,"is_reserved":false,"is_disabled":false,"rental_uris":{"android":"levelo://app?vid=916a54ad-a9e8-4577-90db-02834ceb456b","ios":"levelo://app?vid=916a54ad-a9e8-4577-90db-02834ceb456b"},"vehicle_type_id":"4","last_reported":1728968994,"current_range_meters":35200,"station_id":"ce4bhi12rcd13ifvqfp0","pricing_plan_id":"cebpf4jnsgd1na2vs0mg"},{"bike_id":"8afc2d11-5f30-4024-8dd1-bcca6caac62e","system_id":"levelo_inurba_marseille","lat":43.31883,"lon":5.40733,"is_reserved":false,"is_disabled":false,"rental_uris":{"android":"levelo://app?vid=8afc2d11-5f30-4024-8dd1-bcca6caac62e","ios":"levelo://app?vid=8afc2d11-5f30-4024-8dd1-bcca6caac62e"},"vehicle_type_id":"4","last_reported":1728968994,"current_range_meters":38800,"station_id":"ce4bhq12rcd13ifvqhig","pricing_plan_id":"cebpf4jnsgd1na2vs0mg"},{"bike_id":"f86c0e4c-e675-4813-89ef-9c087542fa2b","system_id":"levelo_inurba_marseille","lat":43.284674,"lon":5.358817,"is_reserved":false,"is_disabled":false,"rental_uris":{"android":"levelo://app?vid=f86c0e4c-e675-4813-89ef-9c087542fa2b","ios":"levelo://app?vid=f86c0e4c-e675-4813-89ef-9c087542fa2b"},"vehicle_type_id":"4","last_reported":1728968994,"current_range_meters":38800,"station_id":"ce4bhah2rcd13ifvqei0","pricing_plan_id":"cebpf4jnsgd1na2vs0mg"},{"bike_id":"3f0d3248-e783-4468-83c3-58a8e361f6f2","system_id":"levelo_inurba_marseille","lat":43.29258,"lon":5.40906,"is_reserved":false,"is_disabled":false,"rental_uris":{"android":"levelo://app?vid=3f0d3248-e783-4468-83c3-58a8e361f6f2","ios":"levelo://app?vid=3f0d3248-e783-4468-83c3-58a8e361f6f2"},"vehicle_type_id":"4","last_reported":1728968994,"current_range_meters":16800,"station_id":"ce4bh192rcd13ifvqdc0","pricing_plan_id":"cebpf4jnsgd1na2vs0mg"},{"bike_id":"de9fce36-42d5-4f27-b0a2-d390f9b6b1c9","system_id":"levelo_inurba_marseille","lat":43.25117,"lon":5.40323,"is_reserved":false,"is_disabled":false,"rental_uris":{"android":"levelo://app?vid=de9fce36-42d5-4f27-b0a2-d390f9b6b1c9","ios":"levelo://app?vid=de9fce36-42d5-4f27-b0a2-d390f9b6b1c9"},"vehicle_type_id":"4","last_reported":1728968994,"current_range_meters":18800,"station_id":"ce4bhlh2rcd13ifvqgig","pricing_plan_id":"cebpf4jnsgd1na2vs0mg"},{"bike_id":"4d438f60-eb00-4f0e-9d32-cc6567f04cbe","system_id":"levelo_inurba_marseille","lat":43.30548,"lon":5.36705,"is_reserved":false,"is_disabled":false,"rental_uris":{"android":"levelo://app?vid=4d438f60-eb00-4f0e-9d32-cc6567f04cbe","ios":"levelo://app?vid=4d438f60-eb00-4f0e-9d32-cc6567f04cbe"},"vehicle_type_id":"4","last_reported":1728968994,"current_range_meters":36800,"station_id":"ce4bgrp2rcd13ifvqc9g","pricing_plan_id":"cebpf4jnsgd1na2vs0mg"},{"bike_id":"4dc1d225-5761-4879-8f1a-044daee9054f","system_id":"levelo_inurba_marseille","lat":43.3089,"lon":5.37196,"is_reserved":false,"is_disabled":false,"rental_uris":{"android":"levelo://app?vid=4dc1d225-5761-4879-8f1a-044daee9054f","ios":"levelo://app?vid=4dc1d225-5761-4879-8f1a-044daee9054f"},"vehicle_type_id":"4","last_reported":1728968994,"current_range_meters":19600,"station_id":"ce4bguh2rcd13ifvqckg","pricing_plan_id":"cebpf4jnsgd1na2vs0mg"},{"bike_id":"544b8d64-8bbe-4ff8-b401-1ae6d24b3eb1","system_id":"levelo_inurba_marseille","lat":43.3093,"lon":5.40148,"is_reserved":false,"is_disabled":false,"rental_uris":{"android":"levelo://app?vid=544b8d64-8bbe-4ff8-b401-1ae6d24b3eb1","ios":"levelo://app?vid=544b8d64-8bbe-4ff8-b401-1ae6d24b3eb1"},"vehicle_type_id":"4","last_reported":1728968994,"current_range_meters":20000,"station_id":"ce4bgvp2rcd13ifvqct0","pricing_plan_id":"cebpf4jnsgd1na2vs0mg"},{"bike_id":"8eca1db8-c7a5-4c55-a530-7e36502bac8b","system_id":"levelo_inurba_marseille","lat":43.33024,"lon":5.39041,"is_reserved":false,"is_disabled":false,"rental_uris":{"android":"levelo://app?vid=8eca1db8-c7a5-4c55-a530-7e36502bac8b","ios":"levelo://app?vid=8eca1db8-c7a5-4c55-a530-7e36502bac8b"},"vehicle_type_id":"4","last_reported":1728968994,"current_range_meters":32000,"station_id":"ce4bhr92rcd13ifvqhrg","pricing_plan_id":"cebpf4jnsgd1na2vs0mg"},{"bike_id":"9bbad093-1c31-4b8c-8828-af9e570b5558","system_id":"levelo_inurba_marseille","lat":43.32362,"lon":5.38888,"is_reserved":false,"is_disabled":false,"rental_uris":{"android":"levelo://app?vid=9bbad093-1c31-4b8c-8828-af9e570b5558","ios":"levelo://app?vid=9bbad093-1c31-4b8c-8828-af9e570b5558"},"vehicle_type_id":"4","last_reported":1728968994,"current_range_meters":2000,"station_id":"ce4bhqp2rcd13ifvqhog","pricing_plan_id":"cebpf4jnsgd1na2vs0mg"},{"bike_id":"f51e3eca-4957-4448-9043-1d00aa127b56","system_id":"levelo_inurba_marseille","lat":43.29557,"lon":5.42293,"is_reserved":false,"is_disabled":false,"rental_uris":{"android":"levelo://app?vid=f51e3eca-4957-4448-9043-1d00aa127b56","ios":"levelo://app?vid=f51e3eca-4957-4448-9043-1d00aa127b56"},"vehicle_type_id":"4","last_reported":1728968994,"current_range_meters":35200,"station_id":"ce4bhph2rcd13ifvqhdg","pricing_plan_id":"cebpf4jnsgd1na2vs0mg"},{"bike_id":"3c9a80a7-6d68-4bb8-9474-fe0e2b009cb0","system_id":"levelo_inurba_marseille","lat":43.31759,"lon":5.39015,"is_reserved":false,"is_disabled":false,"rental_uris":{"android":"levelo://app?vid=3c9a80a7-6d68-4bb8-9474-fe0e2b009cb0","ios":"levelo://app?vid=3c9a80a7-6d68-4bb8-9474-fe0e2b009cb0"},"vehicle_type_id":"4","last_reported":1728968994,"current_range_meters":7200,"station_id":"ce4bhqp2rcd13ifvqhng","pricing_plan_id":"cebpf4jnsgd1na2vs0mg"},{"bike_id":"4e8bf75a-f60c-4784-a213-558cc88de64c","system_id":"levelo_inurba_marseille","lat":43.28462,"lon":5.384176,"is_reserved":false,"is_disabled":false,"rental_uris":{"android":"levelo://app?vid=4e8bf75a-f60c-4784-a213-558cc88de64c","ios":"levelo://app?vid=4e8bf75a-f60c-4784-a213-558cc88de64c"},"vehicle_type_id":"4","last_reported":1728968994,"current_range_meters":38000,"station_id":"ce4bh512rcd13ifvqe3g","pricing_plan_id":"cebpf4jnsgd1na2vs0mg"},{"bike_id":"bc03ccbb-238a-438e-9698-c71e60a696b1","system_id":"levelo_inurba_marseille","lat":43.30639,"lon":5.40071,"is_reserved":false,"is_disabled":false,"rental_uris":{"android":"levelo://app?vid=bc03ccbb-238a-438e-9698-c71e60a696b1","ios":"levelo://app?vid=bc03ccbb-238a-438e-9698-c71e60a696b1"},"vehicle_type_id":"4","last_reported":1728968994,"current_range_meters":38800,"station_id":"ce4bh112rcd13ifvqda0","pricing_plan_id":"cebpf4jnsgd1na2vs0mg"},{"bike_id":"ff96eee3-1ac8-4888-9ae7-e4b6cc8154af","system_id":"levelo_inurba_marseille","lat":43.33739,"lon":5.3746,"is_reserved":false,"is_disabled":false,"rental_uris":{"android":"levelo://app?vid=ff96eee3-1ac8-4888-9ae7-e4b6cc8154af","ios":"levelo://app?vid=ff96eee3-1ac8-4888-9ae7-e4b6cc8154af"},"vehicle_type_id":"4","last_reported":1728968994,"current_range_meters":35200,"station_id":"","pricing_plan_id":"cebpf4jnsgd1na2vs0mg"},{"bike_id":"6b5d2128-dc38-4643-bc23-b894fe503d55","system_id":"levelo_inurba_marseille","lat":43.30098,"lon":5.39082,"is_reserved":false,"is_disabled":false,"rental_uris":{"android":"levelo://app?vid=6b5d2128-dc38-4643-bc23-b894fe503d55","ios":"levelo://app?vid=6b5d2128-dc38-4643-bc23-b894fe503d55"},"vehicle_type_id":"4","last_reported":1728968994,"current_range_meters":22800,"station_id":"ce4bh192rcd13ifvqdb0","pricing_plan_id":"cebpf4jnsgd1na2vs0mg"},{"bike_id":"87070b4b-67ca-46ca-bb7f-d5a97d044803","system_id":"levelo_inurba_marseille","lat":43.31115,"lon":5.37758,"is_reserved":false,"is_disabled":false,"rental_uris":{"android":"levelo://app?vid=87070b4b-67ca-46ca-bb7f-d5a97d044803","ios":"levelo://app?vid=87070b4b-67ca-46ca-bb7f-d5a97d044803"},"vehicle_type_id":"4","last_reported":1728968994,"current_range_meters":38800,"station_id":"ce4bgt92rcd13ifvqcg0","pricing_plan_id":"cebpf4jnsgd1na2vs0mg"},{"bike_id":"c50c599b-7eb4-4ae0-bc1f-a366e21ec0ac","system_id":"levelo_inurba_marseille","lat":43.33025,"lon":5.39038,"is_reserved":false,"is_disabled":false,"rental_uris":{"android":"levelo://app?vid=c50c599b-7eb4-4ae0-bc1f-a366e21ec0ac","ios":"levelo://app?vid=c50c599b-7eb4-4ae0-bc1f-a366e21ec0ac"},"vehicle_type_id":"4","last_reported":1728968994,"current_range_meters":36000,"station_id":"ce4bhr92rcd13ifvqhrg","pricing_plan_id":"cebpf4jnsgd1na2vs0mg"},{"bike_id":"affbb959-d301-4244-bb79-4c72a90d3c33","system_id":"levelo_inurba_marseille","lat":43.28291,"lon":5.40904,"is_reserved":false,"is_disabled":false,"rental_uris":{"android":"levelo://app?vid=affbb959-d301-4244-bb79-4c72a90d3c33","ios":"levelo://app?vid=affbb959-d301-4244-bb79-4c72a90d3c33"},"vehicle_type_id":"4","last_reported":1728968994,"current_range_meters":31200,"station_id":"","pricing_plan_id":"cebpf4jnsgd1na2vs0mg"},{"bike_id":"d52f6c30-22ef-4741-a4c5-f9bd29709b35","system_id":"levelo_inurba_marseille","lat":43.29903,"lon":5.38145,"is_reserved":false,"is_disabled":false,"rental_uris":{"android":"levelo://app?vid=d52f6c30-22ef-4741-a4c5-f9bd29709b35","ios":"levelo://app?vid=d52f6c30-22ef-4741-a4c5-f9bd29709b35"},"vehicle_type_id":"4","last_reported":1728968994,"current_range_meters":12800,"station_id":"ce4bgj12rcd13ifvqbc0","pricing_plan_id":"cebpf4jnsgd1na2vs0mg"},{"bike_id":"9824d324-d859-48cc-9cb5-90b3cf898ef8","system_id":"levelo_inurba_marseille","lat":43.28466,"lon":5.35885,"is_reserved":false,"is_disabled":false,"rental_uris":{"android":"levelo://app?vid=9824d324-d859-48cc-9cb5-90b3cf898ef8","ios":"levelo://app?vid=9824d324-d859-48cc-9cb5-90b3cf898ef8"},"vehicle_type_id":"4","last_reported":1728968994,"current_range_meters":38800,"station_id":"ce4bhah2rcd13ifvqei0","pricing_plan_id":"cebpf4jnsgd1na2vs0mg"},{"bike_id":"124fe4c8-d877-453b-88bd-af8d62d24653","system_id":"levelo_inurba_marseille","lat":43.2465,"lon":5.38887,"is_reserved":false,"is_disabled":false,"rental_uris":{"android":"levelo://app?vid=124fe4c8-d877-453b-88bd-af8d62d24653","ios":"levelo://app?vid=124fe4c8-d877-453b-88bd-af8d62d24653"},"vehicle_type_id":"4","last_reported":1728968994,"current_range_meters":8000,"station_id":"ce4bhg12rcd13ifvqf60","pricing_plan_id":"cebpf4jnsgd1na2vs0mg"},{"bike_id":"f44a9589-e2e5-45ce-9597-36cbac02912f","system_id":"levelo_inurba_marseille","lat":43.28939,"lon":5.39626,"is_reserved":false,"is_disabled":false,"rental_uris":{"android":"levelo://app?vid=f44a9589-e2e5-45ce-9597-36cbac02912f","ios":"levelo://app?vid=f44a9589-e2e5-45ce-9597-36cbac02912f"},"vehicle_type_id":"4","last_reported":1728968994,"current_range_meters":38800,"station_id":"ce4bh3h2rcd13ifvqdn0","pricing_plan_id":"cebpf4jnsgd1na2vs0mg"},{"bike_id":"1b756e9d-6346-4191-a236-e1025f9c2cec","system_id":"levelo_inurba_marseille","lat":43.30279,"lon":5.37705,"is_reserved":false,"is_disabled":false,"rental_uris":{"android":"levelo://app?vid=1b756e9d-6346-4191-a236-e1025f9c2cec","ios":"levelo://app?vid=1b756e9d-6346-4191-a236-e1025f9c2cec"},"vehicle_type_id":"4","last_reported":1728968994,"current_range_meters":31200,"station_id":"ce4bguh2rcd13ifvqcj0","pricing_plan_id":"cebpf4jnsgd1na2vs0mg"},{"bike_id":"ab35d9ff-2d2d-47f8-a0db-7968507086aa","system_id":"levelo_inurba_marseille","lat":43.31487,"lon":5.37307,"is_reserved":false,"is_disabled":false,"rental_uris":{"android":"levelo://app?vid=ab35d9ff-2d2d-47f8-a0db-7968507086aa","ios":"levelo://app?vid=ab35d9ff-2d2d-47f8-a0db-7968507086aa"},"vehicle_type_id":"4","last_reported":1728968994,"current_range_meters":26000,"station_id":"ce4bgt12rcd13ifvqcd0","pricing_plan_id":"cebpf4jnsgd1na2vs0mg"},{"bike_id":"f57f4d6f-75e3-40c2-8b37-fd35a15bf7ea","system_id":"levelo_inurba_marseille","lat":43.28102,"lon":5.37838,"is_reserved":false,"is_disabled":false,"rental_uris":{"android":"levelo://app?vid=f57f4d6f-75e3-40c2-8b37-fd35a15bf7ea","ios":"levelo://app?vid=f57f4d6f-75e3-40c2-8b37-fd35a15bf7ea"},"vehicle_type_id":"4","last_reported":1728968994,"current_range_meters":37600,"station_id":"ce4bha12rcd13ifvqee0","pricing_plan_id":"cebpf4jnsgd1na2vs0mg"},{"bike_id":"8bf5b36e-884a-4ead-a687-4aeaa5d33435","system_id":"levelo_inurba_marseille","lat":43.25879,"lon":5.39896,"is_reserved":false,"is_disabled":false,"rental_uris":{"android":"levelo://app?vid=8bf5b36e-884a-4ead-a687-4aeaa5d33435","ios":"levelo://app?vid=8bf5b36e-884a-4ead-a687-4aeaa5d33435"},"vehicle_type_id":"4","last_reported":1728968994,"current_range_meters":38800,"station_id":"ce4bhl92rcd13ifvqghg","pricing_plan_id":"cebpf4jnsgd1na2vs0mg"},{"bike_id":"b33c9b36-53c0-45c3-b467-663a921ae838","system_id":"levelo_inurba_marseille","lat":43.30467,"lon":5.3791,"is_reserved":false,"is_disabled":false,"rental_uris":{"android":"levelo://app?vid=b33c9b36-53c0-45c3-b467-663a921ae838","ios":"levelo://app?vid=b33c9b36-53c0-45c3-b467-663a921ae838"},"vehicle_type_id":"4","last_reported":1728968994,"current_range_meters":33600,"station_id":"ce4bgup2rcd13ifvqcn0","pricing_plan_id":"cebpf4jnsgd1na2vs0mg"},{"bike_id":"e55ce7e2-8e60-47b5-844e-977029bd08ba","system_id":"levelo_inurba_marseille","lat":43.29557,"lon":5.4228,"is_reserved":false,"is_disabled":false,"rental_uris":{"android":"levelo://app?vid=e55ce7e2-8e60-47b5-844e-977029bd08ba","ios":"levelo://app?vid=e55ce7e2-8e60-47b5-844e-977029bd08ba"},"vehicle_type_id":"4","last_reported":1728968994,"current_range_meters":38800,"station_id":"ce4bhph2rcd13ifvqhdg","pricing_plan_id":"cebpf4jnsgd1na2vs0mg"},{"bike_id":"07d70820-54c8-485a-b04b-017096cc6e14","system_id":"levelo_inurba_marseille","lat":43.33023,"lon":5.39032,"is_reserved":false,"is_disabled":false,"rental_uris":{"android":"levelo://app?vid=07d70820-54c8-485a-b04b-017096cc6e14","ios":"levelo://app?vid=07d70820-54c8-485a-b04b-017096cc6e14"},"vehicle_type_id":"4","last_reported":1728968994,"current_range_meters":38000,"station_id":"ce4bhr92rcd13ifvqhrg","pricing_plan_id":"cebpf4jnsgd1na2vs0mg"},{"bike_id":"292b9425-1372-40d4-bf0a-fe57aa779a41","system_id":"levelo_inurba_marseille","lat":43.23063,"lon":5.35495,"is_reserved":false,"is_disabled":false,"rental_uris":{"android":"levelo://app?vid=292b9425-1372-40d4-bf0a-fe57aa779a41","ios":"levelo://app?vid=292b9425-1372-40d4-bf0a-fe57aa779a41"},"vehicle_type_id":"4","last_reported":1728968994,"current_range_meters":35600,"station_id":"cpo3342slgdg3j2ifvpg","pricing_plan_id":"cebpf4jnsgd1na2vs0mg"},{"bike_id":"12461a23-70ed-4bb6-8bd7-3c3e204957fc","system_id":"levelo_inurba_marseille","lat":43.30299,"lon":5.3921,"is_reserved":false,"is_disabled":false,"rental_uris":{"android":"levelo://app?vid=12461a23-70ed-4bb6-8bd7-3c3e204957fc","ios":"levelo://app?vid=12461a23-70ed-4bb6-8bd7-3c3e204957fc"},"vehicle_type_id":"4","last_reported":1728968994,"current_range_meters":39200,"station_id":"ce4bgkh2rcd13ifvqbk0","pricing_plan_id":"cebpf4jnsgd1na2vs0mg"},{"bike_id":"9f64ae34-3d53-461b-a6d6-174aa3829040","system_id":"levelo_inurba_marseille","lat":43.29436,"lon":5.3976,"is_reserved":false,"is_disabled":false,"rental_uris":{"android":"levelo://app?vid=9f64ae34-3d53-461b-a6d6-174aa3829040","ios":"levelo://app?vid=9f64ae34-3d53-461b-a6d6-174aa3829040"},"vehicle_type_id":"4","last_reported":1728968994,"current_range_meters":38800,"station_id":"ce4bh3h2rcd13ifvqdo0","pricing_plan_id":"cebpf4jnsgd1na2vs0mg"},{"bike_id":"a0e94a62-92b9-4aee-841c-76cf95b5fb0a","system_id":"levelo_inurba_marseille","lat":43.25086,"lon":5.39508,"is_reserved":false,"is_disabled":false,"rental_uris":{"android":"levelo://app?vid=a0e94a62-92b9-4aee-841c-76cf95b5fb0a","ios":"levelo://app?vid=a0e94a62-92b9-4aee-841c-76cf95b5fb0a"},"vehicle_type_id":"4","last_reported":1728968994,"current_range_meters":28000,"station_id":"ce4bhm12rcd13ifvqgkg","pricing_plan_id":"cebpf4jnsgd1na2vs0mg"},{"bike_id":"35b48b50-b446-4a64-9e47-a66935f74835","system_id":"levelo_inurba_marseille","lat":43.27822,"lon":5.39204,"is_reserved":false,"is_disabled":false,"rental_uris":{"android":"levelo://app?vid=35b48b50-b446-4a64-9e47-a66935f74835","ios":"levelo://app?vid=35b48b50-b446-4a64-9e47-a66935f74835"},"vehicle_type_id":"4","last_reported":1728968994,"current_range_meters":37600,"station_id":"ce4bhjp2rcd13ifvqga0","pricing_plan_id":"cebpf4jnsgd1na2vs0mg"},{"bike_id":"21edea7c-9fb1-4ef0-a7a1-b2688276a797","system_id":"levelo_inurba_marseille","lat":43.29278,"lon":5.40126,"is_reserved":false,"is_disabled":false,"rental_uris":{"android":"levelo://app?vid=21edea7c-9fb1-4ef0-a7a1-b2688276a797","ios":"levelo://app?vid=21edea7c-9fb1-4ef0-a7a1-b2688276a797"},"vehicle_type_id":"4","last_reported":1728968994,"current_range_meters":33200,"station_id":"ce4bh312rcd13ifvqdk0","pricing_plan_id":"cebpf4jnsgd1na2vs0mg"},{"bike_id":"0adc00eb-7b70-4ce5-a5d5-be2ab25040db","system_id":"levelo_inurba_marseille","lat":43.30466,"lon":5.37907,"is_reserved":false,"is_disabled":false,"rental_uris":{"android":"levelo://app?vid=0adc00eb-7b70-4ce5-a5d5-be2ab25040db","ios":"levelo://app?vid=0adc00eb-7b70-4ce5-a5d5-be2ab25040db"},"vehicle_type_id":"4","last_reported":1728968994,"current_range_meters":36000,"station_id":"ce4bgup2rcd13ifvqcn0","pricing_plan_id":"cebpf4jnsgd1na2vs0mg"},{"bike_id":"7ce3d5a2-b276-47b2-b802-de25424d56fe","system_id":"levelo_inurba_marseille","lat":43.29423,"lon":5.38625,"is_reserved":false,"is_disabled":false,"rental_uris":{"android":"levelo://app?vid=7ce3d5a2-b276-47b2-b802-de25424d56fe","ios":"levelo://app?vid=7ce3d5a2-b276-47b2-b802-de25424d56fe"},"vehicle_type_id":"4","last_reported":1728968994,"current_range_meters":38800,"station_id":"ce4bh2h2rcd13ifvqdh0","pricing_plan_id":"cebpf4jnsgd1na2vs0mg"},{"bike_id":"92864da1-a397-4a3b-bd33-8b556867fd8f","system_id":"levelo_inurba_marseille","lat":43.24545,"lon":5.39525,"is_reserved":false,"is_disabled":false,"rental_uris":{"android":"levelo://app?vid=92864da1-a397-4a3b-bd33-8b556867fd8f","ios":"levelo://app?vid=92864da1-a397-4a3b-bd33-8b556867fd8f"},"vehicle_type_id":"4","last_reported":1728968994,"current_range_meters":23200,"station_id":"ce4bhlp2rcd13ifvqgjg","pricing_plan_id":"cebpf4jnsgd1na2vs0mg"},{"bike_id":"ffb32e29-4a46-457a-9add-fbea1fd7de5f","system_id":"levelo_inurba_marseille","lat":43.29199,"lon":5.358191,"is_reserved":false,"is_disabled":false,"rental_uris":{"android":"levelo://app?vid=ffb32e29-4a46-457a-9add-fbea1fd7de5f","ios":"levelo://app?vid=ffb32e29-4a46-457a-9add-fbea1fd7de5f"},"vehicle_type_id":"4","last_reported":1728968994,"current_range_meters":22000,"station_id":"ce4bhb12rcd13ifvqel0","pricing_plan_id":"cebpf4jnsgd1na2vs0mg"},{"bike_id":"e42a5c5b-19d2-48bc-8dfc-c8514ef28621","system_id":"levelo_inurba_marseille","lat":43.24169,"lon":5.36399,"is_reserved":false,"is_disabled":false,"rental_uris":{"android":"levelo://app?vid=e42a5c5b-19d2-48bc-8dfc-c8514ef28621","ios":"levelo://app?vid=e42a5c5b-19d2-48bc-8dfc-c8514ef28621"},"vehicle_type_id":"4","last_reported":1728968994,"current_range_meters":27200,"station_id":"cpo36qri1sfpv3e86is0","pricing_plan_id":"cebpf4jnsgd1na2vs0mg"},{"bike_id":"24a43979-b432-43c7-83da-543a83415270","system_id":"levelo_inurba_marseille","lat":43.27061,"lon":5.40254,"is_reserved":false,"is_disabled":false,"rental_uris":{"android":"levelo://app?vid=24a43979-b432-43c7-83da-543a83415270","ios":"levelo://app?vid=24a43979-b432-43c7-83da-543a83415270"},"vehicle_type_id":"4","last_reported":1728968994,"current_range_meters":37600,"station_id":"ce4bhk92rcd13ifvqgc0","pricing_plan_id":"cebpf4jnsgd1na2vs0mg"},{"bike_id":"a8e051ed-6aea-47ae-a855-1de69c426089","system_id":"levelo_inurba_marseille","lat":43.25109,"lon":5.40327,"is_reserved":false,"is_disabled":false,"rental_uris":{"android":"levelo://app?vid=a8e051ed-6aea-47ae-a855-1de69c426089","ios":"levelo://app?vid=a8e051ed-6aea-47ae-a855-1de69c426089"},"vehicle_type_id":"4","last_reported":1728968994,"current_range_meters":38800,"station_id":"ce4bhlh2rcd13ifvqgig","pricing_plan_id":"cebpf4jnsgd1na2vs0mg"},{"bike_id":"96312f5f-0242-4af5-8904-5da6da457ea0","system_id":"levelo_inurba_marseille","lat":43.288465,"lon":5.358405,"is_reserved":false,"is_disabled":false,"rental_uris":{"android":"levelo://app?vid=96312f5f-0242-4af5-8904-5da6da457ea0","ios":"levelo://app?vid=96312f5f-0242-4af5-8904-5da6da457ea0"},"vehicle_type_id":"4","last_reported":1728968994,"current_range_meters":38000,"station_id":"ce4bhb12rcd13ifvqem0","pricing_plan_id":"cebpf4jnsgd1na2vs0mg"},{"bike_id":"0bb0b55b-1db0-4f04-9cae-5decd1e52b8e","system_id":"levelo_inurba_marseille","lat":43.23154,"lon":5.43706,"is_reserved":false,"is_disabled":false,"rental_uris":{"android":"levelo://app?vid=0bb0b55b-1db0-4f04-9cae-5decd1e52b8e","ios":"levelo://app?vid=0bb0b55b-1db0-4f04-9cae-5decd1e52b8e"},"vehicle_type_id":"4","last_reported":1728968994,"current_range_meters":23200,"station_id":"ce4bhmp2rcd13ifvqgog","pricing_plan_id":"cebpf4jnsgd1na2vs0mg"},{"bike_id":"0262a9fe-feca-45d9-bcc5-0db5cd20149e","system_id":"levelo_inurba_marseille","lat":43.31264,"lon":5.40178,"is_reserved":false,"is_disabled":false,"rental_uris":{"android":"levelo://app?vid=0262a9fe-feca-45d9-bcc5-0db5cd20149e","ios":"levelo://app?vid=0262a9fe-feca-45d9-bcc5-0db5cd20149e"},"vehicle_type_id":"4","last_reported":1728968994,"current_range_meters":39200,"station_id":"ce4bh092rcd13ifvqd30","pricing_plan_id":"cebpf4jnsgd1na2vs0mg"},{"bike_id":"c33238aa-1247-4c16-bdb1-0c68942c7f08","system_id":"levelo_inurba_marseille","lat":43.30784,"lon":5.37651,"is_reserved":false,"is_disabled":false,"rental_uris":{"android":"levelo://app?vid=c33238aa-1247-4c16-bdb1-0c68942c7f08","ios":"levelo://app?vid=c33238aa-1247-4c16-bdb1-0c68942c7f08"},"vehicle_type_id":"4","last_reported":1728968994,"current_range_meters":39200,"station_id":"ce4bgv92rcd13ifvqcq0","pricing_plan_id":"cebpf4jnsgd1na2vs0mg"},{"bike_id":"99f9d4a2-2010-4012-b5a2-1af56e22a1d1","system_id":"levelo_inurba_marseille","lat":43.305053,"lon":5.380497,"is_reserved":false,"is_disabled":false,"rental_uris":{"android":"levelo://app?vid=99f9d4a2-2010-4012-b5a2-1af56e22a1d1","ios":"levelo://app?vid=99f9d4a2-2010-4012-b5a2-1af56e22a1d1"},"vehicle_type_id":"4","last_reported":1728968994,"current_range_meters":24800,"station_id":"","pricing_plan_id":"cebpf4jnsgd1na2vs0mg"},{"bike_id":"d06f24f3-1961-4c39-8b26-c72733863fe9","system_id":"levelo_inurba_marseille","lat":43.33781,"lon":5.37443,"is_reserved":false,"is_disabled":false,"rental_uris":{"android":"levelo://app?vid=d06f24f3-1961-4c39-8b26-c72733863fe9","ios":"levelo://app?vid=d06f24f3-1961-4c39-8b26-c72733863fe9"},"vehicle_type_id":"4","last_reported":1728968994,"current_range_meters":25600,"station_id":"","pricing_plan_id":"cebpf4jnsgd1na2vs0mg"},{"bike_id":"2da6aa54-ad0c-484f-8279-5aac8ad1d94b","system_id":"levelo_inurba_marseille","lat":43.31719,"lon":5.42408,"is_reserved":false,"is_disabled":false,"rental_uris":{"android":"levelo://app?vid=2da6aa54-ad0c-484f-8279-5aac8ad1d94b","ios":"levelo://app?vid=2da6aa54-ad0c-484f-8279-5aac8ad1d94b"},"vehicle_type_id":"4","last_reported":1728968994,"current_range_meters":38400,"station_id":"ce4bhp92rcd13ifvqhbg","pricing_plan_id":"cebpf4jnsgd1na2vs0mg"},{"bike_id":"63450ac4-5977-4b41-9c01-a61730e87c27","system_id":"levelo_inurba_marseille","lat":43.29045,"lon":5.39954,"is_reserved":false,"is_disabled":false,"rental_uris":{"android":"levelo://app?vid=63450ac4-5977-4b41-9c01-a61730e87c27","ios":"levelo://app?vid=63450ac4-5977-4b41-9c01-a61730e87c27"},"vehicle_type_id":"4","last_reported":1728968994,"current_range_meters":36000,"station_id":"ce4bh392rcd13ifvqdm0","pricing_plan_id":"cebpf4jnsgd1na2vs0mg"},{"bike_id":"59801407-972f-4a36-807e-85d5772337bc","system_id":"levelo_inurba_marseille","lat":43.2808,"lon":5.39655,"is_reserved":false,"is_disabled":false,"rental_uris":{"android":"levelo://app?vid=59801407-972f-4a36-807e-85d5772337bc","ios":"levelo://app?vid=59801407-972f-4a36-807e-85d5772337bc"},"vehicle_type_id":"4","last_reported":1728968994,"current_range_meters":5600,"station_id":"ce4bho12rcd13ifvqh2g","pricing_plan_id":"cebpf4jnsgd1na2vs0mg"},{"bike_id":"c6724fda-1b40-4b83-99bf-b33e8f16afef","system_id":"levelo_inurba_marseille","lat":43.28957,"lon":5.36629,"is_reserved":false,"is_disabled":false,"rental_uris":{"android":"levelo://app?vid=c6724fda-1b40-4b83-99bf-b33e8f16afef","ios":"levelo://app?vid=c6724fda-1b40-4b83-99bf-b33e8f16afef"},"vehicle_type_id":"4","last_reported":1728968994,"current_range_meters":34800,"station_id":"ce4bhap2rcd13ifvqek0","pricing_plan_id":"cebpf4jnsgd1na2vs0mg"},{"bike_id":"de55ef64-fd38-455a-b0e1-1ae601486694","system_id":"levelo_inurba_marseille","lat":43.284604,"lon":5.358943,"is_reserved":false,"is_disabled":false,"rental_uris":{"android":"levelo://app?vid=de55ef64-fd38-455a-b0e1-1ae601486694","ios":"levelo://app?vid=de55ef64-fd38-455a-b0e1-1ae601486694"},"vehicle_type_id":"4","last_reported":1728968994,"current_range_meters":28000,"station_id":"ce4bhah2rcd13ifvqei0","pricing_plan_id":"cebpf4jnsgd1na2vs0mg"},{"bike_id":"d41309ab-1a1f-4395-acaa-455483c3f8e1","system_id":"levelo_inurba_marseille","lat":43.23191,"lon":5.35561,"is_reserved":false,"is_disabled":false,"rental_uris":{"android":"levelo://app?vid=d41309ab-1a1f-4395-acaa-455483c3f8e1","ios":"levelo://app?vid=d41309ab-1a1f-4395-acaa-455483c3f8e1"},"vehicle_type_id":"4","last_reported":1728968994,"current_range_meters":35200,"station_id":"ce4bhu92rcd13ifvqi70","pricing_plan_id":"cebpf4jnsgd1na2vs0mg"},{"bike_id":"c5e69ad3-555f-4532-b4a7-5e117108fcee","system_id":"levelo_inurba_marseille","lat":43.30135,"lon":5.38782,"is_reserved":false,"is_disabled":false,"rental_uris":{"android":"levelo://app?vid=c5e69ad3-555f-4532-b4a7-5e117108fcee","ios":"levelo://app?vid=c5e69ad3-555f-4532-b4a7-5e117108fcee"},"vehicle_type_id":"4","last_reported":1728968994,"current_range_meters":33200,"station_id":"ce4bghh2rcd13ifvqb60","pricing_plan_id":"cebpf4jnsgd1na2vs0mg"},{"bike_id":"4d61dae6-15fa-4e8d-92b6-002cd41e2abc","system_id":"levelo_inurba_marseille","lat":43.282725,"lon":5.350729,"is_reserved":false,"is_disabled":false,"rental_uris":{"android":"levelo://app?vid=4d61dae6-15fa-4e8d-92b6-002cd41e2abc","ios":"levelo://app?vid=4d61dae6-15fa-4e8d-92b6-002cd41e2abc"},"vehicle_type_id":"4","last_reported":1728968994,"current_range_meters":13600,"station_id":"ce4bhbp2rcd13ifvqerg","pricing_plan_id":"cebpf4jnsgd1na2vs0mg"},{"bike_id":"710523a7-e306-4ecb-ab43-7eb6b3a30162","system_id":"levelo_inurba_marseille","lat":43.30461,"lon":5.40172,"is_reserved":false,"is_disabled":false,"rental_uris":{"android":"levelo://app?vid=710523a7-e306-4ecb-ab43-7eb6b3a30162","ios":"levelo://app?vid=710523a7-e306-4ecb-ab43-7eb6b3a30162"},"vehicle_type_id":"4","last_reported":1728968994,"current_range_meters":24400,"station_id":"","pricing_plan_id":"cebpf4jnsgd1na2vs0mg"},{"bike_id":"4541705b-123e-4e6f-8dd6-ae40b6b53c55","system_id":"levelo_inurba_marseille","lat":43.28157,"lon":5.42645,"is_reserved":false,"is_disabled":false,"rental_uris":{"android":"levelo://app?vid=4541705b-123e-4e6f-8dd6-ae40b6b53c55","ios":"levelo://app?vid=4541705b-123e-4e6f-8dd6-ae40b6b53c55"},"vehicle_type_id":"4","last_reported":1728968994,"current_range_meters":8800,"station_id":"ce4bhnh2rcd13ifvqgug","pricing_plan_id":"cebpf4jnsgd1na2vs0mg"},{"bike_id":"3dbf4e3e-5839-4c37-b41f-742e4bb32b46","system_id":"levelo_inurba_marseille","lat":43.30803,"lon":5.38161,"is_reserved":false,"is_disabled":false,"rental_uris":{"android":"levelo://app?vid=3dbf4e3e-5839-4c37-b41f-742e4bb32b46","ios":"levelo://app?vid=3dbf4e3e-5839-4c37-b41f-742e4bb32b46"},"vehicle_type_id":"4","last_reported":1728968994,"current_range_meters":38800,"station_id":"ce4bgt12rcd13ifvqce0","pricing_plan_id":"cebpf4jnsgd1na2vs0mg"},{"bike_id":"fca53f66-742d-44ee-956a-20e7ae576730","system_id":"levelo_inurba_marseille","lat":43.3127,"lon":5.40175,"is_reserved":false,"is_disabled":false,"rental_uris":{"android":"levelo://app?vid=fca53f66-742d-44ee-956a-20e7ae576730","ios":"levelo://app?vid=fca53f66-742d-44ee-956a-20e7ae576730"},"vehicle_type_id":"4","last_reported":1728968994,"current_range_meters":39200,"station_id":"ce4bh092rcd13ifvqd30","pricing_plan_id":"cebpf4jnsgd1na2vs0mg"},{"bike_id":"841fb6f8-2296-487b-9f27-17f776d3e1ac","system_id":"levelo_inurba_marseille","lat":43.24178,"lon":5.39731,"is_reserved":false,"is_disabled":false,"rental_uris":{"android":"levelo://app?vid=841fb6f8-2296-487b-9f27-17f776d3e1ac","ios":"levelo://app?vid=841fb6f8-2296-487b-9f27-17f776d3e1ac"},"vehicle_type_id":"4","last_reported":1728968994,"current_range_meters":38000,"station_id":"ce4bhn12rcd13ifvqgpg","pricing_plan_id":"cebpf4jnsgd1na2vs0mg"},{"bike_id":"e4190f60-5241-45ad-ad26-85301cd84f0b","system_id":"levelo_inurba_marseille","lat":43.27209,"lon":5.39184,"is_reserved":false,"is_disabled":false,"rental_uris":{"android":"levelo://app?vid=e4190f60-5241-45ad-ad26-85301cd84f0b","ios":"levelo://app?vid=e4190f60-5241-45ad-ad26-85301cd84f0b"},"vehicle_type_id":"4","last_reported":1728968994,"current_range_meters":38000,"station_id":"ce4bhhp2rcd13ifvqfm0","pricing_plan_id":"cebpf4jnsgd1na2vs0mg"},{"bike_id":"1e373081-babc-434c-bc69-eaa8936316d7","system_id":"levelo_inurba_marseille","lat":43.29042,"lon":5.39972,"is_reserved":false,"is_disabled":false,"rental_uris":{"android":"levelo://app?vid=1e373081-babc-434c-bc69-eaa8936316d7","ios":"levelo://app?vid=1e373081-babc-434c-bc69-eaa8936316d7"},"vehicle_type_id":"4","last_reported":1728968994,"current_range_meters":29600,"station_id":"ce4bh392rcd13ifvqdm0","pricing_plan_id":"cebpf4jnsgd1na2vs0mg"},{"bike_id":"f33ca04e-0fdd-4816-b4fc-80bcd342b78a","system_id":"levelo_inurba_marseille","lat":43.29553,"lon":5.42284,"is_reserved":false,"is_disabled":false,"rental_uris":{"android":"levelo://app?vid=f33ca04e-0fdd-4816-b4fc-80bcd342b78a","ios":"levelo://app?vid=f33ca04e-0fdd-4816-b4fc-80bcd342b78a"},"vehicle_type_id":"4","last_reported":1728968994,"current_range_meters":37600,"station_id":"ce4bhph2rcd13ifvqhdg","pricing_plan_id":"cebpf4jnsgd1na2vs0mg"},{"bike_id":"eeeaf89a-2451-4a2b-8e6b-5ef5e62ca9bc","system_id":"levelo_inurba_marseille","lat":43.28435,"lon":5.3918,"is_reserved":false,"is_disabled":false,"rental_uris":{"android":"levelo://app?vid=eeeaf89a-2451-4a2b-8e6b-5ef5e62ca9bc","ios":"levelo://app?vid=eeeaf89a-2451-4a2b-8e6b-5ef5e62ca9bc"},"vehicle_type_id":"4","last_reported":1728968994,"current_range_meters":21600,"station_id":"ce4bhoh2rcd13ifvqh5g","pricing_plan_id":"cebpf4jnsgd1na2vs0mg"},{"bike_id":"ab4b5dd5-7da7-49ec-b6b1-7716be5592e7","system_id":"levelo_inurba_marseille","lat":43.30881,"lon":5.39648,"is_reserved":false,"is_disabled":false,"rental_uris":{"android":"levelo://app?vid=ab4b5dd5-7da7-49ec-b6b1-7716be5592e7","ios":"levelo://app?vid=ab4b5dd5-7da7-49ec-b6b1-7716be5592e7"},"vehicle_type_id":"4","last_reported":1728968994,"current_range_meters":37600,"station_id":"ce4bh012rcd13ifvqcv0","pricing_plan_id":"cebpf4jnsgd1na2vs0mg"},{"bike_id":"790d2e6c-41e7-4d40-8e9e-fdabf6900c66","system_id":"levelo_inurba_marseille","lat":43.28158,"lon":5.42649,"is_reserved":false,"is_disabled":false,"rental_uris":{"android":"levelo://app?vid=790d2e6c-41e7-4d40-8e9e-fdabf6900c66","ios":"levelo://app?vid=790d2e6c-41e7-4d40-8e9e-fdabf6900c66"},"vehicle_type_id":"4","last_reported":1728968994,"current_range_meters":38400,"station_id":"ce4bhnh2rcd13ifvqgug","pricing_plan_id":"cebpf4jnsgd1na2vs0mg"},{"bike_id":"006ce50b-1d1b-4781-a031-2d7cf4fe67be","system_id":"levelo_inurba_marseille","lat":43.2455,"lon":5.39526,"is_reserved":false,"is_disabled":false,"rental_uris":{"android":"levelo://app?vid=006ce50b-1d1b-4781-a031-2d7cf4fe67be","ios":"levelo://app?vid=006ce50b-1d1b-4781-a031-2d7cf4fe67be"},"vehicle_type_id":"4","last_reported":1728968994,"current_range_meters":10800,"station_id":"ce4bhlp2rcd13ifvqgjg","pricing_plan_id":"cebpf4jnsgd1na2vs0mg"},{"bike_id":"00f7f99a-d45a-43de-905c-50f86815ff55","system_id":"levelo_inurba_marseille","lat":43.30951,"lon":5.39033,"is_reserved":false,"is_disabled":false,"rental_uris":{"android":"levelo://app?vid=00f7f99a-d45a-43de-905c-50f86815ff55","ios":"levelo://app?vid=00f7f99a-d45a-43de-905c-50f86815ff55"},"vehicle_type_id":"4","last_reported":1728968994,"current_range_meters":38800,"station_id":"ce4bgup2rcd13ifvqco0","pricing_plan_id":"cebpf4jnsgd1na2vs0mg"},{"bike_id":"851d95b9-311b-4a9b-9406-5dbe2a7d862e","system_id":"levelo_inurba_marseille","lat":43.28701,"lon":5.37372,"is_reserved":false,"is_disabled":false,"rental_uris":{"android":"levelo://app?vid=851d95b9-311b-4a9b-9406-5dbe2a7d862e","ios":"levelo://app?vid=851d95b9-311b-4a9b-9406-5dbe2a7d862e"},"vehicle_type_id":"4","last_reported":1728968994,"current_range_meters":36400,"station_id":"ce4bh3p2rcd13ifvqdq0","pricing_plan_id":"cebpf4jnsgd1na2vs0mg"},{"bike_id":"1af2813b-98a0-4b62-aaf8-89652b30f639","system_id":"levelo_inurba_marseille","lat":43.22933,"lon":5.35381,"is_reserved":false,"is_disabled":false,"rental_uris":{"android":"levelo://app?vid=1af2813b-98a0-4b62-aaf8-89652b30f639","ios":"levelo://app?vid=1af2813b-98a0-4b62-aaf8-89652b30f639"},"vehicle_type_id":"4","last_reported":1728968994,"current_range_meters":32000,"station_id":"cpo3532slgdg3j2ikp40","pricing_plan_id":"cebpf4jnsgd1na2vs0mg"},{"bike_id":"df2c6ec3-48f4-4f41-86bd-b5a00277c480","system_id":"levelo_inurba_marseille","lat":43.28929,"lon":5.38404,"is_reserved":false,"is_disabled":false,"rental_uris":{"android":"levelo://app?vid=df2c6ec3-48f4-4f41-86bd-b5a00277c480","ios":"levelo://app?vid=df2c6ec3-48f4-4f41-86bd-b5a00277c480"},"vehicle_type_id":"4","last_reported":1728968994,"current_range_meters":10000,"station_id":"ce4bh612rcd13ifvqe6g","pricing_plan_id":"cebpf4jnsgd1na2vs0mg"},{"bike_id":"b6e51444-f57b-47a8-9c42-cdc3eaeef5e5","system_id":"levelo_inurba_marseille","lat":43.31342,"lon":5.36704,"is_reserved":false,"is_disabled":false,"rental_uris":{"android":"levelo://app?vid=b6e51444-f57b-47a8-9c42-cdc3eaeef5e5","ios":"levelo://app?vid=b6e51444-f57b-47a8-9c42-cdc3eaeef5e5"},"vehicle_type_id":"4","last_reported":1728968994,"current_range_meters":28000,"station_id":"ce4bgr92rcd13ifvqc6g","pricing_plan_id":"cebpf4jnsgd1na2vs0mg"},{"bike_id":"f93454e1-a669-4c63-a4ca-b572042c7971","system_id":"levelo_inurba_marseille","lat":43.23189,"lon":5.35556,"is_reserved":false,"is_disabled":false,"rental_uris":{"android":"levelo://app?vid=f93454e1-a669-4c63-a4ca-b572042c7971","ios":"levelo://app?vid=f93454e1-a669-4c63-a4ca-b572042c7971"},"vehicle_type_id":"4","last_reported":1728968994,"current_range_meters":27200,"station_id":"ce4bhu92rcd13ifvqi70","pricing_plan_id":"cebpf4jnsgd1na2vs0mg"},{"bike_id":"a792e02c-6e98-4d5e-bcd4-838007f46176","system_id":"levelo_inurba_marseille","lat":43.28479,"lon":5.3841,"is_reserved":false,"is_disabled":false,"rental_uris":{"android":"levelo://app?vid=a792e02c-6e98-4d5e-bcd4-838007f46176","ios":"levelo://app?vid=a792e02c-6e98-4d5e-bcd4-838007f46176"},"vehicle_type_id":"4","last_reported":1728968994,"current_range_meters":38800,"station_id":"ce4bh512rcd13ifvqe3g","pricing_plan_id":"cebpf4jnsgd1na2vs0mg"},{"bike_id":"b29b8739-7b8e-43f9-a215-d5ca7f770e17","system_id":"levelo_inurba_marseille","lat":43.28572,"lon":5.39498,"is_reserved":false,"is_disabled":false,"rental_uris":{"android":"levelo://app?vid=b29b8739-7b8e-43f9-a215-d5ca7f770e17","ios":"levelo://app?vid=b29b8739-7b8e-43f9-a215-d5ca7f770e17"},"vehicle_type_id":"4","last_reported":1728968994,"current_range_meters":38000,"station_id":"ce4bh292rcd13ifvqdg0","pricing_plan_id":"cebpf4jnsgd1na2vs0mg"},{"bike_id":"93facf5b-31f4-420f-ab00-d15967580d37","system_id":"levelo_inurba_marseille","lat":43.29788,"lon":5.39338,"is_reserved":false,"is_disabled":false,"rental_uris":{"android":"levelo://app?vid=93facf5b-31f4-420f-ab00-d15967580d37","ios":"levelo://app?vid=93facf5b-31f4-420f-ab00-d15967580d37"},"vehicle_type_id":"4","last_reported":1728968994,"current_range_meters":31200,"station_id":"chh1huq6cuj3fo74tm60","pricing_plan_id":"cebpf4jnsgd1na2vs0mg"},{"bike_id":"8df94bb5-9315-45f7-aecb-13efe2780616","system_id":"levelo_inurba_marseille","lat":43.31324,"lon":5.39695,"is_reserved":false,"is_disabled":false,"rental_uris":{"android":"levelo://app?vid=8df94bb5-9315-45f7-aecb-13efe2780616","ios":"levelo://app?vid=8df94bb5-9315-45f7-aecb-13efe2780616"},"vehicle_type_id":"4","last_reported":1728968994,"current_range_meters":36000,"station_id":"ce4bgvp2rcd13ifvqcu0","pricing_plan_id":"cebpf4jnsgd1na2vs0mg"},{"bike_id":"476ab3bb-9455-4401-9423-faa80f6c98d8","system_id":"levelo_inurba_marseille","lat":43.2921,"lon":5.39314,"is_reserved":false,"is_disabled":false,"rental_uris":{"android":"levelo://app?vid=476ab3bb-9455-4401-9423-faa80f6c98d8","ios":"levelo://app?vid=476ab3bb-9455-4401-9423-faa80f6c98d8"},"vehicle_type_id":"4","last_reported":1728968994,"current_range_meters":38400,"station_id":"ce4bh192rcd13ifvqdd0","pricing_plan_id":"cebpf4jnsgd1na2vs0mg"},