{"last_updated":1733130702,"ttl":60,"version":"2.2","data":{"bikes":[{"bike_id":"d9cf30de-0faf-4592-b085-b334d71d07d1","system_id":"levelo_inurba_marseille","lat":43.30952,"lon":5.39039,"is_reserved":false,"is_disabled":false,"rental_uris":{"android":"levelo://app?vid=d9cf30de-0faf-4592-b085-b334d71d07d1","ios":"levelo://app?vid=d9cf30de-0faf-4592-b085-b334d71d07d1"},"vehicle_type_id":"4","last_reported":1733130702,"current_range_meters":37600,"station_id":"ce4bgup2rcd13ifvqco0","pricing_plan_id":"cebpf4jnsgd1na2vs0mg"},{"bike_id":"a8240cfa-6b36-44f3-899a-4807a01486bd","system_id":"levelo_inurba_marseille","lat":43.29551,"lon":5.42285,"is_reserved":false,"is_disabled":false,"rental_uris":{"android":"levelo://app?vid=a8240cfa-6b36-44f3-899a-4807a01486bd","ios":"levelo://app?vid=a8240cfa-6b36-44f3-899a-4807a01486bd"},"vehicle_type_id":"4","last_reported":1733130702,"current_range_meters":22800,"station_id":"ce4bhph2rcd13ifvqhdg","pricing_plan_id":"cebpf4jnsgd1na2vs0mg"},{"bike_id":"5d185ce1-f6f3-4450-a56d-622efc6c6751","system_id":"levelo_inurba_marseille","lat":43.30152,"lon":5.38102,"is_reserved":false,"is_disabled":true,"rental_uris":{"android":"levelo://app?vid=5d185ce1-f6f3-4450-a56d-622efc6c6751","ios":"levelo://app?vid=5d185ce1-f6f3-4450-a56d-622efc6c6751"},"vehicle_type_id":"4","last_reported":1733130702,"current_range_meters":0,"station_id":"ce4bgjp2rcd13ifvqbh0","pricing_plan_id":"cebpf4jnsgd1na2vs0mg"},{"bike_id":"36f80ea5-8062-4524-a4e5-be8cde6b930a","system_id":"levelo_inurba_marseille","lat":43.296929,"lon":5.370761,"is_reserved":false,"is_disabled":true,"rental_uris":{"android":"levelo://app?vid=36f80ea5-8062-4524-a4e5-be8cde6b930a","ios":"levelo://app?vid=36f80ea5-8062-4524-a4e5-be8cde6b930a"},"vehicle_type_id":"4","last_reported":1733130702,"current_range_meters":0,"station_id":"","pricing_plan_id":"cebpf4jnsgd1na2vs0mg"},{"bike_id":"7ff9ed7d-51d4-4c0b-aef0-61969fefb411","system_id":"levelo_inurba_marseille","lat":43.24143,"lon":5.36415,"is_reserved":false,"is_disabled":false,"rental_uris":{"android":"levelo://app?vid=7ff9ed7d-51d4-4c0b-aef0-61969fefb411","ios":"levelo://app?vid=7ff9ed7d-51d4-4c0b-aef0-61969fefb411"},"vehicle_type_id":"4","last_reported":1733130702,"current_range_meters":22000,"station_id":"cpo36qri1sfpv3e86is0","pricing_plan_id":"cebpf4jnsgd1na2vs0mg"},{"bike_id":"304c3c23-006c-47a7-be41-53df15bd78fa","system_id":"levelo_inurba_marseille","lat":43.29417,"lon":5.38615,"is_reserved":false,"is_disabled":true,"rental_uris":{"android":"levelo://app?vid=304c3c23-006c-47a7-be41-53df15bd78fa","ios":"levelo://app?vid=304c3c23-006c-47a7-be41-53df15bd78fa"},"vehicle_type_id":"4","last_reported":1733130702,"current_range_meters":24400,"station_id":"ce4bh2h2rcd13ifvqdh0","pricing_plan_id":"cebpf4jnsgd1na2vs0mg"},{"bike_id":"2f238872-9fb2-4825-808e-79402db36306","system_id":"levelo_inurba_marseille","lat":43.29042,"lon":5.3997,"is_reserved":false,"is_disabled":false,"rental_uris":{"android":"levelo://app?vid=2f238872-9fb2-4825-808e-79402db36306","ios":"levelo://app?vid=2f238872-9fb2-4825-808e-79402db36306"},"vehicle_type_id":"4","last_reported":1733130702,"current_range_meters":38000,"station_id":"ce4bh392rcd13ifvqdm0","pricing_plan_id":"cebpf4jnsgd1na2vs0mg"},{"bike_id":"a4ef3677-b2ff-4050-9563-4c5de1de9a25","system_id":"levelo_inurba_marseille","lat":43.23186,"lon":5.39988,"is_reserved":false,"is_disabled":true,"rental_uris":{"android":"levelo://app?vid=a4ef3677-b2ff-4050-9563-4c5de1de9a25","ios":"levelo://app?vid=a4ef3677-b2ff-4050-9563-4c5de1de9a25"},"vehicle_type_id":"4","last_reported":1733130702,"current_range_meters":10000,"station_id":"ce4bhn12rcd13ifvqgqg","pricing_plan_id":"cebpf4jnsgd1na2vs0mg"},{"bike_id":"42b6c79a-df23-4e93-a0b7-4151c43c7fde","system_id":"levelo_inurba_marseille","lat":43.30907,"lon":5.36851,"is_reserved":false,"is_disabled":false,"rental_uris":{"android":"levelo://app?vid=42b6c79a-df23-4e93-a0b7-4151c43c7fde","ios":"levelo://app?vid=42b6c79a-df23-4e93-a0b7-4151c43c7fde"},"vehicle_type_id":"4","last_reported":1733130702,"current_range_meters":20000,"station_id":"ce4bgn92rcd13ifvqbvg","pricing_plan_id":"cebpf4jnsgd1na2vs0mg"},{"bike_id":"7cf47455-212b-4e1f-8810-691c619b15df","system_id":"levelo_inurba_marseille","lat":43.26947,"lon":5.38632,"is_reserved":false,"is_disabled":false,"rental_uris":{"android":"levelo://app?vid=7cf47455-212b-4e1f-8810-691c619b15df","ios":"levelo://app?vid=7cf47455-212b-4e1f-8810-691c619b15df"},"vehicle_type_id":"4","last_reported":1733130702,"current_range_meters":10800,"station_id":"ce4bhh92rcd13ifvqfh0","pricing_plan_id":"cebpf4jnsgd1na2vs0mg"},{"bike_id":"690f1ff7-d5db-4ee1-9745-d4714752d557","system_id":"levelo_inurba_marseille","lat":43.29016,"lon":5.37558,"is_reserved":false,"is_disabled":false,"rental_uris":{"android":"levelo://app?vid=690f1ff7-d5db-4ee1-9745-d4714752d557","ios":"levelo://app?vid=690f1ff7-d5db-4ee1-9745-d4714752d557"},"vehicle_type_id":"4","last_reported":1733130702,"current_range_meters":25600,"station_id":"ce4bh692rcd13ifvqe90","pricing_plan_id":"cebpf4jnsgd1na2vs0mg"},{"bike_id":"0386efd9-858e-4c45-9284-4edbd887e7ab","system_id":"levelo_inurba_marseille","lat":43.3254,"lon":5.41437,"is_reserved":false,"is_disabled":false,"rental_uris":{"android":"levelo://app?vid=0386efd9-858e-4c45-9284-4edbd887e7ab","ios":"levelo://app?vid=0386efd9-858e-4c45-9284-4edbd887e7ab"},"vehicle_type_id":"4","last_reported":1733130702,"current_range_meters":38400,"station_id":"ce4bhq12rcd13ifvqhhg","pricing_plan_id":"cebpf4jnsgd1na2vs0mg"},{"bike_id":"7efd0a66-6d6c-4730-a1fe-0cd3222ee3da","system_id":"levelo_inurba_marseille","lat":43.23153,"lon":5.43705,"is_reserved":false,"is_disabled":false,"rental_uris":{"android":"levelo://app?vid=7efd0a66-6d6c-4730-a1fe-0cd3222ee3da","ios":"levelo://app?vid=7efd0a66-6d6c-4730-a1fe-0cd3222ee3da"},"vehicle_type_id":"4","last_reported":1733130702,"current_range_meters":12000,"station_id":"ce4bhmp2rcd13ifvqgog","pricing_plan_id":"cebpf4jnsgd1na2vs0mg"},{"bike_id":"d666d7a0-17ef-4dbc-aa46-18e775c7457c","system_id":"levelo_inurba_marseille","lat":43.28936,"lon":5.36629,"is_reserved":false,"is_disabled":true,"rental_uris":{"android":"levelo://app?vid=d666d7a0-17ef-4dbc-aa46-18e775c7457c","ios":"levelo://app?vid=d666d7a0-17ef-4dbc-aa46-18e775c7457c"},"vehicle_type_id":"4","last_reported":1733130702,"current_range_meters":8800,"station_id":"ce4bhap2rcd13ifvqek0","pricing_plan_id":"cebpf4jnsgd1na2vs0mg"},{"bike_id":"d6d9399f-577d-4b61-9fd9-19cbfb2cd54c","system_id":"levelo_inurba_marseille","lat":43.30549,"lon":5.36703,"is_reserved":false,"is_disabled":true,"rental_uris":{"android":"levelo://app?vid=d6d9399f-577d-4b61-9fd9-19cbfb2cd54c","ios":"levelo://app?vid=d6d9399f-577d-4b61-9fd9-19cbfb2cd54c"},"vehicle_type_id":"4","last_reported":1733130702,"current_range_meters":28000,"station_id":"ce4bgrp2rcd13ifvqc9g","pricing_plan_id":"cebpf4jnsgd1na2vs0mg"},{"bike_id":"966791e8-cdff-4838-a42b-c9b609a533a7","system_id":"levelo_inurba_marseille","lat":43.27455,"lon":5.40073,"is_reserved":false,"is_disabled":true,"rental_uris":{"android":"levelo://app?vid=966791e8-cdff-4838-a42b-c9b609a533a7","ios":"levelo://app?vid=966791e8-cdff-4838-a42b-c9b609a533a7"},"vehicle_type_id":"4","last_reported":1733130702,"current_range_meters":0,"station_id":"","pricing_plan_id":"cebpf4jnsgd1na2vs0mg"},{"bike_id":"edaa2690-e8bc-498d-ab5c-13269193fb53","system_id":"levelo_inurba_marseille","lat":43.30547,"lon":5.36705,"is_reserved":false,"is_disabled":false,"rental_uris":{"android":"levelo://app?vid=edaa2690-e8bc-498d-ab5c-13269193fb53","ios":"levelo://app?vid=edaa2690-e8bc-498d-ab5c-13269193fb53"},"vehicle_type_id":"4","last_reported":1733130702,"current_range_meters":39200,"station_id":"ce4bgrp2rcd13ifvqc9g","pricing_plan_id":"cebpf4jnsgd1na2vs0mg"},{"bike_id":"6bb5d6e2-ced9-4464-a574-dba49d46ef75","system_id":"levelo_inurba_marseille","lat":43.29286,"lon":5.37449,"is_reserved":false,"is_disabled":false,"rental_uris":{"android":"levelo://app?vid=6bb5d6e2-ced9-4464-a574-dba49d46ef75","ios":"levelo://app?vid=6bb5d6e2-ced9-4464-a574-dba49d46ef75"},"vehicle_type_id":"4","last_reported":1733130702,"current_range_meters":26800,"station_id":"ce4bgi12rcd13ifvqb70","pricing_plan_id":"cebpf4jnsgd1na2vs0mg"},{"bike_id":"d5ee0c25-52c3-4ffd-9ac1-cdeddc532007","system_id":"levelo_inurba_marseille","lat":43.29162,"lon":5.37164,"is_reserved":false,"is_disabled":false,"rental_uris":{"android":"levelo://app?vid=d5ee0c25-52c3-4ffd-9ac1-cdeddc532007","ios":"levelo://app?vid=d5ee0c25-52c3-4ffd-9ac1-cdeddc532007"},"vehicle_type_id":"4","last_reported":1733130702,"current_range_meters":24000,"station_id":"ce4bha92rcd13ifvqeh0","pricing_plan_id":"cebpf4jnsgd1na2vs0mg"},{"bike_id":"90b2275d-7c71-4985-84cb-204f1c3e9988","system_id":"levelo_inurba_marseille","lat":43.30193,"lon":5.36619,"is_reserved":false,"is_disabled":false,"rental_uris":{"android":"levelo://app?vid=90b2275d-7c71-4985-84cb-204f1c3e9988","ios":"levelo://app?vid=90b2275d-7c71-4985-84cb-204f1c3e9988"},"vehicle_type_id":"4","last_reported":1733130702,"current_range_meters":11200,"station_id":"ce4bgrh2rcd13ifvqc8g","pricing_plan_id":"cebpf4jnsgd1na2vs0mg"},{"bike_id":"599721bc-4c56-4323-a7a6-1e094f7971bc","system_id":"levelo_inurba_marseille","lat":43.2815,"lon":5.42641,"is_reserved":false,"is_disabled":false,"rental_uris":{"android":"levelo://app?vid=599721bc-4c56-4323-a7a6-1e094f7971bc","ios":"levelo://app?vid=599721bc-4c56-4323-a7a6-1e094f7971bc"},"vehicle_type_id":"4","last_reported":1733130702,"current_range_meters":15200,"station_id":"ce4bhnh2rcd13ifvqgug","pricing_plan_id":"cebpf4jnsgd1na2vs0mg"},{"bike_id":"44a66f65-89e6-4fcf-a3e7-10940f42c240","system_id":"levelo_inurba_marseille","lat":43.30879,"lon":5.37194,"is_reserved":false,"is_disabled":true,"rental_uris":{"android":"levelo://app?vid=44a66f65-89e6-4fcf-a3e7-10940f42c240","ios":"levelo://app?vid=44a66f65-89e6-4fcf-a3e7-10940f42c240"},"vehicle_type_id":"4","last_reported":1733130702,"current_range_meters":19600,"station_id":"ce4bguh2rcd13ifvqckg","pricing_plan_id":"cebpf4jnsgd1na2vs0mg"},{"bike_id":"cd0fcf25-e3a1-4578-b825-9b01814e142b","system_id":"levelo_inurba_marseille","lat":43.33612,"lon":5.41008,"is_reserved":false,"is_disabled":false,"rental_uris":{"android":"levelo://app?vid=cd0fcf25-e3a1-4578-b825-9b01814e142b","ios":"levelo://app?vid=cd0fcf25-e3a1-4578-b825-9b01814e142b"},"vehicle_type_id":"4","last_reported":1733130702,"current_range_meters":11600,"station_id":"ce4bhqh2rcd13ifvqhmg","pricing_plan_id":"cebpf4jnsgd1na2vs0mg"},{"bike_id":"c4971927-50ca-4e1a-ad6c-f3b5f3e20680","system_id":"levelo_inurba_marseille","lat":43.32051,"lon":5.41543,"is_reserved":false,"is_disabled":true,"rental_uris":{"android":"levelo://app?vid=c4971927-50ca-4e1a-ad6c-f3b5f3e20680","ios":"levelo://app?vid=c4971927-50ca-4e1a-ad6c-f3b5f3e20680"},"vehicle_type_id":"4","last_reported":1733130702,"current_range_meters":37600,"station_id":"ce4bhq92rcd13ifvqhkg","pricing_plan_id":"cebpf4jnsgd1na2vs0mg"},{"bike_id":"c8540c9d-7dc3-44fa-a0f8-7263d3d70bb8","system_id":"levelo_inurba_marseille","lat":43.24647,"lon":5.3889,"is_reserved":false,"is_disabled":true,"rental_uris":{"android":"levelo://app?vid=c8540c9d-7dc3-44fa-a0f8-7263d3d70bb8","ios":"levelo://app?vid=c8540c9d-7dc3-44fa-a0f8-7263d3d70bb8"},"vehicle_type_id":"4","last_reported":1733130702,"current_range_meters":0,"station_id":"ce4bhg12rcd13ifvqf60","pricing_plan_id":"cebpf4jnsgd1na2vs0mg"},{"bike_id":"cdce713c-d2bb-4090-b1fe-88d3d3d75fae","system_id":"levelo_inurba_marseille","lat":43.27842,"lon":5.39214,"is_reserved":false,"is_disabled":false,"rental_uris":{"android":"levelo://app?vid=cdce713c-d2bb-4090-b1fe-88d3d3d75fae","ios":"levelo://app?vid=cdce713c-d2bb-4090-b1fe-88d3d3d75fae"},"vehicle_type_id":"4","last_reported":1733130702,"current_range_meters":24800,"station_id":"ce4bhjp2rcd13ifvqga0","pricing_plan_id":"cebpf4jnsgd1na2vs0mg"},{"bike_id":"87a177cf-8a72-43d2-ad9b-470961f3e5dc","system_id":"levelo_inurba_marseille","lat":43.30005,"lon":5.37644,"is_reserved":false,"is_disabled":true,"rental_uris":{"android":"levelo://app?vid=87a177cf-8a72-43d2-ad9b-470961f3e5dc","ios":"levelo://app?vid=87a177cf-8a72-43d2-ad9b-470961f3e5dc"},"vehicle_type_id":"4","last_reported":1733130702,"current_range_meters":0,"station_id":"","pricing_plan_id":"cebpf4jnsgd1na2vs0mg"},{"bike_id":"f69d2d41-4498-4784-8438-c095e639684f","system_id":"levelo_inurba_marseille","lat":43.29762,"lon":5.3792,"is_reserved":false,"is_disabled":true,"rental_uris":{"android":"levelo://app?vid=f69d2d41-4498-4784-8438-c095e639684f","ios":"levelo://app?vid=f69d2d41-4498-4784-8438-c095e639684f"},"vehicle_type_id":"4","last_reported":1733130702,"current_range_meters":0,"station_id":"","pricing_plan_id":"cebpf4jnsgd1na2vs0mg"},{"bike_id":"b0bd4cdf-7308-45f0-8e99-a0d5811907ff","system_id":"levelo_inurba_marseille","lat":43.25438,"lon":5.38158,"is_reserved":false,"is_disabled":true,"rental_uris":{"android":"levelo://app?vid=b0bd4cdf-7308-45f0-8e99-a0d5811907ff","ios":"levelo://app?vid=b0bd4cdf-7308-45f0-8e99-a0d5811907ff"},"vehicle_type_id":"4","last_reported":1733130702,"current_range_meters":0,"station_id":"","pricing_plan_id":"cebpf4jnsgd1na2vs0mg"},{"bike_id":"13341a5c-709a-42b3-984a-1db82542f4c6","system_id":"levelo_inurba_marseille","lat":43.29881,"lon":5.40365,"is_reserved":false,"is_disabled":true,"rental_uris":{"android":"levelo://app?vid=13341a5c-709a-42b3-984a-1db82542f4c6","ios":"levelo://app?vid=13341a5c-709a-42b3-984a-1db82542f4c6"},"vehicle_type_id":"4","last_reported":1733130702,"current_range_meters":0,"station_id":"","pricing_plan_id":"cebpf4jnsgd1na2vs0mg"},{"bike_id":"8bcd172f-5475-4607-a4e7-44d7749b12a1","system_id":"levelo_inurba_marseille","lat":43.33733,"lon":5.39194,"is_reserved":false,"is_disabled":true,"rental_uris":{"android":"levelo://app?vid=8bcd172f-5475-4607-a4e7-44d7749b12a1","ios":"levelo://app?vid=8bcd172f-5475-4607-a4e7-44d7749b12a1"},"vehicle_type_id":"4","last_reported":1733130702,"current_range_meters":0,"station_id":"ce4bhr92rcd13ifvqhsg","pricing_plan_id":"cebpf4jnsgd1na2vs0mg"},{"bike_id":"dd2dacc9-c476-4299-b364-15e3af471c3b","system_id":"levelo_inurba_marseille","lat":43.28329,"lon":5.38096,"is_reserved":false,"is_disabled":false,"rental_uris":{"android":"levelo://app?vid=dd2dacc9-c476-4299-b364-15e3af471c3b","ios":"levelo://app?vid=dd2dacc9-c476-4299-b364-15e3af471c3b"},"vehicle_type_id":"4","last_reported":1733130702,"current_range_meters":28400,"station_id":"ce4bh412rcd13ifvqdr0","pricing_plan_id":"cebpf4jnsgd1na2vs0mg"},{"bike_id":"6f7949e1-de87-4a49-8620-fec27e04447f","system_id":"levelo_inurba_marseille","lat":43.33731,"lon":5.39196,"is_reserved":false,"is_disabled":false,"rental_uris":{"android":"levelo://app?vid=6f7949e1-de87-4a49-8620-fec27e04447f","ios":"levelo://app?vid=6f7949e1-de87-4a49-8620-fec27e04447f"},"vehicle_type_id":"4","last_reported":1733130702,"current_range_meters":19200,"station_id":"ce4bhr92rcd13ifvqhsg","pricing_plan_id":"cebpf4jnsgd1na2vs0mg"},{"bike_id":"c5e50867-7fea-4460-a24c-ff45f096d5fb","system_id":"levelo_inurba_marseille","lat":43.29036,"lon":5.39974,"is_reserved":false,"is_disabled":false,"rental_uris":{"android":"levelo://app?vid=c5e50867-7fea-4460-a24c-ff45f096d5fb","ios":"levelo://app?vid=c5e50867-7fea-4460-a24c-ff45f096d5fb"},"vehicle_type_id":"4","last_reported":1733130702,"current_range_meters":32000,"station_id":"ce4bh392rcd13ifvqdm0","pricing_plan_id":"cebpf4jnsgd1na2vs0mg"},{"bike_id":"39a4f230-2b4a-43d5-b832-65f8065979c8","system_id":"levelo_inurba_marseille","lat":43.25933,"lon":5.4091,"is_reserved":false,"is_disabled":true,"rental_uris":{"android":"levelo://app?vid=39a4f230-2b4a-43d5-b832-65f8065979c8","ios":"levelo://app?vid=39a4f230-2b4a-43d5-b832-65f8065979c8"},"vehicle_type_id":"4","last_reported":1733130702,"current_range_meters":31200,"station_id":"ce4bhm92rcd13ifvqglg","pricing_plan_id":"cebpf4jnsgd1na2vs0mg"},{"bike_id":"7066298c-8444-4dbb-8e5a-afa45f0890f5","system_id":"levelo_inurba_marseille","lat":43.288543,"lon":5.393237,"is_reserved":false,"is_disabled":false,"rental_uris":{"android":"levelo://app?vid=7066298c-8444-4dbb-8e5a-afa45f0890f5","ios":"levelo://app?vid=7066298c-8444-4dbb-8e5a-afa45f0890f5"},"vehicle_type_id":"4","last_reported":1733130702,"current_range_meters":4800,"station_id":"ce4bh2p2rcd13ifvqdi0","pricing_plan_id":"cebpf4jnsgd1na2vs0mg"},{"bike_id":"79da6e11-068f-4f85-891a-bf5d6033ae1b","system_id":"levelo_inurba_marseille","lat":43.291964,"lon":5.393173,"is_reserved":false,"is_disabled":true,"rental_uris":{"android":"levelo://app?vid=79da6e11-068f-4f85-891a-bf5d6033ae1b","ios":"levelo://app?vid=79da6e11-068f-4f85-891a-bf5d6033ae1b"},"vehicle_type_id":"4","last_reported":1733130702,"current_range_meters":13600,"station_id":"ce4bh192rcd13ifvqdd0","pricing_plan_id":"cebpf4jnsgd1na2vs0mg"},{"bike_id":"a11ec84b-4c39-41a3-8618-20d5e8ae2c31","system_id":"levelo_inurba_marseille","lat":43.30806,"lon":5.43522,"is_reserved":false,"is_disabled":true,"rental_uris":{"android":"levelo://app?vid=a11ec84b-4c39-41a3-8618-20d5e8ae2c31","ios":"levelo://app?vid=a11ec84b-4c39-41a3-8618-20d5e8ae2c31"},"vehicle_type_id":"4","last_reported":1733130702,"current_range_meters":15200,"station_id":"ce4bhph2rcd13ifvqheg","pricing_plan_id":"cebpf4jnsgd1na2vs0mg"},{"bike_id":"d470e05d-0917-48f8-8569-467bd0d66108","system_id":"levelo_inurba_marseille","lat":43.26498,"lon":5.39537,"is_reserved":false,"is_disabled":false,"rental_uris":{"android":"levelo://app?vid=d470e05d-0917-48f8-8569-467bd0d66108","ios":"levelo://app?vid=d470e05d-0917-48f8-8569-467bd0d66108"},"vehicle_type_id":"4","last_reported":1733130702,"current_range_meters":23200,"station_id":"ce4bhi12rcd13ifvqfq0","pricing_plan_id":"cebpf4jnsgd1na2vs0mg"},{"bike_id":"d8c0738f-3b57-4efa-a27b-af99b6076143","system_id":"levelo_inurba_marseille","lat":43.24066,"lon":5.3776,"is_reserved":false,"is_disabled":false,"rental_uris":{"android":"levelo://app?vid=d8c0738f-3b57-4efa-a27b-af99b6076143","ios":"levelo://app?vid=d8c0738f-3b57-4efa-a27b-af99b6076143"},"vehicle_type_id":"4","last_reported":1733130702,"current_range_meters":38800,"station_id":"ce4bhnp2rcd13ifvqgvg","pricing_plan_id":"cebpf4jnsgd1na2vs0mg"},{"bike_id":"2dcc4d7e-07bd-4653-baca-340e238b4d04","system_id":"levelo_inurba_marseille","lat":43.23963,"lon":5.36634,"is_reserved":false,"is_disabled":false,"rental_uris":{"android":"levelo://app?vid=2dcc4d7e-07bd-4653-baca-340e238b4d04","ios":"levelo://app?vid=2dcc4d7e-07bd-4653-baca-340e238b4d04"},"vehicle_type_id":"4","last_reported":1733130702,"current_range_meters":18800,"station_id":"ce4bhi12rcd13ifvqfp0","pricing_plan_id":"cebpf4jnsgd1na2vs0mg"},{"bike_id":"be267319-249f-4446-a02d-d1677f96c054","system_id":"levelo_inurba_marseille","lat":43.26954,"lon":5.38636,"is_reserved":false,"is_disabled":false,"rental_uris":{"android":"levelo://app?vid=be267319-249f-4446-a02d-d1677f96c054","ios":"levelo://app?vid=be267319-249f-4446-a02d-d1677f96c054"},"vehicle_type_id":"4","last_reported":1733130702,"current_range_meters":18000,"station_id":"ce4bhh92rcd13ifvqfh0","pricing_plan_id":"cebpf4jnsgd1na2vs0mg"},{"bike_id":"fa2dc7bb-12ec-4082-a039-9b1547b640e1","system_id":"levelo_inurba_marseille","lat":43.30535,"lon":5.36529,"is_reserved":false,"is_disabled":false,"rental_uris":{"android":"levelo://app?vid=fa2dc7bb-12ec-4082-a039-9b1547b640e1","ios":"levelo://app?vid=fa2dc7bb-12ec-4082-a039-9b1547b640e1"},"vehicle_type_id":"4","last_reported":1733130702,"current_range_meters":9200,"station_id":"ce4bgs12rcd13ifvqcag","pricing_plan_id":"cebpf4jnsgd1na2vs0mg"},{"bike_id":"d1c50b48-fcd0-4f08-b191-db96d4bc850e","system_id":"levelo_inurba_marseille","lat":43.25081,"lon":5.39524,"is_reserved":false,"is_disabled":false,"rental_uris":{"android":"levelo://app?vid=d1c50b48-fcd0-4f08-b191-db96d4bc850e","ios":"levelo://app?vid=d1c50b48-fcd0-4f08-b191-db96d4bc850e"},"vehicle_type_id":"4","last_reported":1733130702,"current_range_meters":17600,"station_id":"ce4bhm12rcd13ifvqgkg","pricing_plan_id":"cebpf4jnsgd1na2vs0mg"},{"bike_id":"32d55f99-0252-4be1-bce9-7a80f3291e5b","system_id":"levelo_inurba_marseille","lat":43.26684,"lon":5.38274,"is_reserved":false,"is_disabled":true,"rental_uris":{"android":"levelo://app?vid=32d55f99-0252-4be1-bce9-7a80f3291e5b","ios":"levelo://app?vid=32d55f99-0252-4be1-bce9-7a80f3291e5b"},"vehicle_type_id":"4","last_reported":1733130702,"current_range_meters":32000,"station_id":"ce4bhg92rcd13ifvqf90","pricing_plan_id":"cebpf4jnsgd1na2vs0mg"},{"bike_id":"06ff026d-0472-485b-af7f-31b0e650a412","system_id":"levelo_inurba_marseille","lat":43.323,"lon":5.37578,"is_reserved":false,"is_disabled":false,"rental_uris":{"android":"levelo://app?vid=06ff026d-0472-485b-af7f-31b0e650a412","ios":"levelo://app?vid=06ff026d-0472-485b-af7f-31b0e650a412"},"vehicle_type_id":"4","last_reported":1733130702,"current_range_meters":19600,"station_id":"","pricing_plan_id":"cebpf4jnsgd1na2vs0mg"},{"bike_id":"b21a483f-dc26-4691-bf45-9187cafb2ea2","system_id":"levelo_inurba_marseille","lat":43.27941,"lon":5.4105,"is_reserved":false,"is_disabled":false,"rental_uris":{"android":"levelo://app?vid=b21a483f-dc26-4691-bf45-9187cafb2ea2","ios":"levelo://app?vid=b21a483f-dc26-4691-bf45-9187cafb2ea2"},"vehicle_type_id":"4","last_reported":1733130702,"current_range_meters":38000,"station_id":"ce4bhnp2rcd13ifvqh0g","pricing_plan_id":"cebpf4jnsgd1na2vs0mg"},{"bike_id":"cdaf7433-6ac4-4b01-9190-e4e762fd7b17","system_id":"levelo_inurba_marseille","lat":43.33765,"lon":5.37428,"is_reserved":false,"is_disabled":false,"rental_uris":{"android":"levelo://app?vid=cdaf7433-6ac4-4b01-9190-e4e762fd7b17","ios":"levelo://app?vid=cdaf7433-6ac4-4b01-9190-e4e762fd7b17"},"vehicle_type_id":"4","last_reported":1733130702,"current_range_meters":38400,"station_id":"","pricing_plan_id":"cebpf4jnsgd1na2vs0mg"},{"bike_id":"54cccd4a-a19f-44b6-ae94-8ae9aca4bbc2","system_id":"levelo_inurba_marseille","lat":43.28995,"lon":5.35633,"is_reserved":false,"is_disabled":true,"rental_uris":{"android":"levelo://app?vid=54cccd4a-a19f-44b6-ae94-8ae9aca4bbc2","ios":"levelo://app?vid=54cccd4a-a19f-44b6-ae94-8ae9aca4bbc2"},"vehicle_type_id":"4","last_reported":1733130702,"current_range_meters":32000,"station_id":"ce4bhb92rcd13ifvqen0","pricing_plan_id":"cebpf4jnsgd1na2vs0mg"},{"bike_id":"357ef898-2894-46ae-af63-fe45f3eba46b","system_id":"levelo_inurba_marseille","lat":43.30304,"lon":5.39216,"is_reserved":false,"is_disabled":false,"rental_uris":{"android":"levelo://app?vid=357ef898-2894-46ae-af63-fe45f3eba46b","ios":"levelo://app?vid=357ef898-2894-46ae-af63-fe45f3eba46b"},"vehicle_type_id":"4","last_reported":1733130702,"current_range_meters":18800,"station_id":"ce4bgkh2rcd13ifvqbk0","pricing_plan_id":"cebpf4jnsgd1na2vs0mg"},{"bike_id":"3d2ba72b-35bb-430e-bd18-9f0b1c0c3094","system_id":"levelo_inurba_marseille","lat":43.30432,"lon":5.38898,"is_reserved":false,"is_disabled":false,"rental_uris":{"android":"levelo://app?vid=3d2ba72b-35bb-430e-bd18-9f0b1c0c3094","ios":"levelo://app?vid=3d2ba72b-35bb-430e-bd18-9f0b1c0c3094"},"vehicle_type_id":"4","last_reported":1733130702,"current_range_meters":38800,"station_id":"ce4bgk12rcd13ifvqbi0","pricing_plan_id":"cebpf4jnsgd1na2vs0mg"},{"bike_id":"7ed2229e-6e77-42d8-826e-e15ec9f33077","system_id":"levelo_inurba_marseille","lat":43.26677,"lon":5.3827,"is_reserved":false,"is_disabled":true,"rental_uris":{"android":"levelo://app?vid=7ed2229e-6e77-42d8-826e-e15ec9f33077","ios":"levelo://app?vid=7ed2229e-6e77-42d8-826e-e15ec9f33077"},"vehicle_type_id":"4","last_reported":1733130702,"current_range_meters":12000,"station_id":"ce4bhg92rcd13ifvqf90","pricing_plan_id":"cebpf4jnsgd1na2vs0mg"},{"bike_id":"849243d1-cb60-4a14-b814-dd489df488d8","system_id":"levelo_inurba_marseille","lat":43.26677,"lon":5.38267,"is_reserved":false,"is_disabled":false,"rental_uris":{"android":"levelo://app?vid=849243d1-cb60-4a14-b814-dd489df488d8","ios":"levelo://app?vid=849243d1-cb60-4a14-b814-dd489df488d8"},"vehicle_type_id":"4","last_reported":1733130702,"current_range_meters":22400,"station_id":"ce4bhg92rcd13ifvqf90","pricing_plan_id":"cebpf4jnsgd1na2vs0mg"},{"bike_id":"64cbfd6a-4a4e-4d37-982c-18402a201eee","system_id":"levelo_inurba_marseille","lat":43.28663,"lon":5.36356,"is_reserved":false,"is_disabled":true,"rental_uris":{"android":"levelo://app?vid=64cbfd6a-4a4e-4d37-982c-18402a201eee","ios":"levelo://app?vid=64cbfd6a-4a4e-4d37-982c-18402a201eee"},"vehicle_type_id":"4","last_reported":1733130702,"current_range_meters":10800,"station_id":"ce4bhah2rcd13ifvqej0","pricing_plan_id":"cebpf4jnsgd1na2vs0mg"},{"bike_id":"abc1476c-a7e0-42d6-a54c-ef07025d3129","system_id":"levelo_inurba_marseille","lat":43.27499,"lon":5.42457,"is_reserved":false,"is_disabled":false,"rental_uris":{"android":"levelo://app?vid=abc1476c-a7e0-42d6-a54c-ef07025d3129","ios":"levelo://app?vid=abc1476c-a7e0-42d6-a54c-ef07025d3129"},"vehicle_type_id":"4","last_reported":1733130702,"current_range_meters":25200,"station_id":"ce4bhn92rcd13ifvqgrg","pricing_plan_id":"cebpf4jnsgd1na2vs0mg"},{"bike_id":"5ddfa011-d975-41ac-ab06-32125b62100c","system_id":"levelo_inurba_marseille","lat":43.28405,"lon":5.37511,"is_reserved":false,"is_disabled":true,"rental_uris":{"android":"levelo://app?vid=5ddfa011-d975-41ac-ab06-32125b62100c","ios":"levelo://app?vid=5ddfa011-d975-41ac-ab06-32125b62100c"},"vehicle_type_id":"4","last_reported":1733130702,"current_range_meters":29600,"station_id":"ce4bh412rcd13ifvqds0","pricing_plan_id":"cebpf4jnsgd1na2vs0mg"},{"bike_id":"aed17666-490a-428c-9273-cbfba3e6a2e4","system_id":"levelo_inurba_marseille","lat":43.27617,"lon":5.36112,"is_reserved":false,"is_disabled":false,"rental_uris":{"android":"levelo://app?vid=aed17666-490a-428c-9273-cbfba3e6a2e4","ios":"levelo://app?vid=aed17666-490a-428c-9273-cbfba3e6a2e4"},"vehicle_type_id":"4","last_reported":1733130702,"current_range_meters":38000,"station_id":"ce4bgj92rcd13ifvqbe0","pricing_plan_id":"cebpf4jnsgd1na2vs0mg"},{"bike_id":"8e9f9271-edc0-4106-b20d-0b5360845399","system_id":"levelo_inurba_marseille","lat":43.30423,"lon":5.41293,"is_reserved":false,"is_disabled":false,"rental_uris":{"android":"levelo://app?vid=8e9f9271-edc0-4106-b20d-0b5360845399","ios":"levelo://app?vid=8e9f9271-edc0-4106-b20d-0b5360845399"},"vehicle_type_id":"4","last_reported":1733130702,"current_range_meters":14000,"station_id":"ce4bhop2rcd13ifvqh8g","pricing_plan_id":"cebpf4jnsgd1na2vs0mg"},{"bike_id":"209c0815-1137-465b-b0d6-13fcf1b7a485","system_id":"levelo_inurba_marseille","lat":43.29572,"lon":5.4228,"is_reserved":false,"is_disabled":false,"rental_uris":{"android":"levelo://app?vid=209c0815-1137-465b-b0d6-13fcf1b7a485","ios":"levelo://app?vid=209c0815-1137-465b-b0d6-13fcf1b7a485"},"vehicle_type_id":"4","last_reported":1733130702,"current_range_meters":38800,"station_id":"ce4bhph2rcd13ifvqhdg","pricing_plan_id":"cebpf4jnsgd1na2vs0mg"},{"bike_id":"c977db6b-9a6d-42ae-ad36-017d36ec8f77","system_id":"levelo_inurba_marseille","lat":43.24074,"lon":5.3776,"is_reserved":false,"is_disabled":false,"rental_uris":{"android":"levelo://app?vid=c977db6b-9a6d-42ae-ad36-017d36ec8f77","ios":"levelo://app?vid=c977db6b-9a6d-42ae-ad36-017d36ec8f77"},"vehicle_type_id":"4","last_reported":1733130702,"current_range_meters":29600,"station_id":"ce4bhnp2rcd13ifvqgvg","pricing_plan_id":"cebpf4jnsgd1na2vs0mg"},{"bike_id":"95c98dc0-e590-407f-91f9-1fb2b136e289","system_id":"levelo_inurba_marseille","lat":43.33605,"lon":5.41023,"is_reserved":false,"is_disabled":false,"rental_uris":{"android":"levelo://app?vid=95c98dc0-e590-407f-91f9-1fb2b136e289","ios":"levelo://app?vid=95c98dc0-e590-407f-91f9-1fb2b136e289"},"vehicle_type_id":"4","last_reported":1733130702,"current_range_meters":12800,"station_id":"ce4bhqh2rcd13ifvqhmg","pricing_plan_id":"cebpf4jnsgd1na2vs0mg"},{"bike_id":"566a54e6-e9ce-4b3d-8c45-09102737b454","system_id":"levelo_inurba_marseille","lat":43.2984,"lon":5.36267,"is_reserved":false,"is_disabled":false,"rental_uris":{"android":"levelo://app?vid=566a54e6-e9ce-4b3d-8c45-09102737b454","ios":"levelo://app?vid=566a54e6-e9ce-4b3d-8c45-09102737b454"},"vehicle_type_id":"4","last_reported":1733130702,"current_range_meters":19200,"station_id":"ce4bgpp2rcd13ifvqc3g","pricing_plan_id":"cebpf4jnsgd1na2vs0mg"},{"bike_id":"67fa2a9e-eed8-4ed6-bdd8-7d1023a52b4e","system_id":"levelo_inurba_marseille","lat":43.26937,"lon":5.38922,"is_reserved":false,"is_disabled":true,"rental_uris":{"android":"levelo://app?vid=67fa2a9e-eed8-4ed6-bdd8-7d1023a52b4e","ios":"levelo://app?vid=67fa2a9e-eed8-4ed6-bdd8-7d1023a52b4e"},"vehicle_type_id":"4","last_reported":1733130702,"current_range_meters":400,"station_id":"ce4bhhh2rcd13ifvqfl0","pricing_plan_id":"cebpf4jnsgd1na2vs0mg"},{"bike_id":"9ede1e5d-e5ec-4038-b7ee-c0df2a84fa3a","system_id":"levelo_inurba_marseille","lat":43.23184,"lon":5.39993,"is_reserved":false,"is_disabled":false,"rental_uris":{"android":"levelo://app?vid=9ede1e5d-e5ec-4038-b7ee-c0df2a84fa3a","ios":"levelo://app?vid=9ede1e5d-e5ec-4038-b7ee-c0df2a84fa3a"},"vehicle_type_id":"4","last_reported":1733130702,"current_range_meters":18000,"station_id":"ce4bhn12rcd13ifvqgqg","pricing_plan_id":"cebpf4jnsgd1na2vs0mg"},{"bike_id":"d7935a4e-3fa9-4259-9e60-39bc0ad852e1","system_id":"levelo_inurba_marseille","lat":43.29552,"lon":5.42286,"is_reserved":false,"is_disabled":false,"rental_uris":{"android":"levelo://app?vid=d7935a4e-3fa9-4259-9e60-39bc0ad852e1","ios":"levelo://app?vid=d7935a4e-3fa9-4259-9e60-39bc0ad852e1"},"vehicle_type_id":"4","last_reported":1733130702,"current_range_meters":38800,"station_id":"ce4bhph2rcd13ifvqhdg","pricing_plan_id":"cebpf4jnsgd1na2vs0mg"},{"bike_id":"2e78ca5f-ab85-4c6b-a7c1-d21756dc944c","system_id":"levelo_inurba_marseille","lat":43.30951,"lon":5.39044,"is_reserved":false,"is_disabled":false,"rental_uris":{"android":"levelo://app?vid=2e78ca5f-ab85-4c6b-a7c1-d21756dc944c","ios":"levelo://app?vid=2e78ca5f-ab85-4c6b-a7c1-d21756dc944c"},"vehicle_type_id":"4","last_reported":1733130702,"current_range_meters":32800,"station_id":"ce4bgup2rcd13ifvqco0","pricing_plan_id":"cebpf4jnsgd1na2vs0mg"},{"bike_id":"10452aff-c918-4cc1-8ca4-e7a3e615f145","system_id":"levelo_inurba_marseille","lat":43.2981,"lon":5.40409,"is_reserved":false,"is_disabled":false,"rental_uris":{"android":"levelo://app?vid=10452aff-c918-4cc1-8ca4-e7a3e615f145","ios":"levelo://app?vid=10452aff-c918-4cc1-8ca4-e7a3e615f145"},"vehicle_type_id":"4","last_reported":1733130702,"current_range_meters":8000,"station_id":"ce4bh112rcd13ifvqd90","pricing_plan_id":"cebpf4jnsgd1na2vs0mg"},{"bike_id":"b738978a-dbfa-4e67-b27e-e048ecdddb9d","system_id":"levelo_inurba_marseille","lat":43.29971,"lon":5.38479,"is_reserved":false,"is_disabled":false,"rental_uris":{"android":"levelo://app?vid=b738978a-dbfa-4e67-b27e-e048ecdddb9d","ios":"levelo://app?vid=b738978a-dbfa-4e67-b27e-e048ecdddb9d"},"vehicle_type_id":"4","last_reported":1733130702,"current_range_meters":38800,"station_id":"ce4bgj92rcd13ifvqbd0","pricing_plan_id":"cebpf4jnsgd1na2vs0mg"},{"bike_id":"4fb36359-4540-4a72-9569-1ea1bd036d9c","system_id":"levelo_inurba_marseille","lat":43.2396,"lon":5.36636,"is_reserved":false,"is_disabled":false,"rental_uris":{"android":"levelo://app?vid=4fb36359-4540-4a72-9569-1ea1bd036d9c","ios":"levelo://app?vid=4fb36359-4540-4a72-9569-1ea1bd036d9c"},"vehicle_type_id":"4","last_reported":1733130702,"current_range_meters":38800,"station_id":"ce4bhi12rcd13ifvqfp0","pricing_plan_id":"cebpf4jnsgd1na2vs0mg"},{"bike_id":"fee40e4a-edf0-429c-9838-5fd8b4a4fd95","system_id":"levelo_inurba_marseille","lat":43.2973,"lon":5.37421,"is_reserved":false,"is_disabled":true,"rental_uris":{"android":"levelo://app?vid=fee40e4a-edf0-429c-9838-5fd8b4a4fd95","ios":"levelo://app?vid=fee40e4a-edf0-429c-9838-5fd8b4a4fd95"},"vehicle_type_id":"4","last_reported":1733130702,"current_range_meters":0,"station_id":"","pricing_plan_id":"cebpf4jnsgd1na2vs0mg"},{"bike_id":"5f446665-68b2-471e-ad23-99ef1c557d6c","system_id":"levelo_inurba_marseille","lat":43.32542,"lon":5.41442,"is_reserved":false,"is_disabled":false,"rental_uris":{"android":"levelo://app?vid=5f446665-68b2-471e-ad23-99ef1c557d6c","ios":"levelo://app?vid=5f446665-68b2-471e-ad23-99ef1c557d6c"},"vehicle_type_id":"4","last_reported":1733130702,"current_range_meters":36800,"station_id":"ce4bhq12rcd13ifvqhhg","pricing_plan_id":"cebpf4jnsgd1na2vs0mg"},{"bike_id":"74b5679f-12e8-4f95-852c-9f7ff4024dca","system_id":"levelo_inurba_marseille","lat":43.23155,"lon":5.43707,"is_reserved":false,"is_disabled":false,"rental_uris":{"android":"levelo://app?vid=74b5679f-12e8-4f95-852c-9f7ff4024dca","ios":"levelo://app?vid=74b5679f-12e8-4f95-852c-9f7ff4024dca"},"vehicle_type_id":"4","last_reported":1733130702,"current_range_meters":17200,"station_id":"ce4bhmp2rcd13ifvqgog","pricing_plan_id":"cebpf4jnsgd1na2vs0mg"},{"bike_id":"0368178a-5014-405a-80b6-f910fe9fa63a","system_id":"levelo_inurba_marseille","lat":43.28452,"lon":5.35896,"is_reserved":false,"is_disabled":true,"rental_uris":{"android":"levelo://app?vid=0368178a-5014-405a-80b6-f910fe9fa63a","ios":"levelo://app?vid=0368178a-5014-405a-80b6-f910fe9fa63a"},"vehicle_type_id":"4","last_reported":1733130702,"current_range_meters":28000,"station_id":"ce4bhah2rcd13ifvqei0","pricing_plan_id":"cebpf4jnsgd1na2vs0mg"},{"bike_id":"45c95cf3-1aa9-4af9-a9a3-7dba50ecc20e","system_id":"levelo_inurba_marseille","lat":43.27447,"lon":5.40722,"is_reserved":false,"is_disabled":false,"rental_uris":{"android":"levelo://app?vid=45c95cf3-1aa9-4af9-a9a3-7dba50ecc20e","ios":"levelo://app?vid=45c95cf3-1aa9-4af9-a9a3-7dba50ecc20e"},"vehicle_type_id":"4","last_reported":1733130702,"current_range_meters":14400,"station_id":"","pricing_plan_id":"cebpf4jnsgd1na2vs0mg"},{"bike_id":"bc749360-3ce4-4dd6-a0ac-83aa82c323a7","system_id":"levelo_inurba_marseille","lat":43.28153,"lon":5.42635,"is_reserved":false,"is_disabled":false,"rental_uris":{"android":"levelo://app?vid=bc749360-3ce4-4dd6-a0ac-83aa82c323a7","ios":"levelo://app?vid=bc749360-3ce4-4dd6-a0ac-83aa82c323a7"},"vehicle_type_id":"4","last_reported":1733130702,"current_range_meters":26000,"station_id":"ce4bhnh2rcd13ifvqgug","pricing_plan_id":"cebpf4jnsgd1na2vs0mg"},{"bike_id":"4d4c884f-6933-49c0-8899-f9856d90f44d","system_id":"levelo_inurba_marseille","lat":43.29748,"lon":5.37971,"is_reserved":false,"is_disabled":true,"rental_uris":{"android":"levelo://app?vid=4d4c884f-6933-49c0-8899-f9856d90f44d","ios":"levelo://app?vid=4d4c884f-6933-49c0-8899-f9856d90f44d"},"vehicle_type_id":"4","last_reported":1733130702,"current_range_meters":0,"station_id":"","pricing_plan_id":"cebpf4jnsgd1na2vs0mg"},{"bike_id":"49383f8c-5e0c-4bb5-aa2b-e1c81f4536f3","system_id":"levelo_inurba_marseille","lat":43.32291,"lon":5.38262,"is_reserved":false,"is_disabled":false,"rental_uris":{"android":"levelo://app?vid=49383f8c-5e0c-4bb5-aa2b-e1c81f4536f3","ios":"levelo://app?vid=49383f8c-5e0c-4bb5-aa2b-e1c81f4536f3"},"vehicle_type_id":"4","last_reported":1733130702,"current_range_meters":20000,"station_id":"ce4bhr12rcd13ifvqhqg","pricing_plan_id":"cebpf4jnsgd1na2vs0mg"},{"bike_id":"2e659c79-846b-48b6-891e-666534577ff2","system_id":"levelo_inurba_marseille","lat":43.29599,"lon":5.3773,"is_reserved":false,"is_disabled":false,"rental_uris":{"android":"levelo://app?vid=2e659c79-846b-48b6-891e-666534577ff2","ios":"levelo://app?vid=2e659c79-846b-48b6-891e-666534577ff2"},"vehicle_type_id":"4","last_reported":1733130702,"current_range_meters":28000,"station_id":"ce4bgi92rcd13ifvqb90","pricing_plan_id":"cebpf4jnsgd1na2vs0mg"},{"bike_id":"362acf97-9e8f-4c3e-8574-4958ae2ff74f","system_id":"levelo_inurba_marseille","lat":43.26245,"lon":5.42128,"is_reserved":false,"is_disabled":false,"rental_uris":{"android":"levelo://app?vid=362acf97-9e8f-4c3e-8574-4958ae2ff74f","ios":"levelo://app?vid=362acf97-9e8f-4c3e-8574-4958ae2ff74f"},"vehicle_type_id":"4","last_reported":1733130702,"current_range_meters":24800,"station_id":"","pricing_plan_id":"cebpf4jnsgd1na2vs0mg"},{"bike_id":"0f5fbce9-146c-49c4-8788-16d1a8f4deb0","system_id":"levelo_inurba_marseille","lat":43.30286,"lon":5.365968,"is_reserved":false,"is_disabled":true,"rental_uris":{"android":"levelo://app?vid=0f5fbce9-146c-49c4-8788-16d1a8f4deb0","ios":"levelo://app?vid=0f5fbce9-146c-49c4-8788-16d1a8f4deb0"},"vehicle_type_id":"4","last_reported":1733130702,"current_range_meters":0,"station_id":"","pricing_plan_id":"cebpf4jnsgd1na2vs0mg"},{"bike_id":"f070b46f-f295-4869-946e-332934d2e60a","system_id":"levelo_inurba_marseille","lat":43.22927,"lon":5.35378,"is_reserved":false,"is_disabled":false,"rental_uris":{"android":"levelo://app?vid=f070b46f-f295-4869-946e-332934d2e60a","ios":"levelo://app?vid=f070b46f-f295-4869-946e-332934d2e60a"},"vehicle_type_id":"4","last_reported":1733130702,"current_range_meters":36800,"station_id":"cpo3532slgdg3j2ikp40","pricing_plan_id":"cebpf4jnsgd1na2vs0mg"},{"bike_id":"0df3a188-afb8-4aa7-a10d-8141326d33b1","system_id":"levelo_inurba_marseille","lat":43.25932,"lon":5.40913,"is_reserved":false,"is_disabled":true,"rental_uris":{"android":"levelo://app?vid=0df3a188-afb8-4aa7-a10d-8141326d33b1","ios":"levelo://app?vid=0df3a188-afb8-4aa7-a10d-8141326d33b1"},"vehicle_type_id":"4","last_reported":1733130702,"current_range_meters":9600,"station_id":"ce4bhm92rcd13ifvqglg","pricing_plan_id":"cebpf4jnsgd1na2vs0mg"},{"bike_id":"4d430e73-ba33-45b8-8f85-205a09424c89","system_id":"levelo_inurba_marseille","lat":43.31348,"lon":5.36718,"is_reserved":false,"is_disabled":false,"rental_uris":{"android":"levelo://app?vid=4d430e73-ba33-45b8-8f85-205a09424c89","ios":"levelo://app?vid=4d430e73-ba33-45b8-8f85-205a09424c89"},"vehicle_type_id":"4","last_reported":1733130702,"current_range_meters":21600,"station_id":"ce4bgr92rcd13ifvqc6g","pricing_plan_id":"cebpf4jnsgd1na2vs0mg"},{"bike_id":"b7b33697-14a7-4110-9b8b-4194e6ef5f3f","system_id":"levelo_inurba_marseille","lat":43.27277,"lon":5.39192,"is_reserved":false,"is_disabled":true,"rental_uris":{"android":"levelo://app?vid=b7b33697-14a7-4110-9b8b-4194e6ef5f3f","ios":"levelo://app?vid=b7b33697-14a7-4110-9b8b-4194e6ef5f3f"},"vehicle_type_id":"4","last_reported":1733130702,"current_range_meters":0,"station_id":"","pricing_plan_id":"cebpf4jnsgd1na2vs0mg"},{"bike_id":"ac49fba4-30df-4893-b052-7d9d76fd86a2","system_id":"levelo_inurba_marseille","lat":43.29249,"lon":5.38432,"is_reserved":false,"is_disabled":true,"rental_uris":{"android":"levelo://app?vid=ac49fba4-30df-4893-b052-7d9d76fd86a2","ios":"levelo://app?vid=ac49fba4-30df-4893-b052-7d9d76fd86a2"},"vehicle_type_id":"4","last_reported":1733130702,"current_range_meters":8400,"station_id":"ce4bh692rcd13ifvqea0","pricing_plan_id":"cebpf4jnsgd1na2vs0mg"},{"bike_id":"da786c18-1732-48a5-8a36-44fffcc9890b","system_id":"levelo_inurba_marseille","lat":43.3053,"lon":5.3654,"is_reserved":false,"is_disabled":false,"rental_uris":{"android":"levelo://app?vid=da786c18-1732-48a5-8a36-44fffcc9890b","ios":"levelo://app?vid=da786c18-1732-48a5-8a36-44fffcc9890b"},"vehicle_type_id":"4","last_reported":1733130702,"current_range_meters":32400,"station_id":"ce4bgs12rcd13ifvqcag","pricing_plan_id":"cebpf4jnsgd1na2vs0mg"},{"bike_id":"a3d540a5-c9e8-4c92-9399-ec0baac57a71","system_id":"levelo_inurba_marseille","lat":43.29534,"lon":5.38545,"is_reserved":false,"is_disabled":true,"rental_uris":{"android":"levelo://app?vid=a3d540a5-c9e8-4c92-9399-ec0baac57a71","ios":"levelo://app?vid=a3d540a5-c9e8-4c92-9399-ec0baac57a71"},"vehicle_type_id":"4","last_reported":1733130702,"current_range_meters":0,"station_id":"ce4bgih2rcd13ifvqba0","pricing_plan_id":"cebpf4jnsgd1na2vs0mg"},{"bike_id":"fb1bfb20-15f7-43ae-bb28-89faf3b6ecde","system_id":"levelo_inurba_marseille","lat":43.26949,"lon":5.38632,"is_reserved":false,"is_disabled":false,"rental_uris":{"android":"levelo://app?vid=fb1bfb20-15f7-43ae-bb28-89faf3b6ecde","ios":"levelo://app?vid=fb1bfb20-15f7-43ae-bb28-89faf3b6ecde"},"vehicle_type_id":"4","last_reported":1733130702,"current_range_meters":39200,"station_id":"ce4bhh92rcd13ifvqfh0","pricing_plan_id":"cebpf4jnsgd1na2vs0mg"},{"bike_id":"c70bed4a-03c3-4d48-9d9d-f10e1949ee20","system_id":"levelo_inurba_marseille","lat":43.25009,"lon":5.38927,"is_reserved":false,"is_disabled":false,"rental_uris":{"android":"levelo://app?vid=c70bed4a-03c3-4d48-9d9d-f10e1949ee20","ios":"levelo://app?vid=c70bed4a-03c3-4d48-9d9d-f10e1949ee20"},"vehicle_type_id":"4","last_reported":1733130702,"current_range_meters":40000,"station_id":"ce4bhgp2rcd13ifvqfd0","pricing_plan_id":"cebpf4jnsgd1na2vs0mg"},{"bike_id":"4168b43c-3049-46dc-94dd-a599091d3594","system_id":"levelo_inurba_marseille","lat":43.30909,"lon":5.36853,"is_reserved":false,"is_disabled":false,"rental_uris":{"android":"levelo://app?vid=4168b43c-3049-46dc-94dd-a599091d3594","ios":"levelo://app?vid=4168b43c-3049-46dc-94dd-a599091d3594"},"vehicle_type_id":"4","last_reported":1733130702,"current_range_meters":39200,"station_id":"ce4bgn92rcd13ifvqbvg","pricing_plan_id":"cebpf4jnsgd1na2vs0mg"},{"bike_id":"3abdb507-aca9-41cf-ab5c-c13fb795c3a0","system_id":"levelo_inurba_marseille","lat":43.28417,"lon":5.34983,"is_reserved":false,"is_disabled":true,"rental_uris":{"android":"levelo://app?vid=3abdb507-aca9-41cf-ab5c-c13fb795c3a0","ios":"levelo://app?vid=3abdb507-aca9-41cf-ab5c-c13fb795c3a0"},"vehicle_type_id":"4","last_reported":1733130702,"current_range_meters":0,"station_id":"ce4bhbh2rcd13ifvqepg","pricing_plan_id":"cebpf4jnsgd1na2vs0mg"},{"bike_id":"0c75325c-958e-45f7-89d5-8bf413dd17d1","system_id":"levelo_inurba_marseille","lat":43.300093,"lon":5.382787,"is_reserved":false,"is_disabled":true,"rental_uris":{"android":"levelo://app?vid=0c75325c-958e-45f7-89d5-8bf413dd17d1","ios":"levelo://app?vid=0c75325c-958e-45f7-89d5-8bf413dd17d1"},"vehicle_type_id":"4","last_reported":1733130702,"current_range_meters":0,"station_id":"","pricing_plan_id":"cebpf4jnsgd1na2vs0mg"},{"bike_id":"ac6227b0-4537-4e38-93b3-d0e01fa3ff1c","system_id":"levelo_inurba_marseille","lat":43.3012,"lon":5.38782,"is_reserved":false,"is_disabled":true,"rental_uris":{"android":"levelo://app?vid=ac6227b0-4537-4e38-93b3-d0e01fa3ff1c","ios":"levelo://app?vid=ac6227b0-4537-4e38-93b3-d0e01fa3ff1c"},"vehicle_type_id":"4","last_reported":1733130702,"current_range_meters":35600,"station_id":"ce4bghh2rcd13ifvqb60","pricing_plan_id":"cebpf4jnsgd1na2vs0mg"},{"bike_id":"6c3b4431-ca2c-4347-a6db-d1e4dee15e08","system_id":"levelo_inurba_marseille","lat":43.27495,"lon":5.4245,"is_reserved":false,"is_disabled":false,"rental_uris":{"android":"levelo://app?vid=6c3b4431-ca2c-4347-a6db-d1e4dee15e08","ios":"levelo://app?vid=6c3b4431-ca2c-4347-a6db-d1e4dee15e08"},"vehicle_type_id":"4","last_reported":1733130702,"current_range_meters":25600,"station_id":"ce4bhn92rcd13ifvqgrg","pricing_plan_id":"cebpf4jnsgd1na2vs0mg"},{"bike_id":"3e7b4b23-6031-4448-8da9-17647584ad72","system_id":"levelo_inurba_marseille","lat":43.290649,"lon":5.371566,"is_reserved":false,"is_disabled":true,"rental_uris":{"android":"levelo://app?vid=3e7b4b23-6031-4448-8da9-17647584ad72","ios":"levelo://app?vid=3e7b4b23-6031-4448-8da9-17647584ad72"},"vehicle_type_id":"4","last_reported":1733130702,"current_range_meters":28000,"station_id":"ce4bh5p2rcd13ifvqe4g","pricing_plan_id":"cebpf4jnsgd1na2vs0mg"},{"bike_id":"3d96e4cf-132f-4ce8-a58b-ab8f820b5d1e","system_id":"levelo_inurba_marseille","lat":43.29297,"lon":5.37159,"is_reserved":false,"is_disabled":false,"rental_uris":{"android":"levelo://app?vid=3d96e4cf-132f-4ce8-a58b-ab8f820b5d1e","ios":"levelo://app?vid=3d96e4cf-132f-4ce8-a58b-ab8f820b5d1e"},"vehicle_type_id":"4","last_reported":1733130702,"current_range_meters":18000,"station_id":"ce4bgh92rcd13ifvqb40","pricing_plan_id":"cebpf4jnsgd1na2vs0mg"},{"bike_id":"314d1365-c0f9-4b36-8299-e279909a774d","system_id":"levelo_inurba_marseille","lat":43.31214,"lon":5.36859,"is_reserved":false,"is_disabled":true,"rental_uris":{"android":"levelo://app?vid=314d1365-c0f9-4b36-8299-e279909a774d","ios":"levelo://app?vid=314d1365-c0f9-4b36-8299-e279909a774d"},"vehicle_type_id":"4","last_reported":1733130702,"current_range_meters":0,"station_id":"ce4bgl92rcd13ifvqbq0","pricing_plan_id":"cebpf4jnsgd1na2vs0mg"},{"bike_id":"539c7285-05dd-4c53-aa65-8fa16ef0ea68","system_id":"levelo_inurba_marseille","lat":43.23149,"lon":5.43707,"is_reserved":false,"is_disabled":false,"rental_uris":{"android":"levelo://app?vid=539c7285-05dd-4c53-aa65-8fa16ef0ea68","ios":"levelo://app?vid=539c7285-05dd-4c53-aa65-8fa16ef0ea68"},"vehicle_type_id":"4","last_reported":1733130702,"current_range_meters":38000,"station_id":"ce4bhmp2rcd13ifvqgog","pricing_plan_id":"cebpf4jnsgd1na2vs0mg"},{"bike_id":"8e126d5e-9202-4d02-9b96-07562eaa0d7f","system_id":"levelo_inurba_marseille","lat":43.3372,"lon":5.39178,"is_reserved":false,"is_disabled":true,"rental_uris":{"android":"levelo://app?vid=8e126d5e-9202-4d02-9b96-07562eaa0d7f","ios":"levelo://app?vid=8e126d5e-9202-4d02-9b96-07562eaa0d7f"},"vehicle_type_id":"4","last_reported":1733130702,"current_range_meters":22000,"station_id":"ce4bhr92rcd13ifvqhsg","pricing_plan_id":"cebpf4jnsgd1na2vs0mg"},{"bike_id":"cd8cc499-deb6-4097-9823-c7ccf6d23d4f","system_id":"levelo_inurba_marseille","lat":43.28027,"lon":5.36947,"is_reserved":false,"is_disabled":true,"rental_uris":{"android":"levelo://app?vid=cd8cc499-deb6-4097-9823-c7ccf6d23d4f","ios":"levelo://app?vid=cd8cc499-deb6-4097-9823-c7ccf6d23d4f"},"vehicle_type_id":"4","last_reported":1733130702,"current_range_meters":0,"station_id":"ce4bha12rcd13ifvqef0","pricing_plan_id":"cebpf4jnsgd1na2vs0mg"},{"bike_id":"381cf18a-abd8-44c8-9f7c-661b9e9fcb25","system_id":"levelo_inurba_marseille","lat":43.24651,"lon":5.38892,"is_reserved":false,"is_disabled":false,"rental_uris":{"android":"levelo://app?vid=381cf18a-abd8-44c8-9f7c-661b9e9fcb25","ios":"levelo://app?vid=381cf18a-abd8-44c8-9f7c-661b9e9fcb25"},"vehicle_type_id":"4","last_reported":1733130702,"current_range_meters":30800,"station_id":"ce4bhg12rcd13ifvqf60","pricing_plan_id":"cebpf4jnsgd1na2vs0mg"},{"bike_id":"76294a9c-08f9-4708-901f-b4f2b03cccaf","system_id":"levelo_inurba_marseille","lat":43.28615,"lon":5.35103,"is_reserved":false,"is_disabled":true,"rental_uris":{"android":"levelo://app?vid=76294a9c-08f9-4708-901f-b4f2b03cccaf","ios":"levelo://app?vid=76294a9c-08f9-4708-901f-b4f2b03cccaf"},"vehicle_type_id":"4","last_reported":1733130702,"current_range_meters":37600,"station_id":"ce4bhch2rcd13ifvqeug","pricing_plan_id":"cebpf4jnsgd1na2vs0mg"},{"bike_id":"064861a6-5a15-4e22-bc40-26ea165590ab","system_id":"levelo_inurba_marseille","lat":43.291973,"lon":5.39325,"is_reserved":false,"is_disabled":true,"rental_uris":{"android":"levelo://app?vid=064861a6-5a15-4e22-bc40-26ea165590ab","ios":"levelo://app?vid=064861a6-5a15-4e22-bc40-26ea165590ab"},"vehicle_type_id":"4","last_reported":1733130702,"current_range_meters":20000,"station_id":"ce4bh192rcd13ifvqdd0","pricing_plan_id":"cebpf4jnsgd1na2vs0mg"},{"bike_id":"83187be1-7efa-435e-ae9b-74201cb4dec3","system_id":"levelo_inurba_marseille","lat":43.26687,"lon":5.38277,"is_reserved":false,"is_disabled":true,"rental_uris":{"android":"levelo://app?vid=83187be1-7efa-435e-ae9b-74201cb4dec3","ios":"levelo://app?vid=83187be1-7efa-435e-ae9b-74201cb4dec3"},"vehicle_type_id":"4","last_reported":1733130702,"current_range_meters":34800,"station_id":"ce4bhg92rcd13ifvqf90","pricing_plan_id":"cebpf4jnsgd1na2vs0mg"},{"bike_id":"2aa1e707-1373-4f29-9a6c-51393a307d7d","system_id":"levelo_inurba_marseille","lat":43.31871,"lon":5.40737,"is_reserved":false,"is_disabled":false,"rental_uris":{"android":"levelo://app?vid=2aa1e707-1373-4f29-9a6c-51393a307d7d","ios":"levelo://app?vid=2aa1e707-1373-4f29-9a6c-51393a307d7d"},"vehicle_type_id":"4","last_reported":1733130702,"current_range_meters":7200,"station_id":"ce4bhq12rcd13ifvqhig","pricing_plan_id":"cebpf4jnsgd1na2vs0mg"},{"bike_id":"e8fa7be1-2407-41a7-b843-e7c70f1917ef","system_id":"levelo_inurba_marseille","lat":43.27611,"lon":5.36109,"is_reserved":false,"is_disabled":true,"rental_uris":{"android":"levelo://app?vid=e8fa7be1-2407-41a7-b843-e7c70f1917ef","ios":"levelo://app?vid=e8fa7be1-2407-41a7-b843-e7c70f1917ef"},"vehicle_type_id":"4","last_reported":1733130702,"current_range_meters":0,"station_id":"ce4bgj92rcd13ifvqbe0","pricing_plan_id":"cebpf4jnsgd1na2vs0mg"},{"bike_id":"dba3c8e5-48dc-4428-8360-135264494715","system_id":"levelo_inurba_marseille","lat":43.28666,"lon":5.36354,"is_reserved":false,"is_disabled":true,"rental_uris":{"android":"levelo://app?vid=dba3c8e5-48dc-4428-8360-135264494715","ios":"levelo://app?vid=dba3c8e5-48dc-4428-8360-135264494715"},"vehicle_type_id":"4","last_reported":1733130702,"current_range_meters":28400,"station_id":"ce4bhah2rcd13ifvqej0","pricing_plan_id":"cebpf4jnsgd1na2vs0mg"},{"bike_id":"58e6eead-0041-4d53-8264-5b8bd59050d1","system_id":"levelo_inurba_marseille","lat":43.29844,"lon":5.36273,"is_reserved":false,"is_disabled":false,"rental_uris":{"android":"levelo://app?vid=58e6eead-0041-4d53-8264-5b8bd59050d1","ios":"levelo://app?vid=58e6eead-0041-4d53-8264-5b8bd59050d1"},"vehicle_type_id":"4","last_reported":1733130702,"current_range_meters":38800,"station_id":"ce4bgpp2rcd13ifvqc3g","pricing_plan_id":"cebpf4jnsgd1na2vs0mg"},{"bike_id":"16994edd-785e-4f83-b4fb-898d7d7094f1","system_id":"levelo_inurba_marseille","lat":43.30458,"lon":5.37902,"is_reserved":false,"is_disabled":true,"rental_uris":{"android":"levelo://app?vid=16994edd-785e-4f83-b4fb-898d7d7094f1","ios":"levelo://app?vid=16994edd-785e-4f83-b4fb-898d7d7094f1"},"vehicle_type_id":"4","last_reported":1733130702,"current_range_meters":4000,"station_id":"ce4bgup2rcd13ifvqcn0","pricing_plan_id":"cebpf4jnsgd1na2vs0mg"},{"bike_id":"1e7a3540-eb14-455b-ad64-5ab0aaac114b","system_id":"levelo_inurba_marseille","lat":43.26931,"lon":5.38933,"is_reserved":false,"is_disabled":false,"rental_uris":{"android":"levelo://app?vid=1e7a3540-eb14-455b-ad64-5ab0aaac114b","ios":"levelo://app?vid=1e7a3540-eb14-455b-ad64-5ab0aaac114b"},"vehicle_type_id":"4","last_reported":1733130702,"current_range_meters":26800,"station_id":"ce4bhhh2rcd13ifvqfl0","pricing_plan_id":"cebpf4jnsgd1na2vs0mg"},{"bike_id":"f0377788-1477-4300-b47b-703012aeff49","system_id":"levelo_inurba_marseille","lat":43.275,"lon":5.42455,"is_reserved":false,"is_disabled":false,"rental_uris":{"android":"levelo://app?vid=f0377788-1477-4300-b47b-703012aeff49","ios":"levelo://app?vid=f0377788-1477-4300-b47b-703012aeff49"},"vehicle_type_id":"4","last_reported":1733130702,"current_range_meters":22400,"station_id":"ce4bhn92rcd13ifvqgrg","pricing_plan_id":"cebpf4jnsgd1na2vs0mg"},{"bike_id":"b63bd490-c0a1-462f-8973-ca4a73906f13","system_id":"levelo_inurba_marseille","lat":43.30907,"lon":5.36839,"is_reserved":false,"is_disabled":false,"rental_uris":{"android":"levelo://app?vid=b63bd490-c0a1-462f-8973-ca4a73906f13","ios":"levelo://app?vid=b63bd490-c0a1-462f-8973-ca4a73906f13"},"vehicle_type_id":"4","last_reported":1733130702,"current_range_meters":25200,"station_id":"ce4bgn92rcd13ifvqbvg","pricing_plan_id":"cebpf4jnsgd1na2vs0mg"},{"bike_id":"ea1337cb-aaf9-4a8f-9612-c78771fe8808","system_id":"levelo_inurba_marseille","lat":43.25286,"lon":5.39456,"is_reserved":false,"is_disabled":true,"rental_uris":{"android":"levelo://app?vid=ea1337cb-aaf9-4a8f-9612-c78771fe8808","ios":"levelo://app?vid=ea1337cb-aaf9-4a8f-9612-c78771fe8808"},"vehicle_type_id":"4","last_reported":1733130702,"current_range_meters":0,"station_id":"","pricing_plan_id":"cebpf4jnsgd1na2vs0mg"},{"bike_id":"19ed358c-454d-432c-8e7a-7793a8f5038d","system_id":"levelo_inurba_marseille","lat":43.28695,"lon":5.39987,"is_reserved":false,"is_disabled":false,"rental_uris":{"android":"levelo://app?vid=19ed358c-454d-432c-8e7a-7793a8f5038d","ios":"levelo://app?vid=19ed358c-454d-432c-8e7a-7793a8f5038d"},"vehicle_type_id":"4","last_reported":1733130702,"current_range_meters":14000,"station_id":"ce4bho92rcd13ifvqh3g","pricing_plan_id":"cebpf4jnsgd1na2vs0mg"},{"bike_id":"7aa76090-c33b-4436-a584-a5615aeba872","system_id":"levelo_inurba_marseille","lat":43.30308,"lon":5.36913,"is_reserved":false,"is_disabled":false,"rental_uris":{"android":"levelo://app?vid=7aa76090-c33b-4436-a584-a5615aeba872","ios":"levelo://app?vid=7aa76090-c33b-4436-a584-a5615aeba872"},"vehicle_type_id":"4","last_reported":1733130702,"current_range_meters":9600,"station_id":"ce4bgqh2rcd13ifvqc5g","pricing_plan_id":"cebpf4jnsgd1na2vs0mg"},{"bike_id":"615470e5-564b-404e-92bd-9f8548c50cce","system_id":"levelo_inurba_marseille","lat":43.30905,"lon":5.36851,"is_reserved":false,"is_disabled":false,"rental_uris":{"android":"levelo://app?vid=615470e5-564b-404e-92bd-9f8548c50cce","ios":"levelo://app?vid=615470e5-564b-404e-92bd-9f8548c50cce"},"vehicle_type_id":"4","last_reported":1733130702,"current_range_meters":16800,"station_id":"ce4bgn92rcd13ifvqbvg","pricing_plan_id":"cebpf4jnsgd1na2vs0mg"},{"bike_id":"af12a5f9-720e-4019-987d-3779fe2b91a2","system_id":"levelo_inurba_marseille","lat":43.30831,"lon":5.3741,"is_reserved":false,"is_disabled":true,"rental_uris":{"android":"levelo://app?vid=af12a5f9-720e-4019-987d-3779fe2b91a2","ios":"levelo://app?vid=af12a5f9-720e-4019-987d-3779fe2b91a2"},"vehicle_type_id":"4","last_reported":1733130702,"current_range_meters":0,"station_id":"","pricing_plan_id":"cebpf4jnsgd1na2vs0mg"},{"bike_id":"59ef04f5-1cf8-4d1e-9688-51140c94c707","system_id":"levelo_inurba_marseille","lat":43.29552,"lon":5.42285,"is_reserved":false,"is_disabled":false,"rental_uris":{"android":"levelo://app?vid=59ef04f5-1cf8-4d1e-9688-51140c94c707","ios":"levelo://app?vid=59ef04f5-1cf8-4d1e-9688-51140c94c707"},"vehicle_type_id":"4","last_reported":1733130702,"current_range_meters":17200,"station_id":"ce4bhph2rcd13ifvqhdg","pricing_plan_id":"cebpf4jnsgd1na2vs0mg"},{"bike_id":"6f206291-5210-422f-bd21-551cab675f49","system_id":"levelo_inurba_marseille","lat":43.30947,"lon":5.39029,"is_reserved":false,"is_disabled":false,"rental_uris":{"android":"levelo://app?vid=6f206291-5210-422f-bd21-551cab675f49","ios":"levelo://app?vid=6f206291-5210-422f-bd21-551cab675f49"},"vehicle_type_id":"4","last_reported":1733130702,"current_range_meters":17600,"station_id":"ce4bgup2rcd13ifvqco0","pricing_plan_id":"cebpf4jnsgd1na2vs0mg"},{"bike_id":"2d15defe-9e5b-4b07-ad28-1ff189af49a2","system_id":"levelo_inurba_marseille","lat":43.29792,"lon":5.38089,"is_reserved":false,"is_disabled":false,"rental_uris":{"android":"levelo://app?vid=2d15defe-9e5b-4b07-ad28-1ff189af49a2","ios":"levelo://app?vid=2d15defe-9e5b-4b07-ad28-1ff189af49a2"},"vehicle_type_id":"4","last_reported":1733130702,"current_range_meters":32400,"station_id":"ce4bgip2rcd13ifvqbb0","pricing_plan_id":"cebpf4jnsgd1na2vs0mg"},{"bike_id":"e8aaf989-f7c7-4f92-9039-2cedc59abe88","system_id":"levelo_inurba_marseille","lat":43.25391,"lon":5.41852,"is_reserved":false,"is_disabled":false,"rental_uris":{"android":"levelo://app?vid=e8aaf989-f7c7-4f92-9039-2cedc59abe88","ios":"levelo://app?vid=e8aaf989-f7c7-4f92-9039-2cedc59abe88"},"vehicle_type_id":"4","last_reported":1733130702,"current_range_meters":25200,"station_id":"","pricing_plan_id":"cebpf4jnsgd1na2vs0mg"},{"bike_id":"ac2a82ed-217d-4a5c-aeff-ea21a140ef53","system_id":"levelo_inurba_marseille","lat":43.28051,"lon":5.35632,"is_reserved":false,"is_disabled":false,"rental_uris":{"android":"levelo://app?vid=ac2a82ed-217d-4a5c-aeff-ea21a140ef53","ios":"levelo://app?vid=ac2a82ed-217d-4a5c-aeff-ea21a140ef53"},"vehicle_type_id":"4","last_reported":1733130702,"current_range_meters":12400,"station_id":"","pricing_plan_id":"cebpf4jnsgd1na2vs0mg"},{"bike_id":"34c53ec4-f01a-433d-97c4-2e7fc2288ed4","system_id":"levelo_inurba_marseille","lat":43.30946,"lon":5.39031,"is_reserved":false,"is_disabled":false,"rental_uris":{"android":"levelo://app?vid=34c53ec4-f01a-433d-97c4-2e7fc2288ed4","ios":"levelo://app?vid=34c53ec4-f01a-433d-97c4-2e7fc2288ed4"},"vehicle_type_id":"4","last_reported":1733130702,"current_range_meters":16000,"station_id":"ce4bgup2rcd13ifvqco0","pricing_plan_id":"cebpf4jnsgd1na2vs0mg"},{"bike_id":"eb87be76-a5c0-4419-98fd-82fadac7ecb4","system_id":"levelo_inurba_marseille","lat":43.30101,"lon":5.39076,"is_reserved":false,"is_disabled":false,"rental_uris":{"android":"levelo://app?vid=eb87be76-a5c0-4419-98fd-82fadac7ecb4","ios":"levelo://app?vid=eb87be76-a5c0-4419-98fd-82fadac7ecb4"},"vehicle_type_id":"4","last_reported":1733130702,"current_range_meters":24800,"station_id":"ce4bh192rcd13ifvqdb0","pricing_plan_id":"cebpf4jnsgd1na2vs0mg"},{"bike_id":"4a2be555-d056-454c-bed3-fe781ba86f8e","system_id":"levelo_inurba_marseille","lat":43.25886,"lon":5.39954,"is_reserved":false,"is_disabled":true,"rental_uris":{"android":"levelo://app?vid=4a2be555-d056-454c-bed3-fe781ba86f8e","ios":"levelo://app?vid=4a2be555-d056-454c-bed3-fe781ba86f8e"},"vehicle_type_id":"4","last_reported":1733130702,"current_range_meters":0,"station_id":"","pricing_plan_id":"cebpf4jnsgd1na2vs0mg"},{"bike_id":"9596750c-7c70-448b-b71a-328686066ea4","system_id":"levelo_inurba_marseille","lat":43.29572,"lon":5.37498,"is_reserved":false,"is_disabled":false,"rental_uris":{"android":"levelo://app?vid=9596750c-7c70-448b-b71a-328686066ea4","ios":"levelo://app?vid=9596750c-7c70-448b-b71a-328686066ea4"},"vehicle_type_id":"4","last_reported":1733130702,"current_range_meters":38400,"station_id":"ce4bgh92rcd13ifvqb50","pricing_plan_id":"cebpf4jnsgd1na2vs0mg"},{"bike_id":"fedb8f41-f066-432e-b337-108e0e005840","system_id":"levelo_inurba_marseille","lat":43.26571,"lon":5.39023,"is_reserved":false,"is_disabled":false,"rental_uris":{"android":"levelo://app?vid=fedb8f41-f066-432e-b337-108e0e005840","ios":"levelo://app?vid=fedb8f41-f066-432e-b337-108e0e005840"},"vehicle_type_id":"4","last_reported":1733130702,"current_range_meters":29600,"station_id":"ce4bhe12rcd13ifvqf30","pricing_plan_id":"cebpf4jnsgd1na2vs0mg"},{"bike_id":"6450d2d6-9c03-4daa-95d4-ecefbba02f0a","system_id":"levelo_inurba_marseille","lat":43.30279,"lon":5.39811,"is_reserved":false,"is_disabled":false,"rental_uris":{"android":"levelo://app?vid=6450d2d6-9c03-4daa-95d4-ecefbba02f0a","ios":"levelo://app?vid=6450d2d6-9c03-4daa-95d4-ecefbba02f0a"},"vehicle_type_id":"4","last_reported":1733130702,"current_range_meters":38800,"station_id":"ce4bh512rcd13ifvqe3g","pricing_plan_id":"cebpf4jnsgd1na2vs0mg"},{"bike_id":"41329919-d8a6-4529-9c36-e6723e50ee60","system_id":"levelo_inurba_marseille","lat":43.30294,"lon":5.39201,"is_reserved":false,"is_disabled":true,"rental_uris":{"android":"levelo://app?vid=41329919-d8a6-4529-9c36-e6723e50ee60","ios":"levelo://app?vid=41329919-d8a6-4529-9c36-e6723e50ee60"},"vehicle_type_id":"4","last_reported":1733130702,"current_range_meters":27200,"station_id":"ce4bgkh2rcd13ifvqbk0","pricing_plan_id":"cebpf4jnsgd1na2vs0mg"},{"bike_id":"d07b5e0b-6c97-4e1c-b1be-88218ae3df67","system_id":"levelo_inurba_marseille","lat":43.2592,"lon":5.40922,"is_reserved":false,"is_disabled":false,"rental_uris":{"android":"levelo://app?vid=d07b5e0b-6c97-4e1c-b1be-88218ae3df67","ios":"levelo://app?vid=d07b5e0b-6c97-4e1c-b1be-88218ae3df67"},"vehicle_type_id":"4","last_reported":1733130702,"current_range_meters":8400,"station_id":"ce4bhm92rcd13ifvqglg","pricing_plan_id":"cebpf4jnsgd1na2vs0mg"},{"bike_id":"793fe6dc-92ad-4233-85cf-b79e0bb678d1","system_id":"levelo_inurba_marseille","lat":43.26681,"lon":5.38271,"is_reserved":false,"is_disabled":false,"rental_uris":{"android":"levelo://app?vid=793fe6dc-92ad-4233-85cf-b79e0bb678d1","ios":"levelo://app?vid=793fe6dc-92ad-4233-85cf-b79e0bb678d1"},"vehicle_type_id":"4","last_reported":1733130702,"current_range_meters":36800,"station_id":"ce4bhg92rcd13ifvqf90","pricing_plan_id":"cebpf4jnsgd1na2vs0mg"},{"bike_id":"000b518d-442b-4752-8b9a-e2fc3654d286","system_id":"levelo_inurba_marseille","lat":43.29451,"lon":5.3976,"is_reserved":false,"is_disabled":true,"rental_uris":{"android":"levelo://app?vid=000b518d-442b-4752-8b9a-e2fc3654d286","ios":"levelo://app?vid=000b518d-442b-4752-8b9a-e2fc3654d286"},"vehicle_type_id":"4","last_reported":1733130702,"current_range_meters":12400,"station_id":"ce4bh3h2rcd13ifvqdo0","pricing_plan_id":"cebpf4jnsgd1na2vs0mg"},{"bike_id":"d7c7c188-73c6-4431-b4ce-2aa315b7cb0c","system_id":"levelo_inurba_marseille","lat":43.28154,"lon":5.42641,"is_reserved":false,"is_disabled":false,"rental_uris":{"android":"levelo://app?vid=d7c7c188-73c6-4431-b4ce-2aa315b7cb0c","ios":"levelo://app?vid=d7c7c188-73c6-4431-b4ce-2aa315b7cb0c"},"vehicle_type_id":"4","last_reported":1733130702,"current_range_meters":32400,"station_id":"ce4bhnh2rcd13ifvqgug","pricing_plan_id":"cebpf4jnsgd1na2vs0mg"},{"bike_id":"e39d22a4-daed-483a-acbb-550d4592cfe0","system_id":"levelo_inurba_marseille","lat":43.30047,"lon":5.38831,"is_reserved":false,"is_disabled":true,"rental_uris":{"android":"levelo://app?vid=e39d22a4-daed-483a-acbb-550d4592cfe0","ios":"levelo://app?vid=e39d22a4-daed-483a-acbb-550d4592cfe0"},"vehicle_type_id":"4","last_reported":1733130702,"current_range_meters":0,"station_id":"","pricing_plan_id":"cebpf4jnsgd1na2vs0mg"},{"bike_id":"1df9b703-c348-4e74-bbcb-1f4c6fc14b39","system_id":"levelo_inurba_marseille","lat":43.30552,"lon":5.36537,"is_reserved":false,"is_disabled":false,"rental_uris":{"android":"levelo://app?vid=1df9b703-c348-4e74-bbcb-1f4c6fc14b39","ios":"levelo://app?vid=1df9b703-c348-4e74-bbcb-1f4c6fc14b39"},"vehicle_type_id":"4","last_reported":1733130702,"current_range_meters":38800,"station_id":"ce4bgs12rcd13ifvqcag","pricing_plan_id":"cebpf4jnsgd1na2vs0mg"},{"bike_id":"f9c8b933-6f3c-415b-a23a-3b43c2f5668d","system_id":"levelo_inurba_marseille","lat":43.23068,"lon":5.35503,"is_reserved":false,"is_disabled":false,"rental_uris":{"android":"levelo://app?vid=f9c8b933-6f3c-415b-a23a-3b43c2f5668d","ios":"levelo://app?vid=f9c8b933-6f3c-415b-a23a-3b43c2f5668d"},"vehicle_type_id":"4","last_reported":1733130702,"current_range_meters":27200,"station_id":"cpo3342slgdg3j2ifvpg","pricing_plan_id":"cebpf4jnsgd1na2vs0mg"},{"bike_id":"7e240355-01c5-4914-a572-525c5ba6ec0f","system_id":"levelo_inurba_marseille","lat":43.29253,"lon":5.40917,"is_reserved":false,"is_disabled":true,"rental_uris":{"android":"levelo://app?vid=7e240355-01c5-4914-a572-525c5ba6ec0f","ios":"levelo://app?vid=7e240355-01c5-4914-a572-525c5ba6ec0f"},"vehicle_type_id":"4","last_reported":1733130702,"current_range_meters":8400,"station_id":"ce4bh192rcd13ifvqdc0","pricing_plan_id":"cebpf4jnsgd1na2vs0mg"},{"bike_id":"ae254242-0ad2-4ccf-9230-038b02ca7b28","system_id":"levelo_inurba_marseille","lat":43.29616,"lon":5.37147,"is_reserved":false,"is_disabled":false,"rental_uris":{"android":"levelo://app?vid=ae254242-0ad2-4ccf-9230-038b02ca7b28","ios":"levelo://app?vid=ae254242-0ad2-4ccf-9230-038b02ca7b28"},"vehicle_type_id":"4","last_reported":1733130702,"current_range_meters":39200,"station_id":"ce4bgnh2rcd13ifvqc0g","pricing_plan_id":"cebpf4jnsgd1na2vs0mg"},{"bike_id":"f8ea997e-8346-43bb-865b-e1220aea91e7","system_id":"levelo_inurba_marseille","lat":43.30424,"lon":5.38892,"is_reserved":false,"is_disabled":false,"rental_uris":{"android":"levelo://app?vid=f8ea997e-8346-43bb-865b-e1220aea91e7","ios":"levelo://app?vid=f8ea997e-8346-43bb-865b-e1220aea91e7"},"vehicle_type_id":"4","last_reported":1733130702,"current_range_meters":27600,"station_id":"ce4bgk12rcd13ifvqbi0","pricing_plan_id":"cebpf4jnsgd1na2vs0mg"},{"bike_id":"6a75b6a9-e9e2-4116-9f09-087c638c2462","system_id":"levelo_inurba_marseille","lat":43.32113,"lon":5.36782,"is_reserved":false,"is_disabled":false,"rental_uris":{"android":"levelo://app?vid=6a75b6a9-e9e2-4116-9f09-087c638c2462","ios":"levelo://app?vid=6a75b6a9-e9e2-4116-9f09-087c638c2462"},"vehicle_type_id":"4","last_reported":1733130702,"current_range_meters":37600,"station_id":"ce4bhrh2rcd13ifvqhug","pricing_plan_id":"cebpf4jnsgd1na2vs0mg"},{"bike_id":"a19e7c09-426c-4663-a587-838f2a821c45","system_id":"levelo_inurba_marseille","lat":43.30064,"lon":5.40385,"is_reserved":false,"is_disabled":false,"rental_uris":{"android":"levelo://app?vid=a19e7c09-426c-4663-a587-838f2a821c45","ios":"levelo://app?vid=a19e7c09-426c-4663-a587-838f2a821c45"},"vehicle_type_id":"4","last_reported":1733130702,"current_range_meters":24000,"station_id":"","pricing_plan_id":"cebpf4jnsgd1na2vs0mg"},{"bike_id":"b535dfd0-ec01-4a13-996f-71245b6113cc","system_id":"levelo_inurba_marseille","lat":43.27977,"lon":5.41229,"is_reserved":false,"is_disabled":true,"rental_uris":{"android":"levelo://app?vid=b535dfd0-ec01-4a13-996f-71245b6113cc","ios":"levelo://app?vid=b535dfd0-ec01-4a13-996f-71245b6113cc"},"vehicle_type_id":"4","last_reported":1733130702,"current_range_meters":0,"station_id":"","pricing_plan_id":"cebpf4jnsgd1na2vs0mg"},{"bike_id":"11d5604e-29c4-4f54-96ae-67f1e4e1420d","system_id":"levelo_inurba_marseille","lat":43.29569,"lon":5.37512,"is_reserved":false,"is_disabled":true,"rental_uris":{"android":"levelo://app?vid=11d5604e-29c4-4f54-96ae-67f1e4e1420d","ios":"levelo://app?vid=11d5604e-29c4-4f54-96ae-67f1e4e1420d"},"vehicle_type_id":"4","last_reported":1733130702,"current_range_meters":0,"station_id":"ce4bgh92rcd13ifvqb50","pricing_plan_id":"cebpf4jnsgd1na2vs0mg"},{"bike_id":"2a401333-53bc-42ac-853b-1aea45bc2e54","system_id":"levelo_inurba_marseille","lat":43.24181,"lon":5.39729,"is_reserved":false,"is_disabled":false,"rental_uris":{"android":"levelo://app?vid=2a401333-53bc-42ac-853b-1aea45bc2e54","ios":"levelo://app?vid=2a401333-53bc-42ac-853b-1aea45bc2e54"},"vehicle_type_id":"4","last_reported":1733130702,"current_range_meters":39200,"station_id":"ce4bhn12rcd13ifvqgpg","pricing_plan_id":"cebpf4jnsgd1na2vs0mg"},{"bike_id":"96f9c60a-763a-4527-a240-5c74e64a8d9b","system_id":"levelo_inurba_marseille","lat":43.30427,"lon":5.38883,"is_reserved":false,"is_disabled":false,"rental_uris":{"android":"levelo://app?vid=96f9c60a-763a-4527-a240-5c74e64a8d9b","ios":"levelo://app?vid=96f9c60a-763a-4527-a240-5c74e64a8d9b"},"vehicle_type_id":"4","last_reported":1733130702,"current_range_meters":35600,"station_id":"ce4bgk12rcd13ifvqbi0","pricing_plan_id":"cebpf4jnsgd1na2vs0mg"},{"bike_id":"b642d79a-bd2c-495a-acdd-099583f67bf5","system_id":"levelo_inurba_marseille","lat":43.32275,"lon":5.38259,"is_reserved":false,"is_disabled":false,"rental_uris":{"android":"levelo://app?vid=b642d79a-bd2c-495a-acdd-099583f67bf5","ios":"levelo://app?vid=b642d79a-bd2c-495a-acdd-099583f67bf5"},"vehicle_type_id":"4","last_reported":1733130702,"current_range_meters":23200,"station_id":"ce4bhr12rcd13ifvqhqg","pricing_plan_id":"cebpf4jnsgd1na2vs0mg"},{"bike_id":"ffc8afea-4e9a-410b-a553-533ded6b8e84","system_id":"levelo_inurba_marseille","lat":43.26684,"lon":5.38273,"is_reserved":false,"is_disabled":true,"rental_uris":{"android":"levelo://app?vid=ffc8afea-4e9a-410b-a553-533ded6b8e84","ios":"levelo://app?vid=ffc8afea-4e9a-410b-a553-533ded6b8e84"},"vehicle_type_id":"4","last_reported":1733130702,"current_range_meters":0,"station_id":"ce4bhg92rcd13ifvqf90","pricing_plan_id":"cebpf4jnsgd1na2vs0mg"},{"bike_id":"97981cc8-c463-4538-bd2d-7f5cd2bcbd32","system_id":"levelo_inurba_marseille","lat":43.32538,"lon":5.41444,"is_reserved":false,"is_disabled":true,"rental_uris":{"android":"levelo://app?vid=97981cc8-c463-4538-bd2d-7f5cd2bcbd32","ios":"levelo://app?vid=97981cc8-c463-4538-bd2d-7f5cd2bcbd32"},"vehicle_type_id":"4","last_reported":1733130702,"current_range_meters":2800,"station_id":"ce4bhq12rcd13ifvqhhg","pricing_plan_id":"cebpf4jnsgd1na2vs0mg"},{"bike_id":"426e8663-b5b6-4b38-b89a-a8ae0a534b6d","system_id":"levelo_inurba_marseille","lat":43.30902,"lon":5.36854,"is_reserved":false,"is_disabled":false,"rental_uris":{"android":"levelo://app?vid=426e8663-b5b6-4b38-b89a-a8ae0a534b6d","ios":"levelo://app?vid=426e8663-b5b6-4b38-b89a-a8ae0a534b6d"},"vehicle_type_id":"4","last_reported":1733130702,"current_range_meters":36800,"station_id":"ce4bgn92rcd13ifvqbvg","pricing_plan_id":"cebpf4jnsgd1na2vs0mg"},{"bike_id":"359037ce-df63-42eb-9637-548aafa4bd60","system_id":"levelo_inurba_marseille","lat":43.27069,"lon":5.42279,"is_reserved":false,"is_disabled":false,"rental_uris":{"android":"levelo://app?vid=359037ce-df63-42eb-9637-548aafa4bd60","ios":"levelo://app?vid=359037ce-df63-42eb-9637-548aafa4bd60"},"vehicle_type_id":"4","last_reported":1733130702,"current_range_meters":38800,"station_id":"ce4bhk92rcd13ifvqgb0","pricing_plan_id":"cebpf4jnsgd1na2vs0mg"},{"bike_id":"5b9d6f48-f6d1-42ec-91ce-2705b20346f7","system_id":"levelo_inurba_marseille","lat":43.27626,"lon":5.36106,"is_reserved":false,"is_disabled":true,"rental_uris":{"android":"levelo://app?vid=5b9d6f48-f6d1-42ec-91ce-2705b20346f7","ios":"levelo://app?vid=5b9d6f48-f6d1-42ec-91ce-2705b20346f7"},"vehicle_type_id":"4","last_reported":1733130702,"current_range_meters":37600,"station_id":"ce4bgj92rcd13ifvqbe0","pricing_plan_id":"cebpf4jnsgd1na2vs0mg"},{"bike_id":"8aa9fe1b-b064-4f77-8593-abe1ce8e327f","system_id":"levelo_inurba_marseille","lat":43.25106,"lon":5.40322,"is_reserved":false,"is_disabled":true,"rental_uris":{"android":"levelo://app?vid=8aa9fe1b-b064-4f77-8593-abe1ce8e327f","ios":"levelo://app?vid=8aa9fe1b-b064-4f77-8593-abe1ce8e327f"},"vehicle_type_id":"4","last_reported":1733130702,"current_range_meters":800,"station_id":"ce4bhlh2rcd13ifvqgig","pricing_plan_id":"cebpf4jnsgd1na2vs0mg"},{"bike_id":"0174841e-8011-4a7b-bd18-480101bee765","system_id":"levelo_inurba_marseille","lat":43.239608,"lon":5.366184,"is_reserved":false,"is_disabled":true,"rental_uris":{"android":"levelo://app?vid=0174841e-8011-4a7b-bd18-480101bee765","ios":"levelo://app?vid=0174841e-8011-4a7b-bd18-480101bee765"},"vehicle_type_id":"4","last_reported":1733130702,"current_range_meters":0,"station_id":"ce4bhi12rcd13ifvqfp0","pricing_plan_id":"cebpf4jnsgd1na2vs0mg"},{"bike_id":"55aa419e-7ca9-4f29-976a-fefd7a814401","system_id":"levelo_inurba_marseille","lat":43.3014,"lon":5.38785,"is_reserved":false,"is_disabled":true,"rental_uris":{"android":"levelo://app?vid=55aa419e-7ca9-4f29-976a-fefd7a814401","ios":"levelo://app?vid=55aa419e-7ca9-4f29-976a-fefd7a814401"},"vehicle_type_id":"4","last_reported":1733130702,"current_range_meters":12400,"station_id":"ce4bghh2rcd13ifvqb60","pricing_plan_id":"cebpf4jnsgd1na2vs0mg"},{"bike_id":"eb3f7a45-8ce5-4652-9ae0-80e8d6cefc86","system_id":"levelo_inurba_marseille","lat":43.26933,"lon":5.38913,"is_reserved":false,"is_disabled":false,"rental_uris":{"android":"levelo://app?vid=eb3f7a45-8ce5-4652-9ae0-80e8d6cefc86","ios":"levelo://app?vid=eb3f7a45-8ce5-4652-9ae0-80e8d6cefc86"},"vehicle_type_id":"4","last_reported":1733130702,"current_range_meters":36800,"station_id":"ce4bhhh2rcd13ifvqfl0","pricing_plan_id":"cebpf4jnsgd1na2vs0mg"},{"bike_id":"2cb2d3aa-66d4-4b14-b3e7-efc9d45380ab","system_id":"levelo_inurba_marseille","lat":43.300955,"lon":5.390815,"is_reserved":false,"is_disabled":false,"rental_uris":{"android":"levelo://app?vid=2cb2d3aa-66d4-4b14-b3e7-efc9d45380ab","ios":"levelo://app?vid=2cb2d3aa-66d4-4b14-b3e7-efc9d45380ab"},"vehicle_type_id":"4","last_reported":1733130702,"current_range_meters":22800,"station_id":"ce4bh192rcd13ifvqdb0","pricing_plan_id":"cebpf4jnsgd1na2vs0mg"},{"bike_id":"f423cc67-d979-4da7-89f3-b5257eaada68","system_id":"levelo_inurba_marseille","lat":43.31881,"lon":5.40735,"is_reserved":false,"is_disabled":false,"rental_uris":{"android":"levelo://app?vid=f423cc67-d979-4da7-89f3-b5257eaada68","ios":"levelo://app?vid=f423cc67-d979-4da7-89f3-b5257eaada68"},"vehicle_type_id":"4","last_reported":1733130702,"current_range_meters":28800,"station_id":"ce4bhq12rcd13ifvqhig","pricing_plan_id":"cebpf4jnsgd1na2vs0mg"},{"bike_id":"bb5b4e0a-b86f-423e-9bb9-d81ea9394403","system_id":"levelo_inurba_marseille","lat":43.3092,"lon":5.40148,"is_reserved":false,"is_disabled":true,"rental_uris":{"android":"levelo://app?vid=bb5b4e0a-b86f-423e-9bb9-d81ea9394403","ios":"levelo://app?vid=bb5b4e0a-b86f-423e-9bb9-d81ea9394403"},"vehicle_type_id":"4","last_reported":1733130702,"current_range_meters":0,"station_id":"ce4bgvp2rcd13ifvqct0","pricing_plan_id":"cebpf4jnsgd1na2vs0mg"},{"bike_id":"db1f621b-3e70-47a2-9f40-e7c88c14cc8d","system_id":"levelo_inurba_marseille","lat":43.32364,"lon":5.3676,"is_reserved":false,"is_disabled":false,"rental_uris":{"android":"levelo://app?vid=db1f621b-3e70-47a2-9f40-e7c88c14cc8d","ios":"levelo://app?vid=db1f621b-3e70-47a2-9f40-e7c88c14cc8d"},"vehicle_type_id":"4","last_reported":1733130702,"current_range_meters":30000,"station_id":"ce4bhsh2rcd13ifvqi2g","pricing_plan_id":"cebpf4jnsgd1na2vs0mg"},{"bike_id":"ef03cfd6-89ab-4af0-b7c1-754b87418e04","system_id":"levelo_inurba_marseille","lat":43.30296,"lon":5.36911,"is_reserved":false,"is_disabled":false,"rental_uris":{"android":"levelo://app?vid=ef03cfd6-89ab-4af0-b7c1-754b87418e04","ios":"levelo://app?vid=ef03cfd6-89ab-4af0-b7c1-754b87418e04"},"vehicle_type_id":"4","last_reported":1733130702,"current_range_meters":28800,"station_id":"ce4bgqh2rcd13ifvqc5g","pricing_plan_id":"cebpf4jnsgd1na2vs0mg"},{"bike_id":"4213c837-d727-413b-ba3b-8731e753917c","system_id":"levelo_inurba_marseille","lat":43.28151,"lon":5.42643,"is_reserved":false,"is_disabled":false,"rental_uris":{"android":"levelo://app?vid=4213c837-d727-413b-ba3b-8731e753917c","ios":"levelo://app?vid=4213c837-d727-413b-ba3b-8731e753917c"},"vehicle_type_id":"4","last_reported":1733130702,"current_range_meters":20400,"station_id":"ce4bhnh2rcd13ifvqgug","pricing_plan_id":"cebpf4jnsgd1na2vs0mg"},{"bike_id":"25dd2a60-280f-4b55-9588-353347a1acca","system_id":"levelo_inurba_marseille","lat":43.24082,"lon":5.3775,"is_reserved":false,"is_disabled":false,"rental_uris":{"android":"levelo://app?vid=25dd2a60-280f-4b55-9588-353347a1acca","ios":"levelo://app?vid=25dd2a60-280f-4b55-9588-353347a1acca"},"vehicle_type_id":"4","last_reported":1733130702,"current_range_meters":39200,"station_id":"ce4bhnp2rcd13ifvqgvg","pricing_plan_id":"cebpf4jnsgd1na2vs0mg"},{"bike_id":"ca3e12a3-558f-4632-9bc9-97c14c4dfcae","system_id":"levelo_inurba_marseille","lat":43.30134,"lon":5.37417,"is_reserved":false,"is_disabled":true,"rental_uris":{"android":"levelo://app?vid=ca3e12a3-558f-4632-9bc9-97c14c4dfcae","ios":"levelo://app?vid=ca3e12a3-558f-4632-9bc9-97c14c4dfcae"},"vehicle_type_id":"4","last_reported":1733130702,"current_range_meters":32400,"station_id":"ce4bgs92rcd13ifvqcc0","pricing_plan_id":"cebpf4jnsgd1na2vs0mg"},{"bike_id":"cb15f3b7-7afa-4ad6-a213-812c755af6c0","system_id":"levelo_inurba_marseille","lat":43.30272,"lon":5.37701,"is_reserved":false,"is_disabled":false,"rental_uris":{"android":"levelo://app?vid=cb15f3b7-7afa-4ad6-a213-812c755af6c0","ios":"levelo://app?vid=cb15f3b7-7afa-4ad6-a213-812c755af6c0"},"vehicle_type_id":"4","last_reported":1733130702,"current_range_meters":20800,"station_id":"ce4bguh2rcd13ifvqcj0","pricing_plan_id":"cebpf4jnsgd1na2vs0mg"},{"bike_id":"70d69c3b-6ac7-4dda-b773-a927cf4791a4","system_id":"levelo_inurba_marseille","lat":43.30151,"lon":5.38101,"is_reserved":false,"is_disabled":false,"rental_uris":{"android":"levelo://app?vid=70d69c3b-6ac7-4dda-b773-a927cf4791a4","ios":"levelo://app?vid=70d69c3b-6ac7-4dda-b773-a927cf4791a4"},"vehicle_type_id":"4","last_reported":1733130702,"current_range_meters":10800,"station_id":"ce4bgph2rcd13ifvqc2g","pricing_plan_id":"cebpf4jnsgd1na2vs0mg"},{"bike_id":"f10e3904-7533-4a4f-a392-3ce2fa743ada","system_id":"levelo_inurba_marseille","lat":43.23152,"lon":5.43722,"is_reserved":false,"is_disabled":false,"rental_uris":{"android":"levelo://app?vid=f10e3904-7533-4a4f-a392-3ce2fa743ada","ios":"levelo://app?vid=f10e3904-7533-4a4f-a392-3ce2fa743ada"},"vehicle_type_id":"4","last_reported":1733130702,"current_range_meters":23200,"station_id":"ce4bhmp2rcd13ifvqgog","pricing_plan_id":"cebpf4jnsgd1na2vs0mg"},{"bike_id":"42dff1c4-6053-46d6-ab14-2b44877e8b55","system_id":"levelo_inurba_marseille","lat":43.284484,"lon":5.391825,"is_reserved":false,"is_disabled":true,"rental_uris":{"android":"levelo://app?vid=42dff1c4-6053-46d6-ab14-2b44877e8b55","ios":"levelo://app?vid=42dff1c4-6053-46d6-ab14-2b44877e8b55"},"vehicle_type_id":"4","last_reported":1733130702,"current_range_meters":33200,"station_id":"ce4bhoh2rcd13ifvqh5g","pricing_plan_id":"cebpf4jnsgd1na2vs0mg"},{"bike_id":"d5a80474-e33e-4cc3-907c-6059f080f32b","system_id":"levelo_inurba_marseille","lat":43.25106,"lon":5.40313,"is_reserved":false,"is_disabled":false,"rental_uris":{"android":"levelo://app?vid=d5a80474-e33e-4cc3-907c-6059f080f32b","ios":"levelo://app?vid=d5a80474-e33e-4cc3-907c-6059f080f32b"},"vehicle_type_id":"4","last_reported":1733130702,"current_range_meters":4000,"station_id":"ce4bhlh2rcd13ifvqgig","pricing_plan_id":"cebpf4jnsgd1na2vs0mg"},{"bike_id":"de29fed1-fafb-4051-b95e-91b7c923e851","system_id":"levelo_inurba_marseille","lat":43.27067,"lon":5.42283,"is_reserved":false,"is_disabled":false,"rental_uris":{"android":"levelo://app?vid=de29fed1-fafb-4051-b95e-91b7c923e851","ios":"levelo://app?vid=de29fed1-fafb-4051-b95e-91b7c923e851"},"vehicle_type_id":"4","last_reported":1733130702,"current_range_meters":10000,"station_id":"ce4bhk92rcd13ifvqgb0","pricing_plan_id":"cebpf4jnsgd1na2vs0mg"},{"bike_id":"27d13c7a-6338-48dc-81dd-618b3e4ff60b","system_id":"levelo_inurba_marseille","lat":43.2906,"lon":5.38336,"is_reserved":false,"is_disabled":true,"rental_uris":{"android":"levelo://app?vid=27d13c7a-6338-48dc-81dd-618b3e4ff60b","ios":"levelo://app?vid=27d13c7a-6338-48dc-81dd-618b3e4ff60b"},"vehicle_type_id":"4","last_reported":1733130702,"current_range_meters":30400,"station_id":"","pricing_plan_id":"cebpf4jnsgd1na2vs0mg"},{"bike_id":"0c31d101-6fd2-46a2-8df5-d9ecc5c11ade","system_id":"levelo_inurba_marseille","lat":43.30531,"lon":5.38415,"is_reserved":false,"is_disabled":false,"rental_uris":{"android":"levelo://app?vid=0c31d101-6fd2-46a2-8df5-d9ecc5c11ade","ios":"levelo://app?vid=0c31d101-6fd2-46a2-8df5-d9ecc5c11ade"},"vehicle_type_id":"4","last_reported":1733130702,"current_range_meters":34000,"station_id":"ce4bgg92rcd13ifvqb30","pricing_plan_id":"cebpf4jnsgd1na2vs0mg"},{"bike_id":"13151158-c4ba-49c7-a920-9a61c5dd56f2","system_id":"levelo_inurba_marseille","lat":43.23958,"lon":5.36633,"is_reserved":false,"is_disabled":true,"rental_uris":{"android":"levelo://app?vid=13151158-c4ba-49c7-a920-9a61c5dd56f2","ios":"levelo://app?vid=13151158-c4ba-49c7-a920-9a61c5dd56f2"},"vehicle_type_id":"4","last_reported":1733130702,"current_range_meters":0,"station_id":"ce4bhi12rcd13ifvqfp0","pricing_plan_id":"cebpf4jnsgd1na2vs0mg"},{"bike_id":"4e35867f-d2ac-4d46-9501-32098675cae4","system_id":"levelo_inurba_marseille","lat":43.2905,"lon":5.39979,"is_reserved":false,"is_disabled":false,"rental_uris":{"android":"levelo://app?vid=4e35867f-d2ac-4d46-9501-32098675cae4","ios":"levelo://app?vid=4e35867f-d2ac-4d46-9501-32098675cae4"},"vehicle_type_id":"4","last_reported":1733130702,"current_range_meters":30800,"station_id":"ce4bh392rcd13ifvqdm0","pricing_plan_id":"cebpf4jnsgd1na2vs0mg"},{"bike_id":"00669af6-08a7-4f35-acea-df6c836bc3bb","system_id":"levelo_inurba_marseille","lat":43.29568,"lon":5.3752,"is_reserved":false,"is_disabled":false,"rental_uris":{"android":"levelo://app?vid=00669af6-08a7-4f35-acea-df6c836bc3bb","ios":"levelo://app?vid=00669af6-08a7-4f35-acea-df6c836bc3bb"},"vehicle_type_id":"4","last_reported":1733130702,"current_range_meters":38000,"station_id":"ce4bgh92rcd13ifvqb50","pricing_plan_id":"cebpf4jnsgd1na2vs0mg"},{"bike_id":"58615917-8609-4fba-90e2-9a76a90ce5de","system_id":"levelo_inurba_marseille","lat":43.25916,"lon":5.40933,"is_reserved":false,"is_disabled":false,"rental_uris":{"android":"levelo://app?vid=58615917-8609-4fba-90e2-9a76a90ce5de","ios":"levelo://app?vid=58615917-8609-4fba-90e2-9a76a90ce5de"},"vehicle_type_id":"4","last_reported":1733130702,"current_range_meters":30000,"station_id":"ce4bhm92rcd13ifvqglg","pricing_plan_id":"cebpf4jnsgd1na2vs0mg"},{"bike_id":"44a5412d-cc49-4777-be9f-04ce0d1c652a","system_id":"levelo_inurba_marseille","lat":43.28475,"lon":5.38566,"is_reserved":false,"is_disabled":false,"rental_uris":{"android":"levelo://app?vid=44a5412d-cc49-4777-be9f-04ce0d1c652a","ios":"levelo://app?vid=44a5412d-cc49-4777-be9f-04ce0d1c652a"},"vehicle_type_id":"4","last_reported":1733130702,"current_range_meters":17200,"station_id":"ce4bh8p2rcd13ifvqeb0","pricing_plan_id":"cebpf4jnsgd1na2vs0mg"},{"bike_id":"f82355d5-3bae-4cc3-9dfa-61a4fd346c46","system_id":"levelo_inurba_marseille","lat":43.26558,"lon":5.37282,"is_reserved":false,"is_disabled":false,"rental_uris":{"android":"levelo://app?vid=f82355d5-3bae-4cc3-9dfa-61a4fd346c46","ios":"levelo://app?vid=f82355d5-3bae-4cc3-9dfa-61a4fd346c46"},"vehicle_type_id":"4","last_reported":1733130702,"current_range_meters":18800,"station_id":"ce4bhg12rcd13ifvqf70","pricing_plan_id":"cebpf4jnsgd1na2vs0mg"},{"bike_id":"6ee9b804-219d-4821-9052-991b7df2bed2","system_id":"levelo_inurba_marseille","lat":43.23168,"lon":5.43693,"is_reserved":false,"is_disabled":true,"rental_uris":{"android":"levelo://app?vid=6ee9b804-219d-4821-9052-991b7df2bed2","ios":"levelo://app?vid=6ee9b804-219d-4821-9052-991b7df2bed2"},"vehicle_type_id":"4","last_reported":1733130702,"current_range_meters":0,"station_id":"ce4bhmp2rcd13ifvqgog","pricing_plan_id":"cebpf4jnsgd1na2vs0mg"},{"bike_id":"3ec31817-5a28-430b-bdf3-b32823a8cd95","system_id":"levelo_inurba_marseille","lat":43.29005,"lon":5.35606,"is_reserved":false,"is_disabled":true,"rental_uris":{"android":"levelo://app?vid=3ec31817-5a28-430b-bdf3-b32823a8cd95","ios":"levelo://app?vid=3ec31817-5a28-430b-bdf3-b32823a8cd95"},"vehicle_type_id":"4","last_reported":1733130702,"current_range_meters":5600,"station_id":"ce4bhb92rcd13ifvqen0","pricing_plan_id":"cebpf4jnsgd1na2vs0mg"},{"bike_id":"441c09c7-12b7-475f-8f2f-939b3fee058b","system_id":"levelo_inurba_marseille","lat":43.32481,"lon":5.36559,"is_reserved":false,"is_disabled":false,"rental_uris":{"android":"levelo://app?vid=441c09c7-12b7-475f-8f2f-939b3fee058b","ios":"levelo://app?vid=441c09c7-12b7-475f-8f2f-939b3fee058b"},"vehicle_type_id":"4","last_reported":1733130702,"current_range_meters":25600,"station_id":"ce4bhs12rcd13ifvqhvg","pricing_plan_id":"cebpf4jnsgd1na2vs0mg"},{"bike_id":"7435bc75-6ab8-4bae-8812-83c889736411","system_id":"levelo_inurba_marseille","lat":43.272053,"lon":5.391833,"is_reserved":false,"is_disabled":false,"rental_uris":{"android":"levelo://app?vid=7435bc75-6ab8-4bae-8812-83c889736411","ios":"levelo://app?vid=7435bc75-6ab8-4bae-8812-83c889736411"},"vehicle_type_id":"4","last_reported":1733130702,"current_range_meters":4800,"station_id":"ce4bhhp2rcd13ifvqfm0","pricing_plan_id":"cebpf4jnsgd1na2vs0mg"},{"bike_id":"e0161261-fd33-45e3-8038-51d77778a6b0","system_id":"levelo_inurba_marseille","lat":43.306482,"lon":5.400923,"is_reserved":false,"is_disabled":true,"rental_uris":{"android":"levelo://app?vid=e0161261-fd33-45e3-8038-51d77778a6b0","ios":"levelo://app?vid=e0161261-fd33-45e3-8038-51d77778a6b0"},"vehicle_type_id":"4","last_reported":1733130702,"current_range_meters":30800,"station_id":"ce4bh112rcd13ifvqda0","pricing_plan_id":"cebpf4jnsgd1na2vs0mg"},{"bike_id":"4d38a818-9531-4d9e-a2a0-b9cd0b136842","system_id":"levelo_inurba_marseille","lat":43.26483,"lon":5.39143,"is_reserved":false,"is_disabled":true,"rental_uris":{"android":"levelo://app?vid=4d38a818-9531-4d9e-a2a0-b9cd0b136842","ios":"levelo://app?vid=4d38a818-9531-4d9e-a2a0-b9cd0b136842"},"vehicle_type_id":"4","last_reported":1733130702,"current_range_meters":0,"station_id":"","pricing_plan_id":"cebpf4jnsgd1na2vs0mg"},{"bike_id":"d74f6380-9290-47e1-a199-fbd3fdcddc74","system_id":"levelo_inurba_marseille","lat":43.30548,"lon":5.36704,"is_reserved":false,"is_disabled":true,"rental_uris":{"android":"levelo://app?vid=d74f6380-9290-47e1-a199-fbd3fdcddc74","ios":"levelo://app?vid=d74f6380-9290-47e1-a199-fbd3fdcddc74"},"vehicle_type_id":"4","last_reported":1733130702,"current_range_meters":38000,"station_id":"ce4bgrp2rcd13ifvqc9g","pricing_plan_id":"cebpf4jnsgd1na2vs0mg"},{"bike_id":"a794634e-f858-4eb8-a1c0-a675bb554c5c","system_id":"levelo_inurba_marseille","lat":43.3361,"lon":5.40973,"is_reserved":false,"is_disabled":false,"rental_uris":{"android":"levelo://app?vid=a794634e-f858-4eb8-a1c0-a675bb554c5c","ios":"levelo://app?vid=a794634e-f858-4eb8-a1c0-a675bb554c5c"},"vehicle_type_id":"4","last_reported":1733130702,"current_range_meters":38000,"station_id":"ce4bhqh2rcd13ifvqhmg","pricing_plan_id":"cebpf4jnsgd1na2vs0mg"},{"bike_id":"0925ff43-bab0-49be-8348-5535795fc1c0","system_id":"levelo_inurba_marseille","lat":43.30542,"lon":5.38428,"is_reserved":false,"is_disabled":true,"rental_uris":{"android":"levelo://app?vid=0925ff43-bab0-49be-8348-5535795fc1c0","ios":"levelo://app?vid=0925ff43-bab0-49be-8348-5535795fc1c0"},"vehicle_type_id":"4","last_reported":1733130702,"current_range_meters":8800,"station_id":"ce4bgg92rcd13ifvqb30","pricing_plan_id":"cebpf4jnsgd1na2vs0mg"},{"bike_id":"df175e35-a109-455b-a549-3a0af8fc4135","system_id":"levelo_inurba_marseille","lat":43.26687,"lon":5.38273,"is_reserved":false,"is_disabled":true,"rental_uris":{"android":"levelo://app?vid=df175e35-a109-455b-a549-3a0af8fc4135","ios":"levelo://app?vid=df175e35-a109-455b-a549-3a0af8fc4135"},"vehicle_type_id":"4","last_reported":1733130702,"current_range_meters":13600,"station_id":"ce4bhg92rcd13ifvqf90","pricing_plan_id":"cebpf4jnsgd1na2vs0mg"},{"bike_id":"ebaa904e-bc87-46fe-8951-7f1d176fdb4c","system_id":"levelo_inurba_marseille","lat":43.31281,"lon":5.40169,"is_reserved":false,"is_disabled":true,"rental_uris":{"android":"levelo://app?vid=ebaa904e-bc87-46fe-8951-7f1d176fdb4c","ios":"levelo://app?vid=ebaa904e-bc87-46fe-8951-7f1d176fdb4c"},"vehicle_type_id":"4","last_reported":1733130702,"current_range_meters":38800,"station_id":"ce4bh092rcd13ifvqd30","pricing_plan_id":"cebpf4jnsgd1na2vs0mg"},{"bike_id":"a6e58d9f-9722-411e-858a-11e0422c87e7","system_id":"levelo_inurba_marseille","lat":43.3123,"lon":5.36871,"is_reserved":false,"is_disabled":false,"rental_uris":{"android":"levelo://app?vid=a6e58d9f-9722-411e-858a-11e0422c87e7","ios":"levelo://app?vid=a6e58d9f-9722-411e-858a-11e0422c87e7"},"vehicle_type_id":"4","last_reported":1733130702,"current_range_meters":25600,"station_id":"ce4bgl92rcd13ifvqbq0","pricing_plan_id":"cebpf4jnsgd1na2vs0mg"},{"bike_id":"7b2a0aef-6809-4590-a9da-75983d389cd2","system_id":"levelo_inurba_marseille","lat":43.30132,"lon":5.37434,"is_reserved":false,"is_disabled":false,"rental_uris":{"android":"levelo://app?vid=7b2a0aef-6809-4590-a9da-75983d389cd2","ios":"levelo://app?vid=7b2a0aef-6809-4590-a9da-75983d389cd2"},"vehicle_type_id":"4","last_reported":1733130702,"current_range_meters":32000,"station_id":"ce4bgs92rcd13ifvqcc0","pricing_plan_id":"cebpf4jnsgd1na2vs0mg"},{"bike_id":"1e9f7531-f02f-4a68-a033-35dfa2f6d9df","system_id":"levelo_inurba_marseille","lat":43.2847,"lon":5.3854,"is_reserved":false,"is_disabled":true,"rental_uris":{"android":"levelo://app?vid=1e9f7531-f02f-4a68-a033-35dfa2f6d9df","ios":"levelo://app?vid=1e9f7531-f02f-4a68-a033-35dfa2f6d9df"},"vehicle_type_id":"4","last_reported":1733130702,"current_range_meters":16800,"station_id":"ce4bh8p2rcd13ifvqeb0","pricing_plan_id":"cebpf4jnsgd1na2vs0mg"},{"bike_id":"0d03bb26-c720-45e4-a013-9bb2b263aa21","system_id":"levelo_inurba_marseille","lat":43.26948,"lon":5.38637,"is_reserved":false,"is_disabled":false,"rental_uris":{"android":"levelo://app?vid=0d03bb26-c720-45e4-a013-9bb2b263aa21","ios":"levelo://app?vid=0d03bb26-c720-45e4-a013-9bb2b263aa21"},"vehicle_type_id":"4","last_reported":1733130702,"current_range_meters":22000,"station_id":"ce4bhh92rcd13ifvqfh0","pricing_plan_id":"cebpf4jnsgd1na2vs0mg"},{"bike_id":"be2251c1-cd70-4be7-b384-11c1b73557fa","system_id":"levelo_inurba_marseille","lat":43.29675,"lon":5.37291,"is_reserved":false,"is_disabled":false,"rental_uris":{"android":"levelo://app?vid=be2251c1-cd70-4be7-b384-11c1b73557fa","ios":"levelo://app?vid=be2251c1-cd70-4be7-b384-11c1b73557fa"},"vehicle_type_id":"4","last_reported":1733130702,"current_range_meters":28400,"station_id":"ce4bgk12rcd13ifvqbj0","pricing_plan_id":"cebpf4jnsgd1na2vs0mg"},{"bike_id":"e0af28c8-a863-4484-ab80-caa4b3e90a58","system_id":"levelo_inurba_marseille","lat":43.30539,"lon":5.36693,"is_reserved":false,"is_disabled":false,"rental_uris":{"android":"levelo://app?vid=e0af28c8-a863-4484-ab80-caa4b3e90a58","ios":"levelo://app?vid=e0af28c8-a863-4484-ab80-caa4b3e90a58"},"vehicle_type_id":"4","last_reported":1733130702,"current_range_meters":17600,"station_id":"ce4bgrp2rcd13ifvqc9g","pricing_plan_id":"cebpf4jnsgd1na2vs0mg"},{"bike_id":"cc8e36d3-5914-4135-be15-686effde9a04","system_id":"levelo_inurba_marseille","lat":43.2827,"lon":5.35068,"is_reserved":false,"is_disabled":false,"rental_uris":{"android":"levelo://app?vid=cc8e36d3-5914-4135-be15-686effde9a04","ios":"levelo://app?vid=cc8e36d3-5914-4135-be15-686effde9a04"},"vehicle_type_id":"4","last_reported":1733130702,"current_range_meters":38000,"station_id":"ce4bhbp2rcd13ifvqerg","pricing_plan_id":"cebpf4jnsgd1na2vs0mg"},{"bike_id":"98e31dfb-d980-431f-a927-d189f7a11cdb","system_id":"levelo_inurba_marseille","lat":43.29911,"lon":5.38137,"is_reserved":false,"is_disabled":false,"rental_uris":{"android":"levelo://app?vid=98e31dfb-d980-431f-a927-d189f7a11cdb","ios":"levelo://app?vid=98e31dfb-d980-431f-a927-d189f7a11cdb"},"vehicle_type_id":"4","last_reported":1733130702,"current_range_meters":1600,"station_id":"ce4bgj12rcd13ifvqbc0","pricing_plan_id":"cebpf4jnsgd1na2vs0mg"},{"bike_id":"fcd17964-5367-40cf-9490-19c22e55b74b","system_id":"levelo_inurba_marseille","lat":43.26946,"lon":5.38642,"is_reserved":false,"is_disabled":false,"rental_uris":{"android":"levelo://app?vid=fcd17964-5367-40cf-9490-19c22e55b74b","ios":"levelo://app?vid=fcd17964-5367-40cf-9490-19c22e55b74b"},"vehicle_type_id":"4","last_reported":1733130702,"current_range_meters":35600,"station_id":"ce4bhh92rcd13ifvqfh0","pricing_plan_id":"cebpf4jnsgd1na2vs0mg"},{"bike_id":"741e87c8-37e0-4458-b772-9d2a50752ac6","system_id":"levelo_inurba_marseille","lat":43.3054,"lon":5.36698,"is_reserved":false,"is_disabled":false,"rental_uris":{"android":"levelo://app?vid=741e87c8-37e0-4458-b772-9d2a50752ac6","ios":"levelo://app?vid=741e87c8-37e0-4458-b772-9d2a50752ac6"},"vehicle_type_id":"4","last_reported":1733130702,"current_range_meters":39200,"station_id":"ce4bgrp2rcd13ifvqc9g","pricing_plan_id":"cebpf4jnsgd1na2vs0mg"},{"bike_id":"15f7db9f-95f5-4bd9-bddc-67bb73b7373f","system_id":"levelo_inurba_marseille","lat":43.23189,"lon":5.35556,"is_reserved":false,"is_disabled":false,"rental_uris":{"android":"levelo://app?vid=15f7db9f-95f5-4bd9-bddc-67bb73b7373f","ios":"levelo://app?vid=15f7db9f-95f5-4bd9-bddc-67bb73b7373f"},"vehicle_type_id":"4","last_reported":1733130702,"current_range_meters":4000,"station_id":"ce4bhu92rcd13ifvqi70","pricing_plan_id":"cebpf4jnsgd1na2vs0mg"},{"bike_id":"deb5935c-fdd9-4853-bd3e-2b78c46b62f5","system_id":"levelo_inurba_marseille","lat":43.30548,"lon":5.36671,"is_reserved":false,"is_disabled":false,"rental_uris":{"android":"levelo://app?vid=deb5935c-fdd9-4853-bd3e-2b78c46b62f5","ios":"levelo://app?vid=deb5935c-fdd9-4853-bd3e-2b78c46b62f5"},"vehicle_type_id":"4","last_reported":1733130702,"current_range_meters":40000,"station_id":"ce4bgrp2rcd13ifvqc9g","pricing_plan_id":"cebpf4jnsgd1na2vs0mg"},{"bike_id":"c109599f-460a-4c04-9b06-057f16909e88","system_id":"levelo_inurba_marseille","lat":43.295723,"lon":5.399681,"is_reserved":false,"is_disabled":true,"rental_uris":{"android":"levelo://app?vid=c109599f-460a-4c04-9b06-057f16909e88","ios":"levelo://app?vid=c109599f-460a-4c04-9b06-057f16909e88"},"vehicle_type_id":"4","last_reported":1733130702,"current_range_meters":20400,"station_id":"ce4bh312rcd13ifvqdj0","pricing_plan_id":"cebpf4jnsgd1na2vs0mg"},{"bike_id":"b3bc4125-b8db-487f-97a3-fdc48a795631","system_id":"levelo_inurba_marseille","lat":43.28148,"lon":5.42634,"is_reserved":false,"is_disabled":false,"rental_uris":{"android":"levelo://app?vid=b3bc4125-b8db-487f-97a3-fdc48a795631","ios":"levelo://app?vid=b3bc4125-b8db-487f-97a3-fdc48a795631"},"vehicle_type_id":"4","last_reported":1733130702,"current_range_meters":26000,"station_id":"ce4bhnh2rcd13ifvqgug","pricing_plan_id":"cebpf4jnsgd1na2vs0mg"},{"bike_id":"d8d6cb5e-eedd-4683-935e-c88248734e3e","system_id":"levelo_inurba_marseille","lat":43.3052,"lon":5.36533,"is_reserved":false,"is_disabled":false,"rental_uris":{"android":"levelo://app?vid=d8d6cb5e-eedd-4683-935e-c88248734e3e","ios":"levelo://app?vid=d8d6cb5e-eedd-4683-935e-c88248734e3e"},"vehicle_type_id":"4","last_reported":1733130702,"current_range_meters":40000,"station_id":"ce4bgs12rcd13ifvqcag","pricing_plan_id":"cebpf4jnsgd1na2vs0mg"},{"bike_id":"5cbcf58d-ebe6-48e4-ba2a-d634647cce8b","system_id":"levelo_inurba_marseille","lat":43.337444,"lon":5.374475,"is_reserved":false,"is_disabled":false,"rental_uris":{"android":"levelo://app?vid=5cbcf58d-ebe6-48e4-ba2a-d634647cce8b","ios":"levelo://app?vid=5cbcf58d-ebe6-48e4-ba2a-d634647cce8b"},"vehicle_type_id":"4","last_reported":1733130702,"current_range_meters":30400,"station_id":"ce4bgk12rcd13ifvqbi0","pricing_plan_id":"cebpf4jnsgd1na2vs0mg"},{"bike_id":"db3702d9-1f19-4c47-a83f-116bce43890c","system_id":"levelo_inurba_marseille","lat":43.30083,"lon":5.39078,"is_reserved":false,"is_disabled":false,"rental_uris":{"android":"levelo://app?vid=db3702d9-1f19-4c47-a83f-116bce43890c","ios":"levelo://app?vid=db3702d9-1f19-4c47-a83f-116bce43890c"},"vehicle_type_id":"4","last_reported":1733130702,"current_range_meters":18000,"station_id":"ce4bh192rcd13ifvqdb0","pricing_plan_id":"cebpf4jnsgd1na2vs0mg"},{"bike_id":"9dd1fc98-a89e-437a-b707-6eb8b3c899e8","system_id":"levelo_inurba_marseille","lat":43.290356,"lon":5.359215,"is_reserved":false,"is_disabled":true,"rental_uris":{"android":"levelo://app?vid=9dd1fc98-a89e-437a-b707-6eb8b3c899e8","ios":"levelo://app?vid=9dd1fc98-a89e-437a-b707-6eb8b3c899e8"},"vehicle_type_id":"4","last_reported":1733130702,"current_range_meters":0,"station_id":"ce4bha92rcd13ifvqeg0","pricing_plan_id":"cebpf4jnsgd1na2vs0mg"},{"bike_id":"10543308-127a-45df-8867-c8b121d159da","system_id":"levelo_inurba_marseille","lat":43.30464,"lon":5.379,"is_reserved":false,"is_disabled":false,"rental_uris":{"android":"levelo://app?vid=10543308-127a-45df-8867-c8b121d159da","ios":"levelo://app?vid=10543308-127a-45df-8867-c8b121d159da"},"vehicle_type_id":"4","last_reported":1733130702,"current_range_meters":39200,"station_id":"ce4bgup2rcd13ifvqcn0","pricing_plan_id":"cebpf4jnsgd1na2vs0mg"},{"bike_id":"fb3ca736-6ecb-47b7-90e2-663d13bb67d1","system_id":"levelo_inurba_marseille","lat":43.31348,"lon":5.36717,"is_reserved":false,"is_disabled":true,"rental_uris":{"android":"levelo://app?vid=fb3ca736-6ecb-47b7-90e2-663d13bb67d1","ios":"levelo://app?vid=fb3ca736-6ecb-47b7-90e2-663d13bb67d1"},"vehicle_type_id":"4","last_reported":1733130702,"current_range_meters":22800,"station_id":"ce4bgr92rcd13ifvqc6g","pricing_plan_id":"cebpf4jnsgd1na2vs0mg"},{"bike_id":"bea43fe6-0ab8-4ff0-afcb-1dc4fc192577","system_id":"levelo_inurba_marseille","lat":43.25104,"lon":5.40332,"is_reserved":false,"is_disabled":true,"rental_uris":{"android":"levelo://app?vid=bea43fe6-0ab8-4ff0-afcb-1dc4fc192577","ios":"levelo://app?vid=bea43fe6-0ab8-4ff0-afcb-1dc4fc192577"},"vehicle_type_id":"4","last_reported":1733130702,"current_range_meters":0,"station_id":"ce4bhlh2rcd13ifvqgig","pricing_plan_id":"cebpf4jnsgd1na2vs0mg"},{"bike_id":"f5078b8f-458c-46e5-9040-98e7aeec84ee","system_id":"levelo_inurba_marseille","lat":43.29847,"lon":5.36258,"is_reserved":false,"is_disabled":false,"rental_uris":{"android":"levelo://app?vid=f5078b8f-458c-46e5-9040-98e7aeec84ee","ios":"levelo://app?vid=f5078b8f-458c-46e5-9040-98e7aeec84ee"},"vehicle_type_id":"4","last_reported":1733130702,"current_range_meters":39200,"station_id":"ce4bgpp2rcd13ifvqc3g","pricing_plan_id":"cebpf4jnsgd1na2vs0mg"},{"bike_id":"1b4091b4-9da5-4e08-a623-15bd0eb83e75","system_id":"levelo_inurba_marseille","lat":43.29303,"lon":5.37164,"is_reserved":false,"is_disabled":true,"rental_uris":{"android":"levelo://app?vid=1b4091b4-9da5-4e08-a623-15bd0eb83e75","ios":"levelo://app?vid=1b4091b4-9da5-4e08-a623-15bd0eb83e75"},"vehicle_type_id":"4","last_reported":1733130702,"current_range_meters":400,"station_id":"ce4bgh92rcd13ifvqb40","pricing_plan_id":"cebpf4jnsgd1na2vs0mg"},{"bike_id":"d943d960-7d9b-4964-9228-20089cd21664","system_id":"levelo_inurba_marseille","lat":43.32901,"lon":5.36446,"is_reserved":false,"is_disabled":false,"rental_uris":{"android":"levelo://app?vid=d943d960-7d9b-4964-9228-20089cd21664","ios":"levelo://app?vid=d943d960-7d9b-4964-9228-20089cd21664"},"vehicle_type_id":"4","last_reported":1733130702,"current_range_meters":10800,"station_id":"","pricing_plan_id":"cebpf4jnsgd1na2vs0mg"},{"bike_id":"23da5067-cac7-4ef3-9734-be333b976303","system_id":"levelo_inurba_marseille","lat":43.25489,"lon":5.37648,"is_reserved":false,"is_disabled":false,"rental_uris":{"android":"levelo://app?vid=23da5067-cac7-4ef3-9734-be333b976303","ios":"levelo://app?vid=23da5067-cac7-4ef3-9734-be333b976303"},"vehicle_type_id":"4","last_reported":1733130702,"current_range_meters":16800,"station_id":"ce4bhh12rcd13ifvqff0","pricing_plan_id":"cebpf4jnsgd1na2vs0mg"},{"bike_id":"f52201c4-777b-47e4-acdd-213fa552e9d2","system_id":"levelo_inurba_marseille","lat":43.28999,"lon":5.35621,"is_reserved":false,"is_disabled":true,"rental_uris":{"android":"levelo://app?vid=f52201c4-777b-47e4-acdd-213fa552e9d2","ios":"levelo://app?vid=f52201c4-777b-47e4-acdd-213fa552e9d2"},"vehicle_type_id":"4","last_reported":1733130702,"current_range_meters":1600,"station_id":"ce4bhb92rcd13ifvqen0","pricing_plan_id":"cebpf4jnsgd1na2vs0mg"},{"bike_id":"7bef2ffc-0df9-495e-a712-c095ced5f113","system_id":"levelo_inurba_marseille","lat":43.29016,"lon":5.3814,"is_reserved":false,"is_disabled":false,"rental_uris":{"android":"levelo://app?vid=7bef2ffc-0df9-495e-a712-c095ced5f113","ios":"levelo://app?vid=7bef2ffc-0df9-495e-a712-c095ced5f113"},"vehicle_type_id":"4","last_reported":1733130702,"current_range_meters":38800,"station_id":"ce4bh4p2rcd13ifvqe1g","pricing_plan_id":"cebpf4jnsgd1na2vs0mg"},{"bike_id":"576c45ad-a52b-4e51-9df1-98c809c7705f","system_id":"levelo_inurba_marseille","lat":43.29275,"lon":5.40128,"is_reserved":false,"is_disabled":true,"rental_uris":{"android":"levelo://app?vid=576c45ad-a52b-4e51-9df1-98c809c7705f","ios":"levelo://app?vid=576c45ad-a52b-4e51-9df1-98c809c7705f"},"vehicle_type_id":"4","last_reported":1733130702,"current_range_meters":38000,"station_id":"ce4bh312rcd13ifvqdk0","pricing_plan_id":"cebpf4jnsgd1na2vs0mg"},{"bike_id":"5c1862d6-3b86-4de8-afe1-b06c7f37480d","system_id":"levelo_inurba_marseille","lat":43.28423,"lon":5.34975,"is_reserved":false,"is_disabled":false,"rental_uris":{"android":"levelo://app?vid=5c1862d6-3b86-4de8-afe1-b06c7f37480d","ios":"levelo://app?vid=5c1862d6-3b86-4de8-afe1-b06c7f37480d"},"vehicle_type_id":"4","last_reported":1733130702,"current_range_meters":28400,"station_id":"ce4bhbh2rcd13ifvqepg","pricing_plan_id":"cebpf4jnsgd1na2vs0mg"},{"bike_id":"f9a63393-5401-4f98-ae5a-dfbb8291ab6d","system_id":"levelo_inurba_marseille","lat":43.3004,"lon":5.37551,"is_reserved":false,"is_disabled":true,"rental_uris":{"android":"levelo://app?vid=f9a63393-5401-4f98-ae5a-dfbb8291ab6d","ios":"levelo://app?vid=f9a63393-5401-4f98-ae5a-dfbb8291ab6d"},"vehicle_type_id":"4","last_reported":1733130702,"current_range_meters":0,"station_id":"","pricing_plan_id":"cebpf4jnsgd1na2vs0mg"},{"bike_id":"fd1b4578-3001-4303-ac74-c407ef94a212","system_id":"levelo_inurba_marseille","lat":43.25928,"lon":5.40902,"is_reserved":false,"is_disabled":false,"rental_uris":{"android":"levelo://app?vid=fd1b4578-3001-4303-ac74-c407ef94a212","ios":"levelo://app?vid=fd1b4578-3001-4303-ac74-c407ef94a212"},"vehicle_type_id":"4","last_reported":1733130702,"current_range_meters":29600,"station_id":"ce4bhm92rcd13ifvqglg","pricing_plan_id":"cebpf4jnsgd1na2vs0mg"},{"bike_id":"c92312e0-ceb1-4253-b70d-c17f369ea38d","system_id":"levelo_inurba_marseille","lat":43.29706,"lon":5.36604,"is_reserved":false,"is_disabled":false,"rental_uris":{"android":"levelo://app?vid=c92312e0-ceb1-4253-b70d-c17f369ea38d","ios":"levelo://app?vid=c92312e0-ceb1-4253-b70d-c17f369ea38d"},"vehicle_type_id":"4","last_reported":1733130702,"current_range_meters":38400,"station_id":"ce4bgn12rcd13ifvqbt0","pricing_plan_id":"cebpf4jnsgd1na2vs0mg"},