{"last_updated":1734196045,"ttl":60,"version":"2.2","data":{"bikes":[{"bike_id":"45c22bfb-3859-46ca-bbdd-b43970628095","system_id":"levelo_inurba_marseille","lat":43.23209,"lon":5.40016,"is_reserved":false,"is_disabled":false,"rental_uris":{"android":"levelo://app?vid=45c22bfb-3859-46ca-bbdd-b43970628095","ios":"levelo://app?vid=45c22bfb-3859-46ca-bbdd-b43970628095"},"vehicle_type_id":"4","last_reported":1734196045,"current_range_meters":21600,"station_id":"ce4bhn12rcd13ifvqgqg","pricing_plan_id":"cebpf4jnsgd1na2vs0mg"},{"bike_id":"3bbd559a-b2c3-4665-9373-e5fb5a95a297","system_id":"levelo_inurba_marseille","lat":43.23197,"lon":5.35549,"is_reserved":false,"is_disabled":false,"rental_uris":{"android":"levelo://app?vid=3bbd559a-b2c3-4665-9373-e5fb5a95a297","ios":"levelo://app?vid=3bbd559a-b2c3-4665-9373-e5fb5a95a297"},"vehicle_type_id":"4","last_reported":1734196045,"current_range_meters":18800,"station_id":"ce4bhu92rcd13ifvqi70","pricing_plan_id":"cebpf4jnsgd1na2vs0mg"},{"bike_id":"41f420f3-26ec-43c8-aa26-9346a9d65155","system_id":"levelo_inurba_marseille","lat":43.27549,"lon":5.3842,"is_reserved":false,"is_disabled":false,"rental_uris":{"android":"levelo://app?vid=41f420f3-26ec-43c8-aa26-9346a9d65155","ios":"levelo://app?vid=41f420f3-26ec-43c8-aa26-9346a9d65155"},"vehicle_type_id":"4","last_reported":1734196045,"current_range_meters":36400,"station_id":"ce4bhh92rcd13ifvqfi0","pricing_plan_id":"cebpf4jnsgd1na2vs0mg"},{"bike_id":"35642114-ba9f-4cd0-9d6f-a2edaa6e597b","system_id":"levelo_inurba_marseille","lat":43.30467,"lon":5.37896,"is_reserved":false,"is_disabled":false,"rental_uris":{"android":"levelo://app?vid=35642114-ba9f-4cd0-9d6f-a2edaa6e597b","ios":"levelo://app?vid=35642114-ba9f-4cd0-9d6f-a2edaa6e597b"},"vehicle_type_id":"4","last_reported":1734196045,"current_range_meters":12400,"station_id":"ce4bgup2rcd13ifvqcn0","pricing_plan_id":"cebpf4jnsgd1na2vs0mg"},{"bike_id":"10e5e65b-de24-4341-86b7-fc41ee764229","system_id":"levelo_inurba_marseille","lat":43.2692,"lon":5.40232,"is_reserved":false,"is_disabled":false,"rental_uris":{"android":"levelo://app?vid=10e5e65b-de24-4341-86b7-fc41ee764229","ios":"levelo://app?vid=10e5e65b-de24-4341-86b7-fc41ee764229"},"vehicle_type_id":"4","last_reported":1734196045,"current_range_meters":29600,"station_id":"cjm6bp8fraef2m0cb0m0","pricing_plan_id":"cebpf4jnsgd1na2vs0mg"},{"bike_id":"51753879-9dc9-4edb-a301-998c37afab5a","system_id":"levelo_inurba_marseille","lat":43.27976,"lon":5.41049,"is_reserved":false,"is_disabled":false,"rental_uris":{"android":"levelo://app?vid=51753879-9dc9-4edb-a301-998c37afab5a","ios":"levelo://app?vid=51753879-9dc9-4edb-a301-998c37afab5a"},"vehicle_type_id":"4","last_reported":1734196045,"current_range_meters":38800,"station_id":"ce4bhnp2rcd13ifvqh0g","pricing_plan_id":"cebpf4jnsgd1na2vs0mg"},{"bike_id":"26d8ebb4-618f-44d3-9c87-c67ba5e89202","system_id":"levelo_inurba_marseille","lat":43.24644,"lon":5.38894,"is_reserved":false,"is_disabled":false,"rental_uris":{"android":"levelo://app?vid=26d8ebb4-618f-44d3-9c87-c67ba5e89202","ios":"levelo://app?vid=26d8ebb4-618f-44d3-9c87-c67ba5e89202"},"vehicle_type_id":"4","last_reported":1734196045,"current_range_meters":22400,"station_id":"ce4bhg12rcd13ifvqf60","pricing_plan_id":"cebpf4jnsgd1na2vs0mg"},{"bike_id":"212f1b13-d787-4daa-8e7d-ba4b7d8b6e8f","system_id":"levelo_inurba_marseille","lat":43.26943,"lon":5.40255,"is_reserved":false,"is_disabled":true,"rental_uris":{"android":"levelo://app?vid=212f1b13-d787-4daa-8e7d-ba4b7d8b6e8f","ios":"levelo://app?vid=212f1b13-d787-4daa-8e7d-ba4b7d8b6e8f"},"vehicle_type_id":"4","last_reported":1734196045,"current_range_meters":1200,"station_id":"cjm6bp8fraef2m0cb0m0","pricing_plan_id":"cebpf4jnsgd1na2vs0mg"},{"bike_id":"66201c9c-a7d8-4840-ad6c-05c74b675bbe","system_id":"levelo_inurba_marseille","lat":43.27321,"lon":5.39094,"is_reserved":false,"is_disabled":true,"rental_uris":{"android":"levelo://app?vid=66201c9c-a7d8-4840-ad6c-05c74b675bbe","ios":"levelo://app?vid=66201c9c-a7d8-4840-ad6c-05c74b675bbe"},"vehicle_type_id":"4","last_reported":1734196045,"current_range_meters":2000,"station_id":"ce4bhgp2rcd13ifvqfe0","pricing_plan_id":"cebpf4jnsgd1na2vs0mg"},{"bike_id":"0a9c6a57-1ca1-4685-9330-f2cf4d20a4b7","system_id":"levelo_inurba_marseille","lat":43.2926,"lon":5.38435,"is_reserved":false,"is_disabled":true,"rental_uris":{"android":"levelo://app?vid=0a9c6a57-1ca1-4685-9330-f2cf4d20a4b7","ios":"levelo://app?vid=0a9c6a57-1ca1-4685-9330-f2cf4d20a4b7"},"vehicle_type_id":"4","last_reported":1734196045,"current_range_meters":1600,"station_id":"ce4bh692rcd13ifvqea0","pricing_plan_id":"cebpf4jnsgd1na2vs0mg"},{"bike_id":"3595e955-9243-4ebf-a4ff-5df2907e8d74","system_id":"levelo_inurba_marseille","lat":43.32288,"lon":5.38273,"is_reserved":false,"is_disabled":false,"rental_uris":{"android":"levelo://app?vid=3595e955-9243-4ebf-a4ff-5df2907e8d74","ios":"levelo://app?vid=3595e955-9243-4ebf-a4ff-5df2907e8d74"},"vehicle_type_id":"4","last_reported":1734196045,"current_range_meters":39200,"station_id":"ce4bhr12rcd13ifvqhqg","pricing_plan_id":"cebpf4jnsgd1na2vs0mg"},{"bike_id":"5686b7f2-798d-4fab-91c8-8eb3ae0d0097","system_id":"levelo_inurba_marseille","lat":43.29008,"lon":5.3562,"is_reserved":false,"is_disabled":false,"rental_uris":{"android":"levelo://app?vid=5686b7f2-798d-4fab-91c8-8eb3ae0d0097","ios":"levelo://app?vid=5686b7f2-798d-4fab-91c8-8eb3ae0d0097"},"vehicle_type_id":"4","last_reported":1734196045,"current_range_meters":6800,"station_id":"ce4bhb92rcd13ifvqen0","pricing_plan_id":"cebpf4jnsgd1na2vs0mg"},{"bike_id":"b9823d69-c15f-44e9-a403-40de6d8b4a76","system_id":"levelo_inurba_marseille","lat":43.29973,"lon":5.38485,"is_reserved":false,"is_disabled":false,"rental_uris":{"android":"levelo://app?vid=b9823d69-c15f-44e9-a403-40de6d8b4a76","ios":"levelo://app?vid=b9823d69-c15f-44e9-a403-40de6d8b4a76"},"vehicle_type_id":"4","last_reported":1734196045,"current_range_meters":12000,"station_id":"ce4bgj92rcd13ifvqbd0","pricing_plan_id":"cebpf4jnsgd1na2vs0mg"},{"bike_id":"496b9119-850a-49b3-bf98-295bb079ca7c","system_id":"levelo_inurba_marseille","lat":43.28196,"lon":5.44581,"is_reserved":false,"is_disabled":false,"rental_uris":{"android":"levelo://app?vid=496b9119-850a-49b3-bf98-295bb079ca7c","ios":"levelo://app?vid=496b9119-850a-49b3-bf98-295bb079ca7c"},"vehicle_type_id":"4","last_reported":1734196045,"current_range_meters":9200,"station_id":"","pricing_plan_id":"cebpf4jnsgd1na2vs0mg"},{"bike_id":"a69c5411-492e-42df-a8b6-8bc1c611aeb2","system_id":"levelo_inurba_marseille","lat":43.27999,"lon":5.4166,"is_reserved":false,"is_disabled":false,"rental_uris":{"android":"levelo://app?vid=a69c5411-492e-42df-a8b6-8bc1c611aeb2","ios":"levelo://app?vid=a69c5411-492e-42df-a8b6-8bc1c611aeb2"},"vehicle_type_id":"4","last_reported":1734196045,"current_range_meters":37600,"station_id":"ce4bho12rcd13ifvqh1g","pricing_plan_id":"cebpf4jnsgd1na2vs0mg"},{"bike_id":"03ff3e32-27a0-4629-8f34-4101ea444023","system_id":"levelo_inurba_marseille","lat":43.28423,"lon":5.37516,"is_reserved":false,"is_disabled":false,"rental_uris":{"android":"levelo://app?vid=03ff3e32-27a0-4629-8f34-4101ea444023","ios":"levelo://app?vid=03ff3e32-27a0-4629-8f34-4101ea444023"},"vehicle_type_id":"4","last_reported":1734196045,"current_range_meters":27200,"station_id":"ce4bh412rcd13ifvqds0","pricing_plan_id":"cebpf4jnsgd1na2vs0mg"},{"bike_id":"bdda6ee3-6971-4411-b103-c17244046de0","system_id":"levelo_inurba_marseille","lat":43.270506,"lon":5.402605,"is_reserved":false,"is_disabled":false,"rental_uris":{"android":"levelo://app?vid=bdda6ee3-6971-4411-b103-c17244046de0","ios":"levelo://app?vid=bdda6ee3-6971-4411-b103-c17244046de0"},"vehicle_type_id":"4","last_reported":1734196045,"current_range_meters":6000,"station_id":"ce4bhk92rcd13ifvqgc0","pricing_plan_id":"cebpf4jnsgd1na2vs0mg"},{"bike_id":"c2d73d9a-a75e-4567-83ca-9b3ad9c335b7","system_id":"levelo_inurba_marseille","lat":43.28154,"lon":5.42643,"is_reserved":false,"is_disabled":true,"rental_uris":{"android":"levelo://app?vid=c2d73d9a-a75e-4567-83ca-9b3ad9c335b7","ios":"levelo://app?vid=c2d73d9a-a75e-4567-83ca-9b3ad9c335b7"},"vehicle_type_id":"4","last_reported":1734196045,"current_range_meters":0,"station_id":"ce4bhnh2rcd13ifvqgug","pricing_plan_id":"cebpf4jnsgd1na2vs0mg"},{"bike_id":"f95d2ed5-e588-4150-ad87-c1ec9c838300","system_id":"levelo_inurba_marseille","lat":43.30156,"lon":5.38089,"is_reserved":false,"is_disabled":false,"rental_uris":{"android":"levelo://app?vid=f95d2ed5-e588-4150-ad87-c1ec9c838300","ios":"levelo://app?vid=f95d2ed5-e588-4150-ad87-c1ec9c838300"},"vehicle_type_id":"4","last_reported":1734196045,"current_range_meters":19600,"station_id":"ce4bgjp2rcd13ifvqbh0","pricing_plan_id":"cebpf4jnsgd1na2vs0mg"},{"bike_id":"d5c89c1f-3bad-4af2-9449-e04c277a4696","system_id":"levelo_inurba_marseille","lat":43.29964,"lon":5.41336,"is_reserved":false,"is_disabled":true,"rental_uris":{"android":"levelo://app?vid=d5c89c1f-3bad-4af2-9449-e04c277a4696","ios":"levelo://app?vid=d5c89c1f-3bad-4af2-9449-e04c277a4696"},"vehicle_type_id":"4","last_reported":1734196045,"current_range_meters":38800,"station_id":"ce4bhp12rcd13ifvqh9g","pricing_plan_id":"cebpf4jnsgd1na2vs0mg"},{"bike_id":"42d4d55b-6294-45b2-8848-60cdf232427e","system_id":"levelo_inurba_marseille","lat":43.272105,"lon":5.39181,"is_reserved":false,"is_disabled":false,"rental_uris":{"android":"levelo://app?vid=42d4d55b-6294-45b2-8848-60cdf232427e","ios":"levelo://app?vid=42d4d55b-6294-45b2-8848-60cdf232427e"},"vehicle_type_id":"4","last_reported":1734196045,"current_range_meters":35600,"station_id":"ce4bhhp2rcd13ifvqfm0","pricing_plan_id":"cebpf4jnsgd1na2vs0mg"},{"bike_id":"5dcb142e-3766-4e2c-b1fe-c9ebbc5d3c50","system_id":"levelo_inurba_marseille","lat":43.3199,"lon":5.38148,"is_reserved":false,"is_disabled":false,"rental_uris":{"android":"levelo://app?vid=5dcb142e-3766-4e2c-b1fe-c9ebbc5d3c50","ios":"levelo://app?vid=5dcb142e-3766-4e2c-b1fe-c9ebbc5d3c50"},"vehicle_type_id":"4","last_reported":1734196045,"current_range_meters":38800,"station_id":"ce4bhr12rcd13ifvqhpg","pricing_plan_id":"cebpf4jnsgd1na2vs0mg"},{"bike_id":"89c28168-9e53-422f-a68c-5ee6ccf55d1e","system_id":"levelo_inurba_marseille","lat":43.29717,"lon":5.37661,"is_reserved":false,"is_disabled":false,"rental_uris":{"android":"levelo://app?vid=89c28168-9e53-422f-a68c-5ee6ccf55d1e","ios":"levelo://app?vid=89c28168-9e53-422f-a68c-5ee6ccf55d1e"},"vehicle_type_id":"4","last_reported":1734196045,"current_range_meters":38800,"station_id":"ce4bgkh2rcd13ifvqbl0","pricing_plan_id":"cebpf4jnsgd1na2vs0mg"},{"bike_id":"ba838ee3-c54d-4ede-b6cd-d1685e40e5d7","system_id":"levelo_inurba_marseille","lat":43.23203,"lon":5.39976,"is_reserved":false,"is_disabled":false,"rental_uris":{"android":"levelo://app?vid=ba838ee3-c54d-4ede-b6cd-d1685e40e5d7","ios":"levelo://app?vid=ba838ee3-c54d-4ede-b6cd-d1685e40e5d7"},"vehicle_type_id":"4","last_reported":1734196045,"current_range_meters":26000,"station_id":"ce4bhn12rcd13ifvqgqg","pricing_plan_id":"cebpf4jnsgd1na2vs0mg"},{"bike_id":"595ce88a-34cb-4990-9769-b15c51d16d43","system_id":"levelo_inurba_marseille","lat":43.293,"lon":5.36845,"is_reserved":false,"is_disabled":false,"rental_uris":{"android":"levelo://app?vid=595ce88a-34cb-4990-9769-b15c51d16d43","ios":"levelo://app?vid=595ce88a-34cb-4990-9769-b15c51d16d43"},"vehicle_type_id":"4","last_reported":1734196045,"current_range_meters":38800,"station_id":"ce4bhbp2rcd13ifvqesg","pricing_plan_id":"cebpf4jnsgd1na2vs0mg"},{"bike_id":"156f138a-aaf6-416d-a708-416b689e3396","system_id":"levelo_inurba_marseille","lat":43.30453,"lon":5.38914,"is_reserved":false,"is_disabled":false,"rental_uris":{"android":"levelo://app?vid=156f138a-aaf6-416d-a708-416b689e3396","ios":"levelo://app?vid=156f138a-aaf6-416d-a708-416b689e3396"},"vehicle_type_id":"4","last_reported":1734196045,"current_range_meters":30000,"station_id":"ce4bgk12rcd13ifvqbi0","pricing_plan_id":"cebpf4jnsgd1na2vs0mg"},{"bike_id":"d73fd242-71d9-4951-a797-6f754b8a00c6","system_id":"levelo_inurba_marseille","lat":43.3134,"lon":5.36727,"is_reserved":false,"is_disabled":false,"rental_uris":{"android":"levelo://app?vid=d73fd242-71d9-4951-a797-6f754b8a00c6","ios":"levelo://app?vid=d73fd242-71d9-4951-a797-6f754b8a00c6"},"vehicle_type_id":"4","last_reported":1734196045,"current_range_meters":37600,"station_id":"ce4bh0p2rcd13ifvqd70","pricing_plan_id":"cebpf4jnsgd1na2vs0mg"},{"bike_id":"4701d348-349f-48c0-a23f-9431505e3e1f","system_id":"levelo_inurba_marseille","lat":43.282915,"lon":5.400009,"is_reserved":false,"is_disabled":false,"rental_uris":{"android":"levelo://app?vid=4701d348-349f-48c0-a23f-9431505e3e1f","ios":"levelo://app?vid=4701d348-349f-48c0-a23f-9431505e3e1f"},"vehicle_type_id":"4","last_reported":1734196045,"current_range_meters":6800,"station_id":"ce4bh312rcd13ifvqdk0","pricing_plan_id":"cebpf4jnsgd1na2vs0mg"},{"bike_id":"83481095-909d-446d-9ecf-b790b0925c05","system_id":"levelo_inurba_marseille","lat":43.29785,"lon":5.38106,"is_reserved":false,"is_disabled":false,"rental_uris":{"android":"levelo://app?vid=83481095-909d-446d-9ecf-b790b0925c05","ios":"levelo://app?vid=83481095-909d-446d-9ecf-b790b0925c05"},"vehicle_type_id":"4","last_reported":1734196045,"current_range_meters":36800,"station_id":"ce4bgip2rcd13ifvqbb0","pricing_plan_id":"cebpf4jnsgd1na2vs0mg"},{"bike_id":"960af37b-3273-4944-a076-6d1ad043e7b2","system_id":"levelo_inurba_marseille","lat":43.32048,"lon":5.41553,"is_reserved":false,"is_disabled":false,"rental_uris":{"android":"levelo://app?vid=960af37b-3273-4944-a076-6d1ad043e7b2","ios":"levelo://app?vid=960af37b-3273-4944-a076-6d1ad043e7b2"},"vehicle_type_id":"4","last_reported":1734196045,"current_range_meters":36800,"station_id":"ce4bhq92rcd13ifvqhkg","pricing_plan_id":"cebpf4jnsgd1na2vs0mg"},{"bike_id":"86b2bb57-e728-4e34-a86e-21086aa0a283","system_id":"levelo_inurba_marseille","lat":43.29913,"lon":5.37499,"is_reserved":false,"is_disabled":false,"rental_uris":{"android":"levelo://app?vid=86b2bb57-e728-4e34-a86e-21086aa0a283","ios":"levelo://app?vid=86b2bb57-e728-4e34-a86e-21086aa0a283"},"vehicle_type_id":"4","last_reported":1734196045,"current_range_meters":9600,"station_id":"ce4bgjh2rcd13ifvqbg0","pricing_plan_id":"cebpf4jnsgd1na2vs0mg"},{"bike_id":"4357fc5e-ee23-4611-98c3-7fd4319fc9ef","system_id":"levelo_inurba_marseille","lat":43.2851,"lon":5.38572,"is_reserved":false,"is_disabled":false,"rental_uris":{"android":"levelo://app?vid=4357fc5e-ee23-4611-98c3-7fd4319fc9ef","ios":"levelo://app?vid=4357fc5e-ee23-4611-98c3-7fd4319fc9ef"},"vehicle_type_id":"4","last_reported":1734196045,"current_range_meters":11200,"station_id":"ce4bh8p2rcd13ifvqeb0","pricing_plan_id":"cebpf4jnsgd1na2vs0mg"},{"bike_id":"edaea664-24e0-4d6c-aa7a-497f5c5f88f6","system_id":"levelo_inurba_marseille","lat":43.27018,"lon":5.39159,"is_reserved":false,"is_disabled":true,"rental_uris":{"android":"levelo://app?vid=edaea664-24e0-4d6c-aa7a-497f5c5f88f6","ios":"levelo://app?vid=edaea664-24e0-4d6c-aa7a-497f5c5f88f6"},"vehicle_type_id":"4","last_reported":1734196045,"current_range_meters":0,"station_id":"","pricing_plan_id":"cebpf4jnsgd1na2vs0mg"},{"bike_id":"637f7e23-be3b-4aa9-87cb-5d394800192c","system_id":"levelo_inurba_marseille","lat":43.3174,"lon":5.43692,"is_reserved":false,"is_disabled":true,"rental_uris":{"android":"levelo://app?vid=637f7e23-be3b-4aa9-87cb-5d394800192c","ios":"levelo://app?vid=637f7e23-be3b-4aa9-87cb-5d394800192c"},"vehicle_type_id":"4","last_reported":1734196045,"current_range_meters":1600,"station_id":"ce4bhp92rcd13ifvqhcg","pricing_plan_id":"cebpf4jnsgd1na2vs0mg"},{"bike_id":"08a83b91-4e50-4c21-a639-e35599c6582b","system_id":"levelo_inurba_marseille","lat":43.25718,"lon":5.41114,"is_reserved":false,"is_disabled":false,"rental_uris":{"android":"levelo://app?vid=08a83b91-4e50-4c21-a639-e35599c6582b","ios":"levelo://app?vid=08a83b91-4e50-4c21-a639-e35599c6582b"},"vehicle_type_id":"4","last_reported":1734196045,"current_range_meters":36800,"station_id":"ce4bhkp2rcd13ifvqgd0","pricing_plan_id":"cebpf4jnsgd1na2vs0mg"},{"bike_id":"88174bb9-e391-4e64-8c19-a3d7ccf7d96e","system_id":"levelo_inurba_marseille","lat":43.30647,"lon":5.40102,"is_reserved":false,"is_disabled":false,"rental_uris":{"android":"levelo://app?vid=88174bb9-e391-4e64-8c19-a3d7ccf7d96e","ios":"levelo://app?vid=88174bb9-e391-4e64-8c19-a3d7ccf7d96e"},"vehicle_type_id":"4","last_reported":1734196045,"current_range_meters":38800,"station_id":"ce4bh112rcd13ifvqda0","pricing_plan_id":"cebpf4jnsgd1na2vs0mg"},{"bike_id":"3e38895e-9003-433e-bff1-b316f0792d62","system_id":"levelo_inurba_marseille","lat":43.29571,"lon":5.37545,"is_reserved":false,"is_disabled":false,"rental_uris":{"android":"levelo://app?vid=3e38895e-9003-433e-bff1-b316f0792d62","ios":"levelo://app?vid=3e38895e-9003-433e-bff1-b316f0792d62"},"vehicle_type_id":"4","last_reported":1734196045,"current_range_meters":38400,"station_id":"ce4bgh92rcd13ifvqb50","pricing_plan_id":"cebpf4jnsgd1na2vs0mg"},{"bike_id":"128784c3-0577-45dd-9aad-8c7a42d25999","system_id":"levelo_inurba_marseille","lat":43.31164,"lon":5.38732,"is_reserved":false,"is_disabled":false,"rental_uris":{"android":"levelo://app?vid=128784c3-0577-45dd-9aad-8c7a42d25999","ios":"levelo://app?vid=128784c3-0577-45dd-9aad-8c7a42d25999"},"vehicle_type_id":"4","last_reported":1734196045,"current_range_meters":37600,"station_id":"ce4bgv12rcd13ifvqcp0","pricing_plan_id":"cebpf4jnsgd1na2vs0mg"},{"bike_id":"48a2373e-e4fc-4f31-ad4c-6394e9af9b1c","system_id":"levelo_inurba_marseille","lat":43.30359,"lon":5.41889,"is_reserved":false,"is_disabled":true,"rental_uris":{"android":"levelo://app?vid=48a2373e-e4fc-4f31-ad4c-6394e9af9b1c","ios":"levelo://app?vid=48a2373e-e4fc-4f31-ad4c-6394e9af9b1c"},"vehicle_type_id":"4","last_reported":1734196045,"current_range_meters":0,"station_id":"ce4bhop2rcd13ifvqh7g","pricing_plan_id":"cebpf4jnsgd1na2vs0mg"},{"bike_id":"6bfacb51-2580-4ccf-9aa3-c8ac17392142","system_id":"levelo_inurba_marseille","lat":43.33604,"lon":5.40995,"is_reserved":false,"is_disabled":false,"rental_uris":{"android":"levelo://app?vid=6bfacb51-2580-4ccf-9aa3-c8ac17392142","ios":"levelo://app?vid=6bfacb51-2580-4ccf-9aa3-c8ac17392142"},"vehicle_type_id":"4","last_reported":1734196045,"current_range_meters":38800,"station_id":"ce4bhqh2rcd13ifvqhmg","pricing_plan_id":"cebpf4jnsgd1na2vs0mg"},{"bike_id":"06c92e0d-29b8-4667-937e-ff59deb72862","system_id":"levelo_inurba_marseille","lat":43.262,"lon":5.37933,"is_reserved":false,"is_disabled":false,"rental_uris":{"android":"levelo://app?vid=06c92e0d-29b8-4667-937e-ff59deb72862","ios":"levelo://app?vid=06c92e0d-29b8-4667-937e-ff59deb72862"},"vehicle_type_id":"4","last_reported":1734196045,"current_range_meters":3600,"station_id":"ce4bhjp2rcd13ifvqg90","pricing_plan_id":"cebpf4jnsgd1na2vs0mg"},{"bike_id":"623d3fa7-759b-45ca-83a9-1e272575d5f9","system_id":"levelo_inurba_marseille","lat":43.32496,"lon":5.36558,"is_reserved":false,"is_disabled":false,"rental_uris":{"android":"levelo://app?vid=623d3fa7-759b-45ca-83a9-1e272575d5f9","ios":"levelo://app?vid=623d3fa7-759b-45ca-83a9-1e272575d5f9"},"vehicle_type_id":"4","last_reported":1734196045,"current_range_meters":33200,"station_id":"ce4bhs12rcd13ifvqhvg","pricing_plan_id":"cebpf4jnsgd1na2vs0mg"},{"bike_id":"4fe5b802-6d4a-478f-80f7-e4f6837b7ef9","system_id":"levelo_inurba_marseille","lat":43.26941,"lon":5.40252,"is_reserved":false,"is_disabled":true,"rental_uris":{"android":"levelo://app?vid=4fe5b802-6d4a-478f-80f7-e4f6837b7ef9","ios":"levelo://app?vid=4fe5b802-6d4a-478f-80f7-e4f6837b7ef9"},"vehicle_type_id":"4","last_reported":1734196045,"current_range_meters":0,"station_id":"cjm6bp8fraef2m0cb0m0","pricing_plan_id":"cebpf4jnsgd1na2vs0mg"},{"bike_id":"36a0f00d-c731-474d-811c-66c4d415743e","system_id":"levelo_inurba_marseille","lat":43.31176,"lon":5.38715,"is_reserved":false,"is_disabled":false,"rental_uris":{"android":"levelo://app?vid=36a0f00d-c731-474d-811c-66c4d415743e","ios":"levelo://app?vid=36a0f00d-c731-474d-811c-66c4d415743e"},"vehicle_type_id":"4","last_reported":1734196045,"current_range_meters":39200,"station_id":"ce4bgv12rcd13ifvqcp0","pricing_plan_id":"cebpf4jnsgd1na2vs0mg"},{"bike_id":"fd4efec3-03a9-456d-9f3e-04aeb194cc68","system_id":"levelo_inurba_marseille","lat":43.25816,"lon":5.39427,"is_reserved":false,"is_disabled":false,"rental_uris":{"android":"levelo://app?vid=fd4efec3-03a9-456d-9f3e-04aeb194cc68","ios":"levelo://app?vid=fd4efec3-03a9-456d-9f3e-04aeb194cc68"},"vehicle_type_id":"4","last_reported":1734196045,"current_range_meters":34000,"station_id":"ce4bhip2rcd13ifvqft0","pricing_plan_id":"cebpf4jnsgd1na2vs0mg"},{"bike_id":"9e25212c-cbb7-4bbb-b0ef-530024be3d7e","system_id":"levelo_inurba_marseille","lat":43.32462,"lon":5.36553,"is_reserved":false,"is_disabled":false,"rental_uris":{"android":"levelo://app?vid=9e25212c-cbb7-4bbb-b0ef-530024be3d7e","ios":"levelo://app?vid=9e25212c-cbb7-4bbb-b0ef-530024be3d7e"},"vehicle_type_id":"4","last_reported":1734196045,"current_range_meters":38800,"station_id":"ce4bhs12rcd13ifvqhvg","pricing_plan_id":"cebpf4jnsgd1na2vs0mg"},{"bike_id":"0f41ca97-ca4c-4cbb-a15c-2b271ebfe864","system_id":"levelo_inurba_marseille","lat":43.29365,"lon":5.37826,"is_reserved":false,"is_disabled":false,"rental_uris":{"android":"levelo://app?vid=0f41ca97-ca4c-4cbb-a15c-2b271ebfe864","ios":"levelo://app?vid=0f41ca97-ca4c-4cbb-a15c-2b271ebfe864"},"vehicle_type_id":"4","last_reported":1734196045,"current_range_meters":39200,"station_id":"ce4bgjh2rcd13ifvqbf0","pricing_plan_id":"cebpf4jnsgd1na2vs0mg"},{"bike_id":"8c3ac0a6-2973-4d86-b367-0bb79d0e0e5a","system_id":"levelo_inurba_marseille","lat":43.294171,"lon":5.386232,"is_reserved":false,"is_disabled":false,"rental_uris":{"android":"levelo://app?vid=8c3ac0a6-2973-4d86-b367-0bb79d0e0e5a","ios":"levelo://app?vid=8c3ac0a6-2973-4d86-b367-0bb79d0e0e5a"},"vehicle_type_id":"4","last_reported":1734196045,"current_range_meters":8400,"station_id":"ce4bh2h2rcd13ifvqdh0","pricing_plan_id":"cebpf4jnsgd1na2vs0mg"},{"bike_id":"598cd91e-5725-4aa4-92f6-620ea21032c5","system_id":"levelo_inurba_marseille","lat":43.30492,"lon":5.37897,"is_reserved":false,"is_disabled":false,"rental_uris":{"android":"levelo://app?vid=598cd91e-5725-4aa4-92f6-620ea21032c5","ios":"levelo://app?vid=598cd91e-5725-4aa4-92f6-620ea21032c5"},"vehicle_type_id":"4","last_reported":1734196045,"current_range_meters":34000,"station_id":"ce4bgup2rcd13ifvqcn0","pricing_plan_id":"cebpf4jnsgd1na2vs0mg"},{"bike_id":"adc4ecf9-5f4c-49e0-915f-2787f3778b82","system_id":"levelo_inurba_marseille","lat":43.32285,"lon":5.38285,"is_reserved":false,"is_disabled":false,"rental_uris":{"android":"levelo://app?vid=adc4ecf9-5f4c-49e0-915f-2787f3778b82","ios":"levelo://app?vid=adc4ecf9-5f4c-49e0-915f-2787f3778b82"},"vehicle_type_id":"4","last_reported":1734196045,"current_range_meters":38800,"station_id":"ce4bhr12rcd13ifvqhqg","pricing_plan_id":"cebpf4jnsgd1na2vs0mg"},{"bike_id":"0d895078-dc15-4f70-84ce-e09208baeda4","system_id":"levelo_inurba_marseille","lat":43.31077,"lon":5.36893,"is_reserved":false,"is_disabled":false,"rental_uris":{"android":"levelo://app?vid=0d895078-dc15-4f70-84ce-e09208baeda4","ios":"levelo://app?vid=0d895078-dc15-4f70-84ce-e09208baeda4"},"vehicle_type_id":"4","last_reported":1734196045,"current_range_meters":27600,"station_id":"","pricing_plan_id":"cebpf4jnsgd1na2vs0mg"},{"bike_id":"c20ce724-6dbd-455d-a860-e0c5018eab7a","system_id":"levelo_inurba_marseille","lat":43.29706,"lon":5.37697,"is_reserved":false,"is_disabled":false,"rental_uris":{"android":"levelo://app?vid=c20ce724-6dbd-455d-a860-e0c5018eab7a","ios":"levelo://app?vid=c20ce724-6dbd-455d-a860-e0c5018eab7a"},"vehicle_type_id":"4","last_reported":1734196045,"current_range_meters":4800,"station_id":"ce4bgkh2rcd13ifvqbl0","pricing_plan_id":"cebpf4jnsgd1na2vs0mg"},{"bike_id":"eb2b1ddd-9beb-4a18-8615-2df682718698","system_id":"levelo_inurba_marseille","lat":43.29619,"lon":5.37727,"is_reserved":false,"is_disabled":false,"rental_uris":{"android":"levelo://app?vid=eb2b1ddd-9beb-4a18-8615-2df682718698","ios":"levelo://app?vid=eb2b1ddd-9beb-4a18-8615-2df682718698"},"vehicle_type_id":"4","last_reported":1734196045,"current_range_meters":34800,"station_id":"ce4bgi92rcd13ifvqb90","pricing_plan_id":"cebpf4jnsgd1na2vs0mg"},{"bike_id":"d9834bc1-0a12-45ef-b703-48b43f237533","system_id":"levelo_inurba_marseille","lat":43.27065,"lon":5.40259,"is_reserved":false,"is_disabled":false,"rental_uris":{"android":"levelo://app?vid=d9834bc1-0a12-45ef-b703-48b43f237533","ios":"levelo://app?vid=d9834bc1-0a12-45ef-b703-48b43f237533"},"vehicle_type_id":"4","last_reported":1734196045,"current_range_meters":24000,"station_id":"ce4bhk92rcd13ifvqgc0","pricing_plan_id":"cebpf4jnsgd1na2vs0mg"},{"bike_id":"7b9f1d8d-4c60-48fe-939a-b85dca8781a3","system_id":"levelo_inurba_marseille","lat":43.27207,"lon":5.39174,"is_reserved":false,"is_disabled":false,"rental_uris":{"android":"levelo://app?vid=7b9f1d8d-4c60-48fe-939a-b85dca8781a3","ios":"levelo://app?vid=7b9f1d8d-4c60-48fe-939a-b85dca8781a3"},"vehicle_type_id":"4","last_reported":1734196045,"current_range_meters":33200,"station_id":"ce4bhhp2rcd13ifvqfm0","pricing_plan_id":"cebpf4jnsgd1na2vs0mg"},{"bike_id":"4a705c3b-556f-438b-a6ad-b3b6d507ab16","system_id":"levelo_inurba_marseille","lat":43.23173,"lon":5.39986,"is_reserved":false,"is_disabled":false,"rental_uris":{"android":"levelo://app?vid=4a705c3b-556f-438b-a6ad-b3b6d507ab16","ios":"levelo://app?vid=4a705c3b-556f-438b-a6ad-b3b6d507ab16"},"vehicle_type_id":"4","last_reported":1734196045,"current_range_meters":6800,"station_id":"ce4bhn12rcd13ifvqgqg","pricing_plan_id":"cebpf4jnsgd1na2vs0mg"},{"bike_id":"d070bf81-f484-4246-b3f0-271b45753a5e","system_id":"levelo_inurba_marseille","lat":43.28479,"lon":5.38407,"is_reserved":false,"is_disabled":false,"rental_uris":{"android":"levelo://app?vid=d070bf81-f484-4246-b3f0-271b45753a5e","ios":"levelo://app?vid=d070bf81-f484-4246-b3f0-271b45753a5e"},"vehicle_type_id":"4","last_reported":1734196045,"current_range_meters":38800,"station_id":"ce4bh512rcd13ifvqe3g","pricing_plan_id":"cebpf4jnsgd1na2vs0mg"},{"bike_id":"ae0bdd7b-187c-409c-b2b3-37aac32d4db3","system_id":"levelo_inurba_marseille","lat":43.32365,"lon":5.36756,"is_reserved":false,"is_disabled":false,"rental_uris":{"android":"levelo://app?vid=ae0bdd7b-187c-409c-b2b3-37aac32d4db3","ios":"levelo://app?vid=ae0bdd7b-187c-409c-b2b3-37aac32d4db3"},"vehicle_type_id":"4","last_reported":1734196045,"current_range_meters":38800,"station_id":"ce4bhsh2rcd13ifvqi2g","pricing_plan_id":"cebpf4jnsgd1na2vs0mg"},{"bike_id":"8cf0d3bd-e310-4319-ad37-50b72dcbcdd4","system_id":"levelo_inurba_marseille","lat":43.30469,"lon":5.37894,"is_reserved":false,"is_disabled":false,"rental_uris":{"android":"levelo://app?vid=8cf0d3bd-e310-4319-ad37-50b72dcbcdd4","ios":"levelo://app?vid=8cf0d3bd-e310-4319-ad37-50b72dcbcdd4"},"vehicle_type_id":"4","last_reported":1734196045,"current_range_meters":36000,"station_id":"ce4bgup2rcd13ifvqcn0","pricing_plan_id":"cebpf4jnsgd1na2vs0mg"},{"bike_id":"d77a8efa-c32c-4944-a395-125a3b59c993","system_id":"levelo_inurba_marseille","lat":43.29597,"lon":5.38097,"is_reserved":false,"is_disabled":false,"rental_uris":{"android":"levelo://app?vid=d77a8efa-c32c-4944-a395-125a3b59c993","ios":"levelo://app?vid=d77a8efa-c32c-4944-a395-125a3b59c993"},"vehicle_type_id":"4","last_reported":1734196045,"current_range_meters":6800,"station_id":"ce4bgl12rcd13ifvqbo0","pricing_plan_id":"cebpf4jnsgd1na2vs0mg"},{"bike_id":"9ad311dd-c450-4f09-933a-ef53d4559dc3","system_id":"levelo_inurba_marseille","lat":43.26985,"lon":5.39868,"is_reserved":false,"is_disabled":false,"rental_uris":{"android":"levelo://app?vid=9ad311dd-c450-4f09-933a-ef53d4559dc3","ios":"levelo://app?vid=9ad311dd-c450-4f09-933a-ef53d4559dc3"},"vehicle_type_id":"4","last_reported":1734196045,"current_range_meters":26000,"station_id":"","pricing_plan_id":"cebpf4jnsgd1na2vs0mg"},{"bike_id":"123e146a-854c-4e79-886f-1db5d5371d0c","system_id":"levelo_inurba_marseille","lat":43.31999,"lon":5.38142,"is_reserved":false,"is_disabled":false,"rental_uris":{"android":"levelo://app?vid=123e146a-854c-4e79-886f-1db5d5371d0c","ios":"levelo://app?vid=123e146a-854c-4e79-886f-1db5d5371d0c"},"vehicle_type_id":"4","last_reported":1734196045,"current_range_meters":38800,"station_id":"ce4bhr12rcd13ifvqhpg","pricing_plan_id":"cebpf4jnsgd1na2vs0mg"},{"bike_id":"3787bba6-8a43-4277-afd7-a70b2fecfb32","system_id":"levelo_inurba_marseille","lat":43.273103,"lon":5.39086,"is_reserved":false,"is_disabled":false,"rental_uris":{"android":"levelo://app?vid=3787bba6-8a43-4277-afd7-a70b2fecfb32","ios":"levelo://app?vid=3787bba6-8a43-4277-afd7-a70b2fecfb32"},"vehicle_type_id":"4","last_reported":1734196045,"current_range_meters":38800,"station_id":"ce4bhgp2rcd13ifvqfe0","pricing_plan_id":"cebpf4jnsgd1na2vs0mg"},{"bike_id":"41f926b2-a436-44a1-9af3-ff12c3760a91","system_id":"levelo_inurba_marseille","lat":43.26839,"lon":5.39461,"is_reserved":false,"is_disabled":false,"rental_uris":{"android":"levelo://app?vid=41f926b2-a436-44a1-9af3-ff12c3760a91","ios":"levelo://app?vid=41f926b2-a436-44a1-9af3-ff12c3760a91"},"vehicle_type_id":"4","last_reported":1734196045,"current_range_meters":32000,"station_id":"","pricing_plan_id":"cebpf4jnsgd1na2vs0mg"},{"bike_id":"af67ac53-ba21-4ff0-8334-95679e9ff2cc","system_id":"levelo_inurba_marseille","lat":43.278805,"lon":5.388003,"is_reserved":false,"is_disabled":true,"rental_uris":{"android":"levelo://app?vid=af67ac53-ba21-4ff0-8334-95679e9ff2cc","ios":"levelo://app?vid=af67ac53-ba21-4ff0-8334-95679e9ff2cc"},"vehicle_type_id":"4","last_reported":1734196045,"current_range_meters":1200,"station_id":"","pricing_plan_id":"cebpf4jnsgd1na2vs0mg"},{"bike_id":"cc792cf1-5419-459c-a85e-0d5c0d4fbc94","system_id":"levelo_inurba_marseille","lat":43.2931,"lon":5.37457,"is_reserved":false,"is_disabled":false,"rental_uris":{"android":"levelo://app?vid=cc792cf1-5419-459c-a85e-0d5c0d4fbc94","ios":"levelo://app?vid=cc792cf1-5419-459c-a85e-0d5c0d4fbc94"},"vehicle_type_id":"4","last_reported":1734196045,"current_range_meters":14000,"station_id":"ce4bgi12rcd13ifvqb70","pricing_plan_id":"cebpf4jnsgd1na2vs0mg"},{"bike_id":"7cb6d63f-c9e6-4a3e-bae1-3e4c57ada061","system_id":"levelo_inurba_marseille","lat":43.26811,"lon":5.40267,"is_reserved":false,"is_disabled":true,"rental_uris":{"android":"levelo://app?vid=7cb6d63f-c9e6-4a3e-bae1-3e4c57ada061","ios":"levelo://app?vid=7cb6d63f-c9e6-4a3e-bae1-3e4c57ada061"},"vehicle_type_id":"4","last_reported":1734196045,"current_range_meters":0,"station_id":"ce501612rcd8frsf0b60","pricing_plan_id":"cebpf4jnsgd1na2vs0mg"},{"bike_id":"0232408d-292c-41d3-b181-663261afd040","system_id":"levelo_inurba_marseille","lat":43.27461,"lon":5.40947,"is_reserved":false,"is_disabled":false,"rental_uris":{"android":"levelo://app?vid=0232408d-292c-41d3-b181-663261afd040","ios":"levelo://app?vid=0232408d-292c-41d3-b181-663261afd040"},"vehicle_type_id":"4","last_reported":1734196045,"current_range_meters":33600,"station_id":"","pricing_plan_id":"cebpf4jnsgd1na2vs0mg"},{"bike_id":"54d1876e-3762-4fa4-be49-be320b0f878a","system_id":"levelo_inurba_marseille","lat":43.28414,"lon":5.37521,"is_reserved":false,"is_disabled":false,"rental_uris":{"android":"levelo://app?vid=54d1876e-3762-4fa4-be49-be320b0f878a","ios":"levelo://app?vid=54d1876e-3762-4fa4-be49-be320b0f878a"},"vehicle_type_id":"4","last_reported":1734196045,"current_range_meters":38400,"station_id":"ce4bh412rcd13ifvqds0","pricing_plan_id":"cebpf4jnsgd1na2vs0mg"},{"bike_id":"b5c7fdbb-0259-453f-b81e-9cf2bdee2258","system_id":"levelo_inurba_marseille","lat":43.2676,"lon":5.39449,"is_reserved":false,"is_disabled":false,"rental_uris":{"android":"levelo://app?vid=b5c7fdbb-0259-453f-b81e-9cf2bdee2258","ios":"levelo://app?vid=b5c7fdbb-0259-453f-b81e-9cf2bdee2258"},"vehicle_type_id":"4","last_reported":1734196045,"current_range_meters":12400,"station_id":"","pricing_plan_id":"cebpf4jnsgd1na2vs0mg"},{"bike_id":"26ccda65-6e17-4633-8c2d-424c3f5cff9f","system_id":"levelo_inurba_marseille","lat":43.30188,"lon":5.36622,"is_reserved":false,"is_disabled":false,"rental_uris":{"android":"levelo://app?vid=26ccda65-6e17-4633-8c2d-424c3f5cff9f","ios":"levelo://app?vid=26ccda65-6e17-4633-8c2d-424c3f5cff9f"},"vehicle_type_id":"4","last_reported":1734196045,"current_range_meters":31200,"station_id":"ce4bgrh2rcd13ifvqc8g","pricing_plan_id":"cebpf4jnsgd1na2vs0mg"},{"bike_id":"7dcda3c5-190f-41ba-b29d-058eaccbbe71","system_id":"levelo_inurba_marseille","lat":43.29706,"lon":5.37677,"is_reserved":false,"is_disabled":true,"rental_uris":{"android":"levelo://app?vid=7dcda3c5-190f-41ba-b29d-058eaccbbe71","ios":"levelo://app?vid=7dcda3c5-190f-41ba-b29d-058eaccbbe71"},"vehicle_type_id":"4","last_reported":1734196045,"current_range_meters":800,"station_id":"ce4bgkh2rcd13ifvqbl0","pricing_plan_id":"cebpf4jnsgd1na2vs0mg"},{"bike_id":"d65fcea9-51ba-41f0-86fd-e798dfdd6f09","system_id":"levelo_inurba_marseille","lat":43.287064,"lon":5.383026,"is_reserved":false,"is_disabled":true,"rental_uris":{"android":"levelo://app?vid=d65fcea9-51ba-41f0-86fd-e798dfdd6f09","ios":"levelo://app?vid=d65fcea9-51ba-41f0-86fd-e798dfdd6f09"},"vehicle_type_id":"4","last_reported":1734196045,"current_range_meters":0,"station_id":"","pricing_plan_id":"cebpf4jnsgd1na2vs0mg"},{"bike_id":"656d8740-9b85-4a93-86ce-9d32a0e761f7","system_id":"levelo_inurba_marseille","lat":43.31071,"lon":5.38345,"is_reserved":false,"is_disabled":true,"rental_uris":{"android":"levelo://app?vid=656d8740-9b85-4a93-86ce-9d32a0e761f7","ios":"levelo://app?vid=656d8740-9b85-4a93-86ce-9d32a0e761f7"},"vehicle_type_id":"4","last_reported":1734196045,"current_range_meters":29600,"station_id":"ce4bgv92rcd13ifvqcr0","pricing_plan_id":"cebpf4jnsgd1na2vs0mg"},{"bike_id":"30b09c14-5db6-4bdd-8ec0-8d8fd355bef3","system_id":"levelo_inurba_marseille","lat":43.29863,"lon":5.39731,"is_reserved":false,"is_disabled":true,"rental_uris":{"android":"levelo://app?vid=30b09c14-5db6-4bdd-8ec0-8d8fd355bef3","ios":"levelo://app?vid=30b09c14-5db6-4bdd-8ec0-8d8fd355bef3"},"vehicle_type_id":"4","last_reported":1734196045,"current_range_meters":36800,"station_id":"ce4bh0h2rcd13ifvqd50","pricing_plan_id":"cebpf4jnsgd1na2vs0mg"},{"bike_id":"f08c808c-af08-40b8-81c3-97739c995b77","system_id":"levelo_inurba_marseille","lat":43.30142,"lon":5.39847,"is_reserved":false,"is_disabled":true,"rental_uris":{"android":"levelo://app?vid=f08c808c-af08-40b8-81c3-97739c995b77","ios":"levelo://app?vid=f08c808c-af08-40b8-81c3-97739c995b77"},"vehicle_type_id":"4","last_reported":1734196045,"current_range_meters":31200,"station_id":"ce4bh0h2rcd13ifvqd40","pricing_plan_id":"cebpf4jnsgd1na2vs0mg"},{"bike_id":"86970bbe-b814-43c9-89a2-85f507f309fa","system_id":"levelo_inurba_marseille","lat":43.3054,"lon":5.38427,"is_reserved":false,"is_disabled":true,"rental_uris":{"android":"levelo://app?vid=86970bbe-b814-43c9-89a2-85f507f309fa","ios":"levelo://app?vid=86970bbe-b814-43c9-89a2-85f507f309fa"},"vehicle_type_id":"4","last_reported":1734196045,"current_range_meters":7200,"station_id":"ce4bgg92rcd13ifvqb30","pricing_plan_id":"cebpf4jnsgd1na2vs0mg"},{"bike_id":"487644c2-f2f6-4590-8bf3-243e39d6bf64","system_id":"levelo_inurba_marseille","lat":43.27213,"lon":5.39166,"is_reserved":false,"is_disabled":false,"rental_uris":{"android":"levelo://app?vid=487644c2-f2f6-4590-8bf3-243e39d6bf64","ios":"levelo://app?vid=487644c2-f2f6-4590-8bf3-243e39d6bf64"},"vehicle_type_id":"4","last_reported":1734196045,"current_range_meters":9600,"station_id":"ce4bhhp2rcd13ifvqfm0","pricing_plan_id":"cebpf4jnsgd1na2vs0mg"},{"bike_id":"3cf252c1-3c82-43c5-a484-4198620b7e05","system_id":"levelo_inurba_marseille","lat":43.26682,"lon":5.38274,"is_reserved":false,"is_disabled":false,"rental_uris":{"android":"levelo://app?vid=3cf252c1-3c82-43c5-a484-4198620b7e05","ios":"levelo://app?vid=3cf252c1-3c82-43c5-a484-4198620b7e05"},"vehicle_type_id":"4","last_reported":1734196045,"current_range_meters":12800,"station_id":"ce4bhg92rcd13ifvqf90","pricing_plan_id":"cebpf4jnsgd1na2vs0mg"},{"bike_id":"64203de9-e72b-4d66-9a84-7a315c7ed37f","system_id":"levelo_inurba_marseille","lat":43.29435,"lon":5.37429,"is_reserved":false,"is_disabled":true,"rental_uris":{"android":"levelo://app?vid=64203de9-e72b-4d66-9a84-7a315c7ed37f","ios":"levelo://app?vid=64203de9-e72b-4d66-9a84-7a315c7ed37f"},"vehicle_type_id":"4","last_reported":1734196045,"current_range_meters":0,"station_id":"","pricing_plan_id":"cebpf4jnsgd1na2vs0mg"},{"bike_id":"43a2fa1d-314c-4a4d-b7c9-aa2f198eb73b","system_id":"levelo_inurba_marseille","lat":43.30131,"lon":5.38787,"is_reserved":false,"is_disabled":true,"rental_uris":{"android":"levelo://app?vid=43a2fa1d-314c-4a4d-b7c9-aa2f198eb73b","ios":"levelo://app?vid=43a2fa1d-314c-4a4d-b7c9-aa2f198eb73b"},"vehicle_type_id":"4","last_reported":1734196045,"current_range_meters":34000,"station_id":"ce4bghh2rcd13ifvqb60","pricing_plan_id":"cebpf4jnsgd1na2vs0mg"},{"bike_id":"2e56a856-d608-455f-bda9-7cab4606eb50","system_id":"levelo_inurba_marseille","lat":43.29968,"lon":5.38493,"is_reserved":false,"is_disabled":true,"rental_uris":{"android":"levelo://app?vid=2e56a856-d608-455f-bda9-7cab4606eb50","ios":"levelo://app?vid=2e56a856-d608-455f-bda9-7cab4606eb50"},"vehicle_type_id":"4","last_reported":1734196045,"current_range_meters":1200,"station_id":"ce4bgj92rcd13ifvqbd0","pricing_plan_id":"cebpf4jnsgd1na2vs0mg"},{"bike_id":"067b6a2b-42af-420a-aaca-6de5e382f970","system_id":"levelo_inurba_marseille","lat":43.26792,"lon":5.39411,"is_reserved":false,"is_disabled":true,"rental_uris":{"android":"levelo://app?vid=067b6a2b-42af-420a-aaca-6de5e382f970","ios":"levelo://app?vid=067b6a2b-42af-420a-aaca-6de5e382f970"},"vehicle_type_id":"4","last_reported":1734196045,"current_range_meters":800,"station_id":"ce4bhh12rcd13ifvqfg0","pricing_plan_id":"cebpf4jnsgd1na2vs0mg"},{"bike_id":"ef311535-8b3d-40de-81a1-67f78cf1efb7","system_id":"levelo_inurba_marseille","lat":43.2694,"lon":5.40258,"is_reserved":false,"is_disabled":false,"rental_uris":{"android":"levelo://app?vid=ef311535-8b3d-40de-81a1-67f78cf1efb7","ios":"levelo://app?vid=ef311535-8b3d-40de-81a1-67f78cf1efb7"},"vehicle_type_id":"4","last_reported":1734196045,"current_range_meters":28000,"station_id":"cjm6bp8fraef2m0cb0m0","pricing_plan_id":"cebpf4jnsgd1na2vs0mg"},{"bike_id":"4a07baeb-ffde-49db-b32c-03fa0d8f5f97","system_id":"levelo_inurba_marseille","lat":43.28167,"lon":5.42636,"is_reserved":false,"is_disabled":false,"rental_uris":{"android":"levelo://app?vid=4a07baeb-ffde-49db-b32c-03fa0d8f5f97","ios":"levelo://app?vid=4a07baeb-ffde-49db-b32c-03fa0d8f5f97"},"vehicle_type_id":"4","last_reported":1734196045,"current_range_meters":4400,"station_id":"ce4bhnh2rcd13ifvqgug","pricing_plan_id":"cebpf4jnsgd1na2vs0mg"},{"bike_id":"e557e7a1-b375-4c0d-84a7-f0ed74b5b4ce","system_id":"levelo_inurba_marseille","lat":43.29778,"lon":5.37114,"is_reserved":false,"is_disabled":false,"rental_uris":{"android":"levelo://app?vid=e557e7a1-b375-4c0d-84a7-f0ed74b5b4ce","ios":"levelo://app?vid=e557e7a1-b375-4c0d-84a7-f0ed74b5b4ce"},"vehicle_type_id":"4","last_reported":1734196045,"current_range_meters":12400,"station_id":"ce4bgop2rcd13ifvqc1g","pricing_plan_id":"cebpf4jnsgd1na2vs0mg"},{"bike_id":"8d6bb968-211a-4680-8176-509681807d1e","system_id":"levelo_inurba_marseille","lat":43.27314,"lon":5.39072,"is_reserved":false,"is_disabled":false,"rental_uris":{"android":"levelo://app?vid=8d6bb968-211a-4680-8176-509681807d1e","ios":"levelo://app?vid=8d6bb968-211a-4680-8176-509681807d1e"},"vehicle_type_id":"4","last_reported":1734196045,"current_range_meters":24000,"station_id":"ce4bhgp2rcd13ifvqfe0","pricing_plan_id":"cebpf4jnsgd1na2vs0mg"},{"bike_id":"0c8ca627-5860-4c08-af20-44c2e37284e5","system_id":"levelo_inurba_marseille","lat":43.29924,"lon":5.3748,"is_reserved":false,"is_disabled":false,"rental_uris":{"android":"levelo://app?vid=0c8ca627-5860-4c08-af20-44c2e37284e5","ios":"levelo://app?vid=0c8ca627-5860-4c08-af20-44c2e37284e5"},"vehicle_type_id":"4","last_reported":1734196045,"current_range_meters":30800,"station_id":"ce4bgjh2rcd13ifvqbg0","pricing_plan_id":"cebpf4jnsgd1na2vs0mg"},{"bike_id":"c2d4675b-b632-4638-a7a1-92271c1bad83","system_id":"levelo_inurba_marseille","lat":43.26936,"lon":5.40259,"is_reserved":false,"is_disabled":false,"rental_uris":{"android":"levelo://app?vid=c2d4675b-b632-4638-a7a1-92271c1bad83","ios":"levelo://app?vid=c2d4675b-b632-4638-a7a1-92271c1bad83"},"vehicle_type_id":"4","last_reported":1734196045,"current_range_meters":36000,"station_id":"cjm6bp8fraef2m0cb0m0","pricing_plan_id":"cebpf4jnsgd1na2vs0mg"},{"bike_id":"7856f91d-5411-4bd0-99f2-68cfc7e53355","system_id":"levelo_inurba_marseille","lat":43.30947,"lon":5.39032,"is_reserved":false,"is_disabled":false,"rental_uris":{"android":"levelo://app?vid=7856f91d-5411-4bd0-99f2-68cfc7e53355","ios":"levelo://app?vid=7856f91d-5411-4bd0-99f2-68cfc7e53355"},"vehicle_type_id":"4","last_reported":1734196045,"current_range_meters":32000,"station_id":"ce4bgup2rcd13ifvqco0","pricing_plan_id":"cebpf4jnsgd1na2vs0mg"},{"bike_id":"cee47e0b-683d-4e61-8f41-f6f65194c574","system_id":"levelo_inurba_marseille","lat":43.272166,"lon":5.391945,"is_reserved":false,"is_disabled":false,"rental_uris":{"android":"levelo://app?vid=cee47e0b-683d-4e61-8f41-f6f65194c574","ios":"levelo://app?vid=cee47e0b-683d-4e61-8f41-f6f65194c574"},"vehicle_type_id":"4","last_reported":1734196045,"current_range_meters":38800,"station_id":"ce4bhhp2rcd13ifvqfm0","pricing_plan_id":"cebpf4jnsgd1na2vs0mg"},{"bike_id":"8f50c113-8ce0-4bd4-b5e3-5354a7c24326","system_id":"levelo_inurba_marseille","lat":43.288467,"lon":5.358791,"is_reserved":false,"is_disabled":false,"rental_uris":{"android":"levelo://app?vid=8f50c113-8ce0-4bd4-b5e3-5354a7c24326","ios":"levelo://app?vid=8f50c113-8ce0-4bd4-b5e3-5354a7c24326"},"vehicle_type_id":"4","last_reported":1734196045,"current_range_meters":25600,"station_id":"ce4bhb12rcd13ifvqem0","pricing_plan_id":"cebpf4jnsgd1na2vs0mg"},{"bike_id":"07154a6e-1aad-4b6f-8cd5-49a1da2b8e24","system_id":"levelo_inurba_marseille","lat":43.2316,"lon":5.43722,"is_reserved":false,"is_disabled":false,"rental_uris":{"android":"levelo://app?vid=07154a6e-1aad-4b6f-8cd5-49a1da2b8e24","ios":"levelo://app?vid=07154a6e-1aad-4b6f-8cd5-49a1da2b8e24"},"vehicle_type_id":"4","last_reported":1734196045,"current_range_meters":32000,"station_id":"ce4bhmp2rcd13ifvqgog","pricing_plan_id":"cebpf4jnsgd1na2vs0mg"},{"bike_id":"995a363f-e152-4789-9c7b-da53b46c2b20","system_id":"levelo_inurba_marseille","lat":43.29035,"lon":5.37564,"is_reserved":false,"is_disabled":false,"rental_uris":{"android":"levelo://app?vid=995a363f-e152-4789-9c7b-da53b46c2b20","ios":"levelo://app?vid=995a363f-e152-4789-9c7b-da53b46c2b20"},"vehicle_type_id":"4","last_reported":1734196045,"current_range_meters":16800,"station_id":"ce4bh692rcd13ifvqe90","pricing_plan_id":"cebpf4jnsgd1na2vs0mg"},{"bike_id":"931e28e0-6e61-4a54-80f1-1057cfef55f9","system_id":"levelo_inurba_marseille","lat":43.31076,"lon":5.38349,"is_reserved":false,"is_disabled":false,"rental_uris":{"android":"levelo://app?vid=931e28e0-6e61-4a54-80f1-1057cfef55f9","ios":"levelo://app?vid=931e28e0-6e61-4a54-80f1-1057cfef55f9"},"vehicle_type_id":"4","last_reported":1734196045,"current_range_meters":20400,"station_id":"ce4bgv92rcd13ifvqcr0","pricing_plan_id":"cebpf4jnsgd1na2vs0mg"},{"bike_id":"899c5fb4-7868-4646-bd4c-f66aa6a989c8","system_id":"levelo_inurba_marseille","lat":43.30298,"lon":5.37458,"is_reserved":false,"is_disabled":true,"rental_uris":{"android":"levelo://app?vid=899c5fb4-7868-4646-bd4c-f66aa6a989c8","ios":"levelo://app?vid=899c5fb4-7868-4646-bd4c-f66aa6a989c8"},"vehicle_type_id":"4","last_reported":1734196045,"current_range_meters":0,"station_id":"","pricing_plan_id":"cebpf4jnsgd1na2vs0mg"},{"bike_id":"bdfbd2af-8393-4576-9da2-75eae3e5a2db","system_id":"levelo_inurba_marseille","lat":43.29263,"lon":5.38447,"is_reserved":false,"is_disabled":false,"rental_uris":{"android":"levelo://app?vid=bdfbd2af-8393-4576-9da2-75eae3e5a2db","ios":"levelo://app?vid=bdfbd2af-8393-4576-9da2-75eae3e5a2db"},"vehicle_type_id":"4","last_reported":1734196045,"current_range_meters":13600,"station_id":"ce4bh692rcd13ifvqea0","pricing_plan_id":"cebpf4jnsgd1na2vs0mg"},{"bike_id":"6b10d37b-3846-4f7e-8b9d-57ca79bbb675","system_id":"levelo_inurba_marseille","lat":43.29549,"lon":5.38549,"is_reserved":false,"is_disabled":true,"rental_uris":{"android":"levelo://app?vid=6b10d37b-3846-4f7e-8b9d-57ca79bbb675","ios":"levelo://app?vid=6b10d37b-3846-4f7e-8b9d-57ca79bbb675"},"vehicle_type_id":"4","last_reported":1734196045,"current_range_meters":36800,"station_id":"ce4bgih2rcd13ifvqba0","pricing_plan_id":"cebpf4jnsgd1na2vs0mg"},{"bike_id":"2a9bbe81-c578-430a-a2f2-77cf58fb1d2c","system_id":"levelo_inurba_marseille","lat":43.24165,"lon":5.39708,"is_reserved":false,"is_disabled":false,"rental_uris":{"android":"levelo://app?vid=2a9bbe81-c578-430a-a2f2-77cf58fb1d2c","ios":"levelo://app?vid=2a9bbe81-c578-430a-a2f2-77cf58fb1d2c"},"vehicle_type_id":"4","last_reported":1734196045,"current_range_meters":9600,"station_id":"ce4bhn12rcd13ifvqgpg","pricing_plan_id":"cebpf4jnsgd1na2vs0mg"},{"bike_id":"248a32bf-196b-4007-b0db-77fb47540c8c","system_id":"levelo_inurba_marseille","lat":43.27419,"lon":5.39421,"is_reserved":false,"is_disabled":false,"rental_uris":{"android":"levelo://app?vid=248a32bf-196b-4007-b0db-77fb47540c8c","ios":"levelo://app?vid=248a32bf-196b-4007-b0db-77fb47540c8c"},"vehicle_type_id":"4","last_reported":1734196045,"current_range_meters":3600,"station_id":"ce4bhdp2rcd13ifvqf20","pricing_plan_id":"cebpf4jnsgd1na2vs0mg"},{"bike_id":"c45431d1-dbe5-4def-a301-62ab7442a626","system_id":"levelo_inurba_marseille","lat":43.23964,"lon":5.36629,"is_reserved":false,"is_disabled":false,"rental_uris":{"android":"levelo://app?vid=c45431d1-dbe5-4def-a301-62ab7442a626","ios":"levelo://app?vid=c45431d1-dbe5-4def-a301-62ab7442a626"},"vehicle_type_id":"4","last_reported":1734196045,"current_range_meters":5600,"station_id":"ce4bhi12rcd13ifvqfp0","pricing_plan_id":"cebpf4jnsgd1na2vs0mg"},{"bike_id":"1ff60327-451c-4661-a673-1472add7d0ec","system_id":"levelo_inurba_marseille","lat":43.26941,"lon":5.40249,"is_reserved":false,"is_disabled":false,"rental_uris":{"android":"levelo://app?vid=1ff60327-451c-4661-a673-1472add7d0ec","ios":"levelo://app?vid=1ff60327-451c-4661-a673-1472add7d0ec"},"vehicle_type_id":"4","last_reported":1734196045,"current_range_meters":8400,"station_id":"cjm6bp8fraef2m0cb0m0","pricing_plan_id":"cebpf4jnsgd1na2vs0mg"},{"bike_id":"68ac001f-d461-4264-ae4c-847d5d8319b3","system_id":"levelo_inurba_marseille","lat":43.2619,"lon":5.37891,"is_reserved":false,"is_disabled":false,"rental_uris":{"android":"levelo://app?vid=68ac001f-d461-4264-ae4c-847d5d8319b3","ios":"levelo://app?vid=68ac001f-d461-4264-ae4c-847d5d8319b3"},"vehicle_type_id":"4","last_reported":1734196045,"current_range_meters":33600,"station_id":"ce4bhjp2rcd13ifvqg90","pricing_plan_id":"cebpf4jnsgd1na2vs0mg"},{"bike_id":"91bc6f38-f0e5-4266-96b0-b5a862348a34","system_id":"levelo_inurba_marseille","lat":43.26953,"lon":5.3889,"is_reserved":false,"is_disabled":false,"rental_uris":{"android":"levelo://app?vid=91bc6f38-f0e5-4266-96b0-b5a862348a34","ios":"levelo://app?vid=91bc6f38-f0e5-4266-96b0-b5a862348a34"},"vehicle_type_id":"4","last_reported":1734196045,"current_range_meters":38800,"station_id":"ce4bhhh2rcd13ifvqfl0","pricing_plan_id":"cebpf4jnsgd1na2vs0mg"},{"bike_id":"06547c99-216f-46c5-ad78-2eba3133f0d3","system_id":"levelo_inurba_marseille","lat":43.28973,"lon":5.37823,"is_reserved":false,"is_disabled":false,"rental_uris":{"android":"levelo://app?vid=06547c99-216f-46c5-ad78-2eba3133f0d3","ios":"levelo://app?vid=06547c99-216f-46c5-ad78-2eba3133f0d3"},"vehicle_type_id":"4","last_reported":1734196045,"current_range_meters":35200,"station_id":"ce4bh9p2rcd13ifvqed0","pricing_plan_id":"cebpf4jnsgd1na2vs0mg"},{"bike_id":"605ce9bb-d413-4ab8-b4d3-57f594b00fd4","system_id":"levelo_inurba_marseille","lat":43.27313,"lon":5.39073,"is_reserved":false,"is_disabled":false,"rental_uris":{"android":"levelo://app?vid=605ce9bb-d413-4ab8-b4d3-57f594b00fd4","ios":"levelo://app?vid=605ce9bb-d413-4ab8-b4d3-57f594b00fd4"},"vehicle_type_id":"4","last_reported":1734196045,"current_range_meters":36800,"station_id":"ce4bhgp2rcd13ifvqfe0","pricing_plan_id":"cebpf4jnsgd1na2vs0mg"},{"bike_id":"4fae89f1-9ead-467e-836f-9dafb1cee178","system_id":"levelo_inurba_marseille","lat":43.292777,"lon":5.368415,"is_reserved":false,"is_disabled":false,"rental_uris":{"android":"levelo://app?vid=4fae89f1-9ead-467e-836f-9dafb1cee178","ios":"levelo://app?vid=4fae89f1-9ead-467e-836f-9dafb1cee178"},"vehicle_type_id":"4","last_reported":1734196045,"current_range_meters":25600,"station_id":"ce4bhbp2rcd13ifvqesg","pricing_plan_id":"cebpf4jnsgd1na2vs0mg"},{"bike_id":"6e3fd83e-e2f6-48b7-923a-ba6068a911e4","system_id":"levelo_inurba_marseille","lat":43.33018,"lon":5.39048,"is_reserved":false,"is_disabled":false,"rental_uris":{"android":"levelo://app?vid=6e3fd83e-e2f6-48b7-923a-ba6068a911e4","ios":"levelo://app?vid=6e3fd83e-e2f6-48b7-923a-ba6068a911e4"},"vehicle_type_id":"4","last_reported":1734196045,"current_range_meters":28800,"station_id":"ce4bhr92rcd13ifvqhrg","pricing_plan_id":"cebpf4jnsgd1na2vs0mg"},{"bike_id":"b4f28572-e9c3-4d89-a9c6-b22627fb6aff","system_id":"levelo_inurba_marseille","lat":43.32538,"lon":5.41438,"is_reserved":false,"is_disabled":false,"rental_uris":{"android":"levelo://app?vid=b4f28572-e9c3-4d89-a9c6-b22627fb6aff","ios":"levelo://app?vid=b4f28572-e9c3-4d89-a9c6-b22627fb6aff"},"vehicle_type_id":"4","last_reported":1734196045,"current_range_meters":26000,"station_id":"ce4bhq12rcd13ifvqhhg","pricing_plan_id":"cebpf4jnsgd1na2vs0mg"},{"bike_id":"7dd294ea-068e-492b-a3ce-2cf5fcaaac95","system_id":"levelo_inurba_marseille","lat":43.27251,"lon":5.39199,"is_reserved":false,"is_disabled":false,"rental_uris":{"android":"levelo://app?vid=7dd294ea-068e-492b-a3ce-2cf5fcaaac95","ios":"levelo://app?vid=7dd294ea-068e-492b-a3ce-2cf5fcaaac95"},"vehicle_type_id":"4","last_reported":1734196045,"current_range_meters":24400,"station_id":"ce4bhhp2rcd13ifvqfm0","pricing_plan_id":"cebpf4jnsgd1na2vs0mg"},{"bike_id":"f98e7e7f-5920-4770-8e6a-e1e9626c2cb5","system_id":"levelo_inurba_marseille","lat":43.258067,"lon":5.394375,"is_reserved":false,"is_disabled":false,"rental_uris":{"android":"levelo://app?vid=f98e7e7f-5920-4770-8e6a-e1e9626c2cb5","ios":"levelo://app?vid=f98e7e7f-5920-4770-8e6a-e1e9626c2cb5"},"vehicle_type_id":"4","last_reported":1734196045,"current_range_meters":10800,"station_id":"ce4bhip2rcd13ifvqft0","pricing_plan_id":"cebpf4jnsgd1na2vs0mg"},{"bike_id":"6e7f8132-61da-4d19-aac5-ad7b510c5bfc","system_id":"levelo_inurba_marseille","lat":43.27606,"lon":5.38883,"is_reserved":false,"is_disabled":false,"rental_uris":{"android":"levelo://app?vid=6e7f8132-61da-4d19-aac5-ad7b510c5bfc","ios":"levelo://app?vid=6e7f8132-61da-4d19-aac5-ad7b510c5bfc"},"vehicle_type_id":"4","last_reported":1734196045,"current_range_meters":38800,"station_id":"","pricing_plan_id":"cebpf4jnsgd1na2vs0mg"},{"bike_id":"dd6ea5cd-4df7-40b5-9ba0-6b6496d6d474","system_id":"levelo_inurba_marseille","lat":43.26935,"lon":5.4025,"is_reserved":false,"is_disabled":false,"rental_uris":{"android":"levelo://app?vid=dd6ea5cd-4df7-40b5-9ba0-6b6496d6d474","ios":"levelo://app?vid=dd6ea5cd-4df7-40b5-9ba0-6b6496d6d474"},"vehicle_type_id":"4","last_reported":1734196045,"current_range_meters":33600,"station_id":"cjm6bp8fraef2m0cb0m0","pricing_plan_id":"cebpf4jnsgd1na2vs0mg"},{"bike_id":"8451875b-9cb2-4be0-9aa7-0954339522e2","system_id":"levelo_inurba_marseille","lat":43.25003,"lon":5.38924,"is_reserved":false,"is_disabled":false,"rental_uris":{"android":"levelo://app?vid=8451875b-9cb2-4be0-9aa7-0954339522e2","ios":"levelo://app?vid=8451875b-9cb2-4be0-9aa7-0954339522e2"},"vehicle_type_id":"4","last_reported":1734196045,"current_range_meters":38000,"station_id":"ce4bhgp2rcd13ifvqfd0","pricing_plan_id":"cebpf4jnsgd1na2vs0mg"},{"bike_id":"eb1496f4-67ed-47fd-8660-60023378367f","system_id":"levelo_inurba_marseille","lat":43.294212,"lon":5.374322,"is_reserved":false,"is_disabled":true,"rental_uris":{"android":"levelo://app?vid=eb1496f4-67ed-47fd-8660-60023378367f","ios":"levelo://app?vid=eb1496f4-67ed-47fd-8660-60023378367f"},"vehicle_type_id":"4","last_reported":1734196045,"current_range_meters":0,"station_id":"","pricing_plan_id":"cebpf4jnsgd1na2vs0mg"},{"bike_id":"31c7c931-55e2-482c-9ee5-63e523f58659","system_id":"levelo_inurba_marseille","lat":43.29981,"lon":5.37131,"is_reserved":false,"is_disabled":false,"rental_uris":{"android":"levelo://app?vid=31c7c931-55e2-482c-9ee5-63e523f58659","ios":"levelo://app?vid=31c7c931-55e2-482c-9ee5-63e523f58659"},"vehicle_type_id":"4","last_reported":1734196045,"current_range_meters":38000,"station_id":"ce4bgr92rcd13ifvqc7g","pricing_plan_id":"cebpf4jnsgd1na2vs0mg"},{"bike_id":"faf7cbfc-5a3b-4c27-83a7-aaa310de447c","system_id":"levelo_inurba_marseille","lat":43.27202,"lon":5.3917,"is_reserved":false,"is_disabled":false,"rental_uris":{"android":"levelo://app?vid=faf7cbfc-5a3b-4c27-83a7-aaa310de447c","ios":"levelo://app?vid=faf7cbfc-5a3b-4c27-83a7-aaa310de447c"},"vehicle_type_id":"4","last_reported":1734196045,"current_range_meters":37600,"station_id":"ce4bhhp2rcd13ifvqfm0","pricing_plan_id":"cebpf4jnsgd1na2vs0mg"},{"bike_id":"a5754fbb-2369-4ca9-ba0a-964bbf483bd3","system_id":"levelo_inurba_marseille","lat":43.23194,"lon":5.35548,"is_reserved":false,"is_disabled":false,"rental_uris":{"android":"levelo://app?vid=a5754fbb-2369-4ca9-ba0a-964bbf483bd3","ios":"levelo://app?vid=a5754fbb-2369-4ca9-ba0a-964bbf483bd3"},"vehicle_type_id":"4","last_reported":1734196045,"current_range_meters":38800,"station_id":"ce4bhu92rcd13ifvqi70","pricing_plan_id":"cebpf4jnsgd1na2vs0mg"},{"bike_id":"e7db2246-634b-485d-b44c-b0b6f48fd7a6","system_id":"levelo_inurba_marseille","lat":43.30457,"lon":5.379,"is_reserved":false,"is_disabled":false,"rental_uris":{"android":"levelo://app?vid=e7db2246-634b-485d-b44c-b0b6f48fd7a6","ios":"levelo://app?vid=e7db2246-634b-485d-b44c-b0b6f48fd7a6"},"vehicle_type_id":"4","last_reported":1734196045,"current_range_meters":3200,"station_id":"ce4bgup2rcd13ifvqcn0","pricing_plan_id":"cebpf4jnsgd1na2vs0mg"},{"bike_id":"78136f3f-64bb-48a3-ad19-cd0191ce7d6b","system_id":"levelo_inurba_marseille","lat":43.29225,"lon":5.3874,"is_reserved":false,"is_disabled":false,"rental_uris":{"android":"levelo://app?vid=78136f3f-64bb-48a3-ad19-cd0191ce7d6b","ios":"levelo://app?vid=78136f3f-64bb-48a3-ad19-cd0191ce7d6b"},"vehicle_type_id":"4","last_reported":1734196045,"current_range_meters":4400,"station_id":"ce4bgkh2rcd13ifvqbk0","pricing_plan_id":"cebpf4jnsgd1na2vs0mg"},{"bike_id":"d9c9bbf1-dbc3-4738-965a-8631569de90e","system_id":"levelo_inurba_marseille","lat":43.26781,"lon":5.39421,"is_reserved":false,"is_disabled":true,"rental_uris":{"android":"levelo://app?vid=d9c9bbf1-dbc3-4738-965a-8631569de90e","ios":"levelo://app?vid=d9c9bbf1-dbc3-4738-965a-8631569de90e"},"vehicle_type_id":"4","last_reported":1734196045,"current_range_meters":1200,"station_id":"ce4bhh12rcd13ifvqfg0","pricing_plan_id":"cebpf4jnsgd1na2vs0mg"},{"bike_id":"a780db80-74d5-4147-a4fa-b2139126d77c","system_id":"levelo_inurba_marseille","lat":43.28265,"lon":5.35061,"is_reserved":false,"is_disabled":false,"rental_uris":{"android":"levelo://app?vid=a780db80-74d5-4147-a4fa-b2139126d77c","ios":"levelo://app?vid=a780db80-74d5-4147-a4fa-b2139126d77c"},"vehicle_type_id":"4","last_reported":1734196045,"current_range_meters":20400,"station_id":"ce4bhbp2rcd13ifvqerg","pricing_plan_id":"cebpf4jnsgd1na2vs0mg"},{"bike_id":"4bbd9a79-60f4-45eb-95f8-d571121286f5","system_id":"levelo_inurba_marseille","lat":43.2979,"lon":5.38094,"is_reserved":false,"is_disabled":false,"rental_uris":{"android":"levelo://app?vid=4bbd9a79-60f4-45eb-95f8-d571121286f5","ios":"levelo://app?vid=4bbd9a79-60f4-45eb-95f8-d571121286f5"},"vehicle_type_id":"4","last_reported":1734196045,"current_range_meters":36800,"station_id":"ce4bgip2rcd13ifvqbb0","pricing_plan_id":"cebpf4jnsgd1na2vs0mg"},{"bike_id":"e171553a-d499-40c6-b158-4c1c9a0d09dc","system_id":"levelo_inurba_marseille","lat":43.27202,"lon":5.41002,"is_reserved":false,"is_disabled":false,"rental_uris":{"android":"levelo://app?vid=e171553a-d499-40c6-b158-4c1c9a0d09dc","ios":"levelo://app?vid=e171553a-d499-40c6-b158-4c1c9a0d09dc"},"vehicle_type_id":"4","last_reported":1734196045,"current_range_meters":39200,"station_id":"ce4bhl12rcd13ifvqgf0","pricing_plan_id":"cebpf4jnsgd1na2vs0mg"},{"bike_id":"d0f616d3-4e1b-4801-b6b7-5762445f0e8a","system_id":"levelo_inurba_marseille","lat":43.25965,"lon":5.39898,"is_reserved":false,"is_disabled":false,"rental_uris":{"android":"levelo://app?vid=d0f616d3-4e1b-4801-b6b7-5762445f0e8a","ios":"levelo://app?vid=d0f616d3-4e1b-4801-b6b7-5762445f0e8a"},"vehicle_type_id":"4","last_reported":1734196045,"current_range_meters":6400,"station_id":"ce4bhl92rcd13ifvqghg","pricing_plan_id":"cebpf4jnsgd1na2vs0mg"},{"bike_id":"862c590a-65d4-4e63-ad5b-e757d0023f89","system_id":"levelo_inurba_marseille","lat":43.29726,"lon":5.37659,"is_reserved":false,"is_disabled":false,"rental_uris":{"android":"levelo://app?vid=862c590a-65d4-4e63-ad5b-e757d0023f89","ios":"levelo://app?vid=862c590a-65d4-4e63-ad5b-e757d0023f89"},"vehicle_type_id":"4","last_reported":1734196045,"current_range_meters":37600,"station_id":"ce4bgkh2rcd13ifvqbl0","pricing_plan_id":"cebpf4jnsgd1na2vs0mg"},{"bike_id":"84e92161-5f19-4723-b030-327d870e7672","system_id":"levelo_inurba_marseille","lat":43.2975,"lon":5.37116,"is_reserved":false,"is_disabled":false,"rental_uris":{"android":"levelo://app?vid=84e92161-5f19-4723-b030-327d870e7672","ios":"levelo://app?vid=84e92161-5f19-4723-b030-327d870e7672"},"vehicle_type_id":"4","last_reported":1734196045,"current_range_meters":28400,"station_id":"ce4bgop2rcd13ifvqc1g","pricing_plan_id":"cebpf4jnsgd1na2vs0mg"},{"bike_id":"7bdde0b3-b592-41fc-9649-9bd6fe6ae294","system_id":"levelo_inurba_marseille","lat":43.29969,"lon":5.37186,"is_reserved":false,"is_disabled":false,"rental_uris":{"android":"levelo://app?vid=7bdde0b3-b592-41fc-9649-9bd6fe6ae294","ios":"levelo://app?vid=7bdde0b3-b592-41fc-9649-9bd6fe6ae294"},"vehicle_type_id":"4","last_reported":1734196045,"current_range_meters":38800,"station_id":"ce4bgr92rcd13ifvqc7g","pricing_plan_id":"cebpf4jnsgd1na2vs0mg"},{"bike_id":"0d5b1b0c-54d0-463e-8e32-441120da14e0","system_id":"levelo_inurba_marseille","lat":43.26943,"lon":5.40245,"is_reserved":false,"is_disabled":false,"rental_uris":{"android":"levelo://app?vid=0d5b1b0c-54d0-463e-8e32-441120da14e0","ios":"levelo://app?vid=0d5b1b0c-54d0-463e-8e32-441120da14e0"},"vehicle_type_id":"4","last_reported":1734196045,"current_range_meters":24800,"station_id":"cjm6bp8fraef2m0cb0m0","pricing_plan_id":"cebpf4jnsgd1na2vs0mg"},{"bike_id":"ab0cb0c4-e91a-426b-a944-0d14fa05fdb5","system_id":"levelo_inurba_marseille","lat":43.27997,"lon":5.4166,"is_reserved":false,"is_disabled":false,"rental_uris":{"android":"levelo://app?vid=ab0cb0c4-e91a-426b-a944-0d14fa05fdb5","ios":"levelo://app?vid=ab0cb0c4-e91a-426b-a944-0d14fa05fdb5"},"vehicle_type_id":"4","last_reported":1734196045,"current_range_meters":18800,"station_id":"ce4bho12rcd13ifvqh1g","pricing_plan_id":"cebpf4jnsgd1na2vs0mg"},{"bike_id":"b89cd02a-44c8-4fbb-83be-fee20ca926ec","system_id":"levelo_inurba_marseille","lat":43.25117,"lon":5.40319,"is_reserved":false,"is_disabled":false,"rental_uris":{"android":"levelo://app?vid=b89cd02a-44c8-4fbb-83be-fee20ca926ec","ios":"levelo://app?vid=b89cd02a-44c8-4fbb-83be-fee20ca926ec"},"vehicle_type_id":"4","last_reported":1734196045,"current_range_meters":9600,"station_id":"ce4bhlh2rcd13ifvqgig","pricing_plan_id":"cebpf4jnsgd1na2vs0mg"},{"bike_id":"6347dac2-3384-4d85-977c-86b023f83fa8","system_id":"levelo_inurba_marseille","lat":43.31082,"lon":5.40097,"is_reserved":false,"is_disabled":false,"rental_uris":{"android":"levelo://app?vid=6347dac2-3384-4d85-977c-86b023f83fa8","ios":"levelo://app?vid=6347dac2-3384-4d85-977c-86b023f83fa8"},"vehicle_type_id":"4","last_reported":1734196045,"current_range_meters":34000,"station_id":"","pricing_plan_id":"cebpf4jnsgd1na2vs0mg"},{"bike_id":"c78779cc-c5b9-463e-a529-4d68efb7db1b","system_id":"levelo_inurba_marseille","lat":43.269439,"lon":5.402574,"is_reserved":false,"is_disabled":false,"rental_uris":{"android":"levelo://app?vid=c78779cc-c5b9-463e-a529-4d68efb7db1b","ios":"levelo://app?vid=c78779cc-c5b9-463e-a529-4d68efb7db1b"},"vehicle_type_id":"4","last_reported":1734196045,"current_range_meters":36800,"station_id":"cjm6bp8fraef2m0cb0m0","pricing_plan_id":"cebpf4jnsgd1na2vs0mg"},{"bike_id":"c51154b5-1034-4fc0-8fac-d1d2e91dba39","system_id":"levelo_inurba_marseille","lat":43.23057,"lon":5.35494,"is_reserved":false,"is_disabled":false,"rental_uris":{"android":"levelo://app?vid=c51154b5-1034-4fc0-8fac-d1d2e91dba39","ios":"levelo://app?vid=c51154b5-1034-4fc0-8fac-d1d2e91dba39"},"vehicle_type_id":"4","last_reported":1734196045,"current_range_meters":10000,"station_id":"cpo3342slgdg3j2ifvpg","pricing_plan_id":"cebpf4jnsgd1na2vs0mg"},{"bike_id":"a4787828-f21a-4f65-9395-0d1b00e6c5c0","system_id":"levelo_inurba_marseille","lat":43.27306,"lon":5.3909,"is_reserved":false,"is_disabled":false,"rental_uris":{"android":"levelo://app?vid=a4787828-f21a-4f65-9395-0d1b00e6c5c0","ios":"levelo://app?vid=a4787828-f21a-4f65-9395-0d1b00e6c5c0"},"vehicle_type_id":"4","last_reported":1734196045,"current_range_meters":25200,"station_id":"ce4bhgp2rcd13ifvqfe0","pricing_plan_id":"cebpf4jnsgd1na2vs0mg"},{"bike_id":"9898497d-08a8-4f3f-896d-f939d7b3fae3","system_id":"levelo_inurba_marseille","lat":43.29718,"lon":5.37691,"is_reserved":false,"is_disabled":false,"rental_uris":{"android":"levelo://app?vid=9898497d-08a8-4f3f-896d-f939d7b3fae3","ios":"levelo://app?vid=9898497d-08a8-4f3f-896d-f939d7b3fae3"},"vehicle_type_id":"4","last_reported":1734196045,"current_range_meters":26800,"station_id":"ce4bgkh2rcd13ifvqbl0","pricing_plan_id":"cebpf4jnsgd1na2vs0mg"},{"bike_id":"266f7fca-62d8-462d-83ba-67663ab9bbef","system_id":"levelo_inurba_marseille","lat":43.251,"lon":5.40328,"is_reserved":false,"is_disabled":false,"rental_uris":{"android":"levelo://app?vid=266f7fca-62d8-462d-83ba-67663ab9bbef","ios":"levelo://app?vid=266f7fca-62d8-462d-83ba-67663ab9bbef"},"vehicle_type_id":"4","last_reported":1734196045,"current_range_meters":38800,"station_id":"ce4bhlh2rcd13ifvqgig","pricing_plan_id":"cebpf4jnsgd1na2vs0mg"},{"bike_id":"abe250a1-3d26-47a1-bae8-73bf3354b17a","system_id":"levelo_inurba_marseille","lat":43.27199,"lon":5.4099,"is_reserved":false,"is_disabled":false,"rental_uris":{"android":"levelo://app?vid=abe250a1-3d26-47a1-bae8-73bf3354b17a","ios":"levelo://app?vid=abe250a1-3d26-47a1-bae8-73bf3354b17a"},"vehicle_type_id":"4","last_reported":1734196045,"current_range_meters":10000,"station_id":"ce4bhl12rcd13ifvqgf0","pricing_plan_id":"cebpf4jnsgd1na2vs0mg"},{"bike_id":"b3e5c56a-42f7-4440-8c18-f4ed76baad58","system_id":"levelo_inurba_marseille","lat":43.29575,"lon":5.37502,"is_reserved":false,"is_disabled":false,"rental_uris":{"android":"levelo://app?vid=b3e5c56a-42f7-4440-8c18-f4ed76baad58","ios":"levelo://app?vid=b3e5c56a-42f7-4440-8c18-f4ed76baad58"},"vehicle_type_id":"4","last_reported":1734196045,"current_range_meters":38800,"station_id":"ce4bgh92rcd13ifvqb50","pricing_plan_id":"cebpf4jnsgd1na2vs0mg"},{"bike_id":"0d28bb0b-7290-4a15-b131-2b11ecac1281","system_id":"levelo_inurba_marseille","lat":43.26942,"lon":5.40243,"is_reserved":false,"is_disabled":false,"rental_uris":{"android":"levelo://app?vid=0d28bb0b-7290-4a15-b131-2b11ecac1281","ios":"levelo://app?vid=0d28bb0b-7290-4a15-b131-2b11ecac1281"},"vehicle_type_id":"4","last_reported":1734196045,"current_range_meters":37600,"station_id":"cjm6bp8fraef2m0cb0m0","pricing_plan_id":"cebpf4jnsgd1na2vs0mg"},{"bike_id":"809a61ed-cade-49dd-b244-4dde92875911","system_id":"levelo_inurba_marseille","lat":43.27201,"lon":5.39191,"is_reserved":false,"is_disabled":false,"rental_uris":{"android":"levelo://app?vid=809a61ed-cade-49dd-b244-4dde92875911","ios":"levelo://app?vid=809a61ed-cade-49dd-b244-4dde92875911"},"vehicle_type_id":"4","last_reported":1734196045,"current_range_meters":6800,"station_id":"ce4bhhp2rcd13ifvqfm0","pricing_plan_id":"cebpf4jnsgd1na2vs0mg"},{"bike_id":"d5ad4ccd-0d12-4849-9382-4ec94afd7b79","system_id":"levelo_inurba_marseille","lat":43.2694,"lon":5.40252,"is_reserved":false,"is_disabled":false,"rental_uris":{"android":"levelo://app?vid=d5ad4ccd-0d12-4849-9382-4ec94afd7b79","ios":"levelo://app?vid=d5ad4ccd-0d12-4849-9382-4ec94afd7b79"},"vehicle_type_id":"4","last_reported":1734196045,"current_range_meters":38800,"station_id":"cjm6bp8fraef2m0cb0m0","pricing_plan_id":"cebpf4jnsgd1na2vs0mg"},{"bike_id":"ecbd6812-25d8-4032-9fac-12f74d684632","system_id":"levelo_inurba_marseille","lat":43.29262,"lon":5.38442,"is_reserved":false,"is_disabled":false,"rental_uris":{"android":"levelo://app?vid=ecbd6812-25d8-4032-9fac-12f74d684632","ios":"levelo://app?vid=ecbd6812-25d8-4032-9fac-12f74d684632"},"vehicle_type_id":"4","last_reported":1734196045,"current_range_meters":10800,"station_id":"ce4bh692rcd13ifvqea0","pricing_plan_id":"cebpf4jnsgd1na2vs0mg"},{"bike_id":"f075d5a6-679c-49cf-87c3-8c240370d2d1","system_id":"levelo_inurba_marseille","lat":43.29017,"lon":5.35912,"is_reserved":false,"is_disabled":false,"rental_uris":{"android":"levelo://app?vid=f075d5a6-679c-49cf-87c3-8c240370d2d1","ios":"levelo://app?vid=f075d5a6-679c-49cf-87c3-8c240370d2d1"},"vehicle_type_id":"4","last_reported":1734196045,"current_range_meters":17200,"station_id":"ce4bha92rcd13ifvqeg0","pricing_plan_id":"cebpf4jnsgd1na2vs0mg"},{"bike_id":"99dd0b01-1504-4286-9d63-b785ac1602ce","system_id":"levelo_inurba_marseille","lat":43.24833,"lon":5.37449,"is_reserved":false,"is_disabled":false,"rental_uris":{"android":"levelo://app?vid=99dd0b01-1504-4286-9d63-b785ac1602ce","ios":"levelo://app?vid=99dd0b01-1504-4286-9d63-b785ac1602ce"},"vehicle_type_id":"4","last_reported":1734196045,"current_range_meters":36800,"station_id":"ce4bhgh2rcd13ifvqfb0","pricing_plan_id":"cebpf4jnsgd1na2vs0mg"},{"bike_id":"b9fd8210-1762-40eb-87aa-8f4b603c6aad","system_id":"levelo_inurba_marseille","lat":43.2604,"lon":5.37541,"is_reserved":false,"is_disabled":false,"rental_uris":{"android":"levelo://app?vid=b9fd8210-1762-40eb-87aa-8f4b603c6aad","ios":"levelo://app?vid=b9fd8210-1762-40eb-87aa-8f4b603c6aad"},"vehicle_type_id":"4","last_reported":1734196045,"current_range_meters":38800,"station_id":"ce4bhgh2rcd13ifvqfa0","pricing_plan_id":"cebpf4jnsgd1na2vs0mg"},{"bike_id":"d7f29f9d-6656-43a1-b180-151c910ff594","system_id":"levelo_inurba_marseille","lat":43.28975,"lon":5.37825,"is_reserved":false,"is_disabled":false,"rental_uris":{"android":"levelo://app?vid=d7f29f9d-6656-43a1-b180-151c910ff594","ios":"levelo://app?vid=d7f29f9d-6656-43a1-b180-151c910ff594"},"vehicle_type_id":"4","last_reported":1734196045,"current_range_meters":10800,"station_id":"ce4bh9p2rcd13ifvqed0","pricing_plan_id":"cebpf4jnsgd1na2vs0mg"},{"bike_id":"ab7ad1a3-d80d-400f-9bfa-f25c4896fcb7","system_id":"levelo_inurba_marseille","lat":43.25837,"lon":5.39431,"is_reserved":false,"is_disabled":false,"rental_uris":{"android":"levelo://app?vid=ab7ad1a3-d80d-400f-9bfa-f25c4896fcb7","ios":"levelo://app?vid=ab7ad1a3-d80d-400f-9bfa-f25c4896fcb7"},"vehicle_type_id":"4","last_reported":1734196045,"current_range_meters":36400,"station_id":"ce4bhip2rcd13ifvqft0","pricing_plan_id":"cebpf4jnsgd1na2vs0mg"},{"bike_id":"af5005fc-d058-4152-a2f0-a599ec2fe143","system_id":"levelo_inurba_marseille","lat":43.32293,"lon":5.38271,"is_reserved":false,"is_disabled":false,"rental_uris":{"android":"levelo://app?vid=af5005fc-d058-4152-a2f0-a599ec2fe143","ios":"levelo://app?vid=af5005fc-d058-4152-a2f0-a599ec2fe143"},"vehicle_type_id":"4","last_reported":1734196045,"current_range_meters":39200,"station_id":"ce4bhr12rcd13ifvqhqg","pricing_plan_id":"cebpf4jnsgd1na2vs0mg"},{"bike_id":"3650d84c-d2fd-4728-abeb-b9accdfa7210","system_id":"levelo_inurba_marseille","lat":43.30242,"lon":5.4005,"is_reserved":false,"is_disabled":true,"rental_uris":{"android":"levelo://app?vid=3650d84c-d2fd-4728-abeb-b9accdfa7210","ios":"levelo://app?vid=3650d84c-d2fd-4728-abeb-b9accdfa7210"},"vehicle_type_id":"4","last_reported":1734196045,"current_range_meters":26800,"station_id":"ce4bgvh2rcd13ifvqcs0","pricing_plan_id":"cebpf4jnsgd1na2vs0mg"},{"bike_id":"b76bfadb-6288-4939-8ca7-fc00e8227f70","system_id":"levelo_inurba_marseille","lat":43.3106,"lon":5.38344,"is_reserved":false,"is_disabled":true,"rental_uris":{"android":"levelo://app?vid=b76bfadb-6288-4939-8ca7-fc00e8227f70","ios":"levelo://app?vid=b76bfadb-6288-4939-8ca7-fc00e8227f70"},"vehicle_type_id":"4","last_reported":1734196045,"current_range_meters":0,"station_id":"ce4bgv92rcd13ifvqcr0","pricing_plan_id":"cebpf4jnsgd1na2vs0mg"},{"bike_id":"8646b031-0d36-4e94-baac-67ee566033ba","system_id":"levelo_inurba_marseille","lat":43.3107,"lon":5.38325,"is_reserved":false,"is_disabled":false,"rental_uris":{"android":"levelo://app?vid=8646b031-0d36-4e94-baac-67ee566033ba","ios":"levelo://app?vid=8646b031-0d36-4e94-baac-67ee566033ba"},"vehicle_type_id":"4","last_reported":1734196045,"current_range_meters":30800,"station_id":"ce4bgv92rcd13ifvqcr0","pricing_plan_id":"cebpf4jnsgd1na2vs0mg"},{"bike_id":"a7ee124d-4541-4cd9-add8-e2fe1a373383","system_id":"levelo_inurba_marseille","lat":43.2721,"lon":5.39159,"is_reserved":false,"is_disabled":false,"rental_uris":{"android":"levelo://app?vid=a7ee124d-4541-4cd9-add8-e2fe1a373383","ios":"levelo://app?vid=a7ee124d-4541-4cd9-add8-e2fe1a373383"},"vehicle_type_id":"4","last_reported":1734196045,"current_range_meters":8400,"station_id":"ce4bhhp2rcd13ifvqfm0","pricing_plan_id":"cebpf4jnsgd1na2vs0mg"},{"bike_id":"ece454f5-1d3e-413c-80e3-e3ad7f8671fd","system_id":"levelo_inurba_marseille","lat":43.29517,"lon":5.37499,"is_reserved":false,"is_disabled":false,"rental_uris":{"android":"levelo://app?vid=ece454f5-1d3e-413c-80e3-e3ad7f8671fd","ios":"levelo://app?vid=ece454f5-1d3e-413c-80e3-e3ad7f8671fd"},"vehicle_type_id":"4","last_reported":1734196045,"current_range_meters":20800,"station_id":"ce4bgkp2rcd13ifvqbmg","pricing_plan_id":"cebpf4jnsgd1na2vs0mg"},{"bike_id":"ab5c0b8b-1e60-424c-9881-b6c2af8578b6","system_id":"levelo_inurba_marseille","lat":43.32055,"lon":5.41557,"is_reserved":false,"is_disabled":false,"rental_uris":{"android":"levelo://app?vid=ab5c0b8b-1e60-424c-9881-b6c2af8578b6","ios":"levelo://app?vid=ab5c0b8b-1e60-424c-9881-b6c2af8578b6"},"vehicle_type_id":"4","last_reported":1734196045,"current_range_meters":11600,"station_id":"ce4bhq92rcd13ifvqhkg","pricing_plan_id":"cebpf4jnsgd1na2vs0mg"},{"bike_id":"4aca466f-18cd-4854-8368-f671117d734c","system_id":"levelo_inurba_marseille","lat":43.2694,"lon":5.38903,"is_reserved":false,"is_disabled":false,"rental_uris":{"android":"levelo://app?vid=4aca466f-18cd-4854-8368-f671117d734c","ios":"levelo://app?vid=4aca466f-18cd-4854-8368-f671117d734c"},"vehicle_type_id":"4","last_reported":1734196045,"current_range_meters":39200,"station_id":"ce4bhhh2rcd13ifvqfl0","pricing_plan_id":"cebpf4jnsgd1na2vs0mg"},{"bike_id":"cda8507b-8e7e-45bf-a055-7c9aad51f222","system_id":"levelo_inurba_marseille","lat":43.27051,"lon":5.40262,"is_reserved":false,"is_disabled":false,"rental_uris":{"android":"levelo://app?vid=cda8507b-8e7e-45bf-a055-7c9aad51f222","ios":"levelo://app?vid=cda8507b-8e7e-45bf-a055-7c9aad51f222"},"vehicle_type_id":"4","last_reported":1734196045,"current_range_meters":30800,"station_id":"ce4bhk92rcd13ifvqgc0","pricing_plan_id":"cebpf4jnsgd1na2vs0mg"},{"bike_id":"6cb5f94f-eade-4b7c-b995-84c805be74f9","system_id":"levelo_inurba_marseille","lat":43.33779,"lon":5.37414,"is_reserved":false,"is_disabled":false,"rental_uris":{"android":"levelo://app?vid=6cb5f94f-eade-4b7c-b995-84c805be74f9","ios":"levelo://app?vid=6cb5f94f-eade-4b7c-b995-84c805be74f9"},"vehicle_type_id":"4","last_reported":1734196045,"current_range_meters":38400,"station_id":"","pricing_plan_id":"cebpf4jnsgd1na2vs0mg"},{"bike_id":"f1e0fb6e-75ad-4aec-a947-1574306c7235","system_id":"levelo_inurba_marseille","lat":43.29177,"lon":5.39303,"is_reserved":false,"is_disabled":false,"rental_uris":{"android":"levelo://app?vid=f1e0fb6e-75ad-4aec-a947-1574306c7235","ios":"levelo://app?vid=f1e0fb6e-75ad-4aec-a947-1574306c7235"},"vehicle_type_id":"4","last_reported":1734196045,"current_range_meters":26000,"station_id":"ce4bh192rcd13ifvqdd0","pricing_plan_id":"cebpf4jnsgd1na2vs0mg"},{"bike_id":"380c9a62-9355-46ea-aba6-5d39cd47ad4b","system_id":"levelo_inurba_marseille","lat":43.31374,"lon":5.40613,"is_reserved":false,"is_disabled":true,"rental_uris":{"android":"levelo://app?vid=380c9a62-9355-46ea-aba6-5d39cd47ad4b","ios":"levelo://app?vid=380c9a62-9355-46ea-aba6-5d39cd47ad4b"},"vehicle_type_id":"4","last_reported":1734196045,"current_range_meters":0,"station_id":"","pricing_plan_id":"cebpf4jnsgd1na2vs0mg"},{"bike_id":"dc382634-aed8-493e-8590-bf7f7a19747b","system_id":"levelo_inurba_marseille","lat":43.27326,"lon":5.39089,"is_reserved":false,"is_disabled":false,"rental_uris":{"android":"levelo://app?vid=dc382634-aed8-493e-8590-bf7f7a19747b","ios":"levelo://app?vid=dc382634-aed8-493e-8590-bf7f7a19747b"},"vehicle_type_id":"4","last_reported":1734196045,"current_range_meters":36800,"station_id":"ce4bhgp2rcd13ifvqfe0","pricing_plan_id":"cebpf4jnsgd1na2vs0mg"},{"bike_id":"5698604e-aaa5-42b6-9f56-06778c2d2e5a","system_id":"levelo_inurba_marseille","lat":43.25102,"lon":5.40324,"is_reserved":false,"is_disabled":false,"rental_uris":{"android":"levelo://app?vid=5698604e-aaa5-42b6-9f56-06778c2d2e5a","ios":"levelo://app?vid=5698604e-aaa5-42b6-9f56-06778c2d2e5a"},"vehicle_type_id":"4","last_reported":1734196045,"current_range_meters":8000,"station_id":"ce4bhlh2rcd13ifvqgig","pricing_plan_id":"cebpf4jnsgd1na2vs0mg"},{"bike_id":"d4401c05-142e-4a3b-9584-a2db6ad30252","system_id":"levelo_inurba_marseille","lat":43.33019,"lon":5.39051,"is_reserved":false,"is_disabled":false,"rental_uris":{"android":"levelo://app?vid=d4401c05-142e-4a3b-9584-a2db6ad30252","ios":"levelo://app?vid=d4401c05-142e-4a3b-9584-a2db6ad30252"},"vehicle_type_id":"4","last_reported":1734196045,"current_range_meters":36000,"station_id":"ce4bhr92rcd13ifvqhrg","pricing_plan_id":"cebpf4jnsgd1na2vs0mg"},{"bike_id":"6a0e7c7f-91b3-41f8-98bb-e28b5d23bd1d","system_id":"levelo_inurba_marseille","lat":43.29583,"lon":5.37807,"is_reserved":false,"is_disabled":false,"rental_uris":{"android":"levelo://app?vid=6a0e7c7f-91b3-41f8-98bb-e28b5d23bd1d","ios":"levelo://app?vid=6a0e7c7f-91b3-41f8-98bb-e28b5d23bd1d"},"vehicle_type_id":"4","last_reported":1734196045,"current_range_meters":27600,"station_id":"","pricing_plan_id":"cebpf4jnsgd1na2vs0mg"},{"bike_id":"27524b8d-9acb-4c02-bc9e-4b8bb31c2a6d","system_id":"levelo_inurba_marseille","lat":43.26496,"lon":5.39536,"is_reserved":false,"is_disabled":false,"rental_uris":{"android":"levelo://app?vid=27524b8d-9acb-4c02-bc9e-4b8bb31c2a6d","ios":"levelo://app?vid=27524b8d-9acb-4c02-bc9e-4b8bb31c2a6d"},"vehicle_type_id":"4","last_reported":1734196045,"current_range_meters":27600,"station_id":"ce4bhi12rcd13ifvqfq0","pricing_plan_id":"cebpf4jnsgd1na2vs0mg"},{"bike_id":"ca59d865-1951-4846-a717-a349b9e50e7c","system_id":"levelo_inurba_marseille","lat":43.27621,"lon":5.36131,"is_reserved":false,"is_disabled":true,"rental_uris":{"android":"levelo://app?vid=ca59d865-1951-4846-a717-a349b9e50e7c","ios":"levelo://app?vid=ca59d865-1951-4846-a717-a349b9e50e7c"},"vehicle_type_id":"4","last_reported":1734196045,"current_range_meters":36000,"station_id":"ce4bgj92rcd13ifvqbe0","pricing_plan_id":"cebpf4jnsgd1na2vs0mg"},{"bike_id":"bd42838f-97de-4366-ac15-bed82afa7174","system_id":"levelo_inurba_marseille","lat":43.22927,"lon":5.35376,"is_reserved":false,"is_disabled":false,"rental_uris":{"android":"levelo://app?vid=bd42838f-97de-4366-ac15-bed82afa7174","ios":"levelo://app?vid=bd42838f-97de-4366-ac15-bed82afa7174"},"vehicle_type_id":"4","last_reported":1734196045,"current_range_meters":11600,"station_id":"cpo3532slgdg3j2ikp40","pricing_plan_id":"cebpf4jnsgd1na2vs0mg"},{"bike_id":"18be673a-b259-4e40-8a7c-3a4ca5892e9f","system_id":"levelo_inurba_marseille","lat":43.24077,"lon":5.37756,"is_reserved":false,"is_disabled":false,"rental_uris":{"android":"levelo://app?vid=18be673a-b259-4e40-8a7c-3a4ca5892e9f","ios":"levelo://app?vid=18be673a-b259-4e40-8a7c-3a4ca5892e9f"},"vehicle_type_id":"4","last_reported":1734196045,"current_range_meters":20400,"station_id":"ce4bhm12rcd13ifvqgkg","pricing_plan_id":"cebpf4jnsgd1na2vs0mg"},{"bike_id":"283ec910-2b59-4ffd-bbff-9867d116f826","system_id":"levelo_inurba_marseille","lat":43.337444,"lon":5.374475,"is_reserved":false,"is_disabled":true,"rental_uris":{"android":"levelo://app?vid=283ec910-2b59-4ffd-bbff-9867d116f826","ios":"levelo://app?vid=283ec910-2b59-4ffd-bbff-9867d116f826"},"vehicle_type_id":"4","last_reported":1734196045,"current_range_meters":0,"station_id":"","pricing_plan_id":"cebpf4jnsgd1na2vs0mg"},{"bike_id":"44bb1ee1-6608-426b-ad9e-5efdc1a7eac0","system_id":"levelo_inurba_marseille","lat":43.33761,"lon":5.37441,"is_reserved":false,"is_disabled":false,"rental_uris":{"android":"levelo://app?vid=44bb1ee1-6608-426b-ad9e-5efdc1a7eac0","ios":"levelo://app?vid=44bb1ee1-6608-426b-ad9e-5efdc1a7eac0"},"vehicle_type_id":"4","last_reported":1734196045,"current_range_meters":25600,"station_id":"","pricing_plan_id":"cebpf4jnsgd1na2vs0mg"},{"bike_id":"468c22af-9a53-41e2-857c-9be7054af27e","system_id":"levelo_inurba_marseille","lat":43.26945,"lon":5.40245,"is_reserved":false,"is_disabled":true,"rental_uris":{"android":"levelo://app?vid=468c22af-9a53-41e2-857c-9be7054af27e","ios":"levelo://app?vid=468c22af-9a53-41e2-857c-9be7054af27e"},"vehicle_type_id":"4","last_reported":1734196045,"current_range_meters":400,"station_id":"cjm6bp8fraef2m0cb0m0","pricing_plan_id":"cebpf4jnsgd1na2vs0mg"},{"bike_id":"bbffd889-750b-4762-ae94-78458d50ea91","system_id":"levelo_inurba_marseille","lat":43.33724,"lon":5.39182,"is_reserved":false,"is_disabled":false,"rental_uris":{"android":"levelo://app?vid=bbffd889-750b-4762-ae94-78458d50ea91","ios":"levelo://app?vid=bbffd889-750b-4762-ae94-78458d50ea91"},"vehicle_type_id":"4","last_reported":1734196045,"current_range_meters":18800,"station_id":"ce4bhr92rcd13ifvqhsg","pricing_plan_id":"cebpf4jnsgd1na2vs0mg"},{"bike_id":"99ba619c-5da0-4765-9089-6e427d83b439","system_id":"levelo_inurba_marseille","lat":43.29556,"lon":5.37522,"is_reserved":false,"is_disabled":false,"rental_uris":{"android":"levelo://app?vid=99ba619c-5da0-4765-9089-6e427d83b439","ios":"levelo://app?vid=99ba619c-5da0-4765-9089-6e427d83b439"},"vehicle_type_id":"4","last_reported":1734196045,"current_range_meters":5600,"station_id":"ce4bgh92rcd13ifvqb50","pricing_plan_id":"cebpf4jnsgd1na2vs0mg"},{"bike_id":"f8c95c36-0dd0-4298-85b4-2fd2a38ad288","system_id":"levelo_inurba_marseille","lat":43.27916,"lon":5.39578,"is_reserved":false,"is_disabled":false,"rental_uris":{"android":"levelo://app?vid=f8c95c36-0dd0-4298-85b4-2fd2a38ad288","ios":"levelo://app?vid=f8c95c36-0dd0-4298-85b4-2fd2a38ad288"},"vehicle_type_id":"4","last_reported":1734196045,"current_range_meters":36800,"station_id":"ce4bhf92rcd13ifvqf40","pricing_plan_id":"cebpf4jnsgd1na2vs0mg"},{"bike_id":"c6234abb-f24f-4e51-8203-a434dd5a5cf7","system_id":"levelo_inurba_marseille","lat":43.2719,"lon":5.40987,"is_reserved":false,"is_disabled":false,"rental_uris":{"android":"levelo://app?vid=c6234abb-f24f-4e51-8203-a434dd5a5cf7","ios":"levelo://app?vid=c6234abb-f24f-4e51-8203-a434dd5a5cf7"},"vehicle_type_id":"4","last_reported":1734196045,"current_range_meters":37600,"station_id":"ce4bhl12rcd13ifvqgf0","pricing_plan_id":"cebpf4jnsgd1na2vs0mg"},{"bike_id":"6e6a004b-462d-4b03-aeaa-2611256f0d89","system_id":"levelo_inurba_marseille","lat":43.28121,"lon":5.38933,"is_reserved":false,"is_disabled":true,"rental_uris":{"android":"levelo://app?vid=6e6a004b-462d-4b03-aeaa-2611256f0d89","ios":"levelo://app?vid=6e6a004b-462d-4b03-aeaa-2611256f0d89"},"vehicle_type_id":"4","last_reported":1734196045,"current_range_meters":0,"station_id":"","pricing_plan_id":"cebpf4jnsgd1na2vs0mg"},{"bike_id":"31fd6bc4-491e-42c5-a7cf-bd3a68a77350","system_id":"levelo_inurba_marseille","lat":43.29553,"lon":5.42294,"is_reserved":false,"is_disabled":false,"rental_uris":{"android":"levelo://app?vid=31fd6bc4-491e-42c5-a7cf-bd3a68a77350","ios":"levelo://app?vid=31fd6bc4-491e-42c5-a7cf-bd3a68a77350"},"vehicle_type_id":"4","last_reported":1734196045,"current_range_meters":34000,"station_id":"ce4bhph2rcd13ifvqhdg","pricing_plan_id":"cebpf4jnsgd1na2vs0mg"},{"bike_id":"8d50806a-0e21-4afa-9b0d-4348cd7b11ee","system_id":"levelo_inurba_marseille","lat":43.27207,"lon":5.39189,"is_reserved":false,"is_disabled":false,"rental_uris":{"android":"levelo://app?vid=8d50806a-0e21-4afa-9b0d-4348cd7b11ee","ios":"levelo://app?vid=8d50806a-0e21-4afa-9b0d-4348cd7b11ee"},"vehicle_type_id":"4","last_reported":1734196045,"current_range_meters":13600,"station_id":"ce4bhhp2rcd13ifvqfm0","pricing_plan_id":"cebpf4jnsgd1na2vs0mg"},{"bike_id":"d5d9ac08-9e53-4bb5-aaf2-22cc3515faf5","system_id":"levelo_inurba_marseille","lat":43.28706,"lon":5.37395,"is_reserved":false,"is_disabled":false,"rental_uris":{"android":"levelo://app?vid=d5d9ac08-9e53-4bb5-aaf2-22cc3515faf5","ios":"levelo://app?vid=d5d9ac08-9e53-4bb5-aaf2-22cc3515faf5"},"vehicle_type_id":"4","last_reported":1734196045,"current_range_meters":4000,"station_id":"ce4bh3p2rcd13ifvqdq0","pricing_plan_id":"cebpf4jnsgd1na2vs0mg"},{"bike_id":"cea393f9-2932-4e72-986e-372d467d24d4","system_id":"levelo_inurba_marseille","lat":43.28735,"lon":5.37,"is_reserved":false,"is_disabled":false,"rental_uris":{"android":"levelo://app?vid=cea393f9-2932-4e72-986e-372d467d24d4","ios":"levelo://app?vid=cea393f9-2932-4e72-986e-372d467d24d4"},"vehicle_type_id":"4","last_reported":1734196045,"current_range_meters":38800,"station_id":"","pricing_plan_id":"cebpf4jnsgd1na2vs0mg"},{"bike_id":"78add740-1587-4905-bbbd-44b739c02b99","system_id":"levelo_inurba_marseille","lat":43.27065,"lon":5.40242,"is_reserved":false,"is_disabled":false,"rental_uris":{"android":"levelo://app?vid=78add740-1587-4905-bbbd-44b739c02b99","ios":"levelo://app?vid=78add740-1587-4905-bbbd-44b739c02b99"},"vehicle_type_id":"4","last_reported":1734196045,"current_range_meters":16800,"station_id":"ce4bhk92rcd13ifvqgc0","pricing_plan_id":"cebpf4jnsgd1na2vs0mg"},{"bike_id":"2486d544-0292-4cbc-abc8-324d72621448","system_id":"levelo_inurba_marseille","lat":43.31463,"lon":5.37251,"is_reserved":false,"is_disabled":true,"rental_uris":{"android":"levelo://app?vid=2486d544-0292-4cbc-abc8-324d72621448","ios":"levelo://app?vid=2486d544-0292-4cbc-abc8-324d72621448"},"vehicle_type_id":"4","last_reported":1734196045,"current_range_meters":0,"station_id":"","pricing_plan_id":"cebpf4jnsgd1na2vs0mg"},{"bike_id":"f5c6ad5c-23ff-4c93-9cb4-fd3c16bd171c","system_id":"levelo_inurba_marseille","lat":43.25007,"lon":5.38919,"is_reserved":false,"is_disabled":false,"rental_uris":{"android":"levelo://app?vid=f5c6ad5c-23ff-4c93-9cb4-fd3c16bd171c","ios":"levelo://app?vid=f5c6ad5c-23ff-4c93-9cb4-fd3c16bd171c"},"vehicle_type_id":"4","last_reported":1734196045,"current_range_meters":38800,"station_id":"ce4bhgp2rcd13ifvqfd0","pricing_plan_id":"cebpf4jnsgd1na2vs0mg"},{"bike_id":"702fe746-2950-4d83-96ad-da74f787e42f","system_id":"levelo_inurba_marseille","lat":43.25862,"lon":5.39902,"is_reserved":false,"is_disabled":false,"rental_uris":{"android":"levelo://app?vid=702fe746-2950-4d83-96ad-da74f787e42f","ios":"levelo://app?vid=702fe746-2950-4d83-96ad-da74f787e42f"},"vehicle_type_id":"4","last_reported":1734196045,"current_range_meters":36400,"station_id":"ce4bhl92rcd13ifvqghg","pricing_plan_id":"cebpf4jnsgd1na2vs0mg"},{"bike_id":"28f4710e-ebe3-4f22-a392-a12670dedcf8","system_id":"levelo_inurba_marseille","lat":43.27225,"lon":5.3919,"is_reserved":false,"is_disabled":false,"rental_uris":{"android":"levelo://app?vid=28f4710e-ebe3-4f22-a392-a12670dedcf8","ios":"levelo://app?vid=28f4710e-ebe3-4f22-a392-a12670dedcf8"},"vehicle_type_id":"4","last_reported":1734196045,"current_range_meters":30400,"station_id":"ce4bhhp2rcd13ifvqfm0","pricing_plan_id":"cebpf4jnsgd1na2vs0mg"},{"bike_id":"7965bd8b-65b9-4460-9e65-36f253ebc53b","system_id":"levelo_inurba_marseille","lat":43.320471,"lon":5.415275,"is_reserved":false,"is_disabled":false,"rental_uris":{"android":"levelo://app?vid=7965bd8b-65b9-4460-9e65-36f253ebc53b","ios":"levelo://app?vid=7965bd8b-65b9-4460-9e65-36f253ebc53b"},"vehicle_type_id":"4","last_reported":1734196045,"current_range_meters":18800,"station_id":"ce4bhq92rcd13ifvqhkg","pricing_plan_id":"cebpf4jnsgd1na2vs0mg"},{"bike_id":"e0a6086f-41c2-4a33-8393-42d290b44ed5","system_id":"levelo_inurba_marseille","lat":43.30164,"lon":5.38075,"is_reserved":false,"is_disabled":false,"rental_uris":{"android":"levelo://app?vid=e0a6086f-41c2-4a33-8393-42d290b44ed5","ios":"levelo://app?vid=e0a6086f-41c2-4a33-8393-42d290b44ed5"},"vehicle_type_id":"4","last_reported":1734196045,"current_range_meters":11200,"station_id":"ce4bgjp2rcd13ifvqbh0","pricing_plan_id":"cebpf4jnsgd1na2vs0mg"},{"bike_id":"f1995053-ee41-49b9-8111-b9c9c7cb9669","system_id":"levelo_inurba_marseille","lat":43.26942,"lon":5.4026,"is_reserved":false,"is_disabled":false,"rental_uris":{"android":"levelo://app?vid=f1995053-ee41-49b9-8111-b9c9c7cb9669","ios":"levelo://app?vid=f1995053-ee41-49b9-8111-b9c9c7cb9669"},"vehicle_type_id":"4","last_reported":1734196045,"current_range_meters":7200,"station_id":"cjm6bp8fraef2m0cb0m0","pricing_plan_id":"cebpf4jnsgd1na2vs0mg"},{"bike_id":"e5192aff-1008-4e7e-b82a-23b5df79d920","system_id":"levelo_inurba_marseille","lat":43.29561,"lon":5.42246,"is_reserved":false,"is_disabled":false,"rental_uris":{"android":"levelo://app?vid=e5192aff-1008-4e7e-b82a-23b5df79d920","ios":"levelo://app?vid=e5192aff-1008-4e7e-b82a-23b5df79d920"},"vehicle_type_id":"4","last_reported":1734196045,"current_range_meters":37600,"station_id":"ce4bhph2rcd13ifvqhdg","pricing_plan_id":"cebpf4jnsgd1na2vs0mg"},{"bike_id":"a7bdb0f9-f5a6-464f-9551-b706f6882dbb","system_id":"levelo_inurba_marseille","lat":43.27933,"lon":5.41044,"is_reserved":false,"is_disabled":false,"rental_uris":{"android":"levelo://app?vid=a7bdb0f9-f5a6-464f-9551-b706f6882dbb","ios":"levelo://app?vid=a7bdb0f9-f5a6-464f-9551-b706f6882dbb"},"vehicle_type_id":"4","last_reported":1734196045,"current_range_meters":32000,"station_id":"ce4bhnp2rcd13ifvqh0g","pricing_plan_id":"cebpf4jnsgd1na2vs0mg"},{"bike_id":"07aaffff-6c5a-4390-a6e5-b91a437396ec","system_id":"levelo_inurba_marseille","lat":43.241687,"lon":5.36427,"is_reserved":false,"is_disabled":false,"rental_uris":{"android":"levelo://app?vid=07aaffff-6c5a-4390-a6e5-b91a437396ec","ios":"levelo://app?vid=07aaffff-6c5a-4390-a6e5-b91a437396ec"},"vehicle_type_id":"4","last_reported":1734196045,"current_range_meters":10000,"station_id":"cpo36qri1sfpv3e86is0","pricing_plan_id":"cebpf4jnsgd1na2vs0mg"},{"bike_id":"26c220c7-608e-4eee-a4d6-5cfebd322b62","system_id":"levelo_inurba_marseille","lat":43.30437,"lon":5.38898,"is_reserved":false,"is_disabled":false,"rental_uris":{"android":"levelo://app?vid=26c220c7-608e-4eee-a4d6-5cfebd322b62","ios":"levelo://app?vid=26c220c7-608e-4eee-a4d6-5cfebd322b62"},"vehicle_type_id":"4","last_reported":1734196045,"current_range_meters":5600,"station_id":"ce4bgk12rcd13ifvqbi0","pricing_plan_id":"cebpf4jnsgd1na2vs0mg"},{"bike_id":"5e84af60-7e8f-46ea-8614-7a03590b2bf9","system_id":"levelo_inurba_marseille","lat":43.29724,"lon":5.37688,"is_reserved":false,"is_disabled":false,"rental_uris":{"android":"levelo://app?vid=5e84af60-7e8f-46ea-8614-7a03590b2bf9","ios":"levelo://app?vid=5e84af60-7e8f-46ea-8614-7a03590b2bf9"},"vehicle_type_id":"4","last_reported":1734196045,"current_range_meters":38800,"station_id":"ce4bgkh2rcd13ifvqbl0","pricing_plan_id":"cebpf4jnsgd1na2vs0mg"},{"bike_id":"e8c8745f-8e0d-4ce9-8cc3-92cb96b2b19a","system_id":"levelo_inurba_marseille","lat":43.26198,"lon":5.37914,"is_reserved":false,"is_disabled":false,"rental_uris":{"android":"levelo://app?vid=e8c8745f-8e0d-4ce9-8cc3-92cb96b2b19a","ios":"levelo://app?vid=e8c8745f-8e0d-4ce9-8cc3-92cb96b2b19a"},"vehicle_type_id":"4","last_reported":1734196045,"current_range_meters":12400,"station_id":"ce4bhjp2rcd13ifvqg90","pricing_plan_id":"cebpf4jnsgd1na2vs0mg"},{"bike_id":"03855734-fbef-47bb-a528-1ffa6247890e","system_id":"levelo_inurba_marseille","lat":43.30466,"lon":5.37911,"is_reserved":false,"is_disabled":false,"rental_uris":{"android":"levelo://app?vid=03855734-fbef-47bb-a528-1ffa6247890e","ios":"levelo://app?vid=03855734-fbef-47bb-a528-1ffa6247890e"},"vehicle_type_id":"4","last_reported":1734196045,"current_range_meters":36800,"station_id":"ce4bgup2rcd13ifvqcn0","pricing_plan_id":"cebpf4jnsgd1na2vs0mg"},{"bike_id":"1fd137ec-b2df-45ff-8b23-50f37290448d","system_id":"levelo_inurba_marseille","lat":43.2731,"lon":5.39075,"is_reserved":false,"is_disabled":true,"rental_uris":{"android":"levelo://app?vid=1fd137ec-b2df-45ff-8b23-50f37290448d","ios":"levelo://app?vid=1fd137ec-b2df-45ff-8b23-50f37290448d"},"vehicle_type_id":"4","last_reported":1734196045,"current_range_meters":0,"station_id":"ce4bhgp2rcd13ifvqfe0","pricing_plan_id":"cebpf4jnsgd1na2vs0mg"},{"bike_id":"3d7c0129-8b5f-482f-b485-a297bf71325e","system_id":"levelo_inurba_marseille","lat":43.2693,"lon":5.4025,"is_reserved":false,"is_disabled":false,"rental_uris":{"android":"levelo://app?vid=3d7c0129-8b5f-482f-b485-a297bf71325e","ios":"levelo://app?vid=3d7c0129-8b5f-482f-b485-a297bf71325e"},"vehicle_type_id":"4","last_reported":1734196045,"current_range_meters":36000,"station_id":"cjm6bp8fraef2m0cb0m0","pricing_plan_id":"cebpf4jnsgd1na2vs0mg"},{"bike_id":"dd49a983-2577-4e6b-868c-63a9b34b146c","system_id":"levelo_inurba_marseille","lat":43.23193,"lon":5.35549,"is_reserved":false,"is_disabled":false,"rental_uris":{"android":"levelo://app?vid=dd49a983-2577-4e6b-868c-63a9b34b146c","ios":"levelo://app?vid=dd49a983-2577-4e6b-868c-63a9b34b146c"},"vehicle_type_id":"4","last_reported":1734196045,"current_range_meters":38800,"station_id":"ce4bhu92rcd13ifvqi70","pricing_plan_id":"cebpf4jnsgd1na2vs0mg"},{"bike_id":"d187580b-68ea-4e8d-80cf-1e9c8892794c","system_id":"levelo_inurba_marseille","lat":43.26807,"lon":5.40261,"is_reserved":false,"is_disabled":false,"rental_uris":{"android":"levelo://app?vid=d187580b-68ea-4e8d-80cf-1e9c8892794c","ios":"levelo://app?vid=d187580b-68ea-4e8d-80cf-1e9c8892794c"},"vehicle_type_id":"4","last_reported":1734196045,"current_range_meters":8400,"station_id":"ce501612rcd8frsf0b60","pricing_plan_id":"cebpf4jnsgd1na2vs0mg"},{"bike_id":"43586339-1604-468d-8c8c-5789a5c395bf","system_id":"levelo_inurba_marseille","lat":43.27446,"lon":5.39549,"is_reserved":false,"is_disabled":false,"rental_uris":{"android":"levelo://app?vid=43586339-1604-468d-8c8c-5789a5c395bf","ios":"levelo://app?vid=43586339-1604-468d-8c8c-5789a5c395bf"},"vehicle_type_id":"4","last_reported":1734196045,"current_range_meters":25200,"station_id":"ce4bhdp2rcd13ifvqf20","pricing_plan_id":"cebpf4jnsgd1na2vs0mg"},{"bike_id":"0f4eef30-7e29-408b-8ee3-419dc1a14b44","system_id":"levelo_inurba_marseille","lat":43.26786,"lon":5.39416,"is_reserved":false,"is_disabled":false,"rental_uris":{"android":"levelo://app?vid=0f4eef30-7e29-408b-8ee3-419dc1a14b44","ios":"levelo://app?vid=0f4eef30-7e29-408b-8ee3-419dc1a14b44"},"vehicle_type_id":"4","last_reported":1734196045,"current_range_meters":24000,"station_id":"ce4bhh12rcd13ifvqfg0","pricing_plan_id":"cebpf4jnsgd1na2vs0mg"},{"bike_id":"bf30f8a4-2347-4b27-abae-3838224bfb1f","system_id":"levelo_inurba_marseille","lat":43.27211,"lon":5.39185,"is_reserved":false,"is_disabled":true,"rental_uris":{"android":"levelo://app?vid=bf30f8a4-2347-4b27-abae-3838224bfb1f","ios":"levelo://app?vid=bf30f8a4-2347-4b27-abae-3838224bfb1f"},"vehicle_type_id":"4","last_reported":1734196045,"current_range_meters":0,"station_id":"ce4bhhp2rcd13ifvqfm0","pricing_plan_id":"cebpf4jnsgd1na2vs0mg"},{"bike_id":"ca3bf6a0-806c-4046-b219-bbea4c2ba646","system_id":"levelo_inurba_marseille","lat":43.23194,"lon":5.35548,"is_reserved":false,"is_disabled":false,"rental_uris":{"android":"levelo://app?vid=ca3bf6a0-806c-4046-b219-bbea4c2ba646","ios":"levelo://app?vid=ca3bf6a0-806c-4046-b219-bbea4c2ba646"},"vehicle_type_id":"4","last_reported":1734196045,"current_range_meters":39200,"station_id":"ce4bhu92rcd13ifvqi70","pricing_plan_id":"cebpf4jnsgd1na2vs0mg"},{"bike_id":"166ac817-001a-4993-9d7c-99ef7f3463aa","system_id":"levelo_inurba_marseille","lat":43.29259,"lon":5.38431,"is_reserved":false,"is_disabled":true,"rental_uris":{"android":"levelo://app?vid=166ac817-001a-4993-9d7c-99ef7f3463aa","ios":"levelo://app?vid=166ac817-001a-4993-9d7c-99ef7f3463aa"},"vehicle_type_id":"4","last_reported":1734196045,"current_range_meters":23200,"station_id":"ce4bh692rcd13ifvqea0","pricing_plan_id":"cebpf4jnsgd1na2vs0mg"},{"bike_id":"f899fe25-c462-4e5f-90d6-dc9402b06a1d","system_id":"levelo_inurba_marseille","lat":43.23956,"lon":5.36632,"is_reserved":false,"is_disabled":true,"rental_uris":{"android":"levelo://app?vid=f899fe25-c462-4e5f-90d6-dc9402b06a1d","ios":"levelo://app?vid=f899fe25-c462-4e5f-90d6-dc9402b06a1d"},"vehicle_type_id":"4","last_reported":1734196045,"current_range_meters":1200,"station_id":"ce4bhi12rcd13ifvqfp0","pricing_plan_id":"cebpf4jnsgd1na2vs0mg"},{"bike_id":"46b2fdec-0870-4ae2-84dc-b1f57512351e","system_id":"levelo_inurba_marseille","lat":43.337444,"lon":5.374475,"is_reserved":false,"is_disabled":true,"rental_uris":{"android":"levelo://app?vid=46b2fdec-0870-4ae2-84dc-b1f57512351e","ios":"levelo://app?vid=46b2fdec-0870-4ae2-84dc-b1f57512351e"},"vehicle_type_id":"4","last_reported":1734196045,"current_range_meters":0,"station_id":"","pricing_plan_id":"cebpf4jnsgd1na2vs0mg"},{"bike_id":"e07f8927-8121-4133-911c-f4fdbcb240cf","system_id":"levelo_inurba_marseille","lat":43.33783,"lon":5.37436,"is_reserved":false,"is_disabled":true,"rental_uris":{"android":"levelo://app?vid=e07f8927-8121-4133-911c-f4fdbcb240cf","ios":"levelo://app?vid=e07f8927-8121-4133-911c-f4fdbcb240cf"},"vehicle_type_id":"4","last_reported":1734196045,"current_range_meters":0,"station_id":"","pricing_plan_id":"cebpf4jnsgd1na2vs0mg"},{"bike_id":"cbe7020e-1b3b-4710-bcb2-79ba060de89f","system_id":"levelo_inurba_marseille","lat":43.29258,"lon":5.38429,"is_reserved":false,"is_disabled":true,"rental_uris":{"android":"levelo://app?vid=cbe7020e-1b3b-4710-bcb2-79ba060de89f","ios":"levelo://app?vid=cbe7020e-1b3b-4710-bcb2-79ba060de89f"},"vehicle_type_id":"4","last_reported":1734196045,"current_range_meters":800,"station_id":"ce4bh692rcd13ifvqea0","pricing_plan_id":"cebpf4jnsgd1na2vs0mg"},{"bike_id":"9d601bde-4f09-48e9-ac25-26eb16f97072","system_id":"levelo_inurba_marseille","lat":43.27217,"lon":5.39185,"is_reserved":false,"is_disabled":false,"rental_uris":{"android":"levelo://app?vid=9d601bde-4f09-48e9-ac25-26eb16f97072","ios":"levelo://app?vid=9d601bde-4f09-48e9-ac25-26eb16f97072"},"vehicle_type_id":"4","last_reported":1734196045,"current_range_meters":34800,"station_id":"ce4bhhp2rcd13ifvqfm0","pricing_plan_id":"cebpf4jnsgd1na2vs0mg"},{"bike_id":"61eec3d3-5654-46e2-846b-27a09c737df9","system_id":"levelo_inurba_marseille","lat":43.27203,"lon":5.3918,"is_reserved":false,"is_disabled":false,"rental_uris":{"android":"levelo://app?vid=61eec3d3-5654-46e2-846b-27a09c737df9","ios":"levelo://app?vid=61eec3d3-5654-46e2-846b-27a09c737df9"},"vehicle_type_id":"4","last_reported":1734196045,"current_range_meters":18000,"station_id":"ce4bhhp2rcd13ifvqfm0","pricing_plan_id":"cebpf4jnsgd1na2vs0mg"},{"bike_id":"8f443446-4ce3-411b-8d27-476e1c0af428","system_id":"levelo_inurba_marseille","lat":43.25109,"lon":5.39504,"is_reserved":false,"is_disabled":false,"rental_uris":{"android":"levelo://app?vid=8f443446-4ce3-411b-8d27-476e1c0af428","ios":"levelo://app?vid=8f443446-4ce3-411b-8d27-476e1c0af428"},"vehicle_type_id":"4","last_reported":1734196045,"current_range_meters":38000,"station_id":"ce4bhm12rcd13ifvqgkg","pricing_plan_id":"cebpf4jnsgd1na2vs0mg"},{"bike_id":"bb8557f0-b234-401f-bb98-c62ac0278a86","system_id":"levelo_inurba_marseille","lat":43.2694,"lon":5.40244,"is_reserved":false,"is_disabled":false,"rental_uris":{"android":"levelo://app?vid=bb8557f0-b234-401f-bb98-c62ac0278a86","ios":"levelo://app?vid=bb8557f0-b234-401f-bb98-c62ac0278a86"},"vehicle_type_id":"4","last_reported":1734196045,"current_range_meters":39200,"station_id":"cjm6bp8fraef2m0cb0m0","pricing_plan_id":"cebpf4jnsgd1na2vs0mg"},{"bike_id":"5f11fdd9-45f0-4d70-8224-eef136d43616","system_id":"levelo_inurba_marseille","lat":43.27192,"lon":5.40964,"is_reserved":false,"is_disabled":false,"rental_uris":{"android":"levelo://app?vid=5f11fdd9-45f0-4d70-8224-eef136d43616","ios":"levelo://app?vid=5f11fdd9-45f0-4d70-8224-eef136d43616"},"vehicle_type_id":"4","last_reported":1734196045,"current_range_meters":33200,"station_id":"ce4bhl12rcd13ifvqgf0","pricing_plan_id":"cebpf4jnsgd1na2vs0mg"},{"bike_id":"bd2952d8-b3cc-4a49-a9f7-924944fc2e04","system_id":"levelo_inurba_marseille","lat":43.28268,"lon":5.35064,"is_reserved":false,"is_disabled":false,"rental_uris":{"android":"levelo://app?vid=bd2952d8-b3cc-4a49-a9f7-924944fc2e04","ios":"levelo://app?vid=bd2952d8-b3cc-4a49-a9f7-924944fc2e04"},"vehicle_type_id":"4","last_reported":1734196045,"current_range_meters":12400,"station_id":"ce4bhbp2rcd13ifvqerg","pricing_plan_id":"cebpf4jnsgd1na2vs0mg"},{"bike_id":"0e7799bf-b3f4-4748-a553-10a881d636ec","system_id":"levelo_inurba_marseille","lat":43.27944,"lon":5.41048,"is_reserved":false,"is_disabled":true,"rental_uris":{"android":"levelo://app?vid=0e7799bf-b3f4-4748-a553-10a881d636ec","ios":"levelo://app?vid=0e7799bf-b3f4-4748-a553-10a881d636ec"},"vehicle_type_id":"4","last_reported":1734196045,"current_range_meters":0,"station_id":"ce4bhnp2rcd13ifvqh0g","pricing_plan_id":"cebpf4jnsgd1na2vs0mg"},{"bike_id":"8e348937-ae47-4119-b3e4-5c74fcdc6bbe","system_id":"levelo_inurba_marseille","lat":43.25007,"lon":5.38926,"is_reserved":false,"is_disabled":false,"rental_uris":{"android":"levelo://app?vid=8e348937-ae47-4119-b3e4-5c74fcdc6bbe","ios":"levelo://app?vid=8e348937-ae47-4119-b3e4-5c74fcdc6bbe"},"vehicle_type_id":"4","last_reported":1734196045,"current_range_meters":24000,"station_id":"ce4bhgp2rcd13ifvqfd0","pricing_plan_id":"cebpf4jnsgd1na2vs0mg"},{"bike_id":"e8a39e2c-8b11-4101-8018-0e443668ece5","system_id":"levelo_inurba_marseille","lat":43.28934,"lon":5.3839,"is_reserved":false,"is_disabled":false,"rental_uris":{"android":"levelo://app?vid=e8a39e2c-8b11-4101-8018-0e443668ece5","ios":"levelo://app?vid=e8a39e2c-8b11-4101-8018-0e443668ece5"},"vehicle_type_id":"4","last_reported":1734196045,"current_range_meters":24400,"station_id":"ce4bh612rcd13ifvqe6g","pricing_plan_id":"cebpf4jnsgd1na2vs0mg"},{"bike_id":"04c8c157-388a-432f-94f9-da6985157d56","system_id":"levelo_inurba_marseille","lat":43.30932,"lon":5.40143,"is_reserved":false,"is_disabled":false,"rental_uris":{"android":"levelo://app?vid=04c8c157-388a-432f-94f9-da6985157d56","ios":"levelo://app?vid=04c8c157-388a-432f-94f9-da6985157d56"},"vehicle_type_id":"4","last_reported":1734196045,"current_range_meters":8800,"station_id":"ce4bgvp2rcd13ifvqct0","pricing_plan_id":"cebpf4jnsgd1na2vs0mg"},{"bike_id":"f9f5904f-11c1-4da8-9322-0dff5e4629ee","system_id":"levelo_inurba_marseille","lat":43.28716,"lon":5.37934,"is_reserved":false,"is_disabled":false,"rental_uris":{"android":"levelo://app?vid=f9f5904f-11c1-4da8-9322-0dff5e4629ee","ios":"levelo://app?vid=f9f5904f-11c1-4da8-9322-0dff5e4629ee"},"vehicle_type_id":"4","last_reported":1734196045,"current_range_meters":24800,"station_id":"ce4bh9p2rcd13ifvqec0","pricing_plan_id":"cebpf4jnsgd1na2vs0mg"},{"bike_id":"427b2592-df49-48d2-a3e0-d14d0e37316e","system_id":"levelo_inurba_marseille","lat":43.33606,"lon":5.41029,"is_reserved":false,"is_disabled":false,"rental_uris":{"android":"levelo://app?vid=427b2592-df49-48d2-a3e0-d14d0e37316e","ios":"levelo://app?vid=427b2592-df49-48d2-a3e0-d14d0e37316e"},"vehicle_type_id":"4","last_reported":1734196045,"current_range_meters":36400,"station_id":"ce4bhqh2rcd13ifvqhmg","pricing_plan_id":"cebpf4jnsgd1na2vs0mg"},