{"last_updated":1777221069,"ttl":60,"version":"2.2","data":{"bikes":[{"bike_id":"d98e803b-63ff-4aed-8550-0d90ae1d9ab9","system_id":"levelo_inurba_marseille","lat":43.2396,"lon":5.36642,"is_reserved":false,"is_disabled":false,"rental_uris":{"android":"levelo://app?vid=d98e803b-63ff-4aed-8550-0d90ae1d9ab9","ios":"levelo://app?vid=d98e803b-63ff-4aed-8550-0d90ae1d9ab9"},"vehicle_type_id":"4","last_reported":1777221069,"current_range_meters":2800,"station_id":"ce4bhi12rcd13ifvqfp0","pricing_plan_id":"cebpf4jnsgd1na2vs0mg"},{"bike_id":"799d5333-0521-44f5-a2b7-6b74a3c6ddbc","system_id":"levelo_inurba_marseille","lat":43.26815,"lon":5.40248,"is_reserved":false,"is_disabled":false,"rental_uris":{"android":"levelo://app?vid=799d5333-0521-44f5-a2b7-6b74a3c6ddbc","ios":"levelo://app?vid=799d5333-0521-44f5-a2b7-6b74a3c6ddbc"},"vehicle_type_id":"4","last_reported":1777221069,"current_range_meters":2800,"station_id":"ce501612rcd8frsf0b60","pricing_plan_id":"cebpf4jnsgd1na2vs0mg"},{"bike_id":"933fbca5-b9b0-42ec-b9b1-206fdc2e8dab","system_id":"levelo_inurba_marseille","lat":43.26946,"lon":5.38633,"is_reserved":false,"is_disabled":true,"rental_uris":{"android":"levelo://app?vid=933fbca5-b9b0-42ec-b9b1-206fdc2e8dab","ios":"levelo://app?vid=933fbca5-b9b0-42ec-b9b1-206fdc2e8dab"},"vehicle_type_id":"4","last_reported":1777221069,"current_range_meters":2800,"station_id":"ce4bhh92rcd13ifvqfh0","pricing_plan_id":"cebpf4jnsgd1na2vs0mg"},{"bike_id":"756c0fde-bcf7-4d33-8243-ae7cea267d75","system_id":"levelo_inurba_marseille","lat":43.261936,"lon":5.374475,"is_reserved":false,"is_disabled":true,"rental_uris":{"android":"levelo://app?vid=756c0fde-bcf7-4d33-8243-ae7cea267d75","ios":"levelo://app?vid=756c0fde-bcf7-4d33-8243-ae7cea267d75"},"vehicle_type_id":"4","last_reported":1777221069,"current_range_meters":2800,"station_id":"ce4bhgp2rcd13ifvqfc0","pricing_plan_id":"cebpf4jnsgd1na2vs0mg"},{"bike_id":"39c6c4d6-7555-4b53-ad56-337ccc229a3f","system_id":"levelo_inurba_marseille","lat":43.30727,"lon":5.42439,"is_reserved":false,"is_disabled":false,"rental_uris":{"android":"levelo://app?vid=39c6c4d6-7555-4b53-ad56-337ccc229a3f","ios":"levelo://app?vid=39c6c4d6-7555-4b53-ad56-337ccc229a3f"},"vehicle_type_id":"4","last_reported":1777221069,"current_range_meters":2800,"station_id":"st_cvj6ca6bvosntc0bfgr0","pricing_plan_id":"cebpf4jnsgd1na2vs0mg"},{"bike_id":"1b649f51-b1ce-4b75-91f0-0c1d1ffb131b","system_id":"levelo_inurba_marseille","lat":43.29299,"lon":5.37459,"is_reserved":false,"is_disabled":false,"rental_uris":{"android":"levelo://app?vid=1b649f51-b1ce-4b75-91f0-0c1d1ffb131b","ios":"levelo://app?vid=1b649f51-b1ce-4b75-91f0-0c1d1ffb131b"},"vehicle_type_id":"4","last_reported":1777221069,"current_range_meters":2800,"station_id":"ce4bgi12rcd13ifvqb70","pricing_plan_id":"cebpf4jnsgd1na2vs0mg"},{"bike_id":"7f14f307-ed9b-4bde-a995-2c9126a5e681","system_id":"levelo_inurba_marseille","lat":43.30457,"lon":5.37901,"is_reserved":false,"is_disabled":true,"rental_uris":{"android":"levelo://app?vid=7f14f307-ed9b-4bde-a995-2c9126a5e681","ios":"levelo://app?vid=7f14f307-ed9b-4bde-a995-2c9126a5e681"},"vehicle_type_id":"4","last_reported":1777221069,"current_range_meters":2800,"station_id":"ce4bgup2rcd13ifvqcn0","pricing_plan_id":"cebpf4jnsgd1na2vs0mg"},{"bike_id":"5dc58575-74c2-4424-9181-9d708de73fde","system_id":"levelo_inurba_marseille","lat":43.29525,"lon":5.37507,"is_reserved":false,"is_disabled":false,"rental_uris":{"android":"levelo://app?vid=5dc58575-74c2-4424-9181-9d708de73fde","ios":"levelo://app?vid=5dc58575-74c2-4424-9181-9d708de73fde"},"vehicle_type_id":"4","last_reported":1777221069,"current_range_meters":2800,"station_id":"ce4bgkp2rcd13ifvqbmg","pricing_plan_id":"cebpf4jnsgd1na2vs0mg"},{"bike_id":"4031c734-5fb7-4173-9c20-e6294d3bf503","system_id":"levelo_inurba_marseille","lat":43.29262,"lon":5.37572,"is_reserved":false,"is_disabled":false,"rental_uris":{"android":"levelo://app?vid=4031c734-5fb7-4173-9c20-e6294d3bf503","ios":"levelo://app?vid=4031c734-5fb7-4173-9c20-e6294d3bf503"},"vehicle_type_id":"4","last_reported":1777221069,"current_range_meters":2800,"station_id":"","pricing_plan_id":"cebpf4jnsgd1na2vs0mg"},{"bike_id":"8cc18673-b32b-49d1-918c-3ee79f174af3","system_id":"levelo_inurba_marseille","lat":43.29548,"lon":5.42295,"is_reserved":false,"is_disabled":false,"rental_uris":{"android":"levelo://app?vid=8cc18673-b32b-49d1-918c-3ee79f174af3","ios":"levelo://app?vid=8cc18673-b32b-49d1-918c-3ee79f174af3"},"vehicle_type_id":"4","last_reported":1777221069,"current_range_meters":2800,"station_id":"ce4bhph2rcd13ifvqhdg","pricing_plan_id":"cebpf4jnsgd1na2vs0mg"},{"bike_id":"1f1b3505-be72-456b-be11-8c5e166a9a16","system_id":"levelo_inurba_marseille","lat":43.28411,"lon":5.37517,"is_reserved":false,"is_disabled":false,"rental_uris":{"android":"levelo://app?vid=1f1b3505-be72-456b-be11-8c5e166a9a16","ios":"levelo://app?vid=1f1b3505-be72-456b-be11-8c5e166a9a16"},"vehicle_type_id":"4","last_reported":1777221069,"current_range_meters":2800,"station_id":"ce4bh412rcd13ifvqds0","pricing_plan_id":"cebpf4jnsgd1na2vs0mg"},{"bike_id":"7983e067-e71f-4d57-b35a-eff17faebf40","system_id":"levelo_inurba_marseille","lat":43.28348,"lon":5.38109,"is_reserved":false,"is_disabled":false,"rental_uris":{"android":"levelo://app?vid=7983e067-e71f-4d57-b35a-eff17faebf40","ios":"levelo://app?vid=7983e067-e71f-4d57-b35a-eff17faebf40"},"vehicle_type_id":"4","last_reported":1777221069,"current_range_meters":2800,"station_id":"ce4bh412rcd13ifvqdr0","pricing_plan_id":"cebpf4jnsgd1na2vs0mg"},{"bike_id":"9e015add-8674-4fe3-8211-fdea75725af7","system_id":"levelo_inurba_marseille","lat":43.31246,"lon":5.36869,"is_reserved":false,"is_disabled":false,"rental_uris":{"android":"levelo://app?vid=9e015add-8674-4fe3-8211-fdea75725af7","ios":"levelo://app?vid=9e015add-8674-4fe3-8211-fdea75725af7"},"vehicle_type_id":"4","last_reported":1777221069,"current_range_meters":3200,"station_id":"ce4bgl92rcd13ifvqbq0","pricing_plan_id":"cebpf4jnsgd1na2vs0mg"},{"bike_id":"5287da47-8753-4e05-9e56-cdcac4b67d90","system_id":"levelo_inurba_marseille","lat":43.26948,"lon":5.38643,"is_reserved":false,"is_disabled":false,"rental_uris":{"android":"levelo://app?vid=5287da47-8753-4e05-9e56-cdcac4b67d90","ios":"levelo://app?vid=5287da47-8753-4e05-9e56-cdcac4b67d90"},"vehicle_type_id":"4","last_reported":1777221069,"current_range_meters":3200,"station_id":"ce4bhh92rcd13ifvqfh0","pricing_plan_id":"cebpf4jnsgd1na2vs0mg"},{"bike_id":"246b7ba4-c92f-44e1-b0fa-eb54ee8b9629","system_id":"levelo_inurba_marseille","lat":43.284177,"lon":5.349713,"is_reserved":false,"is_disabled":false,"rental_uris":{"android":"levelo://app?vid=246b7ba4-c92f-44e1-b0fa-eb54ee8b9629","ios":"levelo://app?vid=246b7ba4-c92f-44e1-b0fa-eb54ee8b9629"},"vehicle_type_id":"4","last_reported":1777221069,"current_range_meters":3200,"station_id":"ce4bhbh2rcd13ifvqepg","pricing_plan_id":"cebpf4jnsgd1na2vs0mg"},{"bike_id":"f98cc3ac-ce43-4e2d-8057-0f36630f7e63","system_id":"levelo_inurba_marseille","lat":43.279642,"lon":5.387593,"is_reserved":false,"is_disabled":false,"rental_uris":{"android":"levelo://app?vid=f98cc3ac-ce43-4e2d-8057-0f36630f7e63","ios":"levelo://app?vid=f98cc3ac-ce43-4e2d-8057-0f36630f7e63"},"vehicle_type_id":"4","last_reported":1777221069,"current_range_meters":3200,"station_id":"ce4bhg12rcd13ifvqf80","pricing_plan_id":"cebpf4jnsgd1na2vs0mg"},{"bike_id":"40d69b45-a292-4d7d-b8e6-837b8b5a9d0c","system_id":"levelo_inurba_marseille","lat":43.28479,"lon":5.48392,"is_reserved":false,"is_disabled":false,"rental_uris":{"android":"levelo://app?vid=40d69b45-a292-4d7d-b8e6-837b8b5a9d0c","ios":"levelo://app?vid=40d69b45-a292-4d7d-b8e6-837b8b5a9d0c"},"vehicle_type_id":"4","last_reported":1777221069,"current_range_meters":3200,"station_id":"","pricing_plan_id":"cebpf4jnsgd1na2vs0mg"},{"bike_id":"f11039af-6e3b-4f3c-b6b6-979221e066e2","system_id":"levelo_inurba_marseille","lat":43.292252,"lon":5.360602,"is_reserved":false,"is_disabled":false,"rental_uris":{"android":"levelo://app?vid=f11039af-6e3b-4f3c-b6b6-979221e066e2","ios":"levelo://app?vid=f11039af-6e3b-4f3c-b6b6-979221e066e2"},"vehicle_type_id":"4","last_reported":1777221069,"current_range_meters":3200,"station_id":"ce4bhbh2rcd13ifvqeqg","pricing_plan_id":"cebpf4jnsgd1na2vs0mg"},{"bike_id":"541dbded-315f-4ca8-ac49-47fcb4294bb7","system_id":"levelo_inurba_marseille","lat":43.33533,"lon":5.37468,"is_reserved":false,"is_disabled":false,"rental_uris":{"android":"levelo://app?vid=541dbded-315f-4ca8-ac49-47fcb4294bb7","ios":"levelo://app?vid=541dbded-315f-4ca8-ac49-47fcb4294bb7"},"vehicle_type_id":"4","last_reported":1777221069,"current_range_meters":3200,"station_id":"st_d46tts09ee8s73dlu43g","pricing_plan_id":"cebpf4jnsgd1na2vs0mg"},{"bike_id":"f23b3a70-b600-4463-9a59-09789d1c5f03","system_id":"levelo_inurba_marseille","lat":43.29058,"lon":5.35917,"is_reserved":false,"is_disabled":false,"rental_uris":{"android":"levelo://app?vid=f23b3a70-b600-4463-9a59-09789d1c5f03","ios":"levelo://app?vid=f23b3a70-b600-4463-9a59-09789d1c5f03"},"vehicle_type_id":"4","last_reported":1777221069,"current_range_meters":3200,"station_id":"ce4bha92rcd13ifvqeg0","pricing_plan_id":"cebpf4jnsgd1na2vs0mg"},{"bike_id":"411609f1-0e20-47e9-bcef-a645d9911c7d","system_id":"levelo_inurba_marseille","lat":43.27919,"lon":5.39577,"is_reserved":false,"is_disabled":false,"rental_uris":{"android":"levelo://app?vid=411609f1-0e20-47e9-bcef-a645d9911c7d","ios":"levelo://app?vid=411609f1-0e20-47e9-bcef-a645d9911c7d"},"vehicle_type_id":"4","last_reported":1777221069,"current_range_meters":3200,"station_id":"ce4bhf92rcd13ifvqf40","pricing_plan_id":"cebpf4jnsgd1na2vs0mg"},{"bike_id":"5a4163c6-002a-4c51-9595-ce1a05963235","system_id":"levelo_inurba_marseille","lat":43.29036,"lon":5.38138,"is_reserved":false,"is_disabled":true,"rental_uris":{"android":"levelo://app?vid=5a4163c6-002a-4c51-9595-ce1a05963235","ios":"levelo://app?vid=5a4163c6-002a-4c51-9595-ce1a05963235"},"vehicle_type_id":"4","last_reported":1777221069,"current_range_meters":3600,"station_id":"ce4bh4p2rcd13ifvqe1g","pricing_plan_id":"cebpf4jnsgd1na2vs0mg"},{"bike_id":"2b51c914-b2ad-45b3-bcc5-ffa6e3c39426","system_id":"levelo_inurba_marseille","lat":43.26056,"lon":5.39397,"is_reserved":false,"is_disabled":false,"rental_uris":{"android":"levelo://app?vid=2b51c914-b2ad-45b3-bcc5-ffa6e3c39426","ios":"levelo://app?vid=2b51c914-b2ad-45b3-bcc5-ffa6e3c39426"},"vehicle_type_id":"4","last_reported":1777221069,"current_range_meters":3600,"station_id":"ce4bhh92rcd13ifvqfj0","pricing_plan_id":"cebpf4jnsgd1na2vs0mg"},{"bike_id":"17fe3f56-b486-40dd-ac6a-710ede14c97d","system_id":"levelo_inurba_marseille","lat":43.314869,"lon":5.373029,"is_reserved":false,"is_disabled":false,"rental_uris":{"android":"levelo://app?vid=17fe3f56-b486-40dd-ac6a-710ede14c97d","ios":"levelo://app?vid=17fe3f56-b486-40dd-ac6a-710ede14c97d"},"vehicle_type_id":"4","last_reported":1777221069,"current_range_meters":3600,"station_id":"","pricing_plan_id":"cebpf4jnsgd1na2vs0mg"},{"bike_id":"47cca99e-426b-4f9a-9341-8a30d663707d","system_id":"levelo_inurba_marseille","lat":43.317,"lon":5.40467,"is_reserved":false,"is_disabled":false,"rental_uris":{"android":"levelo://app?vid=47cca99e-426b-4f9a-9341-8a30d663707d","ios":"levelo://app?vid=47cca99e-426b-4f9a-9341-8a30d663707d"},"vehicle_type_id":"4","last_reported":1777221069,"current_range_meters":3600,"station_id":"ce4bh012rcd13ifvqd00","pricing_plan_id":"cebpf4jnsgd1na2vs0mg"},{"bike_id":"3111ed18-a4ca-4d09-ad11-67b9ed77667b","system_id":"levelo_inurba_marseille","lat":43.24466,"lon":5.42545,"is_reserved":false,"is_disabled":false,"rental_uris":{"android":"levelo://app?vid=3111ed18-a4ca-4d09-ad11-67b9ed77667b","ios":"levelo://app?vid=3111ed18-a4ca-4d09-ad11-67b9ed77667b"},"vehicle_type_id":"4","last_reported":1777221069,"current_range_meters":3600,"station_id":"st_d4a3vfp97mjs738cd8kg","pricing_plan_id":"cebpf4jnsgd1na2vs0mg"},{"bike_id":"b2b6563d-63e5-49c7-ab71-6d12b53fced1","system_id":"levelo_inurba_marseille","lat":43.29266,"lon":5.37636,"is_reserved":false,"is_disabled":false,"rental_uris":{"android":"levelo://app?vid=b2b6563d-63e5-49c7-ab71-6d12b53fced1","ios":"levelo://app?vid=b2b6563d-63e5-49c7-ab71-6d12b53fced1"},"vehicle_type_id":"4","last_reported":1777221069,"current_range_meters":3600,"station_id":"ce4bgi12rcd13ifvqb80","pricing_plan_id":"cebpf4jnsgd1na2vs0mg"},{"bike_id":"279728aa-f8ab-4b2e-a096-2e3450183d77","system_id":"levelo_inurba_marseille","lat":43.24166,"lon":5.36396,"is_reserved":false,"is_disabled":false,"rental_uris":{"android":"levelo://app?vid=279728aa-f8ab-4b2e-a096-2e3450183d77","ios":"levelo://app?vid=279728aa-f8ab-4b2e-a096-2e3450183d77"},"vehicle_type_id":"4","last_reported":1777221069,"current_range_meters":3600,"station_id":"cpo36qri1sfpv3e86is0","pricing_plan_id":"cebpf4jnsgd1na2vs0mg"},{"bike_id":"90fac789-06e9-4c33-94b9-e82543e03c21","system_id":"levelo_inurba_marseille","lat":43.22568,"lon":5.41638,"is_reserved":false,"is_disabled":true,"rental_uris":{"android":"levelo://app?vid=90fac789-06e9-4c33-94b9-e82543e03c21","ios":"levelo://app?vid=90fac789-06e9-4c33-94b9-e82543e03c21"},"vehicle_type_id":"4","last_reported":1777221069,"current_range_meters":3600,"station_id":"st_d2o4gvlbi1j2169b742g","pricing_plan_id":"cebpf4jnsgd1na2vs0mg"},{"bike_id":"c585268f-a32e-494f-a583-1f594a7b6a38","system_id":"levelo_inurba_marseille","lat":43.212,"lon":5.35084,"is_reserved":false,"is_disabled":false,"rental_uris":{"android":"levelo://app?vid=c585268f-a32e-494f-a583-1f594a7b6a38","ios":"levelo://app?vid=c585268f-a32e-494f-a583-1f594a7b6a38"},"vehicle_type_id":"4","last_reported":1777221069,"current_range_meters":3600,"station_id":"st_cvj6sg6p6f1abm77japg","pricing_plan_id":"cebpf4jnsgd1na2vs0mg"},{"bike_id":"413e4623-e4a6-44c0-8fe0-f06c3e224af8","system_id":"levelo_inurba_marseille","lat":43.31896,"lon":5.36826,"is_reserved":false,"is_disabled":false,"rental_uris":{"android":"levelo://app?vid=413e4623-e4a6-44c0-8fe0-f06c3e224af8","ios":"levelo://app?vid=413e4623-e4a6-44c0-8fe0-f06c3e224af8"},"vehicle_type_id":"4","last_reported":1777221069,"current_range_meters":4000,"station_id":"st_d6o2h0d0559c73evc1b0","pricing_plan_id":"cebpf4jnsgd1na2vs0mg"},{"bike_id":"0cd2fd7c-6402-466e-aa1b-fa186d7a7ed3","system_id":"levelo_inurba_marseille","lat":43.33194,"lon":5.37792,"is_reserved":false,"is_disabled":false,"rental_uris":{"android":"levelo://app?vid=0cd2fd7c-6402-466e-aa1b-fa186d7a7ed3","ios":"levelo://app?vid=0cd2fd7c-6402-466e-aa1b-fa186d7a7ed3"},"vehicle_type_id":"4","last_reported":1777221069,"current_range_meters":4000,"station_id":"","pricing_plan_id":"cebpf4jnsgd1na2vs0mg"},{"bike_id":"c0126e79-e455-4033-aa6f-9cd2537e8b04","system_id":"levelo_inurba_marseille","lat":43.28683,"lon":5.46682,"is_reserved":false,"is_disabled":false,"rental_uris":{"android":"levelo://app?vid=c0126e79-e455-4033-aa6f-9cd2537e8b04","ios":"levelo://app?vid=c0126e79-e455-4033-aa6f-9cd2537e8b04"},"vehicle_type_id":"4","last_reported":1777221069,"current_range_meters":4000,"station_id":"st_d6tc3vkotcvc738tfjhg","pricing_plan_id":"cebpf4jnsgd1na2vs0mg"},{"bike_id":"2140ad40-7ff7-4a13-b855-1703f91f35eb","system_id":"levelo_inurba_marseille","lat":43.26214,"lon":5.37503,"is_reserved":false,"is_disabled":false,"rental_uris":{"android":"levelo://app?vid=2140ad40-7ff7-4a13-b855-1703f91f35eb","ios":"levelo://app?vid=2140ad40-7ff7-4a13-b855-1703f91f35eb"},"vehicle_type_id":"4","last_reported":1777221069,"current_range_meters":4000,"station_id":"","pricing_plan_id":"cebpf4jnsgd1na2vs0mg"},{"bike_id":"a03ce919-3949-4c06-bbb8-c0f13ba943b2","system_id":"levelo_inurba_marseille","lat":43.25518,"lon":5.37672,"is_reserved":false,"is_disabled":true,"rental_uris":{"android":"levelo://app?vid=a03ce919-3949-4c06-bbb8-c0f13ba943b2","ios":"levelo://app?vid=a03ce919-3949-4c06-bbb8-c0f13ba943b2"},"vehicle_type_id":"4","last_reported":1777221069,"current_range_meters":4000,"station_id":"ce4bhh12rcd13ifvqff0","pricing_plan_id":"cebpf4jnsgd1na2vs0mg"},{"bike_id":"ace34436-51fe-4536-a1f6-cfa009f56977","system_id":"levelo_inurba_marseille","lat":43.3359,"lon":5.37504,"is_reserved":false,"is_disabled":false,"rental_uris":{"android":"levelo://app?vid=ace34436-51fe-4536-a1f6-cfa009f56977","ios":"levelo://app?vid=ace34436-51fe-4536-a1f6-cfa009f56977"},"vehicle_type_id":"4","last_reported":1777221069,"current_range_meters":4000,"station_id":"","pricing_plan_id":"cebpf4jnsgd1na2vs0mg"},{"bike_id":"ad0cfa07-febe-423c-830c-9255e36ed980","system_id":"levelo_inurba_marseille","lat":43.26498,"lon":5.39537,"is_reserved":false,"is_disabled":false,"rental_uris":{"android":"levelo://app?vid=ad0cfa07-febe-423c-830c-9255e36ed980","ios":"levelo://app?vid=ad0cfa07-febe-423c-830c-9255e36ed980"},"vehicle_type_id":"4","last_reported":1777221069,"current_range_meters":4000,"station_id":"ce4bhi12rcd13ifvqfq0","pricing_plan_id":"cebpf4jnsgd1na2vs0mg"},{"bike_id":"e9caee44-b787-4c36-a632-4bd6c1ec7cfa","system_id":"levelo_inurba_marseille","lat":43.28502,"lon":5.48436,"is_reserved":false,"is_disabled":false,"rental_uris":{"android":"levelo://app?vid=e9caee44-b787-4c36-a632-4bd6c1ec7cfa","ios":"levelo://app?vid=e9caee44-b787-4c36-a632-4bd6c1ec7cfa"},"vehicle_type_id":"4","last_reported":1777221069,"current_range_meters":4000,"station_id":"st_d3svhcjqgbts73a3dn0g","pricing_plan_id":"cebpf4jnsgd1na2vs0mg"},{"bike_id":"b465b832-41ca-4c8a-b678-132228b145ba","system_id":"levelo_inurba_marseille","lat":43.30412,"lon":5.39747,"is_reserved":false,"is_disabled":true,"rental_uris":{"android":"levelo://app?vid=b465b832-41ca-4c8a-b678-132228b145ba","ios":"levelo://app?vid=b465b832-41ca-4c8a-b678-132228b145ba"},"vehicle_type_id":"4","last_reported":1777221069,"current_range_meters":4000,"station_id":"ce4bh092rcd13ifvqd20","pricing_plan_id":"cebpf4jnsgd1na2vs0mg"},{"bike_id":"fb302d90-e64b-4e07-8e93-395cbc2da052","system_id":"levelo_inurba_marseille","lat":43.24825,"lon":5.37488,"is_reserved":false,"is_disabled":false,"rental_uris":{"android":"levelo://app?vid=fb302d90-e64b-4e07-8e93-395cbc2da052","ios":"levelo://app?vid=fb302d90-e64b-4e07-8e93-395cbc2da052"},"vehicle_type_id":"4","last_reported":1777221069,"current_range_meters":4000,"station_id":"","pricing_plan_id":"cebpf4jnsgd1na2vs0mg"},{"bike_id":"62793b84-1951-4dcb-ad37-588c72d9fd50","system_id":"levelo_inurba_marseille","lat":43.29734,"lon":5.37684,"is_reserved":false,"is_disabled":false,"rental_uris":{"android":"levelo://app?vid=62793b84-1951-4dcb-ad37-588c72d9fd50","ios":"levelo://app?vid=62793b84-1951-4dcb-ad37-588c72d9fd50"},"vehicle_type_id":"4","last_reported":1777221069,"current_range_meters":4000,"station_id":"ce4bgkh2rcd13ifvqbl0","pricing_plan_id":"cebpf4jnsgd1na2vs0mg"},{"bike_id":"0f126928-5121-4469-a9c9-6740d8de1e82","system_id":"levelo_inurba_marseille","lat":43.2444,"lon":5.37444,"is_reserved":false,"is_disabled":false,"rental_uris":{"android":"levelo://app?vid=0f126928-5121-4469-a9c9-6740d8de1e82","ios":"levelo://app?vid=0f126928-5121-4469-a9c9-6740d8de1e82"},"vehicle_type_id":"4","last_reported":1777221069,"current_range_meters":4000,"station_id":"","pricing_plan_id":"cebpf4jnsgd1na2vs0mg"},{"bike_id":"218a7e4a-fc09-4546-a854-7af064e08d36","system_id":"levelo_inurba_marseille","lat":43.29798,"lon":5.404,"is_reserved":false,"is_disabled":false,"rental_uris":{"android":"levelo://app?vid=218a7e4a-fc09-4546-a854-7af064e08d36","ios":"levelo://app?vid=218a7e4a-fc09-4546-a854-7af064e08d36"},"vehicle_type_id":"4","last_reported":1777221069,"current_range_meters":4000,"station_id":"ce4bh112rcd13ifvqd90","pricing_plan_id":"cebpf4jnsgd1na2vs0mg"},{"bike_id":"a1fa8530-65b9-4008-96f3-a6831b1af9e3","system_id":"levelo_inurba_marseille","lat":43.33545,"lon":5.3746,"is_reserved":false,"is_disabled":true,"rental_uris":{"android":"levelo://app?vid=a1fa8530-65b9-4008-96f3-a6831b1af9e3","ios":"levelo://app?vid=a1fa8530-65b9-4008-96f3-a6831b1af9e3"},"vehicle_type_id":"4","last_reported":1777221069,"current_range_meters":4000,"station_id":"st_d46tts09ee8s73dlu43g","pricing_plan_id":"cebpf4jnsgd1na2vs0mg"},{"bike_id":"e7760414-c99e-4edb-8d77-254918982c51","system_id":"levelo_inurba_marseille","lat":43.280813,"lon":5.396654,"is_reserved":false,"is_disabled":false,"rental_uris":{"android":"levelo://app?vid=e7760414-c99e-4edb-8d77-254918982c51","ios":"levelo://app?vid=e7760414-c99e-4edb-8d77-254918982c51"},"vehicle_type_id":"4","last_reported":1777221069,"current_range_meters":4400,"station_id":"ce4bho12rcd13ifvqh2g","pricing_plan_id":"cebpf4jnsgd1na2vs0mg"},{"bike_id":"70578acc-b935-4f77-be23-bcde1db99b26","system_id":"levelo_inurba_marseille","lat":43.29794,"lon":5.38155,"is_reserved":false,"is_disabled":false,"rental_uris":{"android":"levelo://app?vid=70578acc-b935-4f77-be23-bcde1db99b26","ios":"levelo://app?vid=70578acc-b935-4f77-be23-bcde1db99b26"},"vehicle_type_id":"4","last_reported":1777221069,"current_range_meters":4400,"station_id":"ce4bgip2rcd13ifvqbb0","pricing_plan_id":"cebpf4jnsgd1na2vs0mg"},{"bike_id":"a83ecd4b-1d57-4762-be0e-4f323dbe5a33","system_id":"levelo_inurba_marseille","lat":43.27205,"lon":5.39183,"is_reserved":false,"is_disabled":false,"rental_uris":{"android":"levelo://app?vid=a83ecd4b-1d57-4762-be0e-4f323dbe5a33","ios":"levelo://app?vid=a83ecd4b-1d57-4762-be0e-4f323dbe5a33"},"vehicle_type_id":"4","last_reported":1777221069,"current_range_meters":4400,"station_id":"ce4bhhp2rcd13ifvqfm0","pricing_plan_id":"cebpf4jnsgd1na2vs0mg"},{"bike_id":"2a712d2c-32ed-47c2-abde-e555adeab2f5","system_id":"levelo_inurba_marseille","lat":43.2841,"lon":5.37512,"is_reserved":false,"is_disabled":false,"rental_uris":{"android":"levelo://app?vid=2a712d2c-32ed-47c2-abde-e555adeab2f5","ios":"levelo://app?vid=2a712d2c-32ed-47c2-abde-e555adeab2f5"},"vehicle_type_id":"4","last_reported":1777221069,"current_range_meters":4400,"station_id":"ce4bh412rcd13ifvqds0","pricing_plan_id":"cebpf4jnsgd1na2vs0mg"},{"bike_id":"724d0869-017c-4e7e-9911-705be0df09b1","system_id":"levelo_inurba_marseille","lat":43.31418,"lon":5.37391,"is_reserved":false,"is_disabled":false,"rental_uris":{"android":"levelo://app?vid=724d0869-017c-4e7e-9911-705be0df09b1","ios":"levelo://app?vid=724d0869-017c-4e7e-9911-705be0df09b1"},"vehicle_type_id":"4","last_reported":1777221069,"current_range_meters":4400,"station_id":"","pricing_plan_id":"cebpf4jnsgd1na2vs0mg"},{"bike_id":"fd433ccd-97bc-45cd-82e1-09aa550bfe0d","system_id":"levelo_inurba_marseille","lat":43.28591,"lon":5.35059,"is_reserved":false,"is_disabled":false,"rental_uris":{"android":"levelo://app?vid=fd433ccd-97bc-45cd-82e1-09aa550bfe0d","ios":"levelo://app?vid=fd433ccd-97bc-45cd-82e1-09aa550bfe0d"},"vehicle_type_id":"4","last_reported":1777221069,"current_range_meters":4400,"station_id":"","pricing_plan_id":"cebpf4jnsgd1na2vs0mg"},{"bike_id":"31e03cb8-acce-49d4-bfc1-fff4b3d1a74a","system_id":"levelo_inurba_marseille","lat":43.26504,"lon":5.39561,"is_reserved":false,"is_disabled":false,"rental_uris":{"android":"levelo://app?vid=31e03cb8-acce-49d4-bfc1-fff4b3d1a74a","ios":"levelo://app?vid=31e03cb8-acce-49d4-bfc1-fff4b3d1a74a"},"vehicle_type_id":"4","last_reported":1777221069,"current_range_meters":4400,"station_id":"ce4bhi12rcd13ifvqfq0","pricing_plan_id":"cebpf4jnsgd1na2vs0mg"},{"bike_id":"a61c57e1-3ba4-4ec6-94a2-28f2c10b34ff","system_id":"levelo_inurba_marseille","lat":43.23956,"lon":5.36648,"is_reserved":false,"is_disabled":false,"rental_uris":{"android":"levelo://app?vid=a61c57e1-3ba4-4ec6-94a2-28f2c10b34ff","ios":"levelo://app?vid=a61c57e1-3ba4-4ec6-94a2-28f2c10b34ff"},"vehicle_type_id":"4","last_reported":1777221069,"current_range_meters":4400,"station_id":"ce4bhi12rcd13ifvqfp0","pricing_plan_id":"cebpf4jnsgd1na2vs0mg"},{"bike_id":"2d1d708f-c782-4ac3-bfd8-787e2a77d58d","system_id":"levelo_inurba_marseille","lat":43.29676,"lon":5.37283,"is_reserved":false,"is_disabled":false,"rental_uris":{"android":"levelo://app?vid=2d1d708f-c782-4ac3-bfd8-787e2a77d58d","ios":"levelo://app?vid=2d1d708f-c782-4ac3-bfd8-787e2a77d58d"},"vehicle_type_id":"4","last_reported":1777221069,"current_range_meters":4400,"station_id":"ce4bgk12rcd13ifvqbj0","pricing_plan_id":"cebpf4jnsgd1na2vs0mg"},{"bike_id":"6f0015c9-56cf-46da-ab8e-8eedbb796019","system_id":"levelo_inurba_marseille","lat":43.31037,"lon":5.37182,"is_reserved":false,"is_disabled":false,"rental_uris":{"android":"levelo://app?vid=6f0015c9-56cf-46da-ab8e-8eedbb796019","ios":"levelo://app?vid=6f0015c9-56cf-46da-ab8e-8eedbb796019"},"vehicle_type_id":"4","last_reported":1777221069,"current_range_meters":4400,"station_id":"st_d4kl2rp97mjs73e7tdfg","pricing_plan_id":"cebpf4jnsgd1na2vs0mg"},{"bike_id":"05a33fd5-e436-4ad0-a907-865e546c41d5","system_id":"levelo_inurba_marseille","lat":43.22554,"lon":5.41613,"is_reserved":false,"is_disabled":true,"rental_uris":{"android":"levelo://app?vid=05a33fd5-e436-4ad0-a907-865e546c41d5","ios":"levelo://app?vid=05a33fd5-e436-4ad0-a907-865e546c41d5"},"vehicle_type_id":"4","last_reported":1777221069,"current_range_meters":4400,"station_id":"","pricing_plan_id":"cebpf4jnsgd1na2vs0mg"},{"bike_id":"6161ede7-aa25-46de-a043-cdaf0b87397b","system_id":"levelo_inurba_marseille","lat":43.28785,"lon":5.38624,"is_reserved":false,"is_disabled":false,"rental_uris":{"android":"levelo://app?vid=6161ede7-aa25-46de-a043-cdaf0b87397b","ios":"levelo://app?vid=6161ede7-aa25-46de-a043-cdaf0b87397b"},"vehicle_type_id":"4","last_reported":1777221069,"current_range_meters":4400,"station_id":"","pricing_plan_id":"cebpf4jnsgd1na2vs0mg"},{"bike_id":"6b457990-b45e-4c66-8671-2df85355eb3d","system_id":"levelo_inurba_marseille","lat":43.30891,"lon":5.39657,"is_reserved":false,"is_disabled":false,"rental_uris":{"android":"levelo://app?vid=6b457990-b45e-4c66-8671-2df85355eb3d","ios":"levelo://app?vid=6b457990-b45e-4c66-8671-2df85355eb3d"},"vehicle_type_id":"4","last_reported":1777221069,"current_range_meters":4800,"station_id":"ce4bh012rcd13ifvqcv0","pricing_plan_id":"cebpf4jnsgd1na2vs0mg"},{"bike_id":"9fc2d728-bd32-410f-81fa-64c92b165ab1","system_id":"levelo_inurba_marseille","lat":43.24812,"lon":5.37461,"is_reserved":false,"is_disabled":false,"rental_uris":{"android":"levelo://app?vid=9fc2d728-bd32-410f-81fa-64c92b165ab1","ios":"levelo://app?vid=9fc2d728-bd32-410f-81fa-64c92b165ab1"},"vehicle_type_id":"4","last_reported":1777221069,"current_range_meters":4800,"station_id":"ce4bhgh2rcd13ifvqfb0","pricing_plan_id":"cebpf4jnsgd1na2vs0mg"},{"bike_id":"fea5a28c-0167-4a62-9062-e629ed9b3e8f","system_id":"levelo_inurba_marseille","lat":43.2847,"lon":5.48408,"is_reserved":false,"is_disabled":false,"rental_uris":{"android":"levelo://app?vid=fea5a28c-0167-4a62-9062-e629ed9b3e8f","ios":"levelo://app?vid=fea5a28c-0167-4a62-9062-e629ed9b3e8f"},"vehicle_type_id":"4","last_reported":1777221069,"current_range_meters":4800,"station_id":"st_d3svhcjqgbts73a3dn0g","pricing_plan_id":"cebpf4jnsgd1na2vs0mg"},{"bike_id":"c8b61de4-3641-4fcc-96aa-e7eada36bc90","system_id":"levelo_inurba_marseille","lat":43.30243,"lon":5.40085,"is_reserved":false,"is_disabled":false,"rental_uris":{"android":"levelo://app?vid=c8b61de4-3641-4fcc-96aa-e7eada36bc90","ios":"levelo://app?vid=c8b61de4-3641-4fcc-96aa-e7eada36bc90"},"vehicle_type_id":"4","last_reported":1777221069,"current_range_meters":4800,"station_id":"ce4bgvh2rcd13ifvqcs0","pricing_plan_id":"cebpf4jnsgd1na2vs0mg"},{"bike_id":"3a1dde76-eca1-4259-a733-fe668960caa8","system_id":"levelo_inurba_marseille","lat":43.24449,"lon":5.39092,"is_reserved":false,"is_disabled":false,"rental_uris":{"android":"levelo://app?vid=3a1dde76-eca1-4259-a733-fe668960caa8","ios":"levelo://app?vid=3a1dde76-eca1-4259-a733-fe668960caa8"},"vehicle_type_id":"4","last_reported":1777221069,"current_range_meters":4800,"station_id":"","pricing_plan_id":"cebpf4jnsgd1na2vs0mg"},{"bike_id":"1ccfe6f4-e5d4-4b33-812d-52bd4f628f2d","system_id":"levelo_inurba_marseille","lat":43.24833,"lon":5.37478,"is_reserved":false,"is_disabled":false,"rental_uris":{"android":"levelo://app?vid=1ccfe6f4-e5d4-4b33-812d-52bd4f628f2d","ios":"levelo://app?vid=1ccfe6f4-e5d4-4b33-812d-52bd4f628f2d"},"vehicle_type_id":"4","last_reported":1777221069,"current_range_meters":4800,"station_id":"","pricing_plan_id":"cebpf4jnsgd1na2vs0mg"},{"bike_id":"4b32f071-0100-42f3-86a6-75183edbe4cf","system_id":"levelo_inurba_marseille","lat":43.26915,"lon":5.40262,"is_reserved":false,"is_disabled":false,"rental_uris":{"android":"levelo://app?vid=4b32f071-0100-42f3-86a6-75183edbe4cf","ios":"levelo://app?vid=4b32f071-0100-42f3-86a6-75183edbe4cf"},"vehicle_type_id":"4","last_reported":1777221069,"current_range_meters":4800,"station_id":"cjm6bp8fraef2m0cb0m0","pricing_plan_id":"cebpf4jnsgd1na2vs0mg"},{"bike_id":"833d7be3-421b-4c5f-bc44-1a51dc01aed7","system_id":"levelo_inurba_marseille","lat":43.29655,"lon":5.37274,"is_reserved":false,"is_disabled":true,"rental_uris":{"android":"levelo://app?vid=833d7be3-421b-4c5f-bc44-1a51dc01aed7","ios":"levelo://app?vid=833d7be3-421b-4c5f-bc44-1a51dc01aed7"},"vehicle_type_id":"4","last_reported":1777221069,"current_range_meters":4800,"station_id":"ce4bgk12rcd13ifvqbj0","pricing_plan_id":"cebpf4jnsgd1na2vs0mg"},{"bike_id":"f6cdbb7e-5f40-434c-96b2-10481cd90c84","system_id":"levelo_inurba_marseille","lat":43.28938,"lon":5.36409,"is_reserved":false,"is_disabled":false,"rental_uris":{"android":"levelo://app?vid=f6cdbb7e-5f40-434c-96b2-10481cd90c84","ios":"levelo://app?vid=f6cdbb7e-5f40-434c-96b2-10481cd90c84"},"vehicle_type_id":"4","last_reported":1777221069,"current_range_meters":4800,"station_id":"ce4bhc92rcd13ifvqetg","pricing_plan_id":"cebpf4jnsgd1na2vs0mg"},{"bike_id":"edc2a3bb-1aa4-404a-9f62-c14a9c4956a6","system_id":"levelo_inurba_marseille","lat":43.25419,"lon":5.4191,"is_reserved":false,"is_disabled":false,"rental_uris":{"android":"levelo://app?vid=edc2a3bb-1aa4-404a-9f62-c14a9c4956a6","ios":"levelo://app?vid=edc2a3bb-1aa4-404a-9f62-c14a9c4956a6"},"vehicle_type_id":"4","last_reported":1777221069,"current_range_meters":4800,"station_id":"","pricing_plan_id":"cebpf4jnsgd1na2vs0mg"},{"bike_id":"f33c6c9d-346a-4c73-9b31-f3ca6fe92254","system_id":"levelo_inurba_marseille","lat":43.29619,"lon":5.37709,"is_reserved":false,"is_disabled":true,"rental_uris":{"android":"levelo://app?vid=f33c6c9d-346a-4c73-9b31-f3ca6fe92254","ios":"levelo://app?vid=f33c6c9d-346a-4c73-9b31-f3ca6fe92254"},"vehicle_type_id":"4","last_reported":1777221069,"current_range_meters":4800,"station_id":"ce4bgi92rcd13ifvqb90","pricing_plan_id":"cebpf4jnsgd1na2vs0mg"},{"bike_id":"b43566bf-d753-4915-b7f3-da168e26986a","system_id":"levelo_inurba_marseille","lat":43.291169,"lon":5.383115,"is_reserved":false,"is_disabled":false,"rental_uris":{"android":"levelo://app?vid=b43566bf-d753-4915-b7f3-da168e26986a","ios":"levelo://app?vid=b43566bf-d753-4915-b7f3-da168e26986a"},"vehicle_type_id":"4","last_reported":1777221069,"current_range_meters":4800,"station_id":"ce4bh692rcd13ifvqea0","pricing_plan_id":"cebpf4jnsgd1na2vs0mg"},{"bike_id":"9a7c39d8-ef30-4694-b180-b6fe0a089530","system_id":"levelo_inurba_marseille","lat":43.30122,"lon":5.43117,"is_reserved":false,"is_disabled":false,"rental_uris":{"android":"levelo://app?vid=9a7c39d8-ef30-4694-b180-b6fe0a089530","ios":"levelo://app?vid=9a7c39d8-ef30-4694-b180-b6fe0a089530"},"vehicle_type_id":"4","last_reported":1777221069,"current_range_meters":5600,"station_id":"st_d3js3co5814s73ftftug","pricing_plan_id":"cebpf4jnsgd1na2vs0mg"},{"bike_id":"27cd71a7-0940-4415-a67f-21597fbf1cd9","system_id":"levelo_inurba_marseille","lat":43.34404,"lon":5.37767,"is_reserved":false,"is_disabled":false,"rental_uris":{"android":"levelo://app?vid=27cd71a7-0940-4415-a67f-21597fbf1cd9","ios":"levelo://app?vid=27cd71a7-0940-4415-a67f-21597fbf1cd9"},"vehicle_type_id":"4","last_reported":1777221069,"current_range_meters":5600,"station_id":"","pricing_plan_id":"cebpf4jnsgd1na2vs0mg"},{"bike_id":"9762113e-a054-458e-a16d-f34215941270","system_id":"levelo_inurba_marseille","lat":43.29223,"lon":5.36086,"is_reserved":false,"is_disabled":true,"rental_uris":{"android":"levelo://app?vid=9762113e-a054-458e-a16d-f34215941270","ios":"levelo://app?vid=9762113e-a054-458e-a16d-f34215941270"},"vehicle_type_id":"4","last_reported":1777221069,"current_range_meters":5600,"station_id":"ce4bhbh2rcd13ifvqeqg","pricing_plan_id":"cebpf4jnsgd1na2vs0mg"},{"bike_id":"a741ff1a-484b-4d8a-9c06-c4887c117baa","system_id":"levelo_inurba_marseille","lat":43.22537,"lon":5.34813,"is_reserved":false,"is_disabled":false,"rental_uris":{"android":"levelo://app?vid=a741ff1a-484b-4d8a-9c06-c4887c117baa","ios":"levelo://app?vid=a741ff1a-484b-4d8a-9c06-c4887c117baa"},"vehicle_type_id":"4","last_reported":1777221069,"current_range_meters":5600,"station_id":"st_cvj5dfep6f1abm77gieg","pricing_plan_id":"cebpf4jnsgd1na2vs0mg"},{"bike_id":"230ea165-0ec3-4db4-a5be-84b66b334ccf","system_id":"levelo_inurba_marseille","lat":43.298096,"lon":5.380895,"is_reserved":false,"is_disabled":false,"rental_uris":{"android":"levelo://app?vid=230ea165-0ec3-4db4-a5be-84b66b334ccf","ios":"levelo://app?vid=230ea165-0ec3-4db4-a5be-84b66b334ccf"},"vehicle_type_id":"4","last_reported":1777221069,"current_range_meters":5600,"station_id":"ce4bgip2rcd13ifvqbb0","pricing_plan_id":"cebpf4jnsgd1na2vs0mg"},{"bike_id":"26d26955-b302-4311-88a8-057f7b19117a","system_id":"levelo_inurba_marseille","lat":43.29652,"lon":5.36063,"is_reserved":false,"is_disabled":false,"rental_uris":{"android":"levelo://app?vid=26d26955-b302-4311-88a8-057f7b19117a","ios":"levelo://app?vid=26d26955-b302-4311-88a8-057f7b19117a"},"vehicle_type_id":"4","last_reported":1777221069,"current_range_meters":5600,"station_id":"","pricing_plan_id":"cebpf4jnsgd1na2vs0mg"},{"bike_id":"5687bcf3-d7dc-457c-91e4-c37491638fcd","system_id":"levelo_inurba_marseille","lat":43.24156,"lon":5.364,"is_reserved":false,"is_disabled":false,"rental_uris":{"android":"levelo://app?vid=5687bcf3-d7dc-457c-91e4-c37491638fcd","ios":"levelo://app?vid=5687bcf3-d7dc-457c-91e4-c37491638fcd"},"vehicle_type_id":"4","last_reported":1777221069,"current_range_meters":5600,"station_id":"cpo36qri1sfpv3e86is0","pricing_plan_id":"cebpf4jnsgd1na2vs0mg"},{"bike_id":"042ded27-4b8c-4c5c-8208-79b27c2290d1","system_id":"levelo_inurba_marseille","lat":43.24804,"lon":5.37455,"is_reserved":false,"is_disabled":false,"rental_uris":{"android":"levelo://app?vid=042ded27-4b8c-4c5c-8208-79b27c2290d1","ios":"levelo://app?vid=042ded27-4b8c-4c5c-8208-79b27c2290d1"},"vehicle_type_id":"4","last_reported":1777221069,"current_range_meters":5600,"station_id":"ce4bhgh2rcd13ifvqfb0","pricing_plan_id":"cebpf4jnsgd1na2vs0mg"},{"bike_id":"d83043df-be41-4ce1-bb7e-16787e981c67","system_id":"levelo_inurba_marseille","lat":43.28247,"lon":5.35061,"is_reserved":false,"is_disabled":false,"rental_uris":{"android":"levelo://app?vid=d83043df-be41-4ce1-bb7e-16787e981c67","ios":"levelo://app?vid=d83043df-be41-4ce1-bb7e-16787e981c67"},"vehicle_type_id":"4","last_reported":1777221069,"current_range_meters":5600,"station_id":"ce4bhbp2rcd13ifvqerg","pricing_plan_id":"cebpf4jnsgd1na2vs0mg"},{"bike_id":"2cf24fbf-c3e0-425a-91b5-21f2d9a5b934","system_id":"levelo_inurba_marseille","lat":43.30018,"lon":5.40136,"is_reserved":false,"is_disabled":false,"rental_uris":{"android":"levelo://app?vid=2cf24fbf-c3e0-425a-91b5-21f2d9a5b934","ios":"levelo://app?vid=2cf24fbf-c3e0-425a-91b5-21f2d9a5b934"},"vehicle_type_id":"4","last_reported":1777221069,"current_range_meters":5600,"station_id":"","pricing_plan_id":"cebpf4jnsgd1na2vs0mg"},{"bike_id":"6855902b-72d8-4bfb-9406-e60eb0b7b724","system_id":"levelo_inurba_marseille","lat":43.293015,"lon":5.374583,"is_reserved":false,"is_disabled":false,"rental_uris":{"android":"levelo://app?vid=6855902b-72d8-4bfb-9406-e60eb0b7b724","ios":"levelo://app?vid=6855902b-72d8-4bfb-9406-e60eb0b7b724"},"vehicle_type_id":"4","last_reported":1777221069,"current_range_meters":5600,"station_id":"ce4bgi12rcd13ifvqb70","pricing_plan_id":"cebpf4jnsgd1na2vs0mg"},{"bike_id":"e79bde01-2f2e-4687-9114-2908a926683e","system_id":"levelo_inurba_marseille","lat":43.3355,"lon":5.37445,"is_reserved":false,"is_disabled":false,"rental_uris":{"android":"levelo://app?vid=e79bde01-2f2e-4687-9114-2908a926683e","ios":"levelo://app?vid=e79bde01-2f2e-4687-9114-2908a926683e"},"vehicle_type_id":"4","last_reported":1777221069,"current_range_meters":5600,"station_id":"st_d46tts09ee8s73dlu43g","pricing_plan_id":"cebpf4jnsgd1na2vs0mg"},{"bike_id":"3396edc7-aee7-4dab-866e-237c4fafd6eb","system_id":"levelo_inurba_marseille","lat":43.27686,"lon":5.38931,"is_reserved":false,"is_disabled":false,"rental_uris":{"android":"levelo://app?vid=3396edc7-aee7-4dab-866e-237c4fafd6eb","ios":"levelo://app?vid=3396edc7-aee7-4dab-866e-237c4fafd6eb"},"vehicle_type_id":"4","last_reported":1777221069,"current_range_meters":5600,"station_id":"ce4bhi12rcd13ifvqfo0","pricing_plan_id":"cebpf4jnsgd1na2vs0mg"},{"bike_id":"5367fafd-42a5-4c52-bd35-5d85953af91c","system_id":"levelo_inurba_marseille","lat":43.30924,"lon":5.37261,"is_reserved":false,"is_disabled":true,"rental_uris":{"android":"levelo://app?vid=5367fafd-42a5-4c52-bd35-5d85953af91c","ios":"levelo://app?vid=5367fafd-42a5-4c52-bd35-5d85953af91c"},"vehicle_type_id":"4","last_reported":1777221069,"current_range_meters":6000,"station_id":"","pricing_plan_id":"cebpf4jnsgd1na2vs0mg"},{"bike_id":"72337c7c-15fe-4d9d-a055-b6365e7a1881","system_id":"levelo_inurba_marseille","lat":43.24944,"lon":5.40493,"is_reserved":false,"is_disabled":false,"rental_uris":{"android":"levelo://app?vid=72337c7c-15fe-4d9d-a055-b6365e7a1881","ios":"levelo://app?vid=72337c7c-15fe-4d9d-a055-b6365e7a1881"},"vehicle_type_id":"4","last_reported":1777221069,"current_range_meters":6000,"station_id":"st_d2ngiaodas8pm72gd1h0","pricing_plan_id":"cebpf4jnsgd1na2vs0mg"},{"bike_id":"3dd88976-0db9-4f79-9d69-2b4de8a2650c","system_id":"levelo_inurba_marseille","lat":43.22564,"lon":5.41646,"is_reserved":false,"is_disabled":false,"rental_uris":{"android":"levelo://app?vid=3dd88976-0db9-4f79-9d69-2b4de8a2650c","ios":"levelo://app?vid=3dd88976-0db9-4f79-9d69-2b4de8a2650c"},"vehicle_type_id":"4","last_reported":1777221069,"current_range_meters":6000,"station_id":"st_d2o4gvlbi1j2169b742g","pricing_plan_id":"cebpf4jnsgd1na2vs0mg"},{"bike_id":"e8030f99-01e5-4a45-af9a-80d46a8d8629","system_id":"levelo_inurba_marseille","lat":43.30562,"lon":5.3653,"is_reserved":false,"is_disabled":false,"rental_uris":{"android":"levelo://app?vid=e8030f99-01e5-4a45-af9a-80d46a8d8629","ios":"levelo://app?vid=e8030f99-01e5-4a45-af9a-80d46a8d8629"},"vehicle_type_id":"4","last_reported":1777221069,"current_range_meters":6000,"station_id":"ce4bgs12rcd13ifvqcag","pricing_plan_id":"cebpf4jnsgd1na2vs0mg"},{"bike_id":"64222fdd-f546-4836-9e0b-fef99fe8963d","system_id":"levelo_inurba_marseille","lat":43.30418,"lon":5.41279,"is_reserved":false,"is_disabled":false,"rental_uris":{"android":"levelo://app?vid=64222fdd-f546-4836-9e0b-fef99fe8963d","ios":"levelo://app?vid=64222fdd-f546-4836-9e0b-fef99fe8963d"},"vehicle_type_id":"4","last_reported":1777221069,"current_range_meters":6000,"station_id":"ce4bhop2rcd13ifvqh8g","pricing_plan_id":"cebpf4jnsgd1na2vs0mg"},{"bike_id":"085eefc3-42b6-4e5f-8fa3-5e096f60ac23","system_id":"levelo_inurba_marseille","lat":43.21761,"lon":5.34602,"is_reserved":false,"is_disabled":true,"rental_uris":{"android":"levelo://app?vid=085eefc3-42b6-4e5f-8fa3-5e096f60ac23","ios":"levelo://app?vid=085eefc3-42b6-4e5f-8fa3-5e096f60ac23"},"vehicle_type_id":"4","last_reported":1777221069,"current_range_meters":6000,"station_id":"st_cvj6r9ubvosntc0bgbag","pricing_plan_id":"cebpf4jnsgd1na2vs0mg"},{"bike_id":"adfeb2f2-21a5-4adf-a92e-a60a7bb66934","system_id":"levelo_inurba_marseille","lat":43.28974,"lon":5.35603,"is_reserved":false,"is_disabled":true,"rental_uris":{"android":"levelo://app?vid=adfeb2f2-21a5-4adf-a92e-a60a7bb66934","ios":"levelo://app?vid=adfeb2f2-21a5-4adf-a92e-a60a7bb66934"},"vehicle_type_id":"4","last_reported":1777221069,"current_range_meters":6000,"station_id":"ce4bhb92rcd13ifvqen0","pricing_plan_id":"cebpf4jnsgd1na2vs0mg"},{"bike_id":"e6e0181d-d51b-42d7-93b1-7e8f4d00629c","system_id":"levelo_inurba_marseille","lat":43.29838,"lon":5.42058,"is_reserved":false,"is_disabled":true,"rental_uris":{"android":"levelo://app?vid=e6e0181d-d51b-42d7-93b1-7e8f4d00629c","ios":"levelo://app?vid=e6e0181d-d51b-42d7-93b1-7e8f4d00629c"},"vehicle_type_id":"4","last_reported":1777221069,"current_range_meters":6000,"station_id":"","pricing_plan_id":"cebpf4jnsgd1na2vs0mg"},{"bike_id":"65ce94a2-3b6f-415d-8407-e4423b2b406b","system_id":"levelo_inurba_marseille","lat":43.26198,"lon":5.37488,"is_reserved":false,"is_disabled":false,"rental_uris":{"android":"levelo://app?vid=65ce94a2-3b6f-415d-8407-e4423b2b406b","ios":"levelo://app?vid=65ce94a2-3b6f-415d-8407-e4423b2b406b"},"vehicle_type_id":"4","last_reported":1777221069,"current_range_meters":6000,"station_id":"ce4bhgp2rcd13ifvqfc0","pricing_plan_id":"cebpf4jnsgd1na2vs0mg"},{"bike_id":"e3ba7ed7-5450-4177-b375-df845d265486","system_id":"levelo_inurba_marseille","lat":43.27379,"lon":5.36263,"is_reserved":false,"is_disabled":false,"rental_uris":{"android":"levelo://app?vid=e3ba7ed7-5450-4177-b375-df845d265486","ios":"levelo://app?vid=e3ba7ed7-5450-4177-b375-df845d265486"},"vehicle_type_id":"4","last_reported":1777221069,"current_range_meters":6000,"station_id":"ce4bhbh2rcd13ifvqeo0","pricing_plan_id":"cebpf4jnsgd1na2vs0mg"},{"bike_id":"2d74f96b-ca09-4c8f-a409-76984d3eed9b","system_id":"levelo_inurba_marseille","lat":43.28023,"lon":5.36958,"is_reserved":false,"is_disabled":false,"rental_uris":{"android":"levelo://app?vid=2d74f96b-ca09-4c8f-a409-76984d3eed9b","ios":"levelo://app?vid=2d74f96b-ca09-4c8f-a409-76984d3eed9b"},"vehicle_type_id":"4","last_reported":1777221069,"current_range_meters":6000,"station_id":"ce4bha12rcd13ifvqef0","pricing_plan_id":"cebpf4jnsgd1na2vs0mg"},{"bike_id":"70b144c9-a1b0-41ec-96b0-008c18b5dfba","system_id":"levelo_inurba_marseille","lat":43.34139,"lon":5.40901,"is_reserved":false,"is_disabled":false,"rental_uris":{"android":"levelo://app?vid=70b144c9-a1b0-41ec-96b0-008c18b5dfba","ios":"levelo://app?vid=70b144c9-a1b0-41ec-96b0-008c18b5dfba"},"vehicle_type_id":"4","last_reported":1777221069,"current_range_meters":6000,"station_id":"ce4bhqh2rcd13ifvqhlg","pricing_plan_id":"cebpf4jnsgd1na2vs0mg"},{"bike_id":"1e256d2a-c555-4afe-ab4d-1cb73662d0a6","system_id":"levelo_inurba_marseille","lat":43.30214,"lon":5.3947,"is_reserved":false,"is_disabled":false,"rental_uris":{"android":"levelo://app?vid=1e256d2a-c555-4afe-ab4d-1cb73662d0a6","ios":"levelo://app?vid=1e256d2a-c555-4afe-ab4d-1cb73662d0a6"},"vehicle_type_id":"4","last_reported":1777221069,"current_range_meters":6000,"station_id":"ce4bh0p2rcd13ifvqd70","pricing_plan_id":"cebpf4jnsgd1na2vs0mg"},{"bike_id":"609bdf4a-3601-4570-b4fa-c37eacc0db38","system_id":"levelo_inurba_marseille","lat":43.27184,"lon":5.40992,"is_reserved":false,"is_disabled":false,"rental_uris":{"android":"levelo://app?vid=609bdf4a-3601-4570-b4fa-c37eacc0db38","ios":"levelo://app?vid=609bdf4a-3601-4570-b4fa-c37eacc0db38"},"vehicle_type_id":"4","last_reported":1777221069,"current_range_meters":6000,"station_id":"ce4bhl12rcd13ifvqgf0","pricing_plan_id":"cebpf4jnsgd1na2vs0mg"},{"bike_id":"5fdff1d7-b2d7-4e39-ad7f-00ed09411d1d","system_id":"levelo_inurba_marseille","lat":43.2848,"lon":5.48385,"is_reserved":false,"is_disabled":false,"rental_uris":{"android":"levelo://app?vid=5fdff1d7-b2d7-4e39-ad7f-00ed09411d1d","ios":"levelo://app?vid=5fdff1d7-b2d7-4e39-ad7f-00ed09411d1d"},"vehicle_type_id":"4","last_reported":1777221069,"current_range_meters":6400,"station_id":"st_d3svhcjqgbts73a3dn0g","pricing_plan_id":"cebpf4jnsgd1na2vs0mg"},{"bike_id":"757fdfcb-45d7-4c45-8e18-f9ab346e8260","system_id":"levelo_inurba_marseille","lat":43.24622,"lon":5.39848,"is_reserved":false,"is_disabled":false,"rental_uris":{"android":"levelo://app?vid=757fdfcb-45d7-4c45-8e18-f9ab346e8260","ios":"levelo://app?vid=757fdfcb-45d7-4c45-8e18-f9ab346e8260"},"vehicle_type_id":"4","last_reported":1777221069,"current_range_meters":6400,"station_id":"","pricing_plan_id":"cebpf4jnsgd1na2vs0mg"},{"bike_id":"dcf3c7cc-fd9e-448d-9a58-59ca264eaa33","system_id":"levelo_inurba_marseille","lat":43.23196,"lon":5.39991,"is_reserved":false,"is_disabled":false,"rental_uris":{"android":"levelo://app?vid=dcf3c7cc-fd9e-448d-9a58-59ca264eaa33","ios":"levelo://app?vid=dcf3c7cc-fd9e-448d-9a58-59ca264eaa33"},"vehicle_type_id":"4","last_reported":1777221069,"current_range_meters":6400,"station_id":"ce4bhn12rcd13ifvqgqg","pricing_plan_id":"cebpf4jnsgd1na2vs0mg"},{"bike_id":"8072cacb-a3e8-46da-82ae-1b43a1fd8ce5","system_id":"levelo_inurba_marseille","lat":43.27841,"lon":5.40743,"is_reserved":false,"is_disabled":false,"rental_uris":{"android":"levelo://app?vid=8072cacb-a3e8-46da-82ae-1b43a1fd8ce5","ios":"levelo://app?vid=8072cacb-a3e8-46da-82ae-1b43a1fd8ce5"},"vehicle_type_id":"4","last_reported":1777221069,"current_range_meters":6400,"station_id":"ce4bhnh2rcd13ifvqgtg","pricing_plan_id":"cebpf4jnsgd1na2vs0mg"},{"bike_id":"6cf3a600-b22f-4888-b1ea-a099526102d1","system_id":"levelo_inurba_marseille","lat":43.24657,"lon":5.38156,"is_reserved":false,"is_disabled":false,"rental_uris":{"android":"levelo://app?vid=6cf3a600-b22f-4888-b1ea-a099526102d1","ios":"levelo://app?vid=6cf3a600-b22f-4888-b1ea-a099526102d1"},"vehicle_type_id":"4","last_reported":1777221069,"current_range_meters":6400,"station_id":"ce4bhih2rcd13ifvqfr0","pricing_plan_id":"cebpf4jnsgd1na2vs0mg"},{"bike_id":"6b60b3c8-da35-492c-9411-418199a97ad7","system_id":"levelo_inurba_marseille","lat":43.28469,"lon":5.48386,"is_reserved":false,"is_disabled":false,"rental_uris":{"android":"levelo://app?vid=6b60b3c8-da35-492c-9411-418199a97ad7","ios":"levelo://app?vid=6b60b3c8-da35-492c-9411-418199a97ad7"},"vehicle_type_id":"4","last_reported":1777221069,"current_range_meters":6400,"station_id":"","pricing_plan_id":"cebpf4jnsgd1na2vs0mg"},{"bike_id":"f54ccc15-12bb-43a9-bcae-01eb62b17984","system_id":"levelo_inurba_marseille","lat":43.2481,"lon":5.37458,"is_reserved":false,"is_disabled":false,"rental_uris":{"android":"levelo://app?vid=f54ccc15-12bb-43a9-bcae-01eb62b17984","ios":"levelo://app?vid=f54ccc15-12bb-43a9-bcae-01eb62b17984"},"vehicle_type_id":"4","last_reported":1777221069,"current_range_meters":6400,"station_id":"ce4bhgh2rcd13ifvqfb0","pricing_plan_id":"cebpf4jnsgd1na2vs0mg"},{"bike_id":"318c3220-f9ff-4ac8-9eaf-473f0d3affbf","system_id":"levelo_inurba_marseille","lat":43.29859,"lon":5.39729,"is_reserved":false,"is_disabled":false,"rental_uris":{"android":"levelo://app?vid=318c3220-f9ff-4ac8-9eaf-473f0d3affbf","ios":"levelo://app?vid=318c3220-f9ff-4ac8-9eaf-473f0d3affbf"},"vehicle_type_id":"4","last_reported":1777221069,"current_range_meters":6400,"station_id":"ce4bh0h2rcd13ifvqd50","pricing_plan_id":"cebpf4jnsgd1na2vs0mg"},{"bike_id":"673573fb-7457-48f9-bf98-23c4f082a93a","system_id":"levelo_inurba_marseille","lat":43.23198,"lon":5.40008,"is_reserved":false,"is_disabled":false,"rental_uris":{"android":"levelo://app?vid=673573fb-7457-48f9-bf98-23c4f082a93a","ios":"levelo://app?vid=673573fb-7457-48f9-bf98-23c4f082a93a"},"vehicle_type_id":"4","last_reported":1777221069,"current_range_meters":6400,"station_id":"ce4bhn12rcd13ifvqgqg","pricing_plan_id":"cebpf4jnsgd1na2vs0mg"},{"bike_id":"fda983b3-301e-40f3-bb07-e5c67ab620e4","system_id":"levelo_inurba_marseille","lat":43.25054,"lon":5.40449,"is_reserved":false,"is_disabled":false,"rental_uris":{"android":"levelo://app?vid=fda983b3-301e-40f3-bb07-e5c67ab620e4","ios":"levelo://app?vid=fda983b3-301e-40f3-bb07-e5c67ab620e4"},"vehicle_type_id":"4","last_reported":1777221069,"current_range_meters":6400,"station_id":"","pricing_plan_id":"cebpf4jnsgd1na2vs0mg"},{"bike_id":"a9290aae-f69b-4bda-bfdf-cb83763b2817","system_id":"levelo_inurba_marseille","lat":43.24803,"lon":5.37456,"is_reserved":false,"is_disabled":false,"rental_uris":{"android":"levelo://app?vid=a9290aae-f69b-4bda-bfdf-cb83763b2817","ios":"levelo://app?vid=a9290aae-f69b-4bda-bfdf-cb83763b2817"},"vehicle_type_id":"4","last_reported":1777221069,"current_range_meters":6400,"station_id":"ce4bhgh2rcd13ifvqfb0","pricing_plan_id":"cebpf4jnsgd1na2vs0mg"},{"bike_id":"d054276e-6372-4793-ae37-6281dafb78f8","system_id":"levelo_inurba_marseille","lat":43.3376,"lon":5.37435,"is_reserved":false,"is_disabled":false,"rental_uris":{"android":"levelo://app?vid=d054276e-6372-4793-ae37-6281dafb78f8","ios":"levelo://app?vid=d054276e-6372-4793-ae37-6281dafb78f8"},"vehicle_type_id":"4","last_reported":1777221069,"current_range_meters":6400,"station_id":"","pricing_plan_id":"cebpf4jnsgd1na2vs0mg"},{"bike_id":"1fa7c290-baf4-43ed-aa99-7181dabef99e","system_id":"levelo_inurba_marseille","lat":43.33557,"lon":5.37462,"is_reserved":false,"is_disabled":false,"rental_uris":{"android":"levelo://app?vid=1fa7c290-baf4-43ed-aa99-7181dabef99e","ios":"levelo://app?vid=1fa7c290-baf4-43ed-aa99-7181dabef99e"},"vehicle_type_id":"4","last_reported":1777221069,"current_range_meters":6800,"station_id":"st_d46tts09ee8s73dlu43g","pricing_plan_id":"cebpf4jnsgd1na2vs0mg"},{"bike_id":"a6fb066c-ce62-43db-8d5d-c2012cf30ab0","system_id":"levelo_inurba_marseille","lat":43.28965,"lon":5.37835,"is_reserved":false,"is_disabled":false,"rental_uris":{"android":"levelo://app?vid=a6fb066c-ce62-43db-8d5d-c2012cf30ab0","ios":"levelo://app?vid=a6fb066c-ce62-43db-8d5d-c2012cf30ab0"},"vehicle_type_id":"4","last_reported":1777221069,"current_range_meters":6800,"station_id":"ce4bh9p2rcd13ifvqed0","pricing_plan_id":"cebpf4jnsgd1na2vs0mg"},{"bike_id":"be3dbaca-317c-43ef-8335-8f03df566046","system_id":"levelo_inurba_marseille","lat":43.28471,"lon":5.48403,"is_reserved":false,"is_disabled":true,"rental_uris":{"android":"levelo://app?vid=be3dbaca-317c-43ef-8335-8f03df566046","ios":"levelo://app?vid=be3dbaca-317c-43ef-8335-8f03df566046"},"vehicle_type_id":"4","last_reported":1777221069,"current_range_meters":6800,"station_id":"st_d3svhcjqgbts73a3dn0g","pricing_plan_id":"cebpf4jnsgd1na2vs0mg"},{"bike_id":"bc446921-9c9b-4584-ba6d-843b1f19085b","system_id":"levelo_inurba_marseille","lat":43.29779,"lon":5.38112,"is_reserved":false,"is_disabled":false,"rental_uris":{"android":"levelo://app?vid=bc446921-9c9b-4584-ba6d-843b1f19085b","ios":"levelo://app?vid=bc446921-9c9b-4584-ba6d-843b1f19085b"},"vehicle_type_id":"4","last_reported":1777221069,"current_range_meters":6800,"station_id":"ce4bgip2rcd13ifvqbb0","pricing_plan_id":"cebpf4jnsgd1na2vs0mg"},{"bike_id":"60b5d912-ab78-408d-a5b6-869116af7578","system_id":"levelo_inurba_marseille","lat":43.30207,"lon":5.39471,"is_reserved":false,"is_disabled":false,"rental_uris":{"android":"levelo://app?vid=60b5d912-ab78-408d-a5b6-869116af7578","ios":"levelo://app?vid=60b5d912-ab78-408d-a5b6-869116af7578"},"vehicle_type_id":"4","last_reported":1777221069,"current_range_meters":6800,"station_id":"ce4bh0p2rcd13ifvqd70","pricing_plan_id":"cebpf4jnsgd1na2vs0mg"},{"bike_id":"4470a9dc-0144-467a-9b93-3600a3a76722","system_id":"levelo_inurba_marseille","lat":43.28272,"lon":5.35093,"is_reserved":false,"is_disabled":false,"rental_uris":{"android":"levelo://app?vid=4470a9dc-0144-467a-9b93-3600a3a76722","ios":"levelo://app?vid=4470a9dc-0144-467a-9b93-3600a3a76722"},"vehicle_type_id":"4","last_reported":1777221069,"current_range_meters":6800,"station_id":"ce4bhbp2rcd13ifvqerg","pricing_plan_id":"cebpf4jnsgd1na2vs0mg"},{"bike_id":"76784cd2-94a6-4cce-8123-f19daa873528","system_id":"levelo_inurba_marseille","lat":43.31224,"lon":5.36849,"is_reserved":false,"is_disabled":false,"rental_uris":{"android":"levelo://app?vid=76784cd2-94a6-4cce-8123-f19daa873528","ios":"levelo://app?vid=76784cd2-94a6-4cce-8123-f19daa873528"},"vehicle_type_id":"4","last_reported":1777221069,"current_range_meters":6800,"station_id":"ce4bgl92rcd13ifvqbq0","pricing_plan_id":"cebpf4jnsgd1na2vs0mg"},{"bike_id":"6ff1175e-e543-4d7a-9b21-b39c3fc0aaa0","system_id":"levelo_inurba_marseille","lat":43.27207,"lon":5.39178,"is_reserved":false,"is_disabled":false,"rental_uris":{"android":"levelo://app?vid=6ff1175e-e543-4d7a-9b21-b39c3fc0aaa0","ios":"levelo://app?vid=6ff1175e-e543-4d7a-9b21-b39c3fc0aaa0"},"vehicle_type_id":"4","last_reported":1777221069,"current_range_meters":6800,"station_id":"ce4bhhp2rcd13ifvqfm0","pricing_plan_id":"cebpf4jnsgd1na2vs0mg"},{"bike_id":"b7166d00-058e-4f8a-ac08-8d7664362d9a","system_id":"levelo_inurba_marseille","lat":43.26541,"lon":5.37332,"is_reserved":false,"is_disabled":true,"rental_uris":{"android":"levelo://app?vid=b7166d00-058e-4f8a-ac08-8d7664362d9a","ios":"levelo://app?vid=b7166d00-058e-4f8a-ac08-8d7664362d9a"},"vehicle_type_id":"4","last_reported":1777221069,"current_range_meters":6800,"station_id":"ce4bhg12rcd13ifvqf70","pricing_plan_id":"cebpf4jnsgd1na2vs0mg"},{"bike_id":"66f95a73-b8ac-4c58-b065-c87f47c3d13f","system_id":"levelo_inurba_marseille","lat":43.27832,"lon":5.39223,"is_reserved":false,"is_disabled":false,"rental_uris":{"android":"levelo://app?vid=66f95a73-b8ac-4c58-b065-c87f47c3d13f","ios":"levelo://app?vid=66f95a73-b8ac-4c58-b065-c87f47c3d13f"},"vehicle_type_id":"4","last_reported":1777221069,"current_range_meters":6800,"station_id":"ce4bhjp2rcd13ifvqga0","pricing_plan_id":"cebpf4jnsgd1na2vs0mg"},{"bike_id":"494fd0fc-3b39-4504-a26b-321afbf22977","system_id":"levelo_inurba_marseille","lat":43.23835,"lon":5.38578,"is_reserved":false,"is_disabled":false,"rental_uris":{"android":"levelo://app?vid=494fd0fc-3b39-4504-a26b-321afbf22977","ios":"levelo://app?vid=494fd0fc-3b39-4504-a26b-321afbf22977"},"vehicle_type_id":"4","last_reported":1777221069,"current_range_meters":7200,"station_id":"","pricing_plan_id":"cebpf4jnsgd1na2vs0mg"},{"bike_id":"5b98b0ff-b9af-4714-a405-9325883ec7f9","system_id":"levelo_inurba_marseille","lat":43.31494,"lon":5.3731,"is_reserved":false,"is_disabled":false,"rental_uris":{"android":"levelo://app?vid=5b98b0ff-b9af-4714-a405-9325883ec7f9","ios":"levelo://app?vid=5b98b0ff-b9af-4714-a405-9325883ec7f9"},"vehicle_type_id":"4","last_reported":1777221069,"current_range_meters":7200,"station_id":"ce4bgt12rcd13ifvqcd0","pricing_plan_id":"cebpf4jnsgd1na2vs0mg"},{"bike_id":"5c180de8-9c17-4b87-a3cf-6c2cc4bfc770","system_id":"levelo_inurba_marseille","lat":43.28406,"lon":5.37516,"is_reserved":false,"is_disabled":false,"rental_uris":{"android":"levelo://app?vid=5c180de8-9c17-4b87-a3cf-6c2cc4bfc770","ios":"levelo://app?vid=5c180de8-9c17-4b87-a3cf-6c2cc4bfc770"},"vehicle_type_id":"4","last_reported":1777221069,"current_range_meters":7200,"station_id":"ce4bh412rcd13ifvqds0","pricing_plan_id":"cebpf4jnsgd1na2vs0mg"},{"bike_id":"e8e13a34-25bf-41c5-bdc1-d363adb21e4e","system_id":"levelo_inurba_marseille","lat":43.3055,"lon":5.36693,"is_reserved":false,"is_disabled":false,"rental_uris":{"android":"levelo://app?vid=e8e13a34-25bf-41c5-bdc1-d363adb21e4e","ios":"levelo://app?vid=e8e13a34-25bf-41c5-bdc1-d363adb21e4e"},"vehicle_type_id":"4","last_reported":1777221069,"current_range_meters":7200,"station_id":"ce4bgrp2rcd13ifvqc9g","pricing_plan_id":"cebpf4jnsgd1na2vs0mg"},{"bike_id":"d1063a8e-a667-4f9b-9166-4b2ea1244e5f","system_id":"levelo_inurba_marseille","lat":43.24805,"lon":5.37471,"is_reserved":false,"is_disabled":false,"rental_uris":{"android":"levelo://app?vid=d1063a8e-a667-4f9b-9166-4b2ea1244e5f","ios":"levelo://app?vid=d1063a8e-a667-4f9b-9166-4b2ea1244e5f"},"vehicle_type_id":"4","last_reported":1777221069,"current_range_meters":7200,"station_id":"ce4bhgh2rcd13ifvqfb0","pricing_plan_id":"cebpf4jnsgd1na2vs0mg"},{"bike_id":"fb350924-3b39-4197-a891-8208914eef37","system_id":"levelo_inurba_marseille","lat":43.24827,"lon":5.37457,"is_reserved":false,"is_disabled":false,"rental_uris":{"android":"levelo://app?vid=fb350924-3b39-4197-a891-8208914eef37","ios":"levelo://app?vid=fb350924-3b39-4197-a891-8208914eef37"},"vehicle_type_id":"4","last_reported":1777221069,"current_range_meters":7200,"station_id":"ce4bhgh2rcd13ifvqfb0","pricing_plan_id":"cebpf4jnsgd1na2vs0mg"},{"bike_id":"d3462867-36d0-482d-9d6e-8c483e6b18e0","system_id":"levelo_inurba_marseille","lat":43.2868,"lon":5.38664,"is_reserved":false,"is_disabled":false,"rental_uris":{"android":"levelo://app?vid=d3462867-36d0-482d-9d6e-8c483e6b18e0","ios":"levelo://app?vid=d3462867-36d0-482d-9d6e-8c483e6b18e0"},"vehicle_type_id":"4","last_reported":1777221069,"current_range_meters":7200,"station_id":"ce4bh492rcd13ifvqdug","pricing_plan_id":"cebpf4jnsgd1na2vs0mg"},{"bike_id":"a5d1c5f8-e551-41de-b7f3-a52119a1050b","system_id":"levelo_inurba_marseille","lat":43.27823,"lon":5.37455,"is_reserved":false,"is_disabled":false,"rental_uris":{"android":"levelo://app?vid=a5d1c5f8-e551-41de-b7f3-a52119a1050b","ios":"levelo://app?vid=a5d1c5f8-e551-41de-b7f3-a52119a1050b"},"vehicle_type_id":"4","last_reported":1777221069,"current_range_meters":7200,"station_id":"","pricing_plan_id":"cebpf4jnsgd1na2vs0mg"},{"bike_id":"9d1ed9ff-baf1-40fc-993f-5d81d5be1a06","system_id":"levelo_inurba_marseille","lat":43.28612,"lon":5.35109,"is_reserved":false,"is_disabled":false,"rental_uris":{"android":"levelo://app?vid=9d1ed9ff-baf1-40fc-993f-5d81d5be1a06","ios":"levelo://app?vid=9d1ed9ff-baf1-40fc-993f-5d81d5be1a06"},"vehicle_type_id":"4","last_reported":1777221069,"current_range_meters":7200,"station_id":"ce4bhch2rcd13ifvqeug","pricing_plan_id":"cebpf4jnsgd1na2vs0mg"},{"bike_id":"f80bfe29-ad4f-493f-94ca-01041fc373bc","system_id":"levelo_inurba_marseille","lat":43.27947,"lon":5.41042,"is_reserved":false,"is_disabled":false,"rental_uris":{"android":"levelo://app?vid=f80bfe29-ad4f-493f-94ca-01041fc373bc","ios":"levelo://app?vid=f80bfe29-ad4f-493f-94ca-01041fc373bc"},"vehicle_type_id":"4","last_reported":1777221069,"current_range_meters":7200,"station_id":"ce4bhnp2rcd13ifvqh0g","pricing_plan_id":"cebpf4jnsgd1na2vs0mg"},{"bike_id":"0d585696-6ba0-434c-ad3b-bb41bdb279c5","system_id":"levelo_inurba_marseille","lat":43.28605,"lon":5.37074,"is_reserved":false,"is_disabled":false,"rental_uris":{"android":"levelo://app?vid=0d585696-6ba0-434c-ad3b-bb41bdb279c5","ios":"levelo://app?vid=0d585696-6ba0-434c-ad3b-bb41bdb279c5"},"vehicle_type_id":"4","last_reported":1777221069,"current_range_meters":7200,"station_id":"ce4bht12rcd13ifvqi60","pricing_plan_id":"cebpf4jnsgd1na2vs0mg"},{"bike_id":"1c8f0b51-0519-4455-a859-4bb928ebe5de","system_id":"levelo_inurba_marseille","lat":43.30885,"lon":5.39644,"is_reserved":false,"is_disabled":false,"rental_uris":{"android":"levelo://app?vid=1c8f0b51-0519-4455-a859-4bb928ebe5de","ios":"levelo://app?vid=1c8f0b51-0519-4455-a859-4bb928ebe5de"},"vehicle_type_id":"4","last_reported":1777221069,"current_range_meters":7200,"station_id":"ce4bh012rcd13ifvqcv0","pricing_plan_id":"cebpf4jnsgd1na2vs0mg"},{"bike_id":"38e92ff1-e9f6-486b-8b87-5f5769f5e478","system_id":"levelo_inurba_marseille","lat":43.24393,"lon":5.37048,"is_reserved":false,"is_disabled":false,"rental_uris":{"android":"levelo://app?vid=38e92ff1-e9f6-486b-8b87-5f5769f5e478","ios":"levelo://app?vid=38e92ff1-e9f6-486b-8b87-5f5769f5e478"},"vehicle_type_id":"4","last_reported":1777221069,"current_range_meters":7200,"station_id":"ce4bhhh2rcd13ifvqfk0","pricing_plan_id":"cebpf4jnsgd1na2vs0mg"},{"bike_id":"c6941364-0b3e-415d-827c-e48038694e60","system_id":"levelo_inurba_marseille","lat":43.30761,"lon":5.43527,"is_reserved":false,"is_disabled":false,"rental_uris":{"android":"levelo://app?vid=c6941364-0b3e-415d-827c-e48038694e60","ios":"levelo://app?vid=c6941364-0b3e-415d-827c-e48038694e60"},"vehicle_type_id":"4","last_reported":1777221069,"current_range_meters":7200,"station_id":"","pricing_plan_id":"cebpf4jnsgd1na2vs0mg"},{"bike_id":"df9f6c17-7f45-47e5-94da-f52d11c85c04","system_id":"levelo_inurba_marseille","lat":43.29206,"lon":5.39333,"is_reserved":false,"is_disabled":false,"rental_uris":{"android":"levelo://app?vid=df9f6c17-7f45-47e5-94da-f52d11c85c04","ios":"levelo://app?vid=df9f6c17-7f45-47e5-94da-f52d11c85c04"},"vehicle_type_id":"4","last_reported":1777221069,"current_range_meters":7200,"station_id":"ce4bh192rcd13ifvqdd0","pricing_plan_id":"cebpf4jnsgd1na2vs0mg"},{"bike_id":"f7716b3d-5dc6-4c1f-94ea-dd8b69d23a22","system_id":"levelo_inurba_marseille","lat":43.27482,"lon":5.43515,"is_reserved":false,"is_disabled":false,"rental_uris":{"android":"levelo://app?vid=f7716b3d-5dc6-4c1f-94ea-dd8b69d23a22","ios":"levelo://app?vid=f7716b3d-5dc6-4c1f-94ea-dd8b69d23a22"},"vehicle_type_id":"4","last_reported":1777221069,"current_range_meters":7200,"station_id":"","pricing_plan_id":"cebpf4jnsgd1na2vs0mg"},{"bike_id":"a73d6794-8da6-4116-970d-c037b665d3eb","system_id":"levelo_inurba_marseille","lat":43.29674,"lon":5.37281,"is_reserved":false,"is_disabled":false,"rental_uris":{"android":"levelo://app?vid=a73d6794-8da6-4116-970d-c037b665d3eb","ios":"levelo://app?vid=a73d6794-8da6-4116-970d-c037b665d3eb"},"vehicle_type_id":"4","last_reported":1777221069,"current_range_meters":7200,"station_id":"ce4bgk12rcd13ifvqbj0","pricing_plan_id":"cebpf4jnsgd1na2vs0mg"},{"bike_id":"bf9df94d-78da-4266-b089-99c70dfdb928","system_id":"levelo_inurba_marseille","lat":43.26569,"lon":5.39014,"is_reserved":false,"is_disabled":false,"rental_uris":{"android":"levelo://app?vid=bf9df94d-78da-4266-b089-99c70dfdb928","ios":"levelo://app?vid=bf9df94d-78da-4266-b089-99c70dfdb928"},"vehicle_type_id":"4","last_reported":1777221069,"current_range_meters":7200,"station_id":"ce4bhe12rcd13ifvqf30","pricing_plan_id":"cebpf4jnsgd1na2vs0mg"},{"bike_id":"cea31a32-5e3a-46c4-9d32-5011edfbb303","system_id":"levelo_inurba_marseille","lat":43.337444,"lon":5.374475,"is_reserved":false,"is_disabled":true,"rental_uris":{"android":"levelo://app?vid=cea31a32-5e3a-46c4-9d32-5011edfbb303","ios":"levelo://app?vid=cea31a32-5e3a-46c4-9d32-5011edfbb303"},"vehicle_type_id":"4","last_reported":1777221069,"current_range_meters":8000,"station_id":"","pricing_plan_id":"cebpf4jnsgd1na2vs0mg"},{"bike_id":"29c0b8ec-49de-4410-a656-c8996cb003e9","system_id":"levelo_inurba_marseille","lat":43.30528,"lon":5.38427,"is_reserved":false,"is_disabled":false,"rental_uris":{"android":"levelo://app?vid=29c0b8ec-49de-4410-a656-c8996cb003e9","ios":"levelo://app?vid=29c0b8ec-49de-4410-a656-c8996cb003e9"},"vehicle_type_id":"4","last_reported":1777221069,"current_range_meters":8000,"station_id":"ce4bgg92rcd13ifvqb30","pricing_plan_id":"cebpf4jnsgd1na2vs0mg"},{"bike_id":"df75676a-7c3f-4d29-80c0-260795f2c62d","system_id":"levelo_inurba_marseille","lat":43.27942,"lon":5.40821,"is_reserved":false,"is_disabled":false,"rental_uris":{"android":"levelo://app?vid=df75676a-7c3f-4d29-80c0-260795f2c62d","ios":"levelo://app?vid=df75676a-7c3f-4d29-80c0-260795f2c62d"},"vehicle_type_id":"4","last_reported":1777221069,"current_range_meters":8000,"station_id":"","pricing_plan_id":"cebpf4jnsgd1na2vs0mg"},{"bike_id":"4b43a537-0025-4181-b3f0-3f1fa031f295","system_id":"levelo_inurba_marseille","lat":43.24406,"lon":5.37093,"is_reserved":false,"is_disabled":false,"rental_uris":{"android":"levelo://app?vid=4b43a537-0025-4181-b3f0-3f1fa031f295","ios":"levelo://app?vid=4b43a537-0025-4181-b3f0-3f1fa031f295"},"vehicle_type_id":"4","last_reported":1777221069,"current_range_meters":8000,"station_id":"ce4bhhh2rcd13ifvqfk0","pricing_plan_id":"cebpf4jnsgd1na2vs0mg"},{"bike_id":"d84dad1f-3355-427c-a81e-a3f872caa973","system_id":"levelo_inurba_marseille","lat":43.28678,"lon":5.46658,"is_reserved":false,"is_disabled":false,"rental_uris":{"android":"levelo://app?vid=d84dad1f-3355-427c-a81e-a3f872caa973","ios":"levelo://app?vid=d84dad1f-3355-427c-a81e-a3f872caa973"},"vehicle_type_id":"4","last_reported":1777221069,"current_range_meters":8000,"station_id":"st_d6tc3vkotcvc738tfjhg","pricing_plan_id":"cebpf4jnsgd1na2vs0mg"},{"bike_id":"274b41c4-8b16-47b0-9c85-d9e012646b67","system_id":"levelo_inurba_marseille","lat":43.22924,"lon":5.35381,"is_reserved":false,"is_disabled":true,"rental_uris":{"android":"levelo://app?vid=274b41c4-8b16-47b0-9c85-d9e012646b67","ios":"levelo://app?vid=274b41c4-8b16-47b0-9c85-d9e012646b67"},"vehicle_type_id":"4","last_reported":1777221069,"current_range_meters":8000,"station_id":"cpo3532slgdg3j2ikp40","pricing_plan_id":"cebpf4jnsgd1na2vs0mg"},{"bike_id":"3142bc3c-82f8-47a3-b9b7-bdb5ae2f4136","system_id":"levelo_inurba_marseille","lat":43.26056,"lon":5.37555,"is_reserved":false,"is_disabled":false,"rental_uris":{"android":"levelo://app?vid=3142bc3c-82f8-47a3-b9b7-bdb5ae2f4136","ios":"levelo://app?vid=3142bc3c-82f8-47a3-b9b7-bdb5ae2f4136"},"vehicle_type_id":"4","last_reported":1777221069,"current_range_meters":8000,"station_id":"ce4bhgh2rcd13ifvqfa0","pricing_plan_id":"cebpf4jnsgd1na2vs0mg"},{"bike_id":"9bbf1e9d-6737-4217-8ec3-b0d06e6a1719","system_id":"levelo_inurba_marseille","lat":43.27384,"lon":5.36258,"is_reserved":false,"is_disabled":false,"rental_uris":{"android":"levelo://app?vid=9bbf1e9d-6737-4217-8ec3-b0d06e6a1719","ios":"levelo://app?vid=9bbf1e9d-6737-4217-8ec3-b0d06e6a1719"},"vehicle_type_id":"4","last_reported":1777221069,"current_range_meters":8000,"station_id":"ce4bhbh2rcd13ifvqeo0","pricing_plan_id":"cebpf4jnsgd1na2vs0mg"},{"bike_id":"6c03a756-6268-4631-a1f0-4d7b6ab3b005","system_id":"levelo_inurba_marseille","lat":43.26061,"lon":5.39383,"is_reserved":false,"is_disabled":false,"rental_uris":{"android":"levelo://app?vid=6c03a756-6268-4631-a1f0-4d7b6ab3b005","ios":"levelo://app?vid=6c03a756-6268-4631-a1f0-4d7b6ab3b005"},"vehicle_type_id":"4","last_reported":1777221069,"current_range_meters":8000,"station_id":"ce4bhh92rcd13ifvqfj0","pricing_plan_id":"cebpf4jnsgd1na2vs0mg"},{"bike_id":"f463bff9-10da-4e58-b883-194bfb9f73d7","system_id":"levelo_inurba_marseille","lat":43.23779,"lon":5.36634,"is_reserved":false,"is_disabled":false,"rental_uris":{"android":"levelo://app?vid=f463bff9-10da-4e58-b883-194bfb9f73d7","ios":"levelo://app?vid=f463bff9-10da-4e58-b883-194bfb9f73d7"},"vehicle_type_id":"4","last_reported":1777221069,"current_range_meters":8000,"station_id":"st_d3nk18o9ro0c73en2l3g","pricing_plan_id":"cebpf4jnsgd1na2vs0mg"},{"bike_id":"adea3d3b-6ffc-4558-8661-26de84e3f93e","system_id":"levelo_inurba_marseille","lat":43.28414,"lon":5.34981,"is_reserved":false,"is_disabled":false,"rental_uris":{"android":"levelo://app?vid=adea3d3b-6ffc-4558-8661-26de84e3f93e","ios":"levelo://app?vid=adea3d3b-6ffc-4558-8661-26de84e3f93e"},"vehicle_type_id":"4","last_reported":1777221069,"current_range_meters":8000,"station_id":"ce4bhbh2rcd13ifvqepg","pricing_plan_id":"cebpf4jnsgd1na2vs0mg"},{"bike_id":"020db429-7c6a-4786-a59b-3eb7a60f4963","system_id":"levelo_inurba_marseille","lat":43.23202,"lon":5.35587,"is_reserved":false,"is_disabled":false,"rental_uris":{"android":"levelo://app?vid=020db429-7c6a-4786-a59b-3eb7a60f4963","ios":"levelo://app?vid=020db429-7c6a-4786-a59b-3eb7a60f4963"},"vehicle_type_id":"4","last_reported":1777221069,"current_range_meters":8000,"station_id":"ce4bhu92rcd13ifvqi70","pricing_plan_id":"cebpf4jnsgd1na2vs0mg"},{"bike_id":"b91e3dba-67ab-464b-a679-4e2ae0372b10","system_id":"levelo_inurba_marseille","lat":43.30642,"lon":5.40109,"is_reserved":false,"is_disabled":false,"rental_uris":{"android":"levelo://app?vid=b91e3dba-67ab-464b-a679-4e2ae0372b10","ios":"levelo://app?vid=b91e3dba-67ab-464b-a679-4e2ae0372b10"},"vehicle_type_id":"4","last_reported":1777221069,"current_range_meters":8000,"station_id":"ce4bh112rcd13ifvqda0","pricing_plan_id":"cebpf4jnsgd1na2vs0mg"},{"bike_id":"df39999d-44b4-499e-95d3-47c4f2e47f0d","system_id":"levelo_inurba_marseille","lat":43.29296,"lon":5.37454,"is_reserved":false,"is_disabled":false,"rental_uris":{"android":"levelo://app?vid=df39999d-44b4-499e-95d3-47c4f2e47f0d","ios":"levelo://app?vid=df39999d-44b4-499e-95d3-47c4f2e47f0d"},"vehicle_type_id":"4","last_reported":1777221069,"current_range_meters":8000,"station_id":"ce4bgi12rcd13ifvqb70","pricing_plan_id":"cebpf4jnsgd1na2vs0mg"},{"bike_id":"4d65f775-c658-4f85-9d68-e8f5cd205b6e","system_id":"levelo_inurba_marseille","lat":43.28698,"lon":5.37382,"is_reserved":false,"is_disabled":false,"rental_uris":{"android":"levelo://app?vid=4d65f775-c658-4f85-9d68-e8f5cd205b6e","ios":"levelo://app?vid=4d65f775-c658-4f85-9d68-e8f5cd205b6e"},"vehicle_type_id":"4","last_reported":1777221069,"current_range_meters":8000,"station_id":"ce4bh3p2rcd13ifvqdq0","pricing_plan_id":"cebpf4jnsgd1na2vs0mg"},{"bike_id":"6fefe45f-2e4d-4ce5-a9fc-a6bb1d77c1d3","system_id":"levelo_inurba_marseille","lat":43.28618,"lon":5.35059,"is_reserved":false,"is_disabled":false,"rental_uris":{"android":"levelo://app?vid=6fefe45f-2e4d-4ce5-a9fc-a6bb1d77c1d3","ios":"levelo://app?vid=6fefe45f-2e4d-4ce5-a9fc-a6bb1d77c1d3"},"vehicle_type_id":"4","last_reported":1777221069,"current_range_meters":8000,"station_id":"ce4bhch2rcd13ifvqeug","pricing_plan_id":"cebpf4jnsgd1na2vs0mg"},{"bike_id":"5477a19c-bf4a-4daf-9969-6f1a11de8549","system_id":"levelo_inurba_marseille","lat":43.31898,"lon":5.39973,"is_reserved":false,"is_disabled":false,"rental_uris":{"android":"levelo://app?vid=5477a19c-bf4a-4daf-9969-6f1a11de8549","ios":"levelo://app?vid=5477a19c-bf4a-4daf-9969-6f1a11de8549"},"vehicle_type_id":"4","last_reported":1777221069,"current_range_meters":8400,"station_id":"","pricing_plan_id":"cebpf4jnsgd1na2vs0mg"},{"bike_id":"5354cf07-79ed-432a-b193-14addfafc2f9","system_id":"levelo_inurba_marseille","lat":43.24385,"lon":5.37078,"is_reserved":false,"is_disabled":false,"rental_uris":{"android":"levelo://app?vid=5354cf07-79ed-432a-b193-14addfafc2f9","ios":"levelo://app?vid=5354cf07-79ed-432a-b193-14addfafc2f9"},"vehicle_type_id":"4","last_reported":1777221069,"current_range_meters":8400,"station_id":"ce4bhhh2rcd13ifvqfk0","pricing_plan_id":"cebpf4jnsgd1na2vs0mg"},{"bike_id":"4e78bb71-e3b5-4fa7-8de6-708750ffadc5","system_id":"levelo_inurba_marseille","lat":43.29269,"lon":5.38443,"is_reserved":false,"is_disabled":false,"rental_uris":{"android":"levelo://app?vid=4e78bb71-e3b5-4fa7-8de6-708750ffadc5","ios":"levelo://app?vid=4e78bb71-e3b5-4fa7-8de6-708750ffadc5"},"vehicle_type_id":"4","last_reported":1777221069,"current_range_meters":8400,"station_id":"ce4bh692rcd13ifvqea0","pricing_plan_id":"cebpf4jnsgd1na2vs0mg"},{"bike_id":"5676b1df-3102-49f0-94ea-6bd037dc90c9","system_id":"levelo_inurba_marseille","lat":43.31124,"lon":5.38062,"is_reserved":false,"is_disabled":false,"rental_uris":{"android":"levelo://app?vid=5676b1df-3102-49f0-94ea-6bd037dc90c9","ios":"levelo://app?vid=5676b1df-3102-49f0-94ea-6bd037dc90c9"},"vehicle_type_id":"4","last_reported":1777221069,"current_range_meters":8400,"station_id":"","pricing_plan_id":"cebpf4jnsgd1na2vs0mg"},{"bike_id":"320999cd-9780-49c8-93df-a1c38db4b994","system_id":"levelo_inurba_marseille","lat":43.2963,"lon":5.3716,"is_reserved":false,"is_disabled":false,"rental_uris":{"android":"levelo://app?vid=320999cd-9780-49c8-93df-a1c38db4b994","ios":"levelo://app?vid=320999cd-9780-49c8-93df-a1c38db4b994"},"vehicle_type_id":"4","last_reported":1777221069,"current_range_meters":8400,"station_id":"ce4bgnh2rcd13ifvqc0g","pricing_plan_id":"cebpf4jnsgd1na2vs0mg"},{"bike_id":"fb6130a9-7204-4b7d-9151-3135e0702eaa","system_id":"levelo_inurba_marseille","lat":43.28369,"lon":5.38643,"is_reserved":false,"is_disabled":false,"rental_uris":{"android":"levelo://app?vid=fb6130a9-7204-4b7d-9151-3135e0702eaa","ios":"levelo://app?vid=fb6130a9-7204-4b7d-9151-3135e0702eaa"},"vehicle_type_id":"4","last_reported":1777221069,"current_range_meters":8400,"station_id":"ce4bh492rcd13ifvqdvg","pricing_plan_id":"cebpf4jnsgd1na2vs0mg"},{"bike_id":"b21748b2-fb24-4ee6-8e6a-c7c61264faec","system_id":"levelo_inurba_marseille","lat":43.274,"lon":5.42285,"is_reserved":false,"is_disabled":false,"rental_uris":{"android":"levelo://app?vid=b21748b2-fb24-4ee6-8e6a-c7c61264faec","ios":"levelo://app?vid=b21748b2-fb24-4ee6-8e6a-c7c61264faec"},"vehicle_type_id":"4","last_reported":1777221069,"current_range_meters":8400,"station_id":"","pricing_plan_id":"cebpf4jnsgd1na2vs0mg"},{"bike_id":"43415a5b-93f6-43e7-9362-e8ca2b097157","system_id":"levelo_inurba_marseille","lat":43.28609,"lon":5.35103,"is_reserved":false,"is_disabled":false,"rental_uris":{"android":"levelo://app?vid=43415a5b-93f6-43e7-9362-e8ca2b097157","ios":"levelo://app?vid=43415a5b-93f6-43e7-9362-e8ca2b097157"},"vehicle_type_id":"4","last_reported":1777221069,"current_range_meters":8400,"station_id":"ce4bhch2rcd13ifvqeug","pricing_plan_id":"cebpf4jnsgd1na2vs0mg"},{"bike_id":"7917a9d5-4ac9-40bd-8834-5d3047c76c9d","system_id":"levelo_inurba_marseille","lat":43.32497,"lon":5.40755,"is_reserved":false,"is_disabled":false,"rental_uris":{"android":"levelo://app?vid=7917a9d5-4ac9-40bd-8834-5d3047c76c9d","ios":"levelo://app?vid=7917a9d5-4ac9-40bd-8834-5d3047c76c9d"},"vehicle_type_id":"4","last_reported":1777221069,"current_range_meters":8400,"station_id":"","pricing_plan_id":"cebpf4jnsgd1na2vs0mg"},{"bike_id":"8245cf4b-8fe8-4fed-b0a7-6b3079b5aaf3","system_id":"levelo_inurba_marseille","lat":43.3009,"lon":5.39083,"is_reserved":false,"is_disabled":false,"rental_uris":{"android":"levelo://app?vid=8245cf4b-8fe8-4fed-b0a7-6b3079b5aaf3","ios":"levelo://app?vid=8245cf4b-8fe8-4fed-b0a7-6b3079b5aaf3"},"vehicle_type_id":"4","last_reported":1777221069,"current_range_meters":8400,"station_id":"ce4bh192rcd13ifvqdb0","pricing_plan_id":"cebpf4jnsgd1na2vs0mg"},{"bike_id":"867e4efb-03e8-466f-a027-d873140a375d","system_id":"levelo_inurba_marseille","lat":43.24823,"lon":5.37461,"is_reserved":false,"is_disabled":false,"rental_uris":{"android":"levelo://app?vid=867e4efb-03e8-466f-a027-d873140a375d","ios":"levelo://app?vid=867e4efb-03e8-466f-a027-d873140a375d"},"vehicle_type_id":"4","last_reported":1777221069,"current_range_meters":8400,"station_id":"ce4bhgh2rcd13ifvqfb0","pricing_plan_id":"cebpf4jnsgd1na2vs0mg"},{"bike_id":"72226c52-96a5-4895-94ca-490c7ea3c64f","system_id":"levelo_inurba_marseille","lat":43.25821,"lon":5.39435,"is_reserved":false,"is_disabled":false,"rental_uris":{"android":"levelo://app?vid=72226c52-96a5-4895-94ca-490c7ea3c64f","ios":"levelo://app?vid=72226c52-96a5-4895-94ca-490c7ea3c64f"},"vehicle_type_id":"4","last_reported":1777221069,"current_range_meters":8400,"station_id":"ce4bhip2rcd13ifvqft0","pricing_plan_id":"cebpf4jnsgd1na2vs0mg"},{"bike_id":"50fcb081-4b05-4355-adf3-07f022c0399c","system_id":"levelo_inurba_marseille","lat":43.30993,"lon":5.37913,"is_reserved":false,"is_disabled":false,"rental_uris":{"android":"levelo://app?vid=50fcb081-4b05-4355-adf3-07f022c0399c","ios":"levelo://app?vid=50fcb081-4b05-4355-adf3-07f022c0399c"},"vehicle_type_id":"4","last_reported":1777221069,"current_range_meters":8400,"station_id":"","pricing_plan_id":"cebpf4jnsgd1na2vs0mg"},{"bike_id":"2efa062e-55eb-402d-a630-b1f0a87a1b2c","system_id":"levelo_inurba_marseille","lat":43.2991,"lon":5.37472,"is_reserved":false,"is_disabled":false,"rental_uris":{"android":"levelo://app?vid=2efa062e-55eb-402d-a630-b1f0a87a1b2c","ios":"levelo://app?vid=2efa062e-55eb-402d-a630-b1f0a87a1b2c"},"vehicle_type_id":"4","last_reported":1777221069,"current_range_meters":8800,"station_id":"ce4bgjh2rcd13ifvqbg0","pricing_plan_id":"cebpf4jnsgd1na2vs0mg"},{"bike_id":"3641d640-2b8a-4f13-b91c-6c317e71d939","system_id":"levelo_inurba_marseille","lat":43.24169,"lon":5.36439,"is_reserved":false,"is_disabled":false,"rental_uris":{"android":"levelo://app?vid=3641d640-2b8a-4f13-b91c-6c317e71d939","ios":"levelo://app?vid=3641d640-2b8a-4f13-b91c-6c317e71d939"},"vehicle_type_id":"4","last_reported":1777221069,"current_range_meters":8800,"station_id":"cpo36qri1sfpv3e86is0","pricing_plan_id":"cebpf4jnsgd1na2vs0mg"},{"bike_id":"1fb0d201-1f56-4523-b307-08a30b23c19f","system_id":"levelo_inurba_marseille","lat":43.26781,"lon":5.40274,"is_reserved":false,"is_disabled":false,"rental_uris":{"android":"levelo://app?vid=1fb0d201-1f56-4523-b307-08a30b23c19f","ios":"levelo://app?vid=1fb0d201-1f56-4523-b307-08a30b23c19f"},"vehicle_type_id":"4","last_reported":1777221069,"current_range_meters":8800,"station_id":"ce501612rcd8frsf0b60","pricing_plan_id":"cebpf4jnsgd1na2vs0mg"},{"bike_id":"cfae915e-7759-4e10-bb0f-07d6de82e535","system_id":"levelo_inurba_marseille","lat":43.28866,"lon":5.42525,"is_reserved":false,"is_disabled":false,"rental_uris":{"android":"levelo://app?vid=cfae915e-7759-4e10-bb0f-07d6de82e535","ios":"levelo://app?vid=cfae915e-7759-4e10-bb0f-07d6de82e535"},"vehicle_type_id":"4","last_reported":1777221069,"current_range_meters":8800,"station_id":"st_d3b462108ojc7389ooeg","pricing_plan_id":"cebpf4jnsgd1na2vs0mg"},{"bike_id":"17f5223a-84d1-46d9-b55d-6a7e95a08bd7","system_id":"levelo_inurba_marseille","lat":43.24811,"lon":5.37457,"is_reserved":false,"is_disabled":false,"rental_uris":{"android":"levelo://app?vid=17f5223a-84d1-46d9-b55d-6a7e95a08bd7","ios":"levelo://app?vid=17f5223a-84d1-46d9-b55d-6a7e95a08bd7"},"vehicle_type_id":"4","last_reported":1777221069,"current_range_meters":8800,"station_id":"ce4bhgh2rcd13ifvqfb0","pricing_plan_id":"cebpf4jnsgd1na2vs0mg"},{"bike_id":"dd57ab85-e60b-40d0-8ba8-5facc82ccf5f","system_id":"levelo_inurba_marseille","lat":43.24383,"lon":5.37052,"is_reserved":false,"is_disabled":false,"rental_uris":{"android":"levelo://app?vid=dd57ab85-e60b-40d0-8ba8-5facc82ccf5f","ios":"levelo://app?vid=dd57ab85-e60b-40d0-8ba8-5facc82ccf5f"},"vehicle_type_id":"4","last_reported":1777221069,"current_range_meters":8800,"station_id":"ce4bhhh2rcd13ifvqfk0","pricing_plan_id":"cebpf4jnsgd1na2vs0mg"},{"bike_id":"a9335f62-4c73-44b2-8914-e3f52e6941ca","system_id":"levelo_inurba_marseille","lat":43.32133,"lon":5.36804,"is_reserved":false,"is_disabled":false,"rental_uris":{"android":"levelo://app?vid=a9335f62-4c73-44b2-8914-e3f52e6941ca","ios":"levelo://app?vid=a9335f62-4c73-44b2-8914-e3f52e6941ca"},"vehicle_type_id":"4","last_reported":1777221069,"current_range_meters":8800,"station_id":"ce4bhrh2rcd13ifvqhug","pricing_plan_id":"cebpf4jnsgd1na2vs0mg"},{"bike_id":"fa751cf9-28f3-4d65-b8f1-30773d90354d","system_id":"levelo_inurba_marseille","lat":43.2497,"lon":5.40524,"is_reserved":false,"is_disabled":false,"rental_uris":{"android":"levelo://app?vid=fa751cf9-28f3-4d65-b8f1-30773d90354d","ios":"levelo://app?vid=fa751cf9-28f3-4d65-b8f1-30773d90354d"},"vehicle_type_id":"4","last_reported":1777221069,"current_range_meters":8800,"station_id":"st_d2ngiaodas8pm72gd1h0","pricing_plan_id":"cebpf4jnsgd1na2vs0mg"},{"bike_id":"c6829236-6ef6-46b9-8b67-2d5d96820965","system_id":"levelo_inurba_marseille","lat":43.27442,"lon":5.43924,"is_reserved":false,"is_disabled":false,"rental_uris":{"android":"levelo://app?vid=c6829236-6ef6-46b9-8b67-2d5d96820965","ios":"levelo://app?vid=c6829236-6ef6-46b9-8b67-2d5d96820965"},"vehicle_type_id":"4","last_reported":1777221069,"current_range_meters":8800,"station_id":"","pricing_plan_id":"cebpf4jnsgd1na2vs0mg"},{"bike_id":"a78c4cf8-6f0f-4b95-a435-c6377aca3889","system_id":"levelo_inurba_marseille","lat":43.28435,"lon":5.35011,"is_reserved":false,"is_disabled":false,"rental_uris":{"android":"levelo://app?vid=a78c4cf8-6f0f-4b95-a435-c6377aca3889","ios":"levelo://app?vid=a78c4cf8-6f0f-4b95-a435-c6377aca3889"},"vehicle_type_id":"4","last_reported":1777221069,"current_range_meters":8800,"station_id":"ce4bhbh2rcd13ifvqepg","pricing_plan_id":"cebpf4jnsgd1na2vs0mg"},{"bike_id":"1f13452b-ac27-48ca-bbd2-1255b0865067","system_id":"levelo_inurba_marseille","lat":43.27832,"lon":5.3794,"is_reserved":false,"is_disabled":false,"rental_uris":{"android":"levelo://app?vid=1f13452b-ac27-48ca-bbd2-1255b0865067","ios":"levelo://app?vid=1f13452b-ac27-48ca-bbd2-1255b0865067"},"vehicle_type_id":"4","last_reported":1777221069,"current_range_meters":8800,"station_id":"","pricing_plan_id":"cebpf4jnsgd1na2vs0mg"},{"bike_id":"93378c7e-8a33-4e07-ab2a-fc9cc927fe7a","system_id":"levelo_inurba_marseille","lat":43.28852,"lon":5.39327,"is_reserved":false,"is_disabled":true,"rental_uris":{"android":"levelo://app?vid=93378c7e-8a33-4e07-ab2a-fc9cc927fe7a","ios":"levelo://app?vid=93378c7e-8a33-4e07-ab2a-fc9cc927fe7a"},"vehicle_type_id":"4","last_reported":1777221069,"current_range_meters":8800,"station_id":"ce4bh2p2rcd13ifvqdi0","pricing_plan_id":"cebpf4jnsgd1na2vs0mg"},{"bike_id":"89361049-3250-43c7-bc2b-1605a651a9a7","system_id":"levelo_inurba_marseille","lat":43.29232,"lon":5.36048,"is_reserved":false,"is_disabled":false,"rental_uris":{"android":"levelo://app?vid=89361049-3250-43c7-bc2b-1605a651a9a7","ios":"levelo://app?vid=89361049-3250-43c7-bc2b-1605a651a9a7"},"vehicle_type_id":"4","last_reported":1777221069,"current_range_meters":8800,"station_id":"ce4bhbh2rcd13ifvqeqg","pricing_plan_id":"cebpf4jnsgd1na2vs0mg"},{"bike_id":"fd583349-9e7d-4e5b-8155-1da1a7a44b99","system_id":"levelo_inurba_marseille","lat":43.27975,"lon":5.4107,"is_reserved":false,"is_disabled":false,"rental_uris":{"android":"levelo://app?vid=fd583349-9e7d-4e5b-8155-1da1a7a44b99","ios":"levelo://app?vid=fd583349-9e7d-4e5b-8155-1da1a7a44b99"},"vehicle_type_id":"4","last_reported":1777221069,"current_range_meters":8800,"station_id":"ce4bhnp2rcd13ifvqh0g","pricing_plan_id":"cebpf4jnsgd1na2vs0mg"},{"bike_id":"d9ab1fbe-ca7f-4edc-8873-00513849da8b","system_id":"levelo_inurba_marseille","lat":43.24399,"lon":5.37076,"is_reserved":false,"is_disabled":false,"rental_uris":{"android":"levelo://app?vid=d9ab1fbe-ca7f-4edc-8873-00513849da8b","ios":"levelo://app?vid=d9ab1fbe-ca7f-4edc-8873-00513849da8b"},"vehicle_type_id":"4","last_reported":1777221069,"current_range_meters":8800,"station_id":"ce4bhhh2rcd13ifvqfk0","pricing_plan_id":"cebpf4jnsgd1na2vs0mg"},{"bike_id":"4b49ab9b-eeca-4117-b1e9-4b53277a58b0","system_id":"levelo_inurba_marseille","lat":43.23185,"lon":5.35563,"is_reserved":false,"is_disabled":true,"rental_uris":{"android":"levelo://app?vid=4b49ab9b-eeca-4117-b1e9-4b53277a58b0","ios":"levelo://app?vid=4b49ab9b-eeca-4117-b1e9-4b53277a58b0"},"vehicle_type_id":"4","last_reported":1777221069,"current_range_meters":8800,"station_id":"ce4bhu92rcd13ifvqi70","pricing_plan_id":"cebpf4jnsgd1na2vs0mg"},{"bike_id":"7b9926f3-1d2b-4da5-87b5-bf4a0fec5f8c","system_id":"levelo_inurba_marseille","lat":43.24166,"lon":5.36379,"is_reserved":false,"is_disabled":false,"rental_uris":{"android":"levelo://app?vid=7b9926f3-1d2b-4da5-87b5-bf4a0fec5f8c","ios":"levelo://app?vid=7b9926f3-1d2b-4da5-87b5-bf4a0fec5f8c"},"vehicle_type_id":"4","last_reported":1777221069,"current_range_meters":8800,"station_id":"cpo36qri1sfpv3e86is0","pricing_plan_id":"cebpf4jnsgd1na2vs0mg"},{"bike_id":"c5e4557e-a579-4ba0-b540-76be6c2c51d2","system_id":"levelo_inurba_marseille","lat":43.26963,"lon":5.40256,"is_reserved":false,"is_disabled":true,"rental_uris":{"android":"levelo://app?vid=c5e4557e-a579-4ba0-b540-76be6c2c51d2","ios":"levelo://app?vid=c5e4557e-a579-4ba0-b540-76be6c2c51d2"},"vehicle_type_id":"4","last_reported":1777221069,"current_range_meters":9200,"station_id":"cjm6bp8fraef2m0cb0m0","pricing_plan_id":"cebpf4jnsgd1na2vs0mg"},{"bike_id":"c9def171-c0e7-4035-b40d-3f1d7a97220f","system_id":"levelo_inurba_marseille","lat":43.28707,"lon":5.39982,"is_reserved":false,"is_disabled":false,"rental_uris":{"android":"levelo://app?vid=c9def171-c0e7-4035-b40d-3f1d7a97220f","ios":"levelo://app?vid=c9def171-c0e7-4035-b40d-3f1d7a97220f"},"vehicle_type_id":"4","last_reported":1777221069,"current_range_meters":9200,"station_id":"ce4bho92rcd13ifvqh3g","pricing_plan_id":"cebpf4jnsgd1na2vs0mg"},{"bike_id":"9b307657-3eba-462c-b5d8-b62e6cca01c2","system_id":"levelo_inurba_marseille","lat":43.31685,"lon":5.40468,"is_reserved":false,"is_disabled":false,"rental_uris":{"android":"levelo://app?vid=9b307657-3eba-462c-b5d8-b62e6cca01c2","ios":"levelo://app?vid=9b307657-3eba-462c-b5d8-b62e6cca01c2"},"vehicle_type_id":"4","last_reported":1777221069,"current_range_meters":9200,"station_id":"ce4bh012rcd13ifvqd00","pricing_plan_id":"cebpf4jnsgd1na2vs0mg"},{"bike_id":"3def131f-dbc4-4b01-90fe-49271d0f1fb8","system_id":"levelo_inurba_marseille","lat":43.30382,"lon":5.39792,"is_reserved":false,"is_disabled":false,"rental_uris":{"android":"levelo://app?vid=3def131f-dbc4-4b01-90fe-49271d0f1fb8","ios":"levelo://app?vid=3def131f-dbc4-4b01-90fe-49271d0f1fb8"},"vehicle_type_id":"4","last_reported":1777221069,"current_range_meters":9200,"station_id":"","pricing_plan_id":"cebpf4jnsgd1na2vs0mg"},{"bike_id":"32d8062d-b01e-46bc-92b9-65d5fbd8fc06","system_id":"levelo_inurba_marseille","lat":43.23968,"lon":5.36627,"is_reserved":false,"is_disabled":false,"rental_uris":{"android":"levelo://app?vid=32d8062d-b01e-46bc-92b9-65d5fbd8fc06","ios":"levelo://app?vid=32d8062d-b01e-46bc-92b9-65d5fbd8fc06"},"vehicle_type_id":"4","last_reported":1777221069,"current_range_meters":9200,"station_id":"ce4bhi12rcd13ifvqfp0","pricing_plan_id":"cebpf4jnsgd1na2vs0mg"},{"bike_id":"2881562f-5e49-4315-80bf-dc8fd103d061","system_id":"levelo_inurba_marseille","lat":43.21219,"lon":5.35072,"is_reserved":false,"is_disabled":false,"rental_uris":{"android":"levelo://app?vid=2881562f-5e49-4315-80bf-dc8fd103d061","ios":"levelo://app?vid=2881562f-5e49-4315-80bf-dc8fd103d061"},"vehicle_type_id":"4","last_reported":1777221069,"current_range_meters":9200,"station_id":"st_cvj6sg6p6f1abm77japg","pricing_plan_id":"cebpf4jnsgd1na2vs0mg"},{"bike_id":"1dbbb389-5931-4d64-b29b-02449b2d67dc","system_id":"levelo_inurba_marseille","lat":43.2447,"lon":5.42529,"is_reserved":false,"is_disabled":false,"rental_uris":{"android":"levelo://app?vid=1dbbb389-5931-4d64-b29b-02449b2d67dc","ios":"levelo://app?vid=1dbbb389-5931-4d64-b29b-02449b2d67dc"},"vehicle_type_id":"4","last_reported":1777221069,"current_range_meters":9200,"station_id":"st_d4a3vfp97mjs738cd8kg","pricing_plan_id":"cebpf4jnsgd1na2vs0mg"},{"bike_id":"a17a356a-6340-4eae-b4d5-d59f3247dda3","system_id":"levelo_inurba_marseille","lat":43.25979,"lon":5.39227,"is_reserved":false,"is_disabled":false,"rental_uris":{"android":"levelo://app?vid=a17a356a-6340-4eae-b4d5-d59f3247dda3","ios":"levelo://app?vid=a17a356a-6340-4eae-b4d5-d59f3247dda3"},"vehicle_type_id":"4","last_reported":1777221069,"current_range_meters":9200,"station_id":"","pricing_plan_id":"cebpf4jnsgd1na2vs0mg"},{"bike_id":"d68cd392-a214-40e4-8e5f-e39fa567524a","system_id":"levelo_inurba_marseille","lat":43.30142,"lon":5.37423,"is_reserved":false,"is_disabled":true,"rental_uris":{"android":"levelo://app?vid=d68cd392-a214-40e4-8e5f-e39fa567524a","ios":"levelo://app?vid=d68cd392-a214-40e4-8e5f-e39fa567524a"},"vehicle_type_id":"4","last_reported":1777221069,"current_range_meters":9200,"station_id":"ce4bgs92rcd13ifvqcc0","pricing_plan_id":"cebpf4jnsgd1na2vs0mg"},{"bike_id":"6b5b9e45-67f3-4a64-a294-ead66e30dbef","system_id":"levelo_inurba_marseille","lat":43.24682,"lon":5.38145,"is_reserved":false,"is_disabled":false,"rental_uris":{"android":"levelo://app?vid=6b5b9e45-67f3-4a64-a294-ead66e30dbef","ios":"levelo://app?vid=6b5b9e45-67f3-4a64-a294-ead66e30dbef"},"vehicle_type_id":"4","last_reported":1777221069,"current_range_meters":9200,"station_id":"ce4bhih2rcd13ifvqfr0","pricing_plan_id":"cebpf4jnsgd1na2vs0mg"},{"bike_id":"b73416c7-c4d2-4ad3-a07d-e05cd921b9fe","system_id":"levelo_inurba_marseille","lat":43.28568,"lon":5.39499,"is_reserved":false,"is_disabled":false,"rental_uris":{"android":"levelo://app?vid=b73416c7-c4d2-4ad3-a07d-e05cd921b9fe","ios":"levelo://app?vid=b73416c7-c4d2-4ad3-a07d-e05cd921b9fe"},"vehicle_type_id":"4","last_reported":1777221069,"current_range_meters":9200,"station_id":"ce4bh292rcd13ifvqdg0","pricing_plan_id":"cebpf4jnsgd1na2vs0mg"},{"bike_id":"0d8c3362-be20-49ce-8a46-7df1fa0c42ea","system_id":"levelo_inurba_marseille","lat":43.24845,"lon":5.37474,"is_reserved":false,"is_disabled":false,"rental_uris":{"android":"levelo://app?vid=0d8c3362-be20-49ce-8a46-7df1fa0c42ea","ios":"levelo://app?vid=0d8c3362-be20-49ce-8a46-7df1fa0c42ea"},"vehicle_type_id":"4","last_reported":1777221069,"current_range_meters":9200,"station_id":"","pricing_plan_id":"cebpf4jnsgd1na2vs0mg"},{"bike_id":"56cbe7f3-21cf-46ab-b794-a1e2e0fe0114","system_id":"levelo_inurba_marseille","lat":43.25581,"lon":5.38234,"is_reserved":false,"is_disabled":false,"rental_uris":{"android":"levelo://app?vid=56cbe7f3-21cf-46ab-b794-a1e2e0fe0114","ios":"levelo://app?vid=56cbe7f3-21cf-46ab-b794-a1e2e0fe0114"},"vehicle_type_id":"4","last_reported":1777221069,"current_range_meters":9200,"station_id":"ce4bhih2rcd13ifvqfs0","pricing_plan_id":"cebpf4jnsgd1na2vs0mg"},{"bike_id":"50f8bdff-b169-44f8-8920-840c94d5e30a","system_id":"levelo_inurba_marseille","lat":43.28468,"lon":5.48395,"is_reserved":false,"is_disabled":true,"rental_uris":{"android":"levelo://app?vid=50f8bdff-b169-44f8-8920-840c94d5e30a","ios":"levelo://app?vid=50f8bdff-b169-44f8-8920-840c94d5e30a"},"vehicle_type_id":"4","last_reported":1777221069,"current_range_meters":9200,"station_id":"","pricing_plan_id":"cebpf4jnsgd1na2vs0mg"},{"bike_id":"ae8f234e-09db-45fc-8635-1fa87d9f867c","system_id":"levelo_inurba_marseille","lat":43.28719,"lon":5.36076,"is_reserved":false,"is_disabled":false,"rental_uris":{"android":"levelo://app?vid=ae8f234e-09db-45fc-8635-1fa87d9f867c","ios":"levelo://app?vid=ae8f234e-09db-45fc-8635-1fa87d9f867c"},"vehicle_type_id":"4","last_reported":1777221069,"current_range_meters":9200,"station_id":"cki0cbj6b192h4jlfktg","pricing_plan_id":"cebpf4jnsgd1na2vs0mg"},{"bike_id":"2725b0c0-a653-43ae-bc24-ce0141576499","system_id":"levelo_inurba_marseille","lat":43.30125,"lon":5.43133,"is_reserved":false,"is_disabled":false,"rental_uris":{"android":"levelo://app?vid=2725b0c0-a653-43ae-bc24-ce0141576499","ios":"levelo://app?vid=2725b0c0-a653-43ae-bc24-ce0141576499"},"vehicle_type_id":"4","last_reported":1777221069,"current_range_meters":9200,"station_id":"st_d3js3co5814s73ftftug","pricing_plan_id":"cebpf4jnsgd1na2vs0mg"},{"bike_id":"7a4c92b1-630d-4ad4-9ace-31a3ad6a06b3","system_id":"levelo_inurba_marseille","lat":43.28671,"lon":5.38674,"is_reserved":false,"is_disabled":false,"rental_uris":{"android":"levelo://app?vid=7a4c92b1-630d-4ad4-9ace-31a3ad6a06b3","ios":"levelo://app?vid=7a4c92b1-630d-4ad4-9ace-31a3ad6a06b3"},"vehicle_type_id":"4","last_reported":1777221069,"current_range_meters":9200,"station_id":"ce4bh492rcd13ifvqdug","pricing_plan_id":"cebpf4jnsgd1na2vs0mg"},{"bike_id":"f15961a1-54a2-485e-9606-4643f1df4d9d","system_id":"levelo_inurba_marseille","lat":43.3108,"lon":5.42435,"is_reserved":false,"is_disabled":false,"rental_uris":{"android":"levelo://app?vid=f15961a1-54a2-485e-9606-4643f1df4d9d","ios":"levelo://app?vid=f15961a1-54a2-485e-9606-4643f1df4d9d"},"vehicle_type_id":"4","last_reported":1777221069,"current_range_meters":9200,"station_id":"ce4bhp92rcd13ifvqhag","pricing_plan_id":"cebpf4jnsgd1na2vs0mg"},{"bike_id":"f0a78c21-af18-4d12-999c-c61c54a5c6ee","system_id":"levelo_inurba_marseille","lat":43.28369,"lon":5.38632,"is_reserved":false,"is_disabled":false,"rental_uris":{"android":"levelo://app?vid=f0a78c21-af18-4d12-999c-c61c54a5c6ee","ios":"levelo://app?vid=f0a78c21-af18-4d12-999c-c61c54a5c6ee"},"vehicle_type_id":"4","last_reported":1777221069,"current_range_meters":9200,"station_id":"ce4bh492rcd13ifvqdvg","pricing_plan_id":"cebpf4jnsgd1na2vs0mg"},{"bike_id":"1b862334-9c5a-48da-89ce-51adedd77be5","system_id":"levelo_inurba_marseille","lat":43.26219,"lon":5.3877,"is_reserved":false,"is_disabled":false,"rental_uris":{"android":"levelo://app?vid=1b862334-9c5a-48da-89ce-51adedd77be5","ios":"levelo://app?vid=1b862334-9c5a-48da-89ce-51adedd77be5"},"vehicle_type_id":"4","last_reported":1777221069,"current_range_meters":9200,"station_id":"","pricing_plan_id":"cebpf4jnsgd1na2vs0mg"},{"bike_id":"f34d417f-55b3-4000-855c-b2add1843f10","system_id":"levelo_inurba_marseille","lat":43.25111,"lon":5.40359,"is_reserved":false,"is_disabled":false,"rental_uris":{"android":"levelo://app?vid=f34d417f-55b3-4000-855c-b2add1843f10","ios":"levelo://app?vid=f34d417f-55b3-4000-855c-b2add1843f10"},"vehicle_type_id":"4","last_reported":1777221069,"current_range_meters":9200,"station_id":"ce4bhlh2rcd13ifvqgig","pricing_plan_id":"cebpf4jnsgd1na2vs0mg"},{"bike_id":"2768b254-100f-4f21-93b4-59c9565aaf35","system_id":"levelo_inurba_marseille","lat":43.30142,"lon":5.39178,"is_reserved":false,"is_disabled":false,"rental_uris":{"android":"levelo://app?vid=2768b254-100f-4f21-93b4-59c9565aaf35","ios":"levelo://app?vid=2768b254-100f-4f21-93b4-59c9565aaf35"},"vehicle_type_id":"4","last_reported":1777221069,"current_range_meters":9200,"station_id":"","pricing_plan_id":"cebpf4jnsgd1na2vs0mg"},{"bike_id":"f7a5c8bc-78e8-4363-a77d-6cbb9c5ab202","system_id":"levelo_inurba_marseille","lat":43.28412,"lon":5.3498,"is_reserved":false,"is_disabled":false,"rental_uris":{"android":"levelo://app?vid=f7a5c8bc-78e8-4363-a77d-6cbb9c5ab202","ios":"levelo://app?vid=f7a5c8bc-78e8-4363-a77d-6cbb9c5ab202"},"vehicle_type_id":"4","last_reported":1777221069,"current_range_meters":9200,"station_id":"ce4bhbh2rcd13ifvqepg","pricing_plan_id":"cebpf4jnsgd1na2vs0mg"},{"bike_id":"fc5c67fb-bafc-42eb-b43f-0d2fffce18e0","system_id":"levelo_inurba_marseille","lat":43.29999,"lon":5.37195,"is_reserved":false,"is_disabled":false,"rental_uris":{"android":"levelo://app?vid=fc5c67fb-bafc-42eb-b43f-0d2fffce18e0","ios":"levelo://app?vid=fc5c67fb-bafc-42eb-b43f-0d2fffce18e0"},"vehicle_type_id":"4","last_reported":1777221069,"current_range_meters":9200,"station_id":"ce4bgr92rcd13ifvqc7g","pricing_plan_id":"cebpf4jnsgd1na2vs0mg"},{"bike_id":"58bc3e60-f18b-427c-b5e0-e156e759d6db","system_id":"levelo_inurba_marseille","lat":43.31335,"lon":5.36767,"is_reserved":false,"is_disabled":false,"rental_uris":{"android":"levelo://app?vid=58bc3e60-f18b-427c-b5e0-e156e759d6db","ios":"levelo://app?vid=58bc3e60-f18b-427c-b5e0-e156e759d6db"},"vehicle_type_id":"4","last_reported":1777221069,"current_range_meters":9600,"station_id":"ce4bgr92rcd13ifvqc6g","pricing_plan_id":"cebpf4jnsgd1na2vs0mg"},{"bike_id":"97f0351e-0015-4f6a-a402-604cdb115786","system_id":"levelo_inurba_marseille","lat":43.21192,"lon":5.3508,"is_reserved":false,"is_disabled":false,"rental_uris":{"android":"levelo://app?vid=97f0351e-0015-4f6a-a402-604cdb115786","ios":"levelo://app?vid=97f0351e-0015-4f6a-a402-604cdb115786"},"vehicle_type_id":"4","last_reported":1777221069,"current_range_meters":9600,"station_id":"st_cvj6sg6p6f1abm77japg","pricing_plan_id":"cebpf4jnsgd1na2vs0mg"},{"bike_id":"afe2c699-d272-47f9-9a1b-81ffe94bdde8","system_id":"levelo_inurba_marseille","lat":43.24148,"lon":5.36427,"is_reserved":false,"is_disabled":false,"rental_uris":{"android":"levelo://app?vid=afe2c699-d272-47f9-9a1b-81ffe94bdde8","ios":"levelo://app?vid=afe2c699-d272-47f9-9a1b-81ffe94bdde8"},"vehicle_type_id":"4","last_reported":1777221069,"current_range_meters":9600,"station_id":"cpo36qri1sfpv3e86is0","pricing_plan_id":"cebpf4jnsgd1na2vs0mg"},{"bike_id":"9c0d4f05-7591-4d5a-b585-2c205a92e111","system_id":"levelo_inurba_marseille","lat":43.26185,"lon":5.37454,"is_reserved":false,"is_disabled":false,"rental_uris":{"android":"levelo://app?vid=9c0d4f05-7591-4d5a-b585-2c205a92e111","ios":"levelo://app?vid=9c0d4f05-7591-4d5a-b585-2c205a92e111"},"vehicle_type_id":"4","last_reported":1777221069,"current_range_meters":9600,"station_id":"ce4bhgp2rcd13ifvqfc0","pricing_plan_id":"cebpf4jnsgd1na2vs0mg"},{"bike_id":"ad06fbeb-2893-47bd-9310-693ccba410e9","system_id":"levelo_inurba_marseille","lat":43.28763,"lon":5.46823,"is_reserved":false,"is_disabled":false,"rental_uris":{"android":"levelo://app?vid=ad06fbeb-2893-47bd-9310-693ccba410e9","ios":"levelo://app?vid=ad06fbeb-2893-47bd-9310-693ccba410e9"},"vehicle_type_id":"4","last_reported":1777221069,"current_range_meters":9600,"station_id":"","pricing_plan_id":"cebpf4jnsgd1na2vs0mg"},{"bike_id":"c0082dc7-7c32-49ab-b5ac-2bf8ac4932f6","system_id":"levelo_inurba_marseille","lat":43.28388,"lon":5.34984,"is_reserved":false,"is_disabled":false,"rental_uris":{"android":"levelo://app?vid=c0082dc7-7c32-49ab-b5ac-2bf8ac4932f6","ios":"levelo://app?vid=c0082dc7-7c32-49ab-b5ac-2bf8ac4932f6"},"vehicle_type_id":"4","last_reported":1777221069,"current_range_meters":9600,"station_id":"ce4bhbh2rcd13ifvqepg","pricing_plan_id":"cebpf4jnsgd1na2vs0mg"},{"bike_id":"fcf455ee-7ca5-4a84-8ca6-1e85a86a5f29","system_id":"levelo_inurba_marseille","lat":43.28458,"lon":5.38426,"is_reserved":false,"is_disabled":false,"rental_uris":{"android":"levelo://app?vid=fcf455ee-7ca5-4a84-8ca6-1e85a86a5f29","ios":"levelo://app?vid=fcf455ee-7ca5-4a84-8ca6-1e85a86a5f29"},"vehicle_type_id":"4","last_reported":1777221069,"current_range_meters":9600,"station_id":"ce4bh512rcd13ifvqe3g","pricing_plan_id":"cebpf4jnsgd1na2vs0mg"},{"bike_id":"cf4537a9-051c-4080-9a3f-93f632ce0082","system_id":"levelo_inurba_marseille","lat":43.337444,"lon":5.374475,"is_reserved":false,"is_disabled":false,"rental_uris":{"android":"levelo://app?vid=cf4537a9-051c-4080-9a3f-93f632ce0082","ios":"levelo://app?vid=cf4537a9-051c-4080-9a3f-93f632ce0082"},"vehicle_type_id":"4","last_reported":1777221069,"current_range_meters":9600,"station_id":"","pricing_plan_id":"cebpf4jnsgd1na2vs0mg"},{"bike_id":"1b7bb941-83c3-4ec7-8d56-88190ac17fc3","system_id":"levelo_inurba_marseille","lat":43.2812,"lon":5.39225,"is_reserved":false,"is_disabled":false,"rental_uris":{"android":"levelo://app?vid=1b7bb941-83c3-4ec7-8d56-88190ac17fc3","ios":"levelo://app?vid=1b7bb941-83c3-4ec7-8d56-88190ac17fc3"},"vehicle_type_id":"4","last_reported":1777221069,"current_range_meters":9600,"station_id":"","pricing_plan_id":"cebpf4jnsgd1na2vs0mg"},{"bike_id":"ef71385b-7520-4eeb-bb83-172cda83128c","system_id":"levelo_inurba_marseille","lat":43.30126,"lon":5.39862,"is_reserved":false,"is_disabled":false,"rental_uris":{"android":"levelo://app?vid=ef71385b-7520-4eeb-bb83-172cda83128c","ios":"levelo://app?vid=ef71385b-7520-4eeb-bb83-172cda83128c"},"vehicle_type_id":"4","last_reported":1777221069,"current_range_meters":9600,"station_id":"ce4bh0h2rcd13ifvqd40","pricing_plan_id":"cebpf4jnsgd1na2vs0mg"},{"bike_id":"9cee4e90-2861-42ab-8f88-f2f3c8ba8048","system_id":"levelo_inurba_marseille","lat":43.3154,"lon":5.38049,"is_reserved":false,"is_disabled":false,"rental_uris":{"android":"levelo://app?vid=9cee4e90-2861-42ab-8f88-f2f3c8ba8048","ios":"levelo://app?vid=9cee4e90-2861-42ab-8f88-f2f3c8ba8048"},"vehicle_type_id":"4","last_reported":1777221069,"current_range_meters":9600,"station_id":"ce4bhsp2rcd13ifvqi50","pricing_plan_id":"cebpf4jnsgd1na2vs0mg"},{"bike_id":"ab330cc3-4a7e-4b69-bb32-7527a07b81a0","system_id":"levelo_inurba_marseille","lat":43.2768,"lon":5.38909,"is_reserved":false,"is_disabled":false,"rental_uris":{"android":"levelo://app?vid=ab330cc3-4a7e-4b69-bb32-7527a07b81a0","ios":"levelo://app?vid=ab330cc3-4a7e-4b69-bb32-7527a07b81a0"},"vehicle_type_id":"4","last_reported":1777221069,"current_range_meters":9600,"station_id":"ce4bhi12rcd13ifvqfo0","pricing_plan_id":"cebpf4jnsgd1na2vs0mg"},{"bike_id":"62a20b6e-e98d-4cc9-b298-e865d7184b00","system_id":"levelo_inurba_marseille","lat":43.2553,"lon":5.37649,"is_reserved":false,"is_disabled":false,"rental_uris":{"android":"levelo://app?vid=62a20b6e-e98d-4cc9-b298-e865d7184b00","ios":"levelo://app?vid=62a20b6e-e98d-4cc9-b298-e865d7184b00"},"vehicle_type_id":"4","last_reported":1777221069,"current_range_meters":9600,"station_id":"ce4bhh12rcd13ifvqff0","pricing_plan_id":"cebpf4jnsgd1na2vs0mg"},{"bike_id":"ee543cf4-e80d-4040-82c8-311fb62f101c","system_id":"levelo_inurba_marseille","lat":43.2656,"lon":5.40321,"is_reserved":false,"is_disabled":false,"rental_uris":{"android":"levelo://app?vid=ee543cf4-e80d-4040-82c8-311fb62f101c","ios":"levelo://app?vid=ee543cf4-e80d-4040-82c8-311fb62f101c"},"vehicle_type_id":"4","last_reported":1777221069,"current_range_meters":9600,"station_id":"ce4bhmp2rcd13ifvqgng","pricing_plan_id":"cebpf4jnsgd1na2vs0mg"},{"bike_id":"61075d33-3a9e-4857-b3e4-51a59bb1db59","system_id":"levelo_inurba_marseille","lat":43.31528,"lon":5.3805,"is_reserved":false,"is_disabled":false,"rental_uris":{"android":"levelo://app?vid=61075d33-3a9e-4857-b3e4-51a59bb1db59","ios":"levelo://app?vid=61075d33-3a9e-4857-b3e4-51a59bb1db59"},"vehicle_type_id":"4","last_reported":1777221069,"current_range_meters":9600,"station_id":"ce4bhsp2rcd13ifvqi50","pricing_plan_id":"cebpf4jnsgd1na2vs0mg"},{"bike_id":"ff9316b5-da8c-476d-9d2b-cb9977068019","system_id":"levelo_inurba_marseille","lat":43.21187,"lon":5.35082,"is_reserved":false,"is_disabled":false,"rental_uris":{"android":"levelo://app?vid=ff9316b5-da8c-476d-9d2b-cb9977068019","ios":"levelo://app?vid=ff9316b5-da8c-476d-9d2b-cb9977068019"},"vehicle_type_id":"4","last_reported":1777221069,"current_range_meters":9600,"station_id":"st_cvj6sg6p6f1abm77japg","pricing_plan_id":"cebpf4jnsgd1na2vs0mg"},