{"last_updated":1726193227,"ttl":30,"version":"2.2","data":{"bikes":[{"bike_id":"5bf687b2-d448-4537-a802-6ca69f538405","system_id":"levelo_inurba_marseille","lat":43.26963,"lon":5.38618,"is_reserved":false,"is_disabled":false,"rental_uris":{"android":"levelo://app?vid=5bf687b2-d448-4537-a802-6ca69f538405","ios":"levelo://app?vid=5bf687b2-d448-4537-a802-6ca69f538405"},"vehicle_type_id":"4","last_reported":1726193227,"current_range_meters":27600,"station_id":"ce4bhh92rcd13ifvqfh0","pricing_plan_id":"cebpf4jnsgd1na2vs0mg"},{"bike_id":"2ca2fd52-6283-4397-ac7e-8db28b0c8f78","system_id":"levelo_inurba_marseille","lat":43.232,"lon":5.35535,"is_reserved":false,"is_disabled":false,"rental_uris":{"android":"levelo://app?vid=2ca2fd52-6283-4397-ac7e-8db28b0c8f78","ios":"levelo://app?vid=2ca2fd52-6283-4397-ac7e-8db28b0c8f78"},"vehicle_type_id":"4","last_reported":1726193227,"current_range_meters":14800,"station_id":"ce4bhu92rcd13ifvqi70","pricing_plan_id":"cebpf4jnsgd1na2vs0mg"},{"bike_id":"d6c22c10-01cf-4e23-8e66-f06828c5bd0e","system_id":"levelo_inurba_marseille","lat":43.29056,"lon":5.37544,"is_reserved":false,"is_disabled":false,"rental_uris":{"android":"levelo://app?vid=d6c22c10-01cf-4e23-8e66-f06828c5bd0e","ios":"levelo://app?vid=d6c22c10-01cf-4e23-8e66-f06828c5bd0e"},"vehicle_type_id":"4","last_reported":1726193227,"current_range_meters":39200,"station_id":"ce4bh692rcd13ifvqe90","pricing_plan_id":"cebpf4jnsgd1na2vs0mg"},{"bike_id":"9b633d55-16bf-493b-aaf9-bf563c4bdace","system_id":"levelo_inurba_marseille","lat":43.28465,"lon":5.35896,"is_reserved":false,"is_disabled":false,"rental_uris":{"android":"levelo://app?vid=9b633d55-16bf-493b-aaf9-bf563c4bdace","ios":"levelo://app?vid=9b633d55-16bf-493b-aaf9-bf563c4bdace"},"vehicle_type_id":"4","last_reported":1726193227,"current_range_meters":39200,"station_id":"ce4bhah2rcd13ifvqei0","pricing_plan_id":"cebpf4jnsgd1na2vs0mg"},{"bike_id":"4198d6d0-8412-48fa-aa00-55db9ae647af","system_id":"levelo_inurba_marseille","lat":43.28714,"lon":5.40009,"is_reserved":false,"is_disabled":false,"rental_uris":{"android":"levelo://app?vid=4198d6d0-8412-48fa-aa00-55db9ae647af","ios":"levelo://app?vid=4198d6d0-8412-48fa-aa00-55db9ae647af"},"vehicle_type_id":"4","last_reported":1726193227,"current_range_meters":28400,"station_id":"ce4bho92rcd13ifvqh3g","pricing_plan_id":"cebpf4jnsgd1na2vs0mg"},{"bike_id":"a6f2ae28-e4c3-46e6-9221-6ed7123a4528","system_id":"levelo_inurba_marseille","lat":43.24065,"lon":5.37727,"is_reserved":false,"is_disabled":false,"rental_uris":{"android":"levelo://app?vid=a6f2ae28-e4c3-46e6-9221-6ed7123a4528","ios":"levelo://app?vid=a6f2ae28-e4c3-46e6-9221-6ed7123a4528"},"vehicle_type_id":"4","last_reported":1726193227,"current_range_meters":24800,"station_id":"ce4bhnp2rcd13ifvqgvg","pricing_plan_id":"cebpf4jnsgd1na2vs0mg"},{"bike_id":"bb17f3f3-09bb-47e3-a688-a5b6fbb363bb","system_id":"levelo_inurba_marseille","lat":43.26947,"lon":5.40258,"is_reserved":false,"is_disabled":false,"rental_uris":{"android":"levelo://app?vid=bb17f3f3-09bb-47e3-a688-a5b6fbb363bb","ios":"levelo://app?vid=bb17f3f3-09bb-47e3-a688-a5b6fbb363bb"},"vehicle_type_id":"4","last_reported":1726193227,"current_range_meters":39200,"station_id":"cjm6bp8fraef2m0cb0m0","pricing_plan_id":"cebpf4jnsgd1na2vs0mg"},{"bike_id":"ae8c7bd4-e320-4650-aaec-5acdea38c512","system_id":"levelo_inurba_marseille","lat":43.28101,"lon":5.38691,"is_reserved":false,"is_disabled":false,"rental_uris":{"android":"levelo://app?vid=ae8c7bd4-e320-4650-aaec-5acdea38c512","ios":"levelo://app?vid=ae8c7bd4-e320-4650-aaec-5acdea38c512"},"vehicle_type_id":"4","last_reported":1726193227,"current_range_meters":24000,"station_id":"","pricing_plan_id":"cebpf4jnsgd1na2vs0mg"},{"bike_id":"0b5f5811-29c5-4e78-aad5-147f2cb22087","system_id":"levelo_inurba_marseille","lat":43.30238,"lon":5.40003,"is_reserved":false,"is_disabled":false,"rental_uris":{"android":"levelo://app?vid=0b5f5811-29c5-4e78-aad5-147f2cb22087","ios":"levelo://app?vid=0b5f5811-29c5-4e78-aad5-147f2cb22087"},"vehicle_type_id":"4","last_reported":1726193227,"current_range_meters":32800,"station_id":"","pricing_plan_id":"cebpf4jnsgd1na2vs0mg"},{"bike_id":"0ac293a5-409b-4c77-9d1b-336bd09deec1","system_id":"levelo_inurba_marseille","lat":43.31514,"lon":5.37308,"is_reserved":false,"is_disabled":false,"rental_uris":{"android":"levelo://app?vid=0ac293a5-409b-4c77-9d1b-336bd09deec1","ios":"levelo://app?vid=0ac293a5-409b-4c77-9d1b-336bd09deec1"},"vehicle_type_id":"4","last_reported":1726193227,"current_range_meters":38000,"station_id":"ce4bgt12rcd13ifvqcd0","pricing_plan_id":"cebpf4jnsgd1na2vs0mg"},{"bike_id":"6857c5d1-5581-450d-a969-e54e4e134161","system_id":"levelo_inurba_marseille","lat":43.27566,"lon":5.38405,"is_reserved":false,"is_disabled":false,"rental_uris":{"android":"levelo://app?vid=6857c5d1-5581-450d-a969-e54e4e134161","ios":"levelo://app?vid=6857c5d1-5581-450d-a969-e54e4e134161"},"vehicle_type_id":"4","last_reported":1726193227,"current_range_meters":31200,"station_id":"ce4bhh92rcd13ifvqfi0","pricing_plan_id":"cebpf4jnsgd1na2vs0mg"},{"bike_id":"1c9df10b-5f8c-4fbe-a691-32d403952ff7","system_id":"levelo_inurba_marseille","lat":43.33598,"lon":5.40964,"is_reserved":false,"is_disabled":false,"rental_uris":{"android":"levelo://app?vid=1c9df10b-5f8c-4fbe-a691-32d403952ff7","ios":"levelo://app?vid=1c9df10b-5f8c-4fbe-a691-32d403952ff7"},"vehicle_type_id":"4","last_reported":1726193227,"current_range_meters":16800,"station_id":"ce4bhqh2rcd13ifvqhmg","pricing_plan_id":"cebpf4jnsgd1na2vs0mg"},{"bike_id":"162b68de-d769-4929-af2f-07e164dcbe98","system_id":"levelo_inurba_marseille","lat":43.30792,"lon":5.37639,"is_reserved":false,"is_disabled":false,"rental_uris":{"android":"levelo://app?vid=162b68de-d769-4929-af2f-07e164dcbe98","ios":"levelo://app?vid=162b68de-d769-4929-af2f-07e164dcbe98"},"vehicle_type_id":"4","last_reported":1726193227,"current_range_meters":38000,"station_id":"ce4bgv92rcd13ifvqcq0","pricing_plan_id":"cebpf4jnsgd1na2vs0mg"},{"bike_id":"b961dfeb-c89b-4953-8a6f-897cb13c41c1","system_id":"levelo_inurba_marseille","lat":43.33601,"lon":5.40984,"is_reserved":false,"is_disabled":false,"rental_uris":{"android":"levelo://app?vid=b961dfeb-c89b-4953-8a6f-897cb13c41c1","ios":"levelo://app?vid=b961dfeb-c89b-4953-8a6f-897cb13c41c1"},"vehicle_type_id":"4","last_reported":1726193227,"current_range_meters":28000,"station_id":"ce4bhqh2rcd13ifvqhmg","pricing_plan_id":"cebpf4jnsgd1na2vs0mg"},{"bike_id":"b7989343-5246-407a-b930-d10e6ab1df20","system_id":"levelo_inurba_marseille","lat":43.29049,"lon":5.35919,"is_reserved":false,"is_disabled":false,"rental_uris":{"android":"levelo://app?vid=b7989343-5246-407a-b930-d10e6ab1df20","ios":"levelo://app?vid=b7989343-5246-407a-b930-d10e6ab1df20"},"vehicle_type_id":"4","last_reported":1726193227,"current_range_meters":40000,"station_id":"ce4bha92rcd13ifvqeg0","pricing_plan_id":"cebpf4jnsgd1na2vs0mg"},{"bike_id":"1fff329e-5ee2-4ccd-ad4e-7c9483989fbd","system_id":"levelo_inurba_marseille","lat":43.30811,"lon":5.38144,"is_reserved":false,"is_disabled":false,"rental_uris":{"android":"levelo://app?vid=1fff329e-5ee2-4ccd-ad4e-7c9483989fbd","ios":"levelo://app?vid=1fff329e-5ee2-4ccd-ad4e-7c9483989fbd"},"vehicle_type_id":"4","last_reported":1726193227,"current_range_meters":27200,"station_id":"ce4bgt12rcd13ifvqce0","pricing_plan_id":"cebpf4jnsgd1na2vs0mg"},{"bike_id":"e47b7ac8-925d-4859-9d8d-e98952a0499a","system_id":"levelo_inurba_marseille","lat":43.248,"lon":5.37453,"is_reserved":false,"is_disabled":false,"rental_uris":{"android":"levelo://app?vid=e47b7ac8-925d-4859-9d8d-e98952a0499a","ios":"levelo://app?vid=e47b7ac8-925d-4859-9d8d-e98952a0499a"},"vehicle_type_id":"4","last_reported":1726193227,"current_range_meters":11200,"station_id":"ce4bhgh2rcd13ifvqfb0","pricing_plan_id":"cebpf4jnsgd1na2vs0mg"},{"bike_id":"f8d0fba0-b375-496d-9fb6-aac6b8a7715f","system_id":"levelo_inurba_marseille","lat":43.31718,"lon":5.37817,"is_reserved":false,"is_disabled":false,"rental_uris":{"android":"levelo://app?vid=f8d0fba0-b375-496d-9fb6-aac6b8a7715f","ios":"levelo://app?vid=f8d0fba0-b375-496d-9fb6-aac6b8a7715f"},"vehicle_type_id":"4","last_reported":1726193227,"current_range_meters":11200,"station_id":"ce4bgth2rcd13ifvqch0","pricing_plan_id":"cebpf4jnsgd1na2vs0mg"},{"bike_id":"5153a7af-9d3d-4a28-aa5e-32bc2777baff","system_id":"levelo_inurba_marseille","lat":43.25117,"lon":5.40336,"is_reserved":false,"is_disabled":false,"rental_uris":{"android":"levelo://app?vid=5153a7af-9d3d-4a28-aa5e-32bc2777baff","ios":"levelo://app?vid=5153a7af-9d3d-4a28-aa5e-32bc2777baff"},"vehicle_type_id":"4","last_reported":1726193227,"current_range_meters":40000,"station_id":"ce4bhlh2rcd13ifvqgig","pricing_plan_id":"cebpf4jnsgd1na2vs0mg"},{"bike_id":"4e378ba7-e144-417b-bddf-998c558952c0","system_id":"levelo_inurba_marseille","lat":43.262,"lon":5.37935,"is_reserved":false,"is_disabled":false,"rental_uris":{"android":"levelo://app?vid=4e378ba7-e144-417b-bddf-998c558952c0","ios":"levelo://app?vid=4e378ba7-e144-417b-bddf-998c558952c0"},"vehicle_type_id":"4","last_reported":1726193227,"current_range_meters":4400,"station_id":"ce4bhjp2rcd13ifvqg90","pricing_plan_id":"cebpf4jnsgd1na2vs0mg"},{"bike_id":"377e9e10-8f9b-415f-bf77-2c7d0647e416","system_id":"levelo_inurba_marseille","lat":43.28952,"lon":5.3664,"is_reserved":false,"is_disabled":false,"rental_uris":{"android":"levelo://app?vid=377e9e10-8f9b-415f-bf77-2c7d0647e416","ios":"levelo://app?vid=377e9e10-8f9b-415f-bf77-2c7d0647e416"},"vehicle_type_id":"4","last_reported":1726193227,"current_range_meters":38400,"station_id":"ce4bhap2rcd13ifvqek0","pricing_plan_id":"cebpf4jnsgd1na2vs0mg"},{"bike_id":"13ec4916-f0ea-4897-8afc-596425b42c42","system_id":"levelo_inurba_marseille","lat":43.23194,"lon":5.35558,"is_reserved":false,"is_disabled":false,"rental_uris":{"android":"levelo://app?vid=13ec4916-f0ea-4897-8afc-596425b42c42","ios":"levelo://app?vid=13ec4916-f0ea-4897-8afc-596425b42c42"},"vehicle_type_id":"4","last_reported":1726193227,"current_range_meters":34000,"station_id":"ce4bhu92rcd13ifvqi70","pricing_plan_id":"cebpf4jnsgd1na2vs0mg"},{"bike_id":"b620d509-8da0-4979-9d23-fef6c70ac3cc","system_id":"levelo_inurba_marseille","lat":43.28411,"lon":5.37527,"is_reserved":false,"is_disabled":false,"rental_uris":{"android":"levelo://app?vid=b620d509-8da0-4979-9d23-fef6c70ac3cc","ios":"levelo://app?vid=b620d509-8da0-4979-9d23-fef6c70ac3cc"},"vehicle_type_id":"4","last_reported":1726193227,"current_range_meters":36800,"station_id":"ce4bh412rcd13ifvqds0","pricing_plan_id":"cebpf4jnsgd1na2vs0mg"},{"bike_id":"d6317b62-4510-4ed3-aefd-feea6e1502be","system_id":"levelo_inurba_marseille","lat":43.30241,"lon":5.40022,"is_reserved":false,"is_disabled":false,"rental_uris":{"android":"levelo://app?vid=d6317b62-4510-4ed3-aefd-feea6e1502be","ios":"levelo://app?vid=d6317b62-4510-4ed3-aefd-feea6e1502be"},"vehicle_type_id":"4","last_reported":1726193227,"current_range_meters":38800,"station_id":"ce4bgvh2rcd13ifvqcs0","pricing_plan_id":"cebpf4jnsgd1na2vs0mg"},{"bike_id":"9e3ef860-c4f7-4f31-b9ec-768b105f76e5","system_id":"levelo_inurba_marseille","lat":43.24543,"lon":5.39518,"is_reserved":false,"is_disabled":false,"rental_uris":{"android":"levelo://app?vid=9e3ef860-c4f7-4f31-b9ec-768b105f76e5","ios":"levelo://app?vid=9e3ef860-c4f7-4f31-b9ec-768b105f76e5"},"vehicle_type_id":"4","last_reported":1726193227,"current_range_meters":34800,"station_id":"ce4bhlp2rcd13ifvqgjg","pricing_plan_id":"cebpf4jnsgd1na2vs0mg"},{"bike_id":"d13844ac-d8d5-4630-a735-d14a8cd8cfc2","system_id":"levelo_inurba_marseille","lat":43.24668,"lon":5.38149,"is_reserved":false,"is_disabled":false,"rental_uris":{"android":"levelo://app?vid=d13844ac-d8d5-4630-a735-d14a8cd8cfc2","ios":"levelo://app?vid=d13844ac-d8d5-4630-a735-d14a8cd8cfc2"},"vehicle_type_id":"4","last_reported":1726193227,"current_range_meters":36400,"station_id":"ce4bhih2rcd13ifvqfr0","pricing_plan_id":"cebpf4jnsgd1na2vs0mg"},{"bike_id":"a59d64a6-0c90-478e-8726-6eda2f84c2f7","system_id":"levelo_inurba_marseille","lat":43.26034,"lon":5.37555,"is_reserved":false,"is_disabled":false,"rental_uris":{"android":"levelo://app?vid=a59d64a6-0c90-478e-8726-6eda2f84c2f7","ios":"levelo://app?vid=a59d64a6-0c90-478e-8726-6eda2f84c2f7"},"vehicle_type_id":"4","last_reported":1726193227,"current_range_meters":6800,"station_id":"ce4bhgh2rcd13ifvqfa0","pricing_plan_id":"cebpf4jnsgd1na2vs0mg"},{"bike_id":"d035d579-2e69-4a79-8e97-e3875f643f43","system_id":"levelo_inurba_marseille","lat":43.25823,"lon":5.39425,"is_reserved":false,"is_disabled":false,"rental_uris":{"android":"levelo://app?vid=d035d579-2e69-4a79-8e97-e3875f643f43","ios":"levelo://app?vid=d035d579-2e69-4a79-8e97-e3875f643f43"},"vehicle_type_id":"4","last_reported":1726193227,"current_range_meters":38000,"station_id":"ce4bhip2rcd13ifvqft0","pricing_plan_id":"cebpf4jnsgd1na2vs0mg"},{"bike_id":"acd8a3d5-a9db-4ea3-b234-2a790cfd605a","system_id":"levelo_inurba_marseille","lat":43.23968,"lon":5.3662,"is_reserved":false,"is_disabled":false,"rental_uris":{"android":"levelo://app?vid=acd8a3d5-a9db-4ea3-b234-2a790cfd605a","ios":"levelo://app?vid=acd8a3d5-a9db-4ea3-b234-2a790cfd605a"},"vehicle_type_id":"4","last_reported":1726193227,"current_range_meters":19200,"station_id":"ce4bhi12rcd13ifvqfp0","pricing_plan_id":"cebpf4jnsgd1na2vs0mg"},{"bike_id":"ace0ecad-0c66-4c3c-adfb-8d60c244cb6d","system_id":"levelo_inurba_marseille","lat":43.32012,"lon":5.38155,"is_reserved":false,"is_disabled":false,"rental_uris":{"android":"levelo://app?vid=ace0ecad-0c66-4c3c-adfb-8d60c244cb6d","ios":"levelo://app?vid=ace0ecad-0c66-4c3c-adfb-8d60c244cb6d"},"vehicle_type_id":"4","last_reported":1726193227,"current_range_meters":38000,"station_id":"ce4bhr12rcd13ifvqhpg","pricing_plan_id":"cebpf4jnsgd1na2vs0mg"},{"bike_id":"6c33dae3-fcf3-499f-846d-c96896dd451f","system_id":"levelo_inurba_marseille","lat":43.23194,"lon":5.39972,"is_reserved":false,"is_disabled":false,"rental_uris":{"android":"levelo://app?vid=6c33dae3-fcf3-499f-846d-c96896dd451f","ios":"levelo://app?vid=6c33dae3-fcf3-499f-846d-c96896dd451f"},"vehicle_type_id":"4","last_reported":1726193227,"current_range_meters":30800,"station_id":"ce4bhn12rcd13ifvqgqg","pricing_plan_id":"cebpf4jnsgd1na2vs0mg"},{"bike_id":"ee5bd0a5-1257-48de-9343-ea8521c36cdd","system_id":"levelo_inurba_marseille","lat":43.23201,"lon":5.35559,"is_reserved":false,"is_disabled":false,"rental_uris":{"android":"levelo://app?vid=ee5bd0a5-1257-48de-9343-ea8521c36cdd","ios":"levelo://app?vid=ee5bd0a5-1257-48de-9343-ea8521c36cdd"},"vehicle_type_id":"4","last_reported":1726193227,"current_range_meters":6400,"station_id":"ce4bhu92rcd13ifvqi70","pricing_plan_id":"cebpf4jnsgd1na2vs0mg"},{"bike_id":"995d3a7e-289e-4ebd-b785-9d2da426ad57","system_id":"levelo_inurba_marseille","lat":43.23191,"lon":5.35551,"is_reserved":false,"is_disabled":false,"rental_uris":{"android":"levelo://app?vid=995d3a7e-289e-4ebd-b785-9d2da426ad57","ios":"levelo://app?vid=995d3a7e-289e-4ebd-b785-9d2da426ad57"},"vehicle_type_id":"4","last_reported":1726193227,"current_range_meters":28400,"station_id":"ce4bhu92rcd13ifvqi70","pricing_plan_id":"cebpf4jnsgd1na2vs0mg"},{"bike_id":"74c67d55-8a5f-40c9-8066-d68354718f8c","system_id":"levelo_inurba_marseille","lat":43.23197,"lon":5.35556,"is_reserved":false,"is_disabled":false,"rental_uris":{"android":"levelo://app?vid=74c67d55-8a5f-40c9-8066-d68354718f8c","ios":"levelo://app?vid=74c67d55-8a5f-40c9-8066-d68354718f8c"},"vehicle_type_id":"4","last_reported":1726193227,"current_range_meters":32000,"station_id":"ce4bhu92rcd13ifvqi70","pricing_plan_id":"cebpf4jnsgd1na2vs0mg"},{"bike_id":"81af7538-7eb7-440b-8a8e-8de3725bf681","system_id":"levelo_inurba_marseille","lat":43.24552,"lon":5.39535,"is_reserved":false,"is_disabled":false,"rental_uris":{"android":"levelo://app?vid=81af7538-7eb7-440b-8a8e-8de3725bf681","ios":"levelo://app?vid=81af7538-7eb7-440b-8a8e-8de3725bf681"},"vehicle_type_id":"4","last_reported":1726193227,"current_range_meters":5600,"station_id":"ce4bhlp2rcd13ifvqgjg","pricing_plan_id":"cebpf4jnsgd1na2vs0mg"},{"bike_id":"f49285f2-c96a-4629-9c9e-8992440fa281","system_id":"levelo_inurba_marseille","lat":43.30649,"lon":5.4007,"is_reserved":false,"is_disabled":false,"rental_uris":{"android":"levelo://app?vid=f49285f2-c96a-4629-9c9e-8992440fa281","ios":"levelo://app?vid=f49285f2-c96a-4629-9c9e-8992440fa281"},"vehicle_type_id":"4","last_reported":1726193227,"current_range_meters":38000,"station_id":"ce4bh112rcd13ifvqda0","pricing_plan_id":"cebpf4jnsgd1na2vs0mg"},{"bike_id":"c7a72c95-d3e6-46b3-8c83-3114a189ce35","system_id":"levelo_inurba_marseille","lat":43.25582,"lon":5.38246,"is_reserved":false,"is_disabled":false,"rental_uris":{"android":"levelo://app?vid=c7a72c95-d3e6-46b3-8c83-3114a189ce35","ios":"levelo://app?vid=c7a72c95-d3e6-46b3-8c83-3114a189ce35"},"vehicle_type_id":"4","last_reported":1726193227,"current_range_meters":10000,"station_id":"ce4bhih2rcd13ifvqfs0","pricing_plan_id":"cebpf4jnsgd1na2vs0mg"},{"bike_id":"2518b103-2087-4e9f-ada3-03685009aa2b","system_id":"levelo_inurba_marseille","lat":43.32014,"lon":5.38181,"is_reserved":false,"is_disabled":false,"rental_uris":{"android":"levelo://app?vid=2518b103-2087-4e9f-ada3-03685009aa2b","ios":"levelo://app?vid=2518b103-2087-4e9f-ada3-03685009aa2b"},"vehicle_type_id":"4","last_reported":1726193227,"current_range_meters":16000,"station_id":"ce4bhr12rcd13ifvqhpg","pricing_plan_id":"cebpf4jnsgd1na2vs0mg"},{"bike_id":"f61bc5ff-0ca9-4a0a-9ac8-51023b441bc8","system_id":"levelo_inurba_marseille","lat":43.30879,"lon":5.39626,"is_reserved":false,"is_disabled":false,"rental_uris":{"android":"levelo://app?vid=f61bc5ff-0ca9-4a0a-9ac8-51023b441bc8","ios":"levelo://app?vid=f61bc5ff-0ca9-4a0a-9ac8-51023b441bc8"},"vehicle_type_id":"4","last_reported":1726193227,"current_range_meters":38000,"station_id":"ce4bh012rcd13ifvqcv0","pricing_plan_id":"cebpf4jnsgd1na2vs0mg"},{"bike_id":"8df50ca4-18cb-412c-8c9a-bd702f229545","system_id":"levelo_inurba_marseille","lat":43.30951,"lon":5.40147,"is_reserved":false,"is_disabled":false,"rental_uris":{"android":"levelo://app?vid=8df50ca4-18cb-412c-8c9a-bd702f229545","ios":"levelo://app?vid=8df50ca4-18cb-412c-8c9a-bd702f229545"},"vehicle_type_id":"4","last_reported":1726193227,"current_range_meters":38400,"station_id":"ce4bgvp2rcd13ifvqct0","pricing_plan_id":"cebpf4jnsgd1na2vs0mg"},{"bike_id":"7f7d711b-d42e-403c-8bf5-e4217831a361","system_id":"levelo_inurba_marseille","lat":43.28367,"lon":5.38095,"is_reserved":false,"is_disabled":false,"rental_uris":{"android":"levelo://app?vid=7f7d711b-d42e-403c-8bf5-e4217831a361","ios":"levelo://app?vid=7f7d711b-d42e-403c-8bf5-e4217831a361"},"vehicle_type_id":"4","last_reported":1726193227,"current_range_meters":19200,"station_id":"ce4bh412rcd13ifvqdr0","pricing_plan_id":"cebpf4jnsgd1na2vs0mg"},{"bike_id":"9e1990ee-f9cd-4f72-942d-e0669ce7ac13","system_id":"levelo_inurba_marseille","lat":43.31136,"lon":5.37775,"is_reserved":false,"is_disabled":false,"rental_uris":{"android":"levelo://app?vid=9e1990ee-f9cd-4f72-942d-e0669ce7ac13","ios":"levelo://app?vid=9e1990ee-f9cd-4f72-942d-e0669ce7ac13"},"vehicle_type_id":"4","last_reported":1726193227,"current_range_meters":38400,"station_id":"ce4bgt92rcd13ifvqcg0","pricing_plan_id":"cebpf4jnsgd1na2vs0mg"},{"bike_id":"d1be1a8c-0a4c-47a5-837f-20539f799678","system_id":"levelo_inurba_marseille","lat":43.2871,"lon":5.37391,"is_reserved":false,"is_disabled":false,"rental_uris":{"android":"levelo://app?vid=d1be1a8c-0a4c-47a5-837f-20539f799678","ios":"levelo://app?vid=d1be1a8c-0a4c-47a5-837f-20539f799678"},"vehicle_type_id":"4","last_reported":1726193227,"current_range_meters":20400,"station_id":"ce4bh3p2rcd13ifvqdq0","pricing_plan_id":"cebpf4jnsgd1na2vs0mg"},{"bike_id":"6e60b6e8-db02-40bf-839f-032c2b1282c4","system_id":"levelo_inurba_marseille","lat":43.27941,"lon":5.38737,"is_reserved":false,"is_disabled":false,"rental_uris":{"android":"levelo://app?vid=6e60b6e8-db02-40bf-839f-032c2b1282c4","ios":"levelo://app?vid=6e60b6e8-db02-40bf-839f-032c2b1282c4"},"vehicle_type_id":"4","last_reported":1726193227,"current_range_meters":35600,"station_id":"ce4bhg12rcd13ifvqf80","pricing_plan_id":"cebpf4jnsgd1na2vs0mg"},{"bike_id":"d6f781b5-d5a7-4af2-81cd-266dd0f272bf","system_id":"levelo_inurba_marseille","lat":43.33601,"lon":5.41022,"is_reserved":false,"is_disabled":false,"rental_uris":{"android":"levelo://app?vid=d6f781b5-d5a7-4af2-81cd-266dd0f272bf","ios":"levelo://app?vid=d6f781b5-d5a7-4af2-81cd-266dd0f272bf"},"vehicle_type_id":"4","last_reported":1726193227,"current_range_meters":24800,"station_id":"ce4bhqh2rcd13ifvqhmg","pricing_plan_id":"cebpf4jnsgd1na2vs0mg"},{"bike_id":"1c9cb63d-d211-4cf8-a71e-f204f05a13cd","system_id":"levelo_inurba_marseille","lat":43.2467,"lon":5.38161,"is_reserved":false,"is_disabled":false,"rental_uris":{"android":"levelo://app?vid=1c9cb63d-d211-4cf8-a71e-f204f05a13cd","ios":"levelo://app?vid=1c9cb63d-d211-4cf8-a71e-f204f05a13cd"},"vehicle_type_id":"4","last_reported":1726193227,"current_range_meters":34000,"station_id":"ce4bhih2rcd13ifvqfr0","pricing_plan_id":"cebpf4jnsgd1na2vs0mg"},{"bike_id":"414f5e7e-3903-4c7e-9e13-9530da24b6b1","system_id":"levelo_inurba_marseille","lat":43.29202,"lon":5.39332,"is_reserved":false,"is_disabled":false,"rental_uris":{"android":"levelo://app?vid=414f5e7e-3903-4c7e-9e13-9530da24b6b1","ios":"levelo://app?vid=414f5e7e-3903-4c7e-9e13-9530da24b6b1"},"vehicle_type_id":"4","last_reported":1726193227,"current_range_meters":38400,"station_id":"ce4bh192rcd13ifvqdd0","pricing_plan_id":"cebpf4jnsgd1na2vs0mg"},{"bike_id":"281115a1-44c2-45f0-84b6-2e74cc57714a","system_id":"levelo_inurba_marseille","lat":43.32342,"lon":5.40616,"is_reserved":false,"is_disabled":false,"rental_uris":{"android":"levelo://app?vid=281115a1-44c2-45f0-84b6-2e74cc57714a","ios":"levelo://app?vid=281115a1-44c2-45f0-84b6-2e74cc57714a"},"vehicle_type_id":"4","last_reported":1726193227,"current_range_meters":25600,"station_id":"ce4bhq92rcd13ifvqhjg","pricing_plan_id":"cebpf4jnsgd1na2vs0mg"},{"bike_id":"d54209f6-3398-4e00-8b3a-a3ed0a88f3b6","system_id":"levelo_inurba_marseille","lat":43.24556,"lon":5.37313,"is_reserved":false,"is_disabled":false,"rental_uris":{"android":"levelo://app?vid=d54209f6-3398-4e00-8b3a-a3ed0a88f3b6","ios":"levelo://app?vid=d54209f6-3398-4e00-8b3a-a3ed0a88f3b6"},"vehicle_type_id":"4","last_reported":1726193227,"current_range_meters":30400,"station_id":"","pricing_plan_id":"cebpf4jnsgd1na2vs0mg"},{"bike_id":"e0a12b05-ca6e-4b62-a21c-42af90102055","system_id":"levelo_inurba_marseille","lat":43.31119,"lon":5.37755,"is_reserved":false,"is_disabled":false,"rental_uris":{"android":"levelo://app?vid=e0a12b05-ca6e-4b62-a21c-42af90102055","ios":"levelo://app?vid=e0a12b05-ca6e-4b62-a21c-42af90102055"},"vehicle_type_id":"4","last_reported":1726193227,"current_range_meters":19200,"station_id":"ce4bgt92rcd13ifvqcg0","pricing_plan_id":"cebpf4jnsgd1na2vs0mg"},{"bike_id":"2b781e98-1d02-4ee0-af58-d39326d4cff8","system_id":"levelo_inurba_marseille","lat":43.28443,"lon":5.39179,"is_reserved":false,"is_disabled":false,"rental_uris":{"android":"levelo://app?vid=2b781e98-1d02-4ee0-af58-d39326d4cff8","ios":"levelo://app?vid=2b781e98-1d02-4ee0-af58-d39326d4cff8"},"vehicle_type_id":"4","last_reported":1726193227,"current_range_meters":38800,"station_id":"ce4bhoh2rcd13ifvqh5g","pricing_plan_id":"cebpf4jnsgd1na2vs0mg"},{"bike_id":"49be7d2b-83ea-4414-9d0f-9747930e161d","system_id":"levelo_inurba_marseille","lat":43.30885,"lon":5.39628,"is_reserved":false,"is_disabled":false,"rental_uris":{"android":"levelo://app?vid=49be7d2b-83ea-4414-9d0f-9747930e161d","ios":"levelo://app?vid=49be7d2b-83ea-4414-9d0f-9747930e161d"},"vehicle_type_id":"4","last_reported":1726193227,"current_range_meters":16000,"station_id":"ce4bh012rcd13ifvqcv0","pricing_plan_id":"cebpf4jnsgd1na2vs0mg"},{"bike_id":"9d302fd2-cf2d-4d06-b7d7-4f621dedcd6a","system_id":"levelo_inurba_marseille","lat":43.32369,"lon":5.38879,"is_reserved":false,"is_disabled":false,"rental_uris":{"android":"levelo://app?vid=9d302fd2-cf2d-4d06-b7d7-4f621dedcd6a","ios":"levelo://app?vid=9d302fd2-cf2d-4d06-b7d7-4f621dedcd6a"},"vehicle_type_id":"4","last_reported":1726193227,"current_range_meters":22800,"station_id":"ce4bhqp2rcd13ifvqhog","pricing_plan_id":"cebpf4jnsgd1na2vs0mg"},{"bike_id":"e46e7b90-db61-40f4-a346-b3460264d71b","system_id":"levelo_inurba_marseille","lat":43.30891,"lon":5.39647,"is_reserved":false,"is_disabled":false,"rental_uris":{"android":"levelo://app?vid=e46e7b90-db61-40f4-a346-b3460264d71b","ios":"levelo://app?vid=e46e7b90-db61-40f4-a346-b3460264d71b"},"vehicle_type_id":"4","last_reported":1726193227,"current_range_meters":38400,"station_id":"ce4bh012rcd13ifvqcv0","pricing_plan_id":"cebpf4jnsgd1na2vs0mg"},{"bike_id":"8263ea4a-64d0-4c72-9510-874ccbb3b8e8","system_id":"levelo_inurba_marseille","lat":43.28666,"lon":5.36344,"is_reserved":false,"is_disabled":false,"rental_uris":{"android":"levelo://app?vid=8263ea4a-64d0-4c72-9510-874ccbb3b8e8","ios":"levelo://app?vid=8263ea4a-64d0-4c72-9510-874ccbb3b8e8"},"vehicle_type_id":"4","last_reported":1726193227,"current_range_meters":38800,"station_id":"ce4bhah2rcd13ifvqej0","pricing_plan_id":"cebpf4jnsgd1na2vs0mg"},{"bike_id":"d80f338e-c7b9-4843-a0cc-56dcfe3a81de","system_id":"levelo_inurba_marseille","lat":43.26215,"lon":5.37445,"is_reserved":false,"is_disabled":false,"rental_uris":{"android":"levelo://app?vid=d80f338e-c7b9-4843-a0cc-56dcfe3a81de","ios":"levelo://app?vid=d80f338e-c7b9-4843-a0cc-56dcfe3a81de"},"vehicle_type_id":"4","last_reported":1726193227,"current_range_meters":38800,"station_id":"ce4bhgp2rcd13ifvqfc0","pricing_plan_id":"cebpf4jnsgd1na2vs0mg"},{"bike_id":"3fd95b83-0fdb-4146-a785-5a14738680ad","system_id":"levelo_inurba_marseille","lat":43.25721,"lon":5.41108,"is_reserved":false,"is_disabled":false,"rental_uris":{"android":"levelo://app?vid=3fd95b83-0fdb-4146-a785-5a14738680ad","ios":"levelo://app?vid=3fd95b83-0fdb-4146-a785-5a14738680ad"},"vehicle_type_id":"4","last_reported":1726193227,"current_range_meters":40000,"station_id":"ce4bhkp2rcd13ifvqgd0","pricing_plan_id":"cebpf4jnsgd1na2vs0mg"},{"bike_id":"9ced008f-ae08-4331-b6bc-4d140a97a4b2","system_id":"levelo_inurba_marseille","lat":43.31537,"lon":5.38025,"is_reserved":false,"is_disabled":false,"rental_uris":{"android":"levelo://app?vid=9ced008f-ae08-4331-b6bc-4d140a97a4b2","ios":"levelo://app?vid=9ced008f-ae08-4331-b6bc-4d140a97a4b2"},"vehicle_type_id":"4","last_reported":1726193227,"current_range_meters":38800,"station_id":"ce4bhsp2rcd13ifvqi50","pricing_plan_id":"cebpf4jnsgd1na2vs0mg"},{"bike_id":"d4ca384e-a23d-4802-be23-f450736c27cb","system_id":"levelo_inurba_marseille","lat":43.27892,"lon":5.38009,"is_reserved":false,"is_disabled":false,"rental_uris":{"android":"levelo://app?vid=d4ca384e-a23d-4802-be23-f450736c27cb","ios":"levelo://app?vid=d4ca384e-a23d-4802-be23-f450736c27cb"},"vehicle_type_id":"4","last_reported":1726193227,"current_range_meters":25200,"station_id":"ce4bhf92rcd13ifvqf50","pricing_plan_id":"cebpf4jnsgd1na2vs0mg"},{"bike_id":"8e3fa3c4-0578-445b-a91d-9a9f0137a0dd","system_id":"levelo_inurba_marseille","lat":43.26682,"lon":5.38254,"is_reserved":false,"is_disabled":false,"rental_uris":{"android":"levelo://app?vid=8e3fa3c4-0578-445b-a91d-9a9f0137a0dd","ios":"levelo://app?vid=8e3fa3c4-0578-445b-a91d-9a9f0137a0dd"},"vehicle_type_id":"4","last_reported":1726193227,"current_range_meters":39200,"station_id":"ce4bhg92rcd13ifvqf90","pricing_plan_id":"cebpf4jnsgd1na2vs0mg"},{"bike_id":"9f1ce198-d330-4b17-9e80-6919f0fa4133","system_id":"levelo_inurba_marseille","lat":43.31076,"lon":5.38357,"is_reserved":false,"is_disabled":false,"rental_uris":{"android":"levelo://app?vid=9f1ce198-d330-4b17-9e80-6919f0fa4133","ios":"levelo://app?vid=9f1ce198-d330-4b17-9e80-6919f0fa4133"},"vehicle_type_id":"4","last_reported":1726193227,"current_range_meters":6400,"station_id":"ce4bgv92rcd13ifvqcr0","pricing_plan_id":"cebpf4jnsgd1na2vs0mg"},{"bike_id":"e3320e68-dfa0-4bc4-adc1-b1a0d7991732","system_id":"levelo_inurba_marseille","lat":43.25486,"lon":5.37672,"is_reserved":false,"is_disabled":false,"rental_uris":{"android":"levelo://app?vid=e3320e68-dfa0-4bc4-adc1-b1a0d7991732","ios":"levelo://app?vid=e3320e68-dfa0-4bc4-adc1-b1a0d7991732"},"vehicle_type_id":"4","last_reported":1726193227,"current_range_meters":33200,"station_id":"ce4bhh12rcd13ifvqff0","pricing_plan_id":"cebpf4jnsgd1na2vs0mg"},{"bike_id":"253af15c-4e38-4fbd-a575-051c222d20a3","system_id":"levelo_inurba_marseille","lat":43.27821,"lon":5.40693,"is_reserved":false,"is_disabled":false,"rental_uris":{"android":"levelo://app?vid=253af15c-4e38-4fbd-a575-051c222d20a3","ios":"levelo://app?vid=253af15c-4e38-4fbd-a575-051c222d20a3"},"vehicle_type_id":"4","last_reported":1726193227,"current_range_meters":17200,"station_id":"ce4bhnh2rcd13ifvqgtg","pricing_plan_id":"cebpf4jnsgd1na2vs0mg"},{"bike_id":"c5cba1c4-5d62-494b-9dbe-75faa51bf8d0","system_id":"levelo_inurba_marseille","lat":43.2805,"lon":5.36945,"is_reserved":false,"is_disabled":false,"rental_uris":{"android":"levelo://app?vid=c5cba1c4-5d62-494b-9dbe-75faa51bf8d0","ios":"levelo://app?vid=c5cba1c4-5d62-494b-9dbe-75faa51bf8d0"},"vehicle_type_id":"4","last_reported":1726193227,"current_range_meters":10000,"station_id":"ce4bha12rcd13ifvqef0","pricing_plan_id":"cebpf4jnsgd1na2vs0mg"},{"bike_id":"bd831dba-294c-4f82-8c95-27e92abeea58","system_id":"levelo_inurba_marseille","lat":43.25016,"lon":5.38922,"is_reserved":false,"is_disabled":false,"rental_uris":{"android":"levelo://app?vid=bd831dba-294c-4f82-8c95-27e92abeea58","ios":"levelo://app?vid=bd831dba-294c-4f82-8c95-27e92abeea58"},"vehicle_type_id":"4","last_reported":1726193227,"current_range_meters":31200,"station_id":"ce4bhgp2rcd13ifvqfd0","pricing_plan_id":"cebpf4jnsgd1na2vs0mg"},{"bike_id":"b781212b-9aa6-4fa0-8e95-8877082d0994","system_id":"levelo_inurba_marseille","lat":43.28071,"lon":5.39652,"is_reserved":false,"is_disabled":false,"rental_uris":{"android":"levelo://app?vid=b781212b-9aa6-4fa0-8e95-8877082d0994","ios":"levelo://app?vid=b781212b-9aa6-4fa0-8e95-8877082d0994"},"vehicle_type_id":"4","last_reported":1726193227,"current_range_meters":20800,"station_id":"ce4bho12rcd13ifvqh2g","pricing_plan_id":"cebpf4jnsgd1na2vs0mg"},{"bike_id":"86b6a2b1-86a4-46ee-8c7e-90cb86d3d820","system_id":"levelo_inurba_marseille","lat":43.3133,"lon":5.3971,"is_reserved":false,"is_disabled":false,"rental_uris":{"android":"levelo://app?vid=86b6a2b1-86a4-46ee-8c7e-90cb86d3d820","ios":"levelo://app?vid=86b6a2b1-86a4-46ee-8c7e-90cb86d3d820"},"vehicle_type_id":"4","last_reported":1726193227,"current_range_meters":38800,"station_id":"ce4bgvp2rcd13ifvqcu0","pricing_plan_id":"cebpf4jnsgd1na2vs0mg"},{"bike_id":"b86bd22c-759d-41d6-9ca6-9c56e72a0cc3","system_id":"levelo_inurba_marseille","lat":43.30937,"lon":5.40143,"is_reserved":false,"is_disabled":false,"rental_uris":{"android":"levelo://app?vid=b86bd22c-759d-41d6-9ca6-9c56e72a0cc3","ios":"levelo://app?vid=b86bd22c-759d-41d6-9ca6-9c56e72a0cc3"},"vehicle_type_id":"4","last_reported":1726193227,"current_range_meters":28800,"station_id":"ce4bgvp2rcd13ifvqct0","pricing_plan_id":"cebpf4jnsgd1na2vs0mg"},{"bike_id":"e3a5129c-bff7-4d01-9368-49c334e7212e","system_id":"levelo_inurba_marseille","lat":43.29447,"lon":5.39735,"is_reserved":false,"is_disabled":false,"rental_uris":{"android":"levelo://app?vid=e3a5129c-bff7-4d01-9368-49c334e7212e","ios":"levelo://app?vid=e3a5129c-bff7-4d01-9368-49c334e7212e"},"vehicle_type_id":"4","last_reported":1726193227,"current_range_meters":39200,"station_id":"ce4bh3h2rcd13ifvqdo0","pricing_plan_id":"cebpf4jnsgd1na2vs0mg"},{"bike_id":"6a81ada9-c4f5-4d4c-acd0-9aa1a1ab1123","system_id":"levelo_inurba_marseille","lat":43.28038,"lon":5.40628,"is_reserved":false,"is_disabled":false,"rental_uris":{"android":"levelo://app?vid=6a81ada9-c4f5-4d4c-acd0-9aa1a1ab1123","ios":"levelo://app?vid=6a81ada9-c4f5-4d4c-acd0-9aa1a1ab1123"},"vehicle_type_id":"4","last_reported":1726193227,"current_range_meters":27600,"station_id":"","pricing_plan_id":"cebpf4jnsgd1na2vs0mg"},{"bike_id":"8e98efbc-337e-43f7-aebb-3708ed1326a7","system_id":"levelo_inurba_marseille","lat":43.28412,"lon":5.37511,"is_reserved":false,"is_disabled":false,"rental_uris":{"android":"levelo://app?vid=8e98efbc-337e-43f7-aebb-3708ed1326a7","ios":"levelo://app?vid=8e98efbc-337e-43f7-aebb-3708ed1326a7"},"vehicle_type_id":"4","last_reported":1726193227,"current_range_meters":24000,"station_id":"ce4bh412rcd13ifvqds0","pricing_plan_id":"cebpf4jnsgd1na2vs0mg"},{"bike_id":"7a1438cb-49ef-45e0-b4f2-8d8919c254de","system_id":"levelo_inurba_marseille","lat":43.30936,"lon":5.40146,"is_reserved":false,"is_disabled":false,"rental_uris":{"android":"levelo://app?vid=7a1438cb-49ef-45e0-b4f2-8d8919c254de","ios":"levelo://app?vid=7a1438cb-49ef-45e0-b4f2-8d8919c254de"},"vehicle_type_id":"4","last_reported":1726193227,"current_range_meters":38800,"station_id":"ce4bgvp2rcd13ifvqct0","pricing_plan_id":"cebpf4jnsgd1na2vs0mg"},{"bike_id":"af86506f-f8fe-4c34-9939-464ebed8523b","system_id":"levelo_inurba_marseille","lat":43.31766,"lon":5.39008,"is_reserved":false,"is_disabled":false,"rental_uris":{"android":"levelo://app?vid=af86506f-f8fe-4c34-9939-464ebed8523b","ios":"levelo://app?vid=af86506f-f8fe-4c34-9939-464ebed8523b"},"vehicle_type_id":"4","last_reported":1726193227,"current_range_meters":39200,"station_id":"ce4bhqp2rcd13ifvqhng","pricing_plan_id":"cebpf4jnsgd1na2vs0mg"},{"bike_id":"4067cf6c-6e3d-4ac9-99bf-c1b92b69f736","system_id":"levelo_inurba_marseille","lat":43.32487,"lon":5.3657,"is_reserved":false,"is_disabled":false,"rental_uris":{"android":"levelo://app?vid=4067cf6c-6e3d-4ac9-99bf-c1b92b69f736","ios":"levelo://app?vid=4067cf6c-6e3d-4ac9-99bf-c1b92b69f736"},"vehicle_type_id":"4","last_reported":1726193227,"current_range_meters":26800,"station_id":"ce4bhs12rcd13ifvqhvg","pricing_plan_id":"cebpf4jnsgd1na2vs0mg"},{"bike_id":"9a294201-177a-42e2-b4e6-ec74738f7951","system_id":"levelo_inurba_marseille","lat":43.26978,"lon":5.38643,"is_reserved":false,"is_disabled":false,"rental_uris":{"android":"levelo://app?vid=9a294201-177a-42e2-b4e6-ec74738f7951","ios":"levelo://app?vid=9a294201-177a-42e2-b4e6-ec74738f7951"},"vehicle_type_id":"4","last_reported":1726193227,"current_range_meters":36400,"station_id":"ce4bhh92rcd13ifvqfh0","pricing_plan_id":"cebpf4jnsgd1na2vs0mg"},{"bike_id":"a56a518f-3b53-4516-b00b-92bad70ba80b","system_id":"levelo_inurba_marseille","lat":43.32008,"lon":5.38142,"is_reserved":false,"is_disabled":false,"rental_uris":{"android":"levelo://app?vid=a56a518f-3b53-4516-b00b-92bad70ba80b","ios":"levelo://app?vid=a56a518f-3b53-4516-b00b-92bad70ba80b"},"vehicle_type_id":"4","last_reported":1726193227,"current_range_meters":28800,"station_id":"ce4bhr12rcd13ifvqhpg","pricing_plan_id":"cebpf4jnsgd1na2vs0mg"},{"bike_id":"b4690210-bc85-4d1c-b4b2-bd188e8e13d0","system_id":"levelo_inurba_marseille","lat":43.30784,"lon":5.37649,"is_reserved":false,"is_disabled":false,"rental_uris":{"android":"levelo://app?vid=b4690210-bc85-4d1c-b4b2-bd188e8e13d0","ios":"levelo://app?vid=b4690210-bc85-4d1c-b4b2-bd188e8e13d0"},"vehicle_type_id":"4","last_reported":1726193227,"current_range_meters":5600,"station_id":"ce4bgv92rcd13ifvqcq0","pricing_plan_id":"cebpf4jnsgd1na2vs0mg"},{"bike_id":"61e8a5b6-8054-40c4-ab1f-3b9097325133","system_id":"levelo_inurba_marseille","lat":43.31354,"lon":5.36717,"is_reserved":false,"is_disabled":false,"rental_uris":{"android":"levelo://app?vid=61e8a5b6-8054-40c4-ab1f-3b9097325133","ios":"levelo://app?vid=61e8a5b6-8054-40c4-ab1f-3b9097325133"},"vehicle_type_id":"4","last_reported":1726193227,"current_range_meters":25600,"station_id":"ce4bgr92rcd13ifvqc6g","pricing_plan_id":"cebpf4jnsgd1na2vs0mg"},{"bike_id":"02388115-3e7a-485f-9e4c-ab36cd10850f","system_id":"levelo_inurba_marseille","lat":43.28667,"lon":5.3634,"is_reserved":false,"is_disabled":false,"rental_uris":{"android":"levelo://app?vid=02388115-3e7a-485f-9e4c-ab36cd10850f","ios":"levelo://app?vid=02388115-3e7a-485f-9e4c-ab36cd10850f"},"vehicle_type_id":"4","last_reported":1726193227,"current_range_meters":38800,"station_id":"ce4bhah2rcd13ifvqej0","pricing_plan_id":"cebpf4jnsgd1na2vs0mg"},{"bike_id":"eaf3218e-3b2a-4dde-9c15-99a6c4254e56","system_id":"levelo_inurba_marseille","lat":43.29899,"lon":5.43677,"is_reserved":false,"is_disabled":false,"rental_uris":{"android":"levelo://app?vid=eaf3218e-3b2a-4dde-9c15-99a6c4254e56","ios":"levelo://app?vid=eaf3218e-3b2a-4dde-9c15-99a6c4254e56"},"vehicle_type_id":"4","last_reported":1726193227,"current_range_meters":38800,"station_id":"ce4bhpp2rcd13ifvqhfg","pricing_plan_id":"cebpf4jnsgd1na2vs0mg"},{"bike_id":"e457aa6e-9797-4725-bcb7-f770893e3247","system_id":"levelo_inurba_marseille","lat":43.32338,"lon":5.40618,"is_reserved":false,"is_disabled":false,"rental_uris":{"android":"levelo://app?vid=e457aa6e-9797-4725-bcb7-f770893e3247","ios":"levelo://app?vid=e457aa6e-9797-4725-bcb7-f770893e3247"},"vehicle_type_id":"4","last_reported":1726193227,"current_range_meters":38800,"station_id":"ce4bhq92rcd13ifvqhjg","pricing_plan_id":"cebpf4jnsgd1na2vs0mg"},{"bike_id":"6dc61bc8-d116-48eb-9e67-e391b2782c40","system_id":"levelo_inurba_marseille","lat":43.31123,"lon":5.37765,"is_reserved":false,"is_disabled":false,"rental_uris":{"android":"levelo://app?vid=6dc61bc8-d116-48eb-9e67-e391b2782c40","ios":"levelo://app?vid=6dc61bc8-d116-48eb-9e67-e391b2782c40"},"vehicle_type_id":"4","last_reported":1726193227,"current_range_meters":16800,"station_id":"ce4bgt92rcd13ifvqcg0","pricing_plan_id":"cebpf4jnsgd1na2vs0mg"},{"bike_id":"cecface1-56d7-4ab5-8598-175ab47731bd","system_id":"levelo_inurba_marseille","lat":43.2963,"lon":5.40563,"is_reserved":false,"is_disabled":false,"rental_uris":{"android":"levelo://app?vid=cecface1-56d7-4ab5-8598-175ab47731bd","ios":"levelo://app?vid=cecface1-56d7-4ab5-8598-175ab47731bd"},"vehicle_type_id":"4","last_reported":1726193227,"current_range_meters":39200,"station_id":"ce4bh0h2rcd13ifvqd60","pricing_plan_id":"cebpf4jnsgd1na2vs0mg"},{"bike_id":"baa68333-5ce5-4d97-9d8d-15e7b1289bc4","system_id":"levelo_inurba_marseille","lat":43.2841,"lon":5.37508,"is_reserved":false,"is_disabled":false,"rental_uris":{"android":"levelo://app?vid=baa68333-5ce5-4d97-9d8d-15e7b1289bc4","ios":"levelo://app?vid=baa68333-5ce5-4d97-9d8d-15e7b1289bc4"},"vehicle_type_id":"4","last_reported":1726193227,"current_range_meters":23200,"station_id":"ce4bh412rcd13ifvqds0","pricing_plan_id":"cebpf4jnsgd1na2vs0mg"},{"bike_id":"e1a7639c-7174-475c-ad2b-19afe11370ad","system_id":"levelo_inurba_marseille","lat":43.3093,"lon":5.40152,"is_reserved":false,"is_disabled":false,"rental_uris":{"android":"levelo://app?vid=e1a7639c-7174-475c-ad2b-19afe11370ad","ios":"levelo://app?vid=e1a7639c-7174-475c-ad2b-19afe11370ad"},"vehicle_type_id":"4","last_reported":1726193227,"current_range_meters":23200,"station_id":"ce4bgvp2rcd13ifvqct0","pricing_plan_id":"cebpf4jnsgd1na2vs0mg"},{"bike_id":"ed2556c2-3ae8-4cd9-96da-9d8dfef2b271","system_id":"levelo_inurba_marseille","lat":43.2792,"lon":5.39587,"is_reserved":false,"is_disabled":false,"rental_uris":{"android":"levelo://app?vid=ed2556c2-3ae8-4cd9-96da-9d8dfef2b271","ios":"levelo://app?vid=ed2556c2-3ae8-4cd9-96da-9d8dfef2b271"},"vehicle_type_id":"4","last_reported":1726193227,"current_range_meters":24000,"station_id":"ce4bhf92rcd13ifvqf40","pricing_plan_id":"cebpf4jnsgd1na2vs0mg"},{"bike_id":"87b219c7-53b2-489b-ab75-6437c2c897da","system_id":"levelo_inurba_marseille","lat":43.2846,"lon":5.35877,"is_reserved":false,"is_disabled":false,"rental_uris":{"android":"levelo://app?vid=87b219c7-53b2-489b-ab75-6437c2c897da","ios":"levelo://app?vid=87b219c7-53b2-489b-ab75-6437c2c897da"},"vehicle_type_id":"4","last_reported":1726193227,"current_range_meters":38400,"station_id":"ce4bhah2rcd13ifvqei0","pricing_plan_id":"cebpf4jnsgd1na2vs0mg"},{"bike_id":"46cf5587-ec03-47b0-9a29-cf537021b470","system_id":"levelo_inurba_marseille","lat":43.32324,"lon":5.38886,"is_reserved":false,"is_disabled":false,"rental_uris":{"android":"levelo://app?vid=46cf5587-ec03-47b0-9a29-cf537021b470","ios":"levelo://app?vid=46cf5587-ec03-47b0-9a29-cf537021b470"},"vehicle_type_id":"4","last_reported":1726193227,"current_range_meters":18000,"station_id":"ce4bhqp2rcd13ifvqhog","pricing_plan_id":"cebpf4jnsgd1na2vs0mg"},{"bike_id":"8a2cc269-df03-483d-8cae-4e5c81d88fc8","system_id":"levelo_inurba_marseille","lat":43.28719,"lon":5.3999,"is_reserved":false,"is_disabled":false,"rental_uris":{"android":"levelo://app?vid=8a2cc269-df03-483d-8cae-4e5c81d88fc8","ios":"levelo://app?vid=8a2cc269-df03-483d-8cae-4e5c81d88fc8"},"vehicle_type_id":"4","last_reported":1726193227,"current_range_meters":39200,"station_id":"ce4bho92rcd13ifvqh3g","pricing_plan_id":"cebpf4jnsgd1na2vs0mg"},{"bike_id":"8764129a-9b8d-4490-a1c9-f9fa60b4a560","system_id":"levelo_inurba_marseille","lat":43.33606,"lon":5.4103,"is_reserved":false,"is_disabled":false,"rental_uris":{"android":"levelo://app?vid=8764129a-9b8d-4490-a1c9-f9fa60b4a560","ios":"levelo://app?vid=8764129a-9b8d-4490-a1c9-f9fa60b4a560"},"vehicle_type_id":"4","last_reported":1726193227,"current_range_meters":38800,"station_id":"ce4bhqh2rcd13ifvqhmg","pricing_plan_id":"cebpf4jnsgd1na2vs0mg"},{"bike_id":"cdb7f7b4-ad89-4f18-9858-49d0e878e14f","system_id":"levelo_inurba_marseille","lat":43.3254,"lon":5.4142,"is_reserved":false,"is_disabled":false,"rental_uris":{"android":"levelo://app?vid=cdb7f7b4-ad89-4f18-9858-49d0e878e14f","ios":"levelo://app?vid=cdb7f7b4-ad89-4f18-9858-49d0e878e14f"},"vehicle_type_id":"4","last_reported":1726193227,"current_range_meters":38800,"station_id":"ce4bhq12rcd13ifvqhhg","pricing_plan_id":"cebpf4jnsgd1na2vs0mg"},{"bike_id":"6516f0c6-d4ca-4768-a850-967ced0d59bb","system_id":"levelo_inurba_marseille","lat":43.29807,"lon":5.39351,"is_reserved":false,"is_disabled":false,"rental_uris":{"android":"levelo://app?vid=6516f0c6-d4ca-4768-a850-967ced0d59bb","ios":"levelo://app?vid=6516f0c6-d4ca-4768-a850-967ced0d59bb"},"vehicle_type_id":"4","last_reported":1726193227,"current_range_meters":38000,"station_id":"chh1huq6cuj3fo74tm60","pricing_plan_id":"cebpf4jnsgd1na2vs0mg"},{"bike_id":"96cb29cb-8da1-4dd6-bd35-ee190827a973","system_id":"levelo_inurba_marseille","lat":43.26562,"lon":5.3728,"is_reserved":false,"is_disabled":false,"rental_uris":{"android":"levelo://app?vid=96cb29cb-8da1-4dd6-bd35-ee190827a973","ios":"levelo://app?vid=96cb29cb-8da1-4dd6-bd35-ee190827a973"},"vehicle_type_id":"4","last_reported":1726193227,"current_range_meters":8000,"station_id":"ce4bhg12rcd13ifvqf70","pricing_plan_id":"cebpf4jnsgd1na2vs0mg"},{"bike_id":"a61c9e04-bce5-4e44-99ea-7dd65bcde295","system_id":"levelo_inurba_marseille","lat":43.29015,"lon":5.35612,"is_reserved":false,"is_disabled":false,"rental_uris":{"android":"levelo://app?vid=a61c9e04-bce5-4e44-99ea-7dd65bcde295","ios":"levelo://app?vid=a61c9e04-bce5-4e44-99ea-7dd65bcde295"},"vehicle_type_id":"4","last_reported":1726193227,"current_range_meters":27600,"station_id":"ce4bhb92rcd13ifvqen0","pricing_plan_id":"cebpf4jnsgd1na2vs0mg"},{"bike_id":"cd75701b-d41a-41fb-929e-c69d8fbf02a7","system_id":"levelo_inurba_marseille","lat":43.23978,"lon":5.36592,"is_reserved":false,"is_disabled":false,"rental_uris":{"android":"levelo://app?vid=cd75701b-d41a-41fb-929e-c69d8fbf02a7","ios":"levelo://app?vid=cd75701b-d41a-41fb-929e-c69d8fbf02a7"},"vehicle_type_id":"4","last_reported":1726193227,"current_range_meters":32000,"station_id":"ce4bhi12rcd13ifvqfp0","pricing_plan_id":"cebpf4jnsgd1na2vs0mg"},{"bike_id":"012e77e7-347d-4ec8-8319-260ab680b165","system_id":"levelo_inurba_marseille","lat":43.28104,"lon":5.37852,"is_reserved":false,"is_disabled":false,"rental_uris":{"android":"levelo://app?vid=012e77e7-347d-4ec8-8319-260ab680b165","ios":"levelo://app?vid=012e77e7-347d-4ec8-8319-260ab680b165"},"vehicle_type_id":"4","last_reported":1726193227,"current_range_meters":32800,"station_id":"ce4bha12rcd13ifvqee0","pricing_plan_id":"cebpf4jnsgd1na2vs0mg"},{"bike_id":"9b49fc06-69dc-4375-9bc8-2ab31283d424","system_id":"levelo_inurba_marseille","lat":43.29896,"lon":5.43612,"is_reserved":false,"is_disabled":false,"rental_uris":{"android":"levelo://app?vid=9b49fc06-69dc-4375-9bc8-2ab31283d424","ios":"levelo://app?vid=9b49fc06-69dc-4375-9bc8-2ab31283d424"},"vehicle_type_id":"4","last_reported":1726193227,"current_range_meters":38400,"station_id":"ce4bhpp2rcd13ifvqhfg","pricing_plan_id":"cebpf4jnsgd1na2vs0mg"},{"bike_id":"7cb88d9c-4fcb-4cf8-989f-12f6d423e8b3","system_id":"levelo_inurba_marseille","lat":43.27077,"lon":5.42279,"is_reserved":false,"is_disabled":false,"rental_uris":{"android":"levelo://app?vid=7cb88d9c-4fcb-4cf8-989f-12f6d423e8b3","ios":"levelo://app?vid=7cb88d9c-4fcb-4cf8-989f-12f6d423e8b3"},"vehicle_type_id":"4","last_reported":1726193227,"current_range_meters":31200,"station_id":"ce4bhk92rcd13ifvqgb0","pricing_plan_id":"cebpf4jnsgd1na2vs0mg"},{"bike_id":"7db469f7-00ee-4f1e-bfd6-dc16f3769316","system_id":"levelo_inurba_marseille","lat":43.23146,"lon":5.43706,"is_reserved":false,"is_disabled":false,"rental_uris":{"android":"levelo://app?vid=7db469f7-00ee-4f1e-bfd6-dc16f3769316","ios":"levelo://app?vid=7db469f7-00ee-4f1e-bfd6-dc16f3769316"},"vehicle_type_id":"4","last_reported":1726193227,"current_range_meters":25200,"station_id":"ce4bhmp2rcd13ifvqgog","pricing_plan_id":"cebpf4jnsgd1na2vs0mg"},{"bike_id":"c1297063-d590-4c7e-8f21-712bf962a707","system_id":"levelo_inurba_marseille","lat":43.28478,"lon":5.35882,"is_reserved":false,"is_disabled":false,"rental_uris":{"android":"levelo://app?vid=c1297063-d590-4c7e-8f21-712bf962a707","ios":"levelo://app?vid=c1297063-d590-4c7e-8f21-712bf962a707"},"vehicle_type_id":"4","last_reported":1726193227,"current_range_meters":40000,"station_id":"ce4bhah2rcd13ifvqei0","pricing_plan_id":"cebpf4jnsgd1na2vs0mg"},{"bike_id":"2a5b8669-a39c-418c-95de-04ed7a3b697d","system_id":"levelo_inurba_marseille","lat":43.28105,"lon":5.37837,"is_reserved":false,"is_disabled":false,"rental_uris":{"android":"levelo://app?vid=2a5b8669-a39c-418c-95de-04ed7a3b697d","ios":"levelo://app?vid=2a5b8669-a39c-418c-95de-04ed7a3b697d"},"vehicle_type_id":"4","last_reported":1726193227,"current_range_meters":38800,"station_id":"ce4bha12rcd13ifvqee0","pricing_plan_id":"cebpf4jnsgd1na2vs0mg"},{"bike_id":"a4d83130-ceaa-410a-a0cc-b37eaa1b4e62","system_id":"levelo_inurba_marseille","lat":43.23199,"lon":5.39982,"is_reserved":false,"is_disabled":false,"rental_uris":{"android":"levelo://app?vid=a4d83130-ceaa-410a-a0cc-b37eaa1b4e62","ios":"levelo://app?vid=a4d83130-ceaa-410a-a0cc-b37eaa1b4e62"},"vehicle_type_id":"4","last_reported":1726193227,"current_range_meters":27200,"station_id":"ce4bhn12rcd13ifvqgqg","pricing_plan_id":"cebpf4jnsgd1na2vs0mg"},{"bike_id":"a9537a4b-a7c4-46fd-ac30-52f5354b0ad6","system_id":"levelo_inurba_marseille","lat":43.31735,"lon":5.4041,"is_reserved":false,"is_disabled":false,"rental_uris":{"android":"levelo://app?vid=a9537a4b-a7c4-46fd-ac30-52f5354b0ad6","ios":"levelo://app?vid=a9537a4b-a7c4-46fd-ac30-52f5354b0ad6"},"vehicle_type_id":"4","last_reported":1726193227,"current_range_meters":38000,"station_id":"ce4bh012rcd13ifvqd00","pricing_plan_id":"cebpf4jnsgd1na2vs0mg"},{"bike_id":"98c41a42-a764-442b-bc30-ebd49030c355","system_id":"levelo_inurba_marseille","lat":43.28471,"lon":5.3588,"is_reserved":false,"is_disabled":false,"rental_uris":{"android":"levelo://app?vid=98c41a42-a764-442b-bc30-ebd49030c355","ios":"levelo://app?vid=98c41a42-a764-442b-bc30-ebd49030c355"},"vehicle_type_id":"4","last_reported":1726193227,"current_range_meters":35200,"station_id":"ce4bhah2rcd13ifvqei0","pricing_plan_id":"cebpf4jnsgd1na2vs0mg"},{"bike_id":"d60c1bbd-cf31-4e27-a0d2-a8f58c6e7cd3","system_id":"levelo_inurba_marseille","lat":43.27944,"lon":5.3958,"is_reserved":false,"is_disabled":false,"rental_uris":{"android":"levelo://app?vid=d60c1bbd-cf31-4e27-a0d2-a8f58c6e7cd3","ios":"levelo://app?vid=d60c1bbd-cf31-4e27-a0d2-a8f58c6e7cd3"},"vehicle_type_id":"4","last_reported":1726193227,"current_range_meters":36400,"station_id":"ce4bhf92rcd13ifvqf40","pricing_plan_id":"cebpf4jnsgd1na2vs0mg"},{"bike_id":"4d128cdd-31dd-4351-924e-8767472eb71e","system_id":"levelo_inurba_marseille","lat":43.30318,"lon":5.40439,"is_reserved":false,"is_disabled":false,"rental_uris":{"android":"levelo://app?vid=4d128cdd-31dd-4351-924e-8767472eb71e","ios":"levelo://app?vid=4d128cdd-31dd-4351-924e-8767472eb71e"},"vehicle_type_id":"4","last_reported":1726193227,"current_range_meters":38000,"station_id":"ce4bh012rcd13ifvqd10","pricing_plan_id":"cebpf4jnsgd1na2vs0mg"},{"bike_id":"eb01f971-c89c-4dfc-9a31-66ce9efd20ca","system_id":"levelo_inurba_marseille","lat":43.27199,"lon":5.40997,"is_reserved":false,"is_disabled":false,"rental_uris":{"android":"levelo://app?vid=eb01f971-c89c-4dfc-9a31-66ce9efd20ca","ios":"levelo://app?vid=eb01f971-c89c-4dfc-9a31-66ce9efd20ca"},"vehicle_type_id":"4","last_reported":1726193227,"current_range_meters":39200,"station_id":"ce4bhl12rcd13ifvqgf0","pricing_plan_id":"cebpf4jnsgd1na2vs0mg"},{"bike_id":"cac78a6e-a1e0-4f97-9b48-10fba0a2004d","system_id":"levelo_inurba_marseille","lat":43.23208,"lon":5.35549,"is_reserved":false,"is_disabled":false,"rental_uris":{"android":"levelo://app?vid=cac78a6e-a1e0-4f97-9b48-10fba0a2004d","ios":"levelo://app?vid=cac78a6e-a1e0-4f97-9b48-10fba0a2004d"},"vehicle_type_id":"4","last_reported":1726193227,"current_range_meters":3600,"station_id":"ce4bhu92rcd13ifvqi70","pricing_plan_id":"cebpf4jnsgd1na2vs0mg"},{"bike_id":"64fb79f9-6111-4358-8c55-8553d51d9562","system_id":"levelo_inurba_marseille","lat":43.28954,"lon":5.38921,"is_reserved":false,"is_disabled":false,"rental_uris":{"android":"levelo://app?vid=64fb79f9-6111-4358-8c55-8553d51d9562","ios":"levelo://app?vid=64fb79f9-6111-4358-8c55-8553d51d9562"},"vehicle_type_id":"4","last_reported":1726193227,"current_range_meters":7200,"station_id":"","pricing_plan_id":"cebpf4jnsgd1na2vs0mg"},{"bike_id":"b5ba5ac8-678a-41d2-9961-9039434fc335","system_id":"levelo_inurba_marseille","lat":43.26576,"lon":5.39017,"is_reserved":false,"is_disabled":false,"rental_uris":{"android":"levelo://app?vid=b5ba5ac8-678a-41d2-9961-9039434fc335","ios":"levelo://app?vid=b5ba5ac8-678a-41d2-9961-9039434fc335"},"vehicle_type_id":"4","last_reported":1726193227,"current_range_meters":16400,"station_id":"ce4bhe12rcd13ifvqf30","pricing_plan_id":"cebpf4jnsgd1na2vs0mg"},{"bike_id":"861a336d-0e09-4cc7-8925-1f7d3461fcaa","system_id":"levelo_inurba_marseille","lat":43.23973,"lon":5.3661,"is_reserved":false,"is_disabled":false,"rental_uris":{"android":"levelo://app?vid=861a336d-0e09-4cc7-8925-1f7d3461fcaa","ios":"levelo://app?vid=861a336d-0e09-4cc7-8925-1f7d3461fcaa"},"vehicle_type_id":"4","last_reported":1726193227,"current_range_meters":13600,"station_id":"ce4bhi12rcd13ifvqfp0","pricing_plan_id":"cebpf4jnsgd1na2vs0mg"},{"bike_id":"72b517d2-6987-46d8-857e-779bc7604f01","system_id":"levelo_inurba_marseille","lat":43.26027,"lon":5.37559,"is_reserved":false,"is_disabled":false,"rental_uris":{"android":"levelo://app?vid=72b517d2-6987-46d8-857e-779bc7604f01","ios":"levelo://app?vid=72b517d2-6987-46d8-857e-779bc7604f01"},"vehicle_type_id":"4","last_reported":1726193227,"current_range_meters":22400,"station_id":"ce4bhgh2rcd13ifvqfa0","pricing_plan_id":"cebpf4jnsgd1na2vs0mg"},{"bike_id":"53d2bf3d-4905-49f9-89c4-324506aca78e","system_id":"levelo_inurba_marseille","lat":43.31867,"lon":5.40936,"is_reserved":false,"is_disabled":false,"rental_uris":{"android":"levelo://app?vid=53d2bf3d-4905-49f9-89c4-324506aca78e","ios":"levelo://app?vid=53d2bf3d-4905-49f9-89c4-324506aca78e"},"vehicle_type_id":"4","last_reported":1726193227,"current_range_meters":19600,"station_id":"","pricing_plan_id":"cebpf4jnsgd1na2vs0mg"},{"bike_id":"a2cd8b1a-5149-423f-b006-3a9bf1a7a464","system_id":"levelo_inurba_marseille","lat":43.27484,"lon":5.42445,"is_reserved":false,"is_disabled":false,"rental_uris":{"android":"levelo://app?vid=a2cd8b1a-5149-423f-b006-3a9bf1a7a464","ios":"levelo://app?vid=a2cd8b1a-5149-423f-b006-3a9bf1a7a464"},"vehicle_type_id":"4","last_reported":1726193227,"current_range_meters":17200,"station_id":"ce4bhn92rcd13ifvqgrg","pricing_plan_id":"cebpf4jnsgd1na2vs0mg"},{"bike_id":"34657d35-d936-4f69-90d2-9138dbc7b9fc","system_id":"levelo_inurba_marseille","lat":43.31185,"lon":5.38736,"is_reserved":false,"is_disabled":false,"rental_uris":{"android":"levelo://app?vid=34657d35-d936-4f69-90d2-9138dbc7b9fc","ios":"levelo://app?vid=34657d35-d936-4f69-90d2-9138dbc7b9fc"},"vehicle_type_id":"4","last_reported":1726193227,"current_range_meters":35600,"station_id":"ce4bgv12rcd13ifvqcp0","pricing_plan_id":"cebpf4jnsgd1na2vs0mg"},{"bike_id":"2c4577b3-3689-495e-a3c3-a78eafd4dc43","system_id":"levelo_inurba_marseille","lat":43.2656,"lon":5.37288,"is_reserved":false,"is_disabled":false,"rental_uris":{"android":"levelo://app?vid=2c4577b3-3689-495e-a3c3-a78eafd4dc43","ios":"levelo://app?vid=2c4577b3-3689-495e-a3c3-a78eafd4dc43"},"vehicle_type_id":"4","last_reported":1726193227,"current_range_meters":28800,"station_id":"ce4bhg12rcd13ifvqf70","pricing_plan_id":"cebpf4jnsgd1na2vs0mg"},{"bike_id":"b987e281-6572-47ee-8fda-d36a70a015e1","system_id":"levelo_inurba_marseille","lat":43.28099,"lon":5.37803,"is_reserved":false,"is_disabled":false,"rental_uris":{"android":"levelo://app?vid=b987e281-6572-47ee-8fda-d36a70a015e1","ios":"levelo://app?vid=b987e281-6572-47ee-8fda-d36a70a015e1"},"vehicle_type_id":"4","last_reported":1726193227,"current_range_meters":24000,"station_id":"ce4bha12rcd13ifvqee0","pricing_plan_id":"cebpf4jnsgd1na2vs0mg"},{"bike_id":"6c9ac6be-0029-4a2d-bb72-5c51035bba42","system_id":"levelo_inurba_marseille","lat":43.33601,"lon":5.40999,"is_reserved":false,"is_disabled":false,"rental_uris":{"android":"levelo://app?vid=6c9ac6be-0029-4a2d-bb72-5c51035bba42","ios":"levelo://app?vid=6c9ac6be-0029-4a2d-bb72-5c51035bba42"},"vehicle_type_id":"4","last_reported":1726193227,"current_range_meters":39200,"station_id":"ce4bhqh2rcd13ifvqhmg","pricing_plan_id":"cebpf4jnsgd1na2vs0mg"},{"bike_id":"2e91ac7c-e3fb-4812-b907-502ae86e71ac","system_id":"levelo_inurba_marseille","lat":43.29288,"lon":5.40115,"is_reserved":false,"is_disabled":false,"rental_uris":{"android":"levelo://app?vid=2e91ac7c-e3fb-4812-b907-502ae86e71ac","ios":"levelo://app?vid=2e91ac7c-e3fb-4812-b907-502ae86e71ac"},"vehicle_type_id":"4","last_reported":1726193227,"current_range_meters":24000,"station_id":"ce4bh312rcd13ifvqdk0","pricing_plan_id":"cebpf4jnsgd1na2vs0mg"},{"bike_id":"a7a63bcc-485a-458b-bd7a-820f59d6b41a","system_id":"levelo_inurba_marseille","lat":43.2508,"lon":5.39509,"is_reserved":false,"is_disabled":false,"rental_uris":{"android":"levelo://app?vid=a7a63bcc-485a-458b-bd7a-820f59d6b41a","ios":"levelo://app?vid=a7a63bcc-485a-458b-bd7a-820f59d6b41a"},"vehicle_type_id":"4","last_reported":1726193227,"current_range_meters":38400,"station_id":"ce4bhm12rcd13ifvqgkg","pricing_plan_id":"cebpf4jnsgd1na2vs0mg"},{"bike_id":"7dea9175-0fb5-4d49-ac6e-d13b7c47ac00","system_id":"levelo_inurba_marseille","lat":43.25716,"lon":5.4111,"is_reserved":false,"is_disabled":false,"rental_uris":{"android":"levelo://app?vid=7dea9175-0fb5-4d49-ac6e-d13b7c47ac00","ios":"levelo://app?vid=7dea9175-0fb5-4d49-ac6e-d13b7c47ac00"},"vehicle_type_id":"4","last_reported":1726193227,"current_range_meters":38800,"station_id":"ce4bhkp2rcd13ifvqgd0","pricing_plan_id":"cebpf4jnsgd1na2vs0mg"},{"bike_id":"60d5bda9-f640-405a-935d-62d1314e50fa","system_id":"levelo_inurba_marseille","lat":43.23965,"lon":5.36631,"is_reserved":false,"is_disabled":false,"rental_uris":{"android":"levelo://app?vid=60d5bda9-f640-405a-935d-62d1314e50fa","ios":"levelo://app?vid=60d5bda9-f640-405a-935d-62d1314e50fa"},"vehicle_type_id":"4","last_reported":1726193227,"current_range_meters":27200,"station_id":"ce4bhi12rcd13ifvqfp0","pricing_plan_id":"cebpf4jnsgd1na2vs0mg"},{"bike_id":"33f03670-cf2a-43f9-bafe-26c48df8fd80","system_id":"levelo_inurba_marseille","lat":43.31082,"lon":5.42428,"is_reserved":false,"is_disabled":false,"rental_uris":{"android":"levelo://app?vid=33f03670-cf2a-43f9-bafe-26c48df8fd80","ios":"levelo://app?vid=33f03670-cf2a-43f9-bafe-26c48df8fd80"},"vehicle_type_id":"4","last_reported":1726193227,"current_range_meters":37600,"station_id":"ce4bhp92rcd13ifvqhag","pricing_plan_id":"cebpf4jnsgd1na2vs0mg"},{"bike_id":"8761f521-f54e-423f-9730-c275c561095d","system_id":"levelo_inurba_marseille","lat":43.31328,"lon":5.39691,"is_reserved":false,"is_disabled":false,"rental_uris":{"android":"levelo://app?vid=8761f521-f54e-423f-9730-c275c561095d","ios":"levelo://app?vid=8761f521-f54e-423f-9730-c275c561095d"},"vehicle_type_id":"4","last_reported":1726193227,"current_range_meters":12800,"station_id":"ce4bgvp2rcd13ifvqcu0","pricing_plan_id":"cebpf4jnsgd1na2vs0mg"},{"bike_id":"1f0d280d-cb62-4cf3-9345-e479b5302a1c","system_id":"levelo_inurba_marseille","lat":43.2559,"lon":5.38234,"is_reserved":false,"is_disabled":false,"rental_uris":{"android":"levelo://app?vid=1f0d280d-cb62-4cf3-9345-e479b5302a1c","ios":"levelo://app?vid=1f0d280d-cb62-4cf3-9345-e479b5302a1c"},"vehicle_type_id":"4","last_reported":1726193227,"current_range_meters":27200,"station_id":"ce4bhih2rcd13ifvqfs0","pricing_plan_id":"cebpf4jnsgd1na2vs0mg"},{"bike_id":"c72cbb62-8dc8-4a27-b44a-e8c598b6cb4c","system_id":"levelo_inurba_marseille","lat":43.30816,"lon":5.38158,"is_reserved":false,"is_disabled":false,"rental_uris":{"android":"levelo://app?vid=c72cbb62-8dc8-4a27-b44a-e8c598b6cb4c","ios":"levelo://app?vid=c72cbb62-8dc8-4a27-b44a-e8c598b6cb4c"},"vehicle_type_id":"4","last_reported":1726193227,"current_range_meters":12400,"station_id":"ce4bgt12rcd13ifvqce0","pricing_plan_id":"cebpf4jnsgd1na2vs0mg"},{"bike_id":"423a4cab-8a31-4718-8b7a-239bcdca67af","system_id":"levelo_inurba_marseille","lat":43.24165,"lon":5.39709,"is_reserved":false,"is_disabled":false,"rental_uris":{"android":"levelo://app?vid=423a4cab-8a31-4718-8b7a-239bcdca67af","ios":"levelo://app?vid=423a4cab-8a31-4718-8b7a-239bcdca67af"},"vehicle_type_id":"4","last_reported":1726193227,"current_range_meters":37600,"station_id":"ce4bhn12rcd13ifvqgpg","pricing_plan_id":"cebpf4jnsgd1na2vs0mg"},{"bike_id":"4af96f25-5d74-4f82-9179-84b24532d482","system_id":"levelo_inurba_marseille","lat":43.29101,"lon":5.3816,"is_reserved":false,"is_disabled":false,"rental_uris":{"android":"levelo://app?vid=4af96f25-5d74-4f82-9179-84b24532d482","ios":"levelo://app?vid=4af96f25-5d74-4f82-9179-84b24532d482"},"vehicle_type_id":"4","last_reported":1726193227,"current_range_meters":38800,"station_id":"ce4bh512rcd13ifvqe2g","pricing_plan_id":"cebpf4jnsgd1na2vs0mg"},{"bike_id":"9163cc20-d457-4a59-bb69-e012a5ecf5a9","system_id":"levelo_inurba_marseille","lat":43.2846,"lon":5.35883,"is_reserved":false,"is_disabled":false,"rental_uris":{"android":"levelo://app?vid=9163cc20-d457-4a59-bb69-e012a5ecf5a9","ios":"levelo://app?vid=9163cc20-d457-4a59-bb69-e012a5ecf5a9"},"vehicle_type_id":"4","last_reported":1726193227,"current_range_meters":37600,"station_id":"ce4bhah2rcd13ifvqei0","pricing_plan_id":"cebpf4jnsgd1na2vs0mg"},{"bike_id":"7d9e718d-8ff6-4fb2-bd50-448d074a86d8","system_id":"levelo_inurba_marseille","lat":43.24801,"lon":5.37449,"is_reserved":false,"is_disabled":false,"rental_uris":{"android":"levelo://app?vid=7d9e718d-8ff6-4fb2-bd50-448d074a86d8","ios":"levelo://app?vid=7d9e718d-8ff6-4fb2-bd50-448d074a86d8"},"vehicle_type_id":"4","last_reported":1726193227,"current_range_meters":17200,"station_id":"ce4bhgh2rcd13ifvqfb0","pricing_plan_id":"cebpf4jnsgd1na2vs0mg"},{"bike_id":"4c7b72ff-b5a4-413b-91fa-e1ac3cf6ee63","system_id":"levelo_inurba_marseille","lat":43.28974,"lon":5.36377,"is_reserved":false,"is_disabled":false,"rental_uris":{"android":"levelo://app?vid=4c7b72ff-b5a4-413b-91fa-e1ac3cf6ee63","ios":"levelo://app?vid=4c7b72ff-b5a4-413b-91fa-e1ac3cf6ee63"},"vehicle_type_id":"4","last_reported":1726193227,"current_range_meters":38400,"station_id":"ce4bhc92rcd13ifvqetg","pricing_plan_id":"cebpf4jnsgd1na2vs0mg"},{"bike_id":"8bc2c575-8c93-44ca-8843-580bc3c1fb9a","system_id":"levelo_inurba_marseille","lat":43.30943,"lon":5.40156,"is_reserved":false,"is_disabled":false,"rental_uris":{"android":"levelo://app?vid=8bc2c575-8c93-44ca-8843-580bc3c1fb9a","ios":"levelo://app?vid=8bc2c575-8c93-44ca-8843-580bc3c1fb9a"},"vehicle_type_id":"4","last_reported":1726193227,"current_range_meters":24000,"station_id":"ce4bgvp2rcd13ifvqct0","pricing_plan_id":"cebpf4jnsgd1na2vs0mg"},{"bike_id":"5174d76d-7c6b-41e9-aceb-a48450e5301e","system_id":"levelo_inurba_marseille","lat":43.2695,"lon":5.40247,"is_reserved":false,"is_disabled":false,"rental_uris":{"android":"levelo://app?vid=5174d76d-7c6b-41e9-aceb-a48450e5301e","ios":"levelo://app?vid=5174d76d-7c6b-41e9-aceb-a48450e5301e"},"vehicle_type_id":"4","last_reported":1726193227,"current_range_meters":38800,"station_id":"cjm6bp8fraef2m0cb0m0","pricing_plan_id":"cebpf4jnsgd1na2vs0mg"},{"bike_id":"0f5d1e4e-5cdd-41aa-9f16-247b92ec8386","system_id":"levelo_inurba_marseille","lat":43.29956,"lon":5.4133,"is_reserved":false,"is_disabled":false,"rental_uris":{"android":"levelo://app?vid=0f5d1e4e-5cdd-41aa-9f16-247b92ec8386","ios":"levelo://app?vid=0f5d1e4e-5cdd-41aa-9f16-247b92ec8386"},"vehicle_type_id":"4","last_reported":1726193227,"current_range_meters":38800,"station_id":"ce4bhp12rcd13ifvqh9g","pricing_plan_id":"cebpf4jnsgd1na2vs0mg"},{"bike_id":"11404ee4-c057-4144-a2de-c8dc7bcd7a92","system_id":"levelo_inurba_marseille","lat":43.30443,"lon":5.38882,"is_reserved":false,"is_disabled":false,"rental_uris":{"android":"levelo://app?vid=11404ee4-c057-4144-a2de-c8dc7bcd7a92","ios":"levelo://app?vid=11404ee4-c057-4144-a2de-c8dc7bcd7a92"},"vehicle_type_id":"4","last_reported":1726193227,"current_range_meters":32400,"station_id":"ce4bgk12rcd13ifvqbi0","pricing_plan_id":"cebpf4jnsgd1na2vs0mg"},{"bike_id":"d54606db-b8a9-4fd9-8161-d0537b37344e","system_id":"levelo_inurba_marseille","lat":43.31534,"lon":5.38026,"is_reserved":false,"is_disabled":false,"rental_uris":{"android":"levelo://app?vid=d54606db-b8a9-4fd9-8161-d0537b37344e","ios":"levelo://app?vid=d54606db-b8a9-4fd9-8161-d0537b37344e"},"vehicle_type_id":"4","last_reported":1726193227,"current_range_meters":30000,"station_id":"ce4bhsp2rcd13ifvqi50","pricing_plan_id":"cebpf4jnsgd1na2vs0mg"},{"bike_id":"2d9f6a36-1e8d-46ce-8819-b2bb04006d43","system_id":"levelo_inurba_marseille","lat":43.25589,"lon":5.38218,"is_reserved":false,"is_disabled":false,"rental_uris":{"android":"levelo://app?vid=2d9f6a36-1e8d-46ce-8819-b2bb04006d43","ios":"levelo://app?vid=2d9f6a36-1e8d-46ce-8819-b2bb04006d43"},"vehicle_type_id":"4","last_reported":1726193227,"current_range_meters":33200,"station_id":"ce4bhih2rcd13ifvqfs0","pricing_plan_id":"cebpf4jnsgd1na2vs0mg"},{"bike_id":"a23e80f1-de4d-445e-8443-cf95d257caa5","system_id":"levelo_inurba_marseille","lat":43.2846,"lon":5.35888,"is_reserved":false,"is_disabled":false,"rental_uris":{"android":"levelo://app?vid=a23e80f1-de4d-445e-8443-cf95d257caa5","ios":"levelo://app?vid=a23e80f1-de4d-445e-8443-cf95d257caa5"},"vehicle_type_id":"4","last_reported":1726193227,"current_range_meters":36800,"station_id":"ce4bhah2rcd13ifvqei0","pricing_plan_id":"cebpf4jnsgd1na2vs0mg"},{"bike_id":"0a5a12b3-5d22-4e5d-b7e5-ed6a2bf9ffdc","system_id":"levelo_inurba_marseille","lat":43.28861,"lon":5.35847,"is_reserved":false,"is_disabled":false,"rental_uris":{"android":"levelo://app?vid=0a5a12b3-5d22-4e5d-b7e5-ed6a2bf9ffdc","ios":"levelo://app?vid=0a5a12b3-5d22-4e5d-b7e5-ed6a2bf9ffdc"},"vehicle_type_id":"4","last_reported":1726193227,"current_range_meters":40000,"station_id":"ce4bhb12rcd13ifvqem0","pricing_plan_id":"cebpf4jnsgd1na2vs0mg"},{"bike_id":"c39b024e-1649-48fb-802d-6735c6caa472","system_id":"levelo_inurba_marseille","lat":43.31709,"lon":5.37782,"is_reserved":false,"is_disabled":false,"rental_uris":{"android":"levelo://app?vid=c39b024e-1649-48fb-802d-6735c6caa472","ios":"levelo://app?vid=c39b024e-1649-48fb-802d-6735c6caa472"},"vehicle_type_id":"4","last_reported":1726193227,"current_range_meters":36800,"station_id":"ce4bgth2rcd13ifvqch0","pricing_plan_id":"cebpf4jnsgd1na2vs0mg"},{"bike_id":"1e0df5ba-fa4d-4573-807a-e855b81fe691","system_id":"levelo_inurba_marseille","lat":43.23959,"lon":5.36631,"is_reserved":false,"is_disabled":false,"rental_uris":{"android":"levelo://app?vid=1e0df5ba-fa4d-4573-807a-e855b81fe691","ios":"levelo://app?vid=1e0df5ba-fa4d-4573-807a-e855b81fe691"},"vehicle_type_id":"4","last_reported":1726193227,"current_range_meters":36400,"station_id":"ce4bhi12rcd13ifvqfp0","pricing_plan_id":"cebpf4jnsgd1na2vs0mg"},{"bike_id":"e62c8c71-b14f-4c94-8aa4-e0afcaaf93b6","system_id":"levelo_inurba_marseille","lat":43.24817,"lon":5.3746,"is_reserved":false,"is_disabled":false,"rental_uris":{"android":"levelo://app?vid=e62c8c71-b14f-4c94-8aa4-e0afcaaf93b6","ios":"levelo://app?vid=e62c8c71-b14f-4c94-8aa4-e0afcaaf93b6"},"vehicle_type_id":"4","last_reported":1726193227,"current_range_meters":34800,"station_id":"ce4bhgh2rcd13ifvqfb0","pricing_plan_id":"cebpf4jnsgd1na2vs0mg"},{"bike_id":"babcb54a-dbd6-4f0e-8a4b-bcdc546cb001","system_id":"levelo_inurba_marseille","lat":43.27977,"lon":5.3876,"is_reserved":false,"is_disabled":false,"rental_uris":{"android":"levelo://app?vid=babcb54a-dbd6-4f0e-8a4b-bcdc546cb001","ios":"levelo://app?vid=babcb54a-dbd6-4f0e-8a4b-bcdc546cb001"},"vehicle_type_id":"4","last_reported":1726193227,"current_range_meters":24000,"station_id":"ce4bhg12rcd13ifvqf80","pricing_plan_id":"cebpf4jnsgd1na2vs0mg"},{"bike_id":"0da91bc2-cf36-45ee-ab24-fa73b3a7a984","system_id":"levelo_inurba_marseille","lat":43.2911,"lon":5.38144,"is_reserved":false,"is_disabled":false,"rental_uris":{"android":"levelo://app?vid=0da91bc2-cf36-45ee-ab24-fa73b3a7a984","ios":"levelo://app?vid=0da91bc2-cf36-45ee-ab24-fa73b3a7a984"},"vehicle_type_id":"4","last_reported":1726193227,"current_range_meters":38000,"station_id":"ce4bh512rcd13ifvqe2g","pricing_plan_id":"cebpf4jnsgd1na2vs0mg"},{"bike_id":"2d93f995-060e-401b-affd-9b2062ea63fb","system_id":"levelo_inurba_marseille","lat":43.28385,"lon":5.38652,"is_reserved":false,"is_disabled":false,"rental_uris":{"android":"levelo://app?vid=2d93f995-060e-401b-affd-9b2062ea63fb","ios":"levelo://app?vid=2d93f995-060e-401b-affd-9b2062ea63fb"},"vehicle_type_id":"4","last_reported":1726193227,"current_range_meters":18800,"station_id":"ce4bh492rcd13ifvqdvg","pricing_plan_id":"cebpf4jnsgd1na2vs0mg"},{"bike_id":"69b26a0b-db83-4395-8ee1-1e784091ffad","system_id":"levelo_inurba_marseille","lat":43.23156,"lon":5.43707,"is_reserved":false,"is_disabled":false,"rental_uris":{"android":"levelo://app?vid=69b26a0b-db83-4395-8ee1-1e784091ffad","ios":"levelo://app?vid=69b26a0b-db83-4395-8ee1-1e784091ffad"},"vehicle_type_id":"4","last_reported":1726193227,"current_range_meters":8800,"station_id":"ce4bhmp2rcd13ifvqgog","pricing_plan_id":"cebpf4jnsgd1na2vs0mg"},{"bike_id":"768174ed-8e87-4dfb-8f24-a534a0005560","system_id":"levelo_inurba_marseille","lat":43.29007,"lon":5.35613,"is_reserved":false,"is_disabled":false,"rental_uris":{"android":"levelo://app?vid=768174ed-8e87-4dfb-8f24-a534a0005560","ios":"levelo://app?vid=768174ed-8e87-4dfb-8f24-a534a0005560"},"vehicle_type_id":"4","last_reported":1726193227,"current_range_meters":37600,"station_id":"ce4bhb92rcd13ifvqen0","pricing_plan_id":"cebpf4jnsgd1na2vs0mg"},{"bike_id":"8a7e2c73-7464-42af-bfd7-cf056727dff7","system_id":"levelo_inurba_marseille","lat":43.34163,"lon":5.40903,"is_reserved":false,"is_disabled":false,"rental_uris":{"android":"levelo://app?vid=8a7e2c73-7464-42af-bfd7-cf056727dff7","ios":"levelo://app?vid=8a7e2c73-7464-42af-bfd7-cf056727dff7"},"vehicle_type_id":"4","last_reported":1726193227,"current_range_meters":39200,"station_id":"ce4bhqh2rcd13ifvqhlg","pricing_plan_id":"cebpf4jnsgd1na2vs0mg"},{"bike_id":"842384b1-aff1-4c4a-b7d9-f881d6937fbd","system_id":"levelo_inurba_marseille","lat":43.3207,"lon":5.41524,"is_reserved":false,"is_disabled":false,"rental_uris":{"android":"levelo://app?vid=842384b1-aff1-4c4a-b7d9-f881d6937fbd","ios":"levelo://app?vid=842384b1-aff1-4c4a-b7d9-f881d6937fbd"},"vehicle_type_id":"4","last_reported":1726193227,"current_range_meters":3200,"station_id":"ce4bhq92rcd13ifvqhkg","pricing_plan_id":"cebpf4jnsgd1na2vs0mg"},{"bike_id":"59a2b5a9-0f56-40d5-a59c-cb2592419b75","system_id":"levelo_inurba_marseille","lat":43.25595,"lon":5.38238,"is_reserved":false,"is_disabled":false,"rental_uris":{"android":"levelo://app?vid=59a2b5a9-0f56-40d5-a59c-cb2592419b75","ios":"levelo://app?vid=59a2b5a9-0f56-40d5-a59c-cb2592419b75"},"vehicle_type_id":"4","last_reported":1726193227,"current_range_meters":38800,"station_id":"ce4bhih2rcd13ifvqfs0","pricing_plan_id":"cebpf4jnsgd1na2vs0mg"},{"bike_id":"ae427d15-dc5e-4b01-9718-d0b957d1e9d5","system_id":"levelo_inurba_marseille","lat":43.30134,"lon":5.38802,"is_reserved":false,"is_disabled":false,"rental_uris":{"android":"levelo://app?vid=ae427d15-dc5e-4b01-9718-d0b957d1e9d5","ios":"levelo://app?vid=ae427d15-dc5e-4b01-9718-d0b957d1e9d5"},"vehicle_type_id":"4","last_reported":1726193227,"current_range_meters":35200,"station_id":"ce4bghh2rcd13ifvqb60","pricing_plan_id":"cebpf4jnsgd1na2vs0mg"},{"bike_id":"91ce77ce-18ef-47d8-9533-f401393ecd0b","system_id":"levelo_inurba_marseille","lat":43.28604,"lon":5.35132,"is_reserved":false,"is_disabled":false,"rental_uris":{"android":"levelo://app?vid=91ce77ce-18ef-47d8-9533-f401393ecd0b","ios":"levelo://app?vid=91ce77ce-18ef-47d8-9533-f401393ecd0b"},"vehicle_type_id":"4","last_reported":1726193227,"current_range_meters":19600,"station_id":"ce4bhch2rcd13ifvqeug","pricing_plan_id":"cebpf4jnsgd1na2vs0mg"},{"bike_id":"5413942c-8963-4c08-9950-837c72f9eb11","system_id":"levelo_inurba_marseille","lat":43.24062,"lon":5.3774,"is_reserved":false,"is_disabled":false,"rental_uris":{"android":"levelo://app?vid=5413942c-8963-4c08-9950-837c72f9eb11","ios":"levelo://app?vid=5413942c-8963-4c08-9950-837c72f9eb11"},"vehicle_type_id":"4","last_reported":1726193227,"current_range_meters":38800,"station_id":"ce4bhnp2rcd13ifvqgvg","pricing_plan_id":"cebpf4jnsgd1na2vs0mg"},{"bike_id":"40d214a7-3f5c-47db-a6ce-57c2b9914a32","system_id":"levelo_inurba_marseille","lat":43.31326,"lon":5.39692,"is_reserved":false,"is_disabled":false,"rental_uris":{"android":"levelo://app?vid=40d214a7-3f5c-47db-a6ce-57c2b9914a32","ios":"levelo://app?vid=40d214a7-3f5c-47db-a6ce-57c2b9914a32"},"vehicle_type_id":"4","last_reported":1726193227,"current_range_meters":11200,"station_id":"ce4bgvp2rcd13ifvqcu0","pricing_plan_id":"cebpf4jnsgd1na2vs0mg"},{"bike_id":"b6a55e8b-3ff3-46c8-a72a-6c10f7cc2db1","system_id":"levelo_inurba_marseille","lat":43.29979,"lon":5.41308,"is_reserved":false,"is_disabled":false,"rental_uris":{"android":"levelo://app?vid=b6a55e8b-3ff3-46c8-a72a-6c10f7cc2db1","ios":"levelo://app?vid=b6a55e8b-3ff3-46c8-a72a-6c10f7cc2db1"},"vehicle_type_id":"4","last_reported":1726193227,"current_range_meters":40000,"station_id":"ce4bhp12rcd13ifvqh9g","pricing_plan_id":"cebpf4jnsgd1na2vs0mg"},{"bike_id":"6f94ccb4-e5b0-4f7a-90a2-94c6f5d54a44","system_id":"levelo_inurba_marseille","lat":43.28393,"lon":5.38642,"is_reserved":false,"is_disabled":false,"rental_uris":{"android":"levelo://app?vid=6f94ccb4-e5b0-4f7a-90a2-94c6f5d54a44","ios":"levelo://app?vid=6f94ccb4-e5b0-4f7a-90a2-94c6f5d54a44"},"vehicle_type_id":"4","last_reported":1726193227,"current_range_meters":40000,"station_id":"ce4bh492rcd13ifvqdvg","pricing_plan_id":"cebpf4jnsgd1na2vs0mg"},{"bike_id":"d608f0a9-6c51-4c68-be81-d6c79550be85","system_id":"levelo_inurba_marseille","lat":43.31702,"lon":5.43692,"is_reserved":false,"is_disabled":false,"rental_uris":{"android":"levelo://app?vid=d608f0a9-6c51-4c68-be81-d6c79550be85","ios":"levelo://app?vid=d608f0a9-6c51-4c68-be81-d6c79550be85"},"vehicle_type_id":"4","last_reported":1726193227,"current_range_meters":39200,"station_id":"ce4bhp92rcd13ifvqhcg","pricing_plan_id":"cebpf4jnsgd1na2vs0mg"},{"bike_id":"a7225787-a1fe-4f9c-8189-093e4e1002aa","system_id":"levelo_inurba_marseille","lat":43.29007,"lon":5.35624,"is_reserved":false,"is_disabled":false,"rental_uris":{"android":"levelo://app?vid=a7225787-a1fe-4f9c-8189-093e4e1002aa","ios":"levelo://app?vid=a7225787-a1fe-4f9c-8189-093e4e1002aa"},"vehicle_type_id":"4","last_reported":1726193227,"current_range_meters":38800,"station_id":"ce4bhb92rcd13ifvqen0","pricing_plan_id":"cebpf4jnsgd1na2vs0mg"},{"bike_id":"7f99c5ef-5127-486e-b53b-6cc4316e0084","system_id":"levelo_inurba_marseille","lat":43.29454,"lon":5.3972,"is_reserved":false,"is_disabled":false,"rental_uris":{"android":"levelo://app?vid=7f99c5ef-5127-486e-b53b-6cc4316e0084","ios":"levelo://app?vid=7f99c5ef-5127-486e-b53b-6cc4316e0084"},"vehicle_type_id":"4","last_reported":1726193227,"current_range_meters":39200,"station_id":"ce4bh3h2rcd13ifvqdo0","pricing_plan_id":"cebpf4jnsgd1na2vs0mg"},{"bike_id":"ff218519-0c0d-4ef9-b959-3a5d35d21448","system_id":"levelo_inurba_marseille","lat":43.29538,"lon":5.38549,"is_reserved":false,"is_disabled":false,"rental_uris":{"android":"levelo://app?vid=ff218519-0c0d-4ef9-b959-3a5d35d21448","ios":"levelo://app?vid=ff218519-0c0d-4ef9-b959-3a5d35d21448"},"vehicle_type_id":"4","last_reported":1726193227,"current_range_meters":36400,"station_id":"ce4bgih2rcd13ifvqba0","pricing_plan_id":"cebpf4jnsgd1na2vs0mg"},{"bike_id":"bfd2a3d6-ad57-4d1a-86b2-4eeb3c6695bb","system_id":"levelo_inurba_marseille","lat":43.3108,"lon":5.38358,"is_reserved":false,"is_disabled":false,"rental_uris":{"android":"levelo://app?vid=bfd2a3d6-ad57-4d1a-86b2-4eeb3c6695bb","ios":"levelo://app?vid=bfd2a3d6-ad57-4d1a-86b2-4eeb3c6695bb"},"vehicle_type_id":"4","last_reported":1726193227,"current_range_meters":38400,"station_id":"ce4bgv92rcd13ifvqcr0","pricing_plan_id":"cebpf4jnsgd1na2vs0mg"},{"bike_id":"deaeb920-23ab-4b51-a90a-3a4d369b9959","system_id":"levelo_inurba_marseille","lat":43.26554,"lon":5.37282,"is_reserved":false,"is_disabled":false,"rental_uris":{"android":"levelo://app?vid=deaeb920-23ab-4b51-a90a-3a4d369b9959","ios":"levelo://app?vid=deaeb920-23ab-4b51-a90a-3a4d369b9959"},"vehicle_type_id":"4","last_reported":1726193227,"current_range_meters":9200,"station_id":"ce4bhg12rcd13ifvqf70","pricing_plan_id":"cebpf4jnsgd1na2vs0mg"},{"bike_id":"a1059e3e-1f13-4c6e-b9aa-ae2ce9790d5c","system_id":"levelo_inurba_marseille","lat":43.23184,"lon":5.39988,"is_reserved":false,"is_disabled":false,"rental_uris":{"android":"levelo://app?vid=a1059e3e-1f13-4c6e-b9aa-ae2ce9790d5c","ios":"levelo://app?vid=a1059e3e-1f13-4c6e-b9aa-ae2ce9790d5c"},"vehicle_type_id":"4","last_reported":1726193227,"current_range_meters":13600,"station_id":"ce4bhn12rcd13ifvqgqg","pricing_plan_id":"cebpf4jnsgd1na2vs0mg"},{"bike_id":"3eeb48c1-864f-4164-85f1-eb4bf2655da1","system_id":"levelo_inurba_marseille","lat":43.3095,"lon":5.40162,"is_reserved":false,"is_disabled":false,"rental_uris":{"android":"levelo://app?vid=3eeb48c1-864f-4164-85f1-eb4bf2655da1","ios":"levelo://app?vid=3eeb48c1-864f-4164-85f1-eb4bf2655da1"},"vehicle_type_id":"4","last_reported":1726193227,"current_range_meters":39200,"station_id":"ce4bgvp2rcd13ifvqct0","pricing_plan_id":"cebpf4jnsgd1na2vs0mg"},{"bike_id":"77e8c26c-edd1-4069-ab96-9ed9fd81b42a","system_id":"levelo_inurba_marseille","lat":43.31079,"lon":5.42437,"is_reserved":false,"is_disabled":false,"rental_uris":{"android":"levelo://app?vid=77e8c26c-edd1-4069-ab96-9ed9fd81b42a","ios":"levelo://app?vid=77e8c26c-edd1-4069-ab96-9ed9fd81b42a"},"vehicle_type_id":"4","last_reported":1726193227,"current_range_meters":11200,"station_id":"ce4bhp92rcd13ifvqhag","pricing_plan_id":"cebpf4jnsgd1na2vs0mg"},{"bike_id":"0a5c7982-28f1-44b8-a901-7e32bdbe3e0d","system_id":"levelo_inurba_marseille","lat":43.25502,"lon":5.37661,"is_reserved":false,"is_disabled":false,"rental_uris":{"android":"levelo://app?vid=0a5c7982-28f1-44b8-a901-7e32bdbe3e0d","ios":"levelo://app?vid=0a5c7982-28f1-44b8-a901-7e32bdbe3e0d"},"vehicle_type_id":"4","last_reported":1726193227,"current_range_meters":32800,"station_id":"ce4bhh12rcd13ifvqff0","pricing_plan_id":"cebpf4jnsgd1na2vs0mg"},{"bike_id":"4803fd1e-7b74-4c02-8e24-055c99930fd0","system_id":"levelo_inurba_marseille","lat":43.29023,"lon":5.35609,"is_reserved":false,"is_disabled":false,"rental_uris":{"android":"levelo://app?vid=4803fd1e-7b74-4c02-8e24-055c99930fd0","ios":"levelo://app?vid=4803fd1e-7b74-4c02-8e24-055c99930fd0"},"vehicle_type_id":"4","last_reported":1726193227,"current_range_meters":38400,"station_id":"ce4bhb92rcd13ifvqen0","pricing_plan_id":"cebpf4jnsgd1na2vs0mg"},{"bike_id":"819826e9-9ed2-47d7-9c3f-7b5d1ce2de7d","system_id":"levelo_inurba_marseille","lat":43.25861,"lon":5.39909,"is_reserved":false,"is_disabled":false,"rental_uris":{"android":"levelo://app?vid=819826e9-9ed2-47d7-9c3f-7b5d1ce2de7d","ios":"levelo://app?vid=819826e9-9ed2-47d7-9c3f-7b5d1ce2de7d"},"vehicle_type_id":"4","last_reported":1726193227,"current_range_meters":37600,"station_id":"ce4bhl92rcd13ifvqghg","pricing_plan_id":"cebpf4jnsgd1na2vs0mg"},{"bike_id":"42b974c0-bea4-4736-a8f2-b8d071433ca3","system_id":"levelo_inurba_marseille","lat":43.32662,"lon":5.4099,"is_reserved":false,"is_disabled":false,"rental_uris":{"android":"levelo://app?vid=42b974c0-bea4-4736-a8f2-b8d071433ca3","ios":"levelo://app?vid=42b974c0-bea4-4736-a8f2-b8d071433ca3"},"vehicle_type_id":"4","last_reported":1726193227,"current_range_meters":38000,"station_id":"ce4bhpp2rcd13ifvqhgg","pricing_plan_id":"cebpf4jnsgd1na2vs0mg"},{"bike_id":"354f39e5-3cba-4fe2-85c6-e0aa8cff4500","system_id":"levelo_inurba_marseille","lat":43.30895,"lon":5.3719,"is_reserved":false,"is_disabled":false,"rental_uris":{"android":"levelo://app?vid=354f39e5-3cba-4fe2-85c6-e0aa8cff4500","ios":"levelo://app?vid=354f39e5-3cba-4fe2-85c6-e0aa8cff4500"},"vehicle_type_id":"4","last_reported":1726193227,"current_range_meters":38400,"station_id":"ce4bguh2rcd13ifvqckg","pricing_plan_id":"cebpf4jnsgd1na2vs0mg"},{"bike_id":"55508ca9-4c72-4338-a1f1-435ff4da2108","system_id":"levelo_inurba_marseille","lat":43.27313,"lon":5.391,"is_reserved":false,"is_disabled":false,"rental_uris":{"android":"levelo://app?vid=55508ca9-4c72-4338-a1f1-435ff4da2108","ios":"levelo://app?vid=55508ca9-4c72-4338-a1f1-435ff4da2108"},"vehicle_type_id":"4","last_reported":1726193227,"current_range_meters":37600,"station_id":"ce4bhgp2rcd13ifvqfe0","pricing_plan_id":"cebpf4jnsgd1na2vs0mg"},{"bike_id":"543c5192-7201-4553-97e0-e7b85b8e0671","system_id":"levelo_inurba_marseille","lat":43.3064,"lon":5.4008,"is_reserved":false,"is_disabled":false,"rental_uris":{"android":"levelo://app?vid=543c5192-7201-4553-97e0-e7b85b8e0671","ios":"levelo://app?vid=543c5192-7201-4553-97e0-e7b85b8e0671"},"vehicle_type_id":"4","last_reported":1726193227,"current_range_meters":32000,"station_id":"ce4bh112rcd13ifvqda0","pricing_plan_id":"cebpf4jnsgd1na2vs0mg"},{"bike_id":"dbc4086c-48db-4284-a3cc-0bca6ec06a27","system_id":"levelo_inurba_marseille","lat":43.30465,"lon":5.37899,"is_reserved":false,"is_disabled":false,"rental_uris":{"android":"levelo://app?vid=dbc4086c-48db-4284-a3cc-0bca6ec06a27","ios":"levelo://app?vid=dbc4086c-48db-4284-a3cc-0bca6ec06a27"},"vehicle_type_id":"4","last_reported":1726193227,"current_range_meters":38800,"station_id":"ce4bgup2rcd13ifvqcn0","pricing_plan_id":"cebpf4jnsgd1na2vs0mg"},{"bike_id":"dcd008b8-fee5-45d0-a806-9c54ab8a09da","system_id":"levelo_inurba_marseille","lat":43.29881,"lon":5.38927,"is_reserved":false,"is_disabled":false,"rental_uris":{"android":"levelo://app?vid=dcd008b8-fee5-45d0-a806-9c54ab8a09da","ios":"levelo://app?vid=dcd008b8-fee5-45d0-a806-9c54ab8a09da"},"vehicle_type_id":"4","last_reported":1726193227,"current_range_meters":40000,"station_id":"ce4bh392rcd13ifvqdl0","pricing_plan_id":"cebpf4jnsgd1na2vs0mg"},{"bike_id":"586a8a04-2bc4-442a-9e9b-fc6e8ce7cc89","system_id":"levelo_inurba_marseille","lat":43.29217,"lon":5.39342,"is_reserved":false,"is_disabled":false,"rental_uris":{"android":"levelo://app?vid=586a8a04-2bc4-442a-9e9b-fc6e8ce7cc89","ios":"levelo://app?vid=586a8a04-2bc4-442a-9e9b-fc6e8ce7cc89"},"vehicle_type_id":"4","last_reported":1726193227,"current_range_meters":38400,"station_id":"ce4bh192rcd13ifvqdd0","pricing_plan_id":"cebpf4jnsgd1na2vs0mg"},{"bike_id":"879f9880-e973-46ac-a217-42e6ce6bef23","system_id":"levelo_inurba_marseille","lat":43.28621,"lon":5.35105,"is_reserved":false,"is_disabled":false,"rental_uris":{"android":"levelo://app?vid=879f9880-e973-46ac-a217-42e6ce6bef23","ios":"levelo://app?vid=879f9880-e973-46ac-a217-42e6ce6bef23"},"vehicle_type_id":"4","last_reported":1726193227,"current_range_meters":36800,"station_id":"ce4bhch2rcd13ifvqeug","pricing_plan_id":"cebpf4jnsgd1na2vs0mg"},{"bike_id":"42730b64-4326-485c-ac36-4ff31138a499","system_id":"levelo_inurba_marseille","lat":43.31343,"lon":5.3968,"is_reserved":false,"is_disabled":false,"rental_uris":{"android":"levelo://app?vid=42730b64-4326-485c-ac36-4ff31138a499","ios":"levelo://app?vid=42730b64-4326-485c-ac36-4ff31138a499"},"vehicle_type_id":"4","last_reported":1726193227,"current_range_meters":8800,"station_id":"ce4bgvp2rcd13ifvqcu0","pricing_plan_id":"cebpf4jnsgd1na2vs0mg"},{"bike_id":"9cb9ab69-3148-4b2f-a970-03143086caba","system_id":"levelo_inurba_marseille","lat":43.29005,"lon":5.35614,"is_reserved":false,"is_disabled":false,"rental_uris":{"android":"levelo://app?vid=9cb9ab69-3148-4b2f-a970-03143086caba","ios":"levelo://app?vid=9cb9ab69-3148-4b2f-a970-03143086caba"},"vehicle_type_id":"4","last_reported":1726193227,"current_range_meters":39200,"station_id":"ce4bhb92rcd13ifvqen0","pricing_plan_id":"cebpf4jnsgd1na2vs0mg"},{"bike_id":"4afb8b00-be3a-4d15-9b8b-47916e625762","system_id":"levelo_inurba_marseille","lat":43.2855,"lon":5.44235,"is_reserved":false,"is_disabled":false,"rental_uris":{"android":"levelo://app?vid=4afb8b00-be3a-4d15-9b8b-47916e625762","ios":"levelo://app?vid=4afb8b00-be3a-4d15-9b8b-47916e625762"},"vehicle_type_id":"4","last_reported":1726193227,"current_range_meters":28800,"station_id":"","pricing_plan_id":"cebpf4jnsgd1na2vs0mg"},{"bike_id":"bb7acf50-b6bc-4b2d-adf4-833abc23b24c","system_id":"levelo_inurba_marseille","lat":43.23213,"lon":5.35548,"is_reserved":false,"is_disabled":false,"rental_uris":{"android":"levelo://app?vid=bb7acf50-b6bc-4b2d-adf4-833abc23b24c","ios":"levelo://app?vid=bb7acf50-b6bc-4b2d-adf4-833abc23b24c"},"vehicle_type_id":"4","last_reported":1726193227,"current_range_meters":40000,"station_id":"ce4bhu92rcd13ifvqi70","pricing_plan_id":"cebpf4jnsgd1na2vs0mg"},{"bike_id":"ae9eb73b-054c-41a2-875a-2a980c700d6a","system_id":"levelo_inurba_marseille","lat":43.30606,"lon":5.37207,"is_reserved":false,"is_disabled":false,"rental_uris":{"android":"levelo://app?vid=ae9eb73b-054c-41a2-875a-2a980c700d6a","ios":"levelo://app?vid=ae9eb73b-054c-41a2-875a-2a980c700d6a"},"vehicle_type_id":"4","last_reported":1726193227,"current_range_meters":39200,"station_id":"ce4bgqh2rcd13ifvqc4g","pricing_plan_id":"cebpf4jnsgd1na2vs0mg"},{"bike_id":"4d82deed-46f4-4ede-b400-33da4682094f","system_id":"levelo_inurba_marseille","lat":43.26059,"lon":5.39381,"is_reserved":false,"is_disabled":false,"rental_uris":{"android":"levelo://app?vid=4d82deed-46f4-4ede-b400-33da4682094f","ios":"levelo://app?vid=4d82deed-46f4-4ede-b400-33da4682094f"},"vehicle_type_id":"4","last_reported":1726193227,"current_range_meters":25200,"station_id":"ce4bhh92rcd13ifvqfj0","pricing_plan_id":"cebpf4jnsgd1na2vs0mg"},{"bike_id":"46be1cc1-5423-4f01-a9d9-f9da8b495ee5","system_id":"levelo_inurba_marseille","lat":43.24687,"lon":5.38152,"is_reserved":false,"is_disabled":false,"rental_uris":{"android":"levelo://app?vid=46be1cc1-5423-4f01-a9d9-f9da8b495ee5","ios":"levelo://app?vid=46be1cc1-5423-4f01-a9d9-f9da8b495ee5"},"vehicle_type_id":"4","last_reported":1726193227,"current_range_meters":30800,"station_id":"ce4bhih2rcd13ifvqfr0","pricing_plan_id":"cebpf4jnsgd1na2vs0mg"},{"bike_id":"f0688d67-cf24-485f-b6eb-5709935e8360","system_id":"levelo_inurba_marseille","lat":43.31336,"lon":5.39703,"is_reserved":false,"is_disabled":false,"rental_uris":{"android":"levelo://app?vid=f0688d67-cf24-485f-b6eb-5709935e8360","ios":"levelo://app?vid=f0688d67-cf24-485f-b6eb-5709935e8360"},"vehicle_type_id":"4","last_reported":1726193227,"current_range_meters":38400,"station_id":"ce4bgvp2rcd13ifvqcu0","pricing_plan_id":"cebpf4jnsgd1na2vs0mg"},{"bike_id":"60347762-8015-44ff-b3f6-749b7ab61b1b","system_id":"levelo_inurba_marseille","lat":43.30887,"lon":5.39649,"is_reserved":false,"is_disabled":false,"rental_uris":{"android":"levelo://app?vid=60347762-8015-44ff-b3f6-749b7ab61b1b","ios":"levelo://app?vid=60347762-8015-44ff-b3f6-749b7ab61b1b"},"vehicle_type_id":"4","last_reported":1726193227,"current_range_meters":24000,"station_id":"ce4bh012rcd13ifvqcv0","pricing_plan_id":"cebpf4jnsgd1na2vs0mg"},{"bike_id":"86f19a36-bb1a-4269-88e8-5864eaf9f751","system_id":"levelo_inurba_marseille","lat":43.25089,"lon":5.39511,"is_reserved":false,"is_disabled":false,"rental_uris":{"android":"levelo://app?vid=86f19a36-bb1a-4269-88e8-5864eaf9f751","ios":"levelo://app?vid=86f19a36-bb1a-4269-88e8-5864eaf9f751"},"vehicle_type_id":"4","last_reported":1726193227,"current_range_meters":40000,"station_id":"ce4bhm12rcd13ifvqgkg","pricing_plan_id":"cebpf4jnsgd1na2vs0mg"},{"bike_id":"38dfd586-8889-40f5-963a-0e77794a96c7","system_id":"levelo_inurba_marseille","lat":43.30788,"lon":5.37659,"is_reserved":false,"is_disabled":false,"rental_uris":{"android":"levelo://app?vid=38dfd586-8889-40f5-963a-0e77794a96c7","ios":"levelo://app?vid=38dfd586-8889-40f5-963a-0e77794a96c7"},"vehicle_type_id":"4","last_reported":1726193227,"current_range_meters":11600,"station_id":"ce4bgv92rcd13ifvqcq0","pricing_plan_id":"cebpf4jnsgd1na2vs0mg"},{"bike_id":"0dc36234-9f71-48cf-9b11-a68c7260185d","system_id":"levelo_inurba_marseille","lat":43.30196,"lon":5.36604,"is_reserved":false,"is_disabled":false,"rental_uris":{"android":"levelo://app?vid=0dc36234-9f71-48cf-9b11-a68c7260185d","ios":"levelo://app?vid=0dc36234-9f71-48cf-9b11-a68c7260185d"},"vehicle_type_id":"4","last_reported":1726193227,"current_range_meters":38000,"station_id":"ce4bgrh2rcd13ifvqc8g","pricing_plan_id":"cebpf4jnsgd1na2vs0mg"},{"bike_id":"b3164423-c1d6-4c23-94da-c35826df918c","system_id":"levelo_inurba_marseille","lat":43.29565,"lon":5.39936,"is_reserved":false,"is_disabled":false,"rental_uris":{"android":"levelo://app?vid=b3164423-c1d6-4c23-94da-c35826df918c","ios":"levelo://app?vid=b3164423-c1d6-4c23-94da-c35826df918c"},"vehicle_type_id":"4","last_reported":1726193227,"current_range_meters":38800,"station_id":"ce4bh312rcd13ifvqdj0","pricing_plan_id":"cebpf4jnsgd1na2vs0mg"},{"bike_id":"96e5fa71-72f8-4fee-b693-67ac33f6098f","system_id":"levelo_inurba_marseille","lat":43.232,"lon":5.39984,"is_reserved":false,"is_disabled":false,"rental_uris":{"android":"levelo://app?vid=96e5fa71-72f8-4fee-b693-67ac33f6098f","ios":"levelo://app?vid=96e5fa71-72f8-4fee-b693-67ac33f6098f"},"vehicle_type_id":"4","last_reported":1726193227,"current_range_meters":39200,"station_id":"ce4bhn12rcd13ifvqgqg","pricing_plan_id":"cebpf4jnsgd1na2vs0mg"},{"bike_id":"4718f576-3563-4264-b290-0b60da9587fa","system_id":"levelo_inurba_marseille","lat":43.30425,"lon":5.41276,"is_reserved":false,"is_disabled":false,"rental_uris":{"android":"levelo://app?vid=4718f576-3563-4264-b290-0b60da9587fa","ios":"levelo://app?vid=4718f576-3563-4264-b290-0b60da9587fa"},"vehicle_type_id":"4","last_reported":1726193227,"current_range_meters":40000,"station_id":"ce4bhop2rcd13ifvqh8g","pricing_plan_id":"cebpf4jnsgd1na2vs0mg"},{"bike_id":"80a1e38e-0713-4fd0-b0c2-78281e4d4d93","system_id":"levelo_inurba_marseille","lat":43.31473,"lon":5.37303,"is_reserved":false,"is_disabled":false,"rental_uris":{"android":"levelo://app?vid=80a1e38e-0713-4fd0-b0c2-78281e4d4d93","ios":"levelo://app?vid=80a1e38e-0713-4fd0-b0c2-78281e4d4d93"},"vehicle_type_id":"4","last_reported":1726193227,"current_range_meters":32800,"station_id":"ce4bgt12rcd13ifvqcd0","pricing_plan_id":"cebpf4jnsgd1na2vs0mg"},{"bike_id":"dd2d66a6-976d-43e6-83be-d6211ff78acc","system_id":"levelo_inurba_marseille","lat":43.33724,"lon":5.39185,"is_reserved":false,"is_disabled":false,"rental_uris":{"android":"levelo://app?vid=dd2d66a6-976d-43e6-83be-d6211ff78acc","ios":"levelo://app?vid=dd2d66a6-976d-43e6-83be-d6211ff78acc"},"vehicle_type_id":"4","last_reported":1726193227,"current_range_meters":8800,"station_id":"ce4bhr92rcd13ifvqhsg","pricing_plan_id":"cebpf4jnsgd1na2vs0mg"},{"bike_id":"5ef7b96a-1cb8-4f42-af16-3a0d049b19cc","system_id":"levelo_inurba_marseille","lat":43.29554,"lon":5.42281,"is_reserved":false,"is_disabled":false,"rental_uris":{"android":"levelo://app?vid=5ef7b96a-1cb8-4f42-af16-3a0d049b19cc","ios":"levelo://app?vid=5ef7b96a-1cb8-4f42-af16-3a0d049b19cc"},"vehicle_type_id":"4","last_reported":1726193227,"current_range_meters":11600,"station_id":"ce4bhph2rcd13ifvqhdg","pricing_plan_id":"cebpf4jnsgd1na2vs0mg"},{"bike_id":"0dc49644-dd17-4c5c-83cd-a89bebf1e2d8","system_id":"levelo_inurba_marseille","lat":43.30943,"lon":5.40144,"is_reserved":false,"is_disabled":false,"rental_uris":{"android":"levelo://app?vid=0dc49644-dd17-4c5c-83cd-a89bebf1e2d8","ios":"levelo://app?vid=0dc49644-dd17-4c5c-83cd-a89bebf1e2d8"},"vehicle_type_id":"4","last_reported":1726193227,"current_range_meters":9200,"station_id":"ce4bgvp2rcd13ifvqct0","pricing_plan_id":"cebpf4jnsgd1na2vs0mg"},{"bike_id":"a4134a87-ba6c-4a20-99b8-e34d44318498","system_id":"levelo_inurba_marseille","lat":43.25119,"lon":5.40326,"is_reserved":false,"is_disabled":false,"rental_uris":{"android":"levelo://app?vid=a4134a87-ba6c-4a20-99b8-e34d44318498","ios":"levelo://app?vid=a4134a87-ba6c-4a20-99b8-e34d44318498"},"vehicle_type_id":"4","last_reported":1726193227,"current_range_meters":30000,"station_id":"ce4bhlh2rcd13ifvqgig","pricing_plan_id":"cebpf4jnsgd1na2vs0mg"},{"bike_id":"70d01362-c996-4b67-a938-62813ca3d0c5","system_id":"levelo_inurba_marseille","lat":43.33011,"lon":5.39054,"is_reserved":false,"is_disabled":false,"rental_uris":{"android":"levelo://app?vid=70d01362-c996-4b67-a938-62813ca3d0c5","ios":"levelo://app?vid=70d01362-c996-4b67-a938-62813ca3d0c5"},"vehicle_type_id":"4","last_reported":1726193227,"current_range_meters":6400,"station_id":"ce4bhr92rcd13ifvqhrg","pricing_plan_id":"cebpf4jnsgd1na2vs0mg"},{"bike_id":"04ca3046-4259-4712-8964-4e6174e28d88","system_id":"levelo_inurba_marseille","lat":43.26695,"lon":5.38267,"is_reserved":false,"is_disabled":false,"rental_uris":{"android":"levelo://app?vid=04ca3046-4259-4712-8964-4e6174e28d88","ios":"levelo://app?vid=04ca3046-4259-4712-8964-4e6174e28d88"},"vehicle_type_id":"4","last_reported":1726193227,"current_range_meters":19200,"station_id":"ce4bhg92rcd13ifvqf90","pricing_plan_id":"cebpf4jnsgd1na2vs0mg"},{"bike_id":"c28ff0f1-1713-431a-bccf-4e7a21e8e39b","system_id":"levelo_inurba_marseille","lat":43.25496,"lon":5.37663,"is_reserved":false,"is_disabled":false,"rental_uris":{"android":"levelo://app?vid=c28ff0f1-1713-431a-bccf-4e7a21e8e39b","ios":"levelo://app?vid=c28ff0f1-1713-431a-bccf-4e7a21e8e39b"},"vehicle_type_id":"4","last_reported":1726193227,"current_range_meters":40000,"station_id":"ce4bhh12rcd13ifvqff0","pricing_plan_id":"cebpf4jnsgd1na2vs0mg"},{"bike_id":"df6f412c-9695-40ef-9db4-7bd907155eb7","system_id":"levelo_inurba_marseille","lat":43.30796,"lon":5.38159,"is_reserved":false,"is_disabled":false,"rental_uris":{"android":"levelo://app?vid=df6f412c-9695-40ef-9db4-7bd907155eb7","ios":"levelo://app?vid=df6f412c-9695-40ef-9db4-7bd907155eb7"},"vehicle_type_id":"4","last_reported":1726193227,"current_range_meters":40000,"station_id":"ce4bgt12rcd13ifvqce0","pricing_plan_id":"cebpf4jnsgd1na2vs0mg"},{"bike_id":"65ddcb7e-72cd-4f0a-b26a-dc2bb79f607e","system_id":"levelo_inurba_marseille","lat":43.26811,"lon":5.40259,"is_reserved":false,"is_disabled":false,"rental_uris":{"android":"levelo://app?vid=65ddcb7e-72cd-4f0a-b26a-dc2bb79f607e","ios":"levelo://app?vid=65ddcb7e-72cd-4f0a-b26a-dc2bb79f607e"},"vehicle_type_id":"4","last_reported":1726193227,"current_range_meters":37600,"station_id":"ce501612rcd8frsf0b60","pricing_plan_id":"cebpf4jnsgd1na2vs0mg"},{"bike_id":"d63b08fd-7716-422a-94e4-8f1dfff5bb11","system_id":"levelo_inurba_marseille","lat":43.2863,"lon":5.35102,"is_reserved":false,"is_disabled":false,"rental_uris":{"android":"levelo://app?vid=d63b08fd-7716-422a-94e4-8f1dfff5bb11","ios":"levelo://app?vid=d63b08fd-7716-422a-94e4-8f1dfff5bb11"},"vehicle_type_id":"4","last_reported":1726193227,"current_range_meters":15200,"station_id":"ce4bhch2rcd13ifvqeug","pricing_plan_id":"cebpf4jnsgd1na2vs0mg"},{"bike_id":"e9fb652a-d54b-4946-a83a-e442f85e7db7","system_id":"levelo_inurba_marseille","lat":43.27998,"lon":5.41674,"is_reserved":false,"is_disabled":false,"rental_uris":{"android":"levelo://app?vid=e9fb652a-d54b-4946-a83a-e442f85e7db7","ios":"levelo://app?vid=e9fb652a-d54b-4946-a83a-e442f85e7db7"},"vehicle_type_id":"4","last_reported":1726193227,"current_range_meters":38800,"station_id":"ce4bho12rcd13ifvqh1g","pricing_plan_id":"cebpf4jnsgd1na2vs0mg"},{"bike_id":"f5548eb8-9c38-48ce-979e-38bdd5c931fd","system_id":"levelo_inurba_marseille","lat":43.28405,"lon":5.37519,"is_reserved":false,"is_disabled":false,"rental_uris":{"android":"levelo://app?vid=f5548eb8-9c38-48ce-979e-38bdd5c931fd","ios":"levelo://app?vid=f5548eb8-9c38-48ce-979e-38bdd5c931fd"},"vehicle_type_id":"4","last_reported":1726193227,"current_range_meters":32400,"station_id":"ce4bh412rcd13ifvqds0","pricing_plan_id":"cebpf4jnsgd1na2vs0mg"},{"bike_id":"599eaaf8-a1b9-4b78-8074-8ec83fd4d3da","system_id":"levelo_inurba_marseille","lat":43.23189,"lon":5.35552,"is_reserved":false,"is_disabled":false,"rental_uris":{"android":"levelo://app?vid=599eaaf8-a1b9-4b78-8074-8ec83fd4d3da","ios":"levelo://app?vid=599eaaf8-a1b9-4b78-8074-8ec83fd4d3da"},"vehicle_type_id":"4","last_reported":1726193227,"current_range_meters":6000,"station_id":"ce4bhu92rcd13ifvqi70","pricing_plan_id":"cebpf4jnsgd1na2vs0mg"},{"bike_id":"765fecf5-afa0-4002-8c27-190672219484","system_id":"levelo_inurba_marseille","lat":43.27976,"lon":5.38738,"is_reserved":false,"is_disabled":false,"rental_uris":{"android":"levelo://app?vid=765fecf5-afa0-4002-8c27-190672219484","ios":"levelo://app?vid=765fecf5-afa0-4002-8c27-190672219484"},"vehicle_type_id":"4","last_reported":1726193227,"current_range_meters":36400,"station_id":"ce4bhg12rcd13ifvqf80","pricing_plan_id":"cebpf4jnsgd1na2vs0mg"},{"bike_id":"5f9319ff-356d-439a-9df6-04e027036548","system_id":"levelo_inurba_marseille","lat":43.29618,"lon":5.40582,"is_reserved":false,"is_disabled":false,"rental_uris":{"android":"levelo://app?vid=5f9319ff-356d-439a-9df6-04e027036548","ios":"levelo://app?vid=5f9319ff-356d-439a-9df6-04e027036548"},"vehicle_type_id":"4","last_reported":1726193227,"current_range_meters":29600,"station_id":"ce4bh0h2rcd13ifvqd60","pricing_plan_id":"cebpf4jnsgd1na2vs0mg"},{"bike_id":"3a67dceb-2208-4645-8d77-5a80401ac781","system_id":"levelo_inurba_marseille","lat":43.28708,"lon":5.39977,"is_reserved":false,"is_disabled":false,"rental_uris":{"android":"levelo://app?vid=3a67dceb-2208-4645-8d77-5a80401ac781","ios":"levelo://app?vid=3a67dceb-2208-4645-8d77-5a80401ac781"},"vehicle_type_id":"4","last_reported":1726193227,"current_range_meters":36800,"station_id":"ce4bho92rcd13ifvqh3g","pricing_plan_id":"cebpf4jnsgd1na2vs0mg"},{"bike_id":"53ef2818-a055-47fd-abbf-0ca3cd85cef4","system_id":"levelo_inurba_marseille","lat":43.30912,"lon":5.3685,"is_reserved":false,"is_disabled":false,"rental_uris":{"android":"levelo://app?vid=53ef2818-a055-47fd-abbf-0ca3cd85cef4","ios":"levelo://app?vid=53ef2818-a055-47fd-abbf-0ca3cd85cef4"},"vehicle_type_id":"4","last_reported":1726193227,"current_range_meters":17600,"station_id":"ce4bgn92rcd13ifvqbvg","pricing_plan_id":"cebpf4jnsgd1na2vs0mg"},{"bike_id":"680dc768-0acb-456e-8ccd-04aa53eb4c6d","system_id":"levelo_inurba_marseille","lat":43.31342,"lon":5.39699,"is_reserved":false,"is_disabled":false,"rental_uris":{"android":"levelo://app?vid=680dc768-0acb-456e-8ccd-04aa53eb4c6d","ios":"levelo://app?vid=680dc768-0acb-456e-8ccd-04aa53eb4c6d"},"vehicle_type_id":"4","last_reported":1726193227,"current_range_meters":17200,"station_id":"ce4bgvp2rcd13ifvqcu0","pricing_plan_id":"cebpf4jnsgd1na2vs0mg"},{"bike_id":"71e5bd5f-9941-45ed-83eb-1729c01b5303","system_id":"levelo_inurba_marseille","lat":43.22929,"lon":5.35374,"is_reserved":false,"is_disabled":false,"rental_uris":{"android":"levelo://app?vid=71e5bd5f-9941-45ed-83eb-1729c01b5303","ios":"levelo://app?vid=71e5bd5f-9941-45ed-83eb-1729c01b5303"},"vehicle_type_id":"4","last_reported":1726193227,"current_range_meters":37600,"station_id":"cpo3532slgdg3j2ikp40","pricing_plan_id":"cebpf4jnsgd1na2vs0mg"},{"bike_id":"a325e93e-a52e-4be3-a74c-ba45938dd1d4","system_id":"levelo_inurba_marseille","lat":43.33022,"lon":5.39037,"is_reserved":false,"is_disabled":false,"rental_uris":{"android":"levelo://app?vid=a325e93e-a52e-4be3-a74c-ba45938dd1d4","ios":"levelo://app?vid=a325e93e-a52e-4be3-a74c-ba45938dd1d4"},"vehicle_type_id":"4","last_reported":1726193227,"current_range_meters":6400,"station_id":"ce4bhr92rcd13ifvqhrg","pricing_plan_id":"cebpf4jnsgd1na2vs0mg"},{"bike_id":"7e87829b-0b0e-4cc2-b554-0a9ec7ae3955","system_id":"levelo_inurba_marseille","lat":43.28383,"lon":5.38649,"is_reserved":false,"is_disabled":false,"rental_uris":{"android":"levelo://app?vid=7e87829b-0b0e-4cc2-b554-0a9ec7ae3955","ios":"levelo://app?vid=7e87829b-0b0e-4cc2-b554-0a9ec7ae3955"},"vehicle_type_id":"4","last_reported":1726193227,"current_range_meters":30000,"station_id":"ce4bh492rcd13ifvqdvg","pricing_plan_id":"cebpf4jnsgd1na2vs0mg"},{"bike_id":"e338fa51-8016-4c55-ab8d-ca674b9118dc","system_id":"levelo_inurba_marseille","lat":43.24673,"lon":5.38152,"is_reserved":false,"is_disabled":false,"rental_uris":{"android":"levelo://app?vid=e338fa51-8016-4c55-ab8d-ca674b9118dc","ios":"levelo://app?vid=e338fa51-8016-4c55-ab8d-ca674b9118dc"},"vehicle_type_id":"4","last_reported":1726193227,"current_range_meters":28000,"station_id":"ce4bhih2rcd13ifvqfr0","pricing_plan_id":"cebpf4jnsgd1na2vs0mg"},{"bike_id":"f34e4332-f141-4c32-ae42-947df569dade","system_id":"levelo_inurba_marseille","lat":43.29586,"lon":5.3999,"is_reserved":false,"is_disabled":false,"rental_uris":{"android":"levelo://app?vid=f34e4332-f141-4c32-ae42-947df569dade","ios":"levelo://app?vid=f34e4332-f141-4c32-ae42-947df569dade"},"vehicle_type_id":"4","last_reported":1726193227,"current_range_meters":36400,"station_id":"ce4bh312rcd13ifvqdj0","pricing_plan_id":"cebpf4jnsgd1na2vs0mg"},{"bike_id":"f25f3856-0e40-4b14-bb39-72752370796c","system_id":"levelo_inurba_marseille","lat":43.29612,"lon":5.40589,"is_reserved":false,"is_disabled":false,"rental_uris":{"android":"levelo://app?vid=f25f3856-0e40-4b14-bb39-72752370796c","ios":"levelo://app?vid=f25f3856-0e40-4b14-bb39-72752370796c"},"vehicle_type_id":"4","last_reported":1726193227,"current_range_meters":35600,"station_id":"ce4bh0h2rcd13ifvqd60","pricing_plan_id":"cebpf4jnsgd1na2vs0mg"},{"bike_id":"ca715f06-5514-4bfc-a733-a4b9b127308f","system_id":"levelo_inurba_marseille","lat":43.28705,"lon":5.39975,"is_reserved":false,"is_disabled":false,"rental_uris":{"android":"levelo://app?vid=ca715f06-5514-4bfc-a733-a4b9b127308f","ios":"levelo://app?vid=ca715f06-5514-4bfc-a733-a4b9b127308f"},"vehicle_type_id":"4","last_reported":1726193227,"current_range_meters":33600,"station_id":"ce4bho92rcd13ifvqh3g","pricing_plan_id":"cebpf4jnsgd1na2vs0mg"},{"bike_id":"b4d74fee-6f89-4d61-89e1-dd9f2e020f3a","system_id":"levelo_inurba_marseille","lat":43.30502,"lon":5.37907,"is_reserved":false,"is_disabled":false,"rental_uris":{"android":"levelo://app?vid=b4d74fee-6f89-4d61-89e1-dd9f2e020f3a","ios":"levelo://app?vid=b4d74fee-6f89-4d61-89e1-dd9f2e020f3a"},"vehicle_type_id":"4","last_reported":1726193227,"current_range_meters":38400,"station_id":"ce4bgup2rcd13ifvqcn0","pricing_plan_id":"cebpf4jnsgd1na2vs0mg"},{"bike_id":"4501ade5-14f2-4760-a406-df8c308f4bfa","system_id":"levelo_inurba_marseille","lat":43.3081,"lon":5.38157,"is_reserved":false,"is_disabled":false,"rental_uris":{"android":"levelo://app?vid=4501ade5-14f2-4760-a406-df8c308f4bfa","ios":"levelo://app?vid=4501ade5-14f2-4760-a406-df8c308f4bfa"},"vehicle_type_id":"4","last_reported":1726193227,"current_range_meters":34800,"station_id":"ce4bgt12rcd13ifvqce0","pricing_plan_id":"cebpf4jnsgd1na2vs0mg"},