{"last_updated":1730121579,"ttl":60,"version":"2.2","data":{"bikes":[{"bike_id":"0c2d7ad5-d044-4c9f-a21c-d7477058aa32","system_id":"levelo_inurba_marseille","lat":43.26931,"lon":5.38913,"is_reserved":false,"is_disabled":false,"rental_uris":{"android":"levelo://app?vid=0c2d7ad5-d044-4c9f-a21c-d7477058aa32","ios":"levelo://app?vid=0c2d7ad5-d044-4c9f-a21c-d7477058aa32"},"vehicle_type_id":"4","last_reported":1730121579,"current_range_meters":16400,"station_id":"ce4bhhh2rcd13ifvqfl0","pricing_plan_id":"cebpf4jnsgd1na2vs0mg"},{"bike_id":"576f2be9-bf40-42aa-9145-f7ad6f641be6","system_id":"levelo_inurba_marseille","lat":43.28347,"lon":5.38111,"is_reserved":false,"is_disabled":false,"rental_uris":{"android":"levelo://app?vid=576f2be9-bf40-42aa-9145-f7ad6f641be6","ios":"levelo://app?vid=576f2be9-bf40-42aa-9145-f7ad6f641be6"},"vehicle_type_id":"4","last_reported":1730121579,"current_range_meters":35600,"station_id":"ce4bh412rcd13ifvqdr0","pricing_plan_id":"cebpf4jnsgd1na2vs0mg"},{"bike_id":"c1ac75a9-9e75-40e8-830b-a685c6bfffb3","system_id":"levelo_inurba_marseille","lat":43.2984,"lon":5.36273,"is_reserved":false,"is_disabled":false,"rental_uris":{"android":"levelo://app?vid=c1ac75a9-9e75-40e8-830b-a685c6bfffb3","ios":"levelo://app?vid=c1ac75a9-9e75-40e8-830b-a685c6bfffb3"},"vehicle_type_id":"4","last_reported":1730121579,"current_range_meters":38000,"station_id":"ce4bgpp2rcd13ifvqc3g","pricing_plan_id":"cebpf4jnsgd1na2vs0mg"},{"bike_id":"90b09f7c-4665-4372-8e70-8220f506b4de","system_id":"levelo_inurba_marseille","lat":43.25728,"lon":5.41106,"is_reserved":false,"is_disabled":false,"rental_uris":{"android":"levelo://app?vid=90b09f7c-4665-4372-8e70-8220f506b4de","ios":"levelo://app?vid=90b09f7c-4665-4372-8e70-8220f506b4de"},"vehicle_type_id":"4","last_reported":1730121579,"current_range_meters":8400,"station_id":"ce4bhkp2rcd13ifvqgd0","pricing_plan_id":"cebpf4jnsgd1na2vs0mg"},{"bike_id":"7501dbaf-a35e-4bd2-9151-59352e5a8638","system_id":"levelo_inurba_marseille","lat":43.23152,"lon":5.43701,"is_reserved":false,"is_disabled":false,"rental_uris":{"android":"levelo://app?vid=7501dbaf-a35e-4bd2-9151-59352e5a8638","ios":"levelo://app?vid=7501dbaf-a35e-4bd2-9151-59352e5a8638"},"vehicle_type_id":"4","last_reported":1730121579,"current_range_meters":9200,"station_id":"ce4bhmp2rcd13ifvqgog","pricing_plan_id":"cebpf4jnsgd1na2vs0mg"},{"bike_id":"a8652586-bac3-4066-8349-87b461f05426","system_id":"levelo_inurba_marseille","lat":43.30312,"lon":5.36907,"is_reserved":false,"is_disabled":false,"rental_uris":{"android":"levelo://app?vid=a8652586-bac3-4066-8349-87b461f05426","ios":"levelo://app?vid=a8652586-bac3-4066-8349-87b461f05426"},"vehicle_type_id":"4","last_reported":1730121579,"current_range_meters":32800,"station_id":"ce4bgqh2rcd13ifvqc5g","pricing_plan_id":"cebpf4jnsgd1na2vs0mg"},{"bike_id":"537ab7f1-0039-44f7-9e61-8ca18206f860","system_id":"levelo_inurba_marseille","lat":43.31226,"lon":5.36858,"is_reserved":false,"is_disabled":false,"rental_uris":{"android":"levelo://app?vid=537ab7f1-0039-44f7-9e61-8ca18206f860","ios":"levelo://app?vid=537ab7f1-0039-44f7-9e61-8ca18206f860"},"vehicle_type_id":"4","last_reported":1730121579,"current_range_meters":28800,"station_id":"ce4bgl92rcd13ifvqbq0","pricing_plan_id":"cebpf4jnsgd1na2vs0mg"},{"bike_id":"c6b21e0d-467d-474b-8c69-b4c43b3fb554","system_id":"levelo_inurba_marseille","lat":43.31479,"lon":5.37314,"is_reserved":false,"is_disabled":false,"rental_uris":{"android":"levelo://app?vid=c6b21e0d-467d-474b-8c69-b4c43b3fb554","ios":"levelo://app?vid=c6b21e0d-467d-474b-8c69-b4c43b3fb554"},"vehicle_type_id":"4","last_reported":1730121579,"current_range_meters":32400,"station_id":"ce4bgt12rcd13ifvqcd0","pricing_plan_id":"cebpf4jnsgd1na2vs0mg"},{"bike_id":"6df40f69-133e-49b3-9ccf-4bd0b0a39554","system_id":"levelo_inurba_marseille","lat":43.27919,"lon":5.39573,"is_reserved":false,"is_disabled":false,"rental_uris":{"android":"levelo://app?vid=6df40f69-133e-49b3-9ccf-4bd0b0a39554","ios":"levelo://app?vid=6df40f69-133e-49b3-9ccf-4bd0b0a39554"},"vehicle_type_id":"4","last_reported":1730121579,"current_range_meters":12400,"station_id":"ce4bhf92rcd13ifvqf40","pricing_plan_id":"cebpf4jnsgd1na2vs0mg"},{"bike_id":"21f1965d-62a5-4c1f-86c1-329f5b485ee4","system_id":"levelo_inurba_marseille","lat":43.30539,"lon":5.36699,"is_reserved":false,"is_disabled":false,"rental_uris":{"android":"levelo://app?vid=21f1965d-62a5-4c1f-86c1-329f5b485ee4","ios":"levelo://app?vid=21f1965d-62a5-4c1f-86c1-329f5b485ee4"},"vehicle_type_id":"4","last_reported":1730121579,"current_range_meters":22400,"station_id":"ce4bgrp2rcd13ifvqc9g","pricing_plan_id":"cebpf4jnsgd1na2vs0mg"},{"bike_id":"e9d11941-e3e0-4e0c-98eb-48ec9f658c84","system_id":"levelo_inurba_marseille","lat":43.24072,"lon":5.37759,"is_reserved":false,"is_disabled":false,"rental_uris":{"android":"levelo://app?vid=e9d11941-e3e0-4e0c-98eb-48ec9f658c84","ios":"levelo://app?vid=e9d11941-e3e0-4e0c-98eb-48ec9f658c84"},"vehicle_type_id":"4","last_reported":1730121579,"current_range_meters":14800,"station_id":"ce4bhnp2rcd13ifvqgvg","pricing_plan_id":"cebpf4jnsgd1na2vs0mg"},{"bike_id":"c8fdd4fd-9773-4891-9caf-90f82e9deaa9","system_id":"levelo_inurba_marseille","lat":43.32482,"lon":5.36555,"is_reserved":false,"is_disabled":false,"rental_uris":{"android":"levelo://app?vid=c8fdd4fd-9773-4891-9caf-90f82e9deaa9","ios":"levelo://app?vid=c8fdd4fd-9773-4891-9caf-90f82e9deaa9"},"vehicle_type_id":"4","last_reported":1730121579,"current_range_meters":19600,"station_id":"ce4bhs12rcd13ifvqhvg","pricing_plan_id":"cebpf4jnsgd1na2vs0mg"},{"bike_id":"37bf1537-1a0c-4db6-bcce-c488de3f2ff9","system_id":"levelo_inurba_marseille","lat":43.29038,"lon":5.37566,"is_reserved":false,"is_disabled":false,"rental_uris":{"android":"levelo://app?vid=37bf1537-1a0c-4db6-bcce-c488de3f2ff9","ios":"levelo://app?vid=37bf1537-1a0c-4db6-bcce-c488de3f2ff9"},"vehicle_type_id":"4","last_reported":1730121579,"current_range_meters":27200,"station_id":"ce4bh692rcd13ifvqe90","pricing_plan_id":"cebpf4jnsgd1na2vs0mg"},{"bike_id":"78f164ef-1e49-41b9-a4fd-92b2feb18648","system_id":"levelo_inurba_marseille","lat":43.29895,"lon":5.43655,"is_reserved":false,"is_disabled":false,"rental_uris":{"android":"levelo://app?vid=78f164ef-1e49-41b9-a4fd-92b2feb18648","ios":"levelo://app?vid=78f164ef-1e49-41b9-a4fd-92b2feb18648"},"vehicle_type_id":"4","last_reported":1730121579,"current_range_meters":8400,"station_id":"ce4bhpp2rcd13ifvqhfg","pricing_plan_id":"cebpf4jnsgd1na2vs0mg"},{"bike_id":"6932c530-201c-4220-8821-2b76deed5b19","system_id":"levelo_inurba_marseille","lat":43.27807,"lon":5.40721,"is_reserved":false,"is_disabled":false,"rental_uris":{"android":"levelo://app?vid=6932c530-201c-4220-8821-2b76deed5b19","ios":"levelo://app?vid=6932c530-201c-4220-8821-2b76deed5b19"},"vehicle_type_id":"4","last_reported":1730121579,"current_range_meters":38000,"station_id":"ce4bhnh2rcd13ifvqgtg","pricing_plan_id":"cebpf4jnsgd1na2vs0mg"},{"bike_id":"76b746bf-8b83-4c50-815a-95322572ce76","system_id":"levelo_inurba_marseille","lat":43.29941,"lon":5.36537,"is_reserved":false,"is_disabled":false,"rental_uris":{"android":"levelo://app?vid=76b746bf-8b83-4c50-815a-95322572ce76","ios":"levelo://app?vid=76b746bf-8b83-4c50-815a-95322572ce76"},"vehicle_type_id":"4","last_reported":1730121579,"current_range_meters":35200,"station_id":"ce4bgm92rcd13ifvqbr0","pricing_plan_id":"cebpf4jnsgd1na2vs0mg"},{"bike_id":"de400e18-7742-46e2-bb01-6d371e310f1e","system_id":"levelo_inurba_marseille","lat":43.26213,"lon":5.3744,"is_reserved":false,"is_disabled":false,"rental_uris":{"android":"levelo://app?vid=de400e18-7742-46e2-bb01-6d371e310f1e","ios":"levelo://app?vid=de400e18-7742-46e2-bb01-6d371e310f1e"},"vehicle_type_id":"4","last_reported":1730121579,"current_range_meters":9200,"station_id":"ce4bhgp2rcd13ifvqfc0","pricing_plan_id":"cebpf4jnsgd1na2vs0mg"},{"bike_id":"76015ce9-4598-4562-8861-5eb096366e97","system_id":"levelo_inurba_marseille","lat":43.309071,"lon":5.376211,"is_reserved":false,"is_disabled":false,"rental_uris":{"android":"levelo://app?vid=76015ce9-4598-4562-8861-5eb096366e97","ios":"levelo://app?vid=76015ce9-4598-4562-8861-5eb096366e97"},"vehicle_type_id":"4","last_reported":1730121579,"current_range_meters":31200,"station_id":"ce4bgv92rcd13ifvqcq0","pricing_plan_id":"cebpf4jnsgd1na2vs0mg"},{"bike_id":"84e374c4-fc62-498f-bc8b-cb0b8a3e0a0c","system_id":"levelo_inurba_marseille","lat":43.25726,"lon":5.41103,"is_reserved":false,"is_disabled":false,"rental_uris":{"android":"levelo://app?vid=84e374c4-fc62-498f-bc8b-cb0b8a3e0a0c","ios":"levelo://app?vid=84e374c4-fc62-498f-bc8b-cb0b8a3e0a0c"},"vehicle_type_id":"4","last_reported":1730121579,"current_range_meters":38000,"station_id":"ce4bhkp2rcd13ifvqgd0","pricing_plan_id":"cebpf4jnsgd1na2vs0mg"},{"bike_id":"64936cd0-316a-44fa-ae6d-80f1adc7257d","system_id":"levelo_inurba_marseille","lat":43.27315,"lon":5.39071,"is_reserved":false,"is_disabled":false,"rental_uris":{"android":"levelo://app?vid=64936cd0-316a-44fa-ae6d-80f1adc7257d","ios":"levelo://app?vid=64936cd0-316a-44fa-ae6d-80f1adc7257d"},"vehicle_type_id":"4","last_reported":1730121579,"current_range_meters":37600,"station_id":"ce4bhgp2rcd13ifvqfe0","pricing_plan_id":"cebpf4jnsgd1na2vs0mg"},{"bike_id":"ef48eac5-24e6-4ab6-b94f-33fb96d2883e","system_id":"levelo_inurba_marseille","lat":43.30529,"lon":5.36696,"is_reserved":false,"is_disabled":false,"rental_uris":{"android":"levelo://app?vid=ef48eac5-24e6-4ab6-b94f-33fb96d2883e","ios":"levelo://app?vid=ef48eac5-24e6-4ab6-b94f-33fb96d2883e"},"vehicle_type_id":"4","last_reported":1730121579,"current_range_meters":23200,"station_id":"ce4bgrp2rcd13ifvqc9g","pricing_plan_id":"cebpf4jnsgd1na2vs0mg"},{"bike_id":"31d15b6e-2bb9-4309-bc7b-22d8aa68c244","system_id":"levelo_inurba_marseille","lat":43.250031,"lon":5.389282,"is_reserved":false,"is_disabled":false,"rental_uris":{"android":"levelo://app?vid=31d15b6e-2bb9-4309-bc7b-22d8aa68c244","ios":"levelo://app?vid=31d15b6e-2bb9-4309-bc7b-22d8aa68c244"},"vehicle_type_id":"4","last_reported":1730121579,"current_range_meters":38400,"station_id":"ce4bhgp2rcd13ifvqfd0","pricing_plan_id":"cebpf4jnsgd1na2vs0mg"},{"bike_id":"d3e21c44-4db6-404b-be1b-bdfed76092f4","system_id":"levelo_inurba_marseille","lat":43.27376,"lon":5.36254,"is_reserved":false,"is_disabled":false,"rental_uris":{"android":"levelo://app?vid=d3e21c44-4db6-404b-be1b-bdfed76092f4","ios":"levelo://app?vid=d3e21c44-4db6-404b-be1b-bdfed76092f4"},"vehicle_type_id":"4","last_reported":1730121579,"current_range_meters":11600,"station_id":"ce4bhbh2rcd13ifvqeo0","pricing_plan_id":"cebpf4jnsgd1na2vs0mg"},{"bike_id":"2ab6a876-b383-42be-8174-3b09d00c2764","system_id":"levelo_inurba_marseille","lat":43.22929,"lon":5.35373,"is_reserved":false,"is_disabled":false,"rental_uris":{"android":"levelo://app?vid=2ab6a876-b383-42be-8174-3b09d00c2764","ios":"levelo://app?vid=2ab6a876-b383-42be-8174-3b09d00c2764"},"vehicle_type_id":"4","last_reported":1730121579,"current_range_meters":36800,"station_id":"cpo3532slgdg3j2ikp40","pricing_plan_id":"cebpf4jnsgd1na2vs0mg"},{"bike_id":"61da5b52-ac74-461a-95d5-143a6b50af3a","system_id":"levelo_inurba_marseille","lat":43.28431,"lon":5.34984,"is_reserved":false,"is_disabled":false,"rental_uris":{"android":"levelo://app?vid=61da5b52-ac74-461a-95d5-143a6b50af3a","ios":"levelo://app?vid=61da5b52-ac74-461a-95d5-143a6b50af3a"},"vehicle_type_id":"4","last_reported":1730121579,"current_range_meters":39200,"station_id":"ce4bhbh2rcd13ifvqepg","pricing_plan_id":"cebpf4jnsgd1na2vs0mg"},{"bike_id":"e9d2627b-0323-4f6a-bb61-f8fed2e2d6e2","system_id":"levelo_inurba_marseille","lat":43.24181,"lon":5.39719,"is_reserved":false,"is_disabled":false,"rental_uris":{"android":"levelo://app?vid=e9d2627b-0323-4f6a-bb61-f8fed2e2d6e2","ios":"levelo://app?vid=e9d2627b-0323-4f6a-bb61-f8fed2e2d6e2"},"vehicle_type_id":"4","last_reported":1730121579,"current_range_meters":8800,"station_id":"ce4bhn12rcd13ifvqgpg","pricing_plan_id":"cebpf4jnsgd1na2vs0mg"},{"bike_id":"8e087107-ed57-42d3-8042-45386fe12983","system_id":"levelo_inurba_marseille","lat":43.30487,"lon":5.3791,"is_reserved":false,"is_disabled":false,"rental_uris":{"android":"levelo://app?vid=8e087107-ed57-42d3-8042-45386fe12983","ios":"levelo://app?vid=8e087107-ed57-42d3-8042-45386fe12983"},"vehicle_type_id":"4","last_reported":1730121579,"current_range_meters":22400,"station_id":"ce4bgup2rcd13ifvqcn0","pricing_plan_id":"cebpf4jnsgd1na2vs0mg"},{"bike_id":"3b55977e-9bbf-45e4-bf87-620a1992078b","system_id":"levelo_inurba_marseille","lat":43.2797,"lon":5.38733,"is_reserved":false,"is_disabled":false,"rental_uris":{"android":"levelo://app?vid=3b55977e-9bbf-45e4-bf87-620a1992078b","ios":"levelo://app?vid=3b55977e-9bbf-45e4-bf87-620a1992078b"},"vehicle_type_id":"4","last_reported":1730121579,"current_range_meters":1600,"station_id":"ce4bhg12rcd13ifvqf80","pricing_plan_id":"cebpf4jnsgd1na2vs0mg"},{"bike_id":"68051c1b-91bb-47be-b0b7-d3e7ec1a839e","system_id":"levelo_inurba_marseille","lat":43.28719,"lon":5.37931,"is_reserved":false,"is_disabled":false,"rental_uris":{"android":"levelo://app?vid=68051c1b-91bb-47be-b0b7-d3e7ec1a839e","ios":"levelo://app?vid=68051c1b-91bb-47be-b0b7-d3e7ec1a839e"},"vehicle_type_id":"4","last_reported":1730121579,"current_range_meters":33200,"station_id":"ce4bh9p2rcd13ifvqec0","pricing_plan_id":"cebpf4jnsgd1na2vs0mg"},{"bike_id":"d1dacee6-8f47-4ca5-823b-a2ea6c3413e8","system_id":"levelo_inurba_marseille","lat":43.23187,"lon":5.35553,"is_reserved":false,"is_disabled":false,"rental_uris":{"android":"levelo://app?vid=d1dacee6-8f47-4ca5-823b-a2ea6c3413e8","ios":"levelo://app?vid=d1dacee6-8f47-4ca5-823b-a2ea6c3413e8"},"vehicle_type_id":"4","last_reported":1730121579,"current_range_meters":38800,"station_id":"ce4bhu92rcd13ifvqi70","pricing_plan_id":"cebpf4jnsgd1na2vs0mg"},{"bike_id":"ca1e893f-71bf-4c00-b224-b9bae1b4db01","system_id":"levelo_inurba_marseille","lat":43.297827,"lon":5.371097,"is_reserved":false,"is_disabled":false,"rental_uris":{"android":"levelo://app?vid=ca1e893f-71bf-4c00-b224-b9bae1b4db01","ios":"levelo://app?vid=ca1e893f-71bf-4c00-b224-b9bae1b4db01"},"vehicle_type_id":"4","last_reported":1730121579,"current_range_meters":36000,"station_id":"ce4bgop2rcd13ifvqc1g","pricing_plan_id":"cebpf4jnsgd1na2vs0mg"},{"bike_id":"198f7b84-08ca-4301-9c51-ad5c9d01dc4c","system_id":"levelo_inurba_marseille","lat":43.23154,"lon":5.43696,"is_reserved":false,"is_disabled":false,"rental_uris":{"android":"levelo://app?vid=198f7b84-08ca-4301-9c51-ad5c9d01dc4c","ios":"levelo://app?vid=198f7b84-08ca-4301-9c51-ad5c9d01dc4c"},"vehicle_type_id":"4","last_reported":1730121579,"current_range_meters":23200,"station_id":"ce4bhmp2rcd13ifvqgog","pricing_plan_id":"cebpf4jnsgd1na2vs0mg"},{"bike_id":"062c37a5-8c98-4262-a368-0baffa13b81a","system_id":"levelo_inurba_marseille","lat":43.29545,"lon":5.42279,"is_reserved":false,"is_disabled":false,"rental_uris":{"android":"levelo://app?vid=062c37a5-8c98-4262-a368-0baffa13b81a","ios":"levelo://app?vid=062c37a5-8c98-4262-a368-0baffa13b81a"},"vehicle_type_id":"4","last_reported":1730121579,"current_range_meters":17200,"station_id":"ce4bhph2rcd13ifvqhdg","pricing_plan_id":"cebpf4jnsgd1na2vs0mg"},{"bike_id":"4f4c4985-68d0-4eb6-83d9-7ad2a4c3d04a","system_id":"levelo_inurba_marseille","lat":43.29524,"lon":5.39039,"is_reserved":false,"is_disabled":false,"rental_uris":{"android":"levelo://app?vid=4f4c4985-68d0-4eb6-83d9-7ad2a4c3d04a","ios":"levelo://app?vid=4f4c4985-68d0-4eb6-83d9-7ad2a4c3d04a"},"vehicle_type_id":"4","last_reported":1730121579,"current_range_meters":40000,"station_id":"ce4bh3p2rcd13ifvqdp0","pricing_plan_id":"cebpf4jnsgd1na2vs0mg"},{"bike_id":"274b9b52-d1a1-4bf4-b123-355b375c0ed6","system_id":"levelo_inurba_marseille","lat":43.29418,"lon":5.38613,"is_reserved":false,"is_disabled":false,"rental_uris":{"android":"levelo://app?vid=274b9b52-d1a1-4bf4-b123-355b375c0ed6","ios":"levelo://app?vid=274b9b52-d1a1-4bf4-b123-355b375c0ed6"},"vehicle_type_id":"4","last_reported":1730121579,"current_range_meters":12000,"station_id":"ce4bh4p2rcd13ifvqe1g","pricing_plan_id":"cebpf4jnsgd1na2vs0mg"},{"bike_id":"f166fcae-cd80-4a8e-9519-64e16d8dd52c","system_id":"levelo_inurba_marseille","lat":43.30915,"lon":5.36852,"is_reserved":false,"is_disabled":false,"rental_uris":{"android":"levelo://app?vid=f166fcae-cd80-4a8e-9519-64e16d8dd52c","ios":"levelo://app?vid=f166fcae-cd80-4a8e-9519-64e16d8dd52c"},"vehicle_type_id":"4","last_reported":1730121579,"current_range_meters":28000,"station_id":"ce4bgn92rcd13ifvqbvg","pricing_plan_id":"cebpf4jnsgd1na2vs0mg"},{"bike_id":"b953eceb-3ed9-4394-8d28-9bc7a648a5cb","system_id":"levelo_inurba_marseille","lat":43.23151,"lon":5.43713,"is_reserved":false,"is_disabled":false,"rental_uris":{"android":"levelo://app?vid=b953eceb-3ed9-4394-8d28-9bc7a648a5cb","ios":"levelo://app?vid=b953eceb-3ed9-4394-8d28-9bc7a648a5cb"},"vehicle_type_id":"4","last_reported":1730121579,"current_range_meters":13600,"station_id":"ce4bhmp2rcd13ifvqgog","pricing_plan_id":"cebpf4jnsgd1na2vs0mg"},{"bike_id":"a1bce33d-5de0-4413-9dcf-904d34427281","system_id":"levelo_inurba_marseille","lat":43.29226,"lon":5.36066,"is_reserved":false,"is_disabled":false,"rental_uris":{"android":"levelo://app?vid=a1bce33d-5de0-4413-9dcf-904d34427281","ios":"levelo://app?vid=a1bce33d-5de0-4413-9dcf-904d34427281"},"vehicle_type_id":"4","last_reported":1730121579,"current_range_meters":31200,"station_id":"ce4bhbh2rcd13ifvqeqg","pricing_plan_id":"cebpf4jnsgd1na2vs0mg"},{"bike_id":"60ed52ed-6012-42af-862a-c8670371b03f","system_id":"levelo_inurba_marseille","lat":43.29209,"lon":5.36069,"is_reserved":false,"is_disabled":false,"rental_uris":{"android":"levelo://app?vid=60ed52ed-6012-42af-862a-c8670371b03f","ios":"levelo://app?vid=60ed52ed-6012-42af-862a-c8670371b03f"},"vehicle_type_id":"4","last_reported":1730121579,"current_range_meters":23200,"station_id":"ce4bhbh2rcd13ifvqeqg","pricing_plan_id":"cebpf4jnsgd1na2vs0mg"},{"bike_id":"6e7720bf-7f9c-4e7b-a53d-40d3fb15b3f3","system_id":"levelo_inurba_marseille","lat":43.27175,"lon":5.40993,"is_reserved":false,"is_disabled":false,"rental_uris":{"android":"levelo://app?vid=6e7720bf-7f9c-4e7b-a53d-40d3fb15b3f3","ios":"levelo://app?vid=6e7720bf-7f9c-4e7b-a53d-40d3fb15b3f3"},"vehicle_type_id":"4","last_reported":1730121579,"current_range_meters":30800,"station_id":"ce4bhl12rcd13ifvqgf0","pricing_plan_id":"cebpf4jnsgd1na2vs0mg"},{"bike_id":"6875a1a6-32b9-4783-93f5-84a3a0c85f67","system_id":"levelo_inurba_marseille","lat":43.23066,"lon":5.35491,"is_reserved":false,"is_disabled":false,"rental_uris":{"android":"levelo://app?vid=6875a1a6-32b9-4783-93f5-84a3a0c85f67","ios":"levelo://app?vid=6875a1a6-32b9-4783-93f5-84a3a0c85f67"},"vehicle_type_id":"4","last_reported":1730121579,"current_range_meters":19200,"station_id":"cpo3342slgdg3j2ifvpg","pricing_plan_id":"cebpf4jnsgd1na2vs0mg"},{"bike_id":"e94bbbff-704f-4ece-8879-0d04b80e1d69","system_id":"levelo_inurba_marseille","lat":43.24805,"lon":5.37451,"is_reserved":false,"is_disabled":false,"rental_uris":{"android":"levelo://app?vid=e94bbbff-704f-4ece-8879-0d04b80e1d69","ios":"levelo://app?vid=e94bbbff-704f-4ece-8879-0d04b80e1d69"},"vehicle_type_id":"4","last_reported":1730121579,"current_range_meters":38800,"station_id":"ce4bhgh2rcd13ifvqfb0","pricing_plan_id":"cebpf4jnsgd1na2vs0mg"},{"bike_id":"fe312e77-2654-4444-82cc-827de589f896","system_id":"levelo_inurba_marseille","lat":43.289429,"lon":5.383913,"is_reserved":false,"is_disabled":false,"rental_uris":{"android":"levelo://app?vid=fe312e77-2654-4444-82cc-827de589f896","ios":"levelo://app?vid=fe312e77-2654-4444-82cc-827de589f896"},"vehicle_type_id":"4","last_reported":1730121579,"current_range_meters":32000,"station_id":"ce4bh612rcd13ifvqe6g","pricing_plan_id":"cebpf4jnsgd1na2vs0mg"},{"bike_id":"6d6971e8-97c0-40dc-8bcb-09115a9d3131","system_id":"levelo_inurba_marseille","lat":43.23159,"lon":5.43715,"is_reserved":false,"is_disabled":false,"rental_uris":{"android":"levelo://app?vid=6d6971e8-97c0-40dc-8bcb-09115a9d3131","ios":"levelo://app?vid=6d6971e8-97c0-40dc-8bcb-09115a9d3131"},"vehicle_type_id":"4","last_reported":1730121579,"current_range_meters":13600,"station_id":"ce4bhmp2rcd13ifvqgog","pricing_plan_id":"cebpf4jnsgd1na2vs0mg"},{"bike_id":"e89036ab-06cb-459b-91f1-830ff3435de6","system_id":"levelo_inurba_marseille","lat":43.23189,"lon":5.35542,"is_reserved":false,"is_disabled":false,"rental_uris":{"android":"levelo://app?vid=e89036ab-06cb-459b-91f1-830ff3435de6","ios":"levelo://app?vid=e89036ab-06cb-459b-91f1-830ff3435de6"},"vehicle_type_id":"4","last_reported":1730121579,"current_range_meters":36800,"station_id":"ce4bhu92rcd13ifvqi70","pricing_plan_id":"cebpf4jnsgd1na2vs0mg"},{"bike_id":"1e9c6d74-0c0c-49af-9594-2e87c37feece","system_id":"levelo_inurba_marseille","lat":43.28847,"lon":5.35834,"is_reserved":false,"is_disabled":false,"rental_uris":{"android":"levelo://app?vid=1e9c6d74-0c0c-49af-9594-2e87c37feece","ios":"levelo://app?vid=1e9c6d74-0c0c-49af-9594-2e87c37feece"},"vehicle_type_id":"4","last_reported":1730121579,"current_range_meters":38800,"station_id":"ce4bhb12rcd13ifvqem0","pricing_plan_id":"cebpf4jnsgd1na2vs0mg"},{"bike_id":"b1d55027-2f8a-47e1-9245-9ac2ee1613ea","system_id":"levelo_inurba_marseille","lat":43.30889,"lon":5.37191,"is_reserved":false,"is_disabled":false,"rental_uris":{"android":"levelo://app?vid=b1d55027-2f8a-47e1-9245-9ac2ee1613ea","ios":"levelo://app?vid=b1d55027-2f8a-47e1-9245-9ac2ee1613ea"},"vehicle_type_id":"4","last_reported":1730121579,"current_range_meters":19200,"station_id":"ce4bguh2rcd13ifvqckg","pricing_plan_id":"cebpf4jnsgd1na2vs0mg"},{"bike_id":"3e8c8464-2e33-40ff-89cf-669c57da5236","system_id":"levelo_inurba_marseille","lat":43.30144,"lon":5.38782,"is_reserved":false,"is_disabled":false,"rental_uris":{"android":"levelo://app?vid=3e8c8464-2e33-40ff-89cf-669c57da5236","ios":"levelo://app?vid=3e8c8464-2e33-40ff-89cf-669c57da5236"},"vehicle_type_id":"4","last_reported":1730121579,"current_range_meters":30000,"station_id":"ce4bghh2rcd13ifvqb60","pricing_plan_id":"cebpf4jnsgd1na2vs0mg"},{"bike_id":"7fe76d9c-88a1-4c85-8e5f-9f86d7557849","system_id":"levelo_inurba_marseille","lat":43.23145,"lon":5.43716,"is_reserved":false,"is_disabled":false,"rental_uris":{"android":"levelo://app?vid=7fe76d9c-88a1-4c85-8e5f-9f86d7557849","ios":"levelo://app?vid=7fe76d9c-88a1-4c85-8e5f-9f86d7557849"},"vehicle_type_id":"4","last_reported":1730121579,"current_range_meters":20400,"station_id":"ce4bhmp2rcd13ifvqgog","pricing_plan_id":"cebpf4jnsgd1na2vs0mg"},{"bike_id":"5d013205-968f-46f0-8cb2-f55d13ad5ff4","system_id":"levelo_inurba_marseille","lat":43.32475,"lon":5.36573,"is_reserved":false,"is_disabled":false,"rental_uris":{"android":"levelo://app?vid=5d013205-968f-46f0-8cb2-f55d13ad5ff4","ios":"levelo://app?vid=5d013205-968f-46f0-8cb2-f55d13ad5ff4"},"vehicle_type_id":"4","last_reported":1730121579,"current_range_meters":36800,"station_id":"ce4bhs12rcd13ifvqhvg","pricing_plan_id":"cebpf4jnsgd1na2vs0mg"},{"bike_id":"d27b705b-74d8-4d3a-8224-09965c117aa2","system_id":"levelo_inurba_marseille","lat":43.33716,"lon":5.39177,"is_reserved":false,"is_disabled":false,"rental_uris":{"android":"levelo://app?vid=d27b705b-74d8-4d3a-8224-09965c117aa2","ios":"levelo://app?vid=d27b705b-74d8-4d3a-8224-09965c117aa2"},"vehicle_type_id":"4","last_reported":1730121579,"current_range_meters":39200,"station_id":"ce4bhr92rcd13ifvqhsg","pricing_plan_id":"cebpf4jnsgd1na2vs0mg"},{"bike_id":"4aee1b18-b4c8-4ec8-a58f-6833accd77f8","system_id":"levelo_inurba_marseille","lat":43.24176,"lon":5.39729,"is_reserved":false,"is_disabled":false,"rental_uris":{"android":"levelo://app?vid=4aee1b18-b4c8-4ec8-a58f-6833accd77f8","ios":"levelo://app?vid=4aee1b18-b4c8-4ec8-a58f-6833accd77f8"},"vehicle_type_id":"4","last_reported":1730121579,"current_range_meters":17600,"station_id":"ce4bhn12rcd13ifvqgpg","pricing_plan_id":"cebpf4jnsgd1na2vs0mg"},{"bike_id":"2f921f60-1890-404a-898c-6dae28d2ff64","system_id":"levelo_inurba_marseille","lat":43.32109,"lon":5.36773,"is_reserved":false,"is_disabled":false,"rental_uris":{"android":"levelo://app?vid=2f921f60-1890-404a-898c-6dae28d2ff64","ios":"levelo://app?vid=2f921f60-1890-404a-898c-6dae28d2ff64"},"vehicle_type_id":"4","last_reported":1730121579,"current_range_meters":38800,"station_id":"ce4bhrh2rcd13ifvqhug","pricing_plan_id":"cebpf4jnsgd1na2vs0mg"},{"bike_id":"133988f1-6f73-4e20-907b-af9f23cfa899","system_id":"levelo_inurba_marseille","lat":43.24167,"lon":5.36396,"is_reserved":false,"is_disabled":false,"rental_uris":{"android":"levelo://app?vid=133988f1-6f73-4e20-907b-af9f23cfa899","ios":"levelo://app?vid=133988f1-6f73-4e20-907b-af9f23cfa899"},"vehicle_type_id":"4","last_reported":1730121579,"current_range_meters":16400,"station_id":"cpo36qri1sfpv3e86is0","pricing_plan_id":"cebpf4jnsgd1na2vs0mg"},{"bike_id":"c9f299e7-44b3-4adc-a93d-769d4eadb8bd","system_id":"levelo_inurba_marseille","lat":43.23146,"lon":5.43717,"is_reserved":false,"is_disabled":false,"rental_uris":{"android":"levelo://app?vid=c9f299e7-44b3-4adc-a93d-769d4eadb8bd","ios":"levelo://app?vid=c9f299e7-44b3-4adc-a93d-769d4eadb8bd"},"vehicle_type_id":"4","last_reported":1730121579,"current_range_meters":33600,"station_id":"ce4bhmp2rcd13ifvqgog","pricing_plan_id":"cebpf4jnsgd1na2vs0mg"},{"bike_id":"8b1435f2-e9dd-44c1-a5f6-f4cfccf31c9f","system_id":"levelo_inurba_marseille","lat":43.33104,"lon":5.38205,"is_reserved":false,"is_disabled":false,"rental_uris":{"android":"levelo://app?vid=8b1435f2-e9dd-44c1-a5f6-f4cfccf31c9f","ios":"levelo://app?vid=8b1435f2-e9dd-44c1-a5f6-f4cfccf31c9f"},"vehicle_type_id":"4","last_reported":1730121579,"current_range_meters":29600,"station_id":"","pricing_plan_id":"cebpf4jnsgd1na2vs0mg"},{"bike_id":"1959dbd9-0ee0-478d-a3dc-b3a0dfb37df2","system_id":"levelo_inurba_marseille","lat":43.305369,"lon":5.365311,"is_reserved":false,"is_disabled":false,"rental_uris":{"android":"levelo://app?vid=1959dbd9-0ee0-478d-a3dc-b3a0dfb37df2","ios":"levelo://app?vid=1959dbd9-0ee0-478d-a3dc-b3a0dfb37df2"},"vehicle_type_id":"4","last_reported":1730121579,"current_range_meters":35200,"station_id":"ce4bgs12rcd13ifvqcag","pricing_plan_id":"cebpf4jnsgd1na2vs0mg"},{"bike_id":"ac54c711-9c7f-4346-b1bd-7b0862fab3bb","system_id":"levelo_inurba_marseille","lat":43.30948,"lon":5.39037,"is_reserved":false,"is_disabled":false,"rental_uris":{"android":"levelo://app?vid=ac54c711-9c7f-4346-b1bd-7b0862fab3bb","ios":"levelo://app?vid=ac54c711-9c7f-4346-b1bd-7b0862fab3bb"},"vehicle_type_id":"4","last_reported":1730121579,"current_range_meters":4800,"station_id":"ce4bgup2rcd13ifvqco0","pricing_plan_id":"cebpf4jnsgd1na2vs0mg"},{"bike_id":"4c59ee98-4d15-4af7-80ab-178e9eac8fae","system_id":"levelo_inurba_marseille","lat":43.23154,"lon":5.43702,"is_reserved":false,"is_disabled":false,"rental_uris":{"android":"levelo://app?vid=4c59ee98-4d15-4af7-80ab-178e9eac8fae","ios":"levelo://app?vid=4c59ee98-4d15-4af7-80ab-178e9eac8fae"},"vehicle_type_id":"4","last_reported":1730121579,"current_range_meters":3200,"station_id":"ce4bhmp2rcd13ifvqgog","pricing_plan_id":"cebpf4jnsgd1na2vs0mg"},{"bike_id":"9066f001-f51b-4d81-9869-6033e9d17ee0","system_id":"levelo_inurba_marseille","lat":43.30197,"lon":5.36616,"is_reserved":false,"is_disabled":false,"rental_uris":{"android":"levelo://app?vid=9066f001-f51b-4d81-9869-6033e9d17ee0","ios":"levelo://app?vid=9066f001-f51b-4d81-9869-6033e9d17ee0"},"vehicle_type_id":"4","last_reported":1730121579,"current_range_meters":12000,"station_id":"ce4bgrh2rcd13ifvqc8g","pricing_plan_id":"cebpf4jnsgd1na2vs0mg"},{"bike_id":"d0439c85-2589-49f8-85ca-2ad01fbe3bbc","system_id":"levelo_inurba_marseille","lat":43.32287,"lon":5.38271,"is_reserved":false,"is_disabled":false,"rental_uris":{"android":"levelo://app?vid=d0439c85-2589-49f8-85ca-2ad01fbe3bbc","ios":"levelo://app?vid=d0439c85-2589-49f8-85ca-2ad01fbe3bbc"},"vehicle_type_id":"4","last_reported":1730121579,"current_range_meters":38800,"station_id":"ce4bhr12rcd13ifvqhqg","pricing_plan_id":"cebpf4jnsgd1na2vs0mg"},{"bike_id":"6e4158cd-dbb8-468e-827a-350a592e6481","system_id":"levelo_inurba_marseille","lat":43.30131,"lon":5.37422,"is_reserved":false,"is_disabled":false,"rental_uris":{"android":"levelo://app?vid=6e4158cd-dbb8-468e-827a-350a592e6481","ios":"levelo://app?vid=6e4158cd-dbb8-468e-827a-350a592e6481"},"vehicle_type_id":"4","last_reported":1730121579,"current_range_meters":23200,"station_id":"ce4bgs92rcd13ifvqcc0","pricing_plan_id":"cebpf4jnsgd1na2vs0mg"},{"bike_id":"cd8988cf-34e0-4cd8-92c1-67d3cd8c964e","system_id":"levelo_inurba_marseille","lat":43.23961,"lon":5.36628,"is_reserved":false,"is_disabled":false,"rental_uris":{"android":"levelo://app?vid=cd8988cf-34e0-4cd8-92c1-67d3cd8c964e","ios":"levelo://app?vid=cd8988cf-34e0-4cd8-92c1-67d3cd8c964e"},"vehicle_type_id":"4","last_reported":1730121579,"current_range_meters":10800,"station_id":"ce4bhi12rcd13ifvqfp0","pricing_plan_id":"cebpf4jnsgd1na2vs0mg"},{"bike_id":"27f81284-9f21-41ef-9a96-3be8fbe33cde","system_id":"levelo_inurba_marseille","lat":43.30136,"lon":5.37401,"is_reserved":false,"is_disabled":false,"rental_uris":{"android":"levelo://app?vid=27f81284-9f21-41ef-9a96-3be8fbe33cde","ios":"levelo://app?vid=27f81284-9f21-41ef-9a96-3be8fbe33cde"},"vehicle_type_id":"4","last_reported":1730121579,"current_range_meters":38000,"station_id":"ce4bgs92rcd13ifvqcc0","pricing_plan_id":"cebpf4jnsgd1na2vs0mg"},{"bike_id":"beedd073-4cf3-453d-b215-0a922cffa6f4","system_id":"levelo_inurba_marseille","lat":43.29713,"lon":5.36612,"is_reserved":false,"is_disabled":false,"rental_uris":{"android":"levelo://app?vid=beedd073-4cf3-453d-b215-0a922cffa6f4","ios":"levelo://app?vid=beedd073-4cf3-453d-b215-0a922cffa6f4"},"vehicle_type_id":"4","last_reported":1730121579,"current_range_meters":38000,"station_id":"ce4bgn12rcd13ifvqbt0","pricing_plan_id":"cebpf4jnsgd1na2vs0mg"},{"bike_id":"bea43885-0856-455e-ac3f-50e3c52f4d9e","system_id":"levelo_inurba_marseille","lat":43.25106,"lon":5.40318,"is_reserved":false,"is_disabled":false,"rental_uris":{"android":"levelo://app?vid=bea43885-0856-455e-ac3f-50e3c52f4d9e","ios":"levelo://app?vid=bea43885-0856-455e-ac3f-50e3c52f4d9e"},"vehicle_type_id":"4","last_reported":1730121579,"current_range_meters":36400,"station_id":"ce4bhlh2rcd13ifvqgig","pricing_plan_id":"cebpf4jnsgd1na2vs0mg"},{"bike_id":"bfd6f08f-1dea-4fcf-b7fa-e215a26b7350","system_id":"levelo_inurba_marseille","lat":43.29016,"lon":5.38131,"is_reserved":false,"is_disabled":false,"rental_uris":{"android":"levelo://app?vid=bfd6f08f-1dea-4fcf-b7fa-e215a26b7350","ios":"levelo://app?vid=bfd6f08f-1dea-4fcf-b7fa-e215a26b7350"},"vehicle_type_id":"4","last_reported":1730121579,"current_range_meters":27200,"station_id":"ce4bh4p2rcd13ifvqe1g","pricing_plan_id":"cebpf4jnsgd1na2vs0mg"},{"bike_id":"aacb3cb6-ebb2-4c9a-9d59-1efc9a1b694e","system_id":"levelo_inurba_marseille","lat":43.25105,"lon":5.40316,"is_reserved":false,"is_disabled":false,"rental_uris":{"android":"levelo://app?vid=aacb3cb6-ebb2-4c9a-9d59-1efc9a1b694e","ios":"levelo://app?vid=aacb3cb6-ebb2-4c9a-9d59-1efc9a1b694e"},"vehicle_type_id":"4","last_reported":1730121579,"current_range_meters":8400,"station_id":"ce4bhlh2rcd13ifvqgig","pricing_plan_id":"cebpf4jnsgd1na2vs0mg"},{"bike_id":"fe0f4ad9-8221-48ed-be5d-c64547a2f47a","system_id":"levelo_inurba_marseille","lat":43.28627,"lon":5.38346,"is_reserved":false,"is_disabled":false,"rental_uris":{"android":"levelo://app?vid=fe0f4ad9-8221-48ed-be5d-c64547a2f47a","ios":"levelo://app?vid=fe0f4ad9-8221-48ed-be5d-c64547a2f47a"},"vehicle_type_id":"4","last_reported":1730121579,"current_range_meters":22400,"station_id":"ce4bh4p2rcd13ifvqe1g","pricing_plan_id":"cebpf4jnsgd1na2vs0mg"},{"bike_id":"8d66ba2e-e771-4c67-99ad-ef2d113002e3","system_id":"levelo_inurba_marseille","lat":43.25084,"lon":5.39512,"is_reserved":false,"is_disabled":false,"rental_uris":{"android":"levelo://app?vid=8d66ba2e-e771-4c67-99ad-ef2d113002e3","ios":"levelo://app?vid=8d66ba2e-e771-4c67-99ad-ef2d113002e3"},"vehicle_type_id":"4","last_reported":1730121579,"current_range_meters":39200,"station_id":"ce4bhm12rcd13ifvqgkg","pricing_plan_id":"cebpf4jnsgd1na2vs0mg"},{"bike_id":"3ed7a980-bf4a-420f-befb-838fea8329f7","system_id":"levelo_inurba_marseille","lat":43.29261,"lon":5.40899,"is_reserved":false,"is_disabled":false,"rental_uris":{"android":"levelo://app?vid=3ed7a980-bf4a-420f-befb-838fea8329f7","ios":"levelo://app?vid=3ed7a980-bf4a-420f-befb-838fea8329f7"},"vehicle_type_id":"4","last_reported":1730121579,"current_range_meters":31200,"station_id":"ce4bh192rcd13ifvqdc0","pricing_plan_id":"cebpf4jnsgd1na2vs0mg"},{"bike_id":"b8e13f61-7a01-4802-ab99-1fc57e8e466f","system_id":"levelo_inurba_marseille","lat":43.25584,"lon":5.38244,"is_reserved":false,"is_disabled":false,"rental_uris":{"android":"levelo://app?vid=b8e13f61-7a01-4802-ab99-1fc57e8e466f","ios":"levelo://app?vid=b8e13f61-7a01-4802-ab99-1fc57e8e466f"},"vehicle_type_id":"4","last_reported":1730121579,"current_range_meters":35600,"station_id":"ce4bhih2rcd13ifvqfs0","pricing_plan_id":"cebpf4jnsgd1na2vs0mg"},{"bike_id":"4150537b-fe9b-45bd-9be8-05c29a43ab71","system_id":"levelo_inurba_marseille","lat":43.29554,"lon":5.422907,"is_reserved":false,"is_disabled":false,"rental_uris":{"android":"levelo://app?vid=4150537b-fe9b-45bd-9be8-05c29a43ab71","ios":"levelo://app?vid=4150537b-fe9b-45bd-9be8-05c29a43ab71"},"vehicle_type_id":"4","last_reported":1730121579,"current_range_meters":38800,"station_id":"ce4bhph2rcd13ifvqhdg","pricing_plan_id":"cebpf4jnsgd1na2vs0mg"},{"bike_id":"2187d057-0598-4b59-91d0-195d0a9512fb","system_id":"levelo_inurba_marseille","lat":43.28275,"lon":5.3508,"is_reserved":false,"is_disabled":false,"rental_uris":{"android":"levelo://app?vid=2187d057-0598-4b59-91d0-195d0a9512fb","ios":"levelo://app?vid=2187d057-0598-4b59-91d0-195d0a9512fb"},"vehicle_type_id":"4","last_reported":1730121579,"current_range_meters":37600,"station_id":"ce4bhbp2rcd13ifvqerg","pricing_plan_id":"cebpf4jnsgd1na2vs0mg"},{"bike_id":"8d3d3869-484c-48fe-92a6-9b4893393769","system_id":"levelo_inurba_marseille","lat":43.2957,"lon":5.37519,"is_reserved":false,"is_disabled":false,"rental_uris":{"android":"levelo://app?vid=8d3d3869-484c-48fe-92a6-9b4893393769","ios":"levelo://app?vid=8d3d3869-484c-48fe-92a6-9b4893393769"},"vehicle_type_id":"4","last_reported":1730121579,"current_range_meters":16800,"station_id":"ce4bgh92rcd13ifvqb50","pricing_plan_id":"cebpf4jnsgd1na2vs0mg"},{"bike_id":"7294e48a-4dba-46cb-8218-4e4ba1cdcc29","system_id":"levelo_inurba_marseille","lat":43.27171,"lon":5.40991,"is_reserved":false,"is_disabled":false,"rental_uris":{"android":"levelo://app?vid=7294e48a-4dba-46cb-8218-4e4ba1cdcc29","ios":"levelo://app?vid=7294e48a-4dba-46cb-8218-4e4ba1cdcc29"},"vehicle_type_id":"4","last_reported":1730121579,"current_range_meters":36400,"station_id":"ce4bhl12rcd13ifvqgf0","pricing_plan_id":"cebpf4jnsgd1na2vs0mg"},{"bike_id":"6b6a994b-dd1b-4c47-bb79-285b7ce84777","system_id":"levelo_inurba_marseille","lat":43.32102,"lon":5.36776,"is_reserved":false,"is_disabled":false,"rental_uris":{"android":"levelo://app?vid=6b6a994b-dd1b-4c47-bb79-285b7ce84777","ios":"levelo://app?vid=6b6a994b-dd1b-4c47-bb79-285b7ce84777"},"vehicle_type_id":"4","last_reported":1730121579,"current_range_meters":38800,"station_id":"ce4bhrh2rcd13ifvqhug","pricing_plan_id":"cebpf4jnsgd1na2vs0mg"},{"bike_id":"b1ec7505-5541-4ad4-91a0-af2e2f4f44a3","system_id":"levelo_inurba_marseille","lat":43.30605,"lon":5.37228,"is_reserved":false,"is_disabled":false,"rental_uris":{"android":"levelo://app?vid=b1ec7505-5541-4ad4-91a0-af2e2f4f44a3","ios":"levelo://app?vid=b1ec7505-5541-4ad4-91a0-af2e2f4f44a3"},"vehicle_type_id":"4","last_reported":1730121579,"current_range_meters":38000,"station_id":"ce4bgqh2rcd13ifvqc4g","pricing_plan_id":"cebpf4jnsgd1na2vs0mg"},{"bike_id":"0095abfa-456c-476b-adc4-9c54e00e6824","system_id":"levelo_inurba_marseille","lat":43.28473,"lon":5.38407,"is_reserved":false,"is_disabled":false,"rental_uris":{"android":"levelo://app?vid=0095abfa-456c-476b-adc4-9c54e00e6824","ios":"levelo://app?vid=0095abfa-456c-476b-adc4-9c54e00e6824"},"vehicle_type_id":"4","last_reported":1730121579,"current_range_meters":28400,"station_id":"ce4bh512rcd13ifvqe3g","pricing_plan_id":"cebpf4jnsgd1na2vs0mg"},{"bike_id":"27480992-d9bc-47f1-a4d6-b8a52e19827a","system_id":"levelo_inurba_marseille","lat":43.302032,"lon":5.366182,"is_reserved":false,"is_disabled":false,"rental_uris":{"android":"levelo://app?vid=27480992-d9bc-47f1-a4d6-b8a52e19827a","ios":"levelo://app?vid=27480992-d9bc-47f1-a4d6-b8a52e19827a"},"vehicle_type_id":"4","last_reported":1730121579,"current_range_meters":11600,"station_id":"ce4bgrh2rcd13ifvqc8g","pricing_plan_id":"cebpf4jnsgd1na2vs0mg"},{"bike_id":"e113f747-4daa-44f7-a218-9e030daa2565","system_id":"levelo_inurba_marseille","lat":43.32105,"lon":5.36769,"is_reserved":false,"is_disabled":false,"rental_uris":{"android":"levelo://app?vid=e113f747-4daa-44f7-a218-9e030daa2565","ios":"levelo://app?vid=e113f747-4daa-44f7-a218-9e030daa2565"},"vehicle_type_id":"4","last_reported":1730121579,"current_range_meters":20800,"station_id":"ce4bhrh2rcd13ifvqhug","pricing_plan_id":"cebpf4jnsgd1na2vs0mg"},{"bike_id":"c83bf92a-895e-4031-90cc-0a4806604b3f","system_id":"levelo_inurba_marseille","lat":43.23054,"lon":5.35491,"is_reserved":false,"is_disabled":false,"rental_uris":{"android":"levelo://app?vid=c83bf92a-895e-4031-90cc-0a4806604b3f","ios":"levelo://app?vid=c83bf92a-895e-4031-90cc-0a4806604b3f"},"vehicle_type_id":"4","last_reported":1730121579,"current_range_meters":36800,"station_id":"cpo3342slgdg3j2ifvpg","pricing_plan_id":"cebpf4jnsgd1na2vs0mg"},{"bike_id":"1ac2f97e-1640-45de-b046-1ec09bdc92c1","system_id":"levelo_inurba_marseille","lat":43.30541,"lon":5.36691,"is_reserved":false,"is_disabled":false,"rental_uris":{"android":"levelo://app?vid=1ac2f97e-1640-45de-b046-1ec09bdc92c1","ios":"levelo://app?vid=1ac2f97e-1640-45de-b046-1ec09bdc92c1"},"vehicle_type_id":"4","last_reported":1730121579,"current_range_meters":27600,"station_id":"ce4bgrp2rcd13ifvqc9g","pricing_plan_id":"cebpf4jnsgd1na2vs0mg"},{"bike_id":"9fd56fad-5f3d-42b4-b491-7b57b76bc0cf","system_id":"levelo_inurba_marseille","lat":43.27815,"lon":5.40714,"is_reserved":false,"is_disabled":false,"rental_uris":{"android":"levelo://app?vid=9fd56fad-5f3d-42b4-b491-7b57b76bc0cf","ios":"levelo://app?vid=9fd56fad-5f3d-42b4-b491-7b57b76bc0cf"},"vehicle_type_id":"4","last_reported":1730121579,"current_range_meters":16800,"station_id":"ce4bhnh2rcd13ifvqgtg","pricing_plan_id":"cebpf4jnsgd1na2vs0mg"},{"bike_id":"263c3a26-a124-4663-abb1-4c08951a90e3","system_id":"levelo_inurba_marseille","lat":43.31223,"lon":5.36855,"is_reserved":false,"is_disabled":false,"rental_uris":{"android":"levelo://app?vid=263c3a26-a124-4663-abb1-4c08951a90e3","ios":"levelo://app?vid=263c3a26-a124-4663-abb1-4c08951a90e3"},"vehicle_type_id":"4","last_reported":1730121579,"current_range_meters":28400,"station_id":"ce4bgl92rcd13ifvqbq0","pricing_plan_id":"cebpf4jnsgd1na2vs0mg"},{"bike_id":"4a60a4b3-3d7b-4747-ae32-7ad4aff1372b","system_id":"levelo_inurba_marseille","lat":43.28426,"lon":5.34987,"is_reserved":false,"is_disabled":false,"rental_uris":{"android":"levelo://app?vid=4a60a4b3-3d7b-4747-ae32-7ad4aff1372b","ios":"levelo://app?vid=4a60a4b3-3d7b-4747-ae32-7ad4aff1372b"},"vehicle_type_id":"4","last_reported":1730121579,"current_range_meters":36800,"station_id":"ce4bhbh2rcd13ifvqepg","pricing_plan_id":"cebpf4jnsgd1na2vs0mg"},{"bike_id":"41752ed9-af86-4bed-a8f5-36e268c58f61","system_id":"levelo_inurba_marseille","lat":43.29275,"lon":5.36844,"is_reserved":false,"is_disabled":false,"rental_uris":{"android":"levelo://app?vid=41752ed9-af86-4bed-a8f5-36e268c58f61","ios":"levelo://app?vid=41752ed9-af86-4bed-a8f5-36e268c58f61"},"vehicle_type_id":"4","last_reported":1730121579,"current_range_meters":20400,"station_id":"ce4bhbp2rcd13ifvqesg","pricing_plan_id":"cebpf4jnsgd1na2vs0mg"},{"bike_id":"6b0cca3d-43ec-4701-ba89-527e185294d2","system_id":"levelo_inurba_marseille","lat":43.28617,"lon":5.35103,"is_reserved":false,"is_disabled":false,"rental_uris":{"android":"levelo://app?vid=6b0cca3d-43ec-4701-ba89-527e185294d2","ios":"levelo://app?vid=6b0cca3d-43ec-4701-ba89-527e185294d2"},"vehicle_type_id":"4","last_reported":1730121579,"current_range_meters":23200,"station_id":"ce4bhch2rcd13ifvqeug","pricing_plan_id":"cebpf4jnsgd1na2vs0mg"},{"bike_id":"e93f42e4-ca27-4ae1-ade5-80b77e2287bc","system_id":"levelo_inurba_marseille","lat":43.26201,"lon":5.37915,"is_reserved":false,"is_disabled":false,"rental_uris":{"android":"levelo://app?vid=e93f42e4-ca27-4ae1-ade5-80b77e2287bc","ios":"levelo://app?vid=e93f42e4-ca27-4ae1-ade5-80b77e2287bc"},"vehicle_type_id":"4","last_reported":1730121579,"current_range_meters":32800,"station_id":"ce4bhjp2rcd13ifvqg90","pricing_plan_id":"cebpf4jnsgd1na2vs0mg"},{"bike_id":"01a2d95e-4f3e-4a42-84b4-1a4ffd101ced","system_id":"levelo_inurba_marseille","lat":43.28154,"lon":5.42645,"is_reserved":false,"is_disabled":false,"rental_uris":{"android":"levelo://app?vid=01a2d95e-4f3e-4a42-84b4-1a4ffd101ced","ios":"levelo://app?vid=01a2d95e-4f3e-4a42-84b4-1a4ffd101ced"},"vehicle_type_id":"4","last_reported":1730121579,"current_range_meters":7200,"station_id":"ce4bhnh2rcd13ifvqgug","pricing_plan_id":"cebpf4jnsgd1na2vs0mg"},{"bike_id":"3b5ec96a-0106-4c36-b268-4278fbae8ba6","system_id":"levelo_inurba_marseille","lat":43.266785,"lon":5.382647,"is_reserved":false,"is_disabled":false,"rental_uris":{"android":"levelo://app?vid=3b5ec96a-0106-4c36-b268-4278fbae8ba6","ios":"levelo://app?vid=3b5ec96a-0106-4c36-b268-4278fbae8ba6"},"vehicle_type_id":"4","last_reported":1730121579,"current_range_meters":26000,"station_id":"ce4bhg92rcd13ifvqf90","pricing_plan_id":"cebpf4jnsgd1na2vs0mg"},{"bike_id":"2c053df8-239c-4642-af9a-a9ae04a15aee","system_id":"levelo_inurba_marseille","lat":43.29687,"lon":5.37306,"is_reserved":false,"is_disabled":false,"rental_uris":{"android":"levelo://app?vid=2c053df8-239c-4642-af9a-a9ae04a15aee","ios":"levelo://app?vid=2c053df8-239c-4642-af9a-a9ae04a15aee"},"vehicle_type_id":"4","last_reported":1730121579,"current_range_meters":26800,"station_id":"ce4bgk12rcd13ifvqbj0","pricing_plan_id":"cebpf4jnsgd1na2vs0mg"},{"bike_id":"939ef23a-8e9f-47e0-ba95-784e8e1c14b8","system_id":"levelo_inurba_marseille","lat":43.23059,"lon":5.35491,"is_reserved":false,"is_disabled":false,"rental_uris":{"android":"levelo://app?vid=939ef23a-8e9f-47e0-ba95-784e8e1c14b8","ios":"levelo://app?vid=939ef23a-8e9f-47e0-ba95-784e8e1c14b8"},"vehicle_type_id":"4","last_reported":1730121579,"current_range_meters":16400,"station_id":"cpo3342slgdg3j2ifvpg","pricing_plan_id":"cebpf4jnsgd1na2vs0mg"},{"bike_id":"c114e600-5c42-40fd-8b3f-b6c47c8be69a","system_id":"levelo_inurba_marseille","lat":43.23156,"lon":5.43713,"is_reserved":false,"is_disabled":false,"rental_uris":{"android":"levelo://app?vid=c114e600-5c42-40fd-8b3f-b6c47c8be69a","ios":"levelo://app?vid=c114e600-5c42-40fd-8b3f-b6c47c8be69a"},"vehicle_type_id":"4","last_reported":1730121579,"current_range_meters":40000,"station_id":"ce4bhmp2rcd13ifvqgog","pricing_plan_id":"cebpf4jnsgd1na2vs0mg"},{"bike_id":"c2f520bb-7069-44fb-842e-589155c37df2","system_id":"levelo_inurba_marseille","lat":43.23192,"lon":5.35551,"is_reserved":false,"is_disabled":false,"rental_uris":{"android":"levelo://app?vid=c2f520bb-7069-44fb-842e-589155c37df2","ios":"levelo://app?vid=c2f520bb-7069-44fb-842e-589155c37df2"},"vehicle_type_id":"4","last_reported":1730121579,"current_range_meters":38800,"station_id":"ce4bhu92rcd13ifvqi70","pricing_plan_id":"cebpf4jnsgd1na2vs0mg"},{"bike_id":"96fc888f-3924-4bcb-8e8c-eb647cb566ab","system_id":"levelo_inurba_marseille","lat":43.3162,"lon":5.37689,"is_reserved":false,"is_disabled":false,"rental_uris":{"android":"levelo://app?vid=96fc888f-3924-4bcb-8e8c-eb647cb566ab","ios":"levelo://app?vid=96fc888f-3924-4bcb-8e8c-eb647cb566ab"},"vehicle_type_id":"4","last_reported":1730121579,"current_range_meters":38400,"station_id":"","pricing_plan_id":"cebpf4jnsgd1na2vs0mg"},{"bike_id":"9c3c858c-6b04-4f04-85a7-1554dc3c3512","system_id":"levelo_inurba_marseille","lat":43.30881,"lon":5.37208,"is_reserved":false,"is_disabled":false,"rental_uris":{"android":"levelo://app?vid=9c3c858c-6b04-4f04-85a7-1554dc3c3512","ios":"levelo://app?vid=9c3c858c-6b04-4f04-85a7-1554dc3c3512"},"vehicle_type_id":"4","last_reported":1730121579,"current_range_meters":6800,"station_id":"ce4bguh2rcd13ifvqckg","pricing_plan_id":"cebpf4jnsgd1na2vs0mg"},{"bike_id":"ba7ff12b-4fb3-47ea-b304-85ab8fca1364","system_id":"levelo_inurba_marseille","lat":43.32285,"lon":5.38271,"is_reserved":false,"is_disabled":false,"rental_uris":{"android":"levelo://app?vid=ba7ff12b-4fb3-47ea-b304-85ab8fca1364","ios":"levelo://app?vid=ba7ff12b-4fb3-47ea-b304-85ab8fca1364"},"vehicle_type_id":"4","last_reported":1730121579,"current_range_meters":38800,"station_id":"ce4bhr12rcd13ifvqhqg","pricing_plan_id":"cebpf4jnsgd1na2vs0mg"},{"bike_id":"98decf9b-1a4c-4f30-acb0-bdbd8b02d4ae","system_id":"levelo_inurba_marseille","lat":43.29191,"lon":5.39337,"is_reserved":false,"is_disabled":false,"rental_uris":{"android":"levelo://app?vid=98decf9b-1a4c-4f30-acb0-bdbd8b02d4ae","ios":"levelo://app?vid=98decf9b-1a4c-4f30-acb0-bdbd8b02d4ae"},"vehicle_type_id":"4","last_reported":1730121579,"current_range_meters":10000,"station_id":"ce4bh192rcd13ifvqdd0","pricing_plan_id":"cebpf4jnsgd1na2vs0mg"},{"bike_id":"6760aa4b-596b-46f5-be1e-6e80794bef9d","system_id":"levelo_inurba_marseille","lat":43.30542,"lon":5.36707,"is_reserved":false,"is_disabled":false,"rental_uris":{"android":"levelo://app?vid=6760aa4b-596b-46f5-be1e-6e80794bef9d","ios":"levelo://app?vid=6760aa4b-596b-46f5-be1e-6e80794bef9d"},"vehicle_type_id":"4","last_reported":1730121579,"current_range_meters":27600,"station_id":"ce4bgrp2rcd13ifvqc9g","pricing_plan_id":"cebpf4jnsgd1na2vs0mg"},{"bike_id":"7f9877b2-40c7-47bd-a8ec-cd08b20acaa9","system_id":"levelo_inurba_marseille","lat":43.30138,"lon":5.3878,"is_reserved":false,"is_disabled":false,"rental_uris":{"android":"levelo://app?vid=7f9877b2-40c7-47bd-a8ec-cd08b20acaa9","ios":"levelo://app?vid=7f9877b2-40c7-47bd-a8ec-cd08b20acaa9"},"vehicle_type_id":"4","last_reported":1730121579,"current_range_meters":32400,"station_id":"ce4bghh2rcd13ifvqb60","pricing_plan_id":"cebpf4jnsgd1na2vs0mg"},{"bike_id":"f7a50275-88a4-4be4-ac33-5cce1242cfaa","system_id":"levelo_inurba_marseille","lat":43.31657,"lon":5.37687,"is_reserved":false,"is_disabled":false,"rental_uris":{"android":"levelo://app?vid=f7a50275-88a4-4be4-ac33-5cce1242cfaa","ios":"levelo://app?vid=f7a50275-88a4-4be4-ac33-5cce1242cfaa"},"vehicle_type_id":"4","last_reported":1730121579,"current_range_meters":38800,"station_id":"","pricing_plan_id":"cebpf4jnsgd1na2vs0mg"},{"bike_id":"52fabb93-4981-49c5-9f92-2a6c5d285c73","system_id":"levelo_inurba_marseille","lat":43.30462,"lon":5.37899,"is_reserved":false,"is_disabled":false,"rental_uris":{"android":"levelo://app?vid=52fabb93-4981-49c5-9f92-2a6c5d285c73","ios":"levelo://app?vid=52fabb93-4981-49c5-9f92-2a6c5d285c73"},"vehicle_type_id":"4","last_reported":1730121579,"current_range_meters":38800,"station_id":"ce4bgup2rcd13ifvqcn0","pricing_plan_id":"cebpf4jnsgd1na2vs0mg"},{"bike_id":"86de51d7-7689-4b34-9eeb-07ffaec36dca","system_id":"levelo_inurba_marseille","lat":43.27424,"lon":5.39407,"is_reserved":false,"is_disabled":false,"rental_uris":{"android":"levelo://app?vid=86de51d7-7689-4b34-9eeb-07ffaec36dca","ios":"levelo://app?vid=86de51d7-7689-4b34-9eeb-07ffaec36dca"},"vehicle_type_id":"4","last_reported":1730121579,"current_range_meters":38800,"station_id":"ce4bhdp2rcd13ifvqf20","pricing_plan_id":"cebpf4jnsgd1na2vs0mg"},{"bike_id":"7ca56edd-ab0f-42b5-b290-aff4cb25cb72","system_id":"levelo_inurba_marseille","lat":43.24386,"lon":5.37053,"is_reserved":false,"is_disabled":false,"rental_uris":{"android":"levelo://app?vid=7ca56edd-ab0f-42b5-b290-aff4cb25cb72","ios":"levelo://app?vid=7ca56edd-ab0f-42b5-b290-aff4cb25cb72"},"vehicle_type_id":"4","last_reported":1730121579,"current_range_meters":29600,"station_id":"ce4bhhh2rcd13ifvqfk0","pricing_plan_id":"cebpf4jnsgd1na2vs0mg"},{"bike_id":"24c3453c-534c-45c3-af57-87b77df17206","system_id":"levelo_inurba_marseille","lat":43.337662,"lon":5.374612,"is_reserved":false,"is_disabled":false,"rental_uris":{"android":"levelo://app?vid=24c3453c-534c-45c3-af57-87b77df17206","ios":"levelo://app?vid=24c3453c-534c-45c3-af57-87b77df17206"},"vehicle_type_id":"4","last_reported":1730121579,"current_range_meters":38400,"station_id":"","pricing_plan_id":"cebpf4jnsgd1na2vs0mg"},{"bike_id":"4cf016cf-222a-4af0-b71c-5001d7c7e17d","system_id":"levelo_inurba_marseille","lat":43.25083,"lon":5.39506,"is_reserved":false,"is_disabled":false,"rental_uris":{"android":"levelo://app?vid=4cf016cf-222a-4af0-b71c-5001d7c7e17d","ios":"levelo://app?vid=4cf016cf-222a-4af0-b71c-5001d7c7e17d"},"vehicle_type_id":"4","last_reported":1730121579,"current_range_meters":38800,"station_id":"ce4bhm12rcd13ifvqgkg","pricing_plan_id":"cebpf4jnsgd1na2vs0mg"},{"bike_id":"6ab00db5-f473-4316-b995-2c38a1f114b1","system_id":"levelo_inurba_marseille","lat":43.29912,"lon":5.37473,"is_reserved":false,"is_disabled":false,"rental_uris":{"android":"levelo://app?vid=6ab00db5-f473-4316-b995-2c38a1f114b1","ios":"levelo://app?vid=6ab00db5-f473-4316-b995-2c38a1f114b1"},"vehicle_type_id":"4","last_reported":1730121579,"current_range_meters":22800,"station_id":"ce4bgjh2rcd13ifvqbg0","pricing_plan_id":"cebpf4jnsgd1na2vs0mg"},{"bike_id":"426c10fa-6ac3-46d5-b82d-ffe5493c7a76","system_id":"levelo_inurba_marseille","lat":43.230562,"lon":5.354852,"is_reserved":false,"is_disabled":false,"rental_uris":{"android":"levelo://app?vid=426c10fa-6ac3-46d5-b82d-ffe5493c7a76","ios":"levelo://app?vid=426c10fa-6ac3-46d5-b82d-ffe5493c7a76"},"vehicle_type_id":"4","last_reported":1730121579,"current_range_meters":20400,"station_id":"cpo3342slgdg3j2ifvpg","pricing_plan_id":"cebpf4jnsgd1na2vs0mg"},{"bike_id":"a25b6a83-2d57-4dc8-94af-f08d4dbf848d","system_id":"levelo_inurba_marseille","lat":43.25937,"lon":5.40906,"is_reserved":false,"is_disabled":false,"rental_uris":{"android":"levelo://app?vid=a25b6a83-2d57-4dc8-94af-f08d4dbf848d","ios":"levelo://app?vid=a25b6a83-2d57-4dc8-94af-f08d4dbf848d"},"vehicle_type_id":"4","last_reported":1730121579,"current_range_meters":30000,"station_id":"ce4bhm92rcd13ifvqglg","pricing_plan_id":"cebpf4jnsgd1na2vs0mg"},{"bike_id":"1c7f26ee-b0d1-4c55-b487-ce810cec61b4","system_id":"levelo_inurba_marseille","lat":43.25088,"lon":5.39517,"is_reserved":false,"is_disabled":false,"rental_uris":{"android":"levelo://app?vid=1c7f26ee-b0d1-4c55-b487-ce810cec61b4","ios":"levelo://app?vid=1c7f26ee-b0d1-4c55-b487-ce810cec61b4"},"vehicle_type_id":"4","last_reported":1730121579,"current_range_meters":28800,"station_id":"ce4bhm12rcd13ifvqgkg","pricing_plan_id":"cebpf4jnsgd1na2vs0mg"},{"bike_id":"9befed88-9f8c-464c-b07b-093bd97066bb","system_id":"levelo_inurba_marseille","lat":43.29805,"lon":5.37136,"is_reserved":false,"is_disabled":false,"rental_uris":{"android":"levelo://app?vid=9befed88-9f8c-464c-b07b-093bd97066bb","ios":"levelo://app?vid=9befed88-9f8c-464c-b07b-093bd97066bb"},"vehicle_type_id":"4","last_reported":1730121579,"current_range_meters":15200,"station_id":"","pricing_plan_id":"cebpf4jnsgd1na2vs0mg"},{"bike_id":"f37e3b02-a49c-4c4e-b112-f9c8c24edf90","system_id":"levelo_inurba_marseille","lat":43.23286,"lon":5.3609,"is_reserved":false,"is_disabled":false,"rental_uris":{"android":"levelo://app?vid=f37e3b02-a49c-4c4e-b112-f9c8c24edf90","ios":"levelo://app?vid=f37e3b02-a49c-4c4e-b112-f9c8c24edf90"},"vehicle_type_id":"4","last_reported":1730121579,"current_range_meters":8400,"station_id":"ce4bhu92rcd13ifvqi70","pricing_plan_id":"cebpf4jnsgd1na2vs0mg"},{"bike_id":"98ccba86-a02d-4bfd-9cb4-d849d3f9f575","system_id":"levelo_inurba_marseille","lat":43.25082,"lon":5.39515,"is_reserved":false,"is_disabled":false,"rental_uris":{"android":"levelo://app?vid=98ccba86-a02d-4bfd-9cb4-d849d3f9f575","ios":"levelo://app?vid=98ccba86-a02d-4bfd-9cb4-d849d3f9f575"},"vehicle_type_id":"4","last_reported":1730121579,"current_range_meters":38800,"station_id":"ce4bhm12rcd13ifvqgkg","pricing_plan_id":"cebpf4jnsgd1na2vs0mg"},{"bike_id":"c7f1a688-c5bf-4610-8b24-183e9b6136b8","system_id":"levelo_inurba_marseille","lat":43.29276,"lon":5.36835,"is_reserved":false,"is_disabled":false,"rental_uris":{"android":"levelo://app?vid=c7f1a688-c5bf-4610-8b24-183e9b6136b8","ios":"levelo://app?vid=c7f1a688-c5bf-4610-8b24-183e9b6136b8"},"vehicle_type_id":"4","last_reported":1730121579,"current_range_meters":2800,"station_id":"ce4bhbp2rcd13ifvqesg","pricing_plan_id":"cebpf4jnsgd1na2vs0mg"},{"bike_id":"40fa76bb-d356-4485-9f7d-4ebb4d2298ca","system_id":"levelo_inurba_marseille","lat":43.32049,"lon":5.41549,"is_reserved":false,"is_disabled":false,"rental_uris":{"android":"levelo://app?vid=40fa76bb-d356-4485-9f7d-4ebb4d2298ca","ios":"levelo://app?vid=40fa76bb-d356-4485-9f7d-4ebb4d2298ca"},"vehicle_type_id":"4","last_reported":1730121579,"current_range_meters":38800,"station_id":"ce4bhq92rcd13ifvqhkg","pricing_plan_id":"cebpf4jnsgd1na2vs0mg"},{"bike_id":"696e5472-be89-4637-a207-fb06c37b3229","system_id":"levelo_inurba_marseille","lat":43.28271,"lon":5.35073,"is_reserved":false,"is_disabled":false,"rental_uris":{"android":"levelo://app?vid=696e5472-be89-4637-a207-fb06c37b3229","ios":"levelo://app?vid=696e5472-be89-4637-a207-fb06c37b3229"},"vehicle_type_id":"4","last_reported":1730121579,"current_range_meters":22400,"station_id":"ce4bhbp2rcd13ifvqerg","pricing_plan_id":"cebpf4jnsgd1na2vs0mg"},{"bike_id":"c966d054-c857-43c7-8d2e-d7785ad2766c","system_id":"levelo_inurba_marseille","lat":43.31708,"lon":5.37743,"is_reserved":false,"is_disabled":false,"rental_uris":{"android":"levelo://app?vid=c966d054-c857-43c7-8d2e-d7785ad2766c","ios":"levelo://app?vid=c966d054-c857-43c7-8d2e-d7785ad2766c"},"vehicle_type_id":"4","last_reported":1730121579,"current_range_meters":23200,"station_id":"ce4bgth2rcd13ifvqch0","pricing_plan_id":"cebpf4jnsgd1na2vs0mg"},{"bike_id":"0fc35ec4-d69e-455a-854d-9256f0d5a7e6","system_id":"levelo_inurba_marseille","lat":43.24067,"lon":5.37758,"is_reserved":false,"is_disabled":false,"rental_uris":{"android":"levelo://app?vid=0fc35ec4-d69e-455a-854d-9256f0d5a7e6","ios":"levelo://app?vid=0fc35ec4-d69e-455a-854d-9256f0d5a7e6"},"vehicle_type_id":"4","last_reported":1730121579,"current_range_meters":22800,"station_id":"ce4bhnp2rcd13ifvqgvg","pricing_plan_id":"cebpf4jnsgd1na2vs0mg"},{"bike_id":"4fcdd92f-30ae-4a56-935e-629eed021ddd","system_id":"levelo_inurba_marseille","lat":43.30142,"lon":5.38772,"is_reserved":false,"is_disabled":false,"rental_uris":{"android":"levelo://app?vid=4fcdd92f-30ae-4a56-935e-629eed021ddd","ios":"levelo://app?vid=4fcdd92f-30ae-4a56-935e-629eed021ddd"},"vehicle_type_id":"4","last_reported":1730121579,"current_range_meters":12400,"station_id":"ce4bghh2rcd13ifvqb60","pricing_plan_id":"cebpf4jnsgd1na2vs0mg"},{"bike_id":"1d514d7d-1d50-42e5-8fde-77f6e41cc28b","system_id":"levelo_inurba_marseille","lat":43.30549,"lon":5.36523,"is_reserved":false,"is_disabled":false,"rental_uris":{"android":"levelo://app?vid=1d514d7d-1d50-42e5-8fde-77f6e41cc28b","ios":"levelo://app?vid=1d514d7d-1d50-42e5-8fde-77f6e41cc28b"},"vehicle_type_id":"4","last_reported":1730121579,"current_range_meters":26800,"station_id":"ce4bgs12rcd13ifvqcag","pricing_plan_id":"cebpf4jnsgd1na2vs0mg"},{"bike_id":"9f501856-31bd-489e-8c68-79174caf584a","system_id":"levelo_inurba_marseille","lat":43.27499,"lon":5.42457,"is_reserved":false,"is_disabled":false,"rental_uris":{"android":"levelo://app?vid=9f501856-31bd-489e-8c68-79174caf584a","ios":"levelo://app?vid=9f501856-31bd-489e-8c68-79174caf584a"},"vehicle_type_id":"4","last_reported":1730121579,"current_range_meters":37600,"station_id":"ce4bhn92rcd13ifvqgrg","pricing_plan_id":"cebpf4jnsgd1na2vs0mg"},{"bike_id":"5bd75655-c835-458f-91c0-f827e39ec929","system_id":"levelo_inurba_marseille","lat":43.25497,"lon":5.37646,"is_reserved":false,"is_disabled":false,"rental_uris":{"android":"levelo://app?vid=5bd75655-c835-458f-91c0-f827e39ec929","ios":"levelo://app?vid=5bd75655-c835-458f-91c0-f827e39ec929"},"vehicle_type_id":"4","last_reported":1730121579,"current_range_meters":6400,"station_id":"ce4bhh12rcd13ifvqff0","pricing_plan_id":"cebpf4jnsgd1na2vs0mg"},{"bike_id":"e39645c5-87ac-4e87-90ca-e4c6f3ff67ce","system_id":"levelo_inurba_marseille","lat":43.29931,"lon":5.3653,"is_reserved":false,"is_disabled":false,"rental_uris":{"android":"levelo://app?vid=e39645c5-87ac-4e87-90ca-e4c6f3ff67ce","ios":"levelo://app?vid=e39645c5-87ac-4e87-90ca-e4c6f3ff67ce"},"vehicle_type_id":"4","last_reported":1730121579,"current_range_meters":30400,"station_id":"ce4bgm92rcd13ifvqbr0","pricing_plan_id":"cebpf4jnsgd1na2vs0mg"},{"bike_id":"dd0f0659-0fae-4bb0-80c0-fd3b98409d8f","system_id":"levelo_inurba_marseille","lat":43.26199,"lon":5.37925,"is_reserved":false,"is_disabled":false,"rental_uris":{"android":"levelo://app?vid=dd0f0659-0fae-4bb0-80c0-fd3b98409d8f","ios":"levelo://app?vid=dd0f0659-0fae-4bb0-80c0-fd3b98409d8f"},"vehicle_type_id":"4","last_reported":1730121579,"current_range_meters":25600,"station_id":"ce4bhjp2rcd13ifvqg90","pricing_plan_id":"cebpf4jnsgd1na2vs0mg"},{"bike_id":"7d335b67-cff6-4629-a9d1-3f769f32929b","system_id":"levelo_inurba_marseille","lat":43.29067,"lon":5.37164,"is_reserved":false,"is_disabled":false,"rental_uris":{"android":"levelo://app?vid=7d335b67-cff6-4629-a9d1-3f769f32929b","ios":"levelo://app?vid=7d335b67-cff6-4629-a9d1-3f769f32929b"},"vehicle_type_id":"4","last_reported":1730121579,"current_range_meters":36000,"station_id":"ce4bh5p2rcd13ifvqe4g","pricing_plan_id":"cebpf4jnsgd1na2vs0mg"},{"bike_id":"def66fbe-9129-4b94-9aa6-f0a9941a832b","system_id":"levelo_inurba_marseille","lat":43.2918,"lon":5.36901,"is_reserved":false,"is_disabled":false,"rental_uris":{"android":"levelo://app?vid=def66fbe-9129-4b94-9aa6-f0a9941a832b","ios":"levelo://app?vid=def66fbe-9129-4b94-9aa6-f0a9941a832b"},"vehicle_type_id":"4","last_reported":1730121579,"current_range_meters":11600,"station_id":"","pricing_plan_id":"cebpf4jnsgd1na2vs0mg"},{"bike_id":"51bc5f65-d3eb-4e1c-8a45-d635e0c84ee5","system_id":"levelo_inurba_marseille","lat":43.308257,"lon":5.381392,"is_reserved":false,"is_disabled":false,"rental_uris":{"android":"levelo://app?vid=51bc5f65-d3eb-4e1c-8a45-d635e0c84ee5","ios":"levelo://app?vid=51bc5f65-d3eb-4e1c-8a45-d635e0c84ee5"},"vehicle_type_id":"4","last_reported":1730121579,"current_range_meters":38800,"station_id":"ce4bgt12rcd13ifvqce0","pricing_plan_id":"cebpf4jnsgd1na2vs0mg"},{"bike_id":"f3ceeb8f-42c4-458f-a4d0-0ac814d6e04b","system_id":"levelo_inurba_marseille","lat":43.29841,"lon":5.36268,"is_reserved":false,"is_disabled":false,"rental_uris":{"android":"levelo://app?vid=f3ceeb8f-42c4-458f-a4d0-0ac814d6e04b","ios":"levelo://app?vid=f3ceeb8f-42c4-458f-a4d0-0ac814d6e04b"},"vehicle_type_id":"4","last_reported":1730121579,"current_range_meters":16800,"station_id":"ce4bgpp2rcd13ifvqc3g","pricing_plan_id":"cebpf4jnsgd1na2vs0mg"},{"bike_id":"b5fbb61a-b03f-4944-87b3-d0f6be0ab408","system_id":"levelo_inurba_marseille","lat":43.29523,"lon":5.39042,"is_reserved":false,"is_disabled":false,"rental_uris":{"android":"levelo://app?vid=b5fbb61a-b03f-4944-87b3-d0f6be0ab408","ios":"levelo://app?vid=b5fbb61a-b03f-4944-87b3-d0f6be0ab408"},"vehicle_type_id":"4","last_reported":1730121579,"current_range_meters":38800,"station_id":"ce4bh3p2rcd13ifvqdp0","pricing_plan_id":"cebpf4jnsgd1na2vs0mg"},{"bike_id":"c99ba17a-ce42-433e-8a59-a77b97d662e0","system_id":"levelo_inurba_marseille","lat":43.30541,"lon":5.3654,"is_reserved":false,"is_disabled":false,"rental_uris":{"android":"levelo://app?vid=c99ba17a-ce42-433e-8a59-a77b97d662e0","ios":"levelo://app?vid=c99ba17a-ce42-433e-8a59-a77b97d662e0"},"vehicle_type_id":"4","last_reported":1730121579,"current_range_meters":20400,"station_id":"ce4bgs12rcd13ifvqcag","pricing_plan_id":"cebpf4jnsgd1na2vs0mg"},{"bike_id":"e5630466-0af0-4d76-a58b-254eeaf8085b","system_id":"levelo_inurba_marseille","lat":43.29582,"lon":5.36733,"is_reserved":false,"is_disabled":false,"rental_uris":{"android":"levelo://app?vid=e5630466-0af0-4d76-a58b-254eeaf8085b","ios":"levelo://app?vid=e5630466-0af0-4d76-a58b-254eeaf8085b"},"vehicle_type_id":"4","last_reported":1730121579,"current_range_meters":38800,"station_id":"ce4bgph2rcd13ifvqc2g","pricing_plan_id":"cebpf4jnsgd1na2vs0mg"},{"bike_id":"94246a98-2337-41dc-bf6a-f3e6f4929918","system_id":"levelo_inurba_marseille","lat":43.28709,"lon":5.37388,"is_reserved":false,"is_disabled":false,"rental_uris":{"android":"levelo://app?vid=94246a98-2337-41dc-bf6a-f3e6f4929918","ios":"levelo://app?vid=94246a98-2337-41dc-bf6a-f3e6f4929918"},"vehicle_type_id":"4","last_reported":1730121579,"current_range_meters":38000,"station_id":"ce4bh3p2rcd13ifvqdq0","pricing_plan_id":"cebpf4jnsgd1na2vs0mg"},{"bike_id":"a08296db-b3f4-4d7c-b368-674ac3a21b1e","system_id":"levelo_inurba_marseille","lat":43.23058,"lon":5.35493,"is_reserved":false,"is_disabled":false,"rental_uris":{"android":"levelo://app?vid=a08296db-b3f4-4d7c-b368-674ac3a21b1e","ios":"levelo://app?vid=a08296db-b3f4-4d7c-b368-674ac3a21b1e"},"vehicle_type_id":"4","last_reported":1730121579,"current_range_meters":36800,"station_id":"cpo3342slgdg3j2ifvpg","pricing_plan_id":"cebpf4jnsgd1na2vs0mg"},{"bike_id":"be32c559-5bea-4efc-bc75-d0af98dcc1a4","system_id":"levelo_inurba_marseille","lat":43.30148,"lon":5.37415,"is_reserved":false,"is_disabled":false,"rental_uris":{"android":"levelo://app?vid=be32c559-5bea-4efc-bc75-d0af98dcc1a4","ios":"levelo://app?vid=be32c559-5bea-4efc-bc75-d0af98dcc1a4"},"vehicle_type_id":"4","last_reported":1730121579,"current_range_meters":21600,"station_id":"ce4bgs92rcd13ifvqcc0","pricing_plan_id":"cebpf4jnsgd1na2vs0mg"},{"bike_id":"973f754c-ca27-4080-b2bd-0b5a4f1a0d62","system_id":"levelo_inurba_marseille","lat":43.33743,"lon":5.37456,"is_reserved":false,"is_disabled":false,"rental_uris":{"android":"levelo://app?vid=973f754c-ca27-4080-b2bd-0b5a4f1a0d62","ios":"levelo://app?vid=973f754c-ca27-4080-b2bd-0b5a4f1a0d62"},"vehicle_type_id":"4","last_reported":1730121579,"current_range_meters":38000,"station_id":"","pricing_plan_id":"cebpf4jnsgd1na2vs0mg"},{"bike_id":"e8b1d499-1fb8-48d9-9f2a-60b4b9923777","system_id":"levelo_inurba_marseille","lat":43.30535,"lon":5.36696,"is_reserved":false,"is_disabled":false,"rental_uris":{"android":"levelo://app?vid=e8b1d499-1fb8-48d9-9f2a-60b4b9923777","ios":"levelo://app?vid=e8b1d499-1fb8-48d9-9f2a-60b4b9923777"},"vehicle_type_id":"4","last_reported":1730121579,"current_range_meters":39200,"station_id":"ce4bgrp2rcd13ifvqc9g","pricing_plan_id":"cebpf4jnsgd1na2vs0mg"},{"bike_id":"e69b86be-0727-4961-ad18-cf6cc7bb2d2a","system_id":"levelo_inurba_marseille","lat":43.2837,"lon":5.40036,"is_reserved":false,"is_disabled":false,"rental_uris":{"android":"levelo://app?vid=e69b86be-0727-4961-ad18-cf6cc7bb2d2a","ios":"levelo://app?vid=e69b86be-0727-4961-ad18-cf6cc7bb2d2a"},"vehicle_type_id":"4","last_reported":1730121579,"current_range_meters":30000,"station_id":"","pricing_plan_id":"cebpf4jnsgd1na2vs0mg"},{"bike_id":"0e01ac24-2784-4039-a876-30b14394ea65","system_id":"levelo_inurba_marseille","lat":43.2827,"lon":5.35077,"is_reserved":false,"is_disabled":false,"rental_uris":{"android":"levelo://app?vid=0e01ac24-2784-4039-a876-30b14394ea65","ios":"levelo://app?vid=0e01ac24-2784-4039-a876-30b14394ea65"},"vehicle_type_id":"4","last_reported":1730121579,"current_range_meters":8000,"station_id":"ce4bhbp2rcd13ifvqerg","pricing_plan_id":"cebpf4jnsgd1na2vs0mg"},{"bike_id":"45c46f55-6de1-4864-8c67-b45d193a2fa5","system_id":"levelo_inurba_marseille","lat":43.26678,"lon":5.38269,"is_reserved":false,"is_disabled":false,"rental_uris":{"android":"levelo://app?vid=45c46f55-6de1-4864-8c67-b45d193a2fa5","ios":"levelo://app?vid=45c46f55-6de1-4864-8c67-b45d193a2fa5"},"vehicle_type_id":"4","last_reported":1730121579,"current_range_meters":34000,"station_id":"ce4bhg92rcd13ifvqf90","pricing_plan_id":"cebpf4jnsgd1na2vs0mg"},{"bike_id":"485c0ca2-2ddc-4f58-9ca3-4f8b7c939ba9","system_id":"levelo_inurba_marseille","lat":43.24385,"lon":5.37059,"is_reserved":false,"is_disabled":false,"rental_uris":{"android":"levelo://app?vid=485c0ca2-2ddc-4f58-9ca3-4f8b7c939ba9","ios":"levelo://app?vid=485c0ca2-2ddc-4f58-9ca3-4f8b7c939ba9"},"vehicle_type_id":"4","last_reported":1730121579,"current_range_meters":24800,"station_id":"ce4bhhh2rcd13ifvqfk0","pricing_plan_id":"cebpf4jnsgd1na2vs0mg"},{"bike_id":"93eac38b-318a-4298-a5ba-c174a466386f","system_id":"levelo_inurba_marseille","lat":43.29021,"lon":5.38131,"is_reserved":false,"is_disabled":false,"rental_uris":{"android":"levelo://app?vid=93eac38b-318a-4298-a5ba-c174a466386f","ios":"levelo://app?vid=93eac38b-318a-4298-a5ba-c174a466386f"},"vehicle_type_id":"4","last_reported":1730121579,"current_range_meters":12400,"station_id":"ce4bh4p2rcd13ifvqe1g","pricing_plan_id":"cebpf4jnsgd1na2vs0mg"},{"bike_id":"2a6848c1-d22b-44f2-a324-89f4967e1c2c","system_id":"levelo_inurba_marseille","lat":43.30133,"lon":5.37415,"is_reserved":false,"is_disabled":false,"rental_uris":{"android":"levelo://app?vid=2a6848c1-d22b-44f2-a324-89f4967e1c2c","ios":"levelo://app?vid=2a6848c1-d22b-44f2-a324-89f4967e1c2c"},"vehicle_type_id":"4","last_reported":1730121579,"current_range_meters":27600,"station_id":"ce4bgs92rcd13ifvqcc0","pricing_plan_id":"cebpf4jnsgd1na2vs0mg"},{"bike_id":"ef785b4d-abeb-4561-9bfa-6c9ace06ace3","system_id":"levelo_inurba_marseille","lat":43.32291,"lon":5.38276,"is_reserved":false,"is_disabled":false,"rental_uris":{"android":"levelo://app?vid=ef785b4d-abeb-4561-9bfa-6c9ace06ace3","ios":"levelo://app?vid=ef785b4d-abeb-4561-9bfa-6c9ace06ace3"},"vehicle_type_id":"4","last_reported":1730121579,"current_range_meters":38800,"station_id":"ce4bhr12rcd13ifvqhqg","pricing_plan_id":"cebpf4jnsgd1na2vs0mg"},{"bike_id":"8365ae7d-b072-4734-9306-a366f4b5c63c","system_id":"levelo_inurba_marseille","lat":43.27352,"lon":5.36253,"is_reserved":false,"is_disabled":false,"rental_uris":{"android":"levelo://app?vid=8365ae7d-b072-4734-9306-a366f4b5c63c","ios":"levelo://app?vid=8365ae7d-b072-4734-9306-a366f4b5c63c"},"vehicle_type_id":"4","last_reported":1730121579,"current_range_meters":37600,"station_id":"ce4bhbh2rcd13ifvqeo0","pricing_plan_id":"cebpf4jnsgd1na2vs0mg"},{"bike_id":"d42cd8f1-be9f-4587-96dc-fd9d11f4d1a0","system_id":"levelo_inurba_marseille","lat":43.2511,"lon":5.40313,"is_reserved":false,"is_disabled":false,"rental_uris":{"android":"levelo://app?vid=d42cd8f1-be9f-4587-96dc-fd9d11f4d1a0","ios":"levelo://app?vid=d42cd8f1-be9f-4587-96dc-fd9d11f4d1a0"},"vehicle_type_id":"4","last_reported":1730121579,"current_range_meters":20800,"station_id":"ce4bhlh2rcd13ifvqgig","pricing_plan_id":"cebpf4jnsgd1na2vs0mg"},{"bike_id":"2e10531e-9386-411b-ab90-247ac4a58043","system_id":"levelo_inurba_marseille","lat":43.23961,"lon":5.36636,"is_reserved":false,"is_disabled":false,"rental_uris":{"android":"levelo://app?vid=2e10531e-9386-411b-ab90-247ac4a58043","ios":"levelo://app?vid=2e10531e-9386-411b-ab90-247ac4a58043"},"vehicle_type_id":"4","last_reported":1730121579,"current_range_meters":39200,"station_id":"ce4bhi12rcd13ifvqfp0","pricing_plan_id":"cebpf4jnsgd1na2vs0mg"},{"bike_id":"2b4bfc9a-6cf9-4fc2-9d32-3a543571383c","system_id":"levelo_inurba_marseille","lat":43.29575,"lon":5.36744,"is_reserved":false,"is_disabled":false,"rental_uris":{"android":"levelo://app?vid=2b4bfc9a-6cf9-4fc2-9d32-3a543571383c","ios":"levelo://app?vid=2b4bfc9a-6cf9-4fc2-9d32-3a543571383c"},"vehicle_type_id":"4","last_reported":1730121579,"current_range_meters":24400,"station_id":"ce4bgph2rcd13ifvqc2g","pricing_plan_id":"cebpf4jnsgd1na2vs0mg"},{"bike_id":"6ffc72a5-95ed-4b97-8d3d-ffec63c4e48b","system_id":"levelo_inurba_marseille","lat":43.24808,"lon":5.37452,"is_reserved":false,"is_disabled":false,"rental_uris":{"android":"levelo://app?vid=6ffc72a5-95ed-4b97-8d3d-ffec63c4e48b","ios":"levelo://app?vid=6ffc72a5-95ed-4b97-8d3d-ffec63c4e48b"},"vehicle_type_id":"4","last_reported":1730121579,"current_range_meters":28000,"station_id":"ce4bhgh2rcd13ifvqfb0","pricing_plan_id":"cebpf4jnsgd1na2vs0mg"},{"bike_id":"182b6bcf-4cb0-4a0a-b043-3cb94628b8a5","system_id":"levelo_inurba_marseille","lat":43.28154,"lon":5.42641,"is_reserved":false,"is_disabled":false,"rental_uris":{"android":"levelo://app?vid=182b6bcf-4cb0-4a0a-b043-3cb94628b8a5","ios":"levelo://app?vid=182b6bcf-4cb0-4a0a-b043-3cb94628b8a5"},"vehicle_type_id":"4","last_reported":1730121579,"current_range_meters":28800,"station_id":"ce4bhnh2rcd13ifvqgug","pricing_plan_id":"cebpf4jnsgd1na2vs0mg"},{"bike_id":"46b8b804-1c15-4d62-ba52-cfb64553c788","system_id":"levelo_inurba_marseille","lat":43.23148,"lon":5.43725,"is_reserved":false,"is_disabled":false,"rental_uris":{"android":"levelo://app?vid=46b8b804-1c15-4d62-ba52-cfb64553c788","ios":"levelo://app?vid=46b8b804-1c15-4d62-ba52-cfb64553c788"},"vehicle_type_id":"4","last_reported":1730121579,"current_range_meters":15200,"station_id":"ce4bhmp2rcd13ifvqgog","pricing_plan_id":"cebpf4jnsgd1na2vs0mg"},{"bike_id":"9403ad19-9050-4623-81ae-08b1b66bb37c","system_id":"levelo_inurba_marseille","lat":43.23186,"lon":5.39976,"is_reserved":false,"is_disabled":false,"rental_uris":{"android":"levelo://app?vid=9403ad19-9050-4623-81ae-08b1b66bb37c","ios":"levelo://app?vid=9403ad19-9050-4623-81ae-08b1b66bb37c"},"vehicle_type_id":"4","last_reported":1730121579,"current_range_meters":36400,"station_id":"ce4bhn12rcd13ifvqgqg","pricing_plan_id":"cebpf4jnsgd1na2vs0mg"},{"bike_id":"a2ea2797-ae2a-4d35-8b0b-0c47931da0c1","system_id":"levelo_inurba_marseille","lat":43.26501,"lon":5.39541,"is_reserved":false,"is_disabled":false,"rental_uris":{"android":"levelo://app?vid=a2ea2797-ae2a-4d35-8b0b-0c47931da0c1","ios":"levelo://app?vid=a2ea2797-ae2a-4d35-8b0b-0c47931da0c1"},"vehicle_type_id":"4","last_reported":1730121579,"current_range_meters":38000,"station_id":"ce4bhi12rcd13ifvqfq0","pricing_plan_id":"cebpf4jnsgd1na2vs0mg"},{"bike_id":"ca096618-6d4a-48d2-8847-b59eb29af8cd","system_id":"levelo_inurba_marseille","lat":43.289389,"lon":5.366375,"is_reserved":false,"is_disabled":false,"rental_uris":{"android":"levelo://app?vid=ca096618-6d4a-48d2-8847-b59eb29af8cd","ios":"levelo://app?vid=ca096618-6d4a-48d2-8847-b59eb29af8cd"},"vehicle_type_id":"4","last_reported":1730121579,"current_range_meters":36000,"station_id":"ce4bhap2rcd13ifvqek0","pricing_plan_id":"cebpf4jnsgd1na2vs0mg"},{"bike_id":"cd68f1dc-3134-4c22-9fa5-8490da02f071","system_id":"levelo_inurba_marseille","lat":43.23147,"lon":5.43708,"is_reserved":false,"is_disabled":false,"rental_uris":{"android":"levelo://app?vid=cd68f1dc-3134-4c22-9fa5-8490da02f071","ios":"levelo://app?vid=cd68f1dc-3134-4c22-9fa5-8490da02f071"},"vehicle_type_id":"4","last_reported":1730121579,"current_range_meters":9600,"station_id":"ce4bhmp2rcd13ifvqgog","pricing_plan_id":"cebpf4jnsgd1na2vs0mg"},{"bike_id":"59c7fa64-e71e-4850-85b0-84a8ba6e2161","system_id":"levelo_inurba_marseille","lat":43.28616,"lon":5.35099,"is_reserved":false,"is_disabled":false,"rental_uris":{"android":"levelo://app?vid=59c7fa64-e71e-4850-85b0-84a8ba6e2161","ios":"levelo://app?vid=59c7fa64-e71e-4850-85b0-84a8ba6e2161"},"vehicle_type_id":"4","last_reported":1730121579,"current_range_meters":35600,"station_id":"ce4bhch2rcd13ifvqeug","pricing_plan_id":"cebpf4jnsgd1na2vs0mg"},{"bike_id":"83951415-bd72-4fd4-82c4-ca875a9c879e","system_id":"levelo_inurba_marseille","lat":43.30537,"lon":5.36523,"is_reserved":false,"is_disabled":false,"rental_uris":{"android":"levelo://app?vid=83951415-bd72-4fd4-82c4-ca875a9c879e","ios":"levelo://app?vid=83951415-bd72-4fd4-82c4-ca875a9c879e"},"vehicle_type_id":"4","last_reported":1730121579,"current_range_meters":36000,"station_id":"ce4bgs12rcd13ifvqcag","pricing_plan_id":"cebpf4jnsgd1na2vs0mg"},{"bike_id":"0a6cd1a0-cdaa-401d-ac83-3d607d30f164","system_id":"levelo_inurba_marseille","lat":43.30948,"lon":5.39025,"is_reserved":false,"is_disabled":false,"rental_uris":{"android":"levelo://app?vid=0a6cd1a0-cdaa-401d-ac83-3d607d30f164","ios":"levelo://app?vid=0a6cd1a0-cdaa-401d-ac83-3d607d30f164"},"vehicle_type_id":"4","last_reported":1730121579,"current_range_meters":36400,"station_id":"ce4bgup2rcd13ifvqco0","pricing_plan_id":"cebpf4jnsgd1na2vs0mg"},{"bike_id":"8a948dc6-5b18-4923-99b5-f5e55842903b","system_id":"levelo_inurba_marseille","lat":43.24386,"lon":5.37055,"is_reserved":false,"is_disabled":false,"rental_uris":{"android":"levelo://app?vid=8a948dc6-5b18-4923-99b5-f5e55842903b","ios":"levelo://app?vid=8a948dc6-5b18-4923-99b5-f5e55842903b"},"vehicle_type_id":"4","last_reported":1730121579,"current_range_meters":10800,"station_id":"ce4bhhh2rcd13ifvqfk0","pricing_plan_id":"cebpf4jnsgd1na2vs0mg"},{"bike_id":"a8b23155-2836-4790-800f-c3a0a114d0d3","system_id":"levelo_inurba_marseille","lat":43.22929,"lon":5.35374,"is_reserved":false,"is_disabled":false,"rental_uris":{"android":"levelo://app?vid=a8b23155-2836-4790-800f-c3a0a114d0d3","ios":"levelo://app?vid=a8b23155-2836-4790-800f-c3a0a114d0d3"},"vehicle_type_id":"4","last_reported":1730121579,"current_range_meters":27200,"station_id":"cpo3532slgdg3j2ikp40","pricing_plan_id":"cebpf4jnsgd1na2vs0mg"},{"bike_id":"4cd62867-fcb2-4724-b8c6-ec9bc5fd6603","system_id":"levelo_inurba_marseille","lat":43.23192,"lon":5.35547,"is_reserved":false,"is_disabled":false,"rental_uris":{"android":"levelo://app?vid=4cd62867-fcb2-4724-b8c6-ec9bc5fd6603","ios":"levelo://app?vid=4cd62867-fcb2-4724-b8c6-ec9bc5fd6603"},"vehicle_type_id":"4","last_reported":1730121579,"current_range_meters":29600,"station_id":"ce4bhu92rcd13ifvqi70","pricing_plan_id":"cebpf4jnsgd1na2vs0mg"},{"bike_id":"f3c660e9-6fbc-487b-a646-b4cf64fb9d49","system_id":"levelo_inurba_marseille","lat":43.23179,"lon":5.39989,"is_reserved":false,"is_disabled":false,"rental_uris":{"android":"levelo://app?vid=f3c660e9-6fbc-487b-a646-b4cf64fb9d49","ios":"levelo://app?vid=f3c660e9-6fbc-487b-a646-b4cf64fb9d49"},"vehicle_type_id":"4","last_reported":1730121579,"current_range_meters":33200,"station_id":"ce4bhn12rcd13ifvqgqg","pricing_plan_id":"cebpf4jnsgd1na2vs0mg"},{"bike_id":"f55dcfa5-fad0-4f00-aac0-bfc52a6f26a1","system_id":"levelo_inurba_marseille","lat":43.29164,"lon":5.37165,"is_reserved":false,"is_disabled":false,"rental_uris":{"android":"levelo://app?vid=f55dcfa5-fad0-4f00-aac0-bfc52a6f26a1","ios":"levelo://app?vid=f55dcfa5-fad0-4f00-aac0-bfc52a6f26a1"},"vehicle_type_id":"4","last_reported":1730121579,"current_range_meters":36800,"station_id":"ce4bha92rcd13ifvqeh0","pricing_plan_id":"cebpf4jnsgd1na2vs0mg"},{"bike_id":"23c0c9e1-6ea4-4d15-97e5-cd613fe2418c","system_id":"levelo_inurba_marseille","lat":43.29572,"lon":5.39967,"is_reserved":false,"is_disabled":false,"rental_uris":{"android":"levelo://app?vid=23c0c9e1-6ea4-4d15-97e5-cd613fe2418c","ios":"levelo://app?vid=23c0c9e1-6ea4-4d15-97e5-cd613fe2418c"},"vehicle_type_id":"4","last_reported":1730121579,"current_range_meters":8000,"station_id":"ce4bh312rcd13ifvqdj0","pricing_plan_id":"cebpf4jnsgd1na2vs0mg"},{"bike_id":"5d820ce0-2d55-46e5-b74d-cc75a18e2e27","system_id":"levelo_inurba_marseille","lat":43.27003,"lon":5.39248,"is_reserved":false,"is_disabled":false,"rental_uris":{"android":"levelo://app?vid=5d820ce0-2d55-46e5-b74d-cc75a18e2e27","ios":"levelo://app?vid=5d820ce0-2d55-46e5-b74d-cc75a18e2e27"},"vehicle_type_id":"4","last_reported":1730121579,"current_range_meters":32000,"station_id":"ce4bgh92rcd13ifvqb40","pricing_plan_id":"cebpf4jnsgd1na2vs0mg"},{"bike_id":"40b039ad-0769-4a0e-8ad8-e16a05aa5fd5","system_id":"levelo_inurba_marseille","lat":43.27945,"lon":5.41053,"is_reserved":false,"is_disabled":false,"rental_uris":{"android":"levelo://app?vid=40b039ad-0769-4a0e-8ad8-e16a05aa5fd5","ios":"levelo://app?vid=40b039ad-0769-4a0e-8ad8-e16a05aa5fd5"},"vehicle_type_id":"4","last_reported":1730121579,"current_range_meters":36800,"station_id":"ce4bhnp2rcd13ifvqh0g","pricing_plan_id":"cebpf4jnsgd1na2vs0mg"},{"bike_id":"55433e48-d44e-4b78-92c7-ee7cf1d8fd02","system_id":"levelo_inurba_marseille","lat":43.30897,"lon":5.37201,"is_reserved":false,"is_disabled":false,"rental_uris":{"android":"levelo://app?vid=55433e48-d44e-4b78-92c7-ee7cf1d8fd02","ios":"levelo://app?vid=55433e48-d44e-4b78-92c7-ee7cf1d8fd02"},"vehicle_type_id":"4","last_reported":1730121579,"current_range_meters":38800,"station_id":"ce4bguh2rcd13ifvqckg","pricing_plan_id":"cebpf4jnsgd1na2vs0mg"},{"bike_id":"c147b734-71a6-4d6f-b8dd-fc4ccfae7a8d","system_id":"levelo_inurba_marseille","lat":43.29277,"lon":5.40118,"is_reserved":false,"is_disabled":false,"rental_uris":{"android":"levelo://app?vid=c147b734-71a6-4d6f-b8dd-fc4ccfae7a8d","ios":"levelo://app?vid=c147b734-71a6-4d6f-b8dd-fc4ccfae7a8d"},"vehicle_type_id":"4","last_reported":1730121579,"current_range_meters":38000,"station_id":"ce4bh312rcd13ifvqdk0","pricing_plan_id":"cebpf4jnsgd1na2vs0mg"},{"bike_id":"df18a4d4-051a-4a60-ad8e-e275c817d3a2","system_id":"levelo_inurba_marseille","lat":43.30531,"lon":5.36526,"is_reserved":false,"is_disabled":false,"rental_uris":{"android":"levelo://app?vid=df18a4d4-051a-4a60-ad8e-e275c817d3a2","ios":"levelo://app?vid=df18a4d4-051a-4a60-ad8e-e275c817d3a2"},"vehicle_type_id":"4","last_reported":1730121579,"current_range_meters":33600,"station_id":"ce4bgs12rcd13ifvqcag","pricing_plan_id":"cebpf4jnsgd1na2vs0mg"},{"bike_id":"db63f058-fdad-4057-bb90-e81b78c31449","system_id":"levelo_inurba_marseille","lat":43.27622,"lon":5.36105,"is_reserved":false,"is_disabled":false,"rental_uris":{"android":"levelo://app?vid=db63f058-fdad-4057-bb90-e81b78c31449","ios":"levelo://app?vid=db63f058-fdad-4057-bb90-e81b78c31449"},"vehicle_type_id":"4","last_reported":1730121579,"current_range_meters":27600,"station_id":"ce4bgj92rcd13ifvqbe0","pricing_plan_id":"cebpf4jnsgd1na2vs0mg"},{"bike_id":"7cc4f271-f154-424b-b28f-d26c711f8f66","system_id":"levelo_inurba_marseille","lat":43.29709,"lon":5.36602,"is_reserved":false,"is_disabled":false,"rental_uris":{"android":"levelo://app?vid=7cc4f271-f154-424b-b28f-d26c711f8f66","ios":"levelo://app?vid=7cc4f271-f154-424b-b28f-d26c711f8f66"},"vehicle_type_id":"4","last_reported":1730121579,"current_range_meters":24800,"station_id":"ce4bgn12rcd13ifvqbt0","pricing_plan_id":"cebpf4jnsgd1na2vs0mg"},{"bike_id":"7086f554-29ed-4bf8-a9aa-2bf99c337a44","system_id":"levelo_inurba_marseille","lat":43.29618,"lon":5.37713,"is_reserved":false,"is_disabled":false,"rental_uris":{"android":"levelo://app?vid=7086f554-29ed-4bf8-a9aa-2bf99c337a44","ios":"levelo://app?vid=7086f554-29ed-4bf8-a9aa-2bf99c337a44"},"vehicle_type_id":"4","last_reported":1730121579,"current_range_meters":26000,"station_id":"ce4bgi92rcd13ifvqb90","pricing_plan_id":"cebpf4jnsgd1na2vs0mg"},{"bike_id":"5e8add12-0a2f-4ee0-a948-b3005ed38fe3","system_id":"levelo_inurba_marseille","lat":43.32482,"lon":5.3656,"is_reserved":false,"is_disabled":false,"rental_uris":{"android":"levelo://app?vid=5e8add12-0a2f-4ee0-a948-b3005ed38fe3","ios":"levelo://app?vid=5e8add12-0a2f-4ee0-a948-b3005ed38fe3"},"vehicle_type_id":"4","last_reported":1730121579,"current_range_meters":39200,"station_id":"ce4bhs12rcd13ifvqhvg","pricing_plan_id":"cebpf4jnsgd1na2vs0mg"},{"bike_id":"4e2ecffb-80f3-466b-8f60-5cc751e7562d","system_id":"levelo_inurba_marseille","lat":43.31344,"lon":5.36719,"is_reserved":false,"is_disabled":false,"rental_uris":{"android":"levelo://app?vid=4e2ecffb-80f3-466b-8f60-5cc751e7562d","ios":"levelo://app?vid=4e2ecffb-80f3-466b-8f60-5cc751e7562d"},"vehicle_type_id":"4","last_reported":1730121579,"current_range_meters":25600,"station_id":"ce4bgr92rcd13ifvqc6g","pricing_plan_id":"cebpf4jnsgd1na2vs0mg"},{"bike_id":"58c29938-9a66-4cb0-80d8-96474a8212ec","system_id":"levelo_inurba_marseille","lat":43.23145,"lon":5.43715,"is_reserved":false,"is_disabled":false,"rental_uris":{"android":"levelo://app?vid=58c29938-9a66-4cb0-80d8-96474a8212ec","ios":"levelo://app?vid=58c29938-9a66-4cb0-80d8-96474a8212ec"},"vehicle_type_id":"4","last_reported":1730121579,"current_range_meters":22400,"station_id":"ce4bhmp2rcd13ifvqgog","pricing_plan_id":"cebpf4jnsgd1na2vs0mg"},{"bike_id":"cbad843e-c83d-4e48-88c2-62bd529e8026","system_id":"levelo_inurba_marseille","lat":43.30538,"lon":5.38423,"is_reserved":false,"is_disabled":false,"rental_uris":{"android":"levelo://app?vid=cbad843e-c83d-4e48-88c2-62bd529e8026","ios":"levelo://app?vid=cbad843e-c83d-4e48-88c2-62bd529e8026"},"vehicle_type_id":"4","last_reported":1730121579,"current_range_meters":24400,"station_id":"ce4bgg92rcd13ifvqb30","pricing_plan_id":"cebpf4jnsgd1na2vs0mg"},{"bike_id":"9ba3ad4f-788a-474d-a0db-7d2caea42a61","system_id":"levelo_inurba_marseille","lat":43.29232,"lon":5.3606,"is_reserved":false,"is_disabled":false,"rental_uris":{"android":"levelo://app?vid=9ba3ad4f-788a-474d-a0db-7d2caea42a61","ios":"levelo://app?vid=9ba3ad4f-788a-474d-a0db-7d2caea42a61"},"vehicle_type_id":"4","last_reported":1730121579,"current_range_meters":36400,"station_id":"ce4bhbh2rcd13ifvqeqg","pricing_plan_id":"cebpf4jnsgd1na2vs0mg"},{"bike_id":"90a4de55-b5eb-4270-8d61-6ac966368081","system_id":"levelo_inurba_marseille","lat":43.29618,"lon":5.37712,"is_reserved":false,"is_disabled":false,"rental_uris":{"android":"levelo://app?vid=90a4de55-b5eb-4270-8d61-6ac966368081","ios":"levelo://app?vid=90a4de55-b5eb-4270-8d61-6ac966368081"},"vehicle_type_id":"4","last_reported":1730121579,"current_range_meters":16400,"station_id":"ce4bgi92rcd13ifvqb90","pricing_plan_id":"cebpf4jnsgd1na2vs0mg"},{"bike_id":"0d5c913e-bf50-42a6-8209-590df6dd1dce","system_id":"levelo_inurba_marseille","lat":43.29524,"lon":5.39405,"is_reserved":false,"is_disabled":false,"rental_uris":{"android":"levelo://app?vid=0d5c913e-bf50-42a6-8209-590df6dd1dce","ios":"levelo://app?vid=0d5c913e-bf50-42a6-8209-590df6dd1dce"},"vehicle_type_id":"4","last_reported":1730121579,"current_range_meters":28800,"station_id":"ce4bh292rcd13ifvqdf0","pricing_plan_id":"cebpf4jnsgd1na2vs0mg"},{"bike_id":"bca1c95d-88ea-42d2-88ef-f9232ab56cf0","system_id":"levelo_inurba_marseille","lat":43.2737,"lon":5.3626,"is_reserved":false,"is_disabled":false,"rental_uris":{"android":"levelo://app?vid=bca1c95d-88ea-42d2-88ef-f9232ab56cf0","ios":"levelo://app?vid=bca1c95d-88ea-42d2-88ef-f9232ab56cf0"},"vehicle_type_id":"4","last_reported":1730121579,"current_range_meters":25600,"station_id":"ce4bhbh2rcd13ifvqeo0","pricing_plan_id":"cebpf4jnsgd1na2vs0mg"},{"bike_id":"a792347a-d158-4403-9c48-1b4e0c6fc790","system_id":"levelo_inurba_marseille","lat":43.27067,"lon":5.42272,"is_reserved":false,"is_disabled":false,"rental_uris":{"android":"levelo://app?vid=a792347a-d158-4403-9c48-1b4e0c6fc790","ios":"levelo://app?vid=a792347a-d158-4403-9c48-1b4e0c6fc790"},"vehicle_type_id":"4","last_reported":1730121579,"current_range_meters":39200,"station_id":"ce4bhk92rcd13ifvqgb0","pricing_plan_id":"cebpf4jnsgd1na2vs0mg"},{"bike_id":"050c0c20-964b-484a-929f-60394f3b7e2a","system_id":"levelo_inurba_marseille","lat":43.28427,"lon":5.34986,"is_reserved":false,"is_disabled":false,"rental_uris":{"android":"levelo://app?vid=050c0c20-964b-484a-929f-60394f3b7e2a","ios":"levelo://app?vid=050c0c20-964b-484a-929f-60394f3b7e2a"},"vehicle_type_id":"4","last_reported":1730121579,"current_range_meters":24000,"station_id":"ce4bhbh2rcd13ifvqepg","pricing_plan_id":"cebpf4jnsgd1na2vs0mg"},{"bike_id":"676c1e6b-8b0b-4e87-ab39-73b0ea34db80","system_id":"levelo_inurba_marseille","lat":43.3091,"lon":5.36844,"is_reserved":false,"is_disabled":false,"rental_uris":{"android":"levelo://app?vid=676c1e6b-8b0b-4e87-ab39-73b0ea34db80","ios":"levelo://app?vid=676c1e6b-8b0b-4e87-ab39-73b0ea34db80"},"vehicle_type_id":"4","last_reported":1730121579,"current_range_meters":29600,"station_id":"ce4bgn92rcd13ifvqbvg","pricing_plan_id":"cebpf4jnsgd1na2vs0mg"},{"bike_id":"74efa595-38a8-46e9-bc36-2ab66a07dbfd","system_id":"levelo_inurba_marseille","lat":43.28481,"lon":5.38562,"is_reserved":false,"is_disabled":false,"rental_uris":{"android":"levelo://app?vid=74efa595-38a8-46e9-bc36-2ab66a07dbfd","ios":"levelo://app?vid=74efa595-38a8-46e9-bc36-2ab66a07dbfd"},"vehicle_type_id":"4","last_reported":1730121579,"current_range_meters":22800,"station_id":"ce4bh8p2rcd13ifvqeb0","pricing_plan_id":"cebpf4jnsgd1na2vs0mg"},{"bike_id":"b497d91c-1f87-4508-b462-50136e06ba9f","system_id":"levelo_inurba_marseille","lat":43.241782,"lon":5.397338,"is_reserved":false,"is_disabled":false,"rental_uris":{"android":"levelo://app?vid=b497d91c-1f87-4508-b462-50136e06ba9f","ios":"levelo://app?vid=b497d91c-1f87-4508-b462-50136e06ba9f"},"vehicle_type_id":"4","last_reported":1730121579,"current_range_meters":31200,"station_id":"ce4bhn12rcd13ifvqgpg","pricing_plan_id":"cebpf4jnsgd1na2vs0mg"},{"bike_id":"49d9c805-6099-4b09-8ca1-fdc0b9011111","system_id":"levelo_inurba_marseille","lat":43.23152,"lon":5.43723,"is_reserved":false,"is_disabled":false,"rental_uris":{"android":"levelo://app?vid=49d9c805-6099-4b09-8ca1-fdc0b9011111","ios":"levelo://app?vid=49d9c805-6099-4b09-8ca1-fdc0b9011111"},"vehicle_type_id":"4","last_reported":1730121579,"current_range_meters":30000,"station_id":"ce4bhmp2rcd13ifvqgog","pricing_plan_id":"cebpf4jnsgd1na2vs0mg"},{"bike_id":"870759aa-b4f1-410f-8dd7-8cce75f5dcfb","system_id":"levelo_inurba_marseille","lat":43.23149,"lon":5.4372,"is_reserved":false,"is_disabled":false,"rental_uris":{"android":"levelo://app?vid=870759aa-b4f1-410f-8dd7-8cce75f5dcfb","ios":"levelo://app?vid=870759aa-b4f1-410f-8dd7-8cce75f5dcfb"},"vehicle_type_id":"4","last_reported":1730121579,"current_range_meters":38800,"station_id":"ce4bhmp2rcd13ifvqgog","pricing_plan_id":"cebpf4jnsgd1na2vs0mg"},{"bike_id":"d8711267-9f9c-41b2-8f28-d59b2554e9c8","system_id":"levelo_inurba_marseille","lat":43.23149,"lon":5.43717,"is_reserved":false,"is_disabled":false,"rental_uris":{"android":"levelo://app?vid=d8711267-9f9c-41b2-8f28-d59b2554e9c8","ios":"levelo://app?vid=d8711267-9f9c-41b2-8f28-d59b2554e9c8"},"vehicle_type_id":"4","last_reported":1730121579,"current_range_meters":14000,"station_id":"ce4bhmp2rcd13ifvqgog","pricing_plan_id":"cebpf4jnsgd1na2vs0mg"},{"bike_id":"826eb7f4-7b2c-4960-b8f0-1ad2d382103e","system_id":"levelo_inurba_marseille","lat":43.27496,"lon":5.42446,"is_reserved":false,"is_disabled":false,"rental_uris":{"android":"levelo://app?vid=826eb7f4-7b2c-4960-b8f0-1ad2d382103e","ios":"levelo://app?vid=826eb7f4-7b2c-4960-b8f0-1ad2d382103e"},"vehicle_type_id":"4","last_reported":1730121579,"current_range_meters":38000,"station_id":"ce4bhn92rcd13ifvqgrg","pricing_plan_id":"cebpf4jnsgd1na2vs0mg"},{"bike_id":"7d4b1172-a098-46f1-a708-e75f61c3bf78","system_id":"levelo_inurba_marseille","lat":43.22932,"lon":5.353763,"is_reserved":false,"is_disabled":false,"rental_uris":{"android":"levelo://app?vid=7d4b1172-a098-46f1-a708-e75f61c3bf78","ios":"levelo://app?vid=7d4b1172-a098-46f1-a708-e75f61c3bf78"},"vehicle_type_id":"4","last_reported":1730121579,"current_range_meters":18800,"station_id":"cpo3532slgdg3j2ikp40","pricing_plan_id":"cebpf4jnsgd1na2vs0mg"},{"bike_id":"5790618d-de32-4a58-898a-bfa124a2426f","system_id":"levelo_inurba_marseille","lat":43.24178,"lon":5.39725,"is_reserved":false,"is_disabled":false,"rental_uris":{"android":"levelo://app?vid=5790618d-de32-4a58-898a-bfa124a2426f","ios":"levelo://app?vid=5790618d-de32-4a58-898a-bfa124a2426f"},"vehicle_type_id":"4","last_reported":1730121579,"current_range_meters":28800,"station_id":"ce4bhn12rcd13ifvqgpg","pricing_plan_id":"cebpf4jnsgd1na2vs0mg"},{"bike_id":"089c37ba-3c44-437d-be3a-8dcc8e4e5629","system_id":"levelo_inurba_marseille","lat":43.30552,"lon":5.36523,"is_reserved":false,"is_disabled":false,"rental_uris":{"android":"levelo://app?vid=089c37ba-3c44-437d-be3a-8dcc8e4e5629","ios":"levelo://app?vid=089c37ba-3c44-437d-be3a-8dcc8e4e5629"},"vehicle_type_id":"4","last_reported":1730121579,"current_range_meters":38800,"station_id":"ce4bgs12rcd13ifvqcag","pricing_plan_id":"cebpf4jnsgd1na2vs0mg"},{"bike_id":"322e91e7-2437-4943-96f4-3bbddcacb574","system_id":"levelo_inurba_marseille","lat":43.269262,"lon":5.389177,"is_reserved":false,"is_disabled":false,"rental_uris":{"android":"levelo://app?vid=322e91e7-2437-4943-96f4-3bbddcacb574","ios":"levelo://app?vid=322e91e7-2437-4943-96f4-3bbddcacb574"},"vehicle_type_id":"4","last_reported":1730121579,"current_range_meters":21600,"station_id":"ce4bhbh2rcd13ifvqeo0","pricing_plan_id":"cebpf4jnsgd1na2vs0mg"},{"bike_id":"0b8e591f-33f5-446a-9f95-38e0ddd56cf3","system_id":"levelo_inurba_marseille","lat":43.29015,"lon":5.38125,"is_reserved":false,"is_disabled":false,"rental_uris":{"android":"levelo://app?vid=0b8e591f-33f5-446a-9f95-38e0ddd56cf3","ios":"levelo://app?vid=0b8e591f-33f5-446a-9f95-38e0ddd56cf3"},"vehicle_type_id":"4","last_reported":1730121579,"current_range_meters":28800,"station_id":"ce4bh4p2rcd13ifvqe1g","pricing_plan_id":"cebpf4jnsgd1na2vs0mg"},{"bike_id":"35e99df9-8a5a-4cda-a7c4-bb0bb445e5cf","system_id":"levelo_inurba_marseille","lat":43.297101,"lon":5.377042,"is_reserved":false,"is_disabled":false,"rental_uris":{"android":"levelo://app?vid=35e99df9-8a5a-4cda-a7c4-bb0bb445e5cf","ios":"levelo://app?vid=35e99df9-8a5a-4cda-a7c4-bb0bb445e5cf"},"vehicle_type_id":"4","last_reported":1730121579,"current_range_meters":3200,"station_id":"ce4bgkh2rcd13ifvqbl0","pricing_plan_id":"cebpf4jnsgd1na2vs0mg"},{"bike_id":"91870cc2-668f-4717-93d3-5f58465d5cdd","system_id":"levelo_inurba_marseille","lat":43.23184,"lon":5.39993,"is_reserved":false,"is_disabled":false,"rental_uris":{"android":"levelo://app?vid=91870cc2-668f-4717-93d3-5f58465d5cdd","ios":"levelo://app?vid=91870cc2-668f-4717-93d3-5f58465d5cdd"},"vehicle_type_id":"4","last_reported":1730121579,"current_range_meters":27200,"station_id":"ce4bhn12rcd13ifvqgqg","pricing_plan_id":"cebpf4jnsgd1na2vs0mg"},{"bike_id":"cd5289ce-9e66-4976-9552-3aa1b0da909c","system_id":"levelo_inurba_marseille","lat":43.32477,"lon":5.3655,"is_reserved":false,"is_disabled":false,"rental_uris":{"android":"levelo://app?vid=cd5289ce-9e66-4976-9552-3aa1b0da909c","ios":"levelo://app?vid=cd5289ce-9e66-4976-9552-3aa1b0da909c"},"vehicle_type_id":"4","last_reported":1730121579,"current_range_meters":38800,"station_id":"ce4bhs12rcd13ifvqhvg","pricing_plan_id":"cebpf4jnsgd1na2vs0mg"},{"bike_id":"d2cfb8e2-b4f5-493e-9190-4fd91f5e908d","system_id":"levelo_inurba_marseille","lat":43.33767,"lon":5.3747,"is_reserved":false,"is_disabled":false,"rental_uris":{"android":"levelo://app?vid=d2cfb8e2-b4f5-493e-9190-4fd91f5e908d","ios":"levelo://app?vid=d2cfb8e2-b4f5-493e-9190-4fd91f5e908d"},"vehicle_type_id":"4","last_reported":1730121579,"current_range_meters":38400,"station_id":"","pricing_plan_id":"cebpf4jnsgd1na2vs0mg"},{"bike_id":"2c9cd697-74f8-4a74-a83b-515ce4f148d8","system_id":"levelo_inurba_marseille","lat":43.30139,"lon":5.37421,"is_reserved":false,"is_disabled":false,"rental_uris":{"android":"levelo://app?vid=2c9cd697-74f8-4a74-a83b-515ce4f148d8","ios":"levelo://app?vid=2c9cd697-74f8-4a74-a83b-515ce4f148d8"},"vehicle_type_id":"4","last_reported":1730121579,"current_range_meters":37600,"station_id":"ce4bgs92rcd13ifvqcc0","pricing_plan_id":"cebpf4jnsgd1na2vs0mg"},{"bike_id":"f63ab231-c167-4e94-bac3-891d98b4f73e","system_id":"levelo_inurba_marseille","lat":43.29025,"lon":5.38131,"is_reserved":false,"is_disabled":false,"rental_uris":{"android":"levelo://app?vid=f63ab231-c167-4e94-bac3-891d98b4f73e","ios":"levelo://app?vid=f63ab231-c167-4e94-bac3-891d98b4f73e"},"vehicle_type_id":"4","last_reported":1730121579,"current_range_meters":27200,"station_id":"ce4bh4p2rcd13ifvqe1g","pricing_plan_id":"cebpf4jnsgd1na2vs0mg"},{"bike_id":"c1f61dd8-17d5-43eb-8731-e9b3ee9ed0fe","system_id":"levelo_inurba_marseille","lat":43.30882,"lon":5.37196,"is_reserved":false,"is_disabled":false,"rental_uris":{"android":"levelo://app?vid=c1f61dd8-17d5-43eb-8731-e9b3ee9ed0fe","ios":"levelo://app?vid=c1f61dd8-17d5-43eb-8731-e9b3ee9ed0fe"},"vehicle_type_id":"4","last_reported":1730121579,"current_range_meters":39200,"station_id":"ce4bguh2rcd13ifvqckg","pricing_plan_id":"cebpf4jnsgd1na2vs0mg"},{"bike_id":"c374f64f-9afa-4a41-86e3-541699c21d24","system_id":"levelo_inurba_marseille","lat":43.30143,"lon":5.37407,"is_reserved":false,"is_disabled":false,"rental_uris":{"android":"levelo://app?vid=c374f64f-9afa-4a41-86e3-541699c21d24","ios":"levelo://app?vid=c374f64f-9afa-4a41-86e3-541699c21d24"},"vehicle_type_id":"4","last_reported":1730121579,"current_range_meters":24800,"station_id":"ce4bgs92rcd13ifvqcc0","pricing_plan_id":"cebpf4jnsgd1na2vs0mg"},{"bike_id":"27b25d53-0d43-45f7-b36c-a08ae52b240c","system_id":"levelo_inurba_marseille","lat":43.23183,"lon":5.39975,"is_reserved":false,"is_disabled":false,"rental_uris":{"android":"levelo://app?vid=27b25d53-0d43-45f7-b36c-a08ae52b240c","ios":"levelo://app?vid=27b25d53-0d43-45f7-b36c-a08ae52b240c"},"vehicle_type_id":"4","last_reported":1730121579,"current_range_meters":39200,"station_id":"ce4bhn12rcd13ifvqgqg","pricing_plan_id":"cebpf4jnsgd1na2vs0mg"},{"bike_id":"cd5ac976-a627-4311-878d-a5e529de3f63","system_id":"levelo_inurba_marseille","lat":43.27988,"lon":5.40012,"is_reserved":false,"is_disabled":false,"rental_uris":{"android":"levelo://app?vid=cd5ac976-a627-4311-878d-a5e529de3f63","ios":"levelo://app?vid=cd5ac976-a627-4311-878d-a5e529de3f63"},"vehicle_type_id":"4","last_reported":1730121579,"current_range_meters":22000,"station_id":"ce4bho92rcd13ifvqh4g","pricing_plan_id":"cebpf4jnsgd1na2vs0mg"},{"bike_id":"10f12d08-f6dc-48fd-b1d1-9945730b8909","system_id":"levelo_inurba_marseille","lat":43.2953,"lon":5.39404,"is_reserved":false,"is_disabled":false,"rental_uris":{"android":"levelo://app?vid=10f12d08-f6dc-48fd-b1d1-9945730b8909","ios":"levelo://app?vid=10f12d08-f6dc-48fd-b1d1-9945730b8909"},"vehicle_type_id":"4","last_reported":1730121579,"current_range_meters":30400,"station_id":"ce4bh292rcd13ifvqdf0","pricing_plan_id":"cebpf4jnsgd1na2vs0mg"},{"bike_id":"5b0a6d83-fde7-4553-a032-2fe5d803938b","system_id":"levelo_inurba_marseille","lat":43.29274,"lon":5.36842,"is_reserved":false,"is_disabled":false,"rental_uris":{"android":"levelo://app?vid=5b0a6d83-fde7-4553-a032-2fe5d803938b","ios":"levelo://app?vid=5b0a6d83-fde7-4553-a032-2fe5d803938b"},"vehicle_type_id":"4","last_reported":1730121579,"current_range_meters":38800,"station_id":"ce4bhbp2rcd13ifvqesg","pricing_plan_id":"cebpf4jnsgd1na2vs0mg"},{"bike_id":"929ad56f-7d2d-4ab0-9662-7cb162423c9c","system_id":"levelo_inurba_marseille","lat":43.29424,"lon":5.3748,"is_reserved":false,"is_disabled":false,"rental_uris":{"android":"levelo://app?vid=929ad56f-7d2d-4ab0-9662-7cb162423c9c","ios":"levelo://app?vid=929ad56f-7d2d-4ab0-9662-7cb162423c9c"},"vehicle_type_id":"4","last_reported":1730121579,"current_range_meters":36800,"station_id":"","pricing_plan_id":"cebpf4jnsgd1na2vs0mg"},{"bike_id":"65d34050-1c18-4611-afa7-c2c037b3b82c","system_id":"levelo_inurba_marseille","lat":43.30138,"lon":5.37424,"is_reserved":false,"is_disabled":false,"rental_uris":{"android":"levelo://app?vid=65d34050-1c18-4611-afa7-c2c037b3b82c","ios":"levelo://app?vid=65d34050-1c18-4611-afa7-c2c037b3b82c"},"vehicle_type_id":"4","last_reported":1730121579,"current_range_meters":38800,"station_id":"ce4bgs92rcd13ifvqcc0","pricing_plan_id":"cebpf4jnsgd1na2vs0mg"},{"bike_id":"6529002d-efcb-464f-9087-6d9fd5566271","system_id":"levelo_inurba_marseille","lat":43.286101,"lon":5.370674,"is_reserved":false,"is_disabled":false,"rental_uris":{"android":"levelo://app?vid=6529002d-efcb-464f-9087-6d9fd5566271","ios":"levelo://app?vid=6529002d-efcb-464f-9087-6d9fd5566271"},"vehicle_type_id":"4","last_reported":1730121579,"current_range_meters":28000,"station_id":"ce4bht12rcd13ifvqi60","pricing_plan_id":"cebpf4jnsgd1na2vs0mg"},{"bike_id":"ae3d8287-85cd-4416-80d4-5ee81f9c75d4","system_id":"levelo_inurba_marseille","lat":43.32289,"lon":5.3827,"is_reserved":false,"is_disabled":false,"rental_uris":{"android":"levelo://app?vid=ae3d8287-85cd-4416-80d4-5ee81f9c75d4","ios":"levelo://app?vid=ae3d8287-85cd-4416-80d4-5ee81f9c75d4"},"vehicle_type_id":"4","last_reported":1730121579,"current_range_meters":28400,"station_id":"ce4bhr12rcd13ifvqhqg","pricing_plan_id":"cebpf4jnsgd1na2vs0mg"},{"bike_id":"ed7b85b8-b966-471a-984e-98975c909f2a","system_id":"levelo_inurba_marseille","lat":43.284809,"lon":5.384242,"is_reserved":false,"is_disabled":false,"rental_uris":{"android":"levelo://app?vid=ed7b85b8-b966-471a-984e-98975c909f2a","ios":"levelo://app?vid=ed7b85b8-b966-471a-984e-98975c909f2a"},"vehicle_type_id":"4","last_reported":1730121579,"current_range_meters":25600,"station_id":"ce4bh512rcd13ifvqe3g","pricing_plan_id":"cebpf4jnsgd1na2vs0mg"},{"bike_id":"165bfc3b-314c-496d-8724-9e4a94595db9","system_id":"levelo_inurba_marseille","lat":43.29915,"lon":5.37469,"is_reserved":false,"is_disabled":false,"rental_uris":{"android":"levelo://app?vid=165bfc3b-314c-496d-8724-9e4a94595db9","ios":"levelo://app?vid=165bfc3b-314c-496d-8724-9e4a94595db9"},"vehicle_type_id":"4","last_reported":1730121579,"current_range_meters":7200,"station_id":"ce4bgjh2rcd13ifvqbg0","pricing_plan_id":"cebpf4jnsgd1na2vs0mg"},{"bike_id":"7ba3d478-84b5-40d0-ace9-812601ffd74e","system_id":"levelo_inurba_marseille","lat":43.3149,"lon":5.37294,"is_reserved":false,"is_disabled":false,"rental_uris":{"android":"levelo://app?vid=7ba3d478-84b5-40d0-ace9-812601ffd74e","ios":"levelo://app?vid=7ba3d478-84b5-40d0-ace9-812601ffd74e"},"vehicle_type_id":"4","last_reported":1730121579,"current_range_meters":12400,"station_id":"ce4bgt12rcd13ifvqcd0","pricing_plan_id":"cebpf4jnsgd1na2vs0mg"},{"bike_id":"fdf3faf2-1afb-47b2-8bf0-313dad203c8a","system_id":"levelo_inurba_marseille","lat":43.30471,"lon":5.366986,"is_reserved":false,"is_disabled":false,"rental_uris":{"android":"levelo://app?vid=fdf3faf2-1afb-47b2-8bf0-313dad203c8a","ios":"levelo://app?vid=fdf3faf2-1afb-47b2-8bf0-313dad203c8a"},"vehicle_type_id":"4","last_reported":1730121579,"current_range_meters":16000,"station_id":"ce4bhbh2rcd13ifvqepg","pricing_plan_id":"cebpf4jnsgd1na2vs0mg"},{"bike_id":"8c715a93-36cb-4a15-9c2d-9e088d5a163d","system_id":"levelo_inurba_marseille","lat":43.29337,"lon":5.37429,"is_reserved":false,"is_disabled":false,"rental_uris":{"android":"levelo://app?vid=8c715a93-36cb-4a15-9c2d-9e088d5a163d","ios":"levelo://app?vid=8c715a93-36cb-4a15-9c2d-9e088d5a163d"},"vehicle_type_id":"4","last_reported":1730121579,"current_range_meters":38800,"station_id":"ce4bgi12rcd13ifvqb70","pricing_plan_id":"cebpf4jnsgd1na2vs0mg"},{"bike_id":"f16460dc-69aa-4447-812d-6cde0ab94e4b","system_id":"levelo_inurba_marseille","lat":43.2511,"lon":5.40327,"is_reserved":false,"is_disabled":false,"rental_uris":{"android":"levelo://app?vid=f16460dc-69aa-4447-812d-6cde0ab94e4b","ios":"levelo://app?vid=f16460dc-69aa-4447-812d-6cde0ab94e4b"},"vehicle_type_id":"4","last_reported":1730121579,"current_range_meters":10800,"station_id":"ce4bhlh2rcd13ifvqgig","pricing_plan_id":"cebpf4jnsgd1na2vs0mg"},{"bike_id":"4eaa9963-600e-4330-923a-71b971327b98","system_id":"levelo_inurba_marseille","lat":43.29897,"lon":5.43662,"is_reserved":false,"is_disabled":false,"rental_uris":{"android":"levelo://app?vid=4eaa9963-600e-4330-923a-71b971327b98","ios":"levelo://app?vid=4eaa9963-600e-4330-923a-71b971327b98"},"vehicle_type_id":"4","last_reported":1730121579,"current_range_meters":28400,"station_id":"ce4bhpp2rcd13ifvqhfg","pricing_plan_id":"cebpf4jnsgd1na2vs0mg"},{"bike_id":"50b9a8fe-383c-4a46-81fd-2fe99c3f6af6","system_id":"levelo_inurba_marseille","lat":43.26683,"lon":5.38274,"is_reserved":false,"is_disabled":false,"rental_uris":{"android":"levelo://app?vid=50b9a8fe-383c-4a46-81fd-2fe99c3f6af6","ios":"levelo://app?vid=50b9a8fe-383c-4a46-81fd-2fe99c3f6af6"},"vehicle_type_id":"4","last_reported":1730121579,"current_range_meters":38800,"station_id":"ce4bhg92rcd13ifvqf90","pricing_plan_id":"cebpf4jnsgd1na2vs0mg"},{"bike_id":"a7f5f251-20df-4bb7-a9db-59d150b81b51","system_id":"levelo_inurba_marseille","lat":43.2923,"lon":5.3607,"is_reserved":false,"is_disabled":false,"rental_uris":{"android":"levelo://app?vid=a7f5f251-20df-4bb7-a9db-59d150b81b51","ios":"levelo://app?vid=a7f5f251-20df-4bb7-a9db-59d150b81b51"},"vehicle_type_id":"4","last_reported":1730121579,"current_range_meters":39200,"station_id":"ce4bhbh2rcd13ifvqeqg","pricing_plan_id":"cebpf4jnsgd1na2vs0mg"},