{"last_updated":1737140855,"ttl":60,"version":"2.2","data":{"bikes":[{"bike_id":"0f881e68-539f-46b7-ac38-4fc68735aa91","system_id":"levelo_inurba_marseille","lat":43.28666,"lon":5.36347,"is_reserved":false,"is_disabled":false,"rental_uris":{"android":"levelo://app?vid=0f881e68-539f-46b7-ac38-4fc68735aa91","ios":"levelo://app?vid=0f881e68-539f-46b7-ac38-4fc68735aa91"},"vehicle_type_id":"4","last_reported":1737140855,"current_range_meters":20800,"station_id":"ce4bhah2rcd13ifvqej0","pricing_plan_id":"cebpf4jnsgd1na2vs0mg"},{"bike_id":"83423ef3-b993-424a-99e2-60978295cc1a","system_id":"levelo_inurba_marseille","lat":43.27986,"lon":5.41652,"is_reserved":false,"is_disabled":false,"rental_uris":{"android":"levelo://app?vid=83423ef3-b993-424a-99e2-60978295cc1a","ios":"levelo://app?vid=83423ef3-b993-424a-99e2-60978295cc1a"},"vehicle_type_id":"4","last_reported":1737140855,"current_range_meters":13600,"station_id":"ce4bho12rcd13ifvqh1g","pricing_plan_id":"cebpf4jnsgd1na2vs0mg"},{"bike_id":"62a1a627-9bc7-4b40-bf58-db452fda1d5b","system_id":"levelo_inurba_marseille","lat":43.29281,"lon":5.36853,"is_reserved":false,"is_disabled":false,"rental_uris":{"android":"levelo://app?vid=62a1a627-9bc7-4b40-bf58-db452fda1d5b","ios":"levelo://app?vid=62a1a627-9bc7-4b40-bf58-db452fda1d5b"},"vehicle_type_id":"4","last_reported":1737140855,"current_range_meters":32400,"station_id":"ce4bhbp2rcd13ifvqesg","pricing_plan_id":"cebpf4jnsgd1na2vs0mg"},{"bike_id":"b2d0f128-be05-44ed-b153-1a9e14ad0512","system_id":"levelo_inurba_marseille","lat":43.30114,"lon":5.39884,"is_reserved":false,"is_disabled":false,"rental_uris":{"android":"levelo://app?vid=b2d0f128-be05-44ed-b153-1a9e14ad0512","ios":"levelo://app?vid=b2d0f128-be05-44ed-b153-1a9e14ad0512"},"vehicle_type_id":"4","last_reported":1737140855,"current_range_meters":20400,"station_id":"ce4bh0h2rcd13ifvqd40","pricing_plan_id":"cebpf4jnsgd1na2vs0mg"},{"bike_id":"71b32f88-1aef-44a0-bf22-1e644f4e3f87","system_id":"levelo_inurba_marseille","lat":43.26218,"lon":5.37432,"is_reserved":false,"is_disabled":false,"rental_uris":{"android":"levelo://app?vid=71b32f88-1aef-44a0-bf22-1e644f4e3f87","ios":"levelo://app?vid=71b32f88-1aef-44a0-bf22-1e644f4e3f87"},"vehicle_type_id":"4","last_reported":1737140855,"current_range_meters":32800,"station_id":"ce4bhgp2rcd13ifvqfc0","pricing_plan_id":"cebpf4jnsgd1na2vs0mg"},{"bike_id":"63944c13-1dbc-4b8e-892d-53ea6e8c8f43","system_id":"levelo_inurba_marseille","lat":43.28,"lon":5.40005,"is_reserved":false,"is_disabled":false,"rental_uris":{"android":"levelo://app?vid=63944c13-1dbc-4b8e-892d-53ea6e8c8f43","ios":"levelo://app?vid=63944c13-1dbc-4b8e-892d-53ea6e8c8f43"},"vehicle_type_id":"4","last_reported":1737140855,"current_range_meters":11600,"station_id":"ce4bho92rcd13ifvqh4g","pricing_plan_id":"cebpf4jnsgd1na2vs0mg"},{"bike_id":"1c5b4cd9-9d82-4cdf-8b85-273762ba9aeb","system_id":"levelo_inurba_marseille","lat":43.28106,"lon":5.37844,"is_reserved":false,"is_disabled":false,"rental_uris":{"android":"levelo://app?vid=1c5b4cd9-9d82-4cdf-8b85-273762ba9aeb","ios":"levelo://app?vid=1c5b4cd9-9d82-4cdf-8b85-273762ba9aeb"},"vehicle_type_id":"4","last_reported":1737140855,"current_range_meters":24400,"station_id":"ce4bha12rcd13ifvqee0","pricing_plan_id":"cebpf4jnsgd1na2vs0mg"},{"bike_id":"ffdb67c7-f482-4aaa-9a03-479aeb4bafbe","system_id":"levelo_inurba_marseille","lat":43.27999,"lon":5.40008,"is_reserved":false,"is_disabled":false,"rental_uris":{"android":"levelo://app?vid=ffdb67c7-f482-4aaa-9a03-479aeb4bafbe","ios":"levelo://app?vid=ffdb67c7-f482-4aaa-9a03-479aeb4bafbe"},"vehicle_type_id":"4","last_reported":1737140855,"current_range_meters":27600,"station_id":"ce4bho92rcd13ifvqh4g","pricing_plan_id":"cebpf4jnsgd1na2vs0mg"},{"bike_id":"75d8f0a6-e099-4c97-914c-445fb134b064","system_id":"levelo_inurba_marseille","lat":43.29379,"lon":5.37848,"is_reserved":false,"is_disabled":false,"rental_uris":{"android":"levelo://app?vid=75d8f0a6-e099-4c97-914c-445fb134b064","ios":"levelo://app?vid=75d8f0a6-e099-4c97-914c-445fb134b064"},"vehicle_type_id":"4","last_reported":1737140855,"current_range_meters":37600,"station_id":"ce4bgjh2rcd13ifvqbf0","pricing_plan_id":"cebpf4jnsgd1na2vs0mg"},{"bike_id":"5ff1c1c1-92c2-43f7-8f5e-7f9a3f2cf9a0","system_id":"levelo_inurba_marseille","lat":43.24144,"lon":5.39758,"is_reserved":false,"is_disabled":false,"rental_uris":{"android":"levelo://app?vid=5ff1c1c1-92c2-43f7-8f5e-7f9a3f2cf9a0","ios":"levelo://app?vid=5ff1c1c1-92c2-43f7-8f5e-7f9a3f2cf9a0"},"vehicle_type_id":"4","last_reported":1737140855,"current_range_meters":38800,"station_id":"ce4bhn12rcd13ifvqgpg","pricing_plan_id":"cebpf4jnsgd1na2vs0mg"},{"bike_id":"1d461443-aacd-475f-a2e6-57c782362445","system_id":"levelo_inurba_marseille","lat":43.29839,"lon":5.36262,"is_reserved":false,"is_disabled":false,"rental_uris":{"android":"levelo://app?vid=1d461443-aacd-475f-a2e6-57c782362445","ios":"levelo://app?vid=1d461443-aacd-475f-a2e6-57c782362445"},"vehicle_type_id":"4","last_reported":1737140855,"current_range_meters":38400,"station_id":"ce4bgpp2rcd13ifvqc3g","pricing_plan_id":"cebpf4jnsgd1na2vs0mg"},{"bike_id":"2c73a58e-1f8a-45c0-a994-d73d1538103d","system_id":"levelo_inurba_marseille","lat":43.29606,"lon":5.38108,"is_reserved":false,"is_disabled":false,"rental_uris":{"android":"levelo://app?vid=2c73a58e-1f8a-45c0-a994-d73d1538103d","ios":"levelo://app?vid=2c73a58e-1f8a-45c0-a994-d73d1538103d"},"vehicle_type_id":"4","last_reported":1737140855,"current_range_meters":8800,"station_id":"ce4bgl12rcd13ifvqbo0","pricing_plan_id":"cebpf4jnsgd1na2vs0mg"},{"bike_id":"ad19c412-a6cc-4c1c-9242-26f8b14b305d","system_id":"levelo_inurba_marseille","lat":43.28429,"lon":5.3919,"is_reserved":false,"is_disabled":false,"rental_uris":{"android":"levelo://app?vid=ad19c412-a6cc-4c1c-9242-26f8b14b305d","ios":"levelo://app?vid=ad19c412-a6cc-4c1c-9242-26f8b14b305d"},"vehicle_type_id":"4","last_reported":1737140855,"current_range_meters":28400,"station_id":"ce4bhoh2rcd13ifvqh5g","pricing_plan_id":"cebpf4jnsgd1na2vs0mg"},{"bike_id":"24e4574c-edb8-408e-95ab-7360b0f8c267","system_id":"levelo_inurba_marseille","lat":43.29259,"lon":5.38448,"is_reserved":false,"is_disabled":false,"rental_uris":{"android":"levelo://app?vid=24e4574c-edb8-408e-95ab-7360b0f8c267","ios":"levelo://app?vid=24e4574c-edb8-408e-95ab-7360b0f8c267"},"vehicle_type_id":"4","last_reported":1737140855,"current_range_meters":39200,"station_id":"ce4bh692rcd13ifvqea0","pricing_plan_id":"cebpf4jnsgd1na2vs0mg"},{"bike_id":"d8876122-ff1e-42bb-a9ac-c66c39d72467","system_id":"levelo_inurba_marseille","lat":43.24381,"lon":5.3706,"is_reserved":false,"is_disabled":false,"rental_uris":{"android":"levelo://app?vid=d8876122-ff1e-42bb-a9ac-c66c39d72467","ios":"levelo://app?vid=d8876122-ff1e-42bb-a9ac-c66c39d72467"},"vehicle_type_id":"4","last_reported":1737140855,"current_range_meters":28800,"station_id":"ce4bhhh2rcd13ifvqfk0","pricing_plan_id":"cebpf4jnsgd1na2vs0mg"},{"bike_id":"2f2fbcba-3d28-4f72-847c-6f143905554a","system_id":"levelo_inurba_marseille","lat":43.27998,"lon":5.40001,"is_reserved":false,"is_disabled":false,"rental_uris":{"android":"levelo://app?vid=2f2fbcba-3d28-4f72-847c-6f143905554a","ios":"levelo://app?vid=2f2fbcba-3d28-4f72-847c-6f143905554a"},"vehicle_type_id":"4","last_reported":1737140855,"current_range_meters":28800,"station_id":"ce4bho92rcd13ifvqh4g","pricing_plan_id":"cebpf4jnsgd1na2vs0mg"},{"bike_id":"453b4a42-026b-40d5-9f5c-2f1a04698821","system_id":"levelo_inurba_marseille","lat":43.31276,"lon":5.40164,"is_reserved":false,"is_disabled":false,"rental_uris":{"android":"levelo://app?vid=453b4a42-026b-40d5-9f5c-2f1a04698821","ios":"levelo://app?vid=453b4a42-026b-40d5-9f5c-2f1a04698821"},"vehicle_type_id":"4","last_reported":1737140855,"current_range_meters":13600,"station_id":"ce4bh092rcd13ifvqd30","pricing_plan_id":"cebpf4jnsgd1na2vs0mg"},{"bike_id":"760858e3-be43-4f37-8c6c-a412abbd9db1","system_id":"levelo_inurba_marseille","lat":43.29261,"lon":5.38441,"is_reserved":false,"is_disabled":false,"rental_uris":{"android":"levelo://app?vid=760858e3-be43-4f37-8c6c-a412abbd9db1","ios":"levelo://app?vid=760858e3-be43-4f37-8c6c-a412abbd9db1"},"vehicle_type_id":"4","last_reported":1737140855,"current_range_meters":28000,"station_id":"ce4bh692rcd13ifvqea0","pricing_plan_id":"cebpf4jnsgd1na2vs0mg"},{"bike_id":"8b6a8b78-4966-4fb6-9b29-4d80005f6d28","system_id":"levelo_inurba_marseille","lat":43.2842,"lon":5.37496,"is_reserved":false,"is_disabled":false,"rental_uris":{"android":"levelo://app?vid=8b6a8b78-4966-4fb6-9b29-4d80005f6d28","ios":"levelo://app?vid=8b6a8b78-4966-4fb6-9b29-4d80005f6d28"},"vehicle_type_id":"4","last_reported":1737140855,"current_range_meters":3200,"station_id":"ce4bh412rcd13ifvqds0","pricing_plan_id":"cebpf4jnsgd1na2vs0mg"},{"bike_id":"44a85e3c-8162-46ba-a9a4-5a2c318dd65f","system_id":"levelo_inurba_marseille","lat":43.27209,"lon":5.39187,"is_reserved":false,"is_disabled":false,"rental_uris":{"android":"levelo://app?vid=44a85e3c-8162-46ba-a9a4-5a2c318dd65f","ios":"levelo://app?vid=44a85e3c-8162-46ba-a9a4-5a2c318dd65f"},"vehicle_type_id":"4","last_reported":1737140855,"current_range_meters":38000,"station_id":"ce4bhhp2rcd13ifvqfm0","pricing_plan_id":"cebpf4jnsgd1na2vs0mg"},{"bike_id":"795778e7-76ee-4a00-bd2c-4430e80ba1a0","system_id":"levelo_inurba_marseille","lat":43.27996,"lon":5.40002,"is_reserved":false,"is_disabled":false,"rental_uris":{"android":"levelo://app?vid=795778e7-76ee-4a00-bd2c-4430e80ba1a0","ios":"levelo://app?vid=795778e7-76ee-4a00-bd2c-4430e80ba1a0"},"vehicle_type_id":"4","last_reported":1737140855,"current_range_meters":20800,"station_id":"ce4bho92rcd13ifvqh4g","pricing_plan_id":"cebpf4jnsgd1na2vs0mg"},{"bike_id":"dfa18905-2818-4534-bb45-dfcfe725f774","system_id":"levelo_inurba_marseille","lat":43.28661,"lon":5.38661,"is_reserved":false,"is_disabled":false,"rental_uris":{"android":"levelo://app?vid=dfa18905-2818-4534-bb45-dfcfe725f774","ios":"levelo://app?vid=dfa18905-2818-4534-bb45-dfcfe725f774"},"vehicle_type_id":"4","last_reported":1737140855,"current_range_meters":6800,"station_id":"ce4bh492rcd13ifvqdug","pricing_plan_id":"cebpf4jnsgd1na2vs0mg"},{"bike_id":"ea820ade-d81d-428e-82b9-7f165f7e8e75","system_id":"levelo_inurba_marseille","lat":43.31829,"lon":5.37375,"is_reserved":false,"is_disabled":false,"rental_uris":{"android":"levelo://app?vid=ea820ade-d81d-428e-82b9-7f165f7e8e75","ios":"levelo://app?vid=ea820ade-d81d-428e-82b9-7f165f7e8e75"},"vehicle_type_id":"4","last_reported":1737140855,"current_range_meters":25600,"station_id":"","pricing_plan_id":"cebpf4jnsgd1na2vs0mg"},{"bike_id":"037f7c86-db8d-48c0-b4d5-693bacc3b6ec","system_id":"levelo_inurba_marseille","lat":43.267711,"lon":5.394204,"is_reserved":false,"is_disabled":false,"rental_uris":{"android":"levelo://app?vid=037f7c86-db8d-48c0-b4d5-693bacc3b6ec","ios":"levelo://app?vid=037f7c86-db8d-48c0-b4d5-693bacc3b6ec"},"vehicle_type_id":"4","last_reported":1737140855,"current_range_meters":32400,"station_id":"ce4bhh12rcd13ifvqfg0","pricing_plan_id":"cebpf4jnsgd1na2vs0mg"},{"bike_id":"15c9bac7-063b-4008-8233-689b3351f329","system_id":"levelo_inurba_marseille","lat":43.24808,"lon":5.37457,"is_reserved":false,"is_disabled":false,"rental_uris":{"android":"levelo://app?vid=15c9bac7-063b-4008-8233-689b3351f329","ios":"levelo://app?vid=15c9bac7-063b-4008-8233-689b3351f329"},"vehicle_type_id":"4","last_reported":1737140855,"current_range_meters":39200,"station_id":"ce4bhgh2rcd13ifvqfb0","pricing_plan_id":"cebpf4jnsgd1na2vs0mg"},{"bike_id":"88f5dbd0-5095-470c-9345-6a35673836c6","system_id":"levelo_inurba_marseille","lat":43.26211,"lon":5.37931,"is_reserved":false,"is_disabled":false,"rental_uris":{"android":"levelo://app?vid=88f5dbd0-5095-470c-9345-6a35673836c6","ios":"levelo://app?vid=88f5dbd0-5095-470c-9345-6a35673836c6"},"vehicle_type_id":"4","last_reported":1737140855,"current_range_meters":800,"station_id":"ce4bhjp2rcd13ifvqg90","pricing_plan_id":"cebpf4jnsgd1na2vs0mg"},{"bike_id":"04df8c54-30eb-4774-a35f-923127a8731f","system_id":"levelo_inurba_marseille","lat":43.29803,"lon":5.3809,"is_reserved":false,"is_disabled":false,"rental_uris":{"android":"levelo://app?vid=04df8c54-30eb-4774-a35f-923127a8731f","ios":"levelo://app?vid=04df8c54-30eb-4774-a35f-923127a8731f"},"vehicle_type_id":"4","last_reported":1737140855,"current_range_meters":38800,"station_id":"ce4bgip2rcd13ifvqbb0","pricing_plan_id":"cebpf4jnsgd1na2vs0mg"},{"bike_id":"7dc54a21-7751-472e-b957-49fcc867ded4","system_id":"levelo_inurba_marseille","lat":43.30298,"lon":5.36874,"is_reserved":false,"is_disabled":false,"rental_uris":{"android":"levelo://app?vid=7dc54a21-7751-472e-b957-49fcc867ded4","ios":"levelo://app?vid=7dc54a21-7751-472e-b957-49fcc867ded4"},"vehicle_type_id":"4","last_reported":1737140855,"current_range_meters":26000,"station_id":"ce4bgqh2rcd13ifvqc5g","pricing_plan_id":"cebpf4jnsgd1na2vs0mg"},{"bike_id":"835db956-1cf0-49b1-b7c0-a9f7cb79e4cc","system_id":"levelo_inurba_marseille","lat":43.28732,"lon":5.36075,"is_reserved":false,"is_disabled":false,"rental_uris":{"android":"levelo://app?vid=835db956-1cf0-49b1-b7c0-a9f7cb79e4cc","ios":"levelo://app?vid=835db956-1cf0-49b1-b7c0-a9f7cb79e4cc"},"vehicle_type_id":"4","last_reported":1737140855,"current_range_meters":26000,"station_id":"cki0cbj6b192h4jlfktg","pricing_plan_id":"cebpf4jnsgd1na2vs0mg"},{"bike_id":"947d806b-c12c-4d2f-a2fa-d810287421cb","system_id":"levelo_inurba_marseille","lat":43.29533,"lon":5.38537,"is_reserved":false,"is_disabled":false,"rental_uris":{"android":"levelo://app?vid=947d806b-c12c-4d2f-a2fa-d810287421cb","ios":"levelo://app?vid=947d806b-c12c-4d2f-a2fa-d810287421cb"},"vehicle_type_id":"4","last_reported":1737140855,"current_range_meters":6400,"station_id":"ce4bgih2rcd13ifvqba0","pricing_plan_id":"cebpf4jnsgd1na2vs0mg"},{"bike_id":"66ec8711-3dbc-48f7-b091-25773ac6b77c","system_id":"levelo_inurba_marseille","lat":43.28189,"lon":5.442433,"is_reserved":false,"is_disabled":true,"rental_uris":{"android":"levelo://app?vid=66ec8711-3dbc-48f7-b091-25773ac6b77c","ios":"levelo://app?vid=66ec8711-3dbc-48f7-b091-25773ac6b77c"},"vehicle_type_id":"4","last_reported":1737140855,"current_range_meters":0,"station_id":"","pricing_plan_id":"cebpf4jnsgd1na2vs0mg"},{"bike_id":"051fe390-8107-417a-b18f-34bc1bf2e59c","system_id":"levelo_inurba_marseille","lat":43.30181,"lon":5.36621,"is_reserved":false,"is_disabled":false,"rental_uris":{"android":"levelo://app?vid=051fe390-8107-417a-b18f-34bc1bf2e59c","ios":"levelo://app?vid=051fe390-8107-417a-b18f-34bc1bf2e59c"},"vehicle_type_id":"4","last_reported":1737140855,"current_range_meters":16000,"station_id":"ce4bgrh2rcd13ifvqc8g","pricing_plan_id":"cebpf4jnsgd1na2vs0mg"},{"bike_id":"58e31c92-8da4-49c6-ad74-b9ffb3b3d639","system_id":"levelo_inurba_marseille","lat":43.24811,"lon":5.37457,"is_reserved":false,"is_disabled":false,"rental_uris":{"android":"levelo://app?vid=58e31c92-8da4-49c6-ad74-b9ffb3b3d639","ios":"levelo://app?vid=58e31c92-8da4-49c6-ad74-b9ffb3b3d639"},"vehicle_type_id":"4","last_reported":1737140855,"current_range_meters":28400,"station_id":"ce4bhgh2rcd13ifvqfb0","pricing_plan_id":"cebpf4jnsgd1na2vs0mg"},{"bike_id":"964d10fe-bd57-47b6-b03c-7b4d03fa0231","system_id":"levelo_inurba_marseille","lat":43.29257,"lon":5.38451,"is_reserved":false,"is_disabled":false,"rental_uris":{"android":"levelo://app?vid=964d10fe-bd57-47b6-b03c-7b4d03fa0231","ios":"levelo://app?vid=964d10fe-bd57-47b6-b03c-7b4d03fa0231"},"vehicle_type_id":"4","last_reported":1737140855,"current_range_meters":10000,"station_id":"ce4bh692rcd13ifvqea0","pricing_plan_id":"cebpf4jnsgd1na2vs0mg"},{"bike_id":"88b6469a-6daf-463c-a86f-49207d545e46","system_id":"levelo_inurba_marseille","lat":43.29059,"lon":5.37142,"is_reserved":false,"is_disabled":false,"rental_uris":{"android":"levelo://app?vid=88b6469a-6daf-463c-a86f-49207d545e46","ios":"levelo://app?vid=88b6469a-6daf-463c-a86f-49207d545e46"},"vehicle_type_id":"4","last_reported":1737140855,"current_range_meters":17600,"station_id":"ce4bh5p2rcd13ifvqe4g","pricing_plan_id":"cebpf4jnsgd1na2vs0mg"},{"bike_id":"ec2d53bc-f918-4fea-97c4-bce5d706d070","system_id":"levelo_inurba_marseille","lat":43.294189,"lon":5.386192,"is_reserved":false,"is_disabled":false,"rental_uris":{"android":"levelo://app?vid=ec2d53bc-f918-4fea-97c4-bce5d706d070","ios":"levelo://app?vid=ec2d53bc-f918-4fea-97c4-bce5d706d070"},"vehicle_type_id":"4","last_reported":1737140855,"current_range_meters":20800,"station_id":"ce4bh2h2rcd13ifvqdh0","pricing_plan_id":"cebpf4jnsgd1na2vs0mg"},{"bike_id":"b6727c2a-0037-431b-96be-59029d8169fa","system_id":"levelo_inurba_marseille","lat":43.31224,"lon":5.3685,"is_reserved":false,"is_disabled":false,"rental_uris":{"android":"levelo://app?vid=b6727c2a-0037-431b-96be-59029d8169fa","ios":"levelo://app?vid=b6727c2a-0037-431b-96be-59029d8169fa"},"vehicle_type_id":"4","last_reported":1737140855,"current_range_meters":29600,"station_id":"ce4bgl92rcd13ifvqbq0","pricing_plan_id":"cebpf4jnsgd1na2vs0mg"},{"bike_id":"0ce2ff96-cf7c-44da-8785-cacc89ceb5f3","system_id":"levelo_inurba_marseille","lat":43.2756,"lon":5.38418,"is_reserved":false,"is_disabled":true,"rental_uris":{"android":"levelo://app?vid=0ce2ff96-cf7c-44da-8785-cacc89ceb5f3","ios":"levelo://app?vid=0ce2ff96-cf7c-44da-8785-cacc89ceb5f3"},"vehicle_type_id":"4","last_reported":1737140855,"current_range_meters":2000,"station_id":"ce4bhh92rcd13ifvqfi0","pricing_plan_id":"cebpf4jnsgd1na2vs0mg"},{"bike_id":"41b9b073-2e8f-46e7-8739-a353519f4e81","system_id":"levelo_inurba_marseille","lat":43.292957,"lon":5.374624,"is_reserved":false,"is_disabled":false,"rental_uris":{"android":"levelo://app?vid=41b9b073-2e8f-46e7-8739-a353519f4e81","ios":"levelo://app?vid=41b9b073-2e8f-46e7-8739-a353519f4e81"},"vehicle_type_id":"4","last_reported":1737140855,"current_range_meters":35200,"station_id":"ce4bgi12rcd13ifvqb70","pricing_plan_id":"cebpf4jnsgd1na2vs0mg"},{"bike_id":"a81ea5b1-9317-453a-bcfd-4915654f0b73","system_id":"levelo_inurba_marseille","lat":43.32487,"lon":5.36563,"is_reserved":false,"is_disabled":false,"rental_uris":{"android":"levelo://app?vid=a81ea5b1-9317-453a-bcfd-4915654f0b73","ios":"levelo://app?vid=a81ea5b1-9317-453a-bcfd-4915654f0b73"},"vehicle_type_id":"4","last_reported":1737140855,"current_range_meters":38400,"station_id":"ce4bhs12rcd13ifvqhvg","pricing_plan_id":"cebpf4jnsgd1na2vs0mg"},{"bike_id":"8d22f8c5-ad80-43dc-98d7-5495be9f6849","system_id":"levelo_inurba_marseille","lat":43.2843,"lon":5.39181,"is_reserved":false,"is_disabled":false,"rental_uris":{"android":"levelo://app?vid=8d22f8c5-ad80-43dc-98d7-5495be9f6849","ios":"levelo://app?vid=8d22f8c5-ad80-43dc-98d7-5495be9f6849"},"vehicle_type_id":"4","last_reported":1737140855,"current_range_meters":38800,"station_id":"ce4bhoh2rcd13ifvqh5g","pricing_plan_id":"cebpf4jnsgd1na2vs0mg"},{"bike_id":"4bcbd349-bdab-40c9-9aeb-55d852e9309f","system_id":"levelo_inurba_marseille","lat":43.26572,"lon":5.37307,"is_reserved":false,"is_disabled":false,"rental_uris":{"android":"levelo://app?vid=4bcbd349-bdab-40c9-9aeb-55d852e9309f","ios":"levelo://app?vid=4bcbd349-bdab-40c9-9aeb-55d852e9309f"},"vehicle_type_id":"4","last_reported":1737140855,"current_range_meters":38800,"station_id":"ce4bhg12rcd13ifvqf70","pricing_plan_id":"cebpf4jnsgd1na2vs0mg"},{"bike_id":"c35f475e-8144-4be4-95dc-7f5f1eaed87d","system_id":"levelo_inurba_marseille","lat":43.29264,"lon":5.38447,"is_reserved":false,"is_disabled":false,"rental_uris":{"android":"levelo://app?vid=c35f475e-8144-4be4-95dc-7f5f1eaed87d","ios":"levelo://app?vid=c35f475e-8144-4be4-95dc-7f5f1eaed87d"},"vehicle_type_id":"4","last_reported":1737140855,"current_range_meters":14800,"station_id":"ce4bh692rcd13ifvqea0","pricing_plan_id":"cebpf4jnsgd1na2vs0mg"},{"bike_id":"c92bf7a7-6563-4042-a186-453e28f5107a","system_id":"levelo_inurba_marseille","lat":43.28485,"lon":5.38416,"is_reserved":false,"is_disabled":false,"rental_uris":{"android":"levelo://app?vid=c92bf7a7-6563-4042-a186-453e28f5107a","ios":"levelo://app?vid=c92bf7a7-6563-4042-a186-453e28f5107a"},"vehicle_type_id":"4","last_reported":1737140855,"current_range_meters":36000,"station_id":"ce4bh512rcd13ifvqe3g","pricing_plan_id":"cebpf4jnsgd1na2vs0mg"},{"bike_id":"749596cc-fc66-4fe5-8b5a-964af2c4f1fa","system_id":"levelo_inurba_marseille","lat":43.29419,"lon":5.38629,"is_reserved":false,"is_disabled":false,"rental_uris":{"android":"levelo://app?vid=749596cc-fc66-4fe5-8b5a-964af2c4f1fa","ios":"levelo://app?vid=749596cc-fc66-4fe5-8b5a-964af2c4f1fa"},"vehicle_type_id":"4","last_reported":1737140855,"current_range_meters":38800,"station_id":"ce4bh2h2rcd13ifvqdh0","pricing_plan_id":"cebpf4jnsgd1na2vs0mg"},{"bike_id":"3500c4a6-1b4f-41e2-a65a-9f97eeea9165","system_id":"levelo_inurba_marseille","lat":43.28692,"lon":5.38673,"is_reserved":false,"is_disabled":false,"rental_uris":{"android":"levelo://app?vid=3500c4a6-1b4f-41e2-a65a-9f97eeea9165","ios":"levelo://app?vid=3500c4a6-1b4f-41e2-a65a-9f97eeea9165"},"vehicle_type_id":"4","last_reported":1737140855,"current_range_meters":20000,"station_id":"ce4bh492rcd13ifvqdug","pricing_plan_id":"cebpf4jnsgd1na2vs0mg"},{"bike_id":"6d133f16-5a1d-4f3e-aa86-5db5b3a6e8a4","system_id":"levelo_inurba_marseille","lat":43.24804,"lon":5.37455,"is_reserved":false,"is_disabled":false,"rental_uris":{"android":"levelo://app?vid=6d133f16-5a1d-4f3e-aa86-5db5b3a6e8a4","ios":"levelo://app?vid=6d133f16-5a1d-4f3e-aa86-5db5b3a6e8a4"},"vehicle_type_id":"4","last_reported":1737140855,"current_range_meters":37600,"station_id":"ce4bhgh2rcd13ifvqfb0","pricing_plan_id":"cebpf4jnsgd1na2vs0mg"},{"bike_id":"d464e816-fb5f-4265-ab2c-a78861980cfd","system_id":"levelo_inurba_marseille","lat":43.29786,"lon":5.38089,"is_reserved":false,"is_disabled":false,"rental_uris":{"android":"levelo://app?vid=d464e816-fb5f-4265-ab2c-a78861980cfd","ios":"levelo://app?vid=d464e816-fb5f-4265-ab2c-a78861980cfd"},"vehicle_type_id":"4","last_reported":1737140855,"current_range_meters":38400,"station_id":"ce4bgip2rcd13ifvqbb0","pricing_plan_id":"cebpf4jnsgd1na2vs0mg"},{"bike_id":"91f89032-1de4-42e9-b1d9-2cd25593b9f5","system_id":"levelo_inurba_marseille","lat":43.27496,"lon":5.42445,"is_reserved":false,"is_disabled":false,"rental_uris":{"android":"levelo://app?vid=91f89032-1de4-42e9-b1d9-2cd25593b9f5","ios":"levelo://app?vid=91f89032-1de4-42e9-b1d9-2cd25593b9f5"},"vehicle_type_id":"4","last_reported":1737140855,"current_range_meters":27200,"station_id":"ce4bhn92rcd13ifvqgrg","pricing_plan_id":"cebpf4jnsgd1na2vs0mg"},{"bike_id":"034764a4-57b8-404a-9faa-15d67a8b57f9","system_id":"levelo_inurba_marseille","lat":43.28077,"lon":5.39656,"is_reserved":false,"is_disabled":false,"rental_uris":{"android":"levelo://app?vid=034764a4-57b8-404a-9faa-15d67a8b57f9","ios":"levelo://app?vid=034764a4-57b8-404a-9faa-15d67a8b57f9"},"vehicle_type_id":"4","last_reported":1737140855,"current_range_meters":8800,"station_id":"ce4bho12rcd13ifvqh2g","pricing_plan_id":"cebpf4jnsgd1na2vs0mg"},{"bike_id":"2acf518f-a7d8-44b5-b861-bf4c55988270","system_id":"levelo_inurba_marseille","lat":43.27903,"lon":5.37993,"is_reserved":false,"is_disabled":false,"rental_uris":{"android":"levelo://app?vid=2acf518f-a7d8-44b5-b861-bf4c55988270","ios":"levelo://app?vid=2acf518f-a7d8-44b5-b861-bf4c55988270"},"vehicle_type_id":"4","last_reported":1737140855,"current_range_meters":32000,"station_id":"ce4bhf92rcd13ifvqf50","pricing_plan_id":"cebpf4jnsgd1na2vs0mg"},{"bike_id":"5b5e045e-8f38-424d-95bb-877a5d09bddf","system_id":"levelo_inurba_marseille","lat":43.28713,"lon":5.39977,"is_reserved":false,"is_disabled":false,"rental_uris":{"android":"levelo://app?vid=5b5e045e-8f38-424d-95bb-877a5d09bddf","ios":"levelo://app?vid=5b5e045e-8f38-424d-95bb-877a5d09bddf"},"vehicle_type_id":"4","last_reported":1737140855,"current_range_meters":39200,"station_id":"ce4bho92rcd13ifvqh3g","pricing_plan_id":"cebpf4jnsgd1na2vs0mg"},{"bike_id":"7804de62-0eea-40a8-8d82-51a406eb0aec","system_id":"levelo_inurba_marseille","lat":43.28727,"lon":5.36083,"is_reserved":false,"is_disabled":false,"rental_uris":{"android":"levelo://app?vid=7804de62-0eea-40a8-8d82-51a406eb0aec","ios":"levelo://app?vid=7804de62-0eea-40a8-8d82-51a406eb0aec"},"vehicle_type_id":"4","last_reported":1737140855,"current_range_meters":9200,"station_id":"cki0cbj6b192h4jlfktg","pricing_plan_id":"cebpf4jnsgd1na2vs0mg"},{"bike_id":"c6b2298b-e3ea-4ff5-9aea-4dedd2e2a126","system_id":"levelo_inurba_marseille","lat":43.295216,"lon":5.390306,"is_reserved":false,"is_disabled":true,"rental_uris":{"android":"levelo://app?vid=c6b2298b-e3ea-4ff5-9aea-4dedd2e2a126","ios":"levelo://app?vid=c6b2298b-e3ea-4ff5-9aea-4dedd2e2a126"},"vehicle_type_id":"4","last_reported":1737140855,"current_range_meters":31200,"station_id":"ce4bh3p2rcd13ifvqdp0","pricing_plan_id":"cebpf4jnsgd1na2vs0mg"},{"bike_id":"7c49d0b3-9dbc-4fa9-9a51-51b90dd90ea5","system_id":"levelo_inurba_marseille","lat":43.29321,"lon":5.375226,"is_reserved":false,"is_disabled":false,"rental_uris":{"android":"levelo://app?vid=7c49d0b3-9dbc-4fa9-9a51-51b90dd90ea5","ios":"levelo://app?vid=7c49d0b3-9dbc-4fa9-9a51-51b90dd90ea5"},"vehicle_type_id":"4","last_reported":1737140855,"current_range_meters":30000,"station_id":"ce4bgh92rcd13ifvqb40","pricing_plan_id":"cebpf4jnsgd1na2vs0mg"},{"bike_id":"9901340c-2f45-4336-a3e0-f3b1b3c21d39","system_id":"levelo_inurba_marseille","lat":43.27908,"lon":5.38006,"is_reserved":false,"is_disabled":false,"rental_uris":{"android":"levelo://app?vid=9901340c-2f45-4336-a3e0-f3b1b3c21d39","ios":"levelo://app?vid=9901340c-2f45-4336-a3e0-f3b1b3c21d39"},"vehicle_type_id":"4","last_reported":1737140855,"current_range_meters":24000,"station_id":"ce4bhf92rcd13ifvqf50","pricing_plan_id":"cebpf4jnsgd1na2vs0mg"},{"bike_id":"c29c09ef-1999-4d84-aafa-017171b454ff","system_id":"levelo_inurba_marseille","lat":43.31073,"lon":5.3835,"is_reserved":false,"is_disabled":false,"rental_uris":{"android":"levelo://app?vid=c29c09ef-1999-4d84-aafa-017171b454ff","ios":"levelo://app?vid=c29c09ef-1999-4d84-aafa-017171b454ff"},"vehicle_type_id":"4","last_reported":1737140855,"current_range_meters":8000,"station_id":"ce4bgv92rcd13ifvqcr0","pricing_plan_id":"cebpf4jnsgd1na2vs0mg"},{"bike_id":"a9e05ea0-5dec-440b-9b09-c59487a1980c","system_id":"levelo_inurba_marseille","lat":43.29258,"lon":5.3844,"is_reserved":false,"is_disabled":false,"rental_uris":{"android":"levelo://app?vid=a9e05ea0-5dec-440b-9b09-c59487a1980c","ios":"levelo://app?vid=a9e05ea0-5dec-440b-9b09-c59487a1980c"},"vehicle_type_id":"4","last_reported":1737140855,"current_range_meters":32000,"station_id":"ce4bh692rcd13ifvqea0","pricing_plan_id":"cebpf4jnsgd1na2vs0mg"},{"bike_id":"6ea4d259-06b8-4e0f-9494-4eae2040b46d","system_id":"levelo_inurba_marseille","lat":43.24148,"lon":5.39728,"is_reserved":false,"is_disabled":false,"rental_uris":{"android":"levelo://app?vid=6ea4d259-06b8-4e0f-9494-4eae2040b46d","ios":"levelo://app?vid=6ea4d259-06b8-4e0f-9494-4eae2040b46d"},"vehicle_type_id":"4","last_reported":1737140855,"current_range_meters":27600,"station_id":"ce4bhn12rcd13ifvqgpg","pricing_plan_id":"cebpf4jnsgd1na2vs0mg"},{"bike_id":"0aacbbb4-b4df-4112-9f3e-9c8b0c3a36b2","system_id":"levelo_inurba_marseille","lat":43.24391,"lon":5.3706,"is_reserved":false,"is_disabled":false,"rental_uris":{"android":"levelo://app?vid=0aacbbb4-b4df-4112-9f3e-9c8b0c3a36b2","ios":"levelo://app?vid=0aacbbb4-b4df-4112-9f3e-9c8b0c3a36b2"},"vehicle_type_id":"4","last_reported":1737140855,"current_range_meters":39200,"station_id":"ce4bhhh2rcd13ifvqfk0","pricing_plan_id":"cebpf4jnsgd1na2vs0mg"},{"bike_id":"4195a369-a7ca-4062-b0c4-11dcec0d9a33","system_id":"levelo_inurba_marseille","lat":43.30322,"lon":5.39194,"is_reserved":false,"is_disabled":true,"rental_uris":{"android":"levelo://app?vid=4195a369-a7ca-4062-b0c4-11dcec0d9a33","ios":"levelo://app?vid=4195a369-a7ca-4062-b0c4-11dcec0d9a33"},"vehicle_type_id":"4","last_reported":1737140855,"current_range_meters":15200,"station_id":"ce4bgkh2rcd13ifvqbk0","pricing_plan_id":"cebpf4jnsgd1na2vs0mg"},{"bike_id":"811a1ec0-366e-4fd8-8f3c-3e594a31f929","system_id":"levelo_inurba_marseille","lat":43.25574,"lon":5.382385,"is_reserved":false,"is_disabled":false,"rental_uris":{"android":"levelo://app?vid=811a1ec0-366e-4fd8-8f3c-3e594a31f929","ios":"levelo://app?vid=811a1ec0-366e-4fd8-8f3c-3e594a31f929"},"vehicle_type_id":"4","last_reported":1737140855,"current_range_meters":32800,"station_id":"ce4bhih2rcd13ifvqfs0","pricing_plan_id":"cebpf4jnsgd1na2vs0mg"},{"bike_id":"ce95aa8a-51c4-435c-83fc-9232b0443823","system_id":"levelo_inurba_marseille","lat":43.2942,"lon":5.38628,"is_reserved":false,"is_disabled":true,"rental_uris":{"android":"levelo://app?vid=ce95aa8a-51c4-435c-83fc-9232b0443823","ios":"levelo://app?vid=ce95aa8a-51c4-435c-83fc-9232b0443823"},"vehicle_type_id":"4","last_reported":1737140855,"current_range_meters":0,"station_id":"ce4bh2h2rcd13ifvqdh0","pricing_plan_id":"cebpf4jnsgd1na2vs0mg"},{"bike_id":"891d5aa4-b1b0-4e0c-90ac-49e97bf9c382","system_id":"levelo_inurba_marseille","lat":43.23194,"lon":5.39987,"is_reserved":false,"is_disabled":false,"rental_uris":{"android":"levelo://app?vid=891d5aa4-b1b0-4e0c-90ac-49e97bf9c382","ios":"levelo://app?vid=891d5aa4-b1b0-4e0c-90ac-49e97bf9c382"},"vehicle_type_id":"4","last_reported":1737140855,"current_range_meters":32800,"station_id":"ce4bhn12rcd13ifvqgqg","pricing_plan_id":"cebpf4jnsgd1na2vs0mg"},{"bike_id":"85fd8d11-693b-4859-82da-bbda77c27020","system_id":"levelo_inurba_marseille","lat":43.31759,"lon":5.39015,"is_reserved":false,"is_disabled":true,"rental_uris":{"android":"levelo://app?vid=85fd8d11-693b-4859-82da-bbda77c27020","ios":"levelo://app?vid=85fd8d11-693b-4859-82da-bbda77c27020"},"vehicle_type_id":"4","last_reported":1737140855,"current_range_meters":0,"station_id":"ce4bhqp2rcd13ifvqhng","pricing_plan_id":"cebpf4jnsgd1na2vs0mg"},{"bike_id":"22c002b8-a1e5-494f-b4af-5e55aa067662","system_id":"levelo_inurba_marseille","lat":43.28478,"lon":5.38554,"is_reserved":false,"is_disabled":false,"rental_uris":{"android":"levelo://app?vid=22c002b8-a1e5-494f-b4af-5e55aa067662","ios":"levelo://app?vid=22c002b8-a1e5-494f-b4af-5e55aa067662"},"vehicle_type_id":"4","last_reported":1737140855,"current_range_meters":34000,"station_id":"ce4bh8p2rcd13ifvqeb0","pricing_plan_id":"cebpf4jnsgd1na2vs0mg"},{"bike_id":"357eaeda-fef2-41f2-9ad0-621ae2cc5c09","system_id":"levelo_inurba_marseille","lat":43.33768,"lon":5.37496,"is_reserved":false,"is_disabled":false,"rental_uris":{"android":"levelo://app?vid=357eaeda-fef2-41f2-9ad0-621ae2cc5c09","ios":"levelo://app?vid=357eaeda-fef2-41f2-9ad0-621ae2cc5c09"},"vehicle_type_id":"4","last_reported":1737140855,"current_range_meters":34800,"station_id":"","pricing_plan_id":"cebpf4jnsgd1na2vs0mg"},{"bike_id":"d4ae28dc-57a3-4ed3-89bc-0c3125e85565","system_id":"levelo_inurba_marseille","lat":43.29977,"lon":5.38485,"is_reserved":false,"is_disabled":false,"rental_uris":{"android":"levelo://app?vid=d4ae28dc-57a3-4ed3-89bc-0c3125e85565","ios":"levelo://app?vid=d4ae28dc-57a3-4ed3-89bc-0c3125e85565"},"vehicle_type_id":"4","last_reported":1737140855,"current_range_meters":34000,"station_id":"ce4bgj92rcd13ifvqbd0","pricing_plan_id":"cebpf4jnsgd1na2vs0mg"},{"bike_id":"21e77e5e-acba-478f-9462-6f9373cd3b89","system_id":"levelo_inurba_marseille","lat":43.24183,"lon":5.39736,"is_reserved":false,"is_disabled":true,"rental_uris":{"android":"levelo://app?vid=21e77e5e-acba-478f-9462-6f9373cd3b89","ios":"levelo://app?vid=21e77e5e-acba-478f-9462-6f9373cd3b89"},"vehicle_type_id":"4","last_reported":1737140855,"current_range_meters":800,"station_id":"ce4bhn12rcd13ifvqgpg","pricing_plan_id":"cebpf4jnsgd1na2vs0mg"},{"bike_id":"312b622b-01c5-426d-8513-fedfcbcce3bf","system_id":"levelo_inurba_marseille","lat":43.30795,"lon":5.43521,"is_reserved":false,"is_disabled":false,"rental_uris":{"android":"levelo://app?vid=312b622b-01c5-426d-8513-fedfcbcce3bf","ios":"levelo://app?vid=312b622b-01c5-426d-8513-fedfcbcce3bf"},"vehicle_type_id":"4","last_reported":1737140855,"current_range_meters":24800,"station_id":"ce4bhph2rcd13ifvqheg","pricing_plan_id":"cebpf4jnsgd1na2vs0mg"},{"bike_id":"f2129519-babc-409f-a213-feee81e4aa25","system_id":"levelo_inurba_marseille","lat":43.29269,"lon":5.36841,"is_reserved":false,"is_disabled":false,"rental_uris":{"android":"levelo://app?vid=f2129519-babc-409f-a213-feee81e4aa25","ios":"levelo://app?vid=f2129519-babc-409f-a213-feee81e4aa25"},"vehicle_type_id":"4","last_reported":1737140855,"current_range_meters":38800,"station_id":"ce4bhbp2rcd13ifvqesg","pricing_plan_id":"cebpf4jnsgd1na2vs0mg"},{"bike_id":"7975a0c2-37ee-487f-804f-1164e539cf9a","system_id":"levelo_inurba_marseille","lat":43.24672,"lon":5.38159,"is_reserved":false,"is_disabled":false,"rental_uris":{"android":"levelo://app?vid=7975a0c2-37ee-487f-804f-1164e539cf9a","ios":"levelo://app?vid=7975a0c2-37ee-487f-804f-1164e539cf9a"},"vehicle_type_id":"4","last_reported":1737140855,"current_range_meters":38800,"station_id":"ce4bhih2rcd13ifvqfr0","pricing_plan_id":"cebpf4jnsgd1na2vs0mg"},{"bike_id":"6c2027b2-249d-40ed-9516-47e0b3806b63","system_id":"levelo_inurba_marseille","lat":43.34138,"lon":5.40903,"is_reserved":false,"is_disabled":false,"rental_uris":{"android":"levelo://app?vid=6c2027b2-249d-40ed-9516-47e0b3806b63","ios":"levelo://app?vid=6c2027b2-249d-40ed-9516-47e0b3806b63"},"vehicle_type_id":"4","last_reported":1737140855,"current_range_meters":38000,"station_id":"ce4bhqh2rcd13ifvqhlg","pricing_plan_id":"cebpf4jnsgd1na2vs0mg"},{"bike_id":"042eb156-6d27-477a-baca-70c102a462d5","system_id":"levelo_inurba_marseille","lat":43.295326,"lon":5.390308,"is_reserved":false,"is_disabled":false,"rental_uris":{"android":"levelo://app?vid=042eb156-6d27-477a-baca-70c102a462d5","ios":"levelo://app?vid=042eb156-6d27-477a-baca-70c102a462d5"},"vehicle_type_id":"4","last_reported":1737140855,"current_range_meters":38800,"station_id":"ce4bh3p2rcd13ifvqdp0","pricing_plan_id":"cebpf4jnsgd1na2vs0mg"},{"bike_id":"671aab8f-80bb-473b-aafc-2d758048c898","system_id":"levelo_inurba_marseille","lat":43.28456,"lon":5.38414,"is_reserved":false,"is_disabled":false,"rental_uris":{"android":"levelo://app?vid=671aab8f-80bb-473b-aafc-2d758048c898","ios":"levelo://app?vid=671aab8f-80bb-473b-aafc-2d758048c898"},"vehicle_type_id":"4","last_reported":1737140855,"current_range_meters":16000,"station_id":"ce4bh512rcd13ifvqe3g","pricing_plan_id":"cebpf4jnsgd1na2vs0mg"},{"bike_id":"d615d74e-143c-44d0-9a61-fef9d499e25b","system_id":"levelo_inurba_marseille","lat":43.2604,"lon":5.37536,"is_reserved":false,"is_disabled":false,"rental_uris":{"android":"levelo://app?vid=d615d74e-143c-44d0-9a61-fef9d499e25b","ios":"levelo://app?vid=d615d74e-143c-44d0-9a61-fef9d499e25b"},"vehicle_type_id":"4","last_reported":1737140855,"current_range_meters":39200,"station_id":"ce4bhgh2rcd13ifvqfa0","pricing_plan_id":"cebpf4jnsgd1na2vs0mg"},{"bike_id":"9be957d2-26d1-49a4-9f85-b06ee3432064","system_id":"levelo_inurba_marseille","lat":43.33739,"lon":5.39202,"is_reserved":false,"is_disabled":false,"rental_uris":{"android":"levelo://app?vid=9be957d2-26d1-49a4-9f85-b06ee3432064","ios":"levelo://app?vid=9be957d2-26d1-49a4-9f85-b06ee3432064"},"vehicle_type_id":"4","last_reported":1737140855,"current_range_meters":28800,"station_id":"ce4bhr92rcd13ifvqhsg","pricing_plan_id":"cebpf4jnsgd1na2vs0mg"},{"bike_id":"1cd0c37c-79d1-42b5-bccf-dfd95e0ebce2","system_id":"levelo_inurba_marseille","lat":43.28679,"lon":5.38657,"is_reserved":false,"is_disabled":false,"rental_uris":{"android":"levelo://app?vid=1cd0c37c-79d1-42b5-bccf-dfd95e0ebce2","ios":"levelo://app?vid=1cd0c37c-79d1-42b5-bccf-dfd95e0ebce2"},"vehicle_type_id":"4","last_reported":1737140855,"current_range_meters":18800,"station_id":"ce4bh492rcd13ifvqdug","pricing_plan_id":"cebpf4jnsgd1na2vs0mg"},{"bike_id":"c4f658c2-d3ea-4813-b742-95f0600303ca","system_id":"levelo_inurba_marseille","lat":43.31237,"lon":5.36863,"is_reserved":false,"is_disabled":false,"rental_uris":{"android":"levelo://app?vid=c4f658c2-d3ea-4813-b742-95f0600303ca","ios":"levelo://app?vid=c4f658c2-d3ea-4813-b742-95f0600303ca"},"vehicle_type_id":"4","last_reported":1737140855,"current_range_meters":3200,"station_id":"ce4bgl92rcd13ifvqbq0","pricing_plan_id":"cebpf4jnsgd1na2vs0mg"},{"bike_id":"93eaaa03-9c47-4080-88a3-408e4b6ee6c4","system_id":"levelo_inurba_marseille","lat":43.30879,"lon":5.37197,"is_reserved":false,"is_disabled":true,"rental_uris":{"android":"levelo://app?vid=93eaaa03-9c47-4080-88a3-408e4b6ee6c4","ios":"levelo://app?vid=93eaaa03-9c47-4080-88a3-408e4b6ee6c4"},"vehicle_type_id":"4","last_reported":1737140855,"current_range_meters":1200,"station_id":"ce4bguh2rcd13ifvqckg","pricing_plan_id":"cebpf4jnsgd1na2vs0mg"},{"bike_id":"4f2b33bf-5340-41d8-832a-14d80612ba43","system_id":"levelo_inurba_marseille","lat":43.25084,"lon":5.39513,"is_reserved":false,"is_disabled":false,"rental_uris":{"android":"levelo://app?vid=4f2b33bf-5340-41d8-832a-14d80612ba43","ios":"levelo://app?vid=4f2b33bf-5340-41d8-832a-14d80612ba43"},"vehicle_type_id":"4","last_reported":1737140855,"current_range_meters":38800,"station_id":"ce4bhm12rcd13ifvqgkg","pricing_plan_id":"cebpf4jnsgd1na2vs0mg"},{"bike_id":"71651d20-aced-43c3-aa11-a12e6da36820","system_id":"levelo_inurba_marseille","lat":43.29794,"lon":5.38112,"is_reserved":false,"is_disabled":true,"rental_uris":{"android":"levelo://app?vid=71651d20-aced-43c3-aa11-a12e6da36820","ios":"levelo://app?vid=71651d20-aced-43c3-aa11-a12e6da36820"},"vehicle_type_id":"4","last_reported":1737140855,"current_range_meters":36000,"station_id":"ce4bgip2rcd13ifvqbb0","pricing_plan_id":"cebpf4jnsgd1na2vs0mg"},{"bike_id":"7941dde5-89bd-4293-a249-2de4d7104b28","system_id":"levelo_inurba_marseille","lat":43.29975,"lon":5.38497,"is_reserved":false,"is_disabled":false,"rental_uris":{"android":"levelo://app?vid=7941dde5-89bd-4293-a249-2de4d7104b28","ios":"levelo://app?vid=7941dde5-89bd-4293-a249-2de4d7104b28"},"vehicle_type_id":"4","last_reported":1737140855,"current_range_meters":14800,"station_id":"ce4bgj92rcd13ifvqbd0","pricing_plan_id":"cebpf4jnsgd1na2vs0mg"},{"bike_id":"f632162c-426e-4102-8a25-653600aab966","system_id":"levelo_inurba_marseille","lat":43.30434,"lon":5.38883,"is_reserved":false,"is_disabled":false,"rental_uris":{"android":"levelo://app?vid=f632162c-426e-4102-8a25-653600aab966","ios":"levelo://app?vid=f632162c-426e-4102-8a25-653600aab966"},"vehicle_type_id":"4","last_reported":1737140855,"current_range_meters":22400,"station_id":"ce4bgk12rcd13ifvqbi0","pricing_plan_id":"cebpf4jnsgd1na2vs0mg"},{"bike_id":"76caba6d-8f42-4a92-be61-64ae88af8580","system_id":"levelo_inurba_marseille","lat":43.27995,"lon":5.38698,"is_reserved":false,"is_disabled":false,"rental_uris":{"android":"levelo://app?vid=76caba6d-8f42-4a92-be61-64ae88af8580","ios":"levelo://app?vid=76caba6d-8f42-4a92-be61-64ae88af8580"},"vehicle_type_id":"4","last_reported":1737140855,"current_range_meters":32000,"station_id":"ce4bhg12rcd13ifvqf80","pricing_plan_id":"cebpf4jnsgd1na2vs0mg"},{"bike_id":"de1f8d9a-961d-41a2-ac6e-036d6954faf1","system_id":"levelo_inurba_marseille","lat":43.33013,"lon":5.39038,"is_reserved":false,"is_disabled":false,"rental_uris":{"android":"levelo://app?vid=de1f8d9a-961d-41a2-ac6e-036d6954faf1","ios":"levelo://app?vid=de1f8d9a-961d-41a2-ac6e-036d6954faf1"},"vehicle_type_id":"4","last_reported":1737140855,"current_range_meters":31200,"station_id":"ce4bhr92rcd13ifvqhrg","pricing_plan_id":"cebpf4jnsgd1na2vs0mg"},{"bike_id":"2e18d765-ad6a-45f4-a2b0-bb826ac5262c","system_id":"levelo_inurba_marseille","lat":43.29422,"lon":5.38624,"is_reserved":false,"is_disabled":false,"rental_uris":{"android":"levelo://app?vid=2e18d765-ad6a-45f4-a2b0-bb826ac5262c","ios":"levelo://app?vid=2e18d765-ad6a-45f4-a2b0-bb826ac5262c"},"vehicle_type_id":"4","last_reported":1737140855,"current_range_meters":19600,"station_id":"ce4bh2h2rcd13ifvqdh0","pricing_plan_id":"cebpf4jnsgd1na2vs0mg"},{"bike_id":"6f961f0d-6aa7-460d-8fcd-8cd0a6e0963b","system_id":"levelo_inurba_marseille","lat":43.28001,"lon":5.39999,"is_reserved":false,"is_disabled":false,"rental_uris":{"android":"levelo://app?vid=6f961f0d-6aa7-460d-8fcd-8cd0a6e0963b","ios":"levelo://app?vid=6f961f0d-6aa7-460d-8fcd-8cd0a6e0963b"},"vehicle_type_id":"4","last_reported":1737140855,"current_range_meters":9600,"station_id":"ce4bho92rcd13ifvqh4g","pricing_plan_id":"cebpf4jnsgd1na2vs0mg"},{"bike_id":"8850e6e9-607c-4707-a35e-396796b7213c","system_id":"levelo_inurba_marseille","lat":43.25579,"lon":5.38242,"is_reserved":false,"is_disabled":true,"rental_uris":{"android":"levelo://app?vid=8850e6e9-607c-4707-a35e-396796b7213c","ios":"levelo://app?vid=8850e6e9-607c-4707-a35e-396796b7213c"},"vehicle_type_id":"4","last_reported":1737140855,"current_range_meters":0,"station_id":"ce4bhih2rcd13ifvqfs0","pricing_plan_id":"cebpf4jnsgd1na2vs0mg"},{"bike_id":"8b120959-5af8-4d1c-9192-f3ad9f688ad6","system_id":"levelo_inurba_marseille","lat":43.29304,"lon":5.37478,"is_reserved":false,"is_disabled":false,"rental_uris":{"android":"levelo://app?vid=8b120959-5af8-4d1c-9192-f3ad9f688ad6","ios":"levelo://app?vid=8b120959-5af8-4d1c-9192-f3ad9f688ad6"},"vehicle_type_id":"4","last_reported":1737140855,"current_range_meters":28800,"station_id":"ce4bgi12rcd13ifvqb70","pricing_plan_id":"cebpf4jnsgd1na2vs0mg"},{"bike_id":"72ee35ea-34ee-4b89-a819-27a2e564f7ec","system_id":"levelo_inurba_marseille","lat":43.25872,"lon":5.39415,"is_reserved":false,"is_disabled":false,"rental_uris":{"android":"levelo://app?vid=72ee35ea-34ee-4b89-a819-27a2e564f7ec","ios":"levelo://app?vid=72ee35ea-34ee-4b89-a819-27a2e564f7ec"},"vehicle_type_id":"4","last_reported":1737140855,"current_range_meters":16000,"station_id":"","pricing_plan_id":"cebpf4jnsgd1na2vs0mg"},{"bike_id":"36f4f7a7-043f-429b-8f67-625da990001c","system_id":"levelo_inurba_marseille","lat":43.2651,"lon":5.39541,"is_reserved":false,"is_disabled":false,"rental_uris":{"android":"levelo://app?vid=36f4f7a7-043f-429b-8f67-625da990001c","ios":"levelo://app?vid=36f4f7a7-043f-429b-8f67-625da990001c"},"vehicle_type_id":"4","last_reported":1737140855,"current_range_meters":27200,"station_id":"ce4bhi12rcd13ifvqfq0","pricing_plan_id":"cebpf4jnsgd1na2vs0mg"},{"bike_id":"7e0a99c7-0d2c-4ebe-81d6-1d41ee6a1695","system_id":"levelo_inurba_marseille","lat":43.29879,"lon":5.39766,"is_reserved":false,"is_disabled":false,"rental_uris":{"android":"levelo://app?vid=7e0a99c7-0d2c-4ebe-81d6-1d41ee6a1695","ios":"levelo://app?vid=7e0a99c7-0d2c-4ebe-81d6-1d41ee6a1695"},"vehicle_type_id":"4","last_reported":1737140855,"current_range_meters":9600,"station_id":"ce4bh0h2rcd13ifvqd50","pricing_plan_id":"cebpf4jnsgd1na2vs0mg"},{"bike_id":"4e396b93-4dd7-4cda-8395-278f5c5c4f46","system_id":"levelo_inurba_marseille","lat":43.29544,"lon":5.38531,"is_reserved":false,"is_disabled":false,"rental_uris":{"android":"levelo://app?vid=4e396b93-4dd7-4cda-8395-278f5c5c4f46","ios":"levelo://app?vid=4e396b93-4dd7-4cda-8395-278f5c5c4f46"},"vehicle_type_id":"4","last_reported":1737140855,"current_range_meters":17600,"station_id":"ce4bgih2rcd13ifvqba0","pricing_plan_id":"cebpf4jnsgd1na2vs0mg"},{"bike_id":"2442b30b-c095-4676-84fd-4b3c5b33bc17","system_id":"levelo_inurba_marseille","lat":43.30179,"lon":5.36599,"is_reserved":false,"is_disabled":false,"rental_uris":{"android":"levelo://app?vid=2442b30b-c095-4676-84fd-4b3c5b33bc17","ios":"levelo://app?vid=2442b30b-c095-4676-84fd-4b3c5b33bc17"},"vehicle_type_id":"4","last_reported":1737140855,"current_range_meters":22400,"station_id":"ce4bgrh2rcd13ifvqc8g","pricing_plan_id":"cebpf4jnsgd1na2vs0mg"},{"bike_id":"f4a4a406-b0a5-42fc-9236-32e93ac6f6b2","system_id":"levelo_inurba_marseille","lat":43.23141,"lon":5.43695,"is_reserved":false,"is_disabled":true,"rental_uris":{"android":"levelo://app?vid=f4a4a406-b0a5-42fc-9236-32e93ac6f6b2","ios":"levelo://app?vid=f4a4a406-b0a5-42fc-9236-32e93ac6f6b2"},"vehicle_type_id":"4","last_reported":1737140855,"current_range_meters":32400,"station_id":"ce4bhmp2rcd13ifvqgog","pricing_plan_id":"cebpf4jnsgd1na2vs0mg"},{"bike_id":"373a77d9-b036-49aa-8a76-c8326fe93c97","system_id":"levelo_inurba_marseille","lat":43.29424,"lon":5.38632,"is_reserved":false,"is_disabled":false,"rental_uris":{"android":"levelo://app?vid=373a77d9-b036-49aa-8a76-c8326fe93c97","ios":"levelo://app?vid=373a77d9-b036-49aa-8a76-c8326fe93c97"},"vehicle_type_id":"4","last_reported":1737140855,"current_range_meters":39200,"station_id":"ce4bh2h2rcd13ifvqdh0","pricing_plan_id":"cebpf4jnsgd1na2vs0mg"},{"bike_id":"aae940b2-4534-423e-850b-b66a056da7ca","system_id":"levelo_inurba_marseille","lat":43.29559,"lon":5.39968,"is_reserved":false,"is_disabled":false,"rental_uris":{"android":"levelo://app?vid=aae940b2-4534-423e-850b-b66a056da7ca","ios":"levelo://app?vid=aae940b2-4534-423e-850b-b66a056da7ca"},"vehicle_type_id":"4","last_reported":1737140855,"current_range_meters":18800,"station_id":"ce4bh312rcd13ifvqdj0","pricing_plan_id":"cebpf4jnsgd1na2vs0mg"},{"bike_id":"2570091a-a97a-4f99-a0b1-fad7497d49ed","system_id":"levelo_inurba_marseille","lat":43.29602,"lon":5.38095,"is_reserved":false,"is_disabled":false,"rental_uris":{"android":"levelo://app?vid=2570091a-a97a-4f99-a0b1-fad7497d49ed","ios":"levelo://app?vid=2570091a-a97a-4f99-a0b1-fad7497d49ed"},"vehicle_type_id":"4","last_reported":1737140855,"current_range_meters":18000,"station_id":"ce4bgl12rcd13ifvqbo0","pricing_plan_id":"cebpf4jnsgd1na2vs0mg"},{"bike_id":"901b69f7-de28-430e-a802-1a8782563c80","system_id":"levelo_inurba_marseille","lat":43.31225,"lon":5.36859,"is_reserved":false,"is_disabled":false,"rental_uris":{"android":"levelo://app?vid=901b69f7-de28-430e-a802-1a8782563c80","ios":"levelo://app?vid=901b69f7-de28-430e-a802-1a8782563c80"},"vehicle_type_id":"4","last_reported":1737140855,"current_range_meters":28800,"station_id":"ce4bgl92rcd13ifvqbq0","pricing_plan_id":"cebpf4jnsgd1na2vs0mg"},{"bike_id":"11cc40fc-2886-40cc-8b38-432bf44a4683","system_id":"levelo_inurba_marseille","lat":43.30441,"lon":5.38901,"is_reserved":false,"is_disabled":false,"rental_uris":{"android":"levelo://app?vid=11cc40fc-2886-40cc-8b38-432bf44a4683","ios":"levelo://app?vid=11cc40fc-2886-40cc-8b38-432bf44a4683"},"vehicle_type_id":"4","last_reported":1737140855,"current_range_meters":38800,"station_id":"ce4bgk12rcd13ifvqbi0","pricing_plan_id":"cebpf4jnsgd1na2vs0mg"},{"bike_id":"678e6c21-ae33-4211-9534-682ad57c39c7","system_id":"levelo_inurba_marseille","lat":43.23135,"lon":5.40002,"is_reserved":false,"is_disabled":false,"rental_uris":{"android":"levelo://app?vid=678e6c21-ae33-4211-9534-682ad57c39c7","ios":"levelo://app?vid=678e6c21-ae33-4211-9534-682ad57c39c7"},"vehicle_type_id":"4","last_reported":1737140855,"current_range_meters":12400,"station_id":"ce4bhn12rcd13ifvqgqg","pricing_plan_id":"cebpf4jnsgd1na2vs0mg"},{"bike_id":"67c549d5-ce81-408a-a146-d43915340e7f","system_id":"levelo_inurba_marseille","lat":43.33732,"lon":5.39184,"is_reserved":false,"is_disabled":false,"rental_uris":{"android":"levelo://app?vid=67c549d5-ce81-408a-a146-d43915340e7f","ios":"levelo://app?vid=67c549d5-ce81-408a-a146-d43915340e7f"},"vehicle_type_id":"4","last_reported":1737140855,"current_range_meters":38800,"station_id":"ce4bhr92rcd13ifvqhsg","pricing_plan_id":"cebpf4jnsgd1na2vs0mg"},{"bike_id":"fa546e5c-a68a-4a86-a5bb-1d856af38d7e","system_id":"levelo_inurba_marseille","lat":43.23615,"lon":5.43604,"is_reserved":false,"is_disabled":true,"rental_uris":{"android":"levelo://app?vid=fa546e5c-a68a-4a86-a5bb-1d856af38d7e","ios":"levelo://app?vid=fa546e5c-a68a-4a86-a5bb-1d856af38d7e"},"vehicle_type_id":"4","last_reported":1737140855,"current_range_meters":0,"station_id":"","pricing_plan_id":"cebpf4jnsgd1na2vs0mg"},{"bike_id":"34b4297c-3aa9-49ec-8c3e-4dc835fa76e0","system_id":"levelo_inurba_marseille","lat":43.31329,"lon":5.39694,"is_reserved":false,"is_disabled":false,"rental_uris":{"android":"levelo://app?vid=34b4297c-3aa9-49ec-8c3e-4dc835fa76e0","ios":"levelo://app?vid=34b4297c-3aa9-49ec-8c3e-4dc835fa76e0"},"vehicle_type_id":"4","last_reported":1737140855,"current_range_meters":32000,"station_id":"ce4bgvp2rcd13ifvqcu0","pricing_plan_id":"cebpf4jnsgd1na2vs0mg"},{"bike_id":"4ba190dd-accb-4875-a206-fecadfc55244","system_id":"levelo_inurba_marseille","lat":43.30967,"lon":5.40712,"is_reserved":false,"is_disabled":false,"rental_uris":{"android":"levelo://app?vid=4ba190dd-accb-4875-a206-fecadfc55244","ios":"levelo://app?vid=4ba190dd-accb-4875-a206-fecadfc55244"},"vehicle_type_id":"4","last_reported":1737140855,"current_range_meters":25200,"station_id":"ce4bhq92rcd13ifvqhkg","pricing_plan_id":"cebpf4jnsgd1na2vs0mg"},{"bike_id":"4530ef47-ad49-4d18-b7e3-954f3326c9ad","system_id":"levelo_inurba_marseille","lat":43.29538,"lon":5.38543,"is_reserved":false,"is_disabled":false,"rental_uris":{"android":"levelo://app?vid=4530ef47-ad49-4d18-b7e3-954f3326c9ad","ios":"levelo://app?vid=4530ef47-ad49-4d18-b7e3-954f3326c9ad"},"vehicle_type_id":"4","last_reported":1737140855,"current_range_meters":17200,"station_id":"ce4bgih2rcd13ifvqba0","pricing_plan_id":"cebpf4jnsgd1na2vs0mg"},{"bike_id":"ba0308e0-4e40-4459-94b1-b3d82d72a5cf","system_id":"levelo_inurba_marseille","lat":43.29282,"lon":5.36841,"is_reserved":false,"is_disabled":false,"rental_uris":{"android":"levelo://app?vid=ba0308e0-4e40-4459-94b1-b3d82d72a5cf","ios":"levelo://app?vid=ba0308e0-4e40-4459-94b1-b3d82d72a5cf"},"vehicle_type_id":"4","last_reported":1737140855,"current_range_meters":30800,"station_id":"ce4bhbp2rcd13ifvqesg","pricing_plan_id":"cebpf4jnsgd1na2vs0mg"},{"bike_id":"34709e64-d1c8-4538-88a5-33805792c0a5","system_id":"levelo_inurba_marseille","lat":43.25826,"lon":5.39447,"is_reserved":false,"is_disabled":false,"rental_uris":{"android":"levelo://app?vid=34709e64-d1c8-4538-88a5-33805792c0a5","ios":"levelo://app?vid=34709e64-d1c8-4538-88a5-33805792c0a5"},"vehicle_type_id":"4","last_reported":1737140855,"current_range_meters":38000,"station_id":"ce4bhip2rcd13ifvqft0","pricing_plan_id":"cebpf4jnsgd1na2vs0mg"},{"bike_id":"d4c5158e-511e-4c0e-af6f-6a3bbf5cc0e5","system_id":"levelo_inurba_marseille","lat":43.27121,"lon":5.42239,"is_reserved":false,"is_disabled":true,"rental_uris":{"android":"levelo://app?vid=d4c5158e-511e-4c0e-af6f-6a3bbf5cc0e5","ios":"levelo://app?vid=d4c5158e-511e-4c0e-af6f-6a3bbf5cc0e5"},"vehicle_type_id":"4","last_reported":1737140855,"current_range_meters":0,"station_id":"","pricing_plan_id":"cebpf4jnsgd1na2vs0mg"},{"bike_id":"90a0ffb0-ac04-404e-81d6-de784d637b7b","system_id":"levelo_inurba_marseille","lat":43.30313,"lon":5.40081,"is_reserved":false,"is_disabled":false,"rental_uris":{"android":"levelo://app?vid=90a0ffb0-ac04-404e-81d6-de784d637b7b","ios":"levelo://app?vid=90a0ffb0-ac04-404e-81d6-de784d637b7b"},"vehicle_type_id":"4","last_reported":1737140855,"current_range_meters":18000,"station_id":"ce4bh112rcd13ifvqda0","pricing_plan_id":"cebpf4jnsgd1na2vs0mg"},{"bike_id":"7b73b80d-a1dd-430b-aa67-950539e6457d","system_id":"levelo_inurba_marseille","lat":43.28011,"lon":5.40008,"is_reserved":false,"is_disabled":false,"rental_uris":{"android":"levelo://app?vid=7b73b80d-a1dd-430b-aa67-950539e6457d","ios":"levelo://app?vid=7b73b80d-a1dd-430b-aa67-950539e6457d"},"vehicle_type_id":"4","last_reported":1737140855,"current_range_meters":13600,"station_id":"ce4bho92rcd13ifvqh4g","pricing_plan_id":"cebpf4jnsgd1na2vs0mg"},{"bike_id":"f8aad85d-54d6-4ca2-81ac-46c1a831eb57","system_id":"levelo_inurba_marseille","lat":43.28074,"lon":5.39656,"is_reserved":false,"is_disabled":false,"rental_uris":{"android":"levelo://app?vid=f8aad85d-54d6-4ca2-81ac-46c1a831eb57","ios":"levelo://app?vid=f8aad85d-54d6-4ca2-81ac-46c1a831eb57"},"vehicle_type_id":"4","last_reported":1737140855,"current_range_meters":37600,"station_id":"ce4bho12rcd13ifvqh2g","pricing_plan_id":"cebpf4jnsgd1na2vs0mg"},{"bike_id":"2ca57f47-5d25-4583-9e97-fada344a3c54","system_id":"levelo_inurba_marseille","lat":43.29979,"lon":5.3719,"is_reserved":false,"is_disabled":false,"rental_uris":{"android":"levelo://app?vid=2ca57f47-5d25-4583-9e97-fada344a3c54","ios":"levelo://app?vid=2ca57f47-5d25-4583-9e97-fada344a3c54"},"vehicle_type_id":"4","last_reported":1737140855,"current_range_meters":36800,"station_id":"ce4bgr92rcd13ifvqc7g","pricing_plan_id":"cebpf4jnsgd1na2vs0mg"},{"bike_id":"8653901e-c4c2-4ba9-bee5-636bedbe2064","system_id":"levelo_inurba_marseille","lat":43.28158,"lon":5.42636,"is_reserved":false,"is_disabled":false,"rental_uris":{"android":"levelo://app?vid=8653901e-c4c2-4ba9-bee5-636bedbe2064","ios":"levelo://app?vid=8653901e-c4c2-4ba9-bee5-636bedbe2064"},"vehicle_type_id":"4","last_reported":1737140855,"current_range_meters":32800,"station_id":"ce4bhnh2rcd13ifvqgug","pricing_plan_id":"cebpf4jnsgd1na2vs0mg"},{"bike_id":"56b8e9bc-f750-4815-bc98-9098414d16db","system_id":"levelo_inurba_marseille","lat":43.23206,"lon":5.35536,"is_reserved":false,"is_disabled":true,"rental_uris":{"android":"levelo://app?vid=56b8e9bc-f750-4815-bc98-9098414d16db","ios":"levelo://app?vid=56b8e9bc-f750-4815-bc98-9098414d16db"},"vehicle_type_id":"4","last_reported":1737140855,"current_range_meters":0,"station_id":"ce4bhu92rcd13ifvqi70","pricing_plan_id":"cebpf4jnsgd1na2vs0mg"},{"bike_id":"0e91b70c-1e42-4d65-a90a-72cbd40954b0","system_id":"levelo_inurba_marseille","lat":43.31869,"lon":5.37436,"is_reserved":false,"is_disabled":false,"rental_uris":{"android":"levelo://app?vid=0e91b70c-1e42-4d65-a90a-72cbd40954b0","ios":"levelo://app?vid=0e91b70c-1e42-4d65-a90a-72cbd40954b0"},"vehicle_type_id":"4","last_reported":1737140855,"current_range_meters":14800,"station_id":"","pricing_plan_id":"cebpf4jnsgd1na2vs0mg"},{"bike_id":"57ef9cb0-beed-4346-9a14-0e969ef4cc09","system_id":"levelo_inurba_marseille","lat":43.29419,"lon":5.38621,"is_reserved":false,"is_disabled":false,"rental_uris":{"android":"levelo://app?vid=57ef9cb0-beed-4346-9a14-0e969ef4cc09","ios":"levelo://app?vid=57ef9cb0-beed-4346-9a14-0e969ef4cc09"},"vehicle_type_id":"4","last_reported":1737140855,"current_range_meters":25600,"station_id":"ce4bh2h2rcd13ifvqdh0","pricing_plan_id":"cebpf4jnsgd1na2vs0mg"},{"bike_id":"4916c5da-e318-4472-84cf-aee3a54ce3c4","system_id":"levelo_inurba_marseille","lat":43.246434,"lon":5.435032,"is_reserved":false,"is_disabled":true,"rental_uris":{"android":"levelo://app?vid=4916c5da-e318-4472-84cf-aee3a54ce3c4","ios":"levelo://app?vid=4916c5da-e318-4472-84cf-aee3a54ce3c4"},"vehicle_type_id":"4","last_reported":1737140855,"current_range_meters":0,"station_id":"","pricing_plan_id":"cebpf4jnsgd1na2vs0mg"},{"bike_id":"acf79f04-3422-42de-9eb7-cf80f01b6dff","system_id":"levelo_inurba_marseille","lat":43.29991,"lon":5.37142,"is_reserved":false,"is_disabled":false,"rental_uris":{"android":"levelo://app?vid=acf79f04-3422-42de-9eb7-cf80f01b6dff","ios":"levelo://app?vid=acf79f04-3422-42de-9eb7-cf80f01b6dff"},"vehicle_type_id":"4","last_reported":1737140855,"current_range_meters":39200,"station_id":"ce4bgr92rcd13ifvqc7g","pricing_plan_id":"cebpf4jnsgd1na2vs0mg"},{"bike_id":"89f094a3-84a6-4a3f-a7be-368eadfc0b2d","system_id":"levelo_inurba_marseille","lat":43.25734,"lon":5.41107,"is_reserved":false,"is_disabled":true,"rental_uris":{"android":"levelo://app?vid=89f094a3-84a6-4a3f-a7be-368eadfc0b2d","ios":"levelo://app?vid=89f094a3-84a6-4a3f-a7be-368eadfc0b2d"},"vehicle_type_id":"4","last_reported":1737140855,"current_range_meters":1200,"station_id":"ce4bhkp2rcd13ifvqgd0","pricing_plan_id":"cebpf4jnsgd1na2vs0mg"},{"bike_id":"ec4ba6b3-fd73-4de8-9175-284150dfd1f9","system_id":"levelo_inurba_marseille","lat":43.24648,"lon":5.38897,"is_reserved":false,"is_disabled":false,"rental_uris":{"android":"levelo://app?vid=ec4ba6b3-fd73-4de8-9175-284150dfd1f9","ios":"levelo://app?vid=ec4ba6b3-fd73-4de8-9175-284150dfd1f9"},"vehicle_type_id":"4","last_reported":1737140855,"current_range_meters":6800,"station_id":"ce4bhg12rcd13ifvqf60","pricing_plan_id":"cebpf4jnsgd1na2vs0mg"},{"bike_id":"1b0abdf0-ebc9-477b-9a5c-20d604bc88e3","system_id":"levelo_inurba_marseille","lat":43.25069,"lon":5.39518,"is_reserved":false,"is_disabled":false,"rental_uris":{"android":"levelo://app?vid=1b0abdf0-ebc9-477b-9a5c-20d604bc88e3","ios":"levelo://app?vid=1b0abdf0-ebc9-477b-9a5c-20d604bc88e3"},"vehicle_type_id":"4","last_reported":1737140855,"current_range_meters":38800,"station_id":"ce4bhm12rcd13ifvqgkg","pricing_plan_id":"cebpf4jnsgd1na2vs0mg"},{"bike_id":"424dca1e-8779-4b6f-842e-21c8a559ff8d","system_id":"levelo_inurba_marseille","lat":43.28725,"lon":5.36087,"is_reserved":false,"is_disabled":true,"rental_uris":{"android":"levelo://app?vid=424dca1e-8779-4b6f-842e-21c8a559ff8d","ios":"levelo://app?vid=424dca1e-8779-4b6f-842e-21c8a559ff8d"},"vehicle_type_id":"4","last_reported":1737140855,"current_range_meters":0,"station_id":"cki0cbj6b192h4jlfktg","pricing_plan_id":"cebpf4jnsgd1na2vs0mg"},{"bike_id":"022f79de-9b10-4175-bc3b-1ab552a4d7e1","system_id":"levelo_inurba_marseille","lat":43.29868,"lon":5.39737,"is_reserved":false,"is_disabled":false,"rental_uris":{"android":"levelo://app?vid=022f79de-9b10-4175-bc3b-1ab552a4d7e1","ios":"levelo://app?vid=022f79de-9b10-4175-bc3b-1ab552a4d7e1"},"vehicle_type_id":"4","last_reported":1737140855,"current_range_meters":26800,"station_id":"ce4bh0h2rcd13ifvqd50","pricing_plan_id":"cebpf4jnsgd1na2vs0mg"},{"bike_id":"ba0b60cd-79f7-4271-8338-bde69b1515f4","system_id":"levelo_inurba_marseille","lat":43.30133,"lon":5.39869,"is_reserved":false,"is_disabled":false,"rental_uris":{"android":"levelo://app?vid=ba0b60cd-79f7-4271-8338-bde69b1515f4","ios":"levelo://app?vid=ba0b60cd-79f7-4271-8338-bde69b1515f4"},"vehicle_type_id":"4","last_reported":1737140855,"current_range_meters":8000,"station_id":"ce4bh0h2rcd13ifvqd40","pricing_plan_id":"cebpf4jnsgd1na2vs0mg"},{"bike_id":"a74891f3-5f77-4c28-8515-deb63a02a3dc","system_id":"levelo_inurba_marseille","lat":43.29729,"lon":5.37684,"is_reserved":false,"is_disabled":false,"rental_uris":{"android":"levelo://app?vid=a74891f3-5f77-4c28-8515-deb63a02a3dc","ios":"levelo://app?vid=a74891f3-5f77-4c28-8515-deb63a02a3dc"},"vehicle_type_id":"4","last_reported":1737140855,"current_range_meters":22400,"station_id":"ce4bgkh2rcd13ifvqbl0","pricing_plan_id":"cebpf4jnsgd1na2vs0mg"},{"bike_id":"22465212-93af-4e0b-b803-6ee82bba56d5","system_id":"levelo_inurba_marseille","lat":43.33763,"lon":5.37492,"is_reserved":false,"is_disabled":false,"rental_uris":{"android":"levelo://app?vid=22465212-93af-4e0b-b803-6ee82bba56d5","ios":"levelo://app?vid=22465212-93af-4e0b-b803-6ee82bba56d5"},"vehicle_type_id":"4","last_reported":1737140855,"current_range_meters":32400,"station_id":"","pricing_plan_id":"cebpf4jnsgd1na2vs0mg"},{"bike_id":"52d45926-3f30-4ca6-9cca-370e66639bce","system_id":"levelo_inurba_marseille","lat":43.2979,"lon":5.39351,"is_reserved":false,"is_disabled":false,"rental_uris":{"android":"levelo://app?vid=52d45926-3f30-4ca6-9cca-370e66639bce","ios":"levelo://app?vid=52d45926-3f30-4ca6-9cca-370e66639bce"},"vehicle_type_id":"4","last_reported":1737140855,"current_range_meters":28000,"station_id":"chh1huq6cuj3fo74tm60","pricing_plan_id":"cebpf4jnsgd1na2vs0mg"},{"bike_id":"979d7a5c-00ce-4dcf-a15c-0fc9c9e35c10","system_id":"levelo_inurba_marseille","lat":43.33783,"lon":5.37456,"is_reserved":false,"is_disabled":false,"rental_uris":{"android":"levelo://app?vid=979d7a5c-00ce-4dcf-a15c-0fc9c9e35c10","ios":"levelo://app?vid=979d7a5c-00ce-4dcf-a15c-0fc9c9e35c10"},"vehicle_type_id":"4","last_reported":1737140855,"current_range_meters":28400,"station_id":"","pricing_plan_id":"cebpf4jnsgd1na2vs0mg"},{"bike_id":"730df4ba-4772-4a0e-9e4a-bb6bde6caaeb","system_id":"levelo_inurba_marseille","lat":43.301225,"lon":5.398697,"is_reserved":false,"is_disabled":true,"rental_uris":{"android":"levelo://app?vid=730df4ba-4772-4a0e-9e4a-bb6bde6caaeb","ios":"levelo://app?vid=730df4ba-4772-4a0e-9e4a-bb6bde6caaeb"},"vehicle_type_id":"4","last_reported":1737140855,"current_range_meters":37600,"station_id":"ce4bh0h2rcd13ifvqd40","pricing_plan_id":"cebpf4jnsgd1na2vs0mg"},{"bike_id":"44131982-6d25-4caf-9dfd-07df823acdd9","system_id":"levelo_inurba_marseille","lat":43.29034,"lon":5.37558,"is_reserved":false,"is_disabled":false,"rental_uris":{"android":"levelo://app?vid=44131982-6d25-4caf-9dfd-07df823acdd9","ios":"levelo://app?vid=44131982-6d25-4caf-9dfd-07df823acdd9"},"vehicle_type_id":"4","last_reported":1737140855,"current_range_meters":6400,"station_id":"ce4bh692rcd13ifvqe90","pricing_plan_id":"cebpf4jnsgd1na2vs0mg"},{"bike_id":"78ecafe4-6ef2-47f2-a844-7fc2bb3c1dc6","system_id":"levelo_inurba_marseille","lat":43.29258,"lon":5.38439,"is_reserved":false,"is_disabled":false,"rental_uris":{"android":"levelo://app?vid=78ecafe4-6ef2-47f2-a844-7fc2bb3c1dc6","ios":"levelo://app?vid=78ecafe4-6ef2-47f2-a844-7fc2bb3c1dc6"},"vehicle_type_id":"4","last_reported":1737140855,"current_range_meters":38000,"station_id":"ce4bh692rcd13ifvqea0","pricing_plan_id":"cebpf4jnsgd1na2vs0mg"},{"bike_id":"492bb2a4-bb26-45e4-9edc-d3f9691e28d1","system_id":"levelo_inurba_marseille","lat":43.31743,"lon":5.39032,"is_reserved":false,"is_disabled":false,"rental_uris":{"android":"levelo://app?vid=492bb2a4-bb26-45e4-9edc-d3f9691e28d1","ios":"levelo://app?vid=492bb2a4-bb26-45e4-9edc-d3f9691e28d1"},"vehicle_type_id":"4","last_reported":1737140855,"current_range_meters":38800,"station_id":"ce4bhqp2rcd13ifvqhng","pricing_plan_id":"cebpf4jnsgd1na2vs0mg"},{"bike_id":"075ac189-3398-4bb6-8ac4-2f03d10c4848","system_id":"levelo_inurba_marseille","lat":43.30152,"lon":5.38065,"is_reserved":false,"is_disabled":false,"rental_uris":{"android":"levelo://app?vid=075ac189-3398-4bb6-8ac4-2f03d10c4848","ios":"levelo://app?vid=075ac189-3398-4bb6-8ac4-2f03d10c4848"},"vehicle_type_id":"4","last_reported":1737140855,"current_range_meters":17600,"station_id":"ce4bgjp2rcd13ifvqbh0","pricing_plan_id":"cebpf4jnsgd1na2vs0mg"},{"bike_id":"2852113b-49ee-4cbf-9a16-ea68797906c2","system_id":"levelo_inurba_marseille","lat":43.33762,"lon":5.37482,"is_reserved":false,"is_disabled":false,"rental_uris":{"android":"levelo://app?vid=2852113b-49ee-4cbf-9a16-ea68797906c2","ios":"levelo://app?vid=2852113b-49ee-4cbf-9a16-ea68797906c2"},"vehicle_type_id":"4","last_reported":1737140855,"current_range_meters":37600,"station_id":"","pricing_plan_id":"cebpf4jnsgd1na2vs0mg"},{"bike_id":"0c5e855f-b56a-402c-ae21-d2d17f9d6d2e","system_id":"levelo_inurba_marseille","lat":43.29433,"lon":5.39769,"is_reserved":false,"is_disabled":false,"rental_uris":{"android":"levelo://app?vid=0c5e855f-b56a-402c-ae21-d2d17f9d6d2e","ios":"levelo://app?vid=0c5e855f-b56a-402c-ae21-d2d17f9d6d2e"},"vehicle_type_id":"4","last_reported":1737140855,"current_range_meters":14800,"station_id":"ce4bh3h2rcd13ifvqdo0","pricing_plan_id":"cebpf4jnsgd1na2vs0mg"},{"bike_id":"e00745b0-aabb-4154-94e8-70c087de6bff","system_id":"levelo_inurba_marseille","lat":43.25088,"lon":5.39527,"is_reserved":false,"is_disabled":false,"rental_uris":{"android":"levelo://app?vid=e00745b0-aabb-4154-94e8-70c087de6bff","ios":"levelo://app?vid=e00745b0-aabb-4154-94e8-70c087de6bff"},"vehicle_type_id":"4","last_reported":1737140855,"current_range_meters":38000,"station_id":"ce4bhm12rcd13ifvqgkg","pricing_plan_id":"cebpf4jnsgd1na2vs0mg"},{"bike_id":"970f0567-2402-4922-b668-2317b7377843","system_id":"levelo_inurba_marseille","lat":43.29398,"lon":5.38624,"is_reserved":false,"is_disabled":true,"rental_uris":{"android":"levelo://app?vid=970f0567-2402-4922-b668-2317b7377843","ios":"levelo://app?vid=970f0567-2402-4922-b668-2317b7377843"},"vehicle_type_id":"4","last_reported":1737140855,"current_range_meters":1200,"station_id":"ce4bh2h2rcd13ifvqdh0","pricing_plan_id":"cebpf4jnsgd1na2vs0mg"},{"bike_id":"6f01c4bf-c32c-4100-8d1f-bf0feff6801e","system_id":"levelo_inurba_marseille","lat":43.28695,"lon":5.38672,"is_reserved":false,"is_disabled":false,"rental_uris":{"android":"levelo://app?vid=6f01c4bf-c32c-4100-8d1f-bf0feff6801e","ios":"levelo://app?vid=6f01c4bf-c32c-4100-8d1f-bf0feff6801e"},"vehicle_type_id":"4","last_reported":1737140855,"current_range_meters":6800,"station_id":"ce4bh492rcd13ifvqdug","pricing_plan_id":"cebpf4jnsgd1na2vs0mg"},{"bike_id":"8768daec-ecdf-4b7e-9f2a-4f36b9c53248","system_id":"levelo_inurba_marseille","lat":43.27991,"lon":5.4166,"is_reserved":false,"is_disabled":false,"rental_uris":{"android":"levelo://app?vid=8768daec-ecdf-4b7e-9f2a-4f36b9c53248","ios":"levelo://app?vid=8768daec-ecdf-4b7e-9f2a-4f36b9c53248"},"vehicle_type_id":"4","last_reported":1737140855,"current_range_meters":39200,"station_id":"ce4bho12rcd13ifvqh1g","pricing_plan_id":"cebpf4jnsgd1na2vs0mg"},{"bike_id":"cefc250c-1baa-4a78-8fed-eb20c7fbb95c","system_id":"levelo_inurba_marseille","lat":43.23189,"lon":5.3556,"is_reserved":false,"is_disabled":false,"rental_uris":{"android":"levelo://app?vid=cefc250c-1baa-4a78-8fed-eb20c7fbb95c","ios":"levelo://app?vid=cefc250c-1baa-4a78-8fed-eb20c7fbb95c"},"vehicle_type_id":"4","last_reported":1737140855,"current_range_meters":38800,"station_id":"ce4bhu92rcd13ifvqi70","pricing_plan_id":"cebpf4jnsgd1na2vs0mg"},{"bike_id":"6a7366d7-ed8c-4629-bf0c-70c2abcda36d","system_id":"levelo_inurba_marseille","lat":43.23192,"lon":5.35554,"is_reserved":false,"is_disabled":false,"rental_uris":{"android":"levelo://app?vid=6a7366d7-ed8c-4629-bf0c-70c2abcda36d","ios":"levelo://app?vid=6a7366d7-ed8c-4629-bf0c-70c2abcda36d"},"vehicle_type_id":"4","last_reported":1737140855,"current_range_meters":38800,"station_id":"ce4bhu92rcd13ifvqi70","pricing_plan_id":"cebpf4jnsgd1na2vs0mg"},{"bike_id":"3690df9b-8e95-4304-ae85-39f8748465ca","system_id":"levelo_inurba_marseille","lat":43.27895,"lon":5.38002,"is_reserved":false,"is_disabled":false,"rental_uris":{"android":"levelo://app?vid=3690df9b-8e95-4304-ae85-39f8748465ca","ios":"levelo://app?vid=3690df9b-8e95-4304-ae85-39f8748465ca"},"vehicle_type_id":"4","last_reported":1737140855,"current_range_meters":14000,"station_id":"ce4bhf92rcd13ifvqf50","pricing_plan_id":"cebpf4jnsgd1na2vs0mg"},{"bike_id":"e0fa2907-f85c-4f9f-b31b-fa0a0c3d088e","system_id":"levelo_inurba_marseille","lat":43.25724,"lon":5.411,"is_reserved":false,"is_disabled":false,"rental_uris":{"android":"levelo://app?vid=e0fa2907-f85c-4f9f-b31b-fa0a0c3d088e","ios":"levelo://app?vid=e0fa2907-f85c-4f9f-b31b-fa0a0c3d088e"},"vehicle_type_id":"4","last_reported":1737140855,"current_range_meters":24000,"station_id":"ce4bhkp2rcd13ifvqgd0","pricing_plan_id":"cebpf4jnsgd1na2vs0mg"},{"bike_id":"8f66f528-a6ea-477d-8d32-9622da3ffb10","system_id":"levelo_inurba_marseille","lat":43.30329,"lon":5.40429,"is_reserved":false,"is_disabled":false,"rental_uris":{"android":"levelo://app?vid=8f66f528-a6ea-477d-8d32-9622da3ffb10","ios":"levelo://app?vid=8f66f528-a6ea-477d-8d32-9622da3ffb10"},"vehicle_type_id":"4","last_reported":1737140855,"current_range_meters":28800,"station_id":"ce4bh012rcd13ifvqd10","pricing_plan_id":"cebpf4jnsgd1na2vs0mg"},{"bike_id":"3ae518d8-de34-4c47-88ae-7338b21b711e","system_id":"levelo_inurba_marseille","lat":43.30944,"lon":5.38782,"is_reserved":false,"is_disabled":true,"rental_uris":{"android":"levelo://app?vid=3ae518d8-de34-4c47-88ae-7338b21b711e","ios":"levelo://app?vid=3ae518d8-de34-4c47-88ae-7338b21b711e"},"vehicle_type_id":"4","last_reported":1737140855,"current_range_meters":800,"station_id":"ce4bgv12rcd13ifvqcp0","pricing_plan_id":"cebpf4jnsgd1na2vs0mg"},{"bike_id":"35deb437-7ef2-4ee7-9ea5-27ce0001ca7b","system_id":"levelo_inurba_marseille","lat":43.260636,"lon":5.393997,"is_reserved":false,"is_disabled":false,"rental_uris":{"android":"levelo://app?vid=35deb437-7ef2-4ee7-9ea5-27ce0001ca7b","ios":"levelo://app?vid=35deb437-7ef2-4ee7-9ea5-27ce0001ca7b"},"vehicle_type_id":"4","last_reported":1737140855,"current_range_meters":38800,"station_id":"ce4bhh92rcd13ifvqfj0","pricing_plan_id":"cebpf4jnsgd1na2vs0mg"},{"bike_id":"8950ad97-12b3-4231-a25a-a92e6e418d6d","system_id":"levelo_inurba_marseille","lat":43.28628,"lon":5.37074,"is_reserved":false,"is_disabled":false,"rental_uris":{"android":"levelo://app?vid=8950ad97-12b3-4231-a25a-a92e6e418d6d","ios":"levelo://app?vid=8950ad97-12b3-4231-a25a-a92e6e418d6d"},"vehicle_type_id":"4","last_reported":1737140855,"current_range_meters":18000,"station_id":"ce4bht12rcd13ifvqi60","pricing_plan_id":"cebpf4jnsgd1na2vs0mg"},{"bike_id":"523b6566-5e7c-4b9e-a44f-ef720526bb85","system_id":"levelo_inurba_marseille","lat":43.31756,"lon":5.39016,"is_reserved":false,"is_disabled":false,"rental_uris":{"android":"levelo://app?vid=523b6566-5e7c-4b9e-a44f-ef720526bb85","ios":"levelo://app?vid=523b6566-5e7c-4b9e-a44f-ef720526bb85"},"vehicle_type_id":"4","last_reported":1737140855,"current_range_meters":24400,"station_id":"ce4bhqp2rcd13ifvqhng","pricing_plan_id":"cebpf4jnsgd1na2vs0mg"},{"bike_id":"f2390374-e060-4fe1-bcfa-cb2711193e58","system_id":"levelo_inurba_marseille","lat":43.25089,"lon":5.39524,"is_reserved":false,"is_disabled":false,"rental_uris":{"android":"levelo://app?vid=f2390374-e060-4fe1-bcfa-cb2711193e58","ios":"levelo://app?vid=f2390374-e060-4fe1-bcfa-cb2711193e58"},"vehicle_type_id":"4","last_reported":1737140855,"current_range_meters":14400,"station_id":"ce4bhm12rcd13ifvqgkg","pricing_plan_id":"cebpf4jnsgd1na2vs0mg"},{"bike_id":"12aeebdf-9e20-443e-a190-514b03e8d72a","system_id":"levelo_inurba_marseille","lat":43.30876,"lon":5.37198,"is_reserved":false,"is_disabled":true,"rental_uris":{"android":"levelo://app?vid=12aeebdf-9e20-443e-a190-514b03e8d72a","ios":"levelo://app?vid=12aeebdf-9e20-443e-a190-514b03e8d72a"},"vehicle_type_id":"4","last_reported":1737140855,"current_range_meters":2000,"station_id":"ce4bguh2rcd13ifvqckg","pricing_plan_id":"cebpf4jnsgd1na2vs0mg"},{"bike_id":"031e5600-8cd1-41ad-b759-8f7d96d84e7d","system_id":"levelo_inurba_marseille","lat":43.29526,"lon":5.39052,"is_reserved":false,"is_disabled":false,"rental_uris":{"android":"levelo://app?vid=031e5600-8cd1-41ad-b759-8f7d96d84e7d","ios":"levelo://app?vid=031e5600-8cd1-41ad-b759-8f7d96d84e7d"},"vehicle_type_id":"4","last_reported":1737140855,"current_range_meters":28800,"station_id":"ce4bh3p2rcd13ifvqdp0","pricing_plan_id":"cebpf4jnsgd1na2vs0mg"},{"bike_id":"8d3dfdc7-7af7-4157-9a0d-d0c55064c499","system_id":"levelo_inurba_marseille","lat":43.31275,"lon":5.40174,"is_reserved":false,"is_disabled":false,"rental_uris":{"android":"levelo://app?vid=8d3dfdc7-7af7-4157-9a0d-d0c55064c499","ios":"levelo://app?vid=8d3dfdc7-7af7-4157-9a0d-d0c55064c499"},"vehicle_type_id":"4","last_reported":1737140855,"current_range_meters":23200,"station_id":"ce4bh092rcd13ifvqd30","pricing_plan_id":"cebpf4jnsgd1na2vs0mg"},{"bike_id":"732d8b7e-8e9b-464b-855d-186030e92c72","system_id":"levelo_inurba_marseille","lat":43.30953,"lon":5.39036,"is_reserved":false,"is_disabled":false,"rental_uris":{"android":"levelo://app?vid=732d8b7e-8e9b-464b-855d-186030e92c72","ios":"levelo://app?vid=732d8b7e-8e9b-464b-855d-186030e92c72"},"vehicle_type_id":"4","last_reported":1737140855,"current_range_meters":25200,"station_id":"ce4bgup2rcd13ifvqco0","pricing_plan_id":"cebpf4jnsgd1na2vs0mg"},{"bike_id":"4a343de9-1043-4e83-8531-d95bab742c40","system_id":"levelo_inurba_marseille","lat":43.29558,"lon":5.42288,"is_reserved":false,"is_disabled":true,"rental_uris":{"android":"levelo://app?vid=4a343de9-1043-4e83-8531-d95bab742c40","ios":"levelo://app?vid=4a343de9-1043-4e83-8531-d95bab742c40"},"vehicle_type_id":"4","last_reported":1737140855,"current_range_meters":1200,"station_id":"ce4bhph2rcd13ifvqhdg","pricing_plan_id":"cebpf4jnsgd1na2vs0mg"},{"bike_id":"7ae468b0-0e73-4609-b947-3b7dfb1c3890","system_id":"levelo_inurba_marseille","lat":43.28412,"lon":5.3752,"is_reserved":false,"is_disabled":false,"rental_uris":{"android":"levelo://app?vid=7ae468b0-0e73-4609-b947-3b7dfb1c3890","ios":"levelo://app?vid=7ae468b0-0e73-4609-b947-3b7dfb1c3890"},"vehicle_type_id":"4","last_reported":1737140855,"current_range_meters":36000,"station_id":"ce4bh412rcd13ifvqds0","pricing_plan_id":"cebpf4jnsgd1na2vs0mg"},{"bike_id":"c4ab3838-1d61-4e29-a39f-fbac00aa12d4","system_id":"levelo_inurba_marseille","lat":43.31225,"lon":5.36847,"is_reserved":false,"is_disabled":false,"rental_uris":{"android":"levelo://app?vid=c4ab3838-1d61-4e29-a39f-fbac00aa12d4","ios":"levelo://app?vid=c4ab3838-1d61-4e29-a39f-fbac00aa12d4"},"vehicle_type_id":"4","last_reported":1737140855,"current_range_meters":38800,"station_id":"ce4bgl92rcd13ifvqbq0","pricing_plan_id":"cebpf4jnsgd1na2vs0mg"},{"bike_id":"5b22c99f-9b1a-4384-8e8c-44ca531724ac","system_id":"levelo_inurba_marseille","lat":43.27188,"lon":5.40987,"is_reserved":false,"is_disabled":false,"rental_uris":{"android":"levelo://app?vid=5b22c99f-9b1a-4384-8e8c-44ca531724ac","ios":"levelo://app?vid=5b22c99f-9b1a-4384-8e8c-44ca531724ac"},"vehicle_type_id":"4","last_reported":1737140855,"current_range_meters":37600,"station_id":"ce4bhl12rcd13ifvqgf0","pricing_plan_id":"cebpf4jnsgd1na2vs0mg"},{"bike_id":"0842d5ae-ed3a-4621-b09e-a5d93c93eb70","system_id":"levelo_inurba_marseille","lat":43.29804,"lon":5.38098,"is_reserved":false,"is_disabled":false,"rental_uris":{"android":"levelo://app?vid=0842d5ae-ed3a-4621-b09e-a5d93c93eb70","ios":"levelo://app?vid=0842d5ae-ed3a-4621-b09e-a5d93c93eb70"},"vehicle_type_id":"4","last_reported":1737140855,"current_range_meters":33600,"station_id":"ce4bgip2rcd13ifvqbb0","pricing_plan_id":"cebpf4jnsgd1na2vs0mg"},{"bike_id":"60d2665e-6db6-4dec-86db-75e183bb7450","system_id":"levelo_inurba_marseille","lat":43.26039,"lon":5.37544,"is_reserved":false,"is_disabled":false,"rental_uris":{"android":"levelo://app?vid=60d2665e-6db6-4dec-86db-75e183bb7450","ios":"levelo://app?vid=60d2665e-6db6-4dec-86db-75e183bb7450"},"vehicle_type_id":"4","last_reported":1737140855,"current_range_meters":38400,"station_id":"ce4bhgh2rcd13ifvqfa0","pricing_plan_id":"cebpf4jnsgd1na2vs0mg"},{"bike_id":"f1e6918f-44b7-483c-8a16-ff395e07f998","system_id":"levelo_inurba_marseille","lat":43.31234,"lon":5.36857,"is_reserved":false,"is_disabled":false,"rental_uris":{"android":"levelo://app?vid=f1e6918f-44b7-483c-8a16-ff395e07f998","ios":"levelo://app?vid=f1e6918f-44b7-483c-8a16-ff395e07f998"},"vehicle_type_id":"4","last_reported":1737140855,"current_range_meters":16000,"station_id":"ce4bgl92rcd13ifvqbq0","pricing_plan_id":"cebpf4jnsgd1na2vs0mg"},{"bike_id":"85f365d5-194e-4102-8500-4e44aa6e2a33","system_id":"levelo_inurba_marseille","lat":43.25012,"lon":5.38974,"is_reserved":false,"is_disabled":false,"rental_uris":{"android":"levelo://app?vid=85f365d5-194e-4102-8500-4e44aa6e2a33","ios":"levelo://app?vid=85f365d5-194e-4102-8500-4e44aa6e2a33"},"vehicle_type_id":"4","last_reported":1737140855,"current_range_meters":10800,"station_id":"ce4bhgp2rcd13ifvqfd0","pricing_plan_id":"cebpf4jnsgd1na2vs0mg"},{"bike_id":"c248864c-e161-4718-8c42-20a1064043b4","system_id":"levelo_inurba_marseille","lat":43.28413,"lon":5.37516,"is_reserved":false,"is_disabled":false,"rental_uris":{"android":"levelo://app?vid=c248864c-e161-4718-8c42-20a1064043b4","ios":"levelo://app?vid=c248864c-e161-4718-8c42-20a1064043b4"},"vehicle_type_id":"4","last_reported":1737140855,"current_range_meters":24400,"station_id":"ce4bh412rcd13ifvqds0","pricing_plan_id":"cebpf4jnsgd1na2vs0mg"},{"bike_id":"28abcf9b-3411-4376-8cfb-65814db88ca3","system_id":"levelo_inurba_marseille","lat":43.30404,"lon":5.4128,"is_reserved":false,"is_disabled":false,"rental_uris":{"android":"levelo://app?vid=28abcf9b-3411-4376-8cfb-65814db88ca3","ios":"levelo://app?vid=28abcf9b-3411-4376-8cfb-65814db88ca3"},"vehicle_type_id":"4","last_reported":1737140855,"current_range_meters":3600,"station_id":"ce4bhop2rcd13ifvqh8g","pricing_plan_id":"cebpf4jnsgd1na2vs0mg"},{"bike_id":"72ca0742-1df6-4026-87cc-098e9e8db1ab","system_id":"levelo_inurba_marseille","lat":43.23971,"lon":5.36629,"is_reserved":false,"is_disabled":false,"rental_uris":{"android":"levelo://app?vid=72ca0742-1df6-4026-87cc-098e9e8db1ab","ios":"levelo://app?vid=72ca0742-1df6-4026-87cc-098e9e8db1ab"},"vehicle_type_id":"4","last_reported":1737140855,"current_range_meters":27600,"station_id":"ce4bhi12rcd13ifvqfp0","pricing_plan_id":"cebpf4jnsgd1na2vs0mg"},{"bike_id":"1e2f115e-489f-4c45-b5ad-3280ad4c66fe","system_id":"levelo_inurba_marseille","lat":43.3171,"lon":5.43707,"is_reserved":false,"is_disabled":false,"rental_uris":{"android":"levelo://app?vid=1e2f115e-489f-4c45-b5ad-3280ad4c66fe","ios":"levelo://app?vid=1e2f115e-489f-4c45-b5ad-3280ad4c66fe"},"vehicle_type_id":"4","last_reported":1737140855,"current_range_meters":22800,"station_id":"ce4bhp92rcd13ifvqhcg","pricing_plan_id":"cebpf4jnsgd1na2vs0mg"},{"bike_id":"37b8cc81-c4ac-4abe-a9bf-4ef6a0ff920f","system_id":"levelo_inurba_marseille","lat":43.24804,"lon":5.37453,"is_reserved":false,"is_disabled":false,"rental_uris":{"android":"levelo://app?vid=37b8cc81-c4ac-4abe-a9bf-4ef6a0ff920f","ios":"levelo://app?vid=37b8cc81-c4ac-4abe-a9bf-4ef6a0ff920f"},"vehicle_type_id":"4","last_reported":1737140855,"current_range_meters":18800,"station_id":"ce4bhgh2rcd13ifvqfb0","pricing_plan_id":"cebpf4jnsgd1na2vs0mg"},{"bike_id":"b04ca61e-2600-41f9-8e3f-c52f738618bf","system_id":"levelo_inurba_marseille","lat":43.27999,"lon":5.40009,"is_reserved":false,"is_disabled":false,"rental_uris":{"android":"levelo://app?vid=b04ca61e-2600-41f9-8e3f-c52f738618bf","ios":"levelo://app?vid=b04ca61e-2600-41f9-8e3f-c52f738618bf"},"vehicle_type_id":"4","last_reported":1737140855,"current_range_meters":38000,"station_id":"ce4bho92rcd13ifvqh4g","pricing_plan_id":"cebpf4jnsgd1na2vs0mg"},{"bike_id":"5ed39e30-6df6-4cb7-b9e5-8eddd4f008ab","system_id":"levelo_inurba_marseille","lat":43.30355,"lon":5.39091,"is_reserved":false,"is_disabled":true,"rental_uris":{"android":"levelo://app?vid=5ed39e30-6df6-4cb7-b9e5-8eddd4f008ab","ios":"levelo://app?vid=5ed39e30-6df6-4cb7-b9e5-8eddd4f008ab"},"vehicle_type_id":"4","last_reported":1737140855,"current_range_meters":0,"station_id":"ce4bgkh2rcd13ifvqbk0","pricing_plan_id":"cebpf4jnsgd1na2vs0mg"},{"bike_id":"e27e74b2-2c71-43d5-8029-588d7007cb32","system_id":"levelo_inurba_marseille","lat":43.31696,"lon":5.37767,"is_reserved":false,"is_disabled":false,"rental_uris":{"android":"levelo://app?vid=e27e74b2-2c71-43d5-8029-588d7007cb32","ios":"levelo://app?vid=e27e74b2-2c71-43d5-8029-588d7007cb32"},"vehicle_type_id":"4","last_reported":1737140855,"current_range_meters":36400,"station_id":"ce4bgth2rcd13ifvqch0","pricing_plan_id":"cebpf4jnsgd1na2vs0mg"},{"bike_id":"4b49763f-0299-415d-bdc5-9e878c0c98ca","system_id":"levelo_inurba_marseille","lat":43.27947,"lon":5.41044,"is_reserved":false,"is_disabled":false,"rental_uris":{"android":"levelo://app?vid=4b49763f-0299-415d-bdc5-9e878c0c98ca","ios":"levelo://app?vid=4b49763f-0299-415d-bdc5-9e878c0c98ca"},"vehicle_type_id":"4","last_reported":1737140855,"current_range_meters":22800,"station_id":"ce4bhnp2rcd13ifvqh0g","pricing_plan_id":"cebpf4jnsgd1na2vs0mg"},{"bike_id":"7383474c-b45a-4438-837c-99d7ae866fe7","system_id":"levelo_inurba_marseille","lat":43.26071,"lon":5.3941,"is_reserved":false,"is_disabled":false,"rental_uris":{"android":"levelo://app?vid=7383474c-b45a-4438-837c-99d7ae866fe7","ios":"levelo://app?vid=7383474c-b45a-4438-837c-99d7ae866fe7"},"vehicle_type_id":"4","last_reported":1737140855,"current_range_meters":38800,"station_id":"ce4bhh92rcd13ifvqfj0","pricing_plan_id":"cebpf4jnsgd1na2vs0mg"},{"bike_id":"a8220c52-651f-46d8-85a5-7586cb8ab73d","system_id":"levelo_inurba_marseille","lat":43.29794,"lon":5.38093,"is_reserved":false,"is_disabled":false,"rental_uris":{"android":"levelo://app?vid=a8220c52-651f-46d8-85a5-7586cb8ab73d","ios":"levelo://app?vid=a8220c52-651f-46d8-85a5-7586cb8ab73d"},"vehicle_type_id":"4","last_reported":1737140855,"current_range_meters":36800,"station_id":"ce4bgip2rcd13ifvqbb0","pricing_plan_id":"cebpf4jnsgd1na2vs0mg"},{"bike_id":"ee0f8b74-899d-468a-b291-f68a1526a540","system_id":"levelo_inurba_marseille","lat":43.30133,"lon":5.39866,"is_reserved":false,"is_disabled":false,"rental_uris":{"android":"levelo://app?vid=ee0f8b74-899d-468a-b291-f68a1526a540","ios":"levelo://app?vid=ee0f8b74-899d-468a-b291-f68a1526a540"},"vehicle_type_id":"4","last_reported":1737140855,"current_range_meters":29600,"station_id":"ce4bh0h2rcd13ifvqd40","pricing_plan_id":"cebpf4jnsgd1na2vs0mg"},{"bike_id":"4db6ff81-56b2-4daf-b50d-d9ec5d14b2a5","system_id":"levelo_inurba_marseille","lat":43.31112,"lon":5.37774,"is_reserved":false,"is_disabled":false,"rental_uris":{"android":"levelo://app?vid=4db6ff81-56b2-4daf-b50d-d9ec5d14b2a5","ios":"levelo://app?vid=4db6ff81-56b2-4daf-b50d-d9ec5d14b2a5"},"vehicle_type_id":"4","last_reported":1737140855,"current_range_meters":38000,"station_id":"ce4bgt92rcd13ifvqcg0","pricing_plan_id":"cebpf4jnsgd1na2vs0mg"},{"bike_id":"b0e028f1-2e58-48ac-baaa-d72f19268535","system_id":"levelo_inurba_marseille","lat":43.29421,"lon":5.38623,"is_reserved":false,"is_disabled":false,"rental_uris":{"android":"levelo://app?vid=b0e028f1-2e58-48ac-baaa-d72f19268535","ios":"levelo://app?vid=b0e028f1-2e58-48ac-baaa-d72f19268535"},"vehicle_type_id":"4","last_reported":1737140855,"current_range_meters":24400,"station_id":"ce4bh2h2rcd13ifvqdh0","pricing_plan_id":"cebpf4jnsgd1na2vs0mg"},{"bike_id":"89156464-bd77-4524-aca5-01eb25127fbf","system_id":"levelo_inurba_marseille","lat":43.29256,"lon":5.38442,"is_reserved":false,"is_disabled":false,"rental_uris":{"android":"levelo://app?vid=89156464-bd77-4524-aca5-01eb25127fbf","ios":"levelo://app?vid=89156464-bd77-4524-aca5-01eb25127fbf"},"vehicle_type_id":"4","last_reported":1737140855,"current_range_meters":6000,"station_id":"ce4bh692rcd13ifvqea0","pricing_plan_id":"cebpf4jnsgd1na2vs0mg"},{"bike_id":"539bea42-c374-44a0-bf38-beb00bc6cc0c","system_id":"levelo_inurba_marseille","lat":43.29233,"lon":5.36064,"is_reserved":false,"is_disabled":true,"rental_uris":{"android":"levelo://app?vid=539bea42-c374-44a0-bf38-beb00bc6cc0c","ios":"levelo://app?vid=539bea42-c374-44a0-bf38-beb00bc6cc0c"},"vehicle_type_id":"4","last_reported":1737140855,"current_range_meters":1600,"station_id":"ce4bhbh2rcd13ifvqeqg","pricing_plan_id":"cebpf4jnsgd1na2vs0mg"},{"bike_id":"ad19871f-d2e9-429c-a8e9-e30d76188be2","system_id":"levelo_inurba_marseille","lat":43.28415,"lon":5.3753,"is_reserved":false,"is_disabled":false,"rental_uris":{"android":"levelo://app?vid=ad19871f-d2e9-429c-a8e9-e30d76188be2","ios":"levelo://app?vid=ad19871f-d2e9-429c-a8e9-e30d76188be2"},"vehicle_type_id":"4","last_reported":1737140855,"current_range_meters":38000,"station_id":"ce4bgnh2rcd13ifvqc0g","pricing_plan_id":"cebpf4jnsgd1na2vs0mg"},{"bike_id":"fe90f7a6-3920-456a-9451-50d213b7000f","system_id":"levelo_inurba_marseille","lat":43.28485,"lon":5.384183,"is_reserved":false,"is_disabled":true,"rental_uris":{"android":"levelo://app?vid=fe90f7a6-3920-456a-9451-50d213b7000f","ios":"levelo://app?vid=fe90f7a6-3920-456a-9451-50d213b7000f"},"vehicle_type_id":"4","last_reported":1737140855,"current_range_meters":800,"station_id":"ce4bh512rcd13ifvqe3g","pricing_plan_id":"cebpf4jnsgd1na2vs0mg"},{"bike_id":"3958b03d-b591-4d79-80a4-059614f22dc2","system_id":"levelo_inurba_marseille","lat":43.29891,"lon":5.43659,"is_reserved":false,"is_disabled":false,"rental_uris":{"android":"levelo://app?vid=3958b03d-b591-4d79-80a4-059614f22dc2","ios":"levelo://app?vid=3958b03d-b591-4d79-80a4-059614f22dc2"},"vehicle_type_id":"4","last_reported":1737140855,"current_range_meters":39200,"station_id":"ce4bhpp2rcd13ifvqhfg","pricing_plan_id":"cebpf4jnsgd1na2vs0mg"},{"bike_id":"cd9fec79-c435-4d19-bb75-115ebf6b704e","system_id":"levelo_inurba_marseille","lat":43.3122,"lon":5.3686,"is_reserved":false,"is_disabled":false,"rental_uris":{"android":"levelo://app?vid=cd9fec79-c435-4d19-bb75-115ebf6b704e","ios":"levelo://app?vid=cd9fec79-c435-4d19-bb75-115ebf6b704e"},"vehicle_type_id":"4","last_reported":1737140855,"current_range_meters":17600,"station_id":"ce4bgl92rcd13ifvqbq0","pricing_plan_id":"cebpf4jnsgd1na2vs0mg"},{"bike_id":"5985db0a-d1af-4636-b1c7-be7d73c7f444","system_id":"levelo_inurba_marseille","lat":43.2815,"lon":5.42633,"is_reserved":false,"is_disabled":false,"rental_uris":{"android":"levelo://app?vid=5985db0a-d1af-4636-b1c7-be7d73c7f444","ios":"levelo://app?vid=5985db0a-d1af-4636-b1c7-be7d73c7f444"},"vehicle_type_id":"4","last_reported":1737140855,"current_range_meters":27200,"station_id":"ce4bhnh2rcd13ifvqgug","pricing_plan_id":"cebpf4jnsgd1na2vs0mg"},{"bike_id":"c98d53b6-f71c-4c12-9155-efb4e2cc8a3f","system_id":"levelo_inurba_marseille","lat":43.2944,"lon":5.39729,"is_reserved":false,"is_disabled":false,"rental_uris":{"android":"levelo://app?vid=c98d53b6-f71c-4c12-9155-efb4e2cc8a3f","ios":"levelo://app?vid=c98d53b6-f71c-4c12-9155-efb4e2cc8a3f"},"vehicle_type_id":"4","last_reported":1737140855,"current_range_meters":28400,"station_id":"ce4bh3h2rcd13ifvqdo0","pricing_plan_id":"cebpf4jnsgd1na2vs0mg"},{"bike_id":"8718434f-bdb4-44ea-8cf1-505dc338502e","system_id":"levelo_inurba_marseille","lat":43.27616,"lon":5.36107,"is_reserved":false,"is_disabled":false,"rental_uris":{"android":"levelo://app?vid=8718434f-bdb4-44ea-8cf1-505dc338502e","ios":"levelo://app?vid=8718434f-bdb4-44ea-8cf1-505dc338502e"},"vehicle_type_id":"4","last_reported":1737140855,"current_range_meters":38000,"station_id":"ce4bgj92rcd13ifvqbe0","pricing_plan_id":"cebpf4jnsgd1na2vs0mg"},{"bike_id":"dbc84289-e424-421f-8922-80495ae94fa1","system_id":"levelo_inurba_marseille","lat":43.30604,"lon":5.39341,"is_reserved":false,"is_disabled":true,"rental_uris":{"android":"levelo://app?vid=dbc84289-e424-421f-8922-80495ae94fa1","ios":"levelo://app?vid=dbc84289-e424-421f-8922-80495ae94fa1"},"vehicle_type_id":"4","last_reported":1737140855,"current_range_meters":25200,"station_id":"ce4bh0p2rcd13ifvqd80","pricing_plan_id":"cebpf4jnsgd1na2vs0mg"},{"bike_id":"a9a0e60f-8e94-490a-988c-5a9cfc45d626","system_id":"levelo_inurba_marseille","lat":43.241612,"lon":5.363997,"is_reserved":false,"is_disabled":false,"rental_uris":{"android":"levelo://app?vid=a9a0e60f-8e94-490a-988c-5a9cfc45d626","ios":"levelo://app?vid=a9a0e60f-8e94-490a-988c-5a9cfc45d626"},"vehicle_type_id":"4","last_reported":1737140855,"current_range_meters":14800,"station_id":"cpo36qri1sfpv3e86is0","pricing_plan_id":"cebpf4jnsgd1na2vs0mg"},{"bike_id":"6c199572-c98b-4841-8028-275326030d2b","system_id":"levelo_inurba_marseille","lat":43.29258,"lon":5.38445,"is_reserved":false,"is_disabled":false,"rental_uris":{"android":"levelo://app?vid=6c199572-c98b-4841-8028-275326030d2b","ios":"levelo://app?vid=6c199572-c98b-4841-8028-275326030d2b"},"vehicle_type_id":"4","last_reported":1737140855,"current_range_meters":4800,"station_id":"ce4bh692rcd13ifvqea0","pricing_plan_id":"cebpf4jnsgd1na2vs0mg"},{"bike_id":"3808c5a1-d5da-42c6-b995-7d09e6c7030d","system_id":"levelo_inurba_marseille","lat":43.29805,"lon":5.38098,"is_reserved":false,"is_disabled":false,"rental_uris":{"android":"levelo://app?vid=3808c5a1-d5da-42c6-b995-7d09e6c7030d","ios":"levelo://app?vid=3808c5a1-d5da-42c6-b995-7d09e6c7030d"},"vehicle_type_id":"4","last_reported":1737140855,"current_range_meters":33600,"station_id":"ce4bgip2rcd13ifvqbb0","pricing_plan_id":"cebpf4jnsgd1na2vs0mg"},{"bike_id":"4af58063-c51d-4c74-b7d3-15cb72f58163","system_id":"levelo_inurba_marseille","lat":43.2954,"lon":5.38546,"is_reserved":false,"is_disabled":false,"rental_uris":{"android":"levelo://app?vid=4af58063-c51d-4c74-b7d3-15cb72f58163","ios":"levelo://app?vid=4af58063-c51d-4c74-b7d3-15cb72f58163"},"vehicle_type_id":"4","last_reported":1737140855,"current_range_meters":27200,"station_id":"ce4bgih2rcd13ifvqba0","pricing_plan_id":"cebpf4jnsgd1na2vs0mg"},{"bike_id":"29f1794c-11c2-4507-bbd5-ad28336fcfd4","system_id":"levelo_inurba_marseille","lat":43.28946,"lon":5.36646,"is_reserved":false,"is_disabled":false,"rental_uris":{"android":"levelo://app?vid=29f1794c-11c2-4507-bbd5-ad28336fcfd4","ios":"levelo://app?vid=29f1794c-11c2-4507-bbd5-ad28336fcfd4"},"vehicle_type_id":"4","last_reported":1737140855,"current_range_meters":8000,"station_id":"ce4bhap2rcd13ifvqek0","pricing_plan_id":"cebpf4jnsgd1na2vs0mg"},{"bike_id":"a2e0e617-68e2-4d50-b8d4-e72c276686bb","system_id":"levelo_inurba_marseille","lat":43.29421,"lon":5.38628,"is_reserved":false,"is_disabled":false,"rental_uris":{"android":"levelo://app?vid=a2e0e617-68e2-4d50-b8d4-e72c276686bb","ios":"levelo://app?vid=a2e0e617-68e2-4d50-b8d4-e72c276686bb"},"vehicle_type_id":"4","last_reported":1737140855,"current_range_meters":11200,"station_id":"ce4bh2h2rcd13ifvqdh0","pricing_plan_id":"cebpf4jnsgd1na2vs0mg"},{"bike_id":"b9448605-8887-4883-a788-ae2fc503e99d","system_id":"levelo_inurba_marseille","lat":43.28942,"lon":5.36632,"is_reserved":false,"is_disabled":false,"rental_uris":{"android":"levelo://app?vid=b9448605-8887-4883-a788-ae2fc503e99d","ios":"levelo://app?vid=b9448605-8887-4883-a788-ae2fc503e99d"},"vehicle_type_id":"4","last_reported":1737140855,"current_range_meters":38800,"station_id":"ce4bhap2rcd13ifvqek0","pricing_plan_id":"cebpf4jnsgd1na2vs0mg"},{"bike_id":"2c27878e-d42e-44dc-b789-949f1ee17504","system_id":"levelo_inurba_marseille","lat":43.33728,"lon":5.39179,"is_reserved":false,"is_disabled":false,"rental_uris":{"android":"levelo://app?vid=2c27878e-d42e-44dc-b789-949f1ee17504","ios":"levelo://app?vid=2c27878e-d42e-44dc-b789-949f1ee17504"},"vehicle_type_id":"4","last_reported":1737140855,"current_range_meters":29600,"station_id":"ce4bhr92rcd13ifvqhsg","pricing_plan_id":"cebpf4jnsgd1na2vs0mg"},{"bike_id":"0955eebe-3673-4214-aaa8-f9d80c1c64ed","system_id":"levelo_inurba_marseille","lat":43.31705,"lon":5.43677,"is_reserved":false,"is_disabled":false,"rental_uris":{"android":"levelo://app?vid=0955eebe-3673-4214-aaa8-f9d80c1c64ed","ios":"levelo://app?vid=0955eebe-3673-4214-aaa8-f9d80c1c64ed"},"vehicle_type_id":"4","last_reported":1737140855,"current_range_meters":18800,"station_id":"ce4bhp92rcd13ifvqhcg","pricing_plan_id":"cebpf4jnsgd1na2vs0mg"},{"bike_id":"e8027cbc-2335-492e-823e-5c03d19ad305","system_id":"levelo_inurba_marseille","lat":43.2481,"lon":5.37436,"is_reserved":false,"is_disabled":false,"rental_uris":{"android":"levelo://app?vid=e8027cbc-2335-492e-823e-5c03d19ad305","ios":"levelo://app?vid=e8027cbc-2335-492e-823e-5c03d19ad305"},"vehicle_type_id":"4","last_reported":1737140855,"current_range_meters":38800,"station_id":"ce4bhgh2rcd13ifvqfb0","pricing_plan_id":"cebpf4jnsgd1na2vs0mg"},{"bike_id":"f5863b18-13a1-4c6e-92de-5668ea912ad3","system_id":"levelo_inurba_marseille","lat":43.26234,"lon":5.40456,"is_reserved":false,"is_disabled":true,"rental_uris":{"android":"levelo://app?vid=f5863b18-13a1-4c6e-92de-5668ea912ad3","ios":"levelo://app?vid=f5863b18-13a1-4c6e-92de-5668ea912ad3"},"vehicle_type_id":"4","last_reported":1737140855,"current_range_meters":0,"station_id":"","pricing_plan_id":"cebpf4jnsgd1na2vs0mg"},{"bike_id":"a8fad254-19bb-48fe-801d-9e93d4767cef","system_id":"levelo_inurba_marseille","lat":43.31426,"lon":5.37444,"is_reserved":false,"is_disabled":true,"rental_uris":{"android":"levelo://app?vid=a8fad254-19bb-48fe-801d-9e93d4767cef","ios":"levelo://app?vid=a8fad254-19bb-48fe-801d-9e93d4767cef"},"vehicle_type_id":"4","last_reported":1737140855,"current_range_meters":0,"station_id":"","pricing_plan_id":"cebpf4jnsgd1na2vs0mg"},{"bike_id":"d5e88f11-8902-4e60-8e5e-7248fb6efb07","system_id":"levelo_inurba_marseille","lat":43.24806,"lon":5.37454,"is_reserved":false,"is_disabled":false,"rental_uris":{"android":"levelo://app?vid=d5e88f11-8902-4e60-8e5e-7248fb6efb07","ios":"levelo://app?vid=d5e88f11-8902-4e60-8e5e-7248fb6efb07"},"vehicle_type_id":"4","last_reported":1737140855,"current_range_meters":31200,"station_id":"ce4bhgh2rcd13ifvqfb0","pricing_plan_id":"cebpf4jnsgd1na2vs0mg"},{"bike_id":"e5f71037-c3e2-4a5c-b185-51bcddd625d8","system_id":"levelo_inurba_marseille","lat":43.23064,"lon":5.35494,"is_reserved":false,"is_disabled":false,"rental_uris":{"android":"levelo://app?vid=e5f71037-c3e2-4a5c-b185-51bcddd625d8","ios":"levelo://app?vid=e5f71037-c3e2-4a5c-b185-51bcddd625d8"},"vehicle_type_id":"4","last_reported":1737140855,"current_range_meters":38800,"station_id":"cpo3342slgdg3j2ifvpg","pricing_plan_id":"cebpf4jnsgd1na2vs0mg"},{"bike_id":"46686b70-f375-4947-b209-2f4548c2edcf","system_id":"levelo_inurba_marseille","lat":43.28886,"lon":5.39456,"is_reserved":false,"is_disabled":true,"rental_uris":{"android":"levelo://app?vid=46686b70-f375-4947-b209-2f4548c2edcf","ios":"levelo://app?vid=46686b70-f375-4947-b209-2f4548c2edcf"},"vehicle_type_id":"4","last_reported":1737140855,"current_range_meters":0,"station_id":"","pricing_plan_id":"cebpf4jnsgd1na2vs0mg"},{"bike_id":"224d635c-6787-4c72-b006-b3ec75d8a7e9","system_id":"levelo_inurba_marseille","lat":43.30922,"lon":5.3686,"is_reserved":false,"is_disabled":false,"rental_uris":{"android":"levelo://app?vid=224d635c-6787-4c72-b006-b3ec75d8a7e9","ios":"levelo://app?vid=224d635c-6787-4c72-b006-b3ec75d8a7e9"},"vehicle_type_id":"4","last_reported":1737140855,"current_range_meters":38800,"station_id":"ce4bgn92rcd13ifvqbvg","pricing_plan_id":"cebpf4jnsgd1na2vs0mg"},{"bike_id":"c3dcdf4d-5280-4d62-9cd4-44d537c8279d","system_id":"levelo_inurba_marseille","lat":43.31293,"lon":5.37325,"is_reserved":false,"is_disabled":false,"rental_uris":{"android":"levelo://app?vid=c3dcdf4d-5280-4d62-9cd4-44d537c8279d","ios":"levelo://app?vid=c3dcdf4d-5280-4d62-9cd4-44d537c8279d"},"vehicle_type_id":"4","last_reported":1737140855,"current_range_meters":28000,"station_id":"","pricing_plan_id":"cebpf4jnsgd1na2vs0mg"},{"bike_id":"b2924a9a-ad19-4327-af6a-b21e3ed23824","system_id":"levelo_inurba_marseille","lat":43.32371,"lon":5.38877,"is_reserved":false,"is_disabled":false,"rental_uris":{"android":"levelo://app?vid=b2924a9a-ad19-4327-af6a-b21e3ed23824","ios":"levelo://app?vid=b2924a9a-ad19-4327-af6a-b21e3ed23824"},"vehicle_type_id":"4","last_reported":1737140855,"current_range_meters":7200,"station_id":"ce4bhqp2rcd13ifvqhog","pricing_plan_id":"cebpf4jnsgd1na2vs0mg"},{"bike_id":"01b6ec34-8d4c-4cdc-b585-c279912efb55","system_id":"levelo_inurba_marseille","lat":43.30906,"lon":5.36847,"is_reserved":false,"is_disabled":false,"rental_uris":{"android":"levelo://app?vid=01b6ec34-8d4c-4cdc-b585-c279912efb55","ios":"levelo://app?vid=01b6ec34-8d4c-4cdc-b585-c279912efb55"},"vehicle_type_id":"4","last_reported":1737140855,"current_range_meters":18800,"station_id":"ce4bgn92rcd13ifvqbvg","pricing_plan_id":"cebpf4jnsgd1na2vs0mg"},{"bike_id":"6f4496a1-1a62-4c80-a144-20d2be9143c3","system_id":"levelo_inurba_marseille","lat":43.31494,"lon":5.37314,"is_reserved":false,"is_disabled":false,"rental_uris":{"android":"levelo://app?vid=6f4496a1-1a62-4c80-a144-20d2be9143c3","ios":"levelo://app?vid=6f4496a1-1a62-4c80-a144-20d2be9143c3"},"vehicle_type_id":"4","last_reported":1737140855,"current_range_meters":27600,"station_id":"ce4bgt12rcd13ifvqcd0","pricing_plan_id":"cebpf4jnsgd1na2vs0mg"},{"bike_id":"203be60f-5c58-44d6-bd06-d2508ac1fc98","system_id":"levelo_inurba_marseille","lat":43.28,"lon":5.40009,"is_reserved":false,"is_disabled":false,"rental_uris":{"android":"levelo://app?vid=203be60f-5c58-44d6-bd06-d2508ac1fc98","ios":"levelo://app?vid=203be60f-5c58-44d6-bd06-d2508ac1fc98"},"vehicle_type_id":"4","last_reported":1737140855,"current_range_meters":38400,"station_id":"ce4bho92rcd13ifvqh4g","pricing_plan_id":"cebpf4jnsgd1na2vs0mg"},{"bike_id":"aee77450-e637-4195-bb0f-578307372c59","system_id":"levelo_inurba_marseille","lat":43.2988,"lon":5.43656,"is_reserved":false,"is_disabled":false,"rental_uris":{"android":"levelo://app?vid=aee77450-e637-4195-bb0f-578307372c59","ios":"levelo://app?vid=aee77450-e637-4195-bb0f-578307372c59"},"vehicle_type_id":"4","last_reported":1737140855,"current_range_meters":39200,"station_id":"ce4bhpp2rcd13ifvqhfg","pricing_plan_id":"cebpf4jnsgd1na2vs0mg"},{"bike_id":"79c2cb57-9d5d-432d-9de1-0f7d746ceb0a","system_id":"levelo_inurba_marseille","lat":43.28702,"lon":5.37383,"is_reserved":false,"is_disabled":false,"rental_uris":{"android":"levelo://app?vid=79c2cb57-9d5d-432d-9de1-0f7d746ceb0a","ios":"levelo://app?vid=79c2cb57-9d5d-432d-9de1-0f7d746ceb0a"},"vehicle_type_id":"4","last_reported":1737140855,"current_range_meters":22800,"station_id":"ce4bh3p2rcd13ifvqdq0","pricing_plan_id":"cebpf4jnsgd1na2vs0mg"},{"bike_id":"6870a9e0-7988-452a-a0a6-84e136278682","system_id":"levelo_inurba_marseille","lat":43.2655,"lon":5.37294,"is_reserved":false,"is_disabled":false,"rental_uris":{"android":"levelo://app?vid=6870a9e0-7988-452a-a0a6-84e136278682","ios":"levelo://app?vid=6870a9e0-7988-452a-a0a6-84e136278682"},"vehicle_type_id":"4","last_reported":1737140855,"current_range_meters":38800,"station_id":"ce4bhg12rcd13ifvqf70","pricing_plan_id":"cebpf4jnsgd1na2vs0mg"},{"bike_id":"eca6b47e-66a5-44b3-b44c-80357e608f8d","system_id":"levelo_inurba_marseille","lat":43.292053,"lon":5.393312,"is_reserved":false,"is_disabled":true,"rental_uris":{"android":"levelo://app?vid=eca6b47e-66a5-44b3-b44c-80357e608f8d","ios":"levelo://app?vid=eca6b47e-66a5-44b3-b44c-80357e608f8d"},"vehicle_type_id":"4","last_reported":1737140855,"current_range_meters":0,"station_id":"","pricing_plan_id":"cebpf4jnsgd1na2vs0mg"},{"bike_id":"a27817a3-63e6-496f-8562-aae328411ccf","system_id":"levelo_inurba_marseille","lat":43.30131,"lon":5.38765,"is_reserved":false,"is_disabled":false,"rental_uris":{"android":"levelo://app?vid=a27817a3-63e6-496f-8562-aae328411ccf","ios":"levelo://app?vid=a27817a3-63e6-496f-8562-aae328411ccf"},"vehicle_type_id":"4","last_reported":1737140855,"current_range_meters":38800,"station_id":"ce4bghh2rcd13ifvqb60","pricing_plan_id":"cebpf4jnsgd1na2vs0mg"},{"bike_id":"e2e42c8f-e717-48a7-bc22-a022ae7d50b0","system_id":"levelo_inurba_marseille","lat":43.2813,"lon":5.42602,"is_reserved":false,"is_disabled":false,"rental_uris":{"android":"levelo://app?vid=e2e42c8f-e717-48a7-bc22-a022ae7d50b0","ios":"levelo://app?vid=e2e42c8f-e717-48a7-bc22-a022ae7d50b0"},"vehicle_type_id":"4","last_reported":1737140855,"current_range_meters":22800,"station_id":"ce4bhnh2rcd13ifvqgug","pricing_plan_id":"cebpf4jnsgd1na2vs0mg"},{"bike_id":"7ce2b343-ce6f-4f9f-bb89-e1648f70c906","system_id":"levelo_inurba_marseille","lat":43.24806,"lon":5.37454,"is_reserved":false,"is_disabled":false,"rental_uris":{"android":"levelo://app?vid=7ce2b343-ce6f-4f9f-bb89-e1648f70c906","ios":"levelo://app?vid=7ce2b343-ce6f-4f9f-bb89-e1648f70c906"},"vehicle_type_id":"4","last_reported":1737140855,"current_range_meters":31200,"station_id":"ce4bhgh2rcd13ifvqfb0","pricing_plan_id":"cebpf4jnsgd1na2vs0mg"},{"bike_id":"aea7bf98-ca4c-480e-ba38-8307c7dde144","system_id":"levelo_inurba_marseille","lat":43.24819,"lon":5.37443,"is_reserved":false,"is_disabled":false,"rental_uris":{"android":"levelo://app?vid=aea7bf98-ca4c-480e-ba38-8307c7dde144","ios":"levelo://app?vid=aea7bf98-ca4c-480e-ba38-8307c7dde144"},"vehicle_type_id":"4","last_reported":1737140855,"current_range_meters":38800,"station_id":"ce4bhgh2rcd13ifvqfb0","pricing_plan_id":"cebpf4jnsgd1na2vs0mg"},{"bike_id":"b89cb7ae-724e-452d-8d4e-fee6e66b4ccd","system_id":"levelo_inurba_marseille","lat":43.30881,"lon":5.39651,"is_reserved":false,"is_disabled":false,"rental_uris":{"android":"levelo://app?vid=b89cb7ae-724e-452d-8d4e-fee6e66b4ccd","ios":"levelo://app?vid=b89cb7ae-724e-452d-8d4e-fee6e66b4ccd"},"vehicle_type_id":"4","last_reported":1737140855,"current_range_meters":38000,"station_id":"ce4bh012rcd13ifvqcv0","pricing_plan_id":"cebpf4jnsgd1na2vs0mg"},{"bike_id":"3d6d0b55-bd65-42e1-a9a5-16d350ac86ab","system_id":"levelo_inurba_marseille","lat":43.31078,"lon":5.38371,"is_reserved":false,"is_disabled":false,"rental_uris":{"android":"levelo://app?vid=3d6d0b55-bd65-42e1-a9a5-16d350ac86ab","ios":"levelo://app?vid=3d6d0b55-bd65-42e1-a9a5-16d350ac86ab"},"vehicle_type_id":"4","last_reported":1737140855,"current_range_meters":24400,"station_id":"ce4bgv92rcd13ifvqcr0","pricing_plan_id":"cebpf4jnsgd1na2vs0mg"},{"bike_id":"e3dc09b9-3428-49a4-b101-7626b1a84c1f","system_id":"levelo_inurba_marseille","lat":43.25868,"lon":5.39893,"is_reserved":false,"is_disabled":false,"rental_uris":{"android":"levelo://app?vid=e3dc09b9-3428-49a4-b101-7626b1a84c1f","ios":"levelo://app?vid=e3dc09b9-3428-49a4-b101-7626b1a84c1f"},"vehicle_type_id":"4","last_reported":1737140855,"current_range_meters":17200,"station_id":"ce4bhl92rcd13ifvqghg","pricing_plan_id":"cebpf4jnsgd1na2vs0mg"},{"bike_id":"af8b67d2-386b-4625-8301-0fc3a6875093","system_id":"levelo_inurba_marseille","lat":43.31093,"lon":5.42436,"is_reserved":false,"is_disabled":false,"rental_uris":{"android":"levelo://app?vid=af8b67d2-386b-4625-8301-0fc3a6875093","ios":"levelo://app?vid=af8b67d2-386b-4625-8301-0fc3a6875093"},