{"last_updated":1744265682,"ttl":60,"version":"2.2","data":{"bikes":[{"bike_id":"b8ab8700-7c0b-4100-9749-87d3b11b6970","system_id":"levelo_inurba_marseille","lat":43.27946,"lon":5.41037,"is_reserved":false,"is_disabled":false,"rental_uris":{"android":"levelo://app?vid=b8ab8700-7c0b-4100-9749-87d3b11b6970","ios":"levelo://app?vid=b8ab8700-7c0b-4100-9749-87d3b11b6970"},"vehicle_type_id":"4","last_reported":1744265682,"current_range_meters":2800,"station_id":"ce4bhnp2rcd13ifvqh0g","pricing_plan_id":"cebpf4jnsgd1na2vs0mg"},{"bike_id":"3ea27e54-f8eb-412e-930d-2d778578f9d0","system_id":"levelo_inurba_marseille","lat":43.2408,"lon":5.37783,"is_reserved":false,"is_disabled":false,"rental_uris":{"android":"levelo://app?vid=3ea27e54-f8eb-412e-930d-2d778578f9d0","ios":"levelo://app?vid=3ea27e54-f8eb-412e-930d-2d778578f9d0"},"vehicle_type_id":"4","last_reported":1744265682,"current_range_meters":2800,"station_id":"ce4bhnp2rcd13ifvqgvg","pricing_plan_id":"cebpf4jnsgd1na2vs0mg"},{"bike_id":"1b2c0268-b814-40c6-9843-266852b1a466","system_id":"levelo_inurba_marseille","lat":43.26234,"lon":5.40452,"is_reserved":false,"is_disabled":false,"rental_uris":{"android":"levelo://app?vid=1b2c0268-b814-40c6-9843-266852b1a466","ios":"levelo://app?vid=1b2c0268-b814-40c6-9843-266852b1a466"},"vehicle_type_id":"4","last_reported":1744265682,"current_range_meters":2800,"station_id":"ce4bhmh2rcd13ifvqgmg","pricing_plan_id":"cebpf4jnsgd1na2vs0mg"},{"bike_id":"488970c7-ad85-4166-a4ad-456252c5bcc5","system_id":"levelo_inurba_marseille","lat":43.273636,"lon":5.408679,"is_reserved":false,"is_disabled":false,"rental_uris":{"android":"levelo://app?vid=488970c7-ad85-4166-a4ad-456252c5bcc5","ios":"levelo://app?vid=488970c7-ad85-4166-a4ad-456252c5bcc5"},"vehicle_type_id":"4","last_reported":1744265682,"current_range_meters":2800,"station_id":"","pricing_plan_id":"cebpf4jnsgd1na2vs0mg"},{"bike_id":"79b4a3fe-83b6-4a7e-b62d-fbe80c1f5666","system_id":"levelo_inurba_marseille","lat":43.217519,"lon":5.34606,"is_reserved":false,"is_disabled":false,"rental_uris":{"android":"levelo://app?vid=79b4a3fe-83b6-4a7e-b62d-fbe80c1f5666","ios":"levelo://app?vid=79b4a3fe-83b6-4a7e-b62d-fbe80c1f5666"},"vehicle_type_id":"4","last_reported":1744265682,"current_range_meters":3200,"station_id":"st_cvj6r9ubvosntc0bgbag","pricing_plan_id":"cebpf4jnsgd1na2vs0mg"},{"bike_id":"7ea1e01e-9075-4f72-afd8-f1fb3886eee5","system_id":"levelo_inurba_marseille","lat":43.30546,"lon":5.384337,"is_reserved":false,"is_disabled":false,"rental_uris":{"android":"levelo://app?vid=7ea1e01e-9075-4f72-afd8-f1fb3886eee5","ios":"levelo://app?vid=7ea1e01e-9075-4f72-afd8-f1fb3886eee5"},"vehicle_type_id":"4","last_reported":1744265682,"current_range_meters":2800,"station_id":"ce4bgg92rcd13ifvqb30","pricing_plan_id":"cebpf4jnsgd1na2vs0mg"},{"bike_id":"6569a176-a49c-464b-9416-ff731ba8b325","system_id":"levelo_inurba_marseille","lat":43.31116,"lon":5.37777,"is_reserved":false,"is_disabled":true,"rental_uris":{"android":"levelo://app?vid=6569a176-a49c-464b-9416-ff731ba8b325","ios":"levelo://app?vid=6569a176-a49c-464b-9416-ff731ba8b325"},"vehicle_type_id":"4","last_reported":1744265682,"current_range_meters":3200,"station_id":"ce4bgt92rcd13ifvqcg0","pricing_plan_id":"cebpf4jnsgd1na2vs0mg"},{"bike_id":"371af2cb-994c-4853-b658-c5d58726a949","system_id":"levelo_inurba_marseille","lat":43.28931,"lon":5.3962,"is_reserved":false,"is_disabled":false,"rental_uris":{"android":"levelo://app?vid=371af2cb-994c-4853-b658-c5d58726a949","ios":"levelo://app?vid=371af2cb-994c-4853-b658-c5d58726a949"},"vehicle_type_id":"4","last_reported":1744265682,"current_range_meters":3200,"station_id":"ce4bh3h2rcd13ifvqdn0","pricing_plan_id":"cebpf4jnsgd1na2vs0mg"},{"bike_id":"0f052113-23ea-416e-a1dd-c566cca18582","system_id":"levelo_inurba_marseille","lat":43.30472,"lon":5.37919,"is_reserved":false,"is_disabled":false,"rental_uris":{"android":"levelo://app?vid=0f052113-23ea-416e-a1dd-c566cca18582","ios":"levelo://app?vid=0f052113-23ea-416e-a1dd-c566cca18582"},"vehicle_type_id":"4","last_reported":1744265682,"current_range_meters":2800,"station_id":"ce4bgup2rcd13ifvqcn0","pricing_plan_id":"cebpf4jnsgd1na2vs0mg"},{"bike_id":"0818ada8-52c7-46ce-9a95-dc62008539c3","system_id":"levelo_inurba_marseille","lat":43.24668,"lon":5.38183,"is_reserved":false,"is_disabled":true,"rental_uris":{"android":"levelo://app?vid=0818ada8-52c7-46ce-9a95-dc62008539c3","ios":"levelo://app?vid=0818ada8-52c7-46ce-9a95-dc62008539c3"},"vehicle_type_id":"4","last_reported":1744265682,"current_range_meters":3600,"station_id":"ce4bhih2rcd13ifvqfr0","pricing_plan_id":"cebpf4jnsgd1na2vs0mg"},{"bike_id":"feb92024-ef8d-4d32-8809-d978af6a40d4","system_id":"levelo_inurba_marseille","lat":43.30923,"lon":5.40151,"is_reserved":false,"is_disabled":false,"rental_uris":{"android":"levelo://app?vid=feb92024-ef8d-4d32-8809-d978af6a40d4","ios":"levelo://app?vid=feb92024-ef8d-4d32-8809-d978af6a40d4"},"vehicle_type_id":"4","last_reported":1744265682,"current_range_meters":3600,"station_id":"ce4bgvp2rcd13ifvqct0","pricing_plan_id":"cebpf4jnsgd1na2vs0mg"},{"bike_id":"46156e5f-25cc-45da-83c4-da2aa986f209","system_id":"levelo_inurba_marseille","lat":43.24742,"lon":5.41217,"is_reserved":false,"is_disabled":false,"rental_uris":{"android":"levelo://app?vid=46156e5f-25cc-45da-83c4-da2aa986f209","ios":"levelo://app?vid=46156e5f-25cc-45da-83c4-da2aa986f209"},"vehicle_type_id":"4","last_reported":1744265682,"current_range_meters":4000,"station_id":"","pricing_plan_id":"cebpf4jnsgd1na2vs0mg"},{"bike_id":"9dad613b-fd85-481c-8b7c-456e1be1d564","system_id":"levelo_inurba_marseille","lat":43.261971,"lon":5.379441,"is_reserved":false,"is_disabled":false,"rental_uris":{"android":"levelo://app?vid=9dad613b-fd85-481c-8b7c-456e1be1d564","ios":"levelo://app?vid=9dad613b-fd85-481c-8b7c-456e1be1d564"},"vehicle_type_id":"4","last_reported":1744265682,"current_range_meters":4000,"station_id":"ce4bhjp2rcd13ifvqg90","pricing_plan_id":"cebpf4jnsgd1na2vs0mg"},{"bike_id":"ebe1ea58-9f38-4c10-a6da-a9d33ab03a52","system_id":"levelo_inurba_marseille","lat":43.250027,"lon":5.389382,"is_reserved":false,"is_disabled":true,"rental_uris":{"android":"levelo://app?vid=ebe1ea58-9f38-4c10-a6da-a9d33ab03a52","ios":"levelo://app?vid=ebe1ea58-9f38-4c10-a6da-a9d33ab03a52"},"vehicle_type_id":"4","last_reported":1744265682,"current_range_meters":4400,"station_id":"ce4bhgp2rcd13ifvqfd0","pricing_plan_id":"cebpf4jnsgd1na2vs0mg"},{"bike_id":"3bfd792d-8024-4b3d-8c0a-4428de874fa2","system_id":"levelo_inurba_marseille","lat":43.32042,"lon":5.38592,"is_reserved":false,"is_disabled":true,"rental_uris":{"android":"levelo://app?vid=3bfd792d-8024-4b3d-8c0a-4428de874fa2","ios":"levelo://app?vid=3bfd792d-8024-4b3d-8c0a-4428de874fa2"},"vehicle_type_id":"4","last_reported":1744265682,"current_range_meters":4400,"station_id":"","pricing_plan_id":"cebpf4jnsgd1na2vs0mg"},{"bike_id":"03926bc9-f9d8-4451-80fc-eb49eedc74e1","system_id":"levelo_inurba_marseille","lat":43.27818,"lon":5.40694,"is_reserved":false,"is_disabled":false,"rental_uris":{"android":"levelo://app?vid=03926bc9-f9d8-4451-80fc-eb49eedc74e1","ios":"levelo://app?vid=03926bc9-f9d8-4451-80fc-eb49eedc74e1"},"vehicle_type_id":"4","last_reported":1744265682,"current_range_meters":4400,"station_id":"ce4bhnh2rcd13ifvqgtg","pricing_plan_id":"cebpf4jnsgd1na2vs0mg"},{"bike_id":"68d1cc33-0218-451e-8e10-d32225c21263","system_id":"levelo_inurba_marseille","lat":43.23164,"lon":5.43702,"is_reserved":false,"is_disabled":true,"rental_uris":{"android":"levelo://app?vid=68d1cc33-0218-451e-8e10-d32225c21263","ios":"levelo://app?vid=68d1cc33-0218-451e-8e10-d32225c21263"},"vehicle_type_id":"4","last_reported":1744265682,"current_range_meters":4400,"station_id":"ce4bhmp2rcd13ifvqgog","pricing_plan_id":"cebpf4jnsgd1na2vs0mg"},{"bike_id":"4bee73d4-a715-4005-9bfc-343520ad8cda","system_id":"levelo_inurba_marseille","lat":43.30114,"lon":5.38073,"is_reserved":false,"is_disabled":false,"rental_uris":{"android":"levelo://app?vid=4bee73d4-a715-4005-9bfc-343520ad8cda","ios":"levelo://app?vid=4bee73d4-a715-4005-9bfc-343520ad8cda"},"vehicle_type_id":"4","last_reported":1744265682,"current_range_meters":4400,"station_id":"ce4bgjp2rcd13ifvqbh0","pricing_plan_id":"cebpf4jnsgd1na2vs0mg"},{"bike_id":"a2f03441-deaa-4a99-b45c-ecddfc7af2e4","system_id":"levelo_inurba_marseille","lat":43.2904,"lon":5.39975,"is_reserved":false,"is_disabled":false,"rental_uris":{"android":"levelo://app?vid=a2f03441-deaa-4a99-b45c-ecddfc7af2e4","ios":"levelo://app?vid=a2f03441-deaa-4a99-b45c-ecddfc7af2e4"},"vehicle_type_id":"4","last_reported":1744265682,"current_range_meters":4800,"station_id":"ce4bh392rcd13ifvqdm0","pricing_plan_id":"cebpf4jnsgd1na2vs0mg"},{"bike_id":"d3749b08-a34d-44d2-9811-66b4120a7b77","system_id":"levelo_inurba_marseille","lat":43.27828,"lon":5.39202,"is_reserved":false,"is_disabled":false,"rental_uris":{"android":"levelo://app?vid=d3749b08-a34d-44d2-9811-66b4120a7b77","ios":"levelo://app?vid=d3749b08-a34d-44d2-9811-66b4120a7b77"},"vehicle_type_id":"4","last_reported":1744265682,"current_range_meters":4800,"station_id":"ce4bhjp2rcd13ifvqga0","pricing_plan_id":"cebpf4jnsgd1na2vs0mg"},{"bike_id":"04654131-3d30-458d-8662-a761b056cca1","system_id":"levelo_inurba_marseille","lat":43.305924,"lon":5.393302,"is_reserved":false,"is_disabled":false,"rental_uris":{"android":"levelo://app?vid=04654131-3d30-458d-8662-a761b056cca1","ios":"levelo://app?vid=04654131-3d30-458d-8662-a761b056cca1"},"vehicle_type_id":"4","last_reported":1744265682,"current_range_meters":4800,"station_id":"ce4bh0p2rcd13ifvqd80","pricing_plan_id":"cebpf4jnsgd1na2vs0mg"},{"bike_id":"951a075f-4063-499f-95ef-2ec50db6526c","system_id":"levelo_inurba_marseille","lat":43.22936,"lon":5.35397,"is_reserved":false,"is_disabled":false,"rental_uris":{"android":"levelo://app?vid=951a075f-4063-499f-95ef-2ec50db6526c","ios":"levelo://app?vid=951a075f-4063-499f-95ef-2ec50db6526c"},"vehicle_type_id":"4","last_reported":1744265682,"current_range_meters":4800,"station_id":"cpo3532slgdg3j2ikp40","pricing_plan_id":"cebpf4jnsgd1na2vs0mg"},{"bike_id":"bb87c1b4-f608-4b6a-9822-878088c2badf","system_id":"levelo_inurba_marseille","lat":43.2396,"lon":5.36628,"is_reserved":false,"is_disabled":false,"rental_uris":{"android":"levelo://app?vid=bb87c1b4-f608-4b6a-9822-878088c2badf","ios":"levelo://app?vid=bb87c1b4-f608-4b6a-9822-878088c2badf"},"vehicle_type_id":"4","last_reported":1744265682,"current_range_meters":4800,"station_id":"ce4bhi12rcd13ifvqfp0","pricing_plan_id":"cebpf4jnsgd1na2vs0mg"},{"bike_id":"c40a2e2c-2a66-4aa2-81cf-c4ae98211b54","system_id":"levelo_inurba_marseille","lat":43.2174,"lon":5.34606,"is_reserved":false,"is_disabled":false,"rental_uris":{"android":"levelo://app?vid=c40a2e2c-2a66-4aa2-81cf-c4ae98211b54","ios":"levelo://app?vid=c40a2e2c-2a66-4aa2-81cf-c4ae98211b54"},"vehicle_type_id":"4","last_reported":1744265682,"current_range_meters":4800,"station_id":"st_cvj6r9ubvosntc0bgbag","pricing_plan_id":"cebpf4jnsgd1na2vs0mg"},{"bike_id":"755fdb66-f4d6-46b9-9314-d708a0b31240","system_id":"levelo_inurba_marseille","lat":43.30966,"lon":5.40145,"is_reserved":false,"is_disabled":false,"rental_uris":{"android":"levelo://app?vid=755fdb66-f4d6-46b9-9314-d708a0b31240","ios":"levelo://app?vid=755fdb66-f4d6-46b9-9314-d708a0b31240"},"vehicle_type_id":"4","last_reported":1744265682,"current_range_meters":5600,"station_id":"ce4bgvp2rcd13ifvqct0","pricing_plan_id":"cebpf4jnsgd1na2vs0mg"},{"bike_id":"c686a2b1-24de-45b6-9c5e-fb2f8465174e","system_id":"levelo_inurba_marseille","lat":43.2557,"lon":5.38236,"is_reserved":false,"is_disabled":false,"rental_uris":{"android":"levelo://app?vid=c686a2b1-24de-45b6-9c5e-fb2f8465174e","ios":"levelo://app?vid=c686a2b1-24de-45b6-9c5e-fb2f8465174e"},"vehicle_type_id":"4","last_reported":1744265682,"current_range_meters":5600,"station_id":"ce4bhih2rcd13ifvqfs0","pricing_plan_id":"cebpf4jnsgd1na2vs0mg"},{"bike_id":"83c23dd8-d315-428e-b915-6dfe0d42cef7","system_id":"levelo_inurba_marseille","lat":43.31389,"lon":5.36676,"is_reserved":false,"is_disabled":false,"rental_uris":{"android":"levelo://app?vid=83c23dd8-d315-428e-b915-6dfe0d42cef7","ios":"levelo://app?vid=83c23dd8-d315-428e-b915-6dfe0d42cef7"},"vehicle_type_id":"4","last_reported":1744265682,"current_range_meters":5600,"station_id":"","pricing_plan_id":"cebpf4jnsgd1na2vs0mg"},{"bike_id":"70b111b8-ed99-489f-bda5-191b65614235","system_id":"levelo_inurba_marseille","lat":43.262132,"lon":5.37439,"is_reserved":false,"is_disabled":false,"rental_uris":{"android":"levelo://app?vid=70b111b8-ed99-489f-bda5-191b65614235","ios":"levelo://app?vid=70b111b8-ed99-489f-bda5-191b65614235"},"vehicle_type_id":"4","last_reported":1744265682,"current_range_meters":5600,"station_id":"ce4bhgp2rcd13ifvqfc0","pricing_plan_id":"cebpf4jnsgd1na2vs0mg"},{"bike_id":"9550470e-ac84-422f-ae67-92ba2e50e7f7","system_id":"levelo_inurba_marseille","lat":43.25002,"lon":5.38926,"is_reserved":false,"is_disabled":false,"rental_uris":{"android":"levelo://app?vid=9550470e-ac84-422f-ae67-92ba2e50e7f7","ios":"levelo://app?vid=9550470e-ac84-422f-ae67-92ba2e50e7f7"},"vehicle_type_id":"4","last_reported":1744265682,"current_range_meters":6000,"station_id":"ce4bhgp2rcd13ifvqfd0","pricing_plan_id":"cebpf4jnsgd1na2vs0mg"},{"bike_id":"bf0c585e-5b41-4721-a51a-71274899cf15","system_id":"levelo_inurba_marseille","lat":43.29673,"lon":5.3792,"is_reserved":false,"is_disabled":false,"rental_uris":{"android":"levelo://app?vid=bf0c585e-5b41-4721-a51a-71274899cf15","ios":"levelo://app?vid=bf0c585e-5b41-4721-a51a-71274899cf15"},"vehicle_type_id":"4","last_reported":1744265682,"current_range_meters":6000,"station_id":"","pricing_plan_id":"cebpf4jnsgd1na2vs0mg"},{"bike_id":"feca3d9e-12e9-4a3a-8f8a-211aa953b3fa","system_id":"levelo_inurba_marseille","lat":43.29315,"lon":5.41162,"is_reserved":false,"is_disabled":false,"rental_uris":{"android":"levelo://app?vid=feca3d9e-12e9-4a3a-8f8a-211aa953b3fa","ios":"levelo://app?vid=feca3d9e-12e9-4a3a-8f8a-211aa953b3fa"},"vehicle_type_id":"4","last_reported":1744265682,"current_range_meters":6000,"station_id":"","pricing_plan_id":"cebpf4jnsgd1na2vs0mg"},{"bike_id":"52192079-abc7-4176-a679-a5cb7c415f6e","system_id":"levelo_inurba_marseille","lat":43.28846,"lon":5.35879,"is_reserved":false,"is_disabled":false,"rental_uris":{"android":"levelo://app?vid=52192079-abc7-4176-a679-a5cb7c415f6e","ios":"levelo://app?vid=52192079-abc7-4176-a679-a5cb7c415f6e"},"vehicle_type_id":"4","last_reported":1744265682,"current_range_meters":5600,"station_id":"ce4bhb12rcd13ifvqem0","pricing_plan_id":"cebpf4jnsgd1na2vs0mg"},{"bike_id":"80663e12-6b64-446d-88c9-20255bde1a8a","system_id":"levelo_inurba_marseille","lat":43.308841,"lon":5.396503,"is_reserved":false,"is_disabled":true,"rental_uris":{"android":"levelo://app?vid=80663e12-6b64-446d-88c9-20255bde1a8a","ios":"levelo://app?vid=80663e12-6b64-446d-88c9-20255bde1a8a"},"vehicle_type_id":"4","last_reported":1744265682,"current_range_meters":6400,"station_id":"ce4bh012rcd13ifvqcv0","pricing_plan_id":"cebpf4jnsgd1na2vs0mg"},{"bike_id":"e2aa0145-faff-4f13-9b37-4f603831a20a","system_id":"levelo_inurba_marseille","lat":43.30159,"lon":5.38082,"is_reserved":false,"is_disabled":false,"rental_uris":{"android":"levelo://app?vid=e2aa0145-faff-4f13-9b37-4f603831a20a","ios":"levelo://app?vid=e2aa0145-faff-4f13-9b37-4f603831a20a"},"vehicle_type_id":"4","last_reported":1744265682,"current_range_meters":6400,"station_id":"ce4bgjp2rcd13ifvqbh0","pricing_plan_id":"cebpf4jnsgd1na2vs0mg"},{"bike_id":"1adcfecd-7da9-485c-b40f-e62ffc130e51","system_id":"levelo_inurba_marseille","lat":43.21761,"lon":5.34609,"is_reserved":false,"is_disabled":false,"rental_uris":{"android":"levelo://app?vid=1adcfecd-7da9-485c-b40f-e62ffc130e51","ios":"levelo://app?vid=1adcfecd-7da9-485c-b40f-e62ffc130e51"},"vehicle_type_id":"4","last_reported":1744265682,"current_range_meters":6800,"station_id":"st_cvj6r9ubvosntc0bgbag","pricing_plan_id":"cebpf4jnsgd1na2vs0mg"},{"bike_id":"758e8708-ecd2-494d-80c8-3ff8f0fbc44b","system_id":"levelo_inurba_marseille","lat":43.29966,"lon":5.41333,"is_reserved":false,"is_disabled":false,"rental_uris":{"android":"levelo://app?vid=758e8708-ecd2-494d-80c8-3ff8f0fbc44b","ios":"levelo://app?vid=758e8708-ecd2-494d-80c8-3ff8f0fbc44b"},"vehicle_type_id":"4","last_reported":1744265682,"current_range_meters":6800,"station_id":"ce4bhp12rcd13ifvqh9g","pricing_plan_id":"cebpf4jnsgd1na2vs0mg"},{"bike_id":"1d2a2088-b356-435f-a3b2-dc76ce8ea38c","system_id":"levelo_inurba_marseille","lat":43.246674,"lon":5.381581,"is_reserved":false,"is_disabled":false,"rental_uris":{"android":"levelo://app?vid=1d2a2088-b356-435f-a3b2-dc76ce8ea38c","ios":"levelo://app?vid=1d2a2088-b356-435f-a3b2-dc76ce8ea38c"},"vehicle_type_id":"4","last_reported":1744265682,"current_range_meters":6800,"station_id":"ce4bhih2rcd13ifvqfr0","pricing_plan_id":"cebpf4jnsgd1na2vs0mg"},{"bike_id":"de3b769c-3c0e-42df-b3a4-dc4d3c5d5eaf","system_id":"levelo_inurba_marseille","lat":43.30942,"lon":5.40142,"is_reserved":false,"is_disabled":false,"rental_uris":{"android":"levelo://app?vid=de3b769c-3c0e-42df-b3a4-dc4d3c5d5eaf","ios":"levelo://app?vid=de3b769c-3c0e-42df-b3a4-dc4d3c5d5eaf"},"vehicle_type_id":"4","last_reported":1744265682,"current_range_meters":6800,"station_id":"ce4bgvp2rcd13ifvqct0","pricing_plan_id":"cebpf4jnsgd1na2vs0mg"},{"bike_id":"7c41bab6-0404-4314-b218-f822072c5aba","system_id":"levelo_inurba_marseille","lat":43.240846,"lon":5.377582,"is_reserved":false,"is_disabled":false,"rental_uris":{"android":"levelo://app?vid=7c41bab6-0404-4314-b218-f822072c5aba","ios":"levelo://app?vid=7c41bab6-0404-4314-b218-f822072c5aba"},"vehicle_type_id":"4","last_reported":1744265682,"current_range_meters":6800,"station_id":"ce4bhnp2rcd13ifvqgvg","pricing_plan_id":"cebpf4jnsgd1na2vs0mg"},{"bike_id":"08f9c0c8-8b33-4578-8a03-20f44d582241","system_id":"levelo_inurba_marseille","lat":43.30559,"lon":5.369704,"is_reserved":false,"is_disabled":false,"rental_uris":{"android":"levelo://app?vid=08f9c0c8-8b33-4578-8a03-20f44d582241","ios":"levelo://app?vid=08f9c0c8-8b33-4578-8a03-20f44d582241"},"vehicle_type_id":"4","last_reported":1744265682,"current_range_meters":6800,"station_id":"","pricing_plan_id":"cebpf4jnsgd1na2vs0mg"},{"bike_id":"cf249a5f-af00-42a3-891f-2a32c7072ed3","system_id":"levelo_inurba_marseille","lat":43.262109,"lon":5.404651,"is_reserved":false,"is_disabled":false,"rental_uris":{"android":"levelo://app?vid=cf249a5f-af00-42a3-891f-2a32c7072ed3","ios":"levelo://app?vid=cf249a5f-af00-42a3-891f-2a32c7072ed3"},"vehicle_type_id":"4","last_reported":1744265682,"current_range_meters":7200,"station_id":"ce4bhmh2rcd13ifvqgmg","pricing_plan_id":"cebpf4jnsgd1na2vs0mg"},{"bike_id":"dcc3fd34-8610-453e-a7c2-2eb4a39499ce","system_id":"levelo_inurba_marseille","lat":43.29067,"lon":5.40007,"is_reserved":false,"is_disabled":false,"rental_uris":{"android":"levelo://app?vid=dcc3fd34-8610-453e-a7c2-2eb4a39499ce","ios":"levelo://app?vid=dcc3fd34-8610-453e-a7c2-2eb4a39499ce"},"vehicle_type_id":"4","last_reported":1744265682,"current_range_meters":7200,"station_id":"ce4bh392rcd13ifvqdm0","pricing_plan_id":"cebpf4jnsgd1na2vs0mg"},{"bike_id":"10790b2b-c447-40cf-871b-6bee3f31059c","system_id":"levelo_inurba_marseille","lat":43.31665,"lon":5.43645,"is_reserved":false,"is_disabled":false,"rental_uris":{"android":"levelo://app?vid=10790b2b-c447-40cf-871b-6bee3f31059c","ios":"levelo://app?vid=10790b2b-c447-40cf-871b-6bee3f31059c"},"vehicle_type_id":"4","last_reported":1744265682,"current_range_meters":7200,"station_id":"","pricing_plan_id":"cebpf4jnsgd1na2vs0mg"},{"bike_id":"ede9c0a4-625a-46eb-893d-31c2a7af543e","system_id":"levelo_inurba_marseille","lat":43.276725,"lon":5.388742,"is_reserved":false,"is_disabled":false,"rental_uris":{"android":"levelo://app?vid=ede9c0a4-625a-46eb-893d-31c2a7af543e","ios":"levelo://app?vid=ede9c0a4-625a-46eb-893d-31c2a7af543e"},"vehicle_type_id":"4","last_reported":1744265682,"current_range_meters":7200,"station_id":"ce4bhhh2rcd13ifvqfl0","pricing_plan_id":"cebpf4jnsgd1na2vs0mg"},{"bike_id":"4eb280b3-5923-4cd2-a122-21058a7d0c17","system_id":"levelo_inurba_marseille","lat":43.24183,"lon":5.39736,"is_reserved":false,"is_disabled":false,"rental_uris":{"android":"levelo://app?vid=4eb280b3-5923-4cd2-a122-21058a7d0c17","ios":"levelo://app?vid=4eb280b3-5923-4cd2-a122-21058a7d0c17"},"vehicle_type_id":"4","last_reported":1744265682,"current_range_meters":7200,"station_id":"ce4bhn12rcd13ifvqgpg","pricing_plan_id":"cebpf4jnsgd1na2vs0mg"},{"bike_id":"841cc48f-644f-4c42-a397-236e943da4b4","system_id":"levelo_inurba_marseille","lat":43.27049,"lon":5.42306,"is_reserved":false,"is_disabled":false,"rental_uris":{"android":"levelo://app?vid=841cc48f-644f-4c42-a397-236e943da4b4","ios":"levelo://app?vid=841cc48f-644f-4c42-a397-236e943da4b4"},"vehicle_type_id":"4","last_reported":1744265682,"current_range_meters":7200,"station_id":"ce4bhk92rcd13ifvqgb0","pricing_plan_id":"cebpf4jnsgd1na2vs0mg"},{"bike_id":"c6b6975e-7c57-426a-81aa-a263f3e5bca2","system_id":"levelo_inurba_marseille","lat":43.28838,"lon":5.35855,"is_reserved":false,"is_disabled":true,"rental_uris":{"android":"levelo://app?vid=c6b6975e-7c57-426a-81aa-a263f3e5bca2","ios":"levelo://app?vid=c6b6975e-7c57-426a-81aa-a263f3e5bca2"},"vehicle_type_id":"4","last_reported":1744265682,"current_range_meters":7200,"station_id":"ce4bhb12rcd13ifvqem0","pricing_plan_id":"cebpf4jnsgd1na2vs0mg"},{"bike_id":"ded1a5a0-6ea9-4f96-9020-68a2326b5e6d","system_id":"levelo_inurba_marseille","lat":43.29044,"lon":5.39964,"is_reserved":false,"is_disabled":false,"rental_uris":{"android":"levelo://app?vid=ded1a5a0-6ea9-4f96-9020-68a2326b5e6d","ios":"levelo://app?vid=ded1a5a0-6ea9-4f96-9020-68a2326b5e6d"},"vehicle_type_id":"4","last_reported":1744265682,"current_range_meters":8000,"station_id":"ce4bh392rcd13ifvqdm0","pricing_plan_id":"cebpf4jnsgd1na2vs0mg"},{"bike_id":"39ec4d0a-b3ce-405f-a2b1-c9ad7bdbe23b","system_id":"levelo_inurba_marseille","lat":43.24166,"lon":5.39731,"is_reserved":false,"is_disabled":false,"rental_uris":{"android":"levelo://app?vid=39ec4d0a-b3ce-405f-a2b1-c9ad7bdbe23b","ios":"levelo://app?vid=39ec4d0a-b3ce-405f-a2b1-c9ad7bdbe23b"},"vehicle_type_id":"4","last_reported":1744265682,"current_range_meters":8000,"station_id":"ce4bhn12rcd13ifvqgpg","pricing_plan_id":"cebpf4jnsgd1na2vs0mg"},{"bike_id":"0e7051ad-00f7-4897-9995-929c1987289a","system_id":"levelo_inurba_marseille","lat":43.34157,"lon":5.37025,"is_reserved":false,"is_disabled":false,"rental_uris":{"android":"levelo://app?vid=0e7051ad-00f7-4897-9995-929c1987289a","ios":"levelo://app?vid=0e7051ad-00f7-4897-9995-929c1987289a"},"vehicle_type_id":"4","last_reported":1744265682,"current_range_meters":8000,"station_id":"","pricing_plan_id":"cebpf4jnsgd1na2vs0mg"},{"bike_id":"8fa78f52-8834-4b2c-8a1d-e4f911c35cd4","system_id":"levelo_inurba_marseille","lat":43.25729,"lon":5.41095,"is_reserved":false,"is_disabled":true,"rental_uris":{"android":"levelo://app?vid=8fa78f52-8834-4b2c-8a1d-e4f911c35cd4","ios":"levelo://app?vid=8fa78f52-8834-4b2c-8a1d-e4f911c35cd4"},"vehicle_type_id":"4","last_reported":1744265682,"current_range_meters":8400,"station_id":"ce4bhkp2rcd13ifvqgd0","pricing_plan_id":"cebpf4jnsgd1na2vs0mg"},{"bike_id":"6f3fe993-487a-49d3-a0d0-5a8b8b04a7e6","system_id":"levelo_inurba_marseille","lat":43.28664,"lon":5.36364,"is_reserved":false,"is_disabled":false,"rental_uris":{"android":"levelo://app?vid=6f3fe993-487a-49d3-a0d0-5a8b8b04a7e6","ios":"levelo://app?vid=6f3fe993-487a-49d3-a0d0-5a8b8b04a7e6"},"vehicle_type_id":"4","last_reported":1744265682,"current_range_meters":8400,"station_id":"ce4bhah2rcd13ifvqej0","pricing_plan_id":"cebpf4jnsgd1na2vs0mg"},{"bike_id":"1a8c3bfa-7658-4f5e-93b8-93807ec24b6f","system_id":"levelo_inurba_marseille","lat":43.26594,"lon":5.39016,"is_reserved":false,"is_disabled":true,"rental_uris":{"android":"levelo://app?vid=1a8c3bfa-7658-4f5e-93b8-93807ec24b6f","ios":"levelo://app?vid=1a8c3bfa-7658-4f5e-93b8-93807ec24b6f"},"vehicle_type_id":"4","last_reported":1744265682,"current_range_meters":8400,"station_id":"ce4bhe12rcd13ifvqf30","pricing_plan_id":"cebpf4jnsgd1na2vs0mg"},{"bike_id":"2d963557-9b64-405c-a687-90eae256884c","system_id":"levelo_inurba_marseille","lat":43.27058,"lon":5.40261,"is_reserved":false,"is_disabled":false,"rental_uris":{"android":"levelo://app?vid=2d963557-9b64-405c-a687-90eae256884c","ios":"levelo://app?vid=2d963557-9b64-405c-a687-90eae256884c"},"vehicle_type_id":"4","last_reported":1744265682,"current_range_meters":8400,"station_id":"ce4bhk92rcd13ifvqgc0","pricing_plan_id":"cebpf4jnsgd1na2vs0mg"},{"bike_id":"0034db4b-efd6-4119-a358-80e858a45e83","system_id":"levelo_inurba_marseille","lat":43.31775,"lon":5.38922,"is_reserved":false,"is_disabled":false,"rental_uris":{"android":"levelo://app?vid=0034db4b-efd6-4119-a358-80e858a45e83","ios":"levelo://app?vid=0034db4b-efd6-4119-a358-80e858a45e83"},"vehicle_type_id":"4","last_reported":1744265682,"current_range_meters":8400,"station_id":"","pricing_plan_id":"cebpf4jnsgd1na2vs0mg"},{"bike_id":"99ea2e79-e518-4095-adba-bd4c3c9a31d9","system_id":"levelo_inurba_marseille","lat":43.30145,"lon":5.38067,"is_reserved":false,"is_disabled":false,"rental_uris":{"android":"levelo://app?vid=99ea2e79-e518-4095-adba-bd4c3c9a31d9","ios":"levelo://app?vid=99ea2e79-e518-4095-adba-bd4c3c9a31d9"},"vehicle_type_id":"4","last_reported":1744265682,"current_range_meters":8400,"station_id":"ce4bgjp2rcd13ifvqbh0","pricing_plan_id":"cebpf4jnsgd1na2vs0mg"},{"bike_id":"f9fde33d-3e05-4f24-9670-2ad2d1cacdc1","system_id":"levelo_inurba_marseille","lat":43.28847,"lon":5.37285,"is_reserved":false,"is_disabled":false,"rental_uris":{"android":"levelo://app?vid=f9fde33d-3e05-4f24-9670-2ad2d1cacdc1","ios":"levelo://app?vid=f9fde33d-3e05-4f24-9670-2ad2d1cacdc1"},"vehicle_type_id":"4","last_reported":1744265682,"current_range_meters":8400,"station_id":"","pricing_plan_id":"cebpf4jnsgd1na2vs0mg"},{"bike_id":"b0ee8110-12b9-4204-b103-76680f3e4afd","system_id":"levelo_inurba_marseille","lat":43.30652,"lon":5.40091,"is_reserved":false,"is_disabled":false,"rental_uris":{"android":"levelo://app?vid=b0ee8110-12b9-4204-b103-76680f3e4afd","ios":"levelo://app?vid=b0ee8110-12b9-4204-b103-76680f3e4afd"},"vehicle_type_id":"4","last_reported":1744265682,"current_range_meters":8400,"station_id":"ce4bh112rcd13ifvqda0","pricing_plan_id":"cebpf4jnsgd1na2vs0mg"},{"bike_id":"523f199e-c50d-4cd7-8cb0-ecd6da8f7fb1","system_id":"levelo_inurba_marseille","lat":43.31721,"lon":5.42405,"is_reserved":false,"is_disabled":false,"rental_uris":{"android":"levelo://app?vid=523f199e-c50d-4cd7-8cb0-ecd6da8f7fb1","ios":"levelo://app?vid=523f199e-c50d-4cd7-8cb0-ecd6da8f7fb1"},"vehicle_type_id":"4","last_reported":1744265682,"current_range_meters":8800,"station_id":"ce4bhp92rcd13ifvqhbg","pricing_plan_id":"cebpf4jnsgd1na2vs0mg"},{"bike_id":"170603cf-d724-44b3-98d0-fc72f43cacad","system_id":"levelo_inurba_marseille","lat":43.25907,"lon":5.40913,"is_reserved":false,"is_disabled":false,"rental_uris":{"android":"levelo://app?vid=170603cf-d724-44b3-98d0-fc72f43cacad","ios":"levelo://app?vid=170603cf-d724-44b3-98d0-fc72f43cacad"},"vehicle_type_id":"4","last_reported":1744265682,"current_range_meters":8800,"station_id":"ce4bhm92rcd13ifvqglg","pricing_plan_id":"cebpf4jnsgd1na2vs0mg"},{"bike_id":"d0c43b1a-ca98-492c-b318-5108f44559a6","system_id":"levelo_inurba_marseille","lat":43.27979,"lon":5.3874,"is_reserved":false,"is_disabled":false,"rental_uris":{"android":"levelo://app?vid=d0c43b1a-ca98-492c-b318-5108f44559a6","ios":"levelo://app?vid=d0c43b1a-ca98-492c-b318-5108f44559a6"},"vehicle_type_id":"4","last_reported":1744265682,"current_range_meters":8800,"station_id":"ce4bhg12rcd13ifvqf80","pricing_plan_id":"cebpf4jnsgd1na2vs0mg"},{"bike_id":"cce67233-dd03-4648-94dd-de884fc5ad71","system_id":"levelo_inurba_marseille","lat":43.30458,"lon":5.37908,"is_reserved":false,"is_disabled":false,"rental_uris":{"android":"levelo://app?vid=cce67233-dd03-4648-94dd-de884fc5ad71","ios":"levelo://app?vid=cce67233-dd03-4648-94dd-de884fc5ad71"},"vehicle_type_id":"4","last_reported":1744265682,"current_range_meters":9200,"station_id":"ce4bgup2rcd13ifvqcn0","pricing_plan_id":"cebpf4jnsgd1na2vs0mg"},{"bike_id":"17f4902e-c861-4806-a819-8e218247cad7","system_id":"levelo_inurba_marseille","lat":43.24677,"lon":5.38164,"is_reserved":false,"is_disabled":false,"rental_uris":{"android":"levelo://app?vid=17f4902e-c861-4806-a819-8e218247cad7","ios":"levelo://app?vid=17f4902e-c861-4806-a819-8e218247cad7"},"vehicle_type_id":"4","last_reported":1744265682,"current_range_meters":9200,"station_id":"ce4bhih2rcd13ifvqfr0","pricing_plan_id":"cebpf4jnsgd1na2vs0mg"},{"bike_id":"01e31f15-bc9b-4d18-bebd-edf19bcedef2","system_id":"levelo_inurba_marseille","lat":43.287134,"lon":5.379446,"is_reserved":false,"is_disabled":true,"rental_uris":{"android":"levelo://app?vid=01e31f15-bc9b-4d18-bebd-edf19bcedef2","ios":"levelo://app?vid=01e31f15-bc9b-4d18-bebd-edf19bcedef2"},"vehicle_type_id":"4","last_reported":1744265682,"current_range_meters":9200,"station_id":"ce4bh9p2rcd13ifvqec0","pricing_plan_id":"cebpf4jnsgd1na2vs0mg"},{"bike_id":"da89b175-f719-43fe-8eec-54e316ac9d8c","system_id":"levelo_inurba_marseille","lat":43.2956,"lon":5.39965,"is_reserved":false,"is_disabled":false,"rental_uris":{"android":"levelo://app?vid=da89b175-f719-43fe-8eec-54e316ac9d8c","ios":"levelo://app?vid=da89b175-f719-43fe-8eec-54e316ac9d8c"},"vehicle_type_id":"4","last_reported":1744265682,"current_range_meters":9200,"station_id":"ce4bh312rcd13ifvqdj0","pricing_plan_id":"cebpf4jnsgd1na2vs0mg"},{"bike_id":"147f9b4c-1c73-4048-93a4-44a3ec726794","system_id":"levelo_inurba_marseille","lat":43.29521,"lon":5.37491,"is_reserved":false,"is_disabled":true,"rental_uris":{"android":"levelo://app?vid=147f9b4c-1c73-4048-93a4-44a3ec726794","ios":"levelo://app?vid=147f9b4c-1c73-4048-93a4-44a3ec726794"},"vehicle_type_id":"4","last_reported":1744265682,"current_range_meters":9200,"station_id":"ce4bgkp2rcd13ifvqbmg","pricing_plan_id":"cebpf4jnsgd1na2vs0mg"},{"bike_id":"343e005a-cf88-44ec-9a75-3b0a7afa8742","system_id":"levelo_inurba_marseille","lat":43.3149,"lon":5.37307,"is_reserved":false,"is_disabled":false,"rental_uris":{"android":"levelo://app?vid=343e005a-cf88-44ec-9a75-3b0a7afa8742","ios":"levelo://app?vid=343e005a-cf88-44ec-9a75-3b0a7afa8742"},"vehicle_type_id":"4","last_reported":1744265682,"current_range_meters":6400,"station_id":"ce4bgt12rcd13ifvqcd0","pricing_plan_id":"cebpf4jnsgd1na2vs0mg"},{"bike_id":"c6b6c9fe-f58e-4729-b8e2-8688928f31a2","system_id":"levelo_inurba_marseille","lat":43.28667,"lon":5.36364,"is_reserved":false,"is_disabled":false,"rental_uris":{"android":"levelo://app?vid=c6b6c9fe-f58e-4729-b8e2-8688928f31a2","ios":"levelo://app?vid=c6b6c9fe-f58e-4729-b8e2-8688928f31a2"},"vehicle_type_id":"4","last_reported":1744265682,"current_range_meters":9200,"station_id":"ce4bhah2rcd13ifvqej0","pricing_plan_id":"cebpf4jnsgd1na2vs0mg"},{"bike_id":"a2285017-3cc4-4719-a2d1-efc8e7221c46","system_id":"levelo_inurba_marseille","lat":43.25826,"lon":5.3944,"is_reserved":false,"is_disabled":false,"rental_uris":{"android":"levelo://app?vid=a2285017-3cc4-4719-a2d1-efc8e7221c46","ios":"levelo://app?vid=a2285017-3cc4-4719-a2d1-efc8e7221c46"},"vehicle_type_id":"4","last_reported":1744265682,"current_range_meters":9200,"station_id":"ce4bhip2rcd13ifvqft0","pricing_plan_id":"cebpf4jnsgd1na2vs0mg"},{"bike_id":"7aa9249e-fc13-456c-9b36-182090e7d5bc","system_id":"levelo_inurba_marseille","lat":43.29054,"lon":5.39953,"is_reserved":false,"is_disabled":false,"rental_uris":{"android":"levelo://app?vid=7aa9249e-fc13-456c-9b36-182090e7d5bc","ios":"levelo://app?vid=7aa9249e-fc13-456c-9b36-182090e7d5bc"},"vehicle_type_id":"4","last_reported":1744265682,"current_range_meters":9600,"station_id":"ce4bh392rcd13ifvqdm0","pricing_plan_id":"cebpf4jnsgd1na2vs0mg"},{"bike_id":"9f000f15-44e9-41e4-b51d-12e9a7f823c3","system_id":"levelo_inurba_marseille","lat":43.261946,"lon":5.379308,"is_reserved":false,"is_disabled":false,"rental_uris":{"android":"levelo://app?vid=9f000f15-44e9-41e4-b51d-12e9a7f823c3","ios":"levelo://app?vid=9f000f15-44e9-41e4-b51d-12e9a7f823c3"},"vehicle_type_id":"4","last_reported":1744265682,"current_range_meters":9600,"station_id":"ce4bhjp2rcd13ifvqg90","pricing_plan_id":"cebpf4jnsgd1na2vs0mg"},{"bike_id":"68bb489e-c4e2-4ece-ba38-7a818ae7ebb3","system_id":"levelo_inurba_marseille","lat":43.27843,"lon":5.39213,"is_reserved":false,"is_disabled":false,"rental_uris":{"android":"levelo://app?vid=68bb489e-c4e2-4ece-ba38-7a818ae7ebb3","ios":"levelo://app?vid=68bb489e-c4e2-4ece-ba38-7a818ae7ebb3"},"vehicle_type_id":"4","last_reported":1744265682,"current_range_meters":9600,"station_id":"ce4bhjp2rcd13ifvqga0","pricing_plan_id":"cebpf4jnsgd1na2vs0mg"},{"bike_id":"b171ead0-1d48-46ff-a3d0-0edd9c548fbf","system_id":"levelo_inurba_marseille","lat":43.3014,"lon":5.37423,"is_reserved":false,"is_disabled":false,"rental_uris":{"android":"levelo://app?vid=b171ead0-1d48-46ff-a3d0-0edd9c548fbf","ios":"levelo://app?vid=b171ead0-1d48-46ff-a3d0-0edd9c548fbf"},"vehicle_type_id":"4","last_reported":1744265682,"current_range_meters":9600,"station_id":"ce4bgs92rcd13ifvqcc0","pricing_plan_id":"cebpf4jnsgd1na2vs0mg"},{"bike_id":"5f30a5a4-de9f-499e-b151-b811ebb3b43a","system_id":"levelo_inurba_marseille","lat":43.31055,"lon":5.38346,"is_reserved":false,"is_disabled":true,"rental_uris":{"android":"levelo://app?vid=5f30a5a4-de9f-499e-b151-b811ebb3b43a","ios":"levelo://app?vid=5f30a5a4-de9f-499e-b151-b811ebb3b43a"},"vehicle_type_id":"4","last_reported":1744265682,"current_range_meters":9600,"station_id":"ce4bgv92rcd13ifvqcr0","pricing_plan_id":"cebpf4jnsgd1na2vs0mg"},{"bike_id":"6be8c203-c152-49b3-8515-afc88f598724","system_id":"levelo_inurba_marseille","lat":43.272,"lon":5.39178,"is_reserved":false,"is_disabled":false,"rental_uris":{"android":"levelo://app?vid=6be8c203-c152-49b3-8515-afc88f598724","ios":"levelo://app?vid=6be8c203-c152-49b3-8515-afc88f598724"},"vehicle_type_id":"4","last_reported":1744265682,"current_range_meters":9600,"station_id":"ce4bhhp2rcd13ifvqfm0","pricing_plan_id":"cebpf4jnsgd1na2vs0mg"},{"bike_id":"2b057902-5353-4a42-8c4f-71b0e09d4c02","system_id":"levelo_inurba_marseille","lat":43.307312,"lon":5.424486,"is_reserved":false,"is_disabled":false,"rental_uris":{"android":"levelo://app?vid=2b057902-5353-4a42-8c4f-71b0e09d4c02","ios":"levelo://app?vid=2b057902-5353-4a42-8c4f-71b0e09d4c02"},"vehicle_type_id":"4","last_reported":1744265682,"current_range_meters":9600,"station_id":"st_cvj6ca6bvosntc0bfgr0","pricing_plan_id":"cebpf4jnsgd1na2vs0mg"},{"bike_id":"c243072f-6bd2-4d94-ba83-04162cf2a05c","system_id":"levelo_inurba_marseille","lat":43.2726,"lon":5.40174,"is_reserved":false,"is_disabled":false,"rental_uris":{"android":"levelo://app?vid=c243072f-6bd2-4d94-ba83-04162cf2a05c","ios":"levelo://app?vid=c243072f-6bd2-4d94-ba83-04162cf2a05c"},"vehicle_type_id":"4","last_reported":1744265682,"current_range_meters":9600,"station_id":"","pricing_plan_id":"cebpf4jnsgd1na2vs0mg"},{"bike_id":"44cea526-a614-41bc-bc90-59ff54295822","system_id":"levelo_inurba_marseille","lat":43.29095,"lon":5.40142,"is_reserved":false,"is_disabled":false,"rental_uris":{"android":"levelo://app?vid=44cea526-a614-41bc-bc90-59ff54295822","ios":"levelo://app?vid=44cea526-a614-41bc-bc90-59ff54295822"},"vehicle_type_id":"4","last_reported":1744265682,"current_range_meters":9600,"station_id":"","pricing_plan_id":"cebpf4jnsgd1na2vs0mg"},{"bike_id":"9fce7fb9-26b6-4832-9f96-ea1b75c489f0","system_id":"levelo_inurba_marseille","lat":43.21188,"lon":5.35097,"is_reserved":false,"is_disabled":false,"rental_uris":{"android":"levelo://app?vid=9fce7fb9-26b6-4832-9f96-ea1b75c489f0","ios":"levelo://app?vid=9fce7fb9-26b6-4832-9f96-ea1b75c489f0"},"vehicle_type_id":"4","last_reported":1744265682,"current_range_meters":10000,"station_id":"st_cvj6sg6p6f1abm77japg","pricing_plan_id":"cebpf4jnsgd1na2vs0mg"},{"bike_id":"3cfa414a-56ce-4678-b27b-88f21f1ddfeb","system_id":"levelo_inurba_marseille","lat":43.302711,"lon":5.377294,"is_reserved":false,"is_disabled":false,"rental_uris":{"android":"levelo://app?vid=3cfa414a-56ce-4678-b27b-88f21f1ddfeb","ios":"levelo://app?vid=3cfa414a-56ce-4678-b27b-88f21f1ddfeb"},"vehicle_type_id":"4","last_reported":1744265682,"current_range_meters":10000,"station_id":"ce4bguh2rcd13ifvqcj0","pricing_plan_id":"cebpf4jnsgd1na2vs0mg"},{"bike_id":"51220fd5-275f-44db-a81e-280c0ca810af","system_id":"levelo_inurba_marseille","lat":43.32264,"lon":5.38534,"is_reserved":false,"is_disabled":false,"rental_uris":{"android":"levelo://app?vid=51220fd5-275f-44db-a81e-280c0ca810af","ios":"levelo://app?vid=51220fd5-275f-44db-a81e-280c0ca810af"},"vehicle_type_id":"4","last_reported":1744265682,"current_range_meters":10000,"station_id":"","pricing_plan_id":"cebpf4jnsgd1na2vs0mg"},{"bike_id":"b96be04a-adcd-4816-8c18-ee76dccce0e8","system_id":"levelo_inurba_marseille","lat":43.24166,"lon":5.36406,"is_reserved":false,"is_disabled":false,"rental_uris":{"android":"levelo://app?vid=b96be04a-adcd-4816-8c18-ee76dccce0e8","ios":"levelo://app?vid=b96be04a-adcd-4816-8c18-ee76dccce0e8"},"vehicle_type_id":"4","last_reported":1744265682,"current_range_meters":10000,"station_id":"cpo36qri1sfpv3e86is0","pricing_plan_id":"cebpf4jnsgd1na2vs0mg"},{"bike_id":"122cdde6-9512-4fc1-b3dd-8da01087c3ed","system_id":"levelo_inurba_marseille","lat":43.211888,"lon":5.350781,"is_reserved":false,"is_disabled":false,"rental_uris":{"android":"levelo://app?vid=122cdde6-9512-4fc1-b3dd-8da01087c3ed","ios":"levelo://app?vid=122cdde6-9512-4fc1-b3dd-8da01087c3ed"},"vehicle_type_id":"4","last_reported":1744265682,"current_range_meters":10000,"station_id":"","pricing_plan_id":"cebpf4jnsgd1na2vs0mg"},{"bike_id":"370c5ce7-3d00-4a67-b12b-0443c7b825ee","system_id":"levelo_inurba_marseille","lat":43.27683,"lon":5.36333,"is_reserved":false,"is_disabled":false,"rental_uris":{"android":"levelo://app?vid=370c5ce7-3d00-4a67-b12b-0443c7b825ee","ios":"levelo://app?vid=370c5ce7-3d00-4a67-b12b-0443c7b825ee"},"vehicle_type_id":"4","last_reported":1744265682,"current_range_meters":10000,"station_id":"","pricing_plan_id":"cebpf4jnsgd1na2vs0mg"},{"bike_id":"aa2f78da-fdbd-43b8-a925-56430a4469e7","system_id":"levelo_inurba_marseille","lat":43.313737,"lon":5.384983,"is_reserved":false,"is_disabled":false,"rental_uris":{"android":"levelo://app?vid=aa2f78da-fdbd-43b8-a925-56430a4469e7","ios":"levelo://app?vid=aa2f78da-fdbd-43b8-a925-56430a4469e7"},"vehicle_type_id":"4","last_reported":1744265682,"current_range_meters":10000,"station_id":"ce4bgt92rcd13ifvqcf0","pricing_plan_id":"cebpf4jnsgd1na2vs0mg"},{"bike_id":"32714d80-122d-417a-afd8-56c3e6140a5e","system_id":"levelo_inurba_marseille","lat":43.30151,"lon":5.38095,"is_reserved":false,"is_disabled":false,"rental_uris":{"android":"levelo://app?vid=32714d80-122d-417a-afd8-56c3e6140a5e","ios":"levelo://app?vid=32714d80-122d-417a-afd8-56c3e6140a5e"},"vehicle_type_id":"4","last_reported":1744265682,"current_range_meters":10800,"station_id":"ce4bgjp2rcd13ifvqbh0","pricing_plan_id":"cebpf4jnsgd1na2vs0mg"},{"bike_id":"856ad958-667d-4fa3-b7e0-4b6761bd287f","system_id":"levelo_inurba_marseille","lat":43.30346,"lon":5.41901,"is_reserved":false,"is_disabled":false,"rental_uris":{"android":"levelo://app?vid=856ad958-667d-4fa3-b7e0-4b6761bd287f","ios":"levelo://app?vid=856ad958-667d-4fa3-b7e0-4b6761bd287f"},"vehicle_type_id":"4","last_reported":1744265682,"current_range_meters":10800,"station_id":"ce4bhop2rcd13ifvqh7g","pricing_plan_id":"cebpf4jnsgd1na2vs0mg"},{"bike_id":"b4b93a64-d083-4ab2-bbd0-53609c602fb5","system_id":"levelo_inurba_marseille","lat":43.30895,"lon":5.40162,"is_reserved":false,"is_disabled":true,"rental_uris":{"android":"levelo://app?vid=b4b93a64-d083-4ab2-bbd0-53609c602fb5","ios":"levelo://app?vid=b4b93a64-d083-4ab2-bbd0-53609c602fb5"},"vehicle_type_id":"4","last_reported":1744265682,"current_range_meters":10800,"station_id":"ce4bgvp2rcd13ifvqct0","pricing_plan_id":"cebpf4jnsgd1na2vs0mg"},{"bike_id":"f2ddeead-c55a-49b3-90e5-4eec0e251056","system_id":"levelo_inurba_marseille","lat":43.31699,"lon":5.43732,"is_reserved":false,"is_disabled":false,"rental_uris":{"android":"levelo://app?vid=f2ddeead-c55a-49b3-90e5-4eec0e251056","ios":"levelo://app?vid=f2ddeead-c55a-49b3-90e5-4eec0e251056"},"vehicle_type_id":"4","last_reported":1744265682,"current_range_meters":10800,"station_id":"ce4bhp92rcd13ifvqhcg","pricing_plan_id":"cebpf4jnsgd1na2vs0mg"},{"bike_id":"414ede67-eac2-425c-a4ce-c004dccc09ee","system_id":"levelo_inurba_marseille","lat":43.32338,"lon":5.406183,"is_reserved":false,"is_disabled":false,"rental_uris":{"android":"levelo://app?vid=414ede67-eac2-425c-a4ce-c004dccc09ee","ios":"levelo://app?vid=414ede67-eac2-425c-a4ce-c004dccc09ee"},"vehicle_type_id":"4","last_reported":1744265682,"current_range_meters":10800,"station_id":"ce4bhq92rcd13ifvqhjg","pricing_plan_id":"cebpf4jnsgd1na2vs0mg"},{"bike_id":"98d8f500-736c-4251-b859-760d38c9921e","system_id":"levelo_inurba_marseille","lat":43.24168,"lon":5.39703,"is_reserved":false,"is_disabled":false,"rental_uris":{"android":"levelo://app?vid=98d8f500-736c-4251-b859-760d38c9921e","ios":"levelo://app?vid=98d8f500-736c-4251-b859-760d38c9921e"},"vehicle_type_id":"4","last_reported":1744265682,"current_range_meters":11200,"station_id":"ce4bhn12rcd13ifvqgpg","pricing_plan_id":"cebpf4jnsgd1na2vs0mg"},{"bike_id":"aeb5d532-a5df-474f-a469-24b81f00135c","system_id":"levelo_inurba_marseille","lat":43.30361,"lon":5.41874,"is_reserved":false,"is_disabled":false,"rental_uris":{"android":"levelo://app?vid=aeb5d532-a5df-474f-a469-24b81f00135c","ios":"levelo://app?vid=aeb5d532-a5df-474f-a469-24b81f00135c"},"vehicle_type_id":"4","last_reported":1744265682,"current_range_meters":11200,"station_id":"ce4bhop2rcd13ifvqh7g","pricing_plan_id":"cebpf4jnsgd1na2vs0mg"},{"bike_id":"ff93f5ff-b5e4-41b9-b1b0-688640cc788d","system_id":"levelo_inurba_marseille","lat":43.29089,"lon":5.40045,"is_reserved":false,"is_disabled":false,"rental_uris":{"android":"levelo://app?vid=ff93f5ff-b5e4-41b9-b1b0-688640cc788d","ios":"levelo://app?vid=ff93f5ff-b5e4-41b9-b1b0-688640cc788d"},"vehicle_type_id":"4","last_reported":1744265682,"current_range_meters":11200,"station_id":"","pricing_plan_id":"cebpf4jnsgd1na2vs0mg"},{"bike_id":"e6b27e51-7a6f-4c87-9cdb-e0dbaf392783","system_id":"levelo_inurba_marseille","lat":43.31028,"lon":5.39678,"is_reserved":false,"is_disabled":false,"rental_uris":{"android":"levelo://app?vid=e6b27e51-7a6f-4c87-9cdb-e0dbaf392783","ios":"levelo://app?vid=e6b27e51-7a6f-4c87-9cdb-e0dbaf392783"},"vehicle_type_id":"4","last_reported":1744265682,"current_range_meters":11200,"station_id":"","pricing_plan_id":"cebpf4jnsgd1na2vs0mg"},{"bike_id":"8ab6dcfc-9a38-4d9a-b92d-93ebc3289f5f","system_id":"levelo_inurba_marseille","lat":43.260689,"lon":5.393851,"is_reserved":false,"is_disabled":true,"rental_uris":{"android":"levelo://app?vid=8ab6dcfc-9a38-4d9a-b92d-93ebc3289f5f","ios":"levelo://app?vid=8ab6dcfc-9a38-4d9a-b92d-93ebc3289f5f"},"vehicle_type_id":"4","last_reported":1744265682,"current_range_meters":11200,"station_id":"ce4bhh92rcd13ifvqfj0","pricing_plan_id":"cebpf4jnsgd1na2vs0mg"},{"bike_id":"f0a5f6a8-ee1a-4c3c-8234-8b7adf75d0f5","system_id":"levelo_inurba_marseille","lat":43.31128,"lon":5.37769,"is_reserved":false,"is_disabled":false,"rental_uris":{"android":"levelo://app?vid=f0a5f6a8-ee1a-4c3c-8234-8b7adf75d0f5","ios":"levelo://app?vid=f0a5f6a8-ee1a-4c3c-8234-8b7adf75d0f5"},"vehicle_type_id":"4","last_reported":1744265682,"current_range_meters":11600,"station_id":"ce4bgt92rcd13ifvqcg0","pricing_plan_id":"cebpf4jnsgd1na2vs0mg"},{"bike_id":"5a0fa541-6fc2-4ae1-99ec-a2e2ec69a941","system_id":"levelo_inurba_marseille","lat":43.33,"lon":5.43887,"is_reserved":false,"is_disabled":false,"rental_uris":{"android":"levelo://app?vid=5a0fa541-6fc2-4ae1-99ec-a2e2ec69a941","ios":"levelo://app?vid=5a0fa541-6fc2-4ae1-99ec-a2e2ec69a941"},"vehicle_type_id":"4","last_reported":1744265682,"current_range_meters":11600,"station_id":"","pricing_plan_id":"cebpf4jnsgd1na2vs0mg"},{"bike_id":"4d2b5cd5-2c6c-4905-b4b8-8faa5aae631b","system_id":"levelo_inurba_marseille","lat":43.33104,"lon":5.39359,"is_reserved":false,"is_disabled":false,"rental_uris":{"android":"levelo://app?vid=4d2b5cd5-2c6c-4905-b4b8-8faa5aae631b","ios":"levelo://app?vid=4d2b5cd5-2c6c-4905-b4b8-8faa5aae631b"},"vehicle_type_id":"4","last_reported":1744265682,"current_range_meters":11600,"station_id":"","pricing_plan_id":"cebpf4jnsgd1na2vs0mg"},{"bike_id":"ba5b2267-01ae-4ff2-9af2-8f2cfd3174e7","system_id":"levelo_inurba_marseille","lat":43.28664,"lon":5.36345,"is_reserved":false,"is_disabled":false,"rental_uris":{"android":"levelo://app?vid=ba5b2267-01ae-4ff2-9af2-8f2cfd3174e7","ios":"levelo://app?vid=ba5b2267-01ae-4ff2-9af2-8f2cfd3174e7"},"vehicle_type_id":"4","last_reported":1744265682,"current_range_meters":12000,"station_id":"ce4bhah2rcd13ifvqej0","pricing_plan_id":"cebpf4jnsgd1na2vs0mg"},{"bike_id":"e0476c0e-a959-4015-95ba-29036985598e","system_id":"levelo_inurba_marseille","lat":43.2871,"lon":5.3999,"is_reserved":false,"is_disabled":false,"rental_uris":{"android":"levelo://app?vid=e0476c0e-a959-4015-95ba-29036985598e","ios":"levelo://app?vid=e0476c0e-a959-4015-95ba-29036985598e"},"vehicle_type_id":"4","last_reported":1744265682,"current_range_meters":12000,"station_id":"ce4bho92rcd13ifvqh3g","pricing_plan_id":"cebpf4jnsgd1na2vs0mg"},{"bike_id":"cc29b15f-44c2-432a-b8c5-44e366421085","system_id":"levelo_inurba_marseille","lat":43.32297,"lon":5.38602,"is_reserved":false,"is_disabled":false,"rental_uris":{"android":"levelo://app?vid=cc29b15f-44c2-432a-b8c5-44e366421085","ios":"levelo://app?vid=cc29b15f-44c2-432a-b8c5-44e366421085"},"vehicle_type_id":"4","last_reported":1744265682,"current_range_meters":12000,"station_id":"","pricing_plan_id":"cebpf4jnsgd1na2vs0mg"},{"bike_id":"5829cd0d-c17e-4de3-b63f-9cd151926e69","system_id":"levelo_inurba_marseille","lat":43.296,"lon":5.36761,"is_reserved":false,"is_disabled":true,"rental_uris":{"android":"levelo://app?vid=5829cd0d-c17e-4de3-b63f-9cd151926e69","ios":"levelo://app?vid=5829cd0d-c17e-4de3-b63f-9cd151926e69"},"vehicle_type_id":"4","last_reported":1744265682,"current_range_meters":12000,"station_id":"ce4bgph2rcd13ifvqc2g","pricing_plan_id":"cebpf4jnsgd1na2vs0mg"},{"bike_id":"1b11e802-82e9-43e0-a416-26d67f74d93b","system_id":"levelo_inurba_marseille","lat":43.26684,"lon":5.38272,"is_reserved":false,"is_disabled":false,"rental_uris":{"android":"levelo://app?vid=1b11e802-82e9-43e0-a416-26d67f74d93b","ios":"levelo://app?vid=1b11e802-82e9-43e0-a416-26d67f74d93b"},"vehicle_type_id":"4","last_reported":1744265682,"current_range_meters":12400,"station_id":"ce4bhg92rcd13ifvqf90","pricing_plan_id":"cebpf4jnsgd1na2vs0mg"},{"bike_id":"5d14c852-7d39-4daa-9337-9b008497a52a","system_id":"levelo_inurba_marseille","lat":43.294228,"lon":5.386123,"is_reserved":false,"is_disabled":true,"rental_uris":{"android":"levelo://app?vid=5d14c852-7d39-4daa-9337-9b008497a52a","ios":"levelo://app?vid=5d14c852-7d39-4daa-9337-9b008497a52a"},"vehicle_type_id":"4","last_reported":1744265682,"current_range_meters":12400,"station_id":"ce4bh2h2rcd13ifvqdh0","pricing_plan_id":"cebpf4jnsgd1na2vs0mg"},{"bike_id":"5dbf4d59-32b9-4e03-b876-ede11b8122f0","system_id":"levelo_inurba_marseille","lat":43.30164,"lon":5.38091,"is_reserved":false,"is_disabled":false,"rental_uris":{"android":"levelo://app?vid=5dbf4d59-32b9-4e03-b876-ede11b8122f0","ios":"levelo://app?vid=5dbf4d59-32b9-4e03-b876-ede11b8122f0"},"vehicle_type_id":"4","last_reported":1744265682,"current_range_meters":12400,"station_id":"ce4bgjp2rcd13ifvqbh0","pricing_plan_id":"cebpf4jnsgd1na2vs0mg"},{"bike_id":"5a84d50b-7780-48f0-a51a-ab983dd952b8","system_id":"levelo_inurba_marseille","lat":43.30472,"lon":5.37907,"is_reserved":false,"is_disabled":false,"rental_uris":{"android":"levelo://app?vid=5a84d50b-7780-48f0-a51a-ab983dd952b8","ios":"levelo://app?vid=5a84d50b-7780-48f0-a51a-ab983dd952b8"},"vehicle_type_id":"4","last_reported":1744265682,"current_range_meters":12400,"station_id":"ce4bgup2rcd13ifvqcn0","pricing_plan_id":"cebpf4jnsgd1na2vs0mg"},{"bike_id":"5bf3f4a1-3271-4dad-9593-ab76c7ea5f4f","system_id":"levelo_inurba_marseille","lat":43.30549,"lon":5.36541,"is_reserved":false,"is_disabled":false,"rental_uris":{"android":"levelo://app?vid=5bf3f4a1-3271-4dad-9593-ab76c7ea5f4f","ios":"levelo://app?vid=5bf3f4a1-3271-4dad-9593-ab76c7ea5f4f"},"vehicle_type_id":"4","last_reported":1744265682,"current_range_meters":12400,"station_id":"ce4bgs12rcd13ifvqcag","pricing_plan_id":"cebpf4jnsgd1na2vs0mg"},{"bike_id":"42c1fdc6-38af-4ea1-a910-702e15d5a9b4","system_id":"levelo_inurba_marseille","lat":43.30921,"lon":5.40151,"is_reserved":false,"is_disabled":true,"rental_uris":{"android":"levelo://app?vid=42c1fdc6-38af-4ea1-a910-702e15d5a9b4","ios":"levelo://app?vid=42c1fdc6-38af-4ea1-a910-702e15d5a9b4"},"vehicle_type_id":"4","last_reported":1744265682,"current_range_meters":12400,"station_id":"ce4bgvp2rcd13ifvqct0","pricing_plan_id":"cebpf4jnsgd1na2vs0mg"},{"bike_id":"5a8f704b-8c8c-4630-9740-2c51c160a002","system_id":"levelo_inurba_marseille","lat":43.30148,"lon":5.38075,"is_reserved":false,"is_disabled":false,"rental_uris":{"android":"levelo://app?vid=5a8f704b-8c8c-4630-9740-2c51c160a002","ios":"levelo://app?vid=5a8f704b-8c8c-4630-9740-2c51c160a002"},"vehicle_type_id":"4","last_reported":1744265682,"current_range_meters":12400,"station_id":"ce4bgjp2rcd13ifvqbh0","pricing_plan_id":"cebpf4jnsgd1na2vs0mg"},{"bike_id":"5047455d-c97a-4875-9440-a0dd56a0356d","system_id":"levelo_inurba_marseille","lat":43.32358,"lon":5.36759,"is_reserved":false,"is_disabled":false,"rental_uris":{"android":"levelo://app?vid=5047455d-c97a-4875-9440-a0dd56a0356d","ios":"levelo://app?vid=5047455d-c97a-4875-9440-a0dd56a0356d"},"vehicle_type_id":"4","last_reported":1744265682,"current_range_meters":12400,"station_id":"ce4bhsh2rcd13ifvqi2g","pricing_plan_id":"cebpf4jnsgd1na2vs0mg"},{"bike_id":"ae7f5023-ae11-420f-985c-1ea539511dfd","system_id":"levelo_inurba_marseille","lat":43.30368,"lon":5.41813,"is_reserved":false,"is_disabled":false,"rental_uris":{"android":"levelo://app?vid=ae7f5023-ae11-420f-985c-1ea539511dfd","ios":"levelo://app?vid=ae7f5023-ae11-420f-985c-1ea539511dfd"},"vehicle_type_id":"4","last_reported":1744265682,"current_range_meters":12400,"station_id":"ce4bhop2rcd13ifvqh7g","pricing_plan_id":"cebpf4jnsgd1na2vs0mg"},{"bike_id":"1a3cd0ab-ec77-41b3-982c-74e5093499a8","system_id":"levelo_inurba_marseille","lat":43.30451,"lon":5.38913,"is_reserved":false,"is_disabled":true,"rental_uris":{"android":"levelo://app?vid=1a3cd0ab-ec77-41b3-982c-74e5093499a8","ios":"levelo://app?vid=1a3cd0ab-ec77-41b3-982c-74e5093499a8"},"vehicle_type_id":"4","last_reported":1744265682,"current_range_meters":12800,"station_id":"ce4bgk12rcd13ifvqbi0","pricing_plan_id":"cebpf4jnsgd1na2vs0mg"},{"bike_id":"5fb7c417-bf5d-4451-874a-0354d5f8c51d","system_id":"levelo_inurba_marseille","lat":43.28468,"lon":5.39194,"is_reserved":false,"is_disabled":false,"rental_uris":{"android":"levelo://app?vid=5fb7c417-bf5d-4451-874a-0354d5f8c51d","ios":"levelo://app?vid=5fb7c417-bf5d-4451-874a-0354d5f8c51d"},"vehicle_type_id":"4","last_reported":1744265682,"current_range_meters":12800,"station_id":"ce4bhoh2rcd13ifvqh5g","pricing_plan_id":"cebpf4jnsgd1na2vs0mg"},{"bike_id":"a18ac900-59de-4b74-9131-b1a2764dbc18","system_id":"levelo_inurba_marseille","lat":43.280742,"lon":5.396428,"is_reserved":false,"is_disabled":false,"rental_uris":{"android":"levelo://app?vid=a18ac900-59de-4b74-9131-b1a2764dbc18","ios":"levelo://app?vid=a18ac900-59de-4b74-9131-b1a2764dbc18"},"vehicle_type_id":"4","last_reported":1744265682,"current_range_meters":12800,"station_id":"ce4bho12rcd13ifvqh2g","pricing_plan_id":"cebpf4jnsgd1na2vs0mg"},{"bike_id":"8ef273ac-c689-4f24-a851-468efa4e0854","system_id":"levelo_inurba_marseille","lat":43.290157,"lon":5.36835,"is_reserved":false,"is_disabled":false,"rental_uris":{"android":"levelo://app?vid=8ef273ac-c689-4f24-a851-468efa4e0854","ios":"levelo://app?vid=8ef273ac-c689-4f24-a851-468efa4e0854"},"vehicle_type_id":"4","last_reported":1744265682,"current_range_meters":12800,"station_id":"","pricing_plan_id":"cebpf4jnsgd1na2vs0mg"},{"bike_id":"9b82f406-39b0-4553-bbda-77cf3b0d0d86","system_id":"levelo_inurba_marseille","lat":43.27944,"lon":5.41056,"is_reserved":false,"is_disabled":false,"rental_uris":{"android":"levelo://app?vid=9b82f406-39b0-4553-bbda-77cf3b0d0d86","ios":"levelo://app?vid=9b82f406-39b0-4553-bbda-77cf3b0d0d86"},"vehicle_type_id":"4","last_reported":1744265682,"current_range_meters":12800,"station_id":"ce4bhnp2rcd13ifvqh0g","pricing_plan_id":"cebpf4jnsgd1na2vs0mg"},{"bike_id":"ae158248-d8c1-42a9-9466-b356e48cc0e3","system_id":"levelo_inurba_marseille","lat":43.30774,"lon":5.38162,"is_reserved":false,"is_disabled":false,"rental_uris":{"android":"levelo://app?vid=ae158248-d8c1-42a9-9466-b356e48cc0e3","ios":"levelo://app?vid=ae158248-d8c1-42a9-9466-b356e48cc0e3"},"vehicle_type_id":"4","last_reported":1744265682,"current_range_meters":13600,"station_id":"ce4bgt12rcd13ifvqce0","pricing_plan_id":"cebpf4jnsgd1na2vs0mg"},{"bike_id":"12e9a811-6973-4c16-b3bc-e69c3717a772","system_id":"levelo_inurba_marseille","lat":43.28917,"lon":5.36381,"is_reserved":false,"is_disabled":false,"rental_uris":{"android":"levelo://app?vid=12e9a811-6973-4c16-b3bc-e69c3717a772","ios":"levelo://app?vid=12e9a811-6973-4c16-b3bc-e69c3717a772"},"vehicle_type_id":"4","last_reported":1744265682,"current_range_meters":14000,"station_id":"ce4bhc92rcd13ifvqetg","pricing_plan_id":"cebpf4jnsgd1na2vs0mg"},{"bike_id":"066918e9-658d-41fb-94df-83bd20a02c25","system_id":"levelo_inurba_marseille","lat":43.23056,"lon":5.355,"is_reserved":false,"is_disabled":true,"rental_uris":{"android":"levelo://app?vid=066918e9-658d-41fb-94df-83bd20a02c25","ios":"levelo://app?vid=066918e9-658d-41fb-94df-83bd20a02c25"},"vehicle_type_id":"4","last_reported":1744265682,"current_range_meters":14000,"station_id":"cpo3342slgdg3j2ifvpg","pricing_plan_id":"cebpf4jnsgd1na2vs0mg"},{"bike_id":"ca2fd1b3-b56a-4fed-8207-b1e788f9af74","system_id":"levelo_inurba_marseille","lat":43.23156,"lon":5.43725,"is_reserved":false,"is_disabled":false,"rental_uris":{"android":"levelo://app?vid=ca2fd1b3-b56a-4fed-8207-b1e788f9af74","ios":"levelo://app?vid=ca2fd1b3-b56a-4fed-8207-b1e788f9af74"},"vehicle_type_id":"4","last_reported":1744265682,"current_range_meters":14000,"station_id":"ce4bhmp2rcd13ifvqgog","pricing_plan_id":"cebpf4jnsgd1na2vs0mg"},{"bike_id":"934d286e-1a7a-4e88-8688-5048b50c70aa","system_id":"levelo_inurba_marseille","lat":43.278327,"lon":5.392116,"is_reserved":false,"is_disabled":false,"rental_uris":{"android":"levelo://app?vid=934d286e-1a7a-4e88-8688-5048b50c70aa","ios":"levelo://app?vid=934d286e-1a7a-4e88-8688-5048b50c70aa"},"vehicle_type_id":"4","last_reported":1744265682,"current_range_meters":14000,"station_id":"ce4bhjp2rcd13ifvqga0","pricing_plan_id":"cebpf4jnsgd1na2vs0mg"},{"bike_id":"1c9b9160-57ea-46a2-9b6b-84016a625341","system_id":"levelo_inurba_marseille","lat":43.29051,"lon":5.39966,"is_reserved":false,"is_disabled":false,"rental_uris":{"android":"levelo://app?vid=1c9b9160-57ea-46a2-9b6b-84016a625341","ios":"levelo://app?vid=1c9b9160-57ea-46a2-9b6b-84016a625341"},"vehicle_type_id":"4","last_reported":1744265682,"current_range_meters":14400,"station_id":"ce4bh392rcd13ifvqdm0","pricing_plan_id":"cebpf4jnsgd1na2vs0mg"},{"bike_id":"4485c6b3-d6c5-4efc-8f45-4ff15fc7d8e2","system_id":"levelo_inurba_marseille","lat":43.23155,"lon":5.43711,"is_reserved":false,"is_disabled":false,"rental_uris":{"android":"levelo://app?vid=4485c6b3-d6c5-4efc-8f45-4ff15fc7d8e2","ios":"levelo://app?vid=4485c6b3-d6c5-4efc-8f45-4ff15fc7d8e2"},"vehicle_type_id":"4","last_reported":1744265682,"current_range_meters":14800,"station_id":"ce4bhmp2rcd13ifvqgog","pricing_plan_id":"cebpf4jnsgd1na2vs0mg"},{"bike_id":"360a7d66-a234-4b05-98df-f521dc18eb2c","system_id":"levelo_inurba_marseille","lat":43.28355,"lon":5.38625,"is_reserved":false,"is_disabled":false,"rental_uris":{"android":"levelo://app?vid=360a7d66-a234-4b05-98df-f521dc18eb2c","ios":"levelo://app?vid=360a7d66-a234-4b05-98df-f521dc18eb2c"},"vehicle_type_id":"4","last_reported":1744265682,"current_range_meters":14800,"station_id":"ce4bh492rcd13ifvqdvg","pricing_plan_id":"cebpf4jnsgd1na2vs0mg"},{"bike_id":"58a06d5c-23f8-466b-a88d-449307d0c901","system_id":"levelo_inurba_marseille","lat":43.31541,"lon":5.36862,"is_reserved":false,"is_disabled":false,"rental_uris":{"android":"levelo://app?vid=58a06d5c-23f8-466b-a88d-449307d0c901","ios":"levelo://app?vid=58a06d5c-23f8-466b-a88d-449307d0c901"},"vehicle_type_id":"4","last_reported":1744265682,"current_range_meters":14800,"station_id":"","pricing_plan_id":"cebpf4jnsgd1na2vs0mg"},{"bike_id":"7b1192f6-a8fa-4944-a13f-4c346d2e8d61","system_id":"levelo_inurba_marseille","lat":43.284636,"lon":5.358872,"is_reserved":false,"is_disabled":false,"rental_uris":{"android":"levelo://app?vid=7b1192f6-a8fa-4944-a13f-4c346d2e8d61","ios":"levelo://app?vid=7b1192f6-a8fa-4944-a13f-4c346d2e8d61"},"vehicle_type_id":"4","last_reported":1744265682,"current_range_meters":14800,"station_id":"ce4bhi12rcd13ifvqfq0","pricing_plan_id":"cebpf4jnsgd1na2vs0mg"},{"bike_id":"8c93752d-8251-4dff-a3c2-041eef3ca3db","system_id":"levelo_inurba_marseille","lat":43.25585,"lon":5.38243,"is_reserved":false,"is_disabled":false,"rental_uris":{"android":"levelo://app?vid=8c93752d-8251-4dff-a3c2-041eef3ca3db","ios":"levelo://app?vid=8c93752d-8251-4dff-a3c2-041eef3ca3db"},"vehicle_type_id":"4","last_reported":1744265682,"current_range_meters":15200,"station_id":"ce4bhih2rcd13ifvqfs0","pricing_plan_id":"cebpf4jnsgd1na2vs0mg"},{"bike_id":"6d76978a-2740-4f57-9972-fcce06d4c9a8","system_id":"levelo_inurba_marseille","lat":43.31304,"lon":5.36708,"is_reserved":false,"is_disabled":false,"rental_uris":{"android":"levelo://app?vid=6d76978a-2740-4f57-9972-fcce06d4c9a8","ios":"levelo://app?vid=6d76978a-2740-4f57-9972-fcce06d4c9a8"},"vehicle_type_id":"4","last_reported":1744265682,"current_range_meters":15200,"station_id":"ce4bgr92rcd13ifvqc6g","pricing_plan_id":"cebpf4jnsgd1na2vs0mg"},{"bike_id":"e3c3a051-8134-4ed3-913b-374aa217874c","system_id":"levelo_inurba_marseille","lat":43.2559,"lon":5.40455,"is_reserved":false,"is_disabled":false,"rental_uris":{"android":"levelo://app?vid=e3c3a051-8134-4ed3-913b-374aa217874c","ios":"levelo://app?vid=e3c3a051-8134-4ed3-913b-374aa217874c"},"vehicle_type_id":"4","last_reported":1744265682,"current_range_meters":15200,"station_id":"","pricing_plan_id":"cebpf4jnsgd1na2vs0mg"},{"bike_id":"e305259c-6e8b-4c30-bb3e-d31643eeb2cc","system_id":"levelo_inurba_marseille","lat":43.29267,"lon":5.401,"is_reserved":false,"is_disabled":false,"rental_uris":{"android":"levelo://app?vid=e305259c-6e8b-4c30-bb3e-d31643eeb2cc","ios":"levelo://app?vid=e305259c-6e8b-4c30-bb3e-d31643eeb2cc"},"vehicle_type_id":"4","last_reported":1744265682,"current_range_meters":15200,"station_id":"ce4bh312rcd13ifvqdk0","pricing_plan_id":"cebpf4jnsgd1na2vs0mg"},{"bike_id":"5b330a5a-9ad5-4c84-bd4a-392268a14414","system_id":"levelo_inurba_marseille","lat":43.28946,"lon":5.36396,"is_reserved":false,"is_disabled":false,"rental_uris":{"android":"levelo://app?vid=5b330a5a-9ad5-4c84-bd4a-392268a14414","ios":"levelo://app?vid=5b330a5a-9ad5-4c84-bd4a-392268a14414"},"vehicle_type_id":"4","last_reported":1744265682,"current_range_meters":15200,"station_id":"ce4bhc92rcd13ifvqetg","pricing_plan_id":"cebpf4jnsgd1na2vs0mg"},{"bike_id":"39d569f2-804d-4c1f-93cb-ffdd8bba0563","system_id":"levelo_inurba_marseille","lat":43.30543,"lon":5.38422,"is_reserved":false,"is_disabled":true,"rental_uris":{"android":"levelo://app?vid=39d569f2-804d-4c1f-93cb-ffdd8bba0563","ios":"levelo://app?vid=39d569f2-804d-4c1f-93cb-ffdd8bba0563"},"vehicle_type_id":"4","last_reported":1744265682,"current_range_meters":16000,"station_id":"ce4bgg92rcd13ifvqb30","pricing_plan_id":"cebpf4jnsgd1na2vs0mg"},{"bike_id":"f78bf8a8-b506-43e9-9fc4-9ec4cb688e82","system_id":"levelo_inurba_marseille","lat":43.32096,"lon":5.36769,"is_reserved":false,"is_disabled":true,"rental_uris":{"android":"levelo://app?vid=f78bf8a8-b506-43e9-9fc4-9ec4cb688e82","ios":"levelo://app?vid=f78bf8a8-b506-43e9-9fc4-9ec4cb688e82"},"vehicle_type_id":"4","last_reported":1744265682,"current_range_meters":16000,"station_id":"","pricing_plan_id":"cebpf4jnsgd1na2vs0mg"},{"bike_id":"771e5c88-0894-4838-8ec4-4667279f7dd9","system_id":"levelo_inurba_marseille","lat":43.23268,"lon":5.43821,"is_reserved":false,"is_disabled":false,"rental_uris":{"android":"levelo://app?vid=771e5c88-0894-4838-8ec4-4667279f7dd9","ios":"levelo://app?vid=771e5c88-0894-4838-8ec4-4667279f7dd9"},"vehicle_type_id":"4","last_reported":1744265682,"current_range_meters":16000,"station_id":"ce4bhmp2rcd13ifvqgog","pricing_plan_id":"cebpf4jnsgd1na2vs0mg"},{"bike_id":"640b6901-af87-4cbb-84ba-cf000e7c8d63","system_id":"levelo_inurba_marseille","lat":43.26488,"lon":5.39566,"is_reserved":false,"is_disabled":true,"rental_uris":{"android":"levelo://app?vid=640b6901-af87-4cbb-84ba-cf000e7c8d63","ios":"levelo://app?vid=640b6901-af87-4cbb-84ba-cf000e7c8d63"},"vehicle_type_id":"4","last_reported":1744265682,"current_range_meters":16000,"station_id":"ce4bhi12rcd13ifvqfq0","pricing_plan_id":"cebpf4jnsgd1na2vs0mg"},{"bike_id":"459bc253-387d-45df-930d-539d8d2b9124","system_id":"levelo_inurba_marseille","lat":43.24182,"lon":5.39726,"is_reserved":false,"is_disabled":false,"rental_uris":{"android":"levelo://app?vid=459bc253-387d-45df-930d-539d8d2b9124","ios":"levelo://app?vid=459bc253-387d-45df-930d-539d8d2b9124"},"vehicle_type_id":"4","last_reported":1744265682,"current_range_meters":16000,"station_id":"ce4bhn12rcd13ifvqgpg","pricing_plan_id":"cebpf4jnsgd1na2vs0mg"},{"bike_id":"8fc75a06-b383-4356-9ce0-507c4c1bc08f","system_id":"levelo_inurba_marseille","lat":43.270643,"lon":5.422769,"is_reserved":false,"is_disabled":false,"rental_uris":{"android":"levelo://app?vid=8fc75a06-b383-4356-9ce0-507c4c1bc08f","ios":"levelo://app?vid=8fc75a06-b383-4356-9ce0-507c4c1bc08f"},"vehicle_type_id":"4","last_reported":1744265682,"current_range_meters":16000,"station_id":"ce4bhk92rcd13ifvqgb0","pricing_plan_id":"cebpf4jnsgd1na2vs0mg"},{"bike_id":"073955c6-6f8e-4d79-bdbc-3802d168fcc3","system_id":"levelo_inurba_marseille","lat":43.2417,"lon":5.36413,"is_reserved":false,"is_disabled":false,"rental_uris":{"android":"levelo://app?vid=073955c6-6f8e-4d79-bdbc-3802d168fcc3","ios":"levelo://app?vid=073955c6-6f8e-4d79-bdbc-3802d168fcc3"},"vehicle_type_id":"4","last_reported":1744265682,"current_range_meters":16000,"station_id":"cpo36qri1sfpv3e86is0","pricing_plan_id":"cebpf4jnsgd1na2vs0mg"},{"bike_id":"d44ff2b9-417e-4368-bebb-1fc974db3122","system_id":"levelo_inurba_marseille","lat":43.33642,"lon":5.39758,"is_reserved":false,"is_disabled":false,"rental_uris":{"android":"levelo://app?vid=d44ff2b9-417e-4368-bebb-1fc974db3122","ios":"levelo://app?vid=d44ff2b9-417e-4368-bebb-1fc974db3122"},"vehicle_type_id":"4","last_reported":1744265682,"current_range_meters":16000,"station_id":"","pricing_plan_id":"cebpf4jnsgd1na2vs0mg"},{"bike_id":"d1f92f28-9609-4256-bd4a-880c7b09d4e8","system_id":"levelo_inurba_marseille","lat":43.293286,"lon":5.411511,"is_reserved":false,"is_disabled":false,"rental_uris":{"android":"levelo://app?vid=d1f92f28-9609-4256-bd4a-880c7b09d4e8","ios":"levelo://app?vid=d1f92f28-9609-4256-bd4a-880c7b09d4e8"},"vehicle_type_id":"4","last_reported":1744265682,"current_range_meters":16000,"station_id":"","pricing_plan_id":"cebpf4jnsgd1na2vs0mg"},{"bike_id":"740ed816-09b2-41bd-867d-52a35d1745f1","system_id":"levelo_inurba_marseille","lat":43.24653,"lon":5.38208,"is_reserved":false,"is_disabled":true,"rental_uris":{"android":"levelo://app?vid=740ed816-09b2-41bd-867d-52a35d1745f1","ios":"levelo://app?vid=740ed816-09b2-41bd-867d-52a35d1745f1"},"vehicle_type_id":"4","last_reported":1744265682,"current_range_meters":16400,"station_id":"ce4bhih2rcd13ifvqfr0","pricing_plan_id":"cebpf4jnsgd1na2vs0mg"},{"bike_id":"231aaa88-1e79-4a74-a543-651d8fd5a027","system_id":"levelo_inurba_marseille","lat":43.33142,"lon":5.40505,"is_reserved":false,"is_disabled":false,"rental_uris":{"android":"levelo://app?vid=231aaa88-1e79-4a74-a543-651d8fd5a027","ios":"levelo://app?vid=231aaa88-1e79-4a74-a543-651d8fd5a027"},"vehicle_type_id":"4","last_reported":1744265682,"current_range_meters":16400,"station_id":"","pricing_plan_id":"cebpf4jnsgd1na2vs0mg"},{"bike_id":"4f510143-d367-4bdb-be1d-1e4f7b307eb7","system_id":"levelo_inurba_marseille","lat":43.33593,"lon":5.41008,"is_reserved":false,"is_disabled":false,"rental_uris":{"android":"levelo://app?vid=4f510143-d367-4bdb-be1d-1e4f7b307eb7","ios":"levelo://app?vid=4f510143-d367-4bdb-be1d-1e4f7b307eb7"},"vehicle_type_id":"4","last_reported":1744265682,"current_range_meters":16400,"station_id":"ce4bhqh2rcd13ifvqhmg","pricing_plan_id":"cebpf4jnsgd1na2vs0mg"},{"bike_id":"8ee9f686-4549-4aad-af30-9017baadcb23","system_id":"levelo_inurba_marseille","lat":43.314529,"lon":5.375844,"is_reserved":false,"is_disabled":false,"rental_uris":{"android":"levelo://app?vid=8ee9f686-4549-4aad-af30-9017baadcb23","ios":"levelo://app?vid=8ee9f686-4549-4aad-af30-9017baadcb23"},"vehicle_type_id":"4","last_reported":1744265682,"current_range_meters":16400,"station_id":"","pricing_plan_id":"cebpf4jnsgd1na2vs0mg"},{"bike_id":"ef291804-1477-432e-b153-82ea15725418","system_id":"levelo_inurba_marseille","lat":43.337685,"lon":5.374796,"is_reserved":false,"is_disabled":false,"rental_uris":{"android":"levelo://app?vid=ef291804-1477-432e-b153-82ea15725418","ios":"levelo://app?vid=ef291804-1477-432e-b153-82ea15725418"},"vehicle_type_id":"4","last_reported":1744265682,"current_range_meters":16400,"station_id":"","pricing_plan_id":"cebpf4jnsgd1na2vs0mg"},{"bike_id":"550ec4be-e1a4-4ded-9e84-b3dc970a32a6","system_id":"levelo_inurba_marseille","lat":43.30844,"lon":5.38157,"is_reserved":false,"is_disabled":false,"rental_uris":{"android":"levelo://app?vid=550ec4be-e1a4-4ded-9e84-b3dc970a32a6","ios":"levelo://app?vid=550ec4be-e1a4-4ded-9e84-b3dc970a32a6"},"vehicle_type_id":"4","last_reported":1744265682,"current_range_meters":16400,"station_id":"ce4bgt12rcd13ifvqce0","pricing_plan_id":"cebpf4jnsgd1na2vs0mg"},{"bike_id":"042b46f6-2632-44bb-a95a-536e9be395f2","system_id":"levelo_inurba_marseille","lat":43.28741,"lon":5.37928,"is_reserved":false,"is_disabled":false,"rental_uris":{"android":"levelo://app?vid=042b46f6-2632-44bb-a95a-536e9be395f2","ios":"levelo://app?vid=042b46f6-2632-44bb-a95a-536e9be395f2"},"vehicle_type_id":"4","last_reported":1744265682,"current_range_meters":16400,"station_id":"ce4bh9p2rcd13ifvqec0","pricing_plan_id":"cebpf4jnsgd1na2vs0mg"},{"bike_id":"28b24cd7-a290-4fa7-8950-d976d2c491e9","system_id":"levelo_inurba_marseille","lat":43.23153,"lon":5.43722,"is_reserved":false,"is_disabled":false,"rental_uris":{"android":"levelo://app?vid=28b24cd7-a290-4fa7-8950-d976d2c491e9","ios":"levelo://app?vid=28b24cd7-a290-4fa7-8950-d976d2c491e9"},"vehicle_type_id":"4","last_reported":1744265682,"current_range_meters":16400,"station_id":"ce4bhmp2rcd13ifvqgog","pricing_plan_id":"cebpf4jnsgd1na2vs0mg"},{"bike_id":"6aea74ed-ea0d-40c2-9455-d10b07283bfc","system_id":"levelo_inurba_marseille","lat":43.24156,"lon":5.39689,"is_reserved":false,"is_disabled":false,"rental_uris":{"android":"levelo://app?vid=6aea74ed-ea0d-40c2-9455-d10b07283bfc","ios":"levelo://app?vid=6aea74ed-ea0d-40c2-9455-d10b07283bfc"},"vehicle_type_id":"4","last_reported":1744265682,"current_range_meters":16400,"station_id":"ce4bhn12rcd13ifvqgpg","pricing_plan_id":"cebpf4jnsgd1na2vs0mg"},{"bike_id":"e4c4571d-16b2-4eac-9eff-e8ab59a81972","system_id":"levelo_inurba_marseille","lat":43.29073,"lon":5.40112,"is_reserved":false,"is_disabled":false,"rental_uris":{"android":"levelo://app?vid=e4c4571d-16b2-4eac-9eff-e8ab59a81972","ios":"levelo://app?vid=e4c4571d-16b2-4eac-9eff-e8ab59a81972"},"vehicle_type_id":"4","last_reported":1744265682,"current_range_meters":16400,"station_id":"","pricing_plan_id":"cebpf4jnsgd1na2vs0mg"},{"bike_id":"c5803cf2-eedb-4297-9474-679d200ec1ea","system_id":"levelo_inurba_marseille","lat":43.31506,"lon":5.37307,"is_reserved":false,"is_disabled":false,"rental_uris":{"android":"levelo://app?vid=c5803cf2-eedb-4297-9474-679d200ec1ea","ios":"levelo://app?vid=c5803cf2-eedb-4297-9474-679d200ec1ea"},"vehicle_type_id":"4","last_reported":1744265682,"current_range_meters":16800,"station_id":"ce4bgt12rcd13ifvqcd0","pricing_plan_id":"cebpf4jnsgd1na2vs0mg"},{"bike_id":"ec50ceca-88a9-4a79-8e0c-0a6abaf244fe","system_id":"levelo_inurba_marseille","lat":43.30796,"lon":5.38161,"is_reserved":false,"is_disabled":false,"rental_uris":{"android":"levelo://app?vid=ec50ceca-88a9-4a79-8e0c-0a6abaf244fe","ios":"levelo://app?vid=ec50ceca-88a9-4a79-8e0c-0a6abaf244fe"},"vehicle_type_id":"4","last_reported":1744265682,"current_range_meters":16800,"station_id":"ce4bgt12rcd13ifvqce0","pricing_plan_id":"cebpf4jnsgd1na2vs0mg"},{"bike_id":"c89c0f3f-5db7-48d5-a698-8ed549e8c717","system_id":"levelo_inurba_marseille","lat":43.309294,"lon":5.401416,"is_reserved":false,"is_disabled":false,"rental_uris":{"android":"levelo://app?vid=c89c0f3f-5db7-48d5-a698-8ed549e8c717","ios":"levelo://app?vid=c89c0f3f-5db7-48d5-a698-8ed549e8c717"},"vehicle_type_id":"4","last_reported":1744265682,"current_range_meters":16800,"station_id":"ce4bgvp2rcd13ifvqct0","pricing_plan_id":"cebpf4jnsgd1na2vs0mg"},{"bike_id":"1efdbac4-2308-4de6-9391-0950376dc807","system_id":"levelo_inurba_marseille","lat":43.29208,"lon":5.36073,"is_reserved":false,"is_disabled":false,"rental_uris":{"android":"levelo://app?vid=1efdbac4-2308-4de6-9391-0950376dc807","ios":"levelo://app?vid=1efdbac4-2308-4de6-9391-0950376dc807"},"vehicle_type_id":"4","last_reported":1744265682,"current_range_meters":16800,"station_id":"ce4bhbh2rcd13ifvqeqg","pricing_plan_id":"cebpf4jnsgd1na2vs0mg"},{"bike_id":"edcc2472-e7bf-4e0c-91d2-956f1c779ee1","system_id":"levelo_inurba_marseille","lat":43.241725,"lon":5.39738,"is_reserved":false,"is_disabled":false,"rental_uris":{"android":"levelo://app?vid=edcc2472-e7bf-4e0c-91d2-956f1c779ee1","ios":"levelo://app?vid=edcc2472-e7bf-4e0c-91d2-956f1c779ee1"},"vehicle_type_id":"4","last_reported":1744265682,"current_range_meters":17200,"station_id":"ce4bhn12rcd13ifvqgpg","pricing_plan_id":"cebpf4jnsgd1na2vs0mg"},{"bike_id":"e76bb4dd-f131-4c03-9db9-91f460783277","system_id":"levelo_inurba_marseille","lat":43.25839,"lon":5.39411,"is_reserved":false,"is_disabled":false,"rental_uris":{"android":"levelo://app?vid=e76bb4dd-f131-4c03-9db9-91f460783277","ios":"levelo://app?vid=e76bb4dd-f131-4c03-9db9-91f460783277"},"vehicle_type_id":"4","last_reported":1744265682,"current_range_meters":17200,"station_id":"ce4bhip2rcd13ifvqft0","pricing_plan_id":"cebpf4jnsgd1na2vs0mg"},{"bike_id":"2b54a496-5bb2-42c4-bb01-6f1e5c2215a7","system_id":"levelo_inurba_marseille","lat":43.30802,"lon":5.37655,"is_reserved":false,"is_disabled":true,"rental_uris":{"android":"levelo://app?vid=2b54a496-5bb2-42c4-bb01-6f1e5c2215a7","ios":"levelo://app?vid=2b54a496-5bb2-42c4-bb01-6f1e5c2215a7"},"vehicle_type_id":"4","last_reported":1744265682,"current_range_meters":17200,"station_id":"ce4bgv92rcd13ifvqcq0","pricing_plan_id":"cebpf4jnsgd1na2vs0mg"},{"bike_id":"19e57953-6d0c-43b9-ae97-3bf79908d670","system_id":"levelo_inurba_marseille","lat":43.27224,"lon":5.39199,"is_reserved":false,"is_disabled":true,"rental_uris":{"android":"levelo://app?vid=19e57953-6d0c-43b9-ae97-3bf79908d670","ios":"levelo://app?vid=19e57953-6d0c-43b9-ae97-3bf79908d670"},"vehicle_type_id":"4","last_reported":1744265682,"current_range_meters":17200,"station_id":"ce4bhhp2rcd13ifvqfm0","pricing_plan_id":"cebpf4jnsgd1na2vs0mg"},{"bike_id":"2db062fe-2ccd-450d-85dd-3c77819ba37a","system_id":"levelo_inurba_marseille","lat":43.28952,"lon":5.36627,"is_reserved":false,"is_disabled":true,"rental_uris":{"android":"levelo://app?vid=2db062fe-2ccd-450d-85dd-3c77819ba37a","ios":"levelo://app?vid=2db062fe-2ccd-450d-85dd-3c77819ba37a"},"vehicle_type_id":"4","last_reported":1744265682,"current_range_meters":17200,"station_id":"ce4bhap2rcd13ifvqek0","pricing_plan_id":"cebpf4jnsgd1na2vs0mg"},{"bike_id":"eab6cbfa-cb8e-47d7-b0d6-226ab7facec7","system_id":"levelo_inurba_marseille","lat":43.31713,"lon":5.4241,"is_reserved":false,"is_disabled":true,"rental_uris":{"android":"levelo://app?vid=eab6cbfa-cb8e-47d7-b0d6-226ab7facec7","ios":"levelo://app?vid=eab6cbfa-cb8e-47d7-b0d6-226ab7facec7"},"vehicle_type_id":"4","last_reported":1744265682,"current_range_meters":17200,"station_id":"ce4bhp92rcd13ifvqhbg","pricing_plan_id":"cebpf4jnsgd1na2vs0mg"},{"bike_id":"8e2dcb59-0302-4e3b-a8f6-03799217d42b","system_id":"levelo_inurba_marseille","lat":43.29907,"lon":5.39744,"is_reserved":false,"is_disabled":false,"rental_uris":{"android":"levelo://app?vid=8e2dcb59-0302-4e3b-a8f6-03799217d42b","ios":"levelo://app?vid=8e2dcb59-0302-4e3b-a8f6-03799217d42b"},"vehicle_type_id":"4","last_reported":1744265682,"current_range_meters":17200,"station_id":"ce4bh0h2rcd13ifvqd50","pricing_plan_id":"cebpf4jnsgd1na2vs0mg"},{"bike_id":"0922821c-4e1d-4817-9469-860e55f8f0d1","system_id":"levelo_inurba_marseille","lat":43.22504,"lon":5.34784,"is_reserved":false,"is_disabled":false,"rental_uris":{"android":"levelo://app?vid=0922821c-4e1d-4817-9469-860e55f8f0d1","ios":"levelo://app?vid=0922821c-4e1d-4817-9469-860e55f8f0d1"},"vehicle_type_id":"4","last_reported":1744265682,"current_range_meters":17200,"station_id":"st_cvj5dfep6f1abm77gieg","pricing_plan_id":"cebpf4jnsgd1na2vs0mg"},{"bike_id":"86c831ba-15d4-49e4-9ea1-51f53c0d1de1","system_id":"levelo_inurba_marseille","lat":43.30237,"lon":5.40069,"is_reserved":false,"is_disabled":false,"rental_uris":{"android":"levelo://app?vid=86c831ba-15d4-49e4-9ea1-51f53c0d1de1","ios":"levelo://app?vid=86c831ba-15d4-49e4-9ea1-51f53c0d1de1"},"vehicle_type_id":"4","last_reported":1744265682,"current_range_meters":17200,"station_id":"ce4bgvh2rcd13ifvqcs0","pricing_plan_id":"cebpf4jnsgd1na2vs0mg"},{"bike_id":"f1e866a5-7c3e-45b7-ba42-0d6523e7a78c","system_id":"levelo_inurba_marseille","lat":43.27497,"lon":5.42458,"is_reserved":false,"is_disabled":false,"rental_uris":{"android":"levelo://app?vid=f1e866a5-7c3e-45b7-ba42-0d6523e7a78c","ios":"levelo://app?vid=f1e866a5-7c3e-45b7-ba42-0d6523e7a78c"},"vehicle_type_id":"4","last_reported":1744265682,"current_range_meters":17600,"station_id":"ce4bhn92rcd13ifvqgrg","pricing_plan_id":"cebpf4jnsgd1na2vs0mg"},{"bike_id":"77434f79-432f-4dc2-93f3-ac3c158bed25","system_id":"levelo_inurba_marseille","lat":43.3082,"lon":5.38166,"is_reserved":false,"is_disabled":false,"rental_uris":{"android":"levelo://app?vid=77434f79-432f-4dc2-93f3-ac3c158bed25","ios":"levelo://app?vid=77434f79-432f-4dc2-93f3-ac3c158bed25"},"vehicle_type_id":"4","last_reported":1744265682,"current_range_meters":17600,"station_id":"ce4bgt12rcd13ifvqce0","pricing_plan_id":"cebpf4jnsgd1na2vs0mg"},{"bike_id":"49f12fd7-4c87-4529-a7b9-de78fd0243f1","system_id":"levelo_inurba_marseille","lat":43.32493,"lon":5.36575,"is_reserved":false,"is_disabled":false,"rental_uris":{"android":"levelo://app?vid=49f12fd7-4c87-4529-a7b9-de78fd0243f1","ios":"levelo://app?vid=49f12fd7-4c87-4529-a7b9-de78fd0243f1"},"vehicle_type_id":"4","last_reported":1744265682,"current_range_meters":17600,"station_id":"ce4bhs12rcd13ifvqhvg","pricing_plan_id":"cebpf4jnsgd1na2vs0mg"},{"bike_id":"f112d351-cf97-4def-8a45-af5e1e8e51c9","system_id":"levelo_inurba_marseille","lat":43.22937,"lon":5.35381,"is_reserved":false,"is_disabled":false,"rental_uris":{"android":"levelo://app?vid=f112d351-cf97-4def-8a45-af5e1e8e51c9","ios":"levelo://app?vid=f112d351-cf97-4def-8a45-af5e1e8e51c9"},"vehicle_type_id":"4","last_reported":1744265682,"current_range_meters":17600,"station_id":"cpo3532slgdg3j2ikp40","pricing_plan_id":"cebpf4jnsgd1na2vs0mg"},{"bike_id":"abd5a04c-0c44-4eaa-ac15-1607aacaa4e4","system_id":"levelo_inurba_marseille","lat":43.298585,"lon":5.409012,"is_reserved":false,"is_disabled":false,"rental_uris":{"android":"levelo://app?vid=abd5a04c-0c44-4eaa-ac15-1607aacaa4e4","ios":"levelo://app?vid=abd5a04c-0c44-4eaa-ac15-1607aacaa4e4"},"vehicle_type_id":"4","last_reported":1744265682,"current_range_meters":17600,"station_id":"","pricing_plan_id":"cebpf4jnsgd1na2vs0mg"},{"bike_id":"ed723e43-7b05-4eb2-92cb-cccbb3fb32b4","system_id":"levelo_inurba_marseille","lat":43.30478,"lon":5.37908,"is_reserved":false,"is_disabled":false,"rental_uris":{"android":"levelo://app?vid=ed723e43-7b05-4eb2-92cb-cccbb3fb32b4","ios":"levelo://app?vid=ed723e43-7b05-4eb2-92cb-cccbb3fb32b4"},"vehicle_type_id":"4","last_reported":1744265682,"current_range_meters":17600,"station_id":"ce4bgup2rcd13ifvqcn0","pricing_plan_id":"cebpf4jnsgd1na2vs0mg"},{"bike_id":"61375ca9-08c2-4088-a0c8-c8d3e5a7dd5a","system_id":"levelo_inurba_marseille","lat":43.29095,"lon":5.40152,"is_reserved":false,"is_disabled":false,"rental_uris":{"android":"levelo://app?vid=61375ca9-08c2-4088-a0c8-c8d3e5a7dd5a","ios":"levelo://app?vid=61375ca9-08c2-4088-a0c8-c8d3e5a7dd5a"},"vehicle_type_id":"4","last_reported":1744265682,"current_range_meters":17600,"station_id":"ce4bh392rcd13ifvqdm0","pricing_plan_id":"cebpf4jnsgd1na2vs0mg"},{"bike_id":"802cd4e7-1532-4be6-941e-5d40067fea63","system_id":"levelo_inurba_marseille","lat":43.29264,"lon":5.38441,"is_reserved":false,"is_disabled":true,"rental_uris":{"android":"levelo://app?vid=802cd4e7-1532-4be6-941e-5d40067fea63","ios":"levelo://app?vid=802cd4e7-1532-4be6-941e-5d40067fea63"},"vehicle_type_id":"4","last_reported":1744265682,"current_range_meters":17600,"station_id":"ce4bh692rcd13ifvqea0","pricing_plan_id":"cebpf4jnsgd1na2vs0mg"},{"bike_id":"52ffed9a-e40e-49c7-ad35-8a3eb7df0161","system_id":"levelo_inurba_marseille","lat":43.29927,"lon":5.36567,"is_reserved":false,"is_disabled":false,"rental_uris":{"android":"levelo://app?vid=52ffed9a-e40e-49c7-ad35-8a3eb7df0161","ios":"levelo://app?vid=52ffed9a-e40e-49c7-ad35-8a3eb7df0161"},"vehicle_type_id":"4","last_reported":1744265682,"current_range_meters":18000,"station_id":"ce4bgm92rcd13ifvqbr0","pricing_plan_id":"cebpf4jnsgd1na2vs0mg"},{"bike_id":"d7adffc4-cf62-4fea-aaaf-6657cbfbb451","system_id":"levelo_inurba_marseille","lat":43.288405,"lon":5.358476,"is_reserved":false,"is_disabled":true,"rental_uris":{"android":"levelo://app?vid=d7adffc4-cf62-4fea-aaaf-6657cbfbb451","ios":"levelo://app?vid=d7adffc4-cf62-4fea-aaaf-6657cbfbb451"},"vehicle_type_id":"4","last_reported":1744265682,"current_range_meters":18000,"station_id":"ce4bhb12rcd13ifvqem0","pricing_plan_id":"cebpf4jnsgd1na2vs0mg"},{"bike_id":"a1e81225-9657-42bd-a1e1-c9d2c3a95eb3","system_id":"levelo_inurba_marseille","lat":43.30882,"lon":5.37185,"is_reserved":false,"is_disabled":false,"rental_uris":{"android":"levelo://app?vid=a1e81225-9657-42bd-a1e1-c9d2c3a95eb3","ios":"levelo://app?vid=a1e81225-9657-42bd-a1e1-c9d2c3a95eb3"},"vehicle_type_id":"4","last_reported":1744265682,"current_range_meters":18000,"station_id":"ce4bguh2rcd13ifvqckg","pricing_plan_id":"cebpf4jnsgd1na2vs0mg"},{"bike_id":"415f4ace-3cb1-443b-9ed2-0e1f034e9012","system_id":"levelo_inurba_marseille","lat":43.23152,"lon":5.4372,"is_reserved":false,"is_disabled":false,"rental_uris":{"android":"levelo://app?vid=415f4ace-3cb1-443b-9ed2-0e1f034e9012","ios":"levelo://app?vid=415f4ace-3cb1-443b-9ed2-0e1f034e9012"},"vehicle_type_id":"4","last_reported":1744265682,"current_range_meters":18000,"station_id":"ce4bhmp2rcd13ifvqgog","pricing_plan_id":"cebpf4jnsgd1na2vs0mg"},{"bike_id":"53e7778e-d440-497e-97a9-f57912f72a31","system_id":"levelo_inurba_marseille","lat":43.3015,"lon":5.38081,"is_reserved":false,"is_disabled":false,"rental_uris":{"android":"levelo://app?vid=53e7778e-d440-497e-97a9-f57912f72a31","ios":"levelo://app?vid=53e7778e-d440-497e-97a9-f57912f72a31"},"vehicle_type_id":"4","last_reported":1744265682,"current_range_meters":18000,"station_id":"ce4bgjp2rcd13ifvqbh0","pricing_plan_id":"cebpf4jnsgd1na2vs0mg"},{"bike_id":"36929e62-bb2c-4bd3-aad3-8c45a26fd968","system_id":"levelo_inurba_marseille","lat":43.30669,"lon":5.40063,"is_reserved":false,"is_disabled":false,"rental_uris":{"android":"levelo://app?vid=36929e62-bb2c-4bd3-aad3-8c45a26fd968","ios":"levelo://app?vid=36929e62-bb2c-4bd3-aad3-8c45a26fd968"},"vehicle_type_id":"4","last_reported":1744265682,"current_range_meters":18000,"station_id":"ce4bh112rcd13ifvqda0","pricing_plan_id":"cebpf4jnsgd1na2vs0mg"},{"bike_id":"11ce558b-1aa7-494e-9be1-0932aebd9f9e","system_id":"levelo_inurba_marseille","lat":43.24545,"lon":5.39525,"is_reserved":false,"is_disabled":false,"rental_uris":{"android":"levelo://app?vid=11ce558b-1aa7-494e-9be1-0932aebd9f9e","ios":"levelo://app?vid=11ce558b-1aa7-494e-9be1-0932aebd9f9e"},"vehicle_type_id":"4","last_reported":1744265682,"current_range_meters":18000,"station_id":"ce4bhlp2rcd13ifvqgjg","pricing_plan_id":"cebpf4jnsgd1na2vs0mg"},{"bike_id":"9d2f1fae-8bab-4459-8066-2c344dea1898","system_id":"levelo_inurba_marseille","lat":43.30468,"lon":5.37907,"is_reserved":false,"is_disabled":false,"rental_uris":{"android":"levelo://app?vid=9d2f1fae-8bab-4459-8066-2c344dea1898","ios":"levelo://app?vid=9d2f1fae-8bab-4459-8066-2c344dea1898"},"vehicle_type_id":"4","last_reported":1744265682,"current_range_meters":18000,"station_id":"ce4bgup2rcd13ifvqcn0","pricing_plan_id":"cebpf4jnsgd1na2vs0mg"},{"bike_id":"761ab4c6-4800-4be8-a1fe-1b0640d4f959","system_id":"levelo_inurba_marseille","lat":43.32257,"lon":5.37661,"is_reserved":false,"is_disabled":false,"rental_uris":{"android":"levelo://app?vid=761ab4c6-4800-4be8-a1fe-1b0640d4f959","ios":"levelo://app?vid=761ab4c6-4800-4be8-a1fe-1b0640d4f959"},"vehicle_type_id":"4","last_reported":1744265682,"current_range_meters":18000,"station_id":"","pricing_plan_id":"cebpf4jnsgd1na2vs0mg"},{"bike_id":"3e69e336-5bce-4174-92ec-4adc1d9a02cf","system_id":"levelo_inurba_marseille","lat":43.2957,"lon":5.37501,"is_reserved":false,"is_disabled":true,"rental_uris":{"android":"levelo://app?vid=3e69e336-5bce-4174-92ec-4adc1d9a02cf","ios":"levelo://app?vid=3e69e336-5bce-4174-92ec-4adc1d9a02cf"},"vehicle_type_id":"4","last_reported":1744265682,"current_range_meters":18000,"station_id":"ce4bgh92rcd13ifvqb50","pricing_plan_id":"cebpf4jnsgd1na2vs0mg"},{"bike_id":"9d3970bd-d684-4d01-b43a-5c4c13427742","system_id":"levelo_inurba_marseille","lat":43.29038,"lon":5.3813,"is_reserved":false,"is_disabled":true,"rental_uris":{"android":"levelo://app?vid=9d3970bd-d684-4d01-b43a-5c4c13427742","ios":"levelo://app?vid=9d3970bd-d684-4d01-b43a-5c4c13427742"},"vehicle_type_id":"4","last_reported":1744265682,"current_range_meters":18000,"station_id":"ce4bh4p2rcd13ifvqe1g","pricing_plan_id":"cebpf4jnsgd1na2vs0mg"},{"bike_id":"1ef2e9c3-6383-4c78-ae6e-f06db2f1015e","system_id":"levelo_inurba_marseille","lat":43.30313,"lon":5.40428,"is_reserved":false,"is_disabled":false,"rental_uris":{"android":"levelo://app?vid=1ef2e9c3-6383-4c78-ae6e-f06db2f1015e","ios":"levelo://app?vid=1ef2e9c3-6383-4c78-ae6e-f06db2f1015e"},"vehicle_type_id":"4","last_reported":1744265682,"current_range_meters":18800,"station_id":"ce4bh012rcd13ifvqd10","pricing_plan_id":"cebpf4jnsgd1na2vs0mg"},{"bike_id":"ab3fbff3-7759-4f28-93d0-0fc0edd841f0","system_id":"levelo_inurba_marseille","lat":43.28669,"lon":5.36356,"is_reserved":false,"is_disabled":false,"rental_uris":{"android":"levelo://app?vid=ab3fbff3-7759-4f28-93d0-0fc0edd841f0","ios":"levelo://app?vid=ab3fbff3-7759-4f28-93d0-0fc0edd841f0"},"vehicle_type_id":"4","last_reported":1744265682,"current_range_meters":18800,"station_id":"ce4bhah2rcd13ifvqej0","pricing_plan_id":"cebpf4jnsgd1na2vs0mg"},{"bike_id":"274dd7c1-7738-41dd-8334-cf9ed26e62d0","system_id":"levelo_inurba_marseille","lat":43.30958,"lon":5.40148,"is_reserved":false,"is_disabled":false,"rental_uris":{"android":"levelo://app?vid=274dd7c1-7738-41dd-8334-cf9ed26e62d0","ios":"levelo://app?vid=274dd7c1-7738-41dd-8334-cf9ed26e62d0"},"vehicle_type_id":"4","last_reported":1744265682,"current_range_meters":18800,"station_id":"ce4bgvp2rcd13ifvqct0","pricing_plan_id":"cebpf4jnsgd1na2vs0mg"},{"bike_id":"b5ca0173-860f-4e09-8ae0-f89867ca9dd6","system_id":"levelo_inurba_marseille","lat":43.318646,"lon":5.373211,"is_reserved":false,"is_disabled":false,"rental_uris":{"android":"levelo://app?vid=b5ca0173-860f-4e09-8ae0-f89867ca9dd6","ios":"levelo://app?vid=b5ca0173-860f-4e09-8ae0-f89867ca9dd6"},"vehicle_type_id":"4","last_reported":1744265682,"current_range_meters":18800,"station_id":"","pricing_plan_id":"cebpf4jnsgd1na2vs0mg"},{"bike_id":"8e56a4d9-b47e-474f-93b1-1557141ab3ac","system_id":"levelo_inurba_marseille","lat":43.2791,"lon":5.39578,"is_reserved":false,"is_disabled":false,"rental_uris":{"android":"levelo://app?vid=8e56a4d9-b47e-474f-93b1-1557141ab3ac","ios":"levelo://app?vid=8e56a4d9-b47e-474f-93b1-1557141ab3ac"},"vehicle_type_id":"4","last_reported":1744265682,"current_range_meters":18800,"station_id":"ce4bhf92rcd13ifvqf40","pricing_plan_id":"cebpf4jnsgd1na2vs0mg"},{"bike_id":"550669c9-2c2c-44c1-a8a3-dd9756269d1e","system_id":"levelo_inurba_marseille","lat":43.32161,"lon":5.37968,"is_reserved":false,"is_disabled":false,"rental_uris":{"android":"levelo://app?vid=550669c9-2c2c-44c1-a8a3-dd9756269d1e","ios":"levelo://app?vid=550669c9-2c2c-44c1-a8a3-dd9756269d1e"},"vehicle_type_id":"4","last_reported":1744265682,"current_range_meters":18800,"station_id":"","pricing_plan_id":"cebpf4jnsgd1na2vs0mg"},{"bike_id":"94455896-0f19-4fae-bd72-9879f01fcd6e","system_id":"levelo_inurba_marseille","lat":43.29545,"lon":5.42294,"is_reserved":false,"is_disabled":true,"rental_uris":{"android":"levelo://app?vid=94455896-0f19-4fae-bd72-9879f01fcd6e","ios":"levelo://app?vid=94455896-0f19-4fae-bd72-9879f01fcd6e"},"vehicle_type_id":"4","last_reported":1744265682,"current_range_meters":18800,"station_id":"ce4bhph2rcd13ifvqhdg","pricing_plan_id":"cebpf4jnsgd1na2vs0mg"},{"bike_id":"e349bba7-d68a-42d8-8e45-59842ef246d5","system_id":"levelo_inurba_marseille","lat":43.32113,"lon":5.36775,"is_reserved":false,"is_disabled":false,"rental_uris":{"android":"levelo://app?vid=e349bba7-d68a-42d8-8e45-59842ef246d5","ios":"levelo://app?vid=e349bba7-d68a-42d8-8e45-59842ef246d5"},"vehicle_type_id":"4","last_reported":1744265682,"current_range_meters":18800,"station_id":"ce4bhrh2rcd13ifvqhug","pricing_plan_id":"cebpf4jnsgd1na2vs0mg"},{"bike_id":"182650a6-9433-4951-80ba-44b6e3878dab","system_id":"levelo_inurba_marseille","lat":43.30551,"lon":5.38427,"is_reserved":false,"is_disabled":true,"rental_uris":{"android":"levelo://app?vid=182650a6-9433-4951-80ba-44b6e3878dab","ios":"levelo://app?vid=182650a6-9433-4951-80ba-44b6e3878dab"},"vehicle_type_id":"4","last_reported":1744265682,"current_range_meters":18800,"station_id":"ce4bgg92rcd13ifvqb30","pricing_plan_id":"cebpf4jnsgd1na2vs0mg"},{"bike_id":"2158251e-dadc-48b3-a5af-ea98b09513fe","system_id":"levelo_inurba_marseille","lat":43.30312,"lon":5.39207,"is_reserved":false,"is_disabled":true,"rental_uris":{"android":"levelo://app?vid=2158251e-dadc-48b3-a5af-ea98b09513fe","ios":"levelo://app?vid=2158251e-dadc-48b3-a5af-ea98b09513fe"},"vehicle_type_id":"4","last_reported":1744265682,"current_range_meters":18800,"station_id":"ce4bgkh2rcd13ifvqbk0","pricing_plan_id":"cebpf4jnsgd1na2vs0mg"},{"bike_id":"204e4ebf-dbf2-49a6-9c7f-bede59e102a8","system_id":"levelo_inurba_marseille","lat":43.30346,"lon":5.41893,"is_reserved":false,"is_disabled":false,"rental_uris":{"android":"levelo://app?vid=204e4ebf-dbf2-49a6-9c7f-bede59e102a8","ios":"levelo://app?vid=204e4ebf-dbf2-49a6-9c7f-bede59e102a8"},"vehicle_type_id":"4","last_reported":1744265682,"current_range_meters":19200,"station_id":"ce4bhop2rcd13ifvqh7g","pricing_plan_id":"cebpf4jnsgd1na2vs0mg"},{"bike_id":"e3ae04d0-6acd-4f53-9080-de243a438cc8","system_id":"levelo_inurba_marseille","lat":43.28166,"lon":5.4269,"is_reserved":false,"is_disabled":false,"rental_uris":{"android":"levelo://app?vid=e3ae04d0-6acd-4f53-9080-de243a438cc8","ios":"levelo://app?vid=e3ae04d0-6acd-4f53-9080-de243a438cc8"},"vehicle_type_id":"4","last_reported":1744265682,"current_range_meters":19200,"station_id":"ce4bhnh2rcd13ifvqgug","pricing_plan_id":"cebpf4jnsgd1na2vs0mg"},{"bike_id":"6f5a3fba-5124-42a7-b36e-1ce41590f370","system_id":"levelo_inurba_marseille","lat":43.32342,"lon":5.36729,"is_reserved":false,"is_disabled":false,"rental_uris":{"android":"levelo://app?vid=6f5a3fba-5124-42a7-b36e-1ce41590f370","ios":"levelo://app?vid=6f5a3fba-5124-42a7-b36e-1ce41590f370"},"vehicle_type_id":"4","last_reported":1744265682,"current_range_meters":19200,"station_id":"ce4bhsh2rcd13ifvqi2g","pricing_plan_id":"cebpf4jnsgd1na2vs0mg"},{"bike_id":"2e68d633-6401-4a1b-8729-66edeeeb8a00","system_id":"levelo_inurba_marseille","lat":43.31368,"lon":5.38484,"is_reserved":false,"is_disabled":false,"rental_uris":{"android":"levelo://app?vid=2e68d633-6401-4a1b-8729-66edeeeb8a00","ios":"levelo://app?vid=2e68d633-6401-4a1b-8729-66edeeeb8a00"},"vehicle_type_id":"4","last_reported":1744265682,"current_range_meters":19200,"station_id":"ce4bgt92rcd13ifvqcf0","pricing_plan_id":"cebpf4jnsgd1na2vs0mg"},{"bike_id":"9d9d7b09-1e26-4861-bdf1-50bd44ee4988","system_id":"levelo_inurba_marseille","lat":43.29299,"lon":5.40031,"is_reserved":false,"is_disabled":false,"rental_uris":{"android":"levelo://app?vid=9d9d7b09-1e26-4861-bdf1-50bd44ee4988","ios":"levelo://app?vid=9d9d7b09-1e26-4861-bdf1-50bd44ee4988"},"vehicle_type_id":"4","last_reported":1744265682,"current_range_meters":19200,"station_id":"ce4bh312rcd13ifvqdk0","pricing_plan_id":"cebpf4jnsgd1na2vs0mg"},{"bike_id":"23718e9a-5ce7-4d28-99a5-8f754f56e13c","system_id":"levelo_inurba_marseille","lat":43.22508,"lon":5.34775,"is_reserved":false,"is_disabled":false,"rental_uris":{"android":"levelo://app?vid=23718e9a-5ce7-4d28-99a5-8f754f56e13c","ios":"levelo://app?vid=23718e9a-5ce7-4d28-99a5-8f754f56e13c"},"vehicle_type_id":"4","last_reported":1744265682,"current_range_meters":19600,"station_id":"","pricing_plan_id":"cebpf4jnsgd1na2vs0mg"},{"bike_id":"463b41fd-37bb-48c0-a6e4-12f737a3d7cf","system_id":"levelo_inurba_marseille","lat":43.26955,"lon":5.40268,"is_reserved":false,"is_disabled":true,"rental_uris":{"android":"levelo://app?vid=463b41fd-37bb-48c0-a6e4-12f737a3d7cf","ios":"levelo://app?vid=463b41fd-37bb-48c0-a6e4-12f737a3d7cf"},"vehicle_type_id":"4","last_reported":1744265682,"current_range_meters":19600,"station_id":"cjm6bp8fraef2m0cb0m0","pricing_plan_id":"cebpf4jnsgd1na2vs0mg"},{"bike_id":"aeb315f8-5663-4264-8421-f5acbb6ac33d","system_id":"levelo_inurba_marseille","lat":43.262274,"lon":5.404569,"is_reserved":false,"is_disabled":false,"rental_uris":{"android":"levelo://app?vid=aeb315f8-5663-4264-8421-f5acbb6ac33d","ios":"levelo://app?vid=aeb315f8-5663-4264-8421-f5acbb6ac33d"},"vehicle_type_id":"4","last_reported":1744265682,"current_range_meters":19600,"station_id":"ce4bhmh2rcd13ifvqgmg","pricing_plan_id":"cebpf4jnsgd1na2vs0mg"},{"bike_id":"d067c078-d42b-44da-9aa2-76b4e81b14bc","system_id":"levelo_inurba_marseille","lat":43.31273,"lon":5.36864,"is_reserved":false,"is_disabled":false,"rental_uris":{"android":"levelo://app?vid=d067c078-d42b-44da-9aa2-76b4e81b14bc","ios":"levelo://app?vid=d067c078-d42b-44da-9aa2-76b4e81b14bc"},"vehicle_type_id":"4","last_reported":1744265682,"current_range_meters":19200,"station_id":"ce4bgl92rcd13ifvqbq0","pricing_plan_id":"cebpf4jnsgd1na2vs0mg"},{"bike_id":"f36ca3d8-7188-4931-9a39-385909a64d27","system_id":"levelo_inurba_marseille","lat":43.33086,"lon":5.40652,"is_reserved":false,"is_disabled":false,"rental_uris":{"android":"levelo://app?vid=f36ca3d8-7188-4931-9a39-385909a64d27","ios":"levelo://app?vid=f36ca3d8-7188-4931-9a39-385909a64d27"},"vehicle_type_id":"4","last_reported":1744265682,"current_range_meters":19600,"station_id":"","pricing_plan_id":"cebpf4jnsgd1na2vs0mg"},{"bike_id":"70333d08-b89a-4e2b-ae7b-375ce248ec2b","system_id":"levelo_inurba_marseille","lat":43.29303,"lon":5.37472,"is_reserved":false,"is_disabled":true,"rental_uris":{"android":"levelo://app?vid=70333d08-b89a-4e2b-ae7b-375ce248ec2b","ios":"levelo://app?vid=70333d08-b89a-4e2b-ae7b-375ce248ec2b"},"vehicle_type_id":"4","last_reported":1744265682,"current_range_meters":19600,"station_id":"","pricing_plan_id":"cebpf4jnsgd1na2vs0mg"},{"bike_id":"be798224-4524-4548-a8ae-9dbaefaeeb66","system_id":"levelo_inurba_marseille","lat":43.25933,"lon":5.40914,"is_reserved":false,"is_disabled":true,"rental_uris":{"android":"levelo://app?vid=be798224-4524-4548-a8ae-9dbaefaeeb66","ios":"levelo://app?vid=be798224-4524-4548-a8ae-9dbaefaeeb66"},"vehicle_type_id":"4","last_reported":1744265682,"current_range_meters":19600,"station_id":"ce4bhm92rcd13ifvqglg","pricing_plan_id":"cebpf4jnsgd1na2vs0mg"},{"bike_id":"2ee106dd-7d55-45ba-b797-a6053946699a","system_id":"levelo_inurba_marseille","lat":43.27067,"lon":5.42289,"is_reserved":false,"is_disabled":false,"rental_uris":{"android":"levelo://app?vid=2ee106dd-7d55-45ba-b797-a6053946699a","ios":"levelo://app?vid=2ee106dd-7d55-45ba-b797-a6053946699a"},"vehicle_type_id":"4","last_reported":1744265682,"current_range_meters":20000,"station_id":"ce4bhk92rcd13ifvqgb0","pricing_plan_id":"cebpf4jnsgd1na2vs0mg"},{"bike_id":"593cc697-220e-4df3-9f2b-b1793070fa32","system_id":"levelo_inurba_marseille","lat":43.30507,"lon":5.36514,"is_reserved":false,"is_disabled":true,"rental_uris":{"android":"levelo://app?vid=593cc697-220e-4df3-9f2b-b1793070fa32","ios":"levelo://app?vid=593cc697-220e-4df3-9f2b-b1793070fa32"},"vehicle_type_id":"4","last_reported":1744265682,"current_range_meters":20000,"station_id":"","pricing_plan_id":"cebpf4jnsgd1na2vs0mg"},{"bike_id":"b9df03c2-469c-4341-8070-07e8c44b04ae","system_id":"levelo_inurba_marseille","lat":43.26686,"lon":5.38271,"is_reserved":false,"is_disabled":true,"rental_uris":{"android":"levelo://app?vid=b9df03c2-469c-4341-8070-07e8c44b04ae","ios":"levelo://app?vid=b9df03c2-469c-4341-8070-07e8c44b04ae"},"vehicle_type_id":"4","last_reported":1744265682,"current_range_meters":20000,"station_id":"ce4bhg92rcd13ifvqf90","pricing_plan_id":"cebpf4jnsgd1na2vs0mg"},{"bike_id":"b7901cd2-87ea-4106-9ee1-f5b14bc9b103","system_id":"levelo_inurba_marseille","lat":43.308951,"lon":5.372022,"is_reserved":false,"is_disabled":false,"rental_uris":{"android":"levelo://app?vid=b7901cd2-87ea-4106-9ee1-f5b14bc9b103","ios":"levelo://app?vid=b7901cd2-87ea-4106-9ee1-f5b14bc9b103"},"vehicle_type_id":"4","last_reported":1744265682,"current_range_meters":19600,"station_id":"ce4bguh2rcd13ifvqckg","pricing_plan_id":"cebpf4jnsgd1na2vs0mg"},{"bike_id":"dc510f7f-1dc0-48e5-90e8-ef8601e109d4","system_id":"levelo_inurba_marseille","lat":43.30463,"lon":5.3792,"is_reserved":false,"is_disabled":false,"rental_uris":{"android":"levelo://app?vid=dc510f7f-1dc0-48e5-90e8-ef8601e109d4","ios":"levelo://app?vid=dc510f7f-1dc0-48e5-90e8-ef8601e109d4"},"vehicle_type_id":"4","last_reported":1744265682,"current_range_meters":20000,"station_id":"ce4bgup2rcd13ifvqcn0","pricing_plan_id":"cebpf4jnsgd1na2vs0mg"},{"bike_id":"59852b06-c5d3-4702-b90f-98eea8f96ee8","system_id":"levelo_inurba_marseille","lat":43.2416,"lon":5.36416,"is_reserved":false,"is_disabled":false,"rental_uris":{"android":"levelo://app?vid=59852b06-c5d3-4702-b90f-98eea8f96ee8","ios":"levelo://app?vid=59852b06-c5d3-4702-b90f-98eea8f96ee8"},"vehicle_type_id":"4","last_reported":1744265682,"current_range_meters":20000,"station_id":"cpo36qri1sfpv3e86is0","pricing_plan_id":"cebpf4jnsgd1na2vs0mg"},{"bike_id":"7ed33375-75c9-470f-ab7f-38c248977e18","system_id":"levelo_inurba_marseille","lat":43.28542,"lon":5.39504,"is_reserved":false,"is_disabled":false,"rental_uris":{"android":"levelo://app?vid=7ed33375-75c9-470f-ab7f-38c248977e18","ios":"levelo://app?vid=7ed33375-75c9-470f-ab7f-38c248977e18"},"vehicle_type_id":"4","last_reported":1744265682,"current_range_meters":20000,"station_id":"ce4bh292rcd13ifvqdg0","pricing_plan_id":"cebpf4jnsgd1na2vs0mg"},{"bike_id":"e3508ef2-291e-4416-83ad-4a3003b665d3","system_id":"levelo_inurba_marseille","lat":43.29654,"lon":5.37293,"is_reserved":false,"is_disabled":false,"rental_uris":{"android":"levelo://app?vid=e3508ef2-291e-4416-83ad-4a3003b665d3","ios":"levelo://app?vid=e3508ef2-291e-4416-83ad-4a3003b665d3"},"vehicle_type_id":"4","last_reported":1744265682,"current_range_meters":20000,"station_id":"ce4bgk12rcd13ifvqbj0","pricing_plan_id":"cebpf4jnsgd1na2vs0mg"},{"bike_id":"1f96790d-9c80-414b-8543-ad735c3c628a","system_id":"levelo_inurba_marseille","lat":43.27504,"lon":5.42454,"is_reserved":false,"is_disabled":false,"rental_uris":{"android":"levelo://app?vid=1f96790d-9c80-414b-8543-ad735c3c628a","ios":"levelo://app?vid=1f96790d-9c80-414b-8543-ad735c3c628a"},"vehicle_type_id":"4","last_reported":1744265682,"current_range_meters":20400,"station_id":"ce4bhn92rcd13ifvqgrg","pricing_plan_id":"cebpf4jnsgd1na2vs0mg"},{"bike_id":"f336b29b-8563-43e0-873b-ea8fc145a09c","system_id":"levelo_inurba_marseille","lat":43.30277,"lon":5.39684,"is_reserved":false,"is_disabled":false,"rental_uris":{"android":"levelo://app?vid=f336b29b-8563-43e0-873b-ea8fc145a09c","ios":"levelo://app?vid=f336b29b-8563-43e0-873b-ea8fc145a09c"},"vehicle_type_id":"4","last_reported":1744265682,"current_range_meters":20400,"station_id":"","pricing_plan_id":"cebpf4jnsgd1na2vs0mg"},{"bike_id":"d166fdfe-f1f3-4c84-b908-054e23f2ae83","system_id":"levelo_inurba_marseille","lat":43.26574,"lon":5.39008,"is_reserved":false,"is_disabled":false,"rental_uris":{"android":"levelo://app?vid=d166fdfe-f1f3-4c84-b908-054e23f2ae83","ios":"levelo://app?vid=d166fdfe-f1f3-4c84-b908-054e23f2ae83"},"vehicle_type_id":"4","last_reported":1744265682,"current_range_meters":20400,"station_id":"ce4bhe12rcd13ifvqf30","pricing_plan_id":"cebpf4jnsgd1na2vs0mg"},{"bike_id":"23003b74-d417-49b0-ba89-634558680b0a","system_id":"levelo_inurba_marseille","lat":43.24077,"lon":5.37763,"is_reserved":false,"is_disabled":false,"rental_uris":{"android":"levelo://app?vid=23003b74-d417-49b0-ba89-634558680b0a","ios":"levelo://app?vid=23003b74-d417-49b0-ba89-634558680b0a"},"vehicle_type_id":"4","last_reported":1744265682,"current_range_meters":20400,"station_id":"ce4bhnp2rcd13ifvqgvg","pricing_plan_id":"cebpf4jnsgd1na2vs0mg"},{"bike_id":"8827baa1-e0b3-4d69-b0a6-9408f69ad3e7","system_id":"levelo_inurba_marseille","lat":43.29625,"lon":5.37155,"is_reserved":false,"is_disabled":false,"rental_uris":{"android":"levelo://app?vid=8827baa1-e0b3-4d69-b0a6-9408f69ad3e7","ios":"levelo://app?vid=8827baa1-e0b3-4d69-b0a6-9408f69ad3e7"},"vehicle_type_id":"4","last_reported":1744265682,"current_range_meters":20000,"station_id":"ce4bgnh2rcd13ifvqc0g","pricing_plan_id":"cebpf4jnsgd1na2vs0mg"},{"bike_id":"34f2497a-d942-4e24-a3a2-a25f5991cb54","system_id":"levelo_inurba_marseille","lat":43.28156,"lon":5.42646,"is_reserved":false,"is_disabled":false,"rental_uris":{"android":"levelo://app?vid=34f2497a-d942-4e24-a3a2-a25f5991cb54","ios":"levelo://app?vid=34f2497a-d942-4e24-a3a2-a25f5991cb54"},"vehicle_type_id":"4","last_reported":1744265682,"current_range_meters":20800,"station_id":"ce4bhnh2rcd13ifvqgug","pricing_plan_id":"cebpf4jnsgd1na2vs0mg"},{"bike_id":"be927a6d-0d8b-4f77-b0a1-8d0602959eb3","system_id":"levelo_inurba_marseille","lat":43.29108,"lon":5.40098,"is_reserved":false,"is_disabled":false,"rental_uris":{"android":"levelo://app?vid=be927a6d-0d8b-4f77-b0a1-8d0602959eb3","ios":"levelo://app?vid=be927a6d-0d8b-4f77-b0a1-8d0602959eb3"},"vehicle_type_id":"4","last_reported":1744265682,"current_range_meters":20800,"station_id":"","pricing_plan_id":"cebpf4jnsgd1na2vs0mg"},{"bike_id":"85a529ba-7cd0-4648-b5f2-46fec484c419","system_id":"levelo_inurba_marseille","lat":43.307892,"lon":5.376478,"is_reserved":false,"is_disabled":false,"rental_uris":{"android":"levelo://app?vid=85a529ba-7cd0-4648-b5f2-46fec484c419","ios":"levelo://app?vid=85a529ba-7cd0-4648-b5f2-46fec484c419"},"vehicle_type_id":"4","last_reported":1744265682,"current_range_meters":20800,"station_id":"ce4bgv92rcd13ifvqcq0","pricing_plan_id":"cebpf4jnsgd1na2vs0mg"},