{"last_updated":1707052140,"ttl":30,"version":"2.2","data":{"bikes":[{"bike_id":"de295ffe-5af6-41ae-b673-8bb3fccc30f9","system_id":"levelo_inurba_marseille","lat":43.31341,"lon":5.367098,"is_reserved":false,"is_disabled":false,"rental_uris":{"android":"levelo://app?vid=de295ffe-5af6-41ae-b673-8bb3fccc30f9","ios":"levelo://app?vid=de295ffe-5af6-41ae-b673-8bb3fccc30f9"},"vehicle_type_id":"4","last_reported":1707052140,"current_range_meters":16000,"station_id":"ce4bgr92rcd13ifvqc6g","pricing_plan_id":"free"},{"bike_id":"d95e2387-434c-4b69-8908-9707087feaf0","system_id":"levelo_inurba_marseille","lat":43.312239,"lon":5.368562,"is_reserved":false,"is_disabled":false,"rental_uris":{"android":"levelo://app?vid=d95e2387-434c-4b69-8908-9707087feaf0","ios":"levelo://app?vid=d95e2387-434c-4b69-8908-9707087feaf0"},"vehicle_type_id":"4","last_reported":1707052140,"current_range_meters":0,"station_id":"ce4bgl92rcd13ifvqbq0","pricing_plan_id":"free"},{"bike_id":"ddf4ba4c-d640-4874-bc07-19c1970fccf8","system_id":"levelo_inurba_marseille","lat":43.312239,"lon":5.368562,"is_reserved":false,"is_disabled":false,"rental_uris":{"android":"levelo://app?vid=ddf4ba4c-d640-4874-bc07-19c1970fccf8","ios":"levelo://app?vid=ddf4ba4c-d640-4874-bc07-19c1970fccf8"},"vehicle_type_id":"4","last_reported":1707052140,"current_range_meters":24400,"station_id":"ce4bgl92rcd13ifvqbq0","pricing_plan_id":"free"},{"bike_id":"8bea6ee2-bb12-4611-84ff-9527b54da0c8","system_id":"levelo_inurba_marseille","lat":43.314168,"lon":5.369594,"is_reserved":false,"is_disabled":false,"rental_uris":{"android":"levelo://app?vid=8bea6ee2-bb12-4611-84ff-9527b54da0c8","ios":"levelo://app?vid=8bea6ee2-bb12-4611-84ff-9527b54da0c8"},"vehicle_type_id":"4","last_reported":1707052140,"current_range_meters":28800,"station_id":"","pricing_plan_id":"free"},{"bike_id":"9833e268-936e-42b3-a216-fba6b0b866eb","system_id":"levelo_inurba_marseille","lat":43.314811,"lon":5.373104,"is_reserved":false,"is_disabled":false,"rental_uris":{"android":"levelo://app?vid=9833e268-936e-42b3-a216-fba6b0b866eb","ios":"levelo://app?vid=9833e268-936e-42b3-a216-fba6b0b866eb"},"vehicle_type_id":"4","last_reported":1707052140,"current_range_meters":0,"station_id":"ce4bgt12rcd13ifvqcd0","pricing_plan_id":"free"},{"bike_id":"6ecd07a2-ee5e-47c4-93be-a7d99db601d7","system_id":"levelo_inurba_marseille","lat":43.31493,"lon":5.37305,"is_reserved":false,"is_disabled":false,"rental_uris":{"android":"levelo://app?vid=6ecd07a2-ee5e-47c4-93be-a7d99db601d7","ios":"levelo://app?vid=6ecd07a2-ee5e-47c4-93be-a7d99db601d7"},"vehicle_type_id":"4","last_reported":1707052140,"current_range_meters":0,"station_id":"ce4bgt12rcd13ifvqcd0","pricing_plan_id":"free"},{"bike_id":"fe10b9e7-bc70-4094-b5eb-57282a9868cd","system_id":"levelo_inurba_marseille","lat":43.31495,"lon":5.3731,"is_reserved":false,"is_disabled":false,"rental_uris":{"android":"levelo://app?vid=fe10b9e7-bc70-4094-b5eb-57282a9868cd","ios":"levelo://app?vid=fe10b9e7-bc70-4094-b5eb-57282a9868cd"},"vehicle_type_id":"4","last_reported":1707052140,"current_range_meters":0,"station_id":"ce4bgt12rcd13ifvqcd0","pricing_plan_id":"free"},{"bike_id":"82634a15-58d6-490e-9ad8-4261dbaa00cb","system_id":"levelo_inurba_marseille","lat":43.30917,"lon":5.37185,"is_reserved":false,"is_disabled":false,"rental_uris":{"android":"levelo://app?vid=82634a15-58d6-490e-9ad8-4261dbaa00cb","ios":"levelo://app?vid=82634a15-58d6-490e-9ad8-4261dbaa00cb"},"vehicle_type_id":"4","last_reported":1707052140,"current_range_meters":0,"station_id":"ce4bguh2rcd13ifvqckg","pricing_plan_id":"free"},{"bike_id":"4d82c740-6280-4cde-aed6-cd83c5b72eef","system_id":"levelo_inurba_marseille","lat":43.309039,"lon":5.371797,"is_reserved":false,"is_disabled":false,"rental_uris":{"android":"levelo://app?vid=4d82c740-6280-4cde-aed6-cd83c5b72eef","ios":"levelo://app?vid=4d82c740-6280-4cde-aed6-cd83c5b72eef"},"vehicle_type_id":"4","last_reported":1707052140,"current_range_meters":9600,"station_id":"ce4bguh2rcd13ifvqckg","pricing_plan_id":"free"},{"bike_id":"9f685ce1-b684-4d0f-9cfc-89b70558d519","system_id":"levelo_inurba_marseille","lat":43.305368,"lon":5.367343,"is_reserved":false,"is_disabled":false,"rental_uris":{"android":"levelo://app?vid=9f685ce1-b684-4d0f-9cfc-89b70558d519","ios":"levelo://app?vid=9f685ce1-b684-4d0f-9cfc-89b70558d519"},"vehicle_type_id":"4","last_reported":1707052140,"current_range_meters":31200,"station_id":"ce4bgrp2rcd13ifvqc9g","pricing_plan_id":"free"},{"bike_id":"2ab12f04-1628-461b-aa15-4b14240907f3","system_id":"levelo_inurba_marseille","lat":43.305368,"lon":5.367343,"is_reserved":false,"is_disabled":false,"rental_uris":{"android":"levelo://app?vid=2ab12f04-1628-461b-aa15-4b14240907f3","ios":"levelo://app?vid=2ab12f04-1628-461b-aa15-4b14240907f3"},"vehicle_type_id":"4","last_reported":1707052140,"current_range_meters":17600,"station_id":"ce4bgrp2rcd13ifvqc9g","pricing_plan_id":"free"},{"bike_id":"4ab340f9-ab92-45b0-8a3e-7e06017bb31f","system_id":"levelo_inurba_marseille","lat":43.305368,"lon":5.367343,"is_reserved":false,"is_disabled":false,"rental_uris":{"android":"levelo://app?vid=4ab340f9-ab92-45b0-8a3e-7e06017bb31f","ios":"levelo://app?vid=4ab340f9-ab92-45b0-8a3e-7e06017bb31f"},"vehicle_type_id":"4","last_reported":1707052140,"current_range_meters":27200,"station_id":"ce4bgrp2rcd13ifvqc9g","pricing_plan_id":"free"},{"bike_id":"a2bd0a9b-04f4-4c0b-834d-485dd96cabd5","system_id":"levelo_inurba_marseille","lat":43.305368,"lon":5.367343,"is_reserved":false,"is_disabled":false,"rental_uris":{"android":"levelo://app?vid=a2bd0a9b-04f4-4c0b-834d-485dd96cabd5","ios":"levelo://app?vid=a2bd0a9b-04f4-4c0b-834d-485dd96cabd5"},"vehicle_type_id":"4","last_reported":1707052140,"current_range_meters":19600,"station_id":"ce4bgrp2rcd13ifvqc9g","pricing_plan_id":"free"},{"bike_id":"6d4781e5-fcbe-4cde-a383-d81f4d3c73a5","system_id":"levelo_inurba_marseille","lat":43.305368,"lon":5.367343,"is_reserved":false,"is_disabled":false,"rental_uris":{"android":"levelo://app?vid=6d4781e5-fcbe-4cde-a383-d81f4d3c73a5","ios":"levelo://app?vid=6d4781e5-fcbe-4cde-a383-d81f4d3c73a5"},"vehicle_type_id":"4","last_reported":1707052140,"current_range_meters":4400,"station_id":"ce4bgrp2rcd13ifvqc9g","pricing_plan_id":"free"},{"bike_id":"a0b2e381-9b87-4071-b665-79e9a0e2f024","system_id":"levelo_inurba_marseille","lat":43.305706,"lon":5.365654,"is_reserved":false,"is_disabled":false,"rental_uris":{"android":"levelo://app?vid=a0b2e381-9b87-4071-b665-79e9a0e2f024","ios":"levelo://app?vid=a0b2e381-9b87-4071-b665-79e9a0e2f024"},"vehicle_type_id":"4","last_reported":1707052140,"current_range_meters":23600,"station_id":"ce4bgs12rcd13ifvqcag","pricing_plan_id":"free"},{"bike_id":"8d562640-6220-4436-9784-f553f5970d2d","system_id":"levelo_inurba_marseille","lat":43.305368,"lon":5.367343,"is_reserved":false,"is_disabled":false,"rental_uris":{"android":"levelo://app?vid=8d562640-6220-4436-9784-f553f5970d2d","ios":"levelo://app?vid=8d562640-6220-4436-9784-f553f5970d2d"},"vehicle_type_id":"4","last_reported":1707052140,"current_range_meters":10400,"station_id":"ce4bgrp2rcd13ifvqc9g","pricing_plan_id":"free"},{"bike_id":"0dcf5ffe-ecf8-427d-a904-ad8ac7aba93e","system_id":"levelo_inurba_marseille","lat":43.305706,"lon":5.365654,"is_reserved":false,"is_disabled":false,"rental_uris":{"android":"levelo://app?vid=0dcf5ffe-ecf8-427d-a904-ad8ac7aba93e","ios":"levelo://app?vid=0dcf5ffe-ecf8-427d-a904-ad8ac7aba93e"},"vehicle_type_id":"4","last_reported":1707052140,"current_range_meters":15200,"station_id":"ce4bgs12rcd13ifvqcag","pricing_plan_id":"free"},{"bike_id":"98790c96-e454-4d28-abed-9a8739cf50f5","system_id":"levelo_inurba_marseille","lat":43.305706,"lon":5.365654,"is_reserved":false,"is_disabled":false,"rental_uris":{"android":"levelo://app?vid=98790c96-e454-4d28-abed-9a8739cf50f5","ios":"levelo://app?vid=98790c96-e454-4d28-abed-9a8739cf50f5"},"vehicle_type_id":"4","last_reported":1707052140,"current_range_meters":18000,"station_id":"ce4bgs12rcd13ifvqcag","pricing_plan_id":"free"},{"bike_id":"37c91433-18a1-4883-aae1-e55f30676fcd","system_id":"levelo_inurba_marseille","lat":43.305368,"lon":5.367343,"is_reserved":false,"is_disabled":false,"rental_uris":{"android":"levelo://app?vid=37c91433-18a1-4883-aae1-e55f30676fcd","ios":"levelo://app?vid=37c91433-18a1-4883-aae1-e55f30676fcd"},"vehicle_type_id":"4","last_reported":1707052140,"current_range_meters":16400,"station_id":"ce4bgrp2rcd13ifvqc9g","pricing_plan_id":"free"},{"bike_id":"0c11532b-c16f-4049-8e35-4644b6a391df","system_id":"levelo_inurba_marseille","lat":43.30529,"lon":5.36541,"is_reserved":false,"is_disabled":false,"rental_uris":{"android":"levelo://app?vid=0c11532b-c16f-4049-8e35-4644b6a391df","ios":"levelo://app?vid=0c11532b-c16f-4049-8e35-4644b6a391df"},"vehicle_type_id":"4","last_reported":1707052140,"current_range_meters":22000,"station_id":"ce4bgs12rcd13ifvqcag","pricing_plan_id":"free"},{"bike_id":"bc82912f-2213-4d7a-9014-3568616d3e15","system_id":"levelo_inurba_marseille","lat":43.305706,"lon":5.365654,"is_reserved":false,"is_disabled":false,"rental_uris":{"android":"levelo://app?vid=bc82912f-2213-4d7a-9014-3568616d3e15","ios":"levelo://app?vid=bc82912f-2213-4d7a-9014-3568616d3e15"},"vehicle_type_id":"4","last_reported":1707052140,"current_range_meters":18000,"station_id":"ce4bgs12rcd13ifvqcag","pricing_plan_id":"free"},{"bike_id":"e8f15d47-2348-41e8-af07-84f756dded7d","system_id":"levelo_inurba_marseille","lat":43.305989,"lon":5.37225,"is_reserved":false,"is_disabled":false,"rental_uris":{"android":"levelo://app?vid=e8f15d47-2348-41e8-af07-84f756dded7d","ios":"levelo://app?vid=e8f15d47-2348-41e8-af07-84f756dded7d"},"vehicle_type_id":"4","last_reported":1707052140,"current_range_meters":4400,"station_id":"ce4bgqh2rcd13ifvqc4g","pricing_plan_id":"free"},{"bike_id":"3e3d4bf6-3921-4cb1-a4fc-851b57c6173f","system_id":"levelo_inurba_marseille","lat":43.31109,"lon":5.37778,"is_reserved":false,"is_disabled":false,"rental_uris":{"android":"levelo://app?vid=3e3d4bf6-3921-4cb1-a4fc-851b57c6173f","ios":"levelo://app?vid=3e3d4bf6-3921-4cb1-a4fc-851b57c6173f"},"vehicle_type_id":"4","last_reported":1707052140,"current_range_meters":8400,"station_id":"ce4bgt92rcd13ifvqcg0","pricing_plan_id":"free"},{"bike_id":"c60e7252-bcc2-4201-a624-aec62d3d6b5d","system_id":"levelo_inurba_marseille","lat":43.316473,"lon":5.376847,"is_reserved":false,"is_disabled":false,"rental_uris":{"android":"levelo://app?vid=c60e7252-bcc2-4201-a624-aec62d3d6b5d","ios":"levelo://app?vid=c60e7252-bcc2-4201-a624-aec62d3d6b5d"},"vehicle_type_id":"4","last_reported":1707052140,"current_range_meters":1600,"station_id":"","pricing_plan_id":"free"},{"bike_id":"6786bc41-ee5d-489a-9c71-2c129a091e3e","system_id":"levelo_inurba_marseille","lat":43.317075,"lon":5.377367,"is_reserved":false,"is_disabled":false,"rental_uris":{"android":"levelo://app?vid=6786bc41-ee5d-489a-9c71-2c129a091e3e","ios":"levelo://app?vid=6786bc41-ee5d-489a-9c71-2c129a091e3e"},"vehicle_type_id":"4","last_reported":1707052140,"current_range_meters":21200,"station_id":"ce4bgth2rcd13ifvqch0","pricing_plan_id":"free"},{"bike_id":"b3fdee80-37a0-47bb-b8ca-a3c133c6ab3b","system_id":"levelo_inurba_marseille","lat":43.303131,"lon":5.369095,"is_reserved":false,"is_disabled":false,"rental_uris":{"android":"levelo://app?vid=b3fdee80-37a0-47bb-b8ca-a3c133c6ab3b","ios":"levelo://app?vid=b3fdee80-37a0-47bb-b8ca-a3c133c6ab3b"},"vehicle_type_id":"4","last_reported":1707052140,"current_range_meters":15200,"station_id":"ce4bgqh2rcd13ifvqc5g","pricing_plan_id":"free"},{"bike_id":"422b088a-4bb7-4481-99a2-d4093c56e114","system_id":"levelo_inurba_marseille","lat":43.301939,"lon":5.366286,"is_reserved":false,"is_disabled":false,"rental_uris":{"android":"levelo://app?vid=422b088a-4bb7-4481-99a2-d4093c56e114","ios":"levelo://app?vid=422b088a-4bb7-4481-99a2-d4093c56e114"},"vehicle_type_id":"4","last_reported":1707052140,"current_range_meters":29200,"station_id":"ce4bgrh2rcd13ifvqc8g","pricing_plan_id":"free"},{"bike_id":"681af3e8-0936-4066-a358-2200ebb59299","system_id":"levelo_inurba_marseille","lat":43.301939,"lon":5.366286,"is_reserved":false,"is_disabled":false,"rental_uris":{"android":"levelo://app?vid=681af3e8-0936-4066-a358-2200ebb59299","ios":"levelo://app?vid=681af3e8-0936-4066-a358-2200ebb59299"},"vehicle_type_id":"4","last_reported":1707052140,"current_range_meters":16800,"station_id":"ce4bgrh2rcd13ifvqc8g","pricing_plan_id":"free"},{"bike_id":"2ac12b49-ef67-4f2d-94f3-519d72025e95","system_id":"levelo_inurba_marseille","lat":43.301939,"lon":5.366286,"is_reserved":false,"is_disabled":false,"rental_uris":{"android":"levelo://app?vid=2ac12b49-ef67-4f2d-94f3-519d72025e95","ios":"levelo://app?vid=2ac12b49-ef67-4f2d-94f3-519d72025e95"},"vehicle_type_id":"4","last_reported":1707052140,"current_range_meters":17600,"station_id":"ce4bgrh2rcd13ifvqc8g","pricing_plan_id":"free"},{"bike_id":"dd1d9ffc-946e-473a-b635-7f8a158a9fe8","system_id":"levelo_inurba_marseille","lat":43.301939,"lon":5.366286,"is_reserved":false,"is_disabled":false,"rental_uris":{"android":"levelo://app?vid=dd1d9ffc-946e-473a-b635-7f8a158a9fe8","ios":"levelo://app?vid=dd1d9ffc-946e-473a-b635-7f8a158a9fe8"},"vehicle_type_id":"4","last_reported":1707052140,"current_range_meters":31200,"station_id":"ce4bgrh2rcd13ifvqc8g","pricing_plan_id":"free"},{"bike_id":"8d413466-9bc7-461a-9510-0f9fc336a503","system_id":"levelo_inurba_marseille","lat":43.324771,"lon":5.36557,"is_reserved":false,"is_disabled":false,"rental_uris":{"android":"levelo://app?vid=8d413466-9bc7-461a-9510-0f9fc336a503","ios":"levelo://app?vid=8d413466-9bc7-461a-9510-0f9fc336a503"},"vehicle_type_id":"4","last_reported":1707052140,"current_range_meters":16000,"station_id":"ce4bhs12rcd13ifvqhvg","pricing_plan_id":"free"},{"bike_id":"bc974708-dcbd-4a8a-ac0d-164e8d7c65dc","system_id":"levelo_inurba_marseille","lat":43.324771,"lon":5.36557,"is_reserved":false,"is_disabled":false,"rental_uris":{"android":"levelo://app?vid=bc974708-dcbd-4a8a-ac0d-164e8d7c65dc","ios":"levelo://app?vid=bc974708-dcbd-4a8a-ac0d-164e8d7c65dc"},"vehicle_type_id":"4","last_reported":1707052140,"current_range_meters":22000,"station_id":"ce4bhs12rcd13ifvqhvg","pricing_plan_id":"free"},{"bike_id":"45431690-367e-4bb6-94e3-091374a3108b","system_id":"levelo_inurba_marseille","lat":43.302945,"lon":5.376974,"is_reserved":false,"is_disabled":false,"rental_uris":{"android":"levelo://app?vid=45431690-367e-4bb6-94e3-091374a3108b","ios":"levelo://app?vid=45431690-367e-4bb6-94e3-091374a3108b"},"vehicle_type_id":"4","last_reported":1707052140,"current_range_meters":26800,"station_id":"ce4bguh2rcd13ifvqcj0","pricing_plan_id":"free"},{"bike_id":"dda80877-c865-40ce-bbdd-2867bd7c1a84","system_id":"levelo_inurba_marseille","lat":43.302862,"lon":5.376945,"is_reserved":false,"is_disabled":false,"rental_uris":{"android":"levelo://app?vid=dda80877-c865-40ce-bbdd-2867bd7c1a84","ios":"levelo://app?vid=dda80877-c865-40ce-bbdd-2867bd7c1a84"},"vehicle_type_id":"4","last_reported":1707052140,"current_range_meters":29600,"station_id":"ce4bguh2rcd13ifvqcj0","pricing_plan_id":"free"},{"bike_id":"51aaf1a4-0ac7-426a-b1d1-bf0c43f25745","system_id":"levelo_inurba_marseille","lat":43.31075,"lon":5.38358,"is_reserved":false,"is_disabled":false,"rental_uris":{"android":"levelo://app?vid=51aaf1a4-0ac7-426a-b1d1-bf0c43f25745","ios":"levelo://app?vid=51aaf1a4-0ac7-426a-b1d1-bf0c43f25745"},"vehicle_type_id":"4","last_reported":1707052140,"current_range_meters":26000,"station_id":"ce4bgv92rcd13ifvqcr0","pricing_plan_id":"free"},{"bike_id":"d5752836-f393-4b21-ba9c-c2b9ba436727","system_id":"levelo_inurba_marseille","lat":43.302784,"lon":5.376992,"is_reserved":false,"is_disabled":false,"rental_uris":{"android":"levelo://app?vid=d5752836-f393-4b21-ba9c-c2b9ba436727","ios":"levelo://app?vid=d5752836-f393-4b21-ba9c-c2b9ba436727"},"vehicle_type_id":"4","last_reported":1707052140,"current_range_meters":27200,"station_id":"ce4bguh2rcd13ifvqcj0","pricing_plan_id":"free"},{"bike_id":"fb9beed5-30de-4ca4-8427-e5ed09d576be","system_id":"levelo_inurba_marseille","lat":43.301429,"lon":5.37413,"is_reserved":false,"is_disabled":false,"rental_uris":{"android":"levelo://app?vid=fb9beed5-30de-4ca4-8427-e5ed09d576be","ios":"levelo://app?vid=fb9beed5-30de-4ca4-8427-e5ed09d576be"},"vehicle_type_id":"4","last_reported":1707052140,"current_range_meters":28000,"station_id":"ce4bgs92rcd13ifvqcc0","pricing_plan_id":"free"},{"bike_id":"327ccafe-2f7f-4429-8f9a-ac292b5f6b59","system_id":"levelo_inurba_marseille","lat":43.313571,"lon":5.384829,"is_reserved":false,"is_disabled":false,"rental_uris":{"android":"levelo://app?vid=327ccafe-2f7f-4429-8f9a-ac292b5f6b59","ios":"levelo://app?vid=327ccafe-2f7f-4429-8f9a-ac292b5f6b59"},"vehicle_type_id":"4","last_reported":1707052140,"current_range_meters":24400,"station_id":"ce4bgt92rcd13ifvqcf0","pricing_plan_id":"free"},{"bike_id":"c8179aa9-499f-4951-a318-a9b7501ed829","system_id":"levelo_inurba_marseille","lat":43.313571,"lon":5.384829,"is_reserved":false,"is_disabled":false,"rental_uris":{"android":"levelo://app?vid=c8179aa9-499f-4951-a318-a9b7501ed829","ios":"levelo://app?vid=c8179aa9-499f-4951-a318-a9b7501ed829"},"vehicle_type_id":"4","last_reported":1707052140,"current_range_meters":29600,"station_id":"ce4bgt92rcd13ifvqcf0","pricing_plan_id":"free"},{"bike_id":"a9240393-ec67-473d-aed6-83808febf2bd","system_id":"levelo_inurba_marseille","lat":43.298433,"lon":5.362774,"is_reserved":false,"is_disabled":false,"rental_uris":{"android":"levelo://app?vid=a9240393-ec67-473d-aed6-83808febf2bd","ios":"levelo://app?vid=a9240393-ec67-473d-aed6-83808febf2bd"},"vehicle_type_id":"4","last_reported":1707052140,"current_range_meters":26400,"station_id":"ce4bgpp2rcd13ifvqc3g","pricing_plan_id":"free"},{"bike_id":"cb1a9700-b552-4b90-bdee-62222774712a","system_id":"levelo_inurba_marseille","lat":43.298433,"lon":5.362774,"is_reserved":false,"is_disabled":false,"rental_uris":{"android":"levelo://app?vid=cb1a9700-b552-4b90-bdee-62222774712a","ios":"levelo://app?vid=cb1a9700-b552-4b90-bdee-62222774712a"},"vehicle_type_id":"4","last_reported":1707052140,"current_range_meters":22800,"station_id":"ce4bgpp2rcd13ifvqc3g","pricing_plan_id":"free"},{"bike_id":"d3067c66-e7e2-46f1-8f0d-eabc61ae0d41","system_id":"levelo_inurba_marseille","lat":43.322837,"lon":5.382732,"is_reserved":false,"is_disabled":false,"rental_uris":{"android":"levelo://app?vid=d3067c66-e7e2-46f1-8f0d-eabc61ae0d41","ios":"levelo://app?vid=d3067c66-e7e2-46f1-8f0d-eabc61ae0d41"},"vehicle_type_id":"4","last_reported":1707052140,"current_range_meters":3600,"station_id":"ce4bhr12rcd13ifvqhqg","pricing_plan_id":"free"},{"bike_id":"a28f0eb8-6ba7-4a7e-9d96-6aa8c8ab36d0","system_id":"levelo_inurba_marseille","lat":43.322872,"lon":5.382756,"is_reserved":false,"is_disabled":false,"rental_uris":{"android":"levelo://app?vid=a28f0eb8-6ba7-4a7e-9d96-6aa8c8ab36d0","ios":"levelo://app?vid=a28f0eb8-6ba7-4a7e-9d96-6aa8c8ab36d0"},"vehicle_type_id":"4","last_reported":1707052140,"current_range_meters":30400,"station_id":"ce4bhr12rcd13ifvqhqg","pricing_plan_id":"free"},{"bike_id":"8b023912-5267-4e1c-a403-4d70b425cebe","system_id":"levelo_inurba_marseille","lat":43.322881,"lon":5.382814,"is_reserved":false,"is_disabled":false,"rental_uris":{"android":"levelo://app?vid=8b023912-5267-4e1c-a403-4d70b425cebe","ios":"levelo://app?vid=8b023912-5267-4e1c-a403-4d70b425cebe"},"vehicle_type_id":"4","last_reported":1707052140,"current_range_meters":29600,"station_id":"ce4bhr12rcd13ifvqhqg","pricing_plan_id":"free"},{"bike_id":"1900e2ea-9239-49b1-933e-57903fa99707","system_id":"levelo_inurba_marseille","lat":43.32826,"lon":5.36695,"is_reserved":false,"is_disabled":false,"rental_uris":{"android":"levelo://app?vid=1900e2ea-9239-49b1-933e-57903fa99707","ios":"levelo://app?vid=1900e2ea-9239-49b1-933e-57903fa99707"},"vehicle_type_id":"4","last_reported":1707052140,"current_range_meters":10800,"station_id":"ce4bhs92rcd13ifvqi0g","pricing_plan_id":"free"},{"bike_id":"81d6c55c-5ab6-4964-9500-181a7b78889c","system_id":"levelo_inurba_marseille","lat":43.32829,"lon":5.36691,"is_reserved":false,"is_disabled":false,"rental_uris":{"android":"levelo://app?vid=81d6c55c-5ab6-4964-9500-181a7b78889c","ios":"levelo://app?vid=81d6c55c-5ab6-4964-9500-181a7b78889c"},"vehicle_type_id":"4","last_reported":1707052140,"current_range_meters":11600,"station_id":"ce4bhs92rcd13ifvqi0g","pricing_plan_id":"free"},{"bike_id":"d73908e2-2bfd-489b-804e-d4e95fac72d2","system_id":"levelo_inurba_marseille","lat":43.32831,"lon":5.36681,"is_reserved":false,"is_disabled":false,"rental_uris":{"android":"levelo://app?vid=d73908e2-2bfd-489b-804e-d4e95fac72d2","ios":"levelo://app?vid=d73908e2-2bfd-489b-804e-d4e95fac72d2"},"vehicle_type_id":"4","last_reported":1707052140,"current_range_meters":22400,"station_id":"ce4bhs92rcd13ifvqi0g","pricing_plan_id":"free"},{"bike_id":"826d6702-3df2-4cde-8602-a4dc295f2f35","system_id":"levelo_inurba_marseille","lat":43.297163,"lon":5.365866,"is_reserved":false,"is_disabled":false,"rental_uris":{"android":"levelo://app?vid=826d6702-3df2-4cde-8602-a4dc295f2f35","ios":"levelo://app?vid=826d6702-3df2-4cde-8602-a4dc295f2f35"},"vehicle_type_id":"4","last_reported":1707052140,"current_range_meters":16400,"station_id":"ce4bgn12rcd13ifvqbt0","pricing_plan_id":"free"},{"bike_id":"e71dbeb2-bdcd-41a9-9e92-b0477debf34d","system_id":"levelo_inurba_marseille","lat":43.296497,"lon":5.374463,"is_reserved":false,"is_disabled":false,"rental_uris":{"android":"levelo://app?vid=e71dbeb2-bdcd-41a9-9e92-b0477debf34d","ios":"levelo://app?vid=e71dbeb2-bdcd-41a9-9e92-b0477debf34d"},"vehicle_type_id":"4","last_reported":1707052140,"current_range_meters":12800,"station_id":"","pricing_plan_id":"free"},{"bike_id":"12297df7-e077-449d-8cdc-f16aad577638","system_id":"levelo_inurba_marseille","lat":43.30961,"lon":5.39038,"is_reserved":false,"is_disabled":false,"rental_uris":{"android":"levelo://app?vid=12297df7-e077-449d-8cdc-f16aad577638","ios":"levelo://app?vid=12297df7-e077-449d-8cdc-f16aad577638"},"vehicle_type_id":"4","last_reported":1707052140,"current_range_meters":23200,"station_id":"ce4bgup2rcd13ifvqco0","pricing_plan_id":"free"},{"bike_id":"c7970a6b-9cd7-4bd9-9cf2-3c58e824a04c","system_id":"levelo_inurba_marseille","lat":43.317557,"lon":5.390173,"is_reserved":false,"is_disabled":false,"rental_uris":{"android":"levelo://app?vid=c7970a6b-9cd7-4bd9-9cf2-3c58e824a04c","ios":"levelo://app?vid=c7970a6b-9cd7-4bd9-9cf2-3c58e824a04c"},"vehicle_type_id":"4","last_reported":1707052140,"current_range_meters":11600,"station_id":"ce4bhqp2rcd13ifvqhng","pricing_plan_id":"free"},{"bike_id":"15ebf64d-09af-4cd5-9bbd-35d3850675ca","system_id":"levelo_inurba_marseille","lat":43.317557,"lon":5.390173,"is_reserved":false,"is_disabled":false,"rental_uris":{"android":"levelo://app?vid=15ebf64d-09af-4cd5-9bbd-35d3850675ca","ios":"levelo://app?vid=15ebf64d-09af-4cd5-9bbd-35d3850675ca"},"vehicle_type_id":"4","last_reported":1707052140,"current_range_meters":18000,"station_id":"ce4bhqp2rcd13ifvqhng","pricing_plan_id":"free"},{"bike_id":"a100895a-dfdf-4e9d-bf4a-f1415c1f64e0","system_id":"levelo_inurba_marseille","lat":43.317557,"lon":5.390173,"is_reserved":false,"is_disabled":false,"rental_uris":{"android":"levelo://app?vid=a100895a-dfdf-4e9d-bf4a-f1415c1f64e0","ios":"levelo://app?vid=a100895a-dfdf-4e9d-bf4a-f1415c1f64e0"},"vehicle_type_id":"4","last_reported":1707052140,"current_range_meters":24000,"station_id":"ce4bhqp2rcd13ifvqhng","pricing_plan_id":"free"},{"bike_id":"86eba5ee-3f3e-465e-879d-a26eca611b6f","system_id":"levelo_inurba_marseille","lat":43.318277,"lon":5.390272,"is_reserved":false,"is_disabled":false,"rental_uris":{"android":"levelo://app?vid=86eba5ee-3f3e-465e-879d-a26eca611b6f","ios":"levelo://app?vid=86eba5ee-3f3e-465e-879d-a26eca611b6f"},"vehicle_type_id":"4","last_reported":1707052140,"current_range_meters":17200,"station_id":"","pricing_plan_id":"free"},{"bike_id":"c2fa32e5-0c73-42a2-8d98-ae409db1d5ce","system_id":"levelo_inurba_marseille","lat":43.304274,"lon":5.388873,"is_reserved":false,"is_disabled":false,"rental_uris":{"android":"levelo://app?vid=c2fa32e5-0c73-42a2-8d98-ae409db1d5ce","ios":"levelo://app?vid=c2fa32e5-0c73-42a2-8d98-ae409db1d5ce"},"vehicle_type_id":"4","last_reported":1707052140,"current_range_meters":28000,"station_id":"ce4bgk12rcd13ifvqbi0","pricing_plan_id":"free"},{"bike_id":"9f0ca065-5142-49b0-9016-969861d1c0df","system_id":"levelo_inurba_marseille","lat":43.304278,"lon":5.388868,"is_reserved":false,"is_disabled":false,"rental_uris":{"android":"levelo://app?vid=9f0ca065-5142-49b0-9016-969861d1c0df","ios":"levelo://app?vid=9f0ca065-5142-49b0-9016-969861d1c0df"},"vehicle_type_id":"4","last_reported":1707052140,"current_range_meters":10400,"station_id":"ce4bgk12rcd13ifvqbi0","pricing_plan_id":"free"},{"bike_id":"c11d2863-8774-49a9-8c2f-b13c8049f611","system_id":"levelo_inurba_marseille","lat":43.299707,"lon":5.384859,"is_reserved":false,"is_disabled":false,"rental_uris":{"android":"levelo://app?vid=c11d2863-8774-49a9-8c2f-b13c8049f611","ios":"levelo://app?vid=c11d2863-8774-49a9-8c2f-b13c8049f611"},"vehicle_type_id":"4","last_reported":1707052140,"current_range_meters":10400,"station_id":"ce4bgj92rcd13ifvqbd0","pricing_plan_id":"free"},{"bike_id":"f459bcc8-96d9-431d-bb45-ce1f50e6d398","system_id":"levelo_inurba_marseille","lat":43.32367,"lon":5.388836,"is_reserved":false,"is_disabled":false,"rental_uris":{"android":"levelo://app?vid=f459bcc8-96d9-431d-bb45-ce1f50e6d398","ios":"levelo://app?vid=f459bcc8-96d9-431d-bb45-ce1f50e6d398"},"vehicle_type_id":"4","last_reported":1707052140,"current_range_meters":2400,"station_id":"ce4bhqp2rcd13ifvqhog","pricing_plan_id":"free"},{"bike_id":"6546d732-35dc-4d39-bdea-98269a1dd008","system_id":"levelo_inurba_marseille","lat":43.32367,"lon":5.388836,"is_reserved":false,"is_disabled":false,"rental_uris":{"android":"levelo://app?vid=6546d732-35dc-4d39-bdea-98269a1dd008","ios":"levelo://app?vid=6546d732-35dc-4d39-bdea-98269a1dd008"},"vehicle_type_id":"4","last_reported":1707052140,"current_range_meters":4400,"station_id":"ce4bhqp2rcd13ifvqhog","pricing_plan_id":"free"},{"bike_id":"999af2fa-7743-40b1-ad5a-09d74cc1efed","system_id":"levelo_inurba_marseille","lat":43.32365,"lon":5.38881,"is_reserved":false,"is_disabled":false,"rental_uris":{"android":"levelo://app?vid=999af2fa-7743-40b1-ad5a-09d74cc1efed","ios":"levelo://app?vid=999af2fa-7743-40b1-ad5a-09d74cc1efed"},"vehicle_type_id":"4","last_reported":1707052140,"current_range_meters":23200,"station_id":"ce4bhqp2rcd13ifvqhog","pricing_plan_id":"free"},{"bike_id":"cf43375b-8817-4ab6-ad42-e6780f9b774a","system_id":"levelo_inurba_marseille","lat":43.32367,"lon":5.388836,"is_reserved":false,"is_disabled":false,"rental_uris":{"android":"levelo://app?vid=cf43375b-8817-4ab6-ad42-e6780f9b774a","ios":"levelo://app?vid=cf43375b-8817-4ab6-ad42-e6780f9b774a"},"vehicle_type_id":"4","last_reported":1707052140,"current_range_meters":12000,"station_id":"ce4bhqp2rcd13ifvqhog","pricing_plan_id":"free"},{"bike_id":"75ed1df4-b7df-4e88-9e9a-696a19f1762a","system_id":"levelo_inurba_marseille","lat":43.32367,"lon":5.38881,"is_reserved":false,"is_disabled":false,"rental_uris":{"android":"levelo://app?vid=75ed1df4-b7df-4e88-9e9a-696a19f1762a","ios":"levelo://app?vid=75ed1df4-b7df-4e88-9e9a-696a19f1762a"},"vehicle_type_id":"4","last_reported":1707052140,"current_range_meters":6400,"station_id":"ce4bhqp2rcd13ifvqhog","pricing_plan_id":"free"},{"bike_id":"9b081c91-637e-47ff-a6d8-ba13bb5f1be4","system_id":"levelo_inurba_marseille","lat":43.32369,"lon":5.38887,"is_reserved":false,"is_disabled":false,"rental_uris":{"android":"levelo://app?vid=9b081c91-637e-47ff-a6d8-ba13bb5f1be4","ios":"levelo://app?vid=9b081c91-637e-47ff-a6d8-ba13bb5f1be4"},"vehicle_type_id":"4","last_reported":1707052140,"current_range_meters":27600,"station_id":"ce4bhqp2rcd13ifvqhog","pricing_plan_id":"free"},{"bike_id":"4fb6c2a2-7a87-43dd-99e7-4d6a9714a4ed","system_id":"levelo_inurba_marseille","lat":43.279465,"lon":5.410561,"is_reserved":false,"is_disabled":false,"rental_uris":{"android":"levelo://app?vid=4fb6c2a2-7a87-43dd-99e7-4d6a9714a4ed","ios":"levelo://app?vid=4fb6c2a2-7a87-43dd-99e7-4d6a9714a4ed"},"vehicle_type_id":"4","last_reported":1707052140,"current_range_meters":21600,"station_id":"ce4bhnp2rcd13ifvqh0g","pricing_plan_id":"free"},{"bike_id":"bf1d5311-ec1b-46fa-8bac-297884b42d04","system_id":"levelo_inurba_marseille","lat":43.292749,"lon":5.368402,"is_reserved":false,"is_disabled":false,"rental_uris":{"android":"levelo://app?vid=bf1d5311-ec1b-46fa-8bac-297884b42d04","ios":"levelo://app?vid=bf1d5311-ec1b-46fa-8bac-297884b42d04"},"vehicle_type_id":"4","last_reported":1707052140,"current_range_meters":0,"station_id":"ce4bhbp2rcd13ifvqesg","pricing_plan_id":"free"},{"bike_id":"0f90d953-2b5d-4548-9aee-1fb6d84320c1","system_id":"levelo_inurba_marseille","lat":43.292749,"lon":5.368402,"is_reserved":false,"is_disabled":false,"rental_uris":{"android":"levelo://app?vid=0f90d953-2b5d-4548-9aee-1fb6d84320c1","ios":"levelo://app?vid=0f90d953-2b5d-4548-9aee-1fb6d84320c1"},"vehicle_type_id":"4","last_reported":1707052140,"current_range_meters":0,"station_id":"ce4bhbp2rcd13ifvqesg","pricing_plan_id":"free"},{"bike_id":"23a41a60-1efa-4ffd-ac2f-7af84d0958d8","system_id":"levelo_inurba_marseille","lat":43.293513,"lon":5.37509,"is_reserved":false,"is_disabled":false,"rental_uris":{"android":"levelo://app?vid=23a41a60-1efa-4ffd-ac2f-7af84d0958d8","ios":"levelo://app?vid=23a41a60-1efa-4ffd-ac2f-7af84d0958d8"},"vehicle_type_id":"4","last_reported":1707052140,"current_range_meters":19600,"station_id":"","pricing_plan_id":"free"},{"bike_id":"ca03025b-b3b6-4d9f-a3b3-081e41c8d39a","system_id":"levelo_inurba_marseille","lat":43.293056,"lon":5.374633,"is_reserved":false,"is_disabled":false,"rental_uris":{"android":"levelo://app?vid=ca03025b-b3b6-4d9f-a3b3-081e41c8d39a","ios":"levelo://app?vid=ca03025b-b3b6-4d9f-a3b3-081e41c8d39a"},"vehicle_type_id":"4","last_reported":1707052140,"current_range_meters":2800,"station_id":"","pricing_plan_id":"free"},{"bike_id":"058152cc-596c-4e6e-8f84-4dbbaa54a7f5","system_id":"levelo_inurba_marseille","lat":43.293009,"lon":5.374584,"is_reserved":false,"is_disabled":false,"rental_uris":{"android":"levelo://app?vid=058152cc-596c-4e6e-8f84-4dbbaa54a7f5","ios":"levelo://app?vid=058152cc-596c-4e6e-8f84-4dbbaa54a7f5"},"vehicle_type_id":"4","last_reported":1707052140,"current_range_meters":10000,"station_id":"ce4bgi12rcd13ifvqb70","pricing_plan_id":"free"},{"bike_id":"59c1acbd-b4ca-4ddd-8d5c-b6fe792566fa","system_id":"levelo_inurba_marseille","lat":43.303002,"lon":5.392142,"is_reserved":false,"is_disabled":false,"rental_uris":{"android":"levelo://app?vid=59c1acbd-b4ca-4ddd-8d5c-b6fe792566fa","ios":"levelo://app?vid=59c1acbd-b4ca-4ddd-8d5c-b6fe792566fa"},"vehicle_type_id":"4","last_reported":1707052140,"current_range_meters":400,"station_id":"ce4bgkh2rcd13ifvqbk0","pricing_plan_id":"free"},{"bike_id":"84594ff9-b282-459e-b8d9-ea7e82d78682","system_id":"levelo_inurba_marseille","lat":43.303002,"lon":5.392142,"is_reserved":false,"is_disabled":false,"rental_uris":{"android":"levelo://app?vid=84594ff9-b282-459e-b8d9-ea7e82d78682","ios":"levelo://app?vid=84594ff9-b282-459e-b8d9-ea7e82d78682"},"vehicle_type_id":"4","last_reported":1707052140,"current_range_meters":24400,"station_id":"ce4bgkh2rcd13ifvqbk0","pricing_plan_id":"free"},{"bike_id":"9cd11b4f-956e-45fc-9fba-ce867dd9e193","system_id":"levelo_inurba_marseille","lat":43.302992,"lon":5.392136,"is_reserved":false,"is_disabled":false,"rental_uris":{"android":"levelo://app?vid=9cd11b4f-956e-45fc-9fba-ce867dd9e193","ios":"levelo://app?vid=9cd11b4f-956e-45fc-9fba-ce867dd9e193"},"vehicle_type_id":"4","last_reported":1707052140,"current_range_meters":0,"station_id":"ce4bgkh2rcd13ifvqbk0","pricing_plan_id":"free"},{"bike_id":"a2741457-d2c5-4343-b81f-bc8e1d219793","system_id":"levelo_inurba_marseille","lat":43.30085,"lon":5.390856,"is_reserved":false,"is_disabled":false,"rental_uris":{"android":"levelo://app?vid=a2741457-d2c5-4343-b81f-bc8e1d219793","ios":"levelo://app?vid=a2741457-d2c5-4343-b81f-bc8e1d219793"},"vehicle_type_id":"4","last_reported":1707052140,"current_range_meters":8800,"station_id":"ce4bh192rcd13ifvqdb0","pricing_plan_id":"free"},{"bike_id":"2d1a888f-9784-4c95-9e46-bdf85e85124b","system_id":"levelo_inurba_marseille","lat":43.298764,"lon":5.388973,"is_reserved":false,"is_disabled":false,"rental_uris":{"android":"levelo://app?vid=2d1a888f-9784-4c95-9e46-bdf85e85124b","ios":"levelo://app?vid=2d1a888f-9784-4c95-9e46-bdf85e85124b"},"vehicle_type_id":"4","last_reported":1707052140,"current_range_meters":8000,"station_id":"ce4bh392rcd13ifvqdl0","pricing_plan_id":"free"},{"bike_id":"21f02182-dabd-4450-a4e1-706a18cd417e","system_id":"levelo_inurba_marseille","lat":43.30885,"lon":5.39631,"is_reserved":false,"is_disabled":false,"rental_uris":{"android":"levelo://app?vid=21f02182-dabd-4450-a4e1-706a18cd417e","ios":"levelo://app?vid=21f02182-dabd-4450-a4e1-706a18cd417e"},"vehicle_type_id":"4","last_reported":1707052140,"current_range_meters":24000,"station_id":"ce4bh012rcd13ifvqcv0","pricing_plan_id":"free"},{"bike_id":"427e1f87-57af-4d3e-8db1-5e163da1fc73","system_id":"levelo_inurba_marseille","lat":43.291994,"lon":5.357886,"is_reserved":false,"is_disabled":false,"rental_uris":{"android":"levelo://app?vid=427e1f87-57af-4d3e-8db1-5e163da1fc73","ios":"levelo://app?vid=427e1f87-57af-4d3e-8db1-5e163da1fc73"},"vehicle_type_id":"4","last_reported":1707052140,"current_range_meters":12800,"station_id":"ce4bhb12rcd13ifvqel0","pricing_plan_id":"free"},{"bike_id":"2221d0a3-2f96-4ab7-8654-e2f89c028b4e","system_id":"levelo_inurba_marseille","lat":43.291994,"lon":5.357886,"is_reserved":false,"is_disabled":false,"rental_uris":{"android":"levelo://app?vid=2221d0a3-2f96-4ab7-8654-e2f89c028b4e","ios":"levelo://app?vid=2221d0a3-2f96-4ab7-8654-e2f89c028b4e"},"vehicle_type_id":"4","last_reported":1707052140,"current_range_meters":20800,"station_id":"ce4bhb12rcd13ifvqel0","pricing_plan_id":"free"},{"bike_id":"23f7eba8-017e-4165-84bb-422991627aa0","system_id":"levelo_inurba_marseille","lat":43.30882,"lon":5.39658,"is_reserved":false,"is_disabled":false,"rental_uris":{"android":"levelo://app?vid=23f7eba8-017e-4165-84bb-422991627aa0","ios":"levelo://app?vid=23f7eba8-017e-4165-84bb-422991627aa0"},"vehicle_type_id":"4","last_reported":1707052140,"current_range_meters":25200,"station_id":"ce4bh012rcd13ifvqcv0","pricing_plan_id":"free"},{"bike_id":"4419a724-5255-4916-9ab6-08c2c5ae2fc3","system_id":"levelo_inurba_marseille","lat":43.316319,"lon":5.396746,"is_reserved":false,"is_disabled":false,"rental_uris":{"android":"levelo://app?vid=4419a724-5255-4916-9ab6-08c2c5ae2fc3","ios":"levelo://app?vid=4419a724-5255-4916-9ab6-08c2c5ae2fc3"},"vehicle_type_id":"4","last_reported":1707052140,"current_range_meters":28800,"station_id":"","pricing_plan_id":"free"},{"bike_id":"a90e2ead-f873-40b0-a83e-a6f85a4f26d2","system_id":"levelo_inurba_marseille","lat":43.290631,"lon":5.359244,"is_reserved":false,"is_disabled":false,"rental_uris":{"android":"levelo://app?vid=a90e2ead-f873-40b0-a83e-a6f85a4f26d2","ios":"levelo://app?vid=a90e2ead-f873-40b0-a83e-a6f85a4f26d2"},"vehicle_type_id":"4","last_reported":1707052140,"current_range_meters":25200,"station_id":"ce4bha92rcd13ifvqeg0","pricing_plan_id":"free"},{"bike_id":"df390cd2-34ed-4826-95d4-9f4def667a89","system_id":"levelo_inurba_marseille","lat":43.290631,"lon":5.359244,"is_reserved":false,"is_disabled":false,"rental_uris":{"android":"levelo://app?vid=df390cd2-34ed-4826-95d4-9f4def667a89","ios":"levelo://app?vid=df390cd2-34ed-4826-95d4-9f4def667a89"},"vehicle_type_id":"4","last_reported":1707052140,"current_range_meters":4800,"station_id":"ce4bha92rcd13ifvqeg0","pricing_plan_id":"free"},{"bike_id":"7c755874-04f4-49a7-881c-3dccfea2f0df","system_id":"levelo_inurba_marseille","lat":43.290441,"lon":5.359123,"is_reserved":false,"is_disabled":false,"rental_uris":{"android":"levelo://app?vid=7c755874-04f4-49a7-881c-3dccfea2f0df","ios":"levelo://app?vid=7c755874-04f4-49a7-881c-3dccfea2f0df"},"vehicle_type_id":"4","last_reported":1707052140,"current_range_meters":0,"station_id":"","pricing_plan_id":"free"},{"bike_id":"60b2e128-aeb2-4ec1-82e4-dca4ab2067d5","system_id":"levelo_inurba_marseille","lat":43.290631,"lon":5.359244,"is_reserved":false,"is_disabled":false,"rental_uris":{"android":"levelo://app?vid=60b2e128-aeb2-4ec1-82e4-dca4ab2067d5","ios":"levelo://app?vid=60b2e128-aeb2-4ec1-82e4-dca4ab2067d5"},"vehicle_type_id":"4","last_reported":1707052140,"current_range_meters":24000,"station_id":"ce4bha92rcd13ifvqeg0","pricing_plan_id":"free"},{"bike_id":"f546b2b2-f065-41d5-8055-a83a3b89a855","system_id":"levelo_inurba_marseille","lat":43.290327,"lon":5.375711,"is_reserved":false,"is_disabled":false,"rental_uris":{"android":"levelo://app?vid=f546b2b2-f065-41d5-8055-a83a3b89a855","ios":"levelo://app?vid=f546b2b2-f065-41d5-8055-a83a3b89a855"},"vehicle_type_id":"4","last_reported":1707052140,"current_range_meters":8400,"station_id":"ce4bh692rcd13ifvqe90","pricing_plan_id":"free"},{"bike_id":"c5ef5b14-cf07-46b4-830e-5d91b3cd82c9","system_id":"levelo_inurba_marseille","lat":43.2901,"lon":5.35612,"is_reserved":false,"is_disabled":false,"rental_uris":{"android":"levelo://app?vid=c5ef5b14-cf07-46b4-830e-5d91b3cd82c9","ios":"levelo://app?vid=c5ef5b14-cf07-46b4-830e-5d91b3cd82c9"},"vehicle_type_id":"4","last_reported":1707052140,"current_range_meters":4800,"station_id":"ce4bhb92rcd13ifvqen0","pricing_plan_id":"free"},{"bike_id":"bf297128-936b-40a9-bfef-77d2de2b5d46","system_id":"levelo_inurba_marseille","lat":43.290103,"lon":5.356114,"is_reserved":false,"is_disabled":false,"rental_uris":{"android":"levelo://app?vid=bf297128-936b-40a9-bfef-77d2de2b5d46","ios":"levelo://app?vid=bf297128-936b-40a9-bfef-77d2de2b5d46"},"vehicle_type_id":"4","last_reported":1707052140,"current_range_meters":9600,"station_id":"ce4bhb92rcd13ifvqen0","pricing_plan_id":"free"},{"bike_id":"b0099d3a-0100-46d6-a0ac-610f0909b157","system_id":"levelo_inurba_marseille","lat":43.290104,"lon":5.356111,"is_reserved":false,"is_disabled":false,"rental_uris":{"android":"levelo://app?vid=b0099d3a-0100-46d6-a0ac-610f0909b157","ios":"levelo://app?vid=b0099d3a-0100-46d6-a0ac-610f0909b157"},"vehicle_type_id":"4","last_reported":1707052140,"current_range_meters":11600,"station_id":"ce4bhb92rcd13ifvqen0","pricing_plan_id":"free"},{"bike_id":"8d26ed16-09a7-46a1-b0c7-ad7d1557e9e0","system_id":"levelo_inurba_marseille","lat":43.29003,"lon":5.35611,"is_reserved":false,"is_disabled":false,"rental_uris":{"android":"levelo://app?vid=8d26ed16-09a7-46a1-b0c7-ad7d1557e9e0","ios":"levelo://app?vid=8d26ed16-09a7-46a1-b0c7-ad7d1557e9e0"},"vehicle_type_id":"4","last_reported":1707052140,"current_range_meters":31200,"station_id":"ce4bhb92rcd13ifvqen0","pricing_plan_id":"free"},{"bike_id":"b8ec4256-3fb0-4d08-b61f-602ff32967e2","system_id":"levelo_inurba_marseille","lat":43.290104,"lon":5.356111,"is_reserved":false,"is_disabled":false,"rental_uris":{"android":"levelo://app?vid=b8ec4256-3fb0-4d08-b61f-602ff32967e2","ios":"levelo://app?vid=b8ec4256-3fb0-4d08-b61f-602ff32967e2"},"vehicle_type_id":"4","last_reported":1707052140,"current_range_meters":16000,"station_id":"ce4bhb92rcd13ifvqen0","pricing_plan_id":"free"},{"bike_id":"322e93f9-ad64-4cab-9962-8fdbc991798c","system_id":"levelo_inurba_marseille","lat":43.33022,"lon":5.39043,"is_reserved":false,"is_disabled":false,"rental_uris":{"android":"levelo://app?vid=322e93f9-ad64-4cab-9962-8fdbc991798c","ios":"levelo://app?vid=322e93f9-ad64-4cab-9962-8fdbc991798c"},"vehicle_type_id":"4","last_reported":1707052140,"current_range_meters":14400,"station_id":"ce4bhr92rcd13ifvqhrg","pricing_plan_id":"free"},{"bike_id":"8be2b8b6-a7b9-4874-b1da-93029fbaf6d6","system_id":"levelo_inurba_marseille","lat":43.33021,"lon":5.39045,"is_reserved":false,"is_disabled":false,"rental_uris":{"android":"levelo://app?vid=8be2b8b6-a7b9-4874-b1da-93029fbaf6d6","ios":"levelo://app?vid=8be2b8b6-a7b9-4874-b1da-93029fbaf6d6"},"vehicle_type_id":"4","last_reported":1707052140,"current_range_meters":16800,"station_id":"ce4bhr92rcd13ifvqhrg","pricing_plan_id":"free"},{"bike_id":"84ac4dc3-c2f9-4ae0-bf58-9c14e10a514e","system_id":"levelo_inurba_marseille","lat":43.330442,"lon":5.389148,"is_reserved":false,"is_disabled":false,"rental_uris":{"android":"levelo://app?vid=84ac4dc3-c2f9-4ae0-bf58-9c14e10a514e","ios":"levelo://app?vid=84ac4dc3-c2f9-4ae0-bf58-9c14e10a514e"},"vehicle_type_id":"4","last_reported":1707052140,"current_range_meters":0,"station_id":"ce4bhr92rcd13ifvqhrg","pricing_plan_id":"free"},{"bike_id":"2d5db0e6-de67-4d99-8635-643065202349","system_id":"levelo_inurba_marseille","lat":43.2901,"lon":5.381269,"is_reserved":false,"is_disabled":false,"rental_uris":{"android":"levelo://app?vid=2d5db0e6-de67-4d99-8635-643065202349","ios":"levelo://app?vid=2d5db0e6-de67-4d99-8635-643065202349"},"vehicle_type_id":"4","last_reported":1707052140,"current_range_meters":4400,"station_id":"ce4bh4p2rcd13ifvqe1g","pricing_plan_id":"free"},{"bike_id":"5e3e9499-26d7-46d4-8dbf-b03fde83c768","system_id":"levelo_inurba_marseille","lat":43.28856,"lon":5.358371,"is_reserved":false,"is_disabled":false,"rental_uris":{"android":"levelo://app?vid=5e3e9499-26d7-46d4-8dbf-b03fde83c768","ios":"levelo://app?vid=5e3e9499-26d7-46d4-8dbf-b03fde83c768"},"vehicle_type_id":"4","last_reported":1707052140,"current_range_meters":14400,"station_id":"ce4bhb12rcd13ifvqem0","pricing_plan_id":"free"},{"bike_id":"e4be62e2-719b-42aa-9157-9c5270222c4a","system_id":"levelo_inurba_marseille","lat":43.28856,"lon":5.358371,"is_reserved":false,"is_disabled":false,"rental_uris":{"android":"levelo://app?vid=e4be62e2-719b-42aa-9157-9c5270222c4a","ios":"levelo://app?vid=e4be62e2-719b-42aa-9157-9c5270222c4a"},"vehicle_type_id":"4","last_reported":1707052140,"current_range_meters":21600,"station_id":"ce4bhb12rcd13ifvqem0","pricing_plan_id":"free"},{"bike_id":"00fcc0c2-d5cd-4aaa-831c-3f8107f3d5fd","system_id":"levelo_inurba_marseille","lat":43.28843,"lon":5.35846,"is_reserved":false,"is_disabled":false,"rental_uris":{"android":"levelo://app?vid=00fcc0c2-d5cd-4aaa-831c-3f8107f3d5fd","ios":"levelo://app?vid=00fcc0c2-d5cd-4aaa-831c-3f8107f3d5fd"},"vehicle_type_id":"4","last_reported":1707052140,"current_range_meters":0,"station_id":"ce4bhb12rcd13ifvqem0","pricing_plan_id":"free"},{"bike_id":"c88b544a-7d5f-44cd-9e90-26ffcf31651a","system_id":"levelo_inurba_marseille","lat":43.32686,"lon":5.39586,"is_reserved":false,"is_disabled":false,"rental_uris":{"android":"levelo://app?vid=c88b544a-7d5f-44cd-9e90-26ffcf31651a","ios":"levelo://app?vid=c88b544a-7d5f-44cd-9e90-26ffcf31651a"},"vehicle_type_id":"4","last_reported":1707052140,"current_range_meters":13600,"station_id":"","pricing_plan_id":"free"},{"bike_id":"3fc8554f-dc4c-43a7-9720-9aa52e4e7a4c","system_id":"levelo_inurba_marseille","lat":43.287407,"lon":5.365433,"is_reserved":false,"is_disabled":false,"rental_uris":{"android":"levelo://app?vid=3fc8554f-dc4c-43a7-9720-9aa52e4e7a4c","ios":"levelo://app?vid=3fc8554f-dc4c-43a7-9720-9aa52e4e7a4c"},"vehicle_type_id":"4","last_reported":1707052140,"current_range_meters":0,"station_id":"ce4bhah2rcd13ifvqej0","pricing_plan_id":"free"},{"bike_id":"16bb404d-bc88-488f-9721-013f160d1c46","system_id":"levelo_inurba_marseille","lat":43.312609,"lon":5.401662,"is_reserved":false,"is_disabled":false,"rental_uris":{"android":"levelo://app?vid=16bb404d-bc88-488f-9721-013f160d1c46","ios":"levelo://app?vid=16bb404d-bc88-488f-9721-013f160d1c46"},"vehicle_type_id":"4","last_reported":1707052140,"current_range_meters":25200,"station_id":"ce4bh092rcd13ifvqd30","pricing_plan_id":"free"},{"bike_id":"b5c8cd35-34dd-45ee-b3e7-3050ef3cbe6a","system_id":"levelo_inurba_marseille","lat":43.337673,"lon":5.374918,"is_reserved":false,"is_disabled":false,"rental_uris":{"android":"levelo://app?vid=b5c8cd35-34dd-45ee-b3e7-3050ef3cbe6a","ios":"levelo://app?vid=b5c8cd35-34dd-45ee-b3e7-3050ef3cbe6a"},"vehicle_type_id":"4","last_reported":1707052140,"current_range_meters":12400,"station_id":"","pricing_plan_id":"free"},{"bike_id":"a45bfc28-5a93-4fb0-b302-dc25033177c6","system_id":"levelo_inurba_marseille","lat":43.31412,"lon":5.40282,"is_reserved":false,"is_disabled":false,"rental_uris":{"android":"levelo://app?vid=a45bfc28-5a93-4fb0-b302-dc25033177c6","ios":"levelo://app?vid=a45bfc28-5a93-4fb0-b302-dc25033177c6"},"vehicle_type_id":"4","last_reported":1707052140,"current_range_meters":1600,"station_id":"","pricing_plan_id":"free"},{"bike_id":"cd8fab46-734c-4d78-9f02-264eb356a35c","system_id":"levelo_inurba_marseille","lat":43.286961,"lon":5.373785,"is_reserved":false,"is_disabled":false,"rental_uris":{"android":"levelo://app?vid=cd8fab46-734c-4d78-9f02-264eb356a35c","ios":"levelo://app?vid=cd8fab46-734c-4d78-9f02-264eb356a35c"},"vehicle_type_id":"4","last_reported":1707052140,"current_range_meters":16800,"station_id":"ce4bh3p2rcd13ifvqdq0","pricing_plan_id":"free"},{"bike_id":"5556a301-6046-4a8e-90fb-b5fd6ba7c706","system_id":"levelo_inurba_marseille","lat":43.286961,"lon":5.373785,"is_reserved":false,"is_disabled":false,"rental_uris":{"android":"levelo://app?vid=5556a301-6046-4a8e-90fb-b5fd6ba7c706","ios":"levelo://app?vid=5556a301-6046-4a8e-90fb-b5fd6ba7c706"},"vehicle_type_id":"4","last_reported":1707052140,"current_range_meters":31200,"station_id":"ce4bh3p2rcd13ifvqdq0","pricing_plan_id":"free"},{"bike_id":"d6ea7436-b563-4a7a-886d-108d672f55ed","system_id":"levelo_inurba_marseille","lat":43.286961,"lon":5.373785,"is_reserved":false,"is_disabled":false,"rental_uris":{"android":"levelo://app?vid=d6ea7436-b563-4a7a-886d-108d672f55ed","ios":"levelo://app?vid=d6ea7436-b563-4a7a-886d-108d672f55ed"},"vehicle_type_id":"4","last_reported":1707052140,"current_range_meters":16800,"station_id":"ce4bh3p2rcd13ifvqdq0","pricing_plan_id":"free"},{"bike_id":"2521f5d7-0d99-45fe-a4b4-7be16be8459c","system_id":"levelo_inurba_marseille","lat":43.302759,"lon":5.400793,"is_reserved":false,"is_disabled":false,"rental_uris":{"android":"levelo://app?vid=2521f5d7-0d99-45fe-a4b4-7be16be8459c","ios":"levelo://app?vid=2521f5d7-0d99-45fe-a4b4-7be16be8459c"},"vehicle_type_id":"4","last_reported":1707052140,"current_range_meters":23200,"station_id":"ce4bgvh2rcd13ifvqcs0","pricing_plan_id":"free"},{"bike_id":"197171bb-7a9d-4dcd-a574-4ca7b2de126d","system_id":"levelo_inurba_marseille","lat":43.302759,"lon":5.400793,"is_reserved":false,"is_disabled":false,"rental_uris":{"android":"levelo://app?vid=197171bb-7a9d-4dcd-a574-4ca7b2de126d","ios":"levelo://app?vid=197171bb-7a9d-4dcd-a574-4ca7b2de126d"},"vehicle_type_id":"4","last_reported":1707052140,"current_range_meters":28800,"station_id":"ce4bgvh2rcd13ifvqcs0","pricing_plan_id":"free"},{"bike_id":"c11227b8-6224-4f85-96e9-c50cf8cf602c","system_id":"levelo_inurba_marseille","lat":43.286039,"lon":5.370679,"is_reserved":false,"is_disabled":false,"rental_uris":{"android":"levelo://app?vid=c11227b8-6224-4f85-96e9-c50cf8cf602c","ios":"levelo://app?vid=c11227b8-6224-4f85-96e9-c50cf8cf602c"},"vehicle_type_id":"4","last_reported":1707052140,"current_range_meters":18800,"station_id":"ce4bht12rcd13ifvqi60","pricing_plan_id":"free"},{"bike_id":"e6026984-f680-429b-9fa2-63a943a08827","system_id":"levelo_inurba_marseille","lat":43.316828,"lon":5.404723,"is_reserved":false,"is_disabled":false,"rental_uris":{"android":"levelo://app?vid=e6026984-f680-429b-9fa2-63a943a08827","ios":"levelo://app?vid=e6026984-f680-429b-9fa2-63a943a08827"},"vehicle_type_id":"4","last_reported":1707052140,"current_range_meters":22000,"station_id":"ce4bh012rcd13ifvqd00","pricing_plan_id":"free"},{"bike_id":"a872f33a-e6d3-4804-9822-05bdc2e457f9","system_id":"levelo_inurba_marseille","lat":43.301117,"lon":5.398795,"is_reserved":false,"is_disabled":false,"rental_uris":{"android":"levelo://app?vid=a872f33a-e6d3-4804-9822-05bdc2e457f9","ios":"levelo://app?vid=a872f33a-e6d3-4804-9822-05bdc2e457f9"},"vehicle_type_id":"4","last_reported":1707052140,"current_range_meters":30400,"station_id":"ce4bh0h2rcd13ifvqd40","pricing_plan_id":"free"},{"bike_id":"9eecafa8-2457-46ad-9220-6e3a7c27242e","system_id":"levelo_inurba_marseille","lat":43.291994,"lon":5.392907,"is_reserved":false,"is_disabled":false,"rental_uris":{"android":"levelo://app?vid=9eecafa8-2457-46ad-9220-6e3a7c27242e","ios":"levelo://app?vid=9eecafa8-2457-46ad-9220-6e3a7c27242e"},"vehicle_type_id":"4","last_reported":1707052140,"current_range_meters":24800,"station_id":"ce4bh192rcd13ifvqdd0","pricing_plan_id":"free"},{"bike_id":"959ddf3a-b927-4500-9bac-6857bd30b5d5","system_id":"levelo_inurba_marseille","lat":43.286594,"lon":5.383336,"is_reserved":false,"is_disabled":false,"rental_uris":{"android":"levelo://app?vid=959ddf3a-b927-4500-9bac-6857bd30b5d5","ios":"levelo://app?vid=959ddf3a-b927-4500-9bac-6857bd30b5d5"},"vehicle_type_id":"4","last_reported":1707052140,"current_range_meters":11600,"station_id":"","pricing_plan_id":"free"},{"bike_id":"9972ef34-d62d-4673-8b1b-a60da4da6bef","system_id":"levelo_inurba_marseille","lat":43.284534,"lon":5.358662,"is_reserved":false,"is_disabled":false,"rental_uris":{"android":"levelo://app?vid=9972ef34-d62d-4673-8b1b-a60da4da6bef","ios":"levelo://app?vid=9972ef34-d62d-4673-8b1b-a60da4da6bef"},"vehicle_type_id":"4","last_reported":1707052140,"current_range_meters":0,"station_id":"ce4bhah2rcd13ifvqei0","pricing_plan_id":"free"},{"bike_id":"a05f1bed-a03c-47b7-aa2f-33ca3c2cf6ad","system_id":"levelo_inurba_marseille","lat":43.28621,"lon":5.35105,"is_reserved":false,"is_disabled":false,"rental_uris":{"android":"levelo://app?vid=a05f1bed-a03c-47b7-aa2f-33ca3c2cf6ad","ios":"levelo://app?vid=a05f1bed-a03c-47b7-aa2f-33ca3c2cf6ad"},"vehicle_type_id":"4","last_reported":1707052140,"current_range_meters":24400,"station_id":"ce4bhch2rcd13ifvqeug","pricing_plan_id":"free"},{"bike_id":"90156c5a-9170-4629-9fc9-86fface68975","system_id":"levelo_inurba_marseille","lat":43.2862,"lon":5.35107,"is_reserved":false,"is_disabled":false,"rental_uris":{"android":"levelo://app?vid=90156c5a-9170-4629-9fc9-86fface68975","ios":"levelo://app?vid=90156c5a-9170-4629-9fc9-86fface68975"},"vehicle_type_id":"4","last_reported":1707052140,"current_range_meters":0,"station_id":"ce4bhch2rcd13ifvqeug","pricing_plan_id":"free"},{"bike_id":"8bbf3706-7536-46d4-a139-41448fc1a4d4","system_id":"levelo_inurba_marseille","lat":43.285856,"lon":5.350771,"is_reserved":false,"is_disabled":false,"rental_uris":{"android":"levelo://app?vid=8bbf3706-7536-46d4-a139-41448fc1a4d4","ios":"levelo://app?vid=8bbf3706-7536-46d4-a139-41448fc1a4d4"},"vehicle_type_id":"4","last_reported":1707052140,"current_range_meters":18000,"station_id":"ce4bhch2rcd13ifvqeug","pricing_plan_id":"free"},{"bike_id":"d7382df1-f975-4bec-9198-dc6a75d9e044","system_id":"levelo_inurba_marseille","lat":43.28614,"lon":5.35112,"is_reserved":false,"is_disabled":false,"rental_uris":{"android":"levelo://app?vid=d7382df1-f975-4bec-9198-dc6a75d9e044","ios":"levelo://app?vid=d7382df1-f975-4bec-9198-dc6a75d9e044"},"vehicle_type_id":"4","last_reported":1707052140,"current_range_meters":17600,"station_id":"ce4bhch2rcd13ifvqeug","pricing_plan_id":"free"},{"bike_id":"3d5bdac7-929b-44b8-b056-3911a4f0973f","system_id":"levelo_inurba_marseille","lat":43.28614,"lon":5.3511,"is_reserved":false,"is_disabled":false,"rental_uris":{"android":"levelo://app?vid=3d5bdac7-929b-44b8-b056-3911a4f0973f","ios":"levelo://app?vid=3d5bdac7-929b-44b8-b056-3911a4f0973f"},"vehicle_type_id":"4","last_reported":1707052140,"current_range_meters":18000,"station_id":"ce4bhch2rcd13ifvqeug","pricing_plan_id":"free"},{"bike_id":"e03568af-d971-442a-848e-c35d636bd8c6","system_id":"levelo_inurba_marseille","lat":43.285856,"lon":5.350771,"is_reserved":false,"is_disabled":false,"rental_uris":{"android":"levelo://app?vid=e03568af-d971-442a-848e-c35d636bd8c6","ios":"levelo://app?vid=e03568af-d971-442a-848e-c35d636bd8c6"},"vehicle_type_id":"4","last_reported":1707052140,"current_range_meters":0,"station_id":"ce4bhch2rcd13ifvqeug","pricing_plan_id":"free"},{"bike_id":"1b18b81f-ab58-4066-b7ab-186f6b3b3b49","system_id":"levelo_inurba_marseille","lat":43.285856,"lon":5.350771,"is_reserved":false,"is_disabled":false,"rental_uris":{"android":"levelo://app?vid=1b18b81f-ab58-4066-b7ab-186f6b3b3b49","ios":"levelo://app?vid=1b18b81f-ab58-4066-b7ab-186f6b3b3b49"},"vehicle_type_id":"4","last_reported":1707052140,"current_range_meters":26000,"station_id":"ce4bhch2rcd13ifvqeug","pricing_plan_id":"free"},{"bike_id":"06f651d3-8ed6-4aad-aa14-d3966a87d5f4","system_id":"levelo_inurba_marseille","lat":43.286132,"lon":5.350957,"is_reserved":false,"is_disabled":false,"rental_uris":{"android":"levelo://app?vid=06f651d3-8ed6-4aad-aa14-d3966a87d5f4","ios":"levelo://app?vid=06f651d3-8ed6-4aad-aa14-d3966a87d5f4"},"vehicle_type_id":"4","last_reported":1707052140,"current_range_meters":13600,"station_id":"","pricing_plan_id":"free"},{"bike_id":"700ee9a2-250e-40ed-b79b-ca0628b82acc","system_id":"levelo_inurba_marseille","lat":43.28407,"lon":5.37523,"is_reserved":false,"is_disabled":false,"rental_uris":{"android":"levelo://app?vid=700ee9a2-250e-40ed-b79b-ca0628b82acc","ios":"levelo://app?vid=700ee9a2-250e-40ed-b79b-ca0628b82acc"},"vehicle_type_id":"4","last_reported":1707052140,"current_range_meters":13600,"station_id":"ce4bh412rcd13ifvqds0","pricing_plan_id":"free"},{"bike_id":"f0b0236f-6fb0-4f2d-a625-6ab6f58bc896","system_id":"levelo_inurba_marseille","lat":43.286595,"lon":5.386795,"is_reserved":false,"is_disabled":false,"rental_uris":{"android":"levelo://app?vid=f0b0236f-6fb0-4f2d-a625-6ab6f58bc896","ios":"levelo://app?vid=f0b0236f-6fb0-4f2d-a625-6ab6f58bc896"},"vehicle_type_id":"4","last_reported":1707052140,"current_range_meters":14800,"station_id":"ce4bh492rcd13ifvqdug","pricing_plan_id":"free"},{"bike_id":"3c58f18d-b5bf-40f3-bd04-17a6bdfcc283","system_id":"levelo_inurba_marseille","lat":43.322851,"lon":5.406397,"is_reserved":false,"is_disabled":false,"rental_uris":{"android":"levelo://app?vid=3c58f18d-b5bf-40f3-bd04-17a6bdfcc283","ios":"levelo://app?vid=3c58f18d-b5bf-40f3-bd04-17a6bdfcc283"},"vehicle_type_id":"4","last_reported":1707052140,"current_range_meters":1600,"station_id":"","pricing_plan_id":"free"},{"bike_id":"ed55e961-e33d-4e96-863a-a02568b59b0a","system_id":"levelo_inurba_marseille","lat":43.337168,"lon":5.391825,"is_reserved":false,"is_disabled":false,"rental_uris":{"android":"levelo://app?vid=ed55e961-e33d-4e96-863a-a02568b59b0a","ios":"levelo://app?vid=ed55e961-e33d-4e96-863a-a02568b59b0a"},"vehicle_type_id":"4","last_reported":1707052140,"current_range_meters":30400,"station_id":"ce4bhr92rcd13ifvqhsg","pricing_plan_id":"free"},{"bike_id":"c4d00d0f-9eb4-46ec-8419-a2b286df114e","system_id":"levelo_inurba_marseille","lat":43.323464,"lon":5.406297,"is_reserved":false,"is_disabled":false,"rental_uris":{"android":"levelo://app?vid=c4d00d0f-9eb4-46ec-8419-a2b286df114e","ios":"levelo://app?vid=c4d00d0f-9eb4-46ec-8419-a2b286df114e"},"vehicle_type_id":"4","last_reported":1707052140,"current_range_meters":27600,"station_id":"ce4bhq92rcd13ifvqhjg","pricing_plan_id":"free"},{"bike_id":"1d40a161-ef52-44a0-ac8c-184556162125","system_id":"levelo_inurba_marseille","lat":43.284793,"lon":5.384119,"is_reserved":false,"is_disabled":false,"rental_uris":{"android":"levelo://app?vid=1d40a161-ef52-44a0-ac8c-184556162125","ios":"levelo://app?vid=1d40a161-ef52-44a0-ac8c-184556162125"},"vehicle_type_id":"4","last_reported":1707052140,"current_range_meters":16400,"station_id":"ce4bh512rcd13ifvqe3g","pricing_plan_id":"free"},{"bike_id":"0a0adae6-8600-4dc5-bf41-31037c5d7ed3","system_id":"levelo_inurba_marseille","lat":43.297946,"lon":5.404063,"is_reserved":false,"is_disabled":false,"rental_uris":{"android":"levelo://app?vid=0a0adae6-8600-4dc5-bf41-31037c5d7ed3","ios":"levelo://app?vid=0a0adae6-8600-4dc5-bf41-31037c5d7ed3"},"vehicle_type_id":"4","last_reported":1707052140,"current_range_meters":27200,"station_id":"ce4bh112rcd13ifvqd90","pricing_plan_id":"free"},{"bike_id":"2625d651-f352-4fe1-b2c0-38a84b75f4fc","system_id":"levelo_inurba_marseille","lat":43.283494,"lon":5.380945,"is_reserved":false,"is_disabled":false,"rental_uris":{"android":"levelo://app?vid=2625d651-f352-4fe1-b2c0-38a84b75f4fc","ios":"levelo://app?vid=2625d651-f352-4fe1-b2c0-38a84b75f4fc"},"vehicle_type_id":"4","last_reported":1707052140,"current_range_meters":20000,"station_id":"ce4bh412rcd13ifvqdr0","pricing_plan_id":"free"},{"bike_id":"28d23688-265e-4af9-a6fc-b705e05e213f","system_id":"levelo_inurba_marseille","lat":43.288497,"lon":5.393089,"is_reserved":false,"is_disabled":false,"rental_uris":{"android":"levelo://app?vid=28d23688-265e-4af9-a6fc-b705e05e213f","ios":"levelo://app?vid=28d23688-265e-4af9-a6fc-b705e05e213f"},"vehicle_type_id":"4","last_reported":1707052140,"current_range_meters":24400,"station_id":"ce4bh2p2rcd13ifvqdi0","pricing_plan_id":"free"},{"bike_id":"84e4989d-eeef-4df4-ba40-09a0a576feb8","system_id":"levelo_inurba_marseille","lat":43.283498,"lon":5.380948,"is_reserved":false,"is_disabled":false,"rental_uris":{"android":"levelo://app?vid=84e4989d-eeef-4df4-ba40-09a0a576feb8","ios":"levelo://app?vid=84e4989d-eeef-4df4-ba40-09a0a576feb8"},"vehicle_type_id":"4","last_reported":1707052140,"current_range_meters":23200,"station_id":"ce4bh412rcd13ifvqdr0","pricing_plan_id":"free"},{"bike_id":"bebd52ad-59f6-44fe-9abe-79af44254e7c","system_id":"levelo_inurba_marseille","lat":43.284219,"lon":5.3497,"is_reserved":false,"is_disabled":false,"rental_uris":{"android":"levelo://app?vid=bebd52ad-59f6-44fe-9abe-79af44254e7c","ios":"levelo://app?vid=bebd52ad-59f6-44fe-9abe-79af44254e7c"},"vehicle_type_id":"4","last_reported":1707052140,"current_range_meters":20400,"station_id":"ce4bhbh2rcd13ifvqepg","pricing_plan_id":"free"},{"bike_id":"32114bc5-a671-4183-af72-809c38870188","system_id":"levelo_inurba_marseille","lat":43.284219,"lon":5.3497,"is_reserved":false,"is_disabled":false,"rental_uris":{"android":"levelo://app?vid=32114bc5-a671-4183-af72-809c38870188","ios":"levelo://app?vid=32114bc5-a671-4183-af72-809c38870188"},"vehicle_type_id":"4","last_reported":1707052140,"current_range_meters":24400,"station_id":"ce4bhbh2rcd13ifvqepg","pricing_plan_id":"free"},{"bike_id":"16a9f1b8-0677-4a8e-9617-06e698ce8847","system_id":"levelo_inurba_marseille","lat":43.284219,"lon":5.3497,"is_reserved":false,"is_disabled":false,"rental_uris":{"android":"levelo://app?vid=16a9f1b8-0677-4a8e-9617-06e698ce8847","ios":"levelo://app?vid=16a9f1b8-0677-4a8e-9617-06e698ce8847"},"vehicle_type_id":"4","last_reported":1707052140,"current_range_meters":26800,"station_id":"ce4bhbh2rcd13ifvqepg","pricing_plan_id":"free"},{"bike_id":"543101cb-dc76-4713-ae34-7c6ff0be0694","system_id":"levelo_inurba_marseille","lat":43.284217,"lon":5.349697,"is_reserved":false,"is_disabled":false,"rental_uris":{"android":"levelo://app?vid=543101cb-dc76-4713-ae34-7c6ff0be0694","ios":"levelo://app?vid=543101cb-dc76-4713-ae34-7c6ff0be0694"},"vehicle_type_id":"4","last_reported":1707052140,"current_range_meters":19600,"station_id":"ce4bhbh2rcd13ifvqepg","pricing_plan_id":"free"},{"bike_id":"626192c1-ccdd-4639-be32-8f3b8ba74627","system_id":"levelo_inurba_marseille","lat":43.284217,"lon":5.349697,"is_reserved":false,"is_disabled":false,"rental_uris":{"android":"levelo://app?vid=626192c1-ccdd-4639-be32-8f3b8ba74627","ios":"levelo://app?vid=626192c1-ccdd-4639-be32-8f3b8ba74627"},"vehicle_type_id":"4","last_reported":1707052140,"current_range_meters":23200,"station_id":"ce4bhbh2rcd13ifvqepg","pricing_plan_id":"free"},{"bike_id":"492595be-18eb-4351-87ac-9b941e3b56af","system_id":"levelo_inurba_marseille","lat":43.284219,"lon":5.3497,"is_reserved":false,"is_disabled":false,"rental_uris":{"android":"levelo://app?vid=492595be-18eb-4351-87ac-9b941e3b56af","ios":"levelo://app?vid=492595be-18eb-4351-87ac-9b941e3b56af"},"vehicle_type_id":"4","last_reported":1707052140,"current_range_meters":22400,"station_id":"ce4bhbh2rcd13ifvqepg","pricing_plan_id":"free"},{"bike_id":"e6cb6f19-be98-4726-8ddf-b89e2fec2f30","system_id":"levelo_inurba_marseille","lat":43.284219,"lon":5.3497,"is_reserved":false,"is_disabled":false,"rental_uris":{"android":"levelo://app?vid=e6cb6f19-be98-4726-8ddf-b89e2fec2f30","ios":"levelo://app?vid=e6cb6f19-be98-4726-8ddf-b89e2fec2f30"},"vehicle_type_id":"4","last_reported":1707052140,"current_range_meters":30800,"station_id":"ce4bhbh2rcd13ifvqepg","pricing_plan_id":"free"},{"bike_id":"3806e801-ee23-4b21-a017-9469cbbb8f2b","system_id":"levelo_inurba_marseille","lat":43.284219,"lon":5.3497,"is_reserved":false,"is_disabled":false,"rental_uris":{"android":"levelo://app?vid=3806e801-ee23-4b21-a017-9469cbbb8f2b","ios":"levelo://app?vid=3806e801-ee23-4b21-a017-9469cbbb8f2b"},"vehicle_type_id":"4","last_reported":1707052140,"current_range_meters":21200,"station_id":"ce4bhbh2rcd13ifvqepg","pricing_plan_id":"free"},{"bike_id":"bd0b1ad3-bcf6-4b06-b204-d71900d73e0a","system_id":"levelo_inurba_marseille","lat":43.284217,"lon":5.349697,"is_reserved":false,"is_disabled":false,"rental_uris":{"android":"levelo://app?vid=bd0b1ad3-bcf6-4b06-b204-d71900d73e0a","ios":"levelo://app?vid=bd0b1ad3-bcf6-4b06-b204-d71900d73e0a"},"vehicle_type_id":"4","last_reported":1707052140,"current_range_meters":18000,"station_id":"ce4bhbh2rcd13ifvqepg","pricing_plan_id":"free"},{"bike_id":"1c1160ec-ba53-4d80-81ca-a26a619fb0c5","system_id":"levelo_inurba_marseille","lat":43.284217,"lon":5.349697,"is_reserved":false,"is_disabled":false,"rental_uris":{"android":"levelo://app?vid=1c1160ec-ba53-4d80-81ca-a26a619fb0c5","ios":"levelo://app?vid=1c1160ec-ba53-4d80-81ca-a26a619fb0c5"},"vehicle_type_id":"4","last_reported":1707052140,"current_range_meters":16400,"station_id":"ce4bhbh2rcd13ifvqepg","pricing_plan_id":"free"},{"bike_id":"8ef83839-5ca2-4a5e-81e0-1c7cc05275b6","system_id":"levelo_inurba_marseille","lat":43.284219,"lon":5.3497,"is_reserved":false,"is_disabled":false,"rental_uris":{"android":"levelo://app?vid=8ef83839-5ca2-4a5e-81e0-1c7cc05275b6","ios":"levelo://app?vid=8ef83839-5ca2-4a5e-81e0-1c7cc05275b6"},"vehicle_type_id":"4","last_reported":1707052140,"current_range_meters":1200,"station_id":"ce4bhbh2rcd13ifvqepg","pricing_plan_id":"free"},{"bike_id":"a70c3986-d3ed-48f6-8937-cc702503e88c","system_id":"levelo_inurba_marseille","lat":43.284214,"lon":5.349706,"is_reserved":false,"is_disabled":false,"rental_uris":{"android":"levelo://app?vid=a70c3986-d3ed-48f6-8937-cc702503e88c","ios":"levelo://app?vid=a70c3986-d3ed-48f6-8937-cc702503e88c"},"vehicle_type_id":"4","last_reported":1707052140,"current_range_meters":14000,"station_id":"ce4bhbh2rcd13ifvqepg","pricing_plan_id":"free"},{"bike_id":"44198efe-346c-4eb2-b4fb-23de78454132","system_id":"levelo_inurba_marseille","lat":43.284214,"lon":5.349706,"is_reserved":false,"is_disabled":false,"rental_uris":{"android":"levelo://app?vid=44198efe-346c-4eb2-b4fb-23de78454132","ios":"levelo://app?vid=44198efe-346c-4eb2-b4fb-23de78454132"},"vehicle_type_id":"4","last_reported":1707052140,"current_range_meters":22400,"station_id":"ce4bhbh2rcd13ifvqepg","pricing_plan_id":"free"},{"bike_id":"ff2b5e00-17f0-424d-915e-08ce84a71789","system_id":"levelo_inurba_marseille","lat":43.284217,"lon":5.349697,"is_reserved":false,"is_disabled":false,"rental_uris":{"android":"levelo://app?vid=ff2b5e00-17f0-424d-915e-08ce84a71789","ios":"levelo://app?vid=ff2b5e00-17f0-424d-915e-08ce84a71789"},"vehicle_type_id":"4","last_reported":1707052140,"current_range_meters":20400,"station_id":"ce4bhbh2rcd13ifvqepg","pricing_plan_id":"free"},{"bike_id":"8b10fb68-65e8-4488-8491-652e647f63ae","system_id":"levelo_inurba_marseille","lat":43.284214,"lon":5.349706,"is_reserved":false,"is_disabled":false,"rental_uris":{"android":"levelo://app?vid=8b10fb68-65e8-4488-8491-652e647f63ae","ios":"levelo://app?vid=8b10fb68-65e8-4488-8491-652e647f63ae"},"vehicle_type_id":"4","last_reported":1707052140,"current_range_meters":21200,"station_id":"ce4bhbh2rcd13ifvqepg","pricing_plan_id":"free"},{"bike_id":"2690ece4-b36b-4915-afa5-54b18a3394ca","system_id":"levelo_inurba_marseille","lat":43.284217,"lon":5.349697,"is_reserved":false,"is_disabled":false,"rental_uris":{"android":"levelo://app?vid=2690ece4-b36b-4915-afa5-54b18a3394ca","ios":"levelo://app?vid=2690ece4-b36b-4915-afa5-54b18a3394ca"},"vehicle_type_id":"4","last_reported":1707052140,"current_range_meters":2000,"station_id":"ce4bhbh2rcd13ifvqepg","pricing_plan_id":"free"},{"bike_id":"5497de4d-7a97-4e65-8917-84aefdc59e9d","system_id":"levelo_inurba_marseille","lat":43.284217,"lon":5.349697,"is_reserved":false,"is_disabled":false,"rental_uris":{"android":"levelo://app?vid=5497de4d-7a97-4e65-8917-84aefdc59e9d","ios":"levelo://app?vid=5497de4d-7a97-4e65-8917-84aefdc59e9d"},"vehicle_type_id":"4","last_reported":1707052140,"current_range_meters":24800,"station_id":"ce4bhbh2rcd13ifvqepg","pricing_plan_id":"free"},{"bike_id":"fd854dd9-69c6-4df6-ace5-44bbc78384fb","system_id":"levelo_inurba_marseille","lat":43.284217,"lon":5.349697,"is_reserved":false,"is_disabled":false,"rental_uris":{"android":"levelo://app?vid=fd854dd9-69c6-4df6-ace5-44bbc78384fb","ios":"levelo://app?vid=fd854dd9-69c6-4df6-ace5-44bbc78384fb"},"vehicle_type_id":"4","last_reported":1707052140,"current_range_meters":25600,"station_id":"ce4bhbh2rcd13ifvqepg","pricing_plan_id":"free"},{"bike_id":"203ebfe2-5a6f-4332-a31a-7bfeae25c44b","system_id":"levelo_inurba_marseille","lat":43.284217,"lon":5.349697,"is_reserved":false,"is_disabled":false,"rental_uris":{"android":"levelo://app?vid=203ebfe2-5a6f-4332-a31a-7bfeae25c44b","ios":"levelo://app?vid=203ebfe2-5a6f-4332-a31a-7bfeae25c44b"},"vehicle_type_id":"4","last_reported":1707052140,"current_range_meters":31600,"station_id":"ce4bhbh2rcd13ifvqepg","pricing_plan_id":"free"},{"bike_id":"7b024791-8905-469d-86a9-a949e8e255b4","system_id":"levelo_inurba_marseille","lat":43.28277,"lon":5.35065,"is_reserved":false,"is_disabled":false,"rental_uris":{"android":"levelo://app?vid=7b024791-8905-469d-86a9-a949e8e255b4","ios":"levelo://app?vid=7b024791-8905-469d-86a9-a949e8e255b4"},"vehicle_type_id":"4","last_reported":1707052140,"current_range_meters":18400,"station_id":"ce4bhbp2rcd13ifvqerg","pricing_plan_id":"free"},{"bike_id":"1f6b4f9a-0098-4aff-a87a-3ef18496c814","system_id":"levelo_inurba_marseille","lat":43.28276,"lon":5.35067,"is_reserved":false,"is_disabled":false,"rental_uris":{"android":"levelo://app?vid=1f6b4f9a-0098-4aff-a87a-3ef18496c814","ios":"levelo://app?vid=1f6b4f9a-0098-4aff-a87a-3ef18496c814"},"vehicle_type_id":"4","last_reported":1707052140,"current_range_meters":13200,"station_id":"ce4bhbp2rcd13ifvqerg","pricing_plan_id":"free"},{"bike_id":"397ba61a-dc6e-4eab-8a40-2df2b71416a9","system_id":"levelo_inurba_marseille","lat":43.282754,"lon":5.350664,"is_reserved":false,"is_disabled":false,"rental_uris":{"android":"levelo://app?vid=397ba61a-dc6e-4eab-8a40-2df2b71416a9","ios":"levelo://app?vid=397ba61a-dc6e-4eab-8a40-2df2b71416a9"},"vehicle_type_id":"4","last_reported":1707052140,"current_range_meters":14000,"station_id":"ce4bhbp2rcd13ifvqerg","pricing_plan_id":"free"},{"bike_id":"2bfe6dc0-aabb-4fd3-8ed2-3f7669c0ffd5","system_id":"levelo_inurba_marseille","lat":43.282726,"lon":5.35072,"is_reserved":false,"is_disabled":false,"rental_uris":{"android":"levelo://app?vid=2bfe6dc0-aabb-4fd3-8ed2-3f7669c0ffd5","ios":"levelo://app?vid=2bfe6dc0-aabb-4fd3-8ed2-3f7669c0ffd5"},"vehicle_type_id":"4","last_reported":1707052140,"current_range_meters":18800,"station_id":"ce4bhbp2rcd13ifvqerg","pricing_plan_id":"free"},{"bike_id":"85829685-8454-483f-b2b0-9ef3adbadf20","system_id":"levelo_inurba_marseille","lat":43.28272,"lon":5.35073,"is_reserved":false,"is_disabled":false,"rental_uris":{"android":"levelo://app?vid=85829685-8454-483f-b2b0-9ef3adbadf20","ios":"levelo://app?vid=85829685-8454-483f-b2b0-9ef3adbadf20"},"vehicle_type_id":"4","last_reported":1707052140,"current_range_meters":14000,"station_id":"ce4bhbp2rcd13ifvqerg","pricing_plan_id":"free"},{"bike_id":"efef05d7-967d-4d52-a40e-0cc4037cd663","system_id":"levelo_inurba_marseille","lat":43.28272,"lon":5.35071,"is_reserved":false,"is_disabled":false,"rental_uris":{"android":"levelo://app?vid=efef05d7-967d-4d52-a40e-0cc4037cd663","ios":"levelo://app?vid=efef05d7-967d-4d52-a40e-0cc4037cd663"},"vehicle_type_id":"4","last_reported":1707052140,"current_range_meters":23200,"station_id":"ce4bhbp2rcd13ifvqerg","pricing_plan_id":"free"},{"bike_id":"fc6600d6-07d7-4e5c-8ae4-41b0d12d3be6","system_id":"levelo_inurba_marseille","lat":43.28271,"lon":5.35073,"is_reserved":false,"is_disabled":false,"rental_uris":{"android":"levelo://app?vid=fc6600d6-07d7-4e5c-8ae4-41b0d12d3be6","ios":"levelo://app?vid=fc6600d6-07d7-4e5c-8ae4-41b0d12d3be6"},"vehicle_type_id":"4","last_reported":1707052140,"current_range_meters":19600,"station_id":"ce4bhbp2rcd13ifvqerg","pricing_plan_id":"free"},{"bike_id":"43b3539d-5bf6-4955-9c57-bf0730b8c981","system_id":"levelo_inurba_marseille","lat":43.28272,"lon":5.35069,"is_reserved":false,"is_disabled":false,"rental_uris":{"android":"levelo://app?vid=43b3539d-5bf6-4955-9c57-bf0730b8c981","ios":"levelo://app?vid=43b3539d-5bf6-4955-9c57-bf0730b8c981"},"vehicle_type_id":"4","last_reported":1707052140,"current_range_meters":27600,"station_id":"ce4bhbp2rcd13ifvqerg","pricing_plan_id":"free"},{"bike_id":"949914db-877a-4e91-9479-3997cd8c3591","system_id":"levelo_inurba_marseille","lat":43.28269,"lon":5.35077,"is_reserved":false,"is_disabled":false,"rental_uris":{"android":"levelo://app?vid=949914db-877a-4e91-9479-3997cd8c3591","ios":"levelo://app?vid=949914db-877a-4e91-9479-3997cd8c3591"},"vehicle_type_id":"4","last_reported":1707052140,"current_range_meters":0,"station_id":"ce4bhbp2rcd13ifvqerg","pricing_plan_id":"free"},{"bike_id":"e0acd6b9-40ca-4d48-a9b6-b3ed244a15ed","system_id":"levelo_inurba_marseille","lat":43.2827,"lon":5.35068,"is_reserved":false,"is_disabled":false,"rental_uris":{"android":"levelo://app?vid=e0acd6b9-40ca-4d48-a9b6-b3ed244a15ed","ios":"levelo://app?vid=e0acd6b9-40ca-4d48-a9b6-b3ed244a15ed"},"vehicle_type_id":"4","last_reported":1707052140,"current_range_meters":0,"station_id":"ce4bhbp2rcd13ifvqerg","pricing_plan_id":"free"},{"bike_id":"42f36767-2ead-47e9-8758-40d29444ecfc","system_id":"levelo_inurba_marseille","lat":43.28269,"lon":5.35071,"is_reserved":false,"is_disabled":false,"rental_uris":{"android":"levelo://app?vid=42f36767-2ead-47e9-8758-40d29444ecfc","ios":"levelo://app?vid=42f36767-2ead-47e9-8758-40d29444ecfc"},"vehicle_type_id":"4","last_reported":1707052140,"current_range_meters":20800,"station_id":"ce4bhbp2rcd13ifvqerg","pricing_plan_id":"free"},{"bike_id":"3a814452-8d5a-4b35-83a3-22fd7348c100","system_id":"levelo_inurba_marseille","lat":43.2827,"lon":5.35065,"is_reserved":false,"is_disabled":false,"rental_uris":{"android":"levelo://app?vid=3a814452-8d5a-4b35-83a3-22fd7348c100","ios":"levelo://app?vid=3a814452-8d5a-4b35-83a3-22fd7348c100"},"vehicle_type_id":"4","last_reported":1707052140,"current_range_meters":4000,"station_id":"ce4bhbp2rcd13ifvqerg","pricing_plan_id":"free"},{"bike_id":"9b89050d-53d3-407b-b2f2-e8f87da695aa","system_id":"levelo_inurba_marseille","lat":43.2827,"lon":5.35063,"is_reserved":false,"is_disabled":false,"rental_uris":{"android":"levelo://app?vid=9b89050d-53d3-407b-b2f2-e8f87da695aa","ios":"levelo://app?vid=9b89050d-53d3-407b-b2f2-e8f87da695aa"},"vehicle_type_id":"4","last_reported":1707052140,"current_range_meters":21200,"station_id":"ce4bhbp2rcd13ifvqerg","pricing_plan_id":"free"},{"bike_id":"5d95e1ad-ac58-4d5d-83da-795a6557d2d9","system_id":"levelo_inurba_marseille","lat":43.28264,"lon":5.35083,"is_reserved":false,"is_disabled":false,"rental_uris":{"android":"levelo://app?vid=5d95e1ad-ac58-4d5d-83da-795a6557d2d9","ios":"levelo://app?vid=5d95e1ad-ac58-4d5d-83da-795a6557d2d9"},"vehicle_type_id":"4","last_reported":1707052140,"current_range_meters":400,"station_id":"ce4bhbp2rcd13ifvqerg","pricing_plan_id":"free"},{"bike_id":"2010c46b-5842-4552-835a-7a4ce722be1e","system_id":"levelo_inurba_marseille","lat":43.282677,"lon":5.350695,"is_reserved":false,"is_disabled":false,"rental_uris":{"android":"levelo://app?vid=2010c46b-5842-4552-835a-7a4ce722be1e","ios":"levelo://app?vid=2010c46b-5842-4552-835a-7a4ce722be1e"},"vehicle_type_id":"4","last_reported":1707052140,"current_range_meters":27600,"station_id":"ce4bhbp2rcd13ifvqerg","pricing_plan_id":"free"},{"bike_id":"b01f8f60-1eae-46c9-9219-04a051d502f0","system_id":"levelo_inurba_marseille","lat":43.28269,"lon":5.35065,"is_reserved":false,"is_disabled":false,"rental_uris":{"android":"levelo://app?vid=b01f8f60-1eae-46c9-9219-04a051d502f0","ios":"levelo://app?vid=b01f8f60-1eae-46c9-9219-04a051d502f0"},"vehicle_type_id":"4","last_reported":1707052140,"current_range_meters":9200,"station_id":"ce4bhbp2rcd13ifvqerg","pricing_plan_id":"free"},{"bike_id":"5edad695-e6cf-4f5c-858f-d48afd03e07f","system_id":"levelo_inurba_marseille","lat":43.2827,"lon":5.3506,"is_reserved":false,"is_disabled":false,"rental_uris":{"android":"levelo://app?vid=5edad695-e6cf-4f5c-858f-d48afd03e07f","ios":"levelo://app?vid=5edad695-e6cf-4f5c-858f-d48afd03e07f"},"vehicle_type_id":"4","last_reported":1707052140,"current_range_meters":1200,"station_id":"ce4bhbp2rcd13ifvqerg","pricing_plan_id":"free"},{"bike_id":"24e1f9c5-a427-4f1c-b795-7d0c623f4c47","system_id":"levelo_inurba_marseille","lat":43.28266,"lon":5.35073,"is_reserved":false,"is_disabled":false,"rental_uris":{"android":"levelo://app?vid=24e1f9c5-a427-4f1c-b795-7d0c623f4c47","ios":"levelo://app?vid=24e1f9c5-a427-4f1c-b795-7d0c623f4c47"},"vehicle_type_id":"4","last_reported":1707052140,"current_range_meters":3600,"station_id":"ce4bhbp2rcd13ifvqerg","pricing_plan_id":"free"},{"bike_id":"4837c291-0127-4a5b-9ec4-68f9c4983fe8","system_id":"levelo_inurba_marseille","lat":43.28268,"lon":5.35066,"is_reserved":false,"is_disabled":false,"rental_uris":{"android":"levelo://app?vid=4837c291-0127-4a5b-9ec4-68f9c4983fe8","ios":"levelo://app?vid=4837c291-0127-4a5b-9ec4-68f9c4983fe8"},"vehicle_type_id":"4","last_reported":1707052140,"current_range_meters":12000,"station_id":"ce4bhbp2rcd13ifvqerg","pricing_plan_id":"free"},{"bike_id":"00ec931d-6aee-47f3-ba00-cddb5cbe4fca","system_id":"levelo_inurba_marseille","lat":43.282652,"lon":5.350749,"is_reserved":false,"is_disabled":false,"rental_uris":{"android":"levelo://app?vid=00ec931d-6aee-47f3-ba00-cddb5cbe4fca","ios":"levelo://app?vid=00ec931d-6aee-47f3-ba00-cddb5cbe4fca"},"vehicle_type_id":"4","last_reported":1707052140,"current_range_meters":27200,"station_id":"ce4bhbp2rcd13ifvqerg","pricing_plan_id":"free"},{"bike_id":"4c9b98e8-39cd-4558-8454-24c0df3a5042","system_id":"levelo_inurba_marseille","lat":43.28267,"lon":5.35068,"is_reserved":false,"is_disabled":false,"rental_uris":{"android":"levelo://app?vid=4c9b98e8-39cd-4558-8454-24c0df3a5042","ios":"levelo://app?vid=4c9b98e8-39cd-4558-8454-24c0df3a5042"},"vehicle_type_id":"4","last_reported":1707052140,"current_range_meters":14400,"station_id":"ce4bhbp2rcd13ifvqerg","pricing_plan_id":"free"},{"bike_id":"ab907cdf-e79b-45b7-86f3-3846308a752b","system_id":"levelo_inurba_marseille","lat":43.28264,"lon":5.350744,"is_reserved":false,"is_disabled":false,"rental_uris":{"android":"levelo://app?vid=ab907cdf-e79b-45b7-86f3-3846308a752b","ios":"levelo://app?vid=ab907cdf-e79b-45b7-86f3-3846308a752b"},"vehicle_type_id":"4","last_reported":1707052140,"current_range_meters":29600,"station_id":"ce4bhbp2rcd13ifvqerg","pricing_plan_id":"free"},{"bike_id":"878491fa-74f3-46ea-8aa4-ff5cd70c5753","system_id":"levelo_inurba_marseille","lat":43.28264,"lon":5.35071,"is_reserved":false,"is_disabled":false,"rental_uris":{"android":"levelo://app?vid=878491fa-74f3-46ea-8aa4-ff5cd70c5753","ios":"levelo://app?vid=878491fa-74f3-46ea-8aa4-ff5cd70c5753"},"vehicle_type_id":"4","last_reported":1707052140,"current_range_meters":23600,"station_id":"ce4bhbp2rcd13ifvqerg","pricing_plan_id":"free"},{"bike_id":"1d9878ca-76e9-4ba9-95ff-37f2054c5c1d","system_id":"levelo_inurba_marseille","lat":43.282626,"lon":5.350727,"is_reserved":false,"is_disabled":false,"rental_uris":{"android":"levelo://app?vid=1d9878ca-76e9-4ba9-95ff-37f2054c5c1d","ios":"levelo://app?vid=1d9878ca-76e9-4ba9-95ff-37f2054c5c1d"},"vehicle_type_id":"4","last_reported":1707052140,"current_range_meters":10000,"station_id":"ce4bhbp2rcd13ifvqerg","pricing_plan_id":"free"},{"bike_id":"4997f785-a7bd-4f17-a1d3-51ac42e5676d","system_id":"levelo_inurba_marseille","lat":43.28263,"lon":5.35068,"is_reserved":false,"is_disabled":false,"rental_uris":{"android":"levelo://app?vid=4997f785-a7bd-4f17-a1d3-51ac42e5676d","ios":"levelo://app?vid=4997f785-a7bd-4f17-a1d3-51ac42e5676d"},"vehicle_type_id":"4","last_reported":1707052140,"current_range_meters":6800,"station_id":"ce4bhbp2rcd13ifvqerg","pricing_plan_id":"free"},{"bike_id":"ea3868ac-9c8b-4f89-8e5b-f5d0ea832418","system_id":"levelo_inurba_marseille","lat":43.282604,"lon":5.350748,"is_reserved":false,"is_disabled":false,"rental_uris":{"android":"levelo://app?vid=ea3868ac-9c8b-4f89-8e5b-f5d0ea832418","ios":"levelo://app?vid=ea3868ac-9c8b-4f89-8e5b-f5d0ea832418"},"vehicle_type_id":"4","last_reported":1707052140,"current_range_meters":28000,"station_id":"ce4bhbp2rcd13ifvqerg","pricing_plan_id":"free"},{"bike_id":"7f7041d2-a79f-4c1b-a6bd-676a6a3397db","system_id":"levelo_inurba_marseille","lat":43.282651,"lon":5.350552,"is_reserved":false,"is_disabled":false,"rental_uris":{"android":"levelo://app?vid=7f7041d2-a79f-4c1b-a6bd-676a6a3397db","ios":"levelo://app?vid=7f7041d2-a79f-4c1b-a6bd-676a6a3397db"},"vehicle_type_id":"4","last_reported":1707052140,"current_range_meters":2400,"station_id":"ce4bhbp2rcd13ifvqerg","pricing_plan_id":"free"},{"bike_id":"7ed32c65-1122-4585-bec2-28b4f0307fc6","system_id":"levelo_inurba_marseille","lat":43.282595,"lon":5.350735,"is_reserved":false,"is_disabled":false,"rental_uris":{"android":"levelo://app?vid=7ed32c65-1122-4585-bec2-28b4f0307fc6","ios":"levelo://app?vid=7ed32c65-1122-4585-bec2-28b4f0307fc6"},"vehicle_type_id":"4","last_reported":1707052140,"current_range_meters":0,"station_id":"ce4bhbp2rcd13ifvqerg","pricing_plan_id":"free"},{"bike_id":"9e9fa444-27cd-43b4-a3e4-0bee55a1c8a3","system_id":"levelo_inurba_marseille","lat":43.28261,"lon":5.35061,"is_reserved":false,"is_disabled":false,"rental_uris":{"android":"levelo://app?vid=9e9fa444-27cd-43b4-a3e4-0bee55a1c8a3","ios":"levelo://app?vid=9e9fa444-27cd-43b4-a3e4-0bee55a1c8a3"},"vehicle_type_id":"4","last_reported":1707052140,"current_range_meters":0,"station_id":"ce4bhbp2rcd13ifvqerg","pricing_plan_id":"free"},{"bike_id":"f75fec5e-f27f-41af-8ef9-d0e582849e1d","system_id":"levelo_inurba_marseille","lat":43.282621,"lon":5.350567,"is_reserved":false,"is_disabled":false,"rental_uris":{"android":"levelo://app?vid=f75fec5e-f27f-41af-8ef9-d0e582849e1d","ios":"levelo://app?vid=f75fec5e-f27f-41af-8ef9-d0e582849e1d"},"vehicle_type_id":"4","last_reported":1707052140,"current_range_meters":15200,"station_id":"ce4bhbp2rcd13ifvqerg","pricing_plan_id":"free"},{"bike_id":"ee999d41-d401-4a32-ad96-d405b0eb8d25","system_id":"levelo_inurba_marseille","lat":43.28255,"lon":5.35058,"is_reserved":false,"is_disabled":false,"rental_uris":{"android":"levelo://app?vid=ee999d41-d401-4a32-ad96-d405b0eb8d25","ios":"levelo://app?vid=ee999d41-d401-4a32-ad96-d405b0eb8d25"},"vehicle_type_id":"4","last_reported":1707052140,"current_range_meters":18800,"station_id":"ce4bhbp2rcd13ifvqerg","pricing_plan_id":"free"},{"bike_id":"71d58b92-edec-48ac-a338-0c7404e39a67","system_id":"levelo_inurba_marseille","lat":43.282534,"lon":5.350038,"is_reserved":false,"is_disabled":false,"rental_uris":{"android":"levelo://app?vid=71d58b92-edec-48ac-a338-0c7404e39a67","ios":"levelo://app?vid=71d58b92-edec-48ac-a338-0c7404e39a67"},"vehicle_type_id":"4","last_reported":1707052140,"current_range_meters":2000,"station_id":"ce4bhbp2rcd13ifvqerg","pricing_plan_id":"free"},{"bike_id":"523c8b62-a394-427c-83ac-1e8f246890d3","system_id":"levelo_inurba_marseille","lat":43.281724,"lon":5.383047,"is_reserved":false,"is_disabled":false,"rental_uris":{"android":"levelo://app?vid=523c8b62-a394-427c-83ac-1e8f246890d3","ios":"levelo://app?vid=523c8b62-a394-427c-83ac-1e8f246890d3"},"vehicle_type_id":"4","last_reported":1707052140,"current_range_meters":2800,"station_id":"","pricing_plan_id":"free"},{"bike_id":"465b1140-422b-4e3f-8759-aa860f7686a1","system_id":"levelo_inurba_marseille","lat":43.326605,"lon":5.409903,"is_reserved":false,"is_disabled":false,"rental_uris":{"android":"levelo://app?vid=465b1140-422b-4e3f-8759-aa860f7686a1","ios":"levelo://app?vid=465b1140-422b-4e3f-8759-aa860f7686a1"},"vehicle_type_id":"4","last_reported":1707052140,"current_range_meters":7200,"station_id":"ce4bhpp2rcd13ifvqhgg","pricing_plan_id":"free"},{"bike_id":"8b1d9aa1-44d8-4960-ae87-dff725b9e0f5","system_id":"levelo_inurba_marseille","lat":43.304188,"lon":5.412904,"is_reserved":false,"is_disabled":false,"rental_uris":{"android":"levelo://app?vid=8b1d9aa1-44d8-4960-ae87-dff725b9e0f5","ios":"levelo://app?vid=8b1d9aa1-44d8-4960-ae87-dff725b9e0f5"},"vehicle_type_id":"4","last_reported":1707052140,"current_range_meters":24400,"station_id":"ce4bhop2rcd13ifvqh8g","pricing_plan_id":"free"},{"bike_id":"9acc8f12-b89d-4b2d-bc7c-51ec8e7fbbd9","system_id":"levelo_inurba_marseille","lat":43.304188,"lon":5.412904,"is_reserved":false,"is_disabled":false,"rental_uris":{"android":"levelo://app?vid=9acc8f12-b89d-4b2d-bc7c-51ec8e7fbbd9","ios":"levelo://app?vid=9acc8f12-b89d-4b2d-bc7c-51ec8e7fbbd9"},"vehicle_type_id":"4","last_reported":1707052140,"current_range_meters":23600,"station_id":"ce4bhop2rcd13ifvqh8g","pricing_plan_id":"free"},{"bike_id":"db797935-38a9-4994-9484-da2bd019ba54","system_id":"levelo_inurba_marseille","lat":43.279087,"lon":5.380114,"is_reserved":false,"is_disabled":false,"rental_uris":{"android":"levelo://app?vid=db797935-38a9-4994-9484-da2bd019ba54","ios":"levelo://app?vid=db797935-38a9-4994-9484-da2bd019ba54"},"vehicle_type_id":"4","last_reported":1707052140,"current_range_meters":16000,"station_id":"ce4bhf92rcd13ifvqf50","pricing_plan_id":"free"},{"bike_id":"ebf8aced-ba76-4ab5-815a-8b22c83777c2","system_id":"levelo_inurba_marseille","lat":43.320045,"lon":5.415048,"is_reserved":false,"is_disabled":false,"rental_uris":{"android":"levelo://app?vid=ebf8aced-ba76-4ab5-815a-8b22c83777c2","ios":"levelo://app?vid=ebf8aced-ba76-4ab5-815a-8b22c83777c2"},"vehicle_type_id":"4","last_reported":1707052140,"current_range_meters":17200,"station_id":"ce4bhq92rcd13ifvqhkg","pricing_plan_id":"free"},{"bike_id":"f9a4f1eb-8a78-4370-8ff7-d38a7f5279ff","system_id":"levelo_inurba_marseille","lat":43.320045,"lon":5.415048,"is_reserved":false,"is_disabled":false,"rental_uris":{"android":"levelo://app?vid=f9a4f1eb-8a78-4370-8ff7-d38a7f5279ff","ios":"levelo://app?vid=f9a4f1eb-8a78-4370-8ff7-d38a7f5279ff"},"vehicle_type_id":"4","last_reported":1707052140,"current_range_meters":7200,"station_id":"ce4bhq92rcd13ifvqhkg","pricing_plan_id":"free"},{"bike_id":"8a578bad-346c-4493-8d40-d35384032d13","system_id":"levelo_inurba_marseille","lat":43.279742,"lon":5.38744,"is_reserved":false,"is_disabled":false,"rental_uris":{"android":"levelo://app?vid=8a578bad-346c-4493-8d40-d35384032d13","ios":"levelo://app?vid=8a578bad-346c-4493-8d40-d35384032d13"},"vehicle_type_id":"4","last_reported":1707052140,"current_range_meters":0,"station_id":"ce4bhg12rcd13ifvqf80","pricing_plan_id":"free"},{"bike_id":"4eccbd47-6cc9-4679-b1ca-e7dff7c3d665","system_id":"levelo_inurba_marseille","lat":43.32026,"lon":5.415723,"is_reserved":false,"is_disabled":false,"rental_uris":{"android":"levelo://app?vid=4eccbd47-6cc9-4679-b1ca-e7dff7c3d665","ios":"levelo://app?vid=4eccbd47-6cc9-4679-b1ca-e7dff7c3d665"},"vehicle_type_id":"4","last_reported":1707052140,"current_range_meters":0,"station_id":"ce4bhq92rcd13ifvqhkg","pricing_plan_id":"free"},{"bike_id":"8a90fc85-e1f2-4a86-a2d5-a9ae73c75fc6","system_id":"levelo_inurba_marseille","lat":43.320045,"lon":5.415048,"is_reserved":false,"is_disabled":false,"rental_uris":{"android":"levelo://app?vid=8a90fc85-e1f2-4a86-a2d5-a9ae73c75fc6","ios":"levelo://app?vid=8a90fc85-e1f2-4a86-a2d5-a9ae73c75fc6"},"vehicle_type_id":"4","last_reported":1707052140,"current_range_meters":6000,"station_id":"ce4bhq92rcd13ifvqhkg","pricing_plan_id":"free"},{"bike_id":"f5de6bc5-cb6c-4e94-91af-0ccfd0dbd3c6","system_id":"levelo_inurba_marseille","lat":43.325233,"lon":5.414318,"is_reserved":false,"is_disabled":false,"rental_uris":{"android":"levelo://app?vid=f5de6bc5-cb6c-4e94-91af-0ccfd0dbd3c6","ios":"levelo://app?vid=f5de6bc5-cb6c-4e94-91af-0ccfd0dbd3c6"},"vehicle_type_id":"4","last_reported":1707052140,"current_range_meters":30000,"station_id":"ce4bhq12rcd13ifvqhhg","pricing_plan_id":"free"},{"bike_id":"dbea6208-9fac-4718-86e2-7c682ab08631","system_id":"levelo_inurba_marseille","lat":43.276179,"lon":5.361009,"is_reserved":false,"is_disabled":false,"rental_uris":{"android":"levelo://app?vid=dbea6208-9fac-4718-86e2-7c682ab08631","ios":"levelo://app?vid=dbea6208-9fac-4718-86e2-7c682ab08631"},"vehicle_type_id":"4","last_reported":1707052140,"current_range_meters":2000,"station_id":"ce4bgj92rcd13ifvqbe0","pricing_plan_id":"free"},{"bike_id":"bc5c4b6d-dec2-477e-acce-893da0b8915f","system_id":"levelo_inurba_marseille","lat":43.27616,"lon":5.36112,"is_reserved":false,"is_disabled":false,"rental_uris":{"android":"levelo://app?vid=bc5c4b6d-dec2-477e-acce-893da0b8915f","ios":"levelo://app?vid=bc5c4b6d-dec2-477e-acce-893da0b8915f"},"vehicle_type_id":"4","last_reported":1707052140,"current_range_meters":24800,"station_id":"ce4bgj92rcd13ifvqbe0","pricing_plan_id":"free"},{"bike_id":"41782107-55f5-43f9-822d-6590cad417e5","system_id":"levelo_inurba_marseille","lat":43.276179,"lon":5.361009,"is_reserved":false,"is_disabled":false,"rental_uris":{"android":"levelo://app?vid=41782107-55f5-43f9-822d-6590cad417e5","ios":"levelo://app?vid=41782107-55f5-43f9-822d-6590cad417e5"},"vehicle_type_id":"4","last_reported":1707052140,"current_range_meters":25200,"station_id":"ce4bgj92rcd13ifvqbe0","pricing_plan_id":"free"},{"bike_id":"3e8cc310-f81b-47c4-a705-394bb7655722","system_id":"levelo_inurba_marseille","lat":43.276179,"lon":5.361009,"is_reserved":false,"is_disabled":false,"rental_uris":{"android":"levelo://app?vid=3e8cc310-f81b-47c4-a705-394bb7655722","ios":"levelo://app?vid=3e8cc310-f81b-47c4-a705-394bb7655722"},"vehicle_type_id":"4","last_reported":1707052140,"current_range_meters":25200,"station_id":"ce4bgj92rcd13ifvqbe0","pricing_plan_id":"free"},{"bike_id":"141330c9-2215-4166-a98f-8a68ce90bf90","system_id":"levelo_inurba_marseille","lat":43.276179,"lon":5.361009,"is_reserved":false,"is_disabled":false,"rental_uris":{"android":"levelo://app?vid=141330c9-2215-4166-a98f-8a68ce90bf90","ios":"levelo://app?vid=141330c9-2215-4166-a98f-8a68ce90bf90"},"vehicle_type_id":"4","last_reported":1707052140,"current_range_meters":26000,"station_id":"ce4bgj92rcd13ifvqbe0","pricing_plan_id":"free"},{"bike_id":"d428bc57-661e-4410-b6e0-fd74c417a9aa","system_id":"levelo_inurba_marseille","lat":43.3035,"lon":5.41844,"is_reserved":false,"is_disabled":false,"rental_uris":{"android":"levelo://app?vid=d428bc57-661e-4410-b6e0-fd74c417a9aa","ios":"levelo://app?vid=d428bc57-661e-4410-b6e0-fd74c417a9aa"},"vehicle_type_id":"4","last_reported":1707052140,"current_range_meters":20000,"station_id":"ce4bhop2rcd13ifvqh7g","pricing_plan_id":"free"},{"bike_id":"089ce933-7ae1-4748-9eca-0c4aadec3073","system_id":"levelo_inurba_marseille","lat":43.280784,"lon":5.396622,"is_reserved":false,"is_disabled":false,"rental_uris":{"android":"levelo://app?vid=089ce933-7ae1-4748-9eca-0c4aadec3073","ios":"levelo://app?vid=089ce933-7ae1-4748-9eca-0c4aadec3073"},"vehicle_type_id":"4","last_reported":1707052140,"current_range_meters":19200,"station_id":"ce4bho12rcd13ifvqh2g","pricing_plan_id":"free"},{"bike_id":"9627be5b-6ecb-4af9-9683-112eaa5b9d61","system_id":"levelo_inurba_marseille","lat":43.278334,"lon":5.392001,"is_reserved":false,"is_disabled":false,"rental_uris":{"android":"levelo://app?vid=9627be5b-6ecb-4af9-9683-112eaa5b9d61","ios":"levelo://app?vid=9627be5b-6ecb-4af9-9683-112eaa5b9d61"},"vehicle_type_id":"4","last_reported":1707052140,"current_range_meters":9200,"station_id":"ce4bhjp2rcd13ifvqga0","pricing_plan_id":"free"},{"bike_id":"eca7dffe-19ad-483a-a0cf-a6be4a26ad56","system_id":"levelo_inurba_marseille","lat":43.273613,"lon":5.362705,"is_reserved":false,"is_disabled":false,"rental_uris":{"android":"levelo://app?vid=eca7dffe-19ad-483a-a0cf-a6be4a26ad56","ios":"levelo://app?vid=eca7dffe-19ad-483a-a0cf-a6be4a26ad56"},"vehicle_type_id":"4","last_reported":1707052140,"current_range_meters":19600,"station_id":"ce4bhbh2rcd13ifvqeo0","pricing_plan_id":"free"},{"bike_id":"1695f48d-19e8-4058-9b5d-f58d3c1c251d","system_id":"levelo_inurba_marseille","lat":43.27378,"lon":5.36251,"is_reserved":false,"is_disabled":false,"rental_uris":{"android":"levelo://app?vid=1695f48d-19e8-4058-9b5d-f58d3c1c251d","ios":"levelo://app?vid=1695f48d-19e8-4058-9b5d-f58d3c1c251d"},"vehicle_type_id":"4","last_reported":1707052140,"current_range_meters":16000,"station_id":"ce4bhbh2rcd13ifvqeo0","pricing_plan_id":"free"},{"bike_id":"2f9e4397-d5c1-4de1-a9ac-8cf2536bb931","system_id":"levelo_inurba_marseille","lat":43.273613,"lon":5.362705,"is_reserved":false,"is_disabled":false,"rental_uris":{"android":"levelo://app?vid=2f9e4397-d5c1-4de1-a9ac-8cf2536bb931","ios":"levelo://app?vid=2f9e4397-d5c1-4de1-a9ac-8cf2536bb931"},"vehicle_type_id":"4","last_reported":1707052140,"current_range_meters":21600,"station_id":"ce4bhbh2rcd13ifvqeo0","pricing_plan_id":"free"},{"bike_id":"dca07654-ef30-4793-b615-b1d5a701cb1a","system_id":"levelo_inurba_marseille","lat":43.273767,"lon":5.362536,"is_reserved":false,"is_disabled":false,"rental_uris":{"android":"levelo://app?vid=dca07654-ef30-4793-b615-b1d5a701cb1a","ios":"levelo://app?vid=dca07654-ef30-4793-b615-b1d5a701cb1a"},"vehicle_type_id":"4","last_reported":1707052140,"current_range_meters":16000,"station_id":"ce4bhbh2rcd13ifvqeo0","pricing_plan_id":"free"},{"bike_id":"73a99eff-5327-44eb-981e-16f29f9eded5","system_id":"levelo_inurba_marseille","lat":43.273613,"lon":5.362705,"is_reserved":false,"is_disabled":false,"rental_uris":{"android":"levelo://app?vid=73a99eff-5327-44eb-981e-16f29f9eded5","ios":"levelo://app?vid=73a99eff-5327-44eb-981e-16f29f9eded5"},"vehicle_type_id":"4","last_reported":1707052140,"current_range_meters":25600,"station_id":"ce4bhbh2rcd13ifvqeo0","pricing_plan_id":"free"},{"bike_id":"97074b00-903c-4326-89e4-98b6892bd247","system_id":"levelo_inurba_marseille","lat":43.27373,"lon":5.36249,"is_reserved":false,"is_disabled":false,"rental_uris":{"android":"levelo://app?vid=97074b00-903c-4326-89e4-98b6892bd247","ios":"levelo://app?vid=97074b00-903c-4326-89e4-98b6892bd247"},"vehicle_type_id":"4","last_reported":1707052140,"current_range_meters":28800,"station_id":"ce4bhbh2rcd13ifvqeo0","pricing_plan_id":"free"},{"bike_id":"3135fe05-eaf7-4571-ace4-48903d81327c","system_id":"levelo_inurba_marseille","lat":43.275625,"lon":5.384392,"is_reserved":false,"is_disabled":false,"rental_uris":{"android":"levelo://app?vid=3135fe05-eaf7-4571-ace4-48903d81327c","ios":"levelo://app?vid=3135fe05-eaf7-4571-ace4-48903d81327c"},"vehicle_type_id":"4","last_reported":1707052140,"current_range_meters":18800,"station_id":"ce4bhh92rcd13ifvqfi0","pricing_plan_id":"free"},{"bike_id":"10179605-4ea6-4659-8e82-dfe3cb87eb8d","system_id":"levelo_inurba_marseille","lat":43.27368,"lon":5.36255,"is_reserved":false,"is_disabled":false,"rental_uris":{"android":"levelo://app?vid=10179605-4ea6-4659-8e82-dfe3cb87eb8d","ios":"levelo://app?vid=10179605-4ea6-4659-8e82-dfe3cb87eb8d"},"vehicle_type_id":"4","last_reported":1707052140,"current_range_meters":29200,"station_id":"ce4bhbh2rcd13ifvqeo0","pricing_plan_id":"free"},{"bike_id":"2a5f3901-fe6d-4ca6-a973-93dc17c338a8","system_id":"levelo_inurba_marseille","lat":43.33599,"lon":5.41032,"is_reserved":false,"is_disabled":false,"rental_uris":{"android":"levelo://app?vid=2a5f3901-fe6d-4ca6-a973-93dc17c338a8","ios":"levelo://app?vid=2a5f3901-fe6d-4ca6-a973-93dc17c338a8"},"vehicle_type_id":"4","last_reported":1707052140,"current_range_meters":800,"station_id":"ce4bhqh2rcd13ifvqhmg","pricing_plan_id":"free"},{"bike_id":"59d4f130-2b65-4088-92f9-12f164266b73","system_id":"levelo_inurba_marseille","lat":43.33612,"lon":5.410321,"is_reserved":false,"is_disabled":false,"rental_uris":{"android":"levelo://app?vid=59d4f130-2b65-4088-92f9-12f164266b73","ios":"levelo://app?vid=59d4f130-2b65-4088-92f9-12f164266b73"},"vehicle_type_id":"4","last_reported":1707052140,"current_range_meters":10800,"station_id":"ce4bhqh2rcd13ifvqhmg","pricing_plan_id":"free"},{"bike_id":"f0a680e8-74d9-43b9-9396-fce9ff94fe4d","system_id":"levelo_inurba_marseille","lat":43.27366,"lon":5.3626,"is_reserved":false,"is_disabled":false,"rental_uris":{"android":"levelo://app?vid=f0a680e8-74d9-43b9-9396-fce9ff94fe4d","ios":"levelo://app?vid=f0a680e8-74d9-43b9-9396-fce9ff94fe4d"},"vehicle_type_id":"4","last_reported":1707052140,"current_range_meters":31200,"station_id":"ce4bhbh2rcd13ifvqeo0","pricing_plan_id":"free"},{"bike_id":"10bb2a25-35d9-4b70-bb0d-a922d7a05d50","system_id":"levelo_inurba_marseille","lat":43.336134,"lon":5.410341,"is_reserved":false,"is_disabled":false,"rental_uris":{"android":"levelo://app?vid=10bb2a25-35d9-4b70-bb0d-a922d7a05d50","ios":"levelo://app?vid=10bb2a25-35d9-4b70-bb0d-a922d7a05d50"},"vehicle_type_id":"4","last_reported":1707052140,"current_range_meters":22800,"station_id":"ce4bhqh2rcd13ifvqhmg","pricing_plan_id":"free"},{"bike_id":"fda18995-5b00-4523-9077-095b84694a1a","system_id":"levelo_inurba_marseille","lat":43.336148,"lon":5.410349,"is_reserved":false,"is_disabled":false,"rental_uris":{"android":"levelo://app?vid=fda18995-5b00-4523-9077-095b84694a1a","ios":"levelo://app?vid=fda18995-5b00-4523-9077-095b84694a1a"},"vehicle_type_id":"4","last_reported":1707052140,"current_range_meters":31200,"station_id":"ce4bhqh2rcd13ifvqhmg","pricing_plan_id":"free"},{"bike_id":"65fe8b5d-caed-4b2f-a1de-4bc99d2a4018","system_id":"levelo_inurba_marseille","lat":43.317121,"lon":5.423936,"is_reserved":false,"is_disabled":false,"rental_uris":{"android":"levelo://app?vid=65fe8b5d-caed-4b2f-a1de-4bc99d2a4018","ios":"levelo://app?vid=65fe8b5d-caed-4b2f-a1de-4bc99d2a4018"},"vehicle_type_id":"4","last_reported":1707052140,"current_range_meters":0,"station_id":"ce4bhp92rcd13ifvqhbg","pricing_plan_id":"free"},{"bike_id":"83cfee18-fdb6-48c9-910a-cf2c3b18a96a","system_id":"levelo_inurba_marseille","lat":43.317121,"lon":5.423936,"is_reserved":false,"is_disabled":false,"rental_uris":{"android":"levelo://app?vid=83cfee18-fdb6-48c9-910a-cf2c3b18a96a","ios":"levelo://app?vid=83cfee18-fdb6-48c9-910a-cf2c3b18a96a"},"vehicle_type_id":"4","last_reported":1707052140,"current_range_meters":31600,"station_id":"ce4bhp92rcd13ifvqhbg","pricing_plan_id":"free"},{"bike_id":"f1617fdb-504f-4823-a16e-07aa08b42e86","system_id":"levelo_inurba_marseille","lat":43.317121,"lon":5.423936,"is_reserved":false,"is_disabled":false,"rental_uris":{"android":"levelo://app?vid=f1617fdb-504f-4823-a16e-07aa08b42e86","ios":"levelo://app?vid=f1617fdb-504f-4823-a16e-07aa08b42e86"},"vehicle_type_id":"4","last_reported":1707052140,"current_range_meters":3600,"station_id":"ce4bhp92rcd13ifvqhbg","pricing_plan_id":"free"},{"bike_id":"d6631a1e-95e1-4d14-9455-b37f6a32279d","system_id":"levelo_inurba_marseille","lat":43.317121,"lon":5.423936,"is_reserved":false,"is_disabled":false,"rental_uris":{"android":"levelo://app?vid=d6631a1e-95e1-4d14-9455-b37f6a32279d","ios":"levelo://app?vid=d6631a1e-95e1-4d14-9455-b37f6a32279d"},"vehicle_type_id":"4","last_reported":1707052140,"current_range_meters":2800,"station_id":"ce4bhp92rcd13ifvqhbg","pricing_plan_id":"free"},{"bike_id":"f982038d-6f6f-4dc6-a3ea-b86f1c6aafff","system_id":"levelo_inurba_marseille","lat":43.310785,"lon":5.424305,"is_reserved":false,"is_disabled":false,"rental_uris":{"android":"levelo://app?vid=f982038d-6f6f-4dc6-a3ea-b86f1c6aafff","ios":"levelo://app?vid=f982038d-6f6f-4dc6-a3ea-b86f1c6aafff"},"vehicle_type_id":"4","last_reported":1707052140,"current_range_meters":26000,"station_id":"ce4bhp92rcd13ifvqhag","pricing_plan_id":"free"},{"bike_id":"12e2b105-dcb5-40b2-9315-97c4f28fa71b","system_id":"levelo_inurba_marseille","lat":43.31081,"lon":5.42432,"is_reserved":false,"is_disabled":false,"rental_uris":{"android":"levelo://app?vid=12e2b105-dcb5-40b2-9315-97c4f28fa71b","ios":"levelo://app?vid=12e2b105-dcb5-40b2-9315-97c4f28fa71b"},"vehicle_type_id":"4","last_reported":1707052140,"current_range_meters":0,"station_id":"ce4bhp92rcd13ifvqhag","pricing_plan_id":"free"},{"bike_id":"b8e0b856-768e-444c-abcc-85a4f1a68e6e","system_id":"levelo_inurba_marseille","lat":43.310785,"lon":5.424305,"is_reserved":false,"is_disabled":false,"rental_uris":{"android":"levelo://app?vid=b8e0b856-768e-444c-abcc-85a4f1a68e6e","ios":"levelo://app?vid=b8e0b856-768e-444c-abcc-85a4f1a68e6e"},"vehicle_type_id":"4","last_reported":1707052140,"current_range_meters":12000,"station_id":"ce4bhp92rcd13ifvqhag","pricing_plan_id":"free"},{"bike_id":"1ae01579-7e5f-4bb0-ab29-68fe6cde5349","system_id":"levelo_inurba_marseille","lat":43.27378,"lon":5.390795,"is_reserved":false,"is_disabled":false,"rental_uris":{"android":"levelo://app?vid=1ae01579-7e5f-4bb0-ab29-68fe6cde5349","ios":"levelo://app?vid=1ae01579-7e5f-4bb0-ab29-68fe6cde5349"},"vehicle_type_id":"4","last_reported":1707052140,"current_range_meters":26800,"station_id":"","pricing_plan_id":"free"},{"bike_id":"222c2fb7-8907-4dc3-b6f3-8617761ca5ba","system_id":"levelo_inurba_marseille","lat":43.295523,"lon":5.422926,"is_reserved":false,"is_disabled":false,"rental_uris":{"android":"levelo://app?vid=222c2fb7-8907-4dc3-b6f3-8617761ca5ba","ios":"levelo://app?vid=222c2fb7-8907-4dc3-b6f3-8617761ca5ba"},"vehicle_type_id":"4","last_reported":1707052140,"current_range_meters":2800,"station_id":"ce4bhph2rcd13ifvqhdg","pricing_plan_id":"free"},{"bike_id":"7f766f45-7c73-4713-a492-97e85b5212c8","system_id":"levelo_inurba_marseille","lat":43.295511,"lon":5.422926,"is_reserved":false,"is_disabled":false,"rental_uris":{"android":"levelo://app?vid=7f766f45-7c73-4713-a492-97e85b5212c8","ios":"levelo://app?vid=7f766f45-7c73-4713-a492-97e85b5212c8"},"vehicle_type_id":"4","last_reported":1707052140,"current_range_meters":26800,"station_id":"ce4bhph2rcd13ifvqhdg","pricing_plan_id":"free"},{"bike_id":"b5767efe-c6d9-450f-9326-cfc1204c89b8","system_id":"levelo_inurba_marseille","lat":43.29548,"lon":5.42281,"is_reserved":false,"is_disabled":false,"rental_uris":{"android":"levelo://app?vid=b5767efe-c6d9-450f-9326-cfc1204c89b8","ios":"levelo://app?vid=b5767efe-c6d9-450f-9326-cfc1204c89b8"},"vehicle_type_id":"4","last_reported":1707052140,"current_range_meters":20800,"station_id":"ce4bhph2rcd13ifvqhdg","pricing_plan_id":"free"},{"bike_id":"16e4d47b-ebfc-4350-8c3b-6396e2554d0f","system_id":"levelo_inurba_marseille","lat":43.295511,"lon":5.422926,"is_reserved":false,"is_disabled":false,"rental_uris":{"android":"levelo://app?vid=16e4d47b-ebfc-4350-8c3b-6396e2554d0f","ios":"levelo://app?vid=16e4d47b-ebfc-4350-8c3b-6396e2554d0f"},"vehicle_type_id":"4","last_reported":1707052140,"current_range_meters":20000,"station_id":"ce4bhph2rcd13ifvqhdg","pricing_plan_id":"free"},{"bike_id":"6fc77d81-ee78-4855-b62b-145a114cde32","system_id":"levelo_inurba_marseille","lat":43.295511,"lon":5.422926,"is_reserved":false,"is_disabled":false,"rental_uris":{"android":"levelo://app?vid=6fc77d81-ee78-4855-b62b-145a114cde32","ios":"levelo://app?vid=6fc77d81-ee78-4855-b62b-145a114cde32"},"vehicle_type_id":"4","last_reported":1707052140,"current_range_meters":30800,"station_id":"ce4bhph2rcd13ifvqhdg","pricing_plan_id":"free"},{"bike_id":"19db4689-aad0-47c2-a7e3-a6d209987b5e","system_id":"levelo_inurba_marseille","lat":43.295511,"lon":5.422926,"is_reserved":false,"is_disabled":false,"rental_uris":{"android":"levelo://app?vid=19db4689-aad0-47c2-a7e3-a6d209987b5e","ios":"levelo://app?vid=19db4689-aad0-47c2-a7e3-a6d209987b5e"},