{"last_updated":1743707248,"ttl":60,"version":"2.2","data":{"bikes":[{"bike_id":"2086d0e9-485f-4e5e-bed9-77a1892e934a","system_id":"levelo_inurba_marseille","lat":43.28727,"lon":5.37954,"is_reserved":false,"is_disabled":false,"rental_uris":{"android":"levelo://app?vid=2086d0e9-485f-4e5e-bed9-77a1892e934a","ios":"levelo://app?vid=2086d0e9-485f-4e5e-bed9-77a1892e934a"},"vehicle_type_id":"4","last_reported":1743707249,"current_range_meters":2800,"station_id":"ce4bh9p2rcd13ifvqec0","pricing_plan_id":"cebpf4jnsgd1na2vs0mg"},{"bike_id":"4b3bcfdd-b5c7-46f1-90a0-9665e5a2e9a8","system_id":"levelo_inurba_marseille","lat":43.29601,"lon":5.38114,"is_reserved":false,"is_disabled":false,"rental_uris":{"android":"levelo://app?vid=4b3bcfdd-b5c7-46f1-90a0-9665e5a2e9a8","ios":"levelo://app?vid=4b3bcfdd-b5c7-46f1-90a0-9665e5a2e9a8"},"vehicle_type_id":"4","last_reported":1743707249,"current_range_meters":2800,"station_id":"ce4bgl12rcd13ifvqbo0","pricing_plan_id":"cebpf4jnsgd1na2vs0mg"},{"bike_id":"d748d8e9-0050-43f2-a9c8-d28ed0c7002c","system_id":"levelo_inurba_marseille","lat":43.275757,"lon":5.384197,"is_reserved":false,"is_disabled":true,"rental_uris":{"android":"levelo://app?vid=d748d8e9-0050-43f2-a9c8-d28ed0c7002c","ios":"levelo://app?vid=d748d8e9-0050-43f2-a9c8-d28ed0c7002c"},"vehicle_type_id":"4","last_reported":1743707249,"current_range_meters":2800,"station_id":"ce4bhh92rcd13ifvqfi0","pricing_plan_id":"cebpf4jnsgd1na2vs0mg"},{"bike_id":"69d96eab-d655-4e71-80af-adf26a43bf2a","system_id":"levelo_inurba_marseille","lat":43.28358,"lon":5.38103,"is_reserved":false,"is_disabled":false,"rental_uris":{"android":"levelo://app?vid=69d96eab-d655-4e71-80af-adf26a43bf2a","ios":"levelo://app?vid=69d96eab-d655-4e71-80af-adf26a43bf2a"},"vehicle_type_id":"4","last_reported":1743707249,"current_range_meters":2800,"station_id":"ce4bh412rcd13ifvqdr0","pricing_plan_id":"cebpf4jnsgd1na2vs0mg"},{"bike_id":"f9951f6a-d68e-4025-8329-015f71a8d285","system_id":"levelo_inurba_marseille","lat":43.29423,"lon":5.38609,"is_reserved":false,"is_disabled":false,"rental_uris":{"android":"levelo://app?vid=f9951f6a-d68e-4025-8329-015f71a8d285","ios":"levelo://app?vid=f9951f6a-d68e-4025-8329-015f71a8d285"},"vehicle_type_id":"4","last_reported":1743707249,"current_range_meters":2800,"station_id":"ce4bh2h2rcd13ifvqdh0","pricing_plan_id":"cebpf4jnsgd1na2vs0mg"},{"bike_id":"f36eacdc-ef13-4721-bb02-42f6b3b21dc4","system_id":"levelo_inurba_marseille","lat":43.242889,"lon":5.375399,"is_reserved":false,"is_disabled":false,"rental_uris":{"android":"levelo://app?vid=f36eacdc-ef13-4721-bb02-42f6b3b21dc4","ios":"levelo://app?vid=f36eacdc-ef13-4721-bb02-42f6b3b21dc4"},"vehicle_type_id":"4","last_reported":1743707249,"current_range_meters":2800,"station_id":"ce4bhhh2rcd13ifvqfk0","pricing_plan_id":"cebpf4jnsgd1na2vs0mg"},{"bike_id":"e78dd258-2a76-43fb-8894-50d5f34479f7","system_id":"levelo_inurba_marseille","lat":43.29506,"lon":5.39058,"is_reserved":false,"is_disabled":false,"rental_uris":{"android":"levelo://app?vid=e78dd258-2a76-43fb-8894-50d5f34479f7","ios":"levelo://app?vid=e78dd258-2a76-43fb-8894-50d5f34479f7"},"vehicle_type_id":"4","last_reported":1743707249,"current_range_meters":3200,"station_id":"ce4bh3p2rcd13ifvqdp0","pricing_plan_id":"cebpf4jnsgd1na2vs0mg"},{"bike_id":"299dacb6-5266-4b81-88b2-50fcdef62869","system_id":"levelo_inurba_marseille","lat":43.24582,"lon":5.41657,"is_reserved":false,"is_disabled":false,"rental_uris":{"android":"levelo://app?vid=299dacb6-5266-4b81-88b2-50fcdef62869","ios":"levelo://app?vid=299dacb6-5266-4b81-88b2-50fcdef62869"},"vehicle_type_id":"4","last_reported":1743707249,"current_range_meters":3200,"station_id":"","pricing_plan_id":"cebpf4jnsgd1na2vs0mg"},{"bike_id":"585b6e2c-d9b9-4d81-bf14-09f6bedafb61","system_id":"levelo_inurba_marseille","lat":43.3043,"lon":5.36867,"is_reserved":false,"is_disabled":false,"rental_uris":{"android":"levelo://app?vid=585b6e2c-d9b9-4d81-bf14-09f6bedafb61","ios":"levelo://app?vid=585b6e2c-d9b9-4d81-bf14-09f6bedafb61"},"vehicle_type_id":"4","last_reported":1743707249,"current_range_meters":3200,"station_id":"","pricing_plan_id":"cebpf4jnsgd1na2vs0mg"},{"bike_id":"3fb25925-8851-4724-8c1a-238b348d9a04","system_id":"levelo_inurba_marseille","lat":43.24184,"lon":5.3971,"is_reserved":false,"is_disabled":false,"rental_uris":{"android":"levelo://app?vid=3fb25925-8851-4724-8c1a-238b348d9a04","ios":"levelo://app?vid=3fb25925-8851-4724-8c1a-238b348d9a04"},"vehicle_type_id":"4","last_reported":1743707249,"current_range_meters":3600,"station_id":"ce4bhn12rcd13ifvqgpg","pricing_plan_id":"cebpf4jnsgd1na2vs0mg"},{"bike_id":"432934c3-f919-402e-a968-c02c084e69a7","system_id":"levelo_inurba_marseille","lat":43.31074,"lon":5.38357,"is_reserved":false,"is_disabled":false,"rental_uris":{"android":"levelo://app?vid=432934c3-f919-402e-a968-c02c084e69a7","ios":"levelo://app?vid=432934c3-f919-402e-a968-c02c084e69a7"},"vehicle_type_id":"4","last_reported":1743707249,"current_range_meters":5600,"station_id":"ce4bgv92rcd13ifvqcr0","pricing_plan_id":"cebpf4jnsgd1na2vs0mg"},{"bike_id":"d157a8ac-f1ea-480a-a1ee-9ac00962bb01","system_id":"levelo_inurba_marseille","lat":43.29566,"lon":5.42241,"is_reserved":false,"is_disabled":false,"rental_uris":{"android":"levelo://app?vid=d157a8ac-f1ea-480a-a1ee-9ac00962bb01","ios":"levelo://app?vid=d157a8ac-f1ea-480a-a1ee-9ac00962bb01"},"vehicle_type_id":"4","last_reported":1743707249,"current_range_meters":3600,"station_id":"ce4bhph2rcd13ifvqhdg","pricing_plan_id":"cebpf4jnsgd1na2vs0mg"},{"bike_id":"181dddfe-ac26-4424-80fd-d1c16e001ca9","system_id":"levelo_inurba_marseille","lat":43.25873,"lon":5.39898,"is_reserved":false,"is_disabled":false,"rental_uris":{"android":"levelo://app?vid=181dddfe-ac26-4424-80fd-d1c16e001ca9","ios":"levelo://app?vid=181dddfe-ac26-4424-80fd-d1c16e001ca9"},"vehicle_type_id":"4","last_reported":1743707249,"current_range_meters":3600,"station_id":"ce4bhl92rcd13ifvqghg","pricing_plan_id":"cebpf4jnsgd1na2vs0mg"},{"bike_id":"528f8ccc-35b1-45d5-b3b2-953788122116","system_id":"levelo_inurba_marseille","lat":43.30548,"lon":5.36562,"is_reserved":false,"is_disabled":false,"rental_uris":{"android":"levelo://app?vid=528f8ccc-35b1-45d5-b3b2-953788122116","ios":"levelo://app?vid=528f8ccc-35b1-45d5-b3b2-953788122116"},"vehicle_type_id":"4","last_reported":1743707249,"current_range_meters":3600,"station_id":"ce4bgs12rcd13ifvqcag","pricing_plan_id":"cebpf4jnsgd1na2vs0mg"},{"bike_id":"bba2138c-4457-4968-98c5-fcc7cfa3d97c","system_id":"levelo_inurba_marseille","lat":43.28683,"lon":5.38671,"is_reserved":false,"is_disabled":false,"rental_uris":{"android":"levelo://app?vid=bba2138c-4457-4968-98c5-fcc7cfa3d97c","ios":"levelo://app?vid=bba2138c-4457-4968-98c5-fcc7cfa3d97c"},"vehicle_type_id":"4","last_reported":1743707249,"current_range_meters":3600,"station_id":"ce4bh492rcd13ifvqdug","pricing_plan_id":"cebpf4jnsgd1na2vs0mg"},{"bike_id":"12e77455-3c4c-4d5d-b029-832096d8dabc","system_id":"levelo_inurba_marseille","lat":43.29277,"lon":5.40121,"is_reserved":false,"is_disabled":false,"rental_uris":{"android":"levelo://app?vid=12e77455-3c4c-4d5d-b029-832096d8dabc","ios":"levelo://app?vid=12e77455-3c4c-4d5d-b029-832096d8dabc"},"vehicle_type_id":"4","last_reported":1743707249,"current_range_meters":3600,"station_id":"ce4bh312rcd13ifvqdk0","pricing_plan_id":"cebpf4jnsgd1na2vs0mg"},{"bike_id":"5360cc80-1158-4665-97e1-0e08fff7c9fc","system_id":"levelo_inurba_marseille","lat":43.29193,"lon":5.39329,"is_reserved":false,"is_disabled":false,"rental_uris":{"android":"levelo://app?vid=5360cc80-1158-4665-97e1-0e08fff7c9fc","ios":"levelo://app?vid=5360cc80-1158-4665-97e1-0e08fff7c9fc"},"vehicle_type_id":"4","last_reported":1743707249,"current_range_meters":3600,"station_id":"ce4bh192rcd13ifvqdd0","pricing_plan_id":"cebpf4jnsgd1na2vs0mg"},{"bike_id":"ccc70681-a39a-4097-a365-c27d929f23ea","system_id":"levelo_inurba_marseille","lat":43.25115,"lon":5.40324,"is_reserved":false,"is_disabled":false,"rental_uris":{"android":"levelo://app?vid=ccc70681-a39a-4097-a365-c27d929f23ea","ios":"levelo://app?vid=ccc70681-a39a-4097-a365-c27d929f23ea"},"vehicle_type_id":"4","last_reported":1743707249,"current_range_meters":4000,"station_id":"ce4bhlh2rcd13ifvqgig","pricing_plan_id":"cebpf4jnsgd1na2vs0mg"},{"bike_id":"bfad8742-682b-4b69-b60f-a18f639372c1","system_id":"levelo_inurba_marseille","lat":43.29802,"lon":5.40399,"is_reserved":false,"is_disabled":false,"rental_uris":{"android":"levelo://app?vid=bfad8742-682b-4b69-b60f-a18f639372c1","ios":"levelo://app?vid=bfad8742-682b-4b69-b60f-a18f639372c1"},"vehicle_type_id":"4","last_reported":1743707249,"current_range_meters":4400,"station_id":"ce4bh112rcd13ifvqd90","pricing_plan_id":"cebpf4jnsgd1na2vs0mg"},{"bike_id":"6ca47697-7e2b-4bb2-8fdc-3fc46d329500","system_id":"levelo_inurba_marseille","lat":43.29266,"lon":5.38441,"is_reserved":false,"is_disabled":false,"rental_uris":{"android":"levelo://app?vid=6ca47697-7e2b-4bb2-8fdc-3fc46d329500","ios":"levelo://app?vid=6ca47697-7e2b-4bb2-8fdc-3fc46d329500"},"vehicle_type_id":"4","last_reported":1743707249,"current_range_meters":4400,"station_id":"ce4bh692rcd13ifvqea0","pricing_plan_id":"cebpf4jnsgd1na2vs0mg"},{"bike_id":"f656fe50-61b1-4b6c-bde8-770244a23035","system_id":"levelo_inurba_marseille","lat":43.33,"lon":5.39457,"is_reserved":false,"is_disabled":false,"rental_uris":{"android":"levelo://app?vid=f656fe50-61b1-4b6c-bde8-770244a23035","ios":"levelo://app?vid=f656fe50-61b1-4b6c-bde8-770244a23035"},"vehicle_type_id":"4","last_reported":1743707249,"current_range_meters":4400,"station_id":"","pricing_plan_id":"cebpf4jnsgd1na2vs0mg"},{"bike_id":"c5c1eb6d-0f7f-411b-98af-19845bc7ae83","system_id":"levelo_inurba_marseille","lat":43.29911,"lon":5.38144,"is_reserved":false,"is_disabled":false,"rental_uris":{"android":"levelo://app?vid=c5c1eb6d-0f7f-411b-98af-19845bc7ae83","ios":"levelo://app?vid=c5c1eb6d-0f7f-411b-98af-19845bc7ae83"},"vehicle_type_id":"4","last_reported":1743707249,"current_range_meters":4400,"station_id":"ce4bgj12rcd13ifvqbc0","pricing_plan_id":"cebpf4jnsgd1na2vs0mg"},{"bike_id":"70f2cb07-51a2-4d62-9505-8c7d8516abb4","system_id":"levelo_inurba_marseille","lat":43.26934,"lon":5.38925,"is_reserved":false,"is_disabled":false,"rental_uris":{"android":"levelo://app?vid=70f2cb07-51a2-4d62-9505-8c7d8516abb4","ios":"levelo://app?vid=70f2cb07-51a2-4d62-9505-8c7d8516abb4"},"vehicle_type_id":"4","last_reported":1743707249,"current_range_meters":4400,"station_id":"ce4bhhh2rcd13ifvqfl0","pricing_plan_id":"cebpf4jnsgd1na2vs0mg"},{"bike_id":"08db227a-b24c-4a47-86fe-674492868bd7","system_id":"levelo_inurba_marseille","lat":43.28104,"lon":5.39639,"is_reserved":false,"is_disabled":false,"rental_uris":{"android":"levelo://app?vid=08db227a-b24c-4a47-86fe-674492868bd7","ios":"levelo://app?vid=08db227a-b24c-4a47-86fe-674492868bd7"},"vehicle_type_id":"4","last_reported":1743707249,"current_range_meters":4400,"station_id":"ce4bho12rcd13ifvqh2g","pricing_plan_id":"cebpf4jnsgd1na2vs0mg"},{"bike_id":"97ee1287-59b1-43c8-af7c-a3d2f68f8bc2","system_id":"levelo_inurba_marseille","lat":43.29297,"lon":5.37478,"is_reserved":false,"is_disabled":false,"rental_uris":{"android":"levelo://app?vid=97ee1287-59b1-43c8-af7c-a3d2f68f8bc2","ios":"levelo://app?vid=97ee1287-59b1-43c8-af7c-a3d2f68f8bc2"},"vehicle_type_id":"4","last_reported":1743707249,"current_range_meters":4400,"station_id":"ce4bgi12rcd13ifvqb70","pricing_plan_id":"cebpf4jnsgd1na2vs0mg"},{"bike_id":"174a0272-f21c-42b9-afd8-a4b98233b8f9","system_id":"levelo_inurba_marseille","lat":43.31859,"lon":5.37385,"is_reserved":false,"is_disabled":false,"rental_uris":{"android":"levelo://app?vid=174a0272-f21c-42b9-afd8-a4b98233b8f9","ios":"levelo://app?vid=174a0272-f21c-42b9-afd8-a4b98233b8f9"},"vehicle_type_id":"4","last_reported":1743707249,"current_range_meters":4400,"station_id":"","pricing_plan_id":"cebpf4jnsgd1na2vs0mg"},{"bike_id":"cffe934f-cc0a-450d-a650-02081bca5bd8","system_id":"levelo_inurba_marseille","lat":43.30365,"lon":5.42471,"is_reserved":false,"is_disabled":false,"rental_uris":{"android":"levelo://app?vid=cffe934f-cc0a-450d-a650-02081bca5bd8","ios":"levelo://app?vid=cffe934f-cc0a-450d-a650-02081bca5bd8"},"vehicle_type_id":"4","last_reported":1743707249,"current_range_meters":4400,"station_id":"ce4bhoh2rcd13ifvqh6g","pricing_plan_id":"cebpf4jnsgd1na2vs0mg"},{"bike_id":"0706a68f-1517-48a6-898c-8c8cb9e1b4bb","system_id":"levelo_inurba_marseille","lat":43.29272,"lon":5.38461,"is_reserved":false,"is_disabled":false,"rental_uris":{"android":"levelo://app?vid=0706a68f-1517-48a6-898c-8c8cb9e1b4bb","ios":"levelo://app?vid=0706a68f-1517-48a6-898c-8c8cb9e1b4bb"},"vehicle_type_id":"4","last_reported":1743707249,"current_range_meters":4400,"station_id":"ce4bh692rcd13ifvqea0","pricing_plan_id":"cebpf4jnsgd1na2vs0mg"},{"bike_id":"dfc10afb-6cae-4c57-a8de-38aa28a33d3b","system_id":"levelo_inurba_marseille","lat":43.28941,"lon":5.36608,"is_reserved":false,"is_disabled":false,"rental_uris":{"android":"levelo://app?vid=dfc10afb-6cae-4c57-a8de-38aa28a33d3b","ios":"levelo://app?vid=dfc10afb-6cae-4c57-a8de-38aa28a33d3b"},"vehicle_type_id":"4","last_reported":1743707249,"current_range_meters":4800,"station_id":"ce4bhap2rcd13ifvqek0","pricing_plan_id":"cebpf4jnsgd1na2vs0mg"},{"bike_id":"c212f727-0515-42a9-81a3-856ebebf0d57","system_id":"levelo_inurba_marseille","lat":43.3266,"lon":5.40992,"is_reserved":false,"is_disabled":false,"rental_uris":{"android":"levelo://app?vid=c212f727-0515-42a9-81a3-856ebebf0d57","ios":"levelo://app?vid=c212f727-0515-42a9-81a3-856ebebf0d57"},"vehicle_type_id":"4","last_reported":1743707249,"current_range_meters":4400,"station_id":"ce4bhpp2rcd13ifvqhgg","pricing_plan_id":"cebpf4jnsgd1na2vs0mg"},{"bike_id":"e489e300-d836-4d0c-84a1-2b70b70b5408","system_id":"levelo_inurba_marseille","lat":43.29022,"lon":5.38131,"is_reserved":false,"is_disabled":false,"rental_uris":{"android":"levelo://app?vid=e489e300-d836-4d0c-84a1-2b70b70b5408","ios":"levelo://app?vid=e489e300-d836-4d0c-84a1-2b70b70b5408"},"vehicle_type_id":"4","last_reported":1743707249,"current_range_meters":4800,"station_id":"ce4bh4p2rcd13ifvqe1g","pricing_plan_id":"cebpf4jnsgd1na2vs0mg"},{"bike_id":"542387ba-a894-4823-ada0-63b937cf90a0","system_id":"levelo_inurba_marseille","lat":43.29039,"lon":5.38653,"is_reserved":false,"is_disabled":false,"rental_uris":{"android":"levelo://app?vid=542387ba-a894-4823-ada0-63b937cf90a0","ios":"levelo://app?vid=542387ba-a894-4823-ada0-63b937cf90a0"},"vehicle_type_id":"4","last_reported":1743707249,"current_range_meters":4800,"station_id":"ce4bh4p2rcd13ifvqe0g","pricing_plan_id":"cebpf4jnsgd1na2vs0mg"},{"bike_id":"9ea7b5ac-6026-4ac8-8e8e-9ee87bcae485","system_id":"levelo_inurba_marseille","lat":43.29417,"lon":5.3862,"is_reserved":false,"is_disabled":false,"rental_uris":{"android":"levelo://app?vid=9ea7b5ac-6026-4ac8-8e8e-9ee87bcae485","ios":"levelo://app?vid=9ea7b5ac-6026-4ac8-8e8e-9ee87bcae485"},"vehicle_type_id":"4","last_reported":1743707249,"current_range_meters":4800,"station_id":"ce4bh2h2rcd13ifvqdh0","pricing_plan_id":"cebpf4jnsgd1na2vs0mg"},{"bike_id":"24b8f023-a483-4fb9-82bc-50f535dcce8f","system_id":"levelo_inurba_marseille","lat":43.30152,"lon":5.38097,"is_reserved":false,"is_disabled":false,"rental_uris":{"android":"levelo://app?vid=24b8f023-a483-4fb9-82bc-50f535dcce8f","ios":"levelo://app?vid=24b8f023-a483-4fb9-82bc-50f535dcce8f"},"vehicle_type_id":"4","last_reported":1743707249,"current_range_meters":4800,"station_id":"ce4bgjp2rcd13ifvqbh0","pricing_plan_id":"cebpf4jnsgd1na2vs0mg"},{"bike_id":"2f61a191-5840-4784-933b-d2b4e0010c16","system_id":"levelo_inurba_marseille","lat":43.28852,"lon":5.39314,"is_reserved":false,"is_disabled":false,"rental_uris":{"android":"levelo://app?vid=2f61a191-5840-4784-933b-d2b4e0010c16","ios":"levelo://app?vid=2f61a191-5840-4784-933b-d2b4e0010c16"},"vehicle_type_id":"4","last_reported":1743707249,"current_range_meters":4400,"station_id":"ce4bh2p2rcd13ifvqdi0","pricing_plan_id":"cebpf4jnsgd1na2vs0mg"},{"bike_id":"782f2d77-d592-4ef7-a6f2-7929a70f693a","system_id":"levelo_inurba_marseille","lat":43.27624,"lon":5.36118,"is_reserved":false,"is_disabled":false,"rental_uris":{"android":"levelo://app?vid=782f2d77-d592-4ef7-a6f2-7929a70f693a","ios":"levelo://app?vid=782f2d77-d592-4ef7-a6f2-7929a70f693a"},"vehicle_type_id":"4","last_reported":1743707249,"current_range_meters":4800,"station_id":"ce4bgj92rcd13ifvqbe0","pricing_plan_id":"cebpf4jnsgd1na2vs0mg"},{"bike_id":"aa2b10d5-4698-48b0-aa9a-57d64ed5d087","system_id":"levelo_inurba_marseille","lat":43.29421,"lon":5.38642,"is_reserved":false,"is_disabled":false,"rental_uris":{"android":"levelo://app?vid=aa2b10d5-4698-48b0-aa9a-57d64ed5d087","ios":"levelo://app?vid=aa2b10d5-4698-48b0-aa9a-57d64ed5d087"},"vehicle_type_id":"4","last_reported":1743707249,"current_range_meters":4800,"station_id":"ce4bh2h2rcd13ifvqdh0","pricing_plan_id":"cebpf4jnsgd1na2vs0mg"},{"bike_id":"ed32fc64-1615-4c73-86d8-3f21470bc59d","system_id":"levelo_inurba_marseille","lat":43.29268,"lon":5.38426,"is_reserved":false,"is_disabled":false,"rental_uris":{"android":"levelo://app?vid=ed32fc64-1615-4c73-86d8-3f21470bc59d","ios":"levelo://app?vid=ed32fc64-1615-4c73-86d8-3f21470bc59d"},"vehicle_type_id":"4","last_reported":1743707249,"current_range_meters":5600,"station_id":"ce4bh692rcd13ifvqea0","pricing_plan_id":"cebpf4jnsgd1na2vs0mg"},{"bike_id":"27c537f0-7252-4d8a-9894-33018478135c","system_id":"levelo_inurba_marseille","lat":43.29028,"lon":5.38642,"is_reserved":false,"is_disabled":false,"rental_uris":{"android":"levelo://app?vid=27c537f0-7252-4d8a-9894-33018478135c","ios":"levelo://app?vid=27c537f0-7252-4d8a-9894-33018478135c"},"vehicle_type_id":"4","last_reported":1743707249,"current_range_meters":5600,"station_id":"ce4bh4p2rcd13ifvqe0g","pricing_plan_id":"cebpf4jnsgd1na2vs0mg"},{"bike_id":"b3be7bc8-62d7-47b2-ab03-5ffa18153039","system_id":"levelo_inurba_marseille","lat":43.29531,"lon":5.38557,"is_reserved":false,"is_disabled":false,"rental_uris":{"android":"levelo://app?vid=b3be7bc8-62d7-47b2-ab03-5ffa18153039","ios":"levelo://app?vid=b3be7bc8-62d7-47b2-ab03-5ffa18153039"},"vehicle_type_id":"4","last_reported":1743707249,"current_range_meters":5600,"station_id":"ce4bgih2rcd13ifvqba0","pricing_plan_id":"cebpf4jnsgd1na2vs0mg"},{"bike_id":"f7f5c52a-0169-4c57-bcdf-63e9af305da2","system_id":"levelo_inurba_marseille","lat":43.29283,"lon":5.36851,"is_reserved":false,"is_disabled":false,"rental_uris":{"android":"levelo://app?vid=f7f5c52a-0169-4c57-bcdf-63e9af305da2","ios":"levelo://app?vid=f7f5c52a-0169-4c57-bcdf-63e9af305da2"},"vehicle_type_id":"4","last_reported":1743707249,"current_range_meters":5600,"station_id":"ce4bhbp2rcd13ifvqesg","pricing_plan_id":"cebpf4jnsgd1na2vs0mg"},{"bike_id":"22987ff2-118b-4b71-93b3-0a2bc3fe4d66","system_id":"levelo_inurba_marseille","lat":43.27974,"lon":5.41033,"is_reserved":false,"is_disabled":false,"rental_uris":{"android":"levelo://app?vid=22987ff2-118b-4b71-93b3-0a2bc3fe4d66","ios":"levelo://app?vid=22987ff2-118b-4b71-93b3-0a2bc3fe4d66"},"vehicle_type_id":"4","last_reported":1743707249,"current_range_meters":5600,"station_id":"ce4bhnp2rcd13ifvqh0g","pricing_plan_id":"cebpf4jnsgd1na2vs0mg"},{"bike_id":"4d3cfc11-7cb5-42c5-ab78-03eecd24fc7f","system_id":"levelo_inurba_marseille","lat":43.26231,"lon":5.40456,"is_reserved":false,"is_disabled":false,"rental_uris":{"android":"levelo://app?vid=4d3cfc11-7cb5-42c5-ab78-03eecd24fc7f","ios":"levelo://app?vid=4d3cfc11-7cb5-42c5-ab78-03eecd24fc7f"},"vehicle_type_id":"4","last_reported":1743707249,"current_range_meters":5600,"station_id":"ce4bhmh2rcd13ifvqgmg","pricing_plan_id":"cebpf4jnsgd1na2vs0mg"},{"bike_id":"4f289e29-f4e9-45d3-bd4f-83308745e543","system_id":"levelo_inurba_marseille","lat":43.23197,"lon":5.35536,"is_reserved":false,"is_disabled":false,"rental_uris":{"android":"levelo://app?vid=4f289e29-f4e9-45d3-bd4f-83308745e543","ios":"levelo://app?vid=4f289e29-f4e9-45d3-bd4f-83308745e543"},"vehicle_type_id":"4","last_reported":1743707249,"current_range_meters":5600,"station_id":"ce4bhu92rcd13ifvqi70","pricing_plan_id":"cebpf4jnsgd1na2vs0mg"},{"bike_id":"f87e996c-206a-47d9-8697-84a2d463fdc3","system_id":"levelo_inurba_marseille","lat":43.23202,"lon":5.35561,"is_reserved":false,"is_disabled":false,"rental_uris":{"android":"levelo://app?vid=f87e996c-206a-47d9-8697-84a2d463fdc3","ios":"levelo://app?vid=f87e996c-206a-47d9-8697-84a2d463fdc3"},"vehicle_type_id":"4","last_reported":1743707249,"current_range_meters":6000,"station_id":"ce4bhu92rcd13ifvqi70","pricing_plan_id":"cebpf4jnsgd1na2vs0mg"},{"bike_id":"9d13c440-da3b-4535-b70d-8105619f88bd","system_id":"levelo_inurba_marseille","lat":43.32366,"lon":5.38896,"is_reserved":false,"is_disabled":true,"rental_uris":{"android":"levelo://app?vid=9d13c440-da3b-4535-b70d-8105619f88bd","ios":"levelo://app?vid=9d13c440-da3b-4535-b70d-8105619f88bd"},"vehicle_type_id":"4","last_reported":1743707249,"current_range_meters":6400,"station_id":"ce4bhqp2rcd13ifvqhog","pricing_plan_id":"cebpf4jnsgd1na2vs0mg"},{"bike_id":"5a4bba22-b8bd-485a-9124-e201f115a77b","system_id":"levelo_inurba_marseille","lat":43.248081,"lon":5.374641,"is_reserved":false,"is_disabled":true,"rental_uris":{"android":"levelo://app?vid=5a4bba22-b8bd-485a-9124-e201f115a77b","ios":"levelo://app?vid=5a4bba22-b8bd-485a-9124-e201f115a77b"},"vehicle_type_id":"4","last_reported":1743707249,"current_range_meters":6400,"station_id":"","pricing_plan_id":"cebpf4jnsgd1na2vs0mg"},{"bike_id":"dff07cb4-c60f-4c0e-9b86-1576ff98ca28","system_id":"levelo_inurba_marseille","lat":43.28699,"lon":5.374,"is_reserved":false,"is_disabled":false,"rental_uris":{"android":"levelo://app?vid=dff07cb4-c60f-4c0e-9b86-1576ff98ca28","ios":"levelo://app?vid=dff07cb4-c60f-4c0e-9b86-1576ff98ca28"},"vehicle_type_id":"4","last_reported":1743707249,"current_range_meters":6400,"station_id":"ce4bh3p2rcd13ifvqdq0","pricing_plan_id":"cebpf4jnsgd1na2vs0mg"},{"bike_id":"a9b01269-405c-41a7-ba47-7fb41de8cf0e","system_id":"levelo_inurba_marseille","lat":43.30135,"lon":5.38779,"is_reserved":false,"is_disabled":false,"rental_uris":{"android":"levelo://app?vid=a9b01269-405c-41a7-ba47-7fb41de8cf0e","ios":"levelo://app?vid=a9b01269-405c-41a7-ba47-7fb41de8cf0e"},"vehicle_type_id":"4","last_reported":1743707249,"current_range_meters":6400,"station_id":"ce4bghh2rcd13ifvqb60","pricing_plan_id":"cebpf4jnsgd1na2vs0mg"},{"bike_id":"f201cc7e-0456-4ac2-8d4c-1c50dcc75a18","system_id":"levelo_inurba_marseille","lat":43.29537,"lon":5.423,"is_reserved":false,"is_disabled":false,"rental_uris":{"android":"levelo://app?vid=f201cc7e-0456-4ac2-8d4c-1c50dcc75a18","ios":"levelo://app?vid=f201cc7e-0456-4ac2-8d4c-1c50dcc75a18"},"vehicle_type_id":"4","last_reported":1743707249,"current_range_meters":6400,"station_id":"ce4bhph2rcd13ifvqhdg","pricing_plan_id":"cebpf4jnsgd1na2vs0mg"},{"bike_id":"ab9ab15c-0594-45e9-9d59-5ce8a536d4ff","system_id":"levelo_inurba_marseille","lat":43.30123,"lon":5.39871,"is_reserved":false,"is_disabled":false,"rental_uris":{"android":"levelo://app?vid=ab9ab15c-0594-45e9-9d59-5ce8a536d4ff","ios":"levelo://app?vid=ab9ab15c-0594-45e9-9d59-5ce8a536d4ff"},"vehicle_type_id":"4","last_reported":1743707249,"current_range_meters":6400,"station_id":"ce4bh0h2rcd13ifvqd40","pricing_plan_id":"cebpf4jnsgd1na2vs0mg"},{"bike_id":"32597f0f-d49f-48cf-aa5d-2e1607ad69f2","system_id":"levelo_inurba_marseille","lat":43.26221,"lon":5.40456,"is_reserved":false,"is_disabled":false,"rental_uris":{"android":"levelo://app?vid=32597f0f-d49f-48cf-aa5d-2e1607ad69f2","ios":"levelo://app?vid=32597f0f-d49f-48cf-aa5d-2e1607ad69f2"},"vehicle_type_id":"4","last_reported":1743707249,"current_range_meters":6400,"station_id":"","pricing_plan_id":"cebpf4jnsgd1na2vs0mg"},{"bike_id":"83aa3c8e-91bd-485c-a041-0adac5639e00","system_id":"levelo_inurba_marseille","lat":43.30604,"lon":5.37148,"is_reserved":false,"is_disabled":false,"rental_uris":{"android":"levelo://app?vid=83aa3c8e-91bd-485c-a041-0adac5639e00","ios":"levelo://app?vid=83aa3c8e-91bd-485c-a041-0adac5639e00"},"vehicle_type_id":"4","last_reported":1743707249,"current_range_meters":6800,"station_id":"","pricing_plan_id":"cebpf4jnsgd1na2vs0mg"},{"bike_id":"78d6b7cd-ac07-453b-bc94-98692716d8c6","system_id":"levelo_inurba_marseille","lat":43.23199,"lon":5.35579,"is_reserved":false,"is_disabled":false,"rental_uris":{"android":"levelo://app?vid=78d6b7cd-ac07-453b-bc94-98692716d8c6","ios":"levelo://app?vid=78d6b7cd-ac07-453b-bc94-98692716d8c6"},"vehicle_type_id":"4","last_reported":1743707249,"current_range_meters":6800,"station_id":"ce4bhu92rcd13ifvqi70","pricing_plan_id":"cebpf4jnsgd1na2vs0mg"},{"bike_id":"d7442a8d-ddb9-4595-80d2-d17d487026dd","system_id":"levelo_inurba_marseille","lat":43.24075,"lon":5.37754,"is_reserved":false,"is_disabled":false,"rental_uris":{"android":"levelo://app?vid=d7442a8d-ddb9-4595-80d2-d17d487026dd","ios":"levelo://app?vid=d7442a8d-ddb9-4595-80d2-d17d487026dd"},"vehicle_type_id":"4","last_reported":1743707249,"current_range_meters":6800,"station_id":"ce4bhnp2rcd13ifvqgvg","pricing_plan_id":"cebpf4jnsgd1na2vs0mg"},{"bike_id":"69e83241-e799-4dc5-ad4b-5438d59f87d4","system_id":"levelo_inurba_marseille","lat":43.28043,"lon":5.36946,"is_reserved":false,"is_disabled":false,"rental_uris":{"android":"levelo://app?vid=69e83241-e799-4dc5-ad4b-5438d59f87d4","ios":"levelo://app?vid=69e83241-e799-4dc5-ad4b-5438d59f87d4"},"vehicle_type_id":"4","last_reported":1743707249,"current_range_meters":6800,"station_id":"ce4bha12rcd13ifvqef0","pricing_plan_id":"cebpf4jnsgd1na2vs0mg"},{"bike_id":"884d2a69-dfee-4406-8664-276142e3def3","system_id":"levelo_inurba_marseille","lat":43.29508,"lon":5.38555,"is_reserved":false,"is_disabled":false,"rental_uris":{"android":"levelo://app?vid=884d2a69-dfee-4406-8664-276142e3def3","ios":"levelo://app?vid=884d2a69-dfee-4406-8664-276142e3def3"},"vehicle_type_id":"4","last_reported":1743707249,"current_range_meters":6800,"station_id":"ce4bgih2rcd13ifvqba0","pricing_plan_id":"cebpf4jnsgd1na2vs0mg"},{"bike_id":"c7e52e48-e521-4a1d-aba2-3ea8e12575ed","system_id":"levelo_inurba_marseille","lat":43.30798,"lon":5.38182,"is_reserved":false,"is_disabled":false,"rental_uris":{"android":"levelo://app?vid=c7e52e48-e521-4a1d-aba2-3ea8e12575ed","ios":"levelo://app?vid=c7e52e48-e521-4a1d-aba2-3ea8e12575ed"},"vehicle_type_id":"4","last_reported":1743707249,"current_range_meters":6800,"station_id":"ce4bgt12rcd13ifvqce0","pricing_plan_id":"cebpf4jnsgd1na2vs0mg"},{"bike_id":"6e0ac892-eb5a-4e58-b40d-44ea2a6de718","system_id":"levelo_inurba_marseille","lat":43.23198,"lon":5.35553,"is_reserved":false,"is_disabled":false,"rental_uris":{"android":"levelo://app?vid=6e0ac892-eb5a-4e58-b40d-44ea2a6de718","ios":"levelo://app?vid=6e0ac892-eb5a-4e58-b40d-44ea2a6de718"},"vehicle_type_id":"4","last_reported":1743707249,"current_range_meters":6800,"station_id":"ce4bhu92rcd13ifvqi70","pricing_plan_id":"cebpf4jnsgd1na2vs0mg"},{"bike_id":"85ea3431-333b-4454-ad93-29d15f909f65","system_id":"levelo_inurba_marseille","lat":43.25109,"lon":5.40324,"is_reserved":false,"is_disabled":false,"rental_uris":{"android":"levelo://app?vid=85ea3431-333b-4454-ad93-29d15f909f65","ios":"levelo://app?vid=85ea3431-333b-4454-ad93-29d15f909f65"},"vehicle_type_id":"4","last_reported":1743707249,"current_range_meters":7200,"station_id":"ce4bhlh2rcd13ifvqgig","pricing_plan_id":"cebpf4jnsgd1na2vs0mg"},{"bike_id":"590d7074-66ed-48f2-a6f6-157a475f7797","system_id":"levelo_inurba_marseille","lat":43.29422,"lon":5.38626,"is_reserved":false,"is_disabled":false,"rental_uris":{"android":"levelo://app?vid=590d7074-66ed-48f2-a6f6-157a475f7797","ios":"levelo://app?vid=590d7074-66ed-48f2-a6f6-157a475f7797"},"vehicle_type_id":"4","last_reported":1743707249,"current_range_meters":7200,"station_id":"ce4bh2h2rcd13ifvqdh0","pricing_plan_id":"cebpf4jnsgd1na2vs0mg"},{"bike_id":"0c968d8c-4265-44b7-83bd-4739227e3fe7","system_id":"levelo_inurba_marseille","lat":43.29029,"lon":5.38636,"is_reserved":false,"is_disabled":false,"rental_uris":{"android":"levelo://app?vid=0c968d8c-4265-44b7-83bd-4739227e3fe7","ios":"levelo://app?vid=0c968d8c-4265-44b7-83bd-4739227e3fe7"},"vehicle_type_id":"4","last_reported":1743707249,"current_range_meters":7200,"station_id":"ce4bh4p2rcd13ifvqe0g","pricing_plan_id":"cebpf4jnsgd1na2vs0mg"},{"bike_id":"5dbefb68-c6ce-4b46-ba2b-344698988ef8","system_id":"levelo_inurba_marseille","lat":43.29034,"lon":5.37579,"is_reserved":false,"is_disabled":false,"rental_uris":{"android":"levelo://app?vid=5dbefb68-c6ce-4b46-ba2b-344698988ef8","ios":"levelo://app?vid=5dbefb68-c6ce-4b46-ba2b-344698988ef8"},"vehicle_type_id":"4","last_reported":1743707249,"current_range_meters":7200,"station_id":"ce4bh692rcd13ifvqe90","pricing_plan_id":"cebpf4jnsgd1na2vs0mg"},{"bike_id":"e15eb1e3-f59b-4224-85dc-18f082814a63","system_id":"levelo_inurba_marseille","lat":43.28354,"lon":5.38098,"is_reserved":false,"is_disabled":false,"rental_uris":{"android":"levelo://app?vid=e15eb1e3-f59b-4224-85dc-18f082814a63","ios":"levelo://app?vid=e15eb1e3-f59b-4224-85dc-18f082814a63"},"vehicle_type_id":"4","last_reported":1743707249,"current_range_meters":7200,"station_id":"ce4bh412rcd13ifvqdr0","pricing_plan_id":"cebpf4jnsgd1na2vs0mg"},{"bike_id":"32a978e0-d0c2-43d4-9b03-19a5c41c27de","system_id":"levelo_inurba_marseille","lat":43.31092,"lon":5.38364,"is_reserved":false,"is_disabled":true,"rental_uris":{"android":"levelo://app?vid=32a978e0-d0c2-43d4-9b03-19a5c41c27de","ios":"levelo://app?vid=32a978e0-d0c2-43d4-9b03-19a5c41c27de"},"vehicle_type_id":"4","last_reported":1743707249,"current_range_meters":7200,"station_id":"ce4bgv92rcd13ifvqcr0","pricing_plan_id":"cebpf4jnsgd1na2vs0mg"},{"bike_id":"e1bcd518-a3a1-4a25-9b9e-794fbd0bdf0a","system_id":"levelo_inurba_marseille","lat":43.23971,"lon":5.36676,"is_reserved":false,"is_disabled":false,"rental_uris":{"android":"levelo://app?vid=e1bcd518-a3a1-4a25-9b9e-794fbd0bdf0a","ios":"levelo://app?vid=e1bcd518-a3a1-4a25-9b9e-794fbd0bdf0a"},"vehicle_type_id":"4","last_reported":1743707249,"current_range_meters":7200,"station_id":"ce4bhi12rcd13ifvqfp0","pricing_plan_id":"cebpf4jnsgd1na2vs0mg"},{"bike_id":"3066e6f3-cd45-4730-99b2-4647b3a065cd","system_id":"levelo_inurba_marseille","lat":43.266795,"lon":5.382705,"is_reserved":false,"is_disabled":false,"rental_uris":{"android":"levelo://app?vid=3066e6f3-cd45-4730-99b2-4647b3a065cd","ios":"levelo://app?vid=3066e6f3-cd45-4730-99b2-4647b3a065cd"},"vehicle_type_id":"4","last_reported":1743707249,"current_range_meters":7200,"station_id":"ce4bgg92rcd13ifvqb30","pricing_plan_id":"cebpf4jnsgd1na2vs0mg"},{"bike_id":"15ea3e20-e3c1-434f-8b50-88d1ebba3f71","system_id":"levelo_inurba_marseille","lat":43.23202,"lon":5.3557,"is_reserved":false,"is_disabled":false,"rental_uris":{"android":"levelo://app?vid=15ea3e20-e3c1-434f-8b50-88d1ebba3f71","ios":"levelo://app?vid=15ea3e20-e3c1-434f-8b50-88d1ebba3f71"},"vehicle_type_id":"4","last_reported":1743707249,"current_range_meters":8000,"station_id":"ce4bhu92rcd13ifvqi70","pricing_plan_id":"cebpf4jnsgd1na2vs0mg"},{"bike_id":"75dae32f-059a-4b5b-a5e8-963c6eda2f66","system_id":"levelo_inurba_marseille","lat":43.27515,"lon":5.41011,"is_reserved":false,"is_disabled":false,"rental_uris":{"android":"levelo://app?vid=75dae32f-059a-4b5b-a5e8-963c6eda2f66","ios":"levelo://app?vid=75dae32f-059a-4b5b-a5e8-963c6eda2f66"},"vehicle_type_id":"4","last_reported":1743707249,"current_range_meters":7200,"station_id":"","pricing_plan_id":"cebpf4jnsgd1na2vs0mg"},{"bike_id":"7d141afa-81a2-450a-9eed-bb310deee473","system_id":"levelo_inurba_marseille","lat":43.28612,"lon":5.35107,"is_reserved":false,"is_disabled":false,"rental_uris":{"android":"levelo://app?vid=7d141afa-81a2-450a-9eed-bb310deee473","ios":"levelo://app?vid=7d141afa-81a2-450a-9eed-bb310deee473"},"vehicle_type_id":"4","last_reported":1743707249,"current_range_meters":8000,"station_id":"ce4bhch2rcd13ifvqeug","pricing_plan_id":"cebpf4jnsgd1na2vs0mg"},{"bike_id":"bddd4ccf-1482-4a9d-a8d7-0870910ef155","system_id":"levelo_inurba_marseille","lat":43.27967,"lon":5.41044,"is_reserved":false,"is_disabled":false,"rental_uris":{"android":"levelo://app?vid=bddd4ccf-1482-4a9d-a8d7-0870910ef155","ios":"levelo://app?vid=bddd4ccf-1482-4a9d-a8d7-0870910ef155"},"vehicle_type_id":"4","last_reported":1743707249,"current_range_meters":8000,"station_id":"ce4bhnp2rcd13ifvqh0g","pricing_plan_id":"cebpf4jnsgd1na2vs0mg"},{"bike_id":"3374421a-949f-40b6-870f-59a2d8ba0de4","system_id":"levelo_inurba_marseille","lat":43.24164,"lon":5.36406,"is_reserved":false,"is_disabled":false,"rental_uris":{"android":"levelo://app?vid=3374421a-949f-40b6-870f-59a2d8ba0de4","ios":"levelo://app?vid=3374421a-949f-40b6-870f-59a2d8ba0de4"},"vehicle_type_id":"4","last_reported":1743707249,"current_range_meters":8000,"station_id":"cpo36qri1sfpv3e86is0","pricing_plan_id":"cebpf4jnsgd1na2vs0mg"},{"bike_id":"c2e6881a-04a3-4a38-9cc0-75cacf165e78","system_id":"levelo_inurba_marseille","lat":43.28832,"lon":5.364645,"is_reserved":false,"is_disabled":false,"rental_uris":{"android":"levelo://app?vid=c2e6881a-04a3-4a38-9cc0-75cacf165e78","ios":"levelo://app?vid=c2e6881a-04a3-4a38-9cc0-75cacf165e78"},"vehicle_type_id":"4","last_reported":1743707249,"current_range_meters":8000,"station_id":"","pricing_plan_id":"cebpf4jnsgd1na2vs0mg"},{"bike_id":"0890fa60-049f-44ea-96c8-ca3ae6292ced","system_id":"levelo_inurba_marseille","lat":43.24797,"lon":5.37468,"is_reserved":false,"is_disabled":false,"rental_uris":{"android":"levelo://app?vid=0890fa60-049f-44ea-96c8-ca3ae6292ced","ios":"levelo://app?vid=0890fa60-049f-44ea-96c8-ca3ae6292ced"},"vehicle_type_id":"4","last_reported":1743707249,"current_range_meters":8000,"station_id":"ce4bhgh2rcd13ifvqfb0","pricing_plan_id":"cebpf4jnsgd1na2vs0mg"},{"bike_id":"5f55ecb2-42a7-428c-9c04-41342c01a981","system_id":"levelo_inurba_marseille","lat":43.29035,"lon":5.37574,"is_reserved":false,"is_disabled":false,"rental_uris":{"android":"levelo://app?vid=5f55ecb2-42a7-428c-9c04-41342c01a981","ios":"levelo://app?vid=5f55ecb2-42a7-428c-9c04-41342c01a981"},"vehicle_type_id":"4","last_reported":1743707249,"current_range_meters":8000,"station_id":"ce4bh692rcd13ifvqe90","pricing_plan_id":"cebpf4jnsgd1na2vs0mg"},{"bike_id":"b42e30f3-e4b2-4766-a2e5-dfd7324e86a1","system_id":"levelo_inurba_marseille","lat":43.23189,"lon":5.35565,"is_reserved":false,"is_disabled":false,"rental_uris":{"android":"levelo://app?vid=b42e30f3-e4b2-4766-a2e5-dfd7324e86a1","ios":"levelo://app?vid=b42e30f3-e4b2-4766-a2e5-dfd7324e86a1"},"vehicle_type_id":"4","last_reported":1743707249,"current_range_meters":8000,"station_id":"ce4bhu92rcd13ifvqi70","pricing_plan_id":"cebpf4jnsgd1na2vs0mg"},{"bike_id":"0120aca8-afff-4adc-9309-60ae0db44796","system_id":"levelo_inurba_marseille","lat":43.28864,"lon":5.35861,"is_reserved":false,"is_disabled":false,"rental_uris":{"android":"levelo://app?vid=0120aca8-afff-4adc-9309-60ae0db44796","ios":"levelo://app?vid=0120aca8-afff-4adc-9309-60ae0db44796"},"vehicle_type_id":"4","last_reported":1743707249,"current_range_meters":8000,"station_id":"ce4bhb12rcd13ifvqem0","pricing_plan_id":"cebpf4jnsgd1na2vs0mg"},{"bike_id":"ca0ebf9f-5d96-4ff5-9b01-c0674fd04b37","system_id":"levelo_inurba_marseille","lat":43.29262,"lon":5.38455,"is_reserved":false,"is_disabled":false,"rental_uris":{"android":"levelo://app?vid=ca0ebf9f-5d96-4ff5-9b01-c0674fd04b37","ios":"levelo://app?vid=ca0ebf9f-5d96-4ff5-9b01-c0674fd04b37"},"vehicle_type_id":"4","last_reported":1743707249,"current_range_meters":8000,"station_id":"ce4bh692rcd13ifvqea0","pricing_plan_id":"cebpf4jnsgd1na2vs0mg"},{"bike_id":"5403de83-a7d4-41a4-a9f6-e96fd9e42b46","system_id":"levelo_inurba_marseille","lat":43.30136,"lon":5.38783,"is_reserved":false,"is_disabled":false,"rental_uris":{"android":"levelo://app?vid=5403de83-a7d4-41a4-a9f6-e96fd9e42b46","ios":"levelo://app?vid=5403de83-a7d4-41a4-a9f6-e96fd9e42b46"},"vehicle_type_id":"4","last_reported":1743707249,"current_range_meters":8000,"station_id":"ce4bghh2rcd13ifvqb60","pricing_plan_id":"cebpf4jnsgd1na2vs0mg"},{"bike_id":"c71f15b6-2590-4f8b-9c5c-e81cc022cc3d","system_id":"levelo_inurba_marseille","lat":43.28408,"lon":5.35001,"is_reserved":false,"is_disabled":false,"rental_uris":{"android":"levelo://app?vid=c71f15b6-2590-4f8b-9c5c-e81cc022cc3d","ios":"levelo://app?vid=c71f15b6-2590-4f8b-9c5c-e81cc022cc3d"},"vehicle_type_id":"4","last_reported":1743707249,"current_range_meters":8000,"station_id":"ce4bhbh2rcd13ifvqepg","pricing_plan_id":"cebpf4jnsgd1na2vs0mg"},{"bike_id":"2372448a-d7df-45c3-bd13-b9b4112577c4","system_id":"levelo_inurba_marseille","lat":43.29899,"lon":5.48559,"is_reserved":false,"is_disabled":false,"rental_uris":{"android":"levelo://app?vid=2372448a-d7df-45c3-bd13-b9b4112577c4","ios":"levelo://app?vid=2372448a-d7df-45c3-bd13-b9b4112577c4"},"vehicle_type_id":"4","last_reported":1743707249,"current_range_meters":8000,"station_id":"","pricing_plan_id":"cebpf4jnsgd1na2vs0mg"},{"bike_id":"b30522a6-1c43-45c5-8c7c-85af9cd5c59f","system_id":"levelo_inurba_marseille","lat":43.29163,"lon":5.37166,"is_reserved":false,"is_disabled":false,"rental_uris":{"android":"levelo://app?vid=b30522a6-1c43-45c5-8c7c-85af9cd5c59f","ios":"levelo://app?vid=b30522a6-1c43-45c5-8c7c-85af9cd5c59f"},"vehicle_type_id":"4","last_reported":1743707249,"current_range_meters":7200,"station_id":"ce4bha92rcd13ifvqeh0","pricing_plan_id":"cebpf4jnsgd1na2vs0mg"},{"bike_id":"fede0e43-1609-4a28-9f97-913c3f149703","system_id":"levelo_inurba_marseille","lat":43.23191,"lon":5.35561,"is_reserved":false,"is_disabled":false,"rental_uris":{"android":"levelo://app?vid=fede0e43-1609-4a28-9f97-913c3f149703","ios":"levelo://app?vid=fede0e43-1609-4a28-9f97-913c3f149703"},"vehicle_type_id":"4","last_reported":1743707249,"current_range_meters":8000,"station_id":"ce4bhu92rcd13ifvqi70","pricing_plan_id":"cebpf4jnsgd1na2vs0mg"},{"bike_id":"b4ab96b8-b55f-442c-98bf-22ba91464e26","system_id":"levelo_inurba_marseille","lat":43.31733,"lon":5.42417,"is_reserved":false,"is_disabled":false,"rental_uris":{"android":"levelo://app?vid=b4ab96b8-b55f-442c-98bf-22ba91464e26","ios":"levelo://app?vid=b4ab96b8-b55f-442c-98bf-22ba91464e26"},"vehicle_type_id":"4","last_reported":1743707249,"current_range_meters":8000,"station_id":"ce4bhp92rcd13ifvqhbg","pricing_plan_id":"cebpf4jnsgd1na2vs0mg"},{"bike_id":"c9fb25a7-e723-41fe-abac-05d32f3d4f9d","system_id":"levelo_inurba_marseille","lat":43.26032,"lon":5.41731,"is_reserved":false,"is_disabled":false,"rental_uris":{"android":"levelo://app?vid=c9fb25a7-e723-41fe-abac-05d32f3d4f9d","ios":"levelo://app?vid=c9fb25a7-e723-41fe-abac-05d32f3d4f9d"},"vehicle_type_id":"4","last_reported":1743707249,"current_range_meters":8000,"station_id":"","pricing_plan_id":"cebpf4jnsgd1na2vs0mg"},{"bike_id":"22f18dcb-9155-4af1-a93e-7c8d82c3f600","system_id":"levelo_inurba_marseille","lat":43.29543,"lon":5.38545,"is_reserved":false,"is_disabled":false,"rental_uris":{"android":"levelo://app?vid=22f18dcb-9155-4af1-a93e-7c8d82c3f600","ios":"levelo://app?vid=22f18dcb-9155-4af1-a93e-7c8d82c3f600"},"vehicle_type_id":"4","last_reported":1743707249,"current_range_meters":8000,"station_id":"ce4bgih2rcd13ifvqba0","pricing_plan_id":"cebpf4jnsgd1na2vs0mg"},{"bike_id":"4a8d215f-728c-4424-bfbf-5faa62888e2d","system_id":"levelo_inurba_marseille","lat":43.295101,"lon":5.394076,"is_reserved":false,"is_disabled":true,"rental_uris":{"android":"levelo://app?vid=4a8d215f-728c-4424-bfbf-5faa62888e2d","ios":"levelo://app?vid=4a8d215f-728c-4424-bfbf-5faa62888e2d"},"vehicle_type_id":"4","last_reported":1743707249,"current_range_meters":8000,"station_id":"ce4bh292rcd13ifvqdf0","pricing_plan_id":"cebpf4jnsgd1na2vs0mg"},{"bike_id":"b13d3432-293b-4902-a3f1-a51b231e2d99","system_id":"levelo_inurba_marseille","lat":43.28628,"lon":5.3509,"is_reserved":false,"is_disabled":false,"rental_uris":{"android":"levelo://app?vid=b13d3432-293b-4902-a3f1-a51b231e2d99","ios":"levelo://app?vid=b13d3432-293b-4902-a3f1-a51b231e2d99"},"vehicle_type_id":"4","last_reported":1743707249,"current_range_meters":8000,"station_id":"ce4bhch2rcd13ifvqeug","pricing_plan_id":"cebpf4jnsgd1na2vs0mg"},{"bike_id":"5e3c35a6-bfd0-4f13-8916-29299dbc1b57","system_id":"levelo_inurba_marseille","lat":43.29023,"lon":5.38127,"is_reserved":false,"is_disabled":false,"rental_uris":{"android":"levelo://app?vid=5e3c35a6-bfd0-4f13-8916-29299dbc1b57","ios":"levelo://app?vid=5e3c35a6-bfd0-4f13-8916-29299dbc1b57"},"vehicle_type_id":"4","last_reported":1743707249,"current_range_meters":8400,"station_id":"ce4bh4p2rcd13ifvqe1g","pricing_plan_id":"cebpf4jnsgd1na2vs0mg"},{"bike_id":"60ed8a27-cf70-4044-b0aa-d10243d3d9fd","system_id":"levelo_inurba_marseille","lat":43.29257,"lon":5.3846,"is_reserved":false,"is_disabled":false,"rental_uris":{"android":"levelo://app?vid=60ed8a27-cf70-4044-b0aa-d10243d3d9fd","ios":"levelo://app?vid=60ed8a27-cf70-4044-b0aa-d10243d3d9fd"},"vehicle_type_id":"4","last_reported":1743707249,"current_range_meters":8400,"station_id":"ce4bh692rcd13ifvqea0","pricing_plan_id":"cebpf4jnsgd1na2vs0mg"},{"bike_id":"cd83c8ac-ed09-4369-9279-b6f36f2bbd3c","system_id":"levelo_inurba_marseille","lat":43.30809,"lon":5.38218,"is_reserved":false,"is_disabled":false,"rental_uris":{"android":"levelo://app?vid=cd83c8ac-ed09-4369-9279-b6f36f2bbd3c","ios":"levelo://app?vid=cd83c8ac-ed09-4369-9279-b6f36f2bbd3c"},"vehicle_type_id":"4","last_reported":1743707249,"current_range_meters":8400,"station_id":"","pricing_plan_id":"cebpf4jnsgd1na2vs0mg"},{"bike_id":"b451dcd6-3b36-4a20-94c0-24f42eb3416a","system_id":"levelo_inurba_marseille","lat":43.27975,"lon":5.41038,"is_reserved":false,"is_disabled":false,"rental_uris":{"android":"levelo://app?vid=b451dcd6-3b36-4a20-94c0-24f42eb3416a","ios":"levelo://app?vid=b451dcd6-3b36-4a20-94c0-24f42eb3416a"},"vehicle_type_id":"4","last_reported":1743707249,"current_range_meters":8400,"station_id":"ce4bhnp2rcd13ifvqh0g","pricing_plan_id":"cebpf4jnsgd1na2vs0mg"},{"bike_id":"71e55f99-90e5-4133-8167-5af8b2b35d7e","system_id":"levelo_inurba_marseille","lat":43.23097,"lon":5.35493,"is_reserved":false,"is_disabled":false,"rental_uris":{"android":"levelo://app?vid=71e55f99-90e5-4133-8167-5af8b2b35d7e","ios":"levelo://app?vid=71e55f99-90e5-4133-8167-5af8b2b35d7e"},"vehicle_type_id":"4","last_reported":1743707249,"current_range_meters":8400,"station_id":"cpo3342slgdg3j2ifvpg","pricing_plan_id":"cebpf4jnsgd1na2vs0mg"},{"bike_id":"0f30dc72-745c-4206-bc59-afb6cb600956","system_id":"levelo_inurba_marseille","lat":43.29898,"lon":5.48559,"is_reserved":false,"is_disabled":false,"rental_uris":{"android":"levelo://app?vid=0f30dc72-745c-4206-bc59-afb6cb600956","ios":"levelo://app?vid=0f30dc72-745c-4206-bc59-afb6cb600956"},"vehicle_type_id":"4","last_reported":1743707249,"current_range_meters":8400,"station_id":"","pricing_plan_id":"cebpf4jnsgd1na2vs0mg"},{"bike_id":"d998dd99-71c0-455e-99f9-bf815dbe3f9a","system_id":"levelo_inurba_marseille","lat":43.29255,"lon":5.3763,"is_reserved":false,"is_disabled":false,"rental_uris":{"android":"levelo://app?vid=d998dd99-71c0-455e-99f9-bf815dbe3f9a","ios":"levelo://app?vid=d998dd99-71c0-455e-99f9-bf815dbe3f9a"},"vehicle_type_id":"4","last_reported":1743707249,"current_range_meters":8400,"station_id":"ce4bgi12rcd13ifvqb80","pricing_plan_id":"cebpf4jnsgd1na2vs0mg"},{"bike_id":"98b9000e-9e01-4f7f-bfe1-be4f1522b23c","system_id":"levelo_inurba_marseille","lat":43.28436,"lon":5.35005,"is_reserved":false,"is_disabled":false,"rental_uris":{"android":"levelo://app?vid=98b9000e-9e01-4f7f-bfe1-be4f1522b23c","ios":"levelo://app?vid=98b9000e-9e01-4f7f-bfe1-be4f1522b23c"},"vehicle_type_id":"4","last_reported":1743707249,"current_range_meters":8400,"station_id":"ce4bhbh2rcd13ifvqepg","pricing_plan_id":"cebpf4jnsgd1na2vs0mg"},{"bike_id":"d5ca9471-edb9-49e2-b8bc-9d550f1c4eab","system_id":"levelo_inurba_marseille","lat":43.28631,"lon":5.3512,"is_reserved":false,"is_disabled":false,"rental_uris":{"android":"levelo://app?vid=d5ca9471-edb9-49e2-b8bc-9d550f1c4eab","ios":"levelo://app?vid=d5ca9471-edb9-49e2-b8bc-9d550f1c4eab"},"vehicle_type_id":"4","last_reported":1743707249,"current_range_meters":8400,"station_id":"ce4bhch2rcd13ifvqeug","pricing_plan_id":"cebpf4jnsgd1na2vs0mg"},{"bike_id":"e590fe23-e0aa-4322-a597-417c816f1dd9","system_id":"levelo_inurba_marseille","lat":43.27958,"lon":5.41041,"is_reserved":false,"is_disabled":false,"rental_uris":{"android":"levelo://app?vid=e590fe23-e0aa-4322-a597-417c816f1dd9","ios":"levelo://app?vid=e590fe23-e0aa-4322-a597-417c816f1dd9"},"vehicle_type_id":"4","last_reported":1743707249,"current_range_meters":8400,"station_id":"ce4bhnp2rcd13ifvqh0g","pricing_plan_id":"cebpf4jnsgd1na2vs0mg"},{"bike_id":"c262c34c-74a4-4914-be2a-5e74b65f0203","system_id":"levelo_inurba_marseille","lat":43.28351,"lon":5.381,"is_reserved":false,"is_disabled":false,"rental_uris":{"android":"levelo://app?vid=c262c34c-74a4-4914-be2a-5e74b65f0203","ios":"levelo://app?vid=c262c34c-74a4-4914-be2a-5e74b65f0203"},"vehicle_type_id":"4","last_reported":1743707249,"current_range_meters":8400,"station_id":"ce4bh412rcd13ifvqdr0","pricing_plan_id":"cebpf4jnsgd1na2vs0mg"},{"bike_id":"c135c5d1-a9f0-45c6-9e8f-943ce4e10bee","system_id":"levelo_inurba_marseille","lat":43.24416,"lon":5.37419,"is_reserved":false,"is_disabled":false,"rental_uris":{"android":"levelo://app?vid=c135c5d1-a9f0-45c6-9e8f-943ce4e10bee","ios":"levelo://app?vid=c135c5d1-a9f0-45c6-9e8f-943ce4e10bee"},"vehicle_type_id":"4","last_reported":1743707249,"current_range_meters":8400,"station_id":"","pricing_plan_id":"cebpf4jnsgd1na2vs0mg"},{"bike_id":"78ed271e-6373-439c-afd0-46fa05b07c20","system_id":"levelo_inurba_marseille","lat":43.29916,"lon":5.37494,"is_reserved":false,"is_disabled":false,"rental_uris":{"android":"levelo://app?vid=78ed271e-6373-439c-afd0-46fa05b07c20","ios":"levelo://app?vid=78ed271e-6373-439c-afd0-46fa05b07c20"},"vehicle_type_id":"4","last_reported":1743707249,"current_range_meters":8400,"station_id":"ce4bgjh2rcd13ifvqbg0","pricing_plan_id":"cebpf4jnsgd1na2vs0mg"},{"bike_id":"f37d8f5c-d063-4e35-8e15-0215542ca205","system_id":"levelo_inurba_marseille","lat":43.23733,"lon":5.40387,"is_reserved":false,"is_disabled":false,"rental_uris":{"android":"levelo://app?vid=f37d8f5c-d063-4e35-8e15-0215542ca205","ios":"levelo://app?vid=f37d8f5c-d063-4e35-8e15-0215542ca205"},"vehicle_type_id":"4","last_reported":1743707249,"current_range_meters":8400,"station_id":"","pricing_plan_id":"cebpf4jnsgd1na2vs0mg"},{"bike_id":"69e77ebb-26a2-4de2-ab93-c8f86436da8f","system_id":"levelo_inurba_marseille","lat":43.29313,"lon":5.37176,"is_reserved":false,"is_disabled":false,"rental_uris":{"android":"levelo://app?vid=69e77ebb-26a2-4de2-ab93-c8f86436da8f","ios":"levelo://app?vid=69e77ebb-26a2-4de2-ab93-c8f86436da8f"},"vehicle_type_id":"4","last_reported":1743707249,"current_range_meters":8400,"station_id":"ce4bgh92rcd13ifvqb40","pricing_plan_id":"cebpf4jnsgd1na2vs0mg"},{"bike_id":"ee37c4b2-b690-4baa-8a35-22902728e4a6","system_id":"levelo_inurba_marseille","lat":43.28669,"lon":5.38664,"is_reserved":false,"is_disabled":false,"rental_uris":{"android":"levelo://app?vid=ee37c4b2-b690-4baa-8a35-22902728e4a6","ios":"levelo://app?vid=ee37c4b2-b690-4baa-8a35-22902728e4a6"},"vehicle_type_id":"4","last_reported":1743707249,"current_range_meters":19200,"station_id":"ce4bh492rcd13ifvqdug","pricing_plan_id":"cebpf4jnsgd1na2vs0mg"},{"bike_id":"89e2ab11-d0f7-48eb-930d-a4552e4cca19","system_id":"levelo_inurba_marseille","lat":43.29258,"lon":5.3844,"is_reserved":false,"is_disabled":false,"rental_uris":{"android":"levelo://app?vid=89e2ab11-d0f7-48eb-930d-a4552e4cca19","ios":"levelo://app?vid=89e2ab11-d0f7-48eb-930d-a4552e4cca19"},"vehicle_type_id":"4","last_reported":1743707249,"current_range_meters":8400,"station_id":"ce4bh692rcd13ifvqea0","pricing_plan_id":"cebpf4jnsgd1na2vs0mg"},{"bike_id":"0736f35a-f575-4059-b659-6abce578a8d0","system_id":"levelo_inurba_marseille","lat":43.2843,"lon":5.34997,"is_reserved":false,"is_disabled":false,"rental_uris":{"android":"levelo://app?vid=0736f35a-f575-4059-b659-6abce578a8d0","ios":"levelo://app?vid=0736f35a-f575-4059-b659-6abce578a8d0"},"vehicle_type_id":"4","last_reported":1743707249,"current_range_meters":8800,"station_id":"ce4bhbh2rcd13ifvqepg","pricing_plan_id":"cebpf4jnsgd1na2vs0mg"},{"bike_id":"0aec1105-de8f-4791-94f4-43fe4d629303","system_id":"levelo_inurba_marseille","lat":43.265,"lon":5.3954,"is_reserved":false,"is_disabled":false,"rental_uris":{"android":"levelo://app?vid=0aec1105-de8f-4791-94f4-43fe4d629303","ios":"levelo://app?vid=0aec1105-de8f-4791-94f4-43fe4d629303"},"vehicle_type_id":"4","last_reported":1743707249,"current_range_meters":8800,"station_id":"ce4bhi12rcd13ifvqfq0","pricing_plan_id":"cebpf4jnsgd1na2vs0mg"},{"bike_id":"943802b5-e455-4e34-9567-440f998d1e9e","system_id":"levelo_inurba_marseille","lat":43.23963,"lon":5.3663,"is_reserved":false,"is_disabled":false,"rental_uris":{"android":"levelo://app?vid=943802b5-e455-4e34-9567-440f998d1e9e","ios":"levelo://app?vid=943802b5-e455-4e34-9567-440f998d1e9e"},"vehicle_type_id":"4","last_reported":1743707249,"current_range_meters":8800,"station_id":"ce4bhi12rcd13ifvqfp0","pricing_plan_id":"cebpf4jnsgd1na2vs0mg"},{"bike_id":"b00fcd21-100c-4c03-b49f-17ef99b3801c","system_id":"levelo_inurba_marseille","lat":43.24812,"lon":5.37459,"is_reserved":false,"is_disabled":false,"rental_uris":{"android":"levelo://app?vid=b00fcd21-100c-4c03-b49f-17ef99b3801c","ios":"levelo://app?vid=b00fcd21-100c-4c03-b49f-17ef99b3801c"},"vehicle_type_id":"4","last_reported":1743707249,"current_range_meters":8800,"station_id":"ce4bhgh2rcd13ifvqfb0","pricing_plan_id":"cebpf4jnsgd1na2vs0mg"},{"bike_id":"45dbebd4-311b-4c7b-ae65-4b2d7b950bf4","system_id":"levelo_inurba_marseille","lat":43.25406,"lon":5.38409,"is_reserved":false,"is_disabled":false,"rental_uris":{"android":"levelo://app?vid=45dbebd4-311b-4c7b-ae65-4b2d7b950bf4","ios":"levelo://app?vid=45dbebd4-311b-4c7b-ae65-4b2d7b950bf4"},"vehicle_type_id":"4","last_reported":1743707249,"current_range_meters":8800,"station_id":"","pricing_plan_id":"cebpf4jnsgd1na2vs0mg"},{"bike_id":"b9509f1b-2d4b-45ea-9dc6-10cbd3998d26","system_id":"levelo_inurba_marseille","lat":43.29203,"lon":5.39333,"is_reserved":false,"is_disabled":false,"rental_uris":{"android":"levelo://app?vid=b9509f1b-2d4b-45ea-9dc6-10cbd3998d26","ios":"levelo://app?vid=b9509f1b-2d4b-45ea-9dc6-10cbd3998d26"},"vehicle_type_id":"4","last_reported":1743707249,"current_range_meters":8800,"station_id":"ce4bh192rcd13ifvqdd0","pricing_plan_id":"cebpf4jnsgd1na2vs0mg"},{"bike_id":"9e0b3b09-6afd-42f5-b484-bfff7e219a79","system_id":"levelo_inurba_marseille","lat":43.2944,"lon":5.39765,"is_reserved":false,"is_disabled":false,"rental_uris":{"android":"levelo://app?vid=9e0b3b09-6afd-42f5-b484-bfff7e219a79","ios":"levelo://app?vid=9e0b3b09-6afd-42f5-b484-bfff7e219a79"},"vehicle_type_id":"4","last_reported":1743707249,"current_range_meters":8800,"station_id":"ce4bh3h2rcd13ifvqdo0","pricing_plan_id":"cebpf4jnsgd1na2vs0mg"},{"bike_id":"026c27c3-f9f7-413a-b746-40ed17d39be9","system_id":"levelo_inurba_marseille","lat":43.31883,"lon":5.40741,"is_reserved":false,"is_disabled":false,"rental_uris":{"android":"levelo://app?vid=026c27c3-f9f7-413a-b746-40ed17d39be9","ios":"levelo://app?vid=026c27c3-f9f7-413a-b746-40ed17d39be9"},"vehicle_type_id":"4","last_reported":1743707249,"current_range_meters":8800,"station_id":"ce4bhq12rcd13ifvqhig","pricing_plan_id":"cebpf4jnsgd1na2vs0mg"},{"bike_id":"44e42498-6b8f-4ed1-85bb-2b2ef803c883","system_id":"levelo_inurba_marseille","lat":43.27492,"lon":5.4245,"is_reserved":false,"is_disabled":false,"rental_uris":{"android":"levelo://app?vid=44e42498-6b8f-4ed1-85bb-2b2ef803c883","ios":"levelo://app?vid=44e42498-6b8f-4ed1-85bb-2b2ef803c883"},"vehicle_type_id":"4","last_reported":1743707249,"current_range_meters":8800,"station_id":"ce4bhn92rcd13ifvqgrg","pricing_plan_id":"cebpf4jnsgd1na2vs0mg"},{"bike_id":"fc2bdeb0-053a-4514-86b1-c36f62c80ea2","system_id":"levelo_inurba_marseille","lat":43.289453,"lon":5.366634,"is_reserved":false,"is_disabled":false,"rental_uris":{"android":"levelo://app?vid=fc2bdeb0-053a-4514-86b1-c36f62c80ea2","ios":"levelo://app?vid=fc2bdeb0-053a-4514-86b1-c36f62c80ea2"},"vehicle_type_id":"4","last_reported":1743707249,"current_range_meters":8800,"station_id":"ce4bhap2rcd13ifvqek0","pricing_plan_id":"cebpf4jnsgd1na2vs0mg"},{"bike_id":"ed4d7350-318a-444b-bf62-19f86e0514aa","system_id":"levelo_inurba_marseille","lat":43.27812,"lon":5.40724,"is_reserved":false,"is_disabled":false,"rental_uris":{"android":"levelo://app?vid=ed4d7350-318a-444b-bf62-19f86e0514aa","ios":"levelo://app?vid=ed4d7350-318a-444b-bf62-19f86e0514aa"},"vehicle_type_id":"4","last_reported":1743707249,"current_range_meters":8800,"station_id":"ce4bhnh2rcd13ifvqgtg","pricing_plan_id":"cebpf4jnsgd1na2vs0mg"},{"bike_id":"73d854ad-9eb6-4d68-8878-e9b2295ae65a","system_id":"levelo_inurba_marseille","lat":43.23066,"lon":5.35499,"is_reserved":false,"is_disabled":false,"rental_uris":{"android":"levelo://app?vid=73d854ad-9eb6-4d68-8878-e9b2295ae65a","ios":"levelo://app?vid=73d854ad-9eb6-4d68-8878-e9b2295ae65a"},"vehicle_type_id":"4","last_reported":1743707249,"current_range_meters":9200,"station_id":"cpo3342slgdg3j2ifvpg","pricing_plan_id":"cebpf4jnsgd1na2vs0mg"},{"bike_id":"10a96e16-9326-4350-babb-370adca3f96e","system_id":"levelo_inurba_marseille","lat":43.30461,"lon":5.37906,"is_reserved":false,"is_disabled":false,"rental_uris":{"android":"levelo://app?vid=10a96e16-9326-4350-babb-370adca3f96e","ios":"levelo://app?vid=10a96e16-9326-4350-babb-370adca3f96e"},"vehicle_type_id":"4","last_reported":1743707249,"current_range_meters":9200,"station_id":"ce4bgup2rcd13ifvqcn0","pricing_plan_id":"cebpf4jnsgd1na2vs0mg"},{"bike_id":"4f3eb7d3-6193-4152-af90-0b8ba47b65bc","system_id":"levelo_inurba_marseille","lat":43.28156,"lon":5.42647,"is_reserved":false,"is_disabled":false,"rental_uris":{"android":"levelo://app?vid=4f3eb7d3-6193-4152-af90-0b8ba47b65bc","ios":"levelo://app?vid=4f3eb7d3-6193-4152-af90-0b8ba47b65bc"},"vehicle_type_id":"4","last_reported":1743707249,"current_range_meters":9600,"station_id":"ce4bhnh2rcd13ifvqgug","pricing_plan_id":"cebpf4jnsgd1na2vs0mg"},{"bike_id":"809ab426-da69-405a-9ff2-30b58e1aceb6","system_id":"levelo_inurba_marseille","lat":43.299935,"lon":5.386985,"is_reserved":false,"is_disabled":false,"rental_uris":{"android":"levelo://app?vid=809ab426-da69-405a-9ff2-30b58e1aceb6","ios":"levelo://app?vid=809ab426-da69-405a-9ff2-30b58e1aceb6"},"vehicle_type_id":"4","last_reported":1743707249,"current_range_meters":9200,"station_id":"","pricing_plan_id":"cebpf4jnsgd1na2vs0mg"},{"bike_id":"a688b4f6-cbd3-4540-9afd-68e12e85ba02","system_id":"levelo_inurba_marseille","lat":43.28345,"lon":5.38102,"is_reserved":false,"is_disabled":false,"rental_uris":{"android":"levelo://app?vid=a688b4f6-cbd3-4540-9afd-68e12e85ba02","ios":"levelo://app?vid=a688b4f6-cbd3-4540-9afd-68e12e85ba02"},"vehicle_type_id":"4","last_reported":1743707249,"current_range_meters":9200,"station_id":"ce4bh412rcd13ifvqdr0","pricing_plan_id":"cebpf4jnsgd1na2vs0mg"},{"bike_id":"61f8655e-c99f-47c6-89f8-92ada757664b","system_id":"levelo_inurba_marseille","lat":43.29524,"lon":5.39405,"is_reserved":false,"is_disabled":false,"rental_uris":{"android":"levelo://app?vid=61f8655e-c99f-47c6-89f8-92ada757664b","ios":"levelo://app?vid=61f8655e-c99f-47c6-89f8-92ada757664b"},"vehicle_type_id":"4","last_reported":1743707249,"current_range_meters":9200,"station_id":"ce4bh292rcd13ifvqdf0","pricing_plan_id":"cebpf4jnsgd1na2vs0mg"},{"bike_id":"2635283e-ffd4-4c1f-b9e8-1b146ac4c8cc","system_id":"levelo_inurba_marseille","lat":43.30202,"lon":5.41897,"is_reserved":false,"is_disabled":false,"rental_uris":{"android":"levelo://app?vid=2635283e-ffd4-4c1f-b9e8-1b146ac4c8cc","ios":"levelo://app?vid=2635283e-ffd4-4c1f-b9e8-1b146ac4c8cc"},"vehicle_type_id":"4","last_reported":1743707249,"current_range_meters":9200,"station_id":"","pricing_plan_id":"cebpf4jnsgd1na2vs0mg"},{"bike_id":"2bdbe7ee-37bf-4a09-bb1c-db0d38b1b1f5","system_id":"levelo_inurba_marseille","lat":43.29538,"lon":5.38532,"is_reserved":false,"is_disabled":false,"rental_uris":{"android":"levelo://app?vid=2bdbe7ee-37bf-4a09-bb1c-db0d38b1b1f5","ios":"levelo://app?vid=2bdbe7ee-37bf-4a09-bb1c-db0d38b1b1f5"},"vehicle_type_id":"4","last_reported":1743707249,"current_range_meters":9200,"station_id":"ce4bgih2rcd13ifvqba0","pricing_plan_id":"cebpf4jnsgd1na2vs0mg"},{"bike_id":"498127d3-f5d6-4e1d-b24f-d6d5057f7fd9","system_id":"levelo_inurba_marseille","lat":43.29308,"lon":5.37172,"is_reserved":false,"is_disabled":false,"rental_uris":{"android":"levelo://app?vid=498127d3-f5d6-4e1d-b24f-d6d5057f7fd9","ios":"levelo://app?vid=498127d3-f5d6-4e1d-b24f-d6d5057f7fd9"},"vehicle_type_id":"4","last_reported":1743707249,"current_range_meters":9200,"station_id":"ce4bgh92rcd13ifvqb40","pricing_plan_id":"cebpf4jnsgd1na2vs0mg"},{"bike_id":"4e780dba-3e73-4663-a154-434733b18af4","system_id":"levelo_inurba_marseille","lat":43.28691,"lon":5.37394,"is_reserved":false,"is_disabled":false,"rental_uris":{"android":"levelo://app?vid=4e780dba-3e73-4663-a154-434733b18af4","ios":"levelo://app?vid=4e780dba-3e73-4663-a154-434733b18af4"},"vehicle_type_id":"4","last_reported":1743707249,"current_range_meters":9600,"station_id":"ce4bh3p2rcd13ifvqdq0","pricing_plan_id":"cebpf4jnsgd1na2vs0mg"},{"bike_id":"23666213-5a27-49d5-a473-9ffc05f5f6dc","system_id":"levelo_inurba_marseille","lat":43.270662,"lon":5.402939,"is_reserved":false,"is_disabled":false,"rental_uris":{"android":"levelo://app?vid=23666213-5a27-49d5-a473-9ffc05f5f6dc","ios":"levelo://app?vid=23666213-5a27-49d5-a473-9ffc05f5f6dc"},"vehicle_type_id":"4","last_reported":1743707249,"current_range_meters":13600,"station_id":"ce4bhk92rcd13ifvqgc0","pricing_plan_id":"cebpf4jnsgd1na2vs0mg"},{"bike_id":"33a515f0-c204-42cf-929c-b6563165de61","system_id":"levelo_inurba_marseille","lat":43.29099,"lon":5.38121,"is_reserved":false,"is_disabled":false,"rental_uris":{"android":"levelo://app?vid=33a515f0-c204-42cf-929c-b6563165de61","ios":"levelo://app?vid=33a515f0-c204-42cf-929c-b6563165de61"},"vehicle_type_id":"4","last_reported":1743707249,"current_range_meters":9600,"station_id":"ce4bh512rcd13ifvqe2g","pricing_plan_id":"cebpf4jnsgd1na2vs0mg"},{"bike_id":"ba28e64f-dbc8-4e95-a5f5-c76a3f102d40","system_id":"levelo_inurba_marseille","lat":43.292603,"lon":5.38437,"is_reserved":false,"is_disabled":false,"rental_uris":{"android":"levelo://app?vid=ba28e64f-dbc8-4e95-a5f5-c76a3f102d40","ios":"levelo://app?vid=ba28e64f-dbc8-4e95-a5f5-c76a3f102d40"},"vehicle_type_id":"4","last_reported":1743707249,"current_range_meters":9600,"station_id":"ce4bh692rcd13ifvqea0","pricing_plan_id":"cebpf4jnsgd1na2vs0mg"},{"bike_id":"d76832c4-3604-4de9-b7a5-182f7c6e995c","system_id":"levelo_inurba_marseille","lat":43.31351,"lon":5.38515,"is_reserved":false,"is_disabled":true,"rental_uris":{"android":"levelo://app?vid=d76832c4-3604-4de9-b7a5-182f7c6e995c","ios":"levelo://app?vid=d76832c4-3604-4de9-b7a5-182f7c6e995c"},"vehicle_type_id":"4","last_reported":1743707249,"current_range_meters":9600,"station_id":"ce4bgt92rcd13ifvqcf0","pricing_plan_id":"cebpf4jnsgd1na2vs0mg"},{"bike_id":"a7d00eb4-0ee1-423f-9fb0-ed399fbe0022","system_id":"levelo_inurba_marseille","lat":43.28153,"lon":5.42634,"is_reserved":false,"is_disabled":false,"rental_uris":{"android":"levelo://app?vid=a7d00eb4-0ee1-423f-9fb0-ed399fbe0022","ios":"levelo://app?vid=a7d00eb4-0ee1-423f-9fb0-ed399fbe0022"},"vehicle_type_id":"4","last_reported":1743707249,"current_range_meters":9600,"station_id":"ce4bhnh2rcd13ifvqgug","pricing_plan_id":"cebpf4jnsgd1na2vs0mg"},{"bike_id":"1332db18-e77f-4084-9e91-8cb56440097a","system_id":"levelo_inurba_marseille","lat":43.28265,"lon":5.35076,"is_reserved":false,"is_disabled":false,"rental_uris":{"android":"levelo://app?vid=1332db18-e77f-4084-9e91-8cb56440097a","ios":"levelo://app?vid=1332db18-e77f-4084-9e91-8cb56440097a"},"vehicle_type_id":"4","last_reported":1743707249,"current_range_meters":9600,"station_id":"ce4bhbp2rcd13ifvqerg","pricing_plan_id":"cebpf4jnsgd1na2vs0mg"},{"bike_id":"b4cb4e28-e514-44da-9db3-2c7d453900ef","system_id":"levelo_inurba_marseille","lat":43.28167,"lon":5.42654,"is_reserved":false,"is_disabled":false,"rental_uris":{"android":"levelo://app?vid=b4cb4e28-e514-44da-9db3-2c7d453900ef","ios":"levelo://app?vid=b4cb4e28-e514-44da-9db3-2c7d453900ef"},"vehicle_type_id":"4","last_reported":1743707249,"current_range_meters":9600,"station_id":"ce4bhnh2rcd13ifvqgug","pricing_plan_id":"cebpf4jnsgd1na2vs0mg"},{"bike_id":"9d81bf28-fe89-4de4-89f1-801744a1472d","system_id":"levelo_inurba_marseille","lat":43.31489,"lon":5.37303,"is_reserved":false,"is_disabled":false,"rental_uris":{"android":"levelo://app?vid=9d81bf28-fe89-4de4-89f1-801744a1472d","ios":"levelo://app?vid=9d81bf28-fe89-4de4-89f1-801744a1472d"},"vehicle_type_id":"4","last_reported":1743707249,"current_range_meters":9600,"station_id":"ce4bgt12rcd13ifvqcd0","pricing_plan_id":"cebpf4jnsgd1na2vs0mg"},{"bike_id":"0dac6cbf-70aa-4c5b-9bd6-89ce0f38fbc3","system_id":"levelo_inurba_marseille","lat":43.31296,"lon":5.37295,"is_reserved":false,"is_disabled":false,"rental_uris":{"android":"levelo://app?vid=0dac6cbf-70aa-4c5b-9bd6-89ce0f38fbc3","ios":"levelo://app?vid=0dac6cbf-70aa-4c5b-9bd6-89ce0f38fbc3"},"vehicle_type_id":"4","last_reported":1743707249,"current_range_meters":9600,"station_id":"","pricing_plan_id":"cebpf4jnsgd1na2vs0mg"},{"bike_id":"09acc38a-ce9e-4339-b410-bdafaf8d5a13","system_id":"levelo_inurba_marseille","lat":43.250954,"lon":5.395356,"is_reserved":false,"is_disabled":true,"rental_uris":{"android":"levelo://app?vid=09acc38a-ce9e-4339-b410-bdafaf8d5a13","ios":"levelo://app?vid=09acc38a-ce9e-4339-b410-bdafaf8d5a13"},"vehicle_type_id":"4","last_reported":1743707249,"current_range_meters":9600,"station_id":"ce4bhm12rcd13ifvqgkg","pricing_plan_id":"cebpf4jnsgd1na2vs0mg"},{"bike_id":"ad06c5a3-b007-4ffd-8fb9-b8f5d5f3b75c","system_id":"levelo_inurba_marseille","lat":43.29198,"lon":5.39333,"is_reserved":false,"is_disabled":false,"rental_uris":{"android":"levelo://app?vid=ad06c5a3-b007-4ffd-8fb9-b8f5d5f3b75c","ios":"levelo://app?vid=ad06c5a3-b007-4ffd-8fb9-b8f5d5f3b75c"},"vehicle_type_id":"4","last_reported":1743707249,"current_range_meters":9600,"station_id":"ce4bh192rcd13ifvqdd0","pricing_plan_id":"cebpf4jnsgd1na2vs0mg"},{"bike_id":"01d03fd6-04d7-4860-941b-577f3f4680e7","system_id":"levelo_inurba_marseille","lat":43.311498,"lon":5.385672,"is_reserved":false,"is_disabled":false,"rental_uris":{"android":"levelo://app?vid=01d03fd6-04d7-4860-941b-577f3f4680e7","ios":"levelo://app?vid=01d03fd6-04d7-4860-941b-577f3f4680e7"},"vehicle_type_id":"4","last_reported":1743707249,"current_range_meters":9200,"station_id":"ce4bgop2rcd13ifvqc1g","pricing_plan_id":"cebpf4jnsgd1na2vs0mg"},{"bike_id":"c6dbfbad-c5e4-4444-9b15-94527aba01a5","system_id":"levelo_inurba_marseille","lat":43.30559,"lon":5.36531,"is_reserved":false,"is_disabled":true,"rental_uris":{"android":"levelo://app?vid=c6dbfbad-c5e4-4444-9b15-94527aba01a5","ios":"levelo://app?vid=c6dbfbad-c5e4-4444-9b15-94527aba01a5"},"vehicle_type_id":"4","last_reported":1743707249,"current_range_meters":9600,"station_id":"ce4bgs12rcd13ifvqcag","pricing_plan_id":"cebpf4jnsgd1na2vs0mg"},{"bike_id":"55a458b5-99f0-4a0e-bf15-969bb5b742d8","system_id":"levelo_inurba_marseille","lat":43.31653,"lon":5.3945,"is_reserved":false,"is_disabled":false,"rental_uris":{"android":"levelo://app?vid=55a458b5-99f0-4a0e-bf15-969bb5b742d8","ios":"levelo://app?vid=55a458b5-99f0-4a0e-bf15-969bb5b742d8"},"vehicle_type_id":"4","last_reported":1743707249,"current_range_meters":9600,"station_id":"","pricing_plan_id":"cebpf4jnsgd1na2vs0mg"},{"bike_id":"125b459e-6216-4283-9453-b4a09f7291d5","system_id":"levelo_inurba_marseille","lat":43.2956,"lon":5.42286,"is_reserved":false,"is_disabled":false,"rental_uris":{"android":"levelo://app?vid=125b459e-6216-4283-9453-b4a09f7291d5","ios":"levelo://app?vid=125b459e-6216-4283-9453-b4a09f7291d5"},"vehicle_type_id":"4","last_reported":1743707249,"current_range_meters":9600,"station_id":"ce4bhph2rcd13ifvqhdg","pricing_plan_id":"cebpf4jnsgd1na2vs0mg"},{"bike_id":"06c14053-3a7f-4851-bac2-ca082d400ea4","system_id":"levelo_inurba_marseille","lat":43.29415,"lon":5.38647,"is_reserved":false,"is_disabled":false,"rental_uris":{"android":"levelo://app?vid=06c14053-3a7f-4851-bac2-ca082d400ea4","ios":"levelo://app?vid=06c14053-3a7f-4851-bac2-ca082d400ea4"},"vehicle_type_id":"4","last_reported":1743707249,"current_range_meters":10000,"station_id":"ce4bh2h2rcd13ifvqdh0","pricing_plan_id":"cebpf4jnsgd1na2vs0mg"},{"bike_id":"d56795d7-3efb-4b74-b92e-c20071dac8ba","system_id":"levelo_inurba_marseille","lat":43.29283,"lon":5.40126,"is_reserved":false,"is_disabled":false,"rental_uris":{"android":"levelo://app?vid=d56795d7-3efb-4b74-b92e-c20071dac8ba","ios":"levelo://app?vid=d56795d7-3efb-4b74-b92e-c20071dac8ba"},"vehicle_type_id":"4","last_reported":1743707249,"current_range_meters":10000,"station_id":"ce4bh312rcd13ifvqdk0","pricing_plan_id":"cebpf4jnsgd1na2vs0mg"},{"bike_id":"3cf22d29-90b6-4c79-a643-886bc3743ca7","system_id":"levelo_inurba_marseille","lat":43.33417,"lon":5.40092,"is_reserved":false,"is_disabled":false,"rental_uris":{"android":"levelo://app?vid=3cf22d29-90b6-4c79-a643-886bc3743ca7","ios":"levelo://app?vid=3cf22d29-90b6-4c79-a643-886bc3743ca7"},"vehicle_type_id":"4","last_reported":1743707249,"current_range_meters":10000,"station_id":"","pricing_plan_id":"cebpf4jnsgd1na2vs0mg"},{"bike_id":"95c6afc1-751b-4335-9455-2a5c25d7f064","system_id":"levelo_inurba_marseille","lat":43.28932,"lon":5.36635,"is_reserved":false,"is_disabled":false,"rental_uris":{"android":"levelo://app?vid=95c6afc1-751b-4335-9455-2a5c25d7f064","ios":"levelo://app?vid=95c6afc1-751b-4335-9455-2a5c25d7f064"},"vehicle_type_id":"4","last_reported":1743707249,"current_range_meters":10000,"station_id":"ce4bhap2rcd13ifvqek0","pricing_plan_id":"cebpf4jnsgd1na2vs0mg"},{"bike_id":"7139d3fc-4d25-4184-9b63-b87110ac44d0","system_id":"levelo_inurba_marseille","lat":43.27055,"lon":5.40265,"is_reserved":false,"is_disabled":false,"rental_uris":{"android":"levelo://app?vid=7139d3fc-4d25-4184-9b63-b87110ac44d0","ios":"levelo://app?vid=7139d3fc-4d25-4184-9b63-b87110ac44d0"},"vehicle_type_id":"4","last_reported":1743707249,"current_range_meters":10000,"station_id":"ce4bhk92rcd13ifvqgc0","pricing_plan_id":"cebpf4jnsgd1na2vs0mg"},{"bike_id":"857ae049-7926-4695-815c-dcc0cb61dd15","system_id":"levelo_inurba_marseille","lat":43.29707,"lon":5.36615,"is_reserved":false,"is_disabled":false,"rental_uris":{"android":"levelo://app?vid=857ae049-7926-4695-815c-dcc0cb61dd15","ios":"levelo://app?vid=857ae049-7926-4695-815c-dcc0cb61dd15"},"vehicle_type_id":"4","last_reported":1743707249,"current_range_meters":10000,"station_id":"ce4bgn12rcd13ifvqbt0","pricing_plan_id":"cebpf4jnsgd1na2vs0mg"},{"bike_id":"e3a29d38-a611-4b12-87ef-2fb8a21c41d5","system_id":"levelo_inurba_marseille","lat":43.22963,"lon":5.35363,"is_reserved":false,"is_disabled":false,"rental_uris":{"android":"levelo://app?vid=e3a29d38-a611-4b12-87ef-2fb8a21c41d5","ios":"levelo://app?vid=e3a29d38-a611-4b12-87ef-2fb8a21c41d5"},"vehicle_type_id":"4","last_reported":1743707249,"current_range_meters":10000,"station_id":"cpo3532slgdg3j2ikp40","pricing_plan_id":"cebpf4jnsgd1na2vs0mg"},{"bike_id":"efddeda7-6eb2-4c14-868d-fa0ce0b35ef3","system_id":"levelo_inurba_marseille","lat":43.31283,"lon":5.38283,"is_reserved":false,"is_disabled":false,"rental_uris":{"android":"levelo://app?vid=efddeda7-6eb2-4c14-868d-fa0ce0b35ef3","ios":"levelo://app?vid=efddeda7-6eb2-4c14-868d-fa0ce0b35ef3"},"vehicle_type_id":"4","last_reported":1743707249,"current_range_meters":10000,"station_id":"","pricing_plan_id":"cebpf4jnsgd1na2vs0mg"},{"bike_id":"4d021dc5-da23-461e-96b2-594066586ca8","system_id":"levelo_inurba_marseille","lat":43.27963,"lon":5.40857,"is_reserved":false,"is_disabled":false,"rental_uris":{"android":"levelo://app?vid=4d021dc5-da23-461e-96b2-594066586ca8","ios":"levelo://app?vid=4d021dc5-da23-461e-96b2-594066586ca8"},"vehicle_type_id":"4","last_reported":1743707249,"current_range_meters":10000,"station_id":"","pricing_plan_id":"cebpf4jnsgd1na2vs0mg"},{"bike_id":"e8f004e0-6d0f-41c6-a9b6-2ac722b5fcf2","system_id":"levelo_inurba_marseille","lat":43.29528,"lon":5.38553,"is_reserved":false,"is_disabled":false,"rental_uris":{"android":"levelo://app?vid=e8f004e0-6d0f-41c6-a9b6-2ac722b5fcf2","ios":"levelo://app?vid=e8f004e0-6d0f-41c6-a9b6-2ac722b5fcf2"},"vehicle_type_id":"4","last_reported":1743707249,"current_range_meters":10000,"station_id":"ce4bgih2rcd13ifvqba0","pricing_plan_id":"cebpf4jnsgd1na2vs0mg"},{"bike_id":"c13336a2-47ce-488c-b5b6-77c01a3ac1d1","system_id":"levelo_inurba_marseille","lat":43.31914,"lon":5.40751,"is_reserved":false,"is_disabled":true,"rental_uris":{"android":"levelo://app?vid=c13336a2-47ce-488c-b5b6-77c01a3ac1d1","ios":"levelo://app?vid=c13336a2-47ce-488c-b5b6-77c01a3ac1d1"},"vehicle_type_id":"4","last_reported":1743707249,"current_range_meters":10000,"station_id":"ce4bhq12rcd13ifvqhig","pricing_plan_id":"cebpf4jnsgd1na2vs0mg"},{"bike_id":"5db53e4b-2005-4dad-8440-47aeca35d414","system_id":"levelo_inurba_marseille","lat":43.29058,"lon":5.35924,"is_reserved":false,"is_disabled":false,"rental_uris":{"android":"levelo://app?vid=5db53e4b-2005-4dad-8440-47aeca35d414","ios":"levelo://app?vid=5db53e4b-2005-4dad-8440-47aeca35d414"},"vehicle_type_id":"4","last_reported":1743707249,"current_range_meters":10000,"station_id":"ce4bha92rcd13ifvqeg0","pricing_plan_id":"cebpf4jnsgd1na2vs0mg"},{"bike_id":"63c19073-a7de-46ed-a396-8639743b910e","system_id":"levelo_inurba_marseille","lat":43.23214,"lon":5.35554,"is_reserved":false,"is_disabled":false,"rental_uris":{"android":"levelo://app?vid=63c19073-a7de-46ed-a396-8639743b910e","ios":"levelo://app?vid=63c19073-a7de-46ed-a396-8639743b910e"},"vehicle_type_id":"4","last_reported":1743707249,"current_range_meters":10000,"station_id":"ce4bhu92rcd13ifvqi70","pricing_plan_id":"cebpf4jnsgd1na2vs0mg"},{"bike_id":"08c46667-3d15-4cc9-b577-f1f3e95de2fc","system_id":"levelo_inurba_marseille","lat":43.27057,"lon":5.40262,"is_reserved":false,"is_disabled":false,"rental_uris":{"android":"levelo://app?vid=08c46667-3d15-4cc9-b577-f1f3e95de2fc","ios":"levelo://app?vid=08c46667-3d15-4cc9-b577-f1f3e95de2fc"},"vehicle_type_id":"4","last_reported":1743707249,"current_range_meters":10000,"station_id":"ce4bhk92rcd13ifvqgc0","pricing_plan_id":"cebpf4jnsgd1na2vs0mg"},{"bike_id":"be19e26c-e8d6-41dc-9289-b6df129eb6b6","system_id":"levelo_inurba_marseille","lat":43.2926,"lon":5.40914,"is_reserved":false,"is_disabled":false,"rental_uris":{"android":"levelo://app?vid=be19e26c-e8d6-41dc-9289-b6df129eb6b6","ios":"levelo://app?vid=be19e26c-e8d6-41dc-9289-b6df129eb6b6"},"vehicle_type_id":"4","last_reported":1743707249,"current_range_meters":10800,"station_id":"ce4bh192rcd13ifvqdc0","pricing_plan_id":"cebpf4jnsgd1na2vs0mg"},{"bike_id":"bf219784-3680-44e1-abb0-c19db8b8d5b7","system_id":"levelo_inurba_marseille","lat":43.28924,"lon":5.36655,"is_reserved":false,"is_disabled":false,"rental_uris":{"android":"levelo://app?vid=bf219784-3680-44e1-abb0-c19db8b8d5b7","ios":"levelo://app?vid=bf219784-3680-44e1-abb0-c19db8b8d5b7"},"vehicle_type_id":"4","last_reported":1743707249,"current_range_meters":10800,"station_id":"ce4bhap2rcd13ifvqek0","pricing_plan_id":"cebpf4jnsgd1na2vs0mg"},{"bike_id":"a634b4f6-df23-44de-9919-b9db5b2ed2cb","system_id":"levelo_inurba_marseille","lat":43.29031,"lon":5.38641,"is_reserved":false,"is_disabled":false,"rental_uris":{"android":"levelo://app?vid=a634b4f6-df23-44de-9919-b9db5b2ed2cb","ios":"levelo://app?vid=a634b4f6-df23-44de-9919-b9db5b2ed2cb"},"vehicle_type_id":"4","last_reported":1743707249,"current_range_meters":10800,"station_id":"ce4bh4p2rcd13ifvqe0g","pricing_plan_id":"cebpf4jnsgd1na2vs0mg"},{"bike_id":"723c1a48-7279-427c-b4ea-2eb936bad6dc","system_id":"levelo_inurba_marseille","lat":43.29987,"lon":5.3851,"is_reserved":false,"is_disabled":false,"rental_uris":{"android":"levelo://app?vid=723c1a48-7279-427c-b4ea-2eb936bad6dc","ios":"levelo://app?vid=723c1a48-7279-427c-b4ea-2eb936bad6dc"},"vehicle_type_id":"4","last_reported":1743707249,"current_range_meters":10800,"station_id":"ce4bgj92rcd13ifvqbd0","pricing_plan_id":"cebpf4jnsgd1na2vs0mg"},{"bike_id":"bd8458f6-0df0-494d-bd1f-126971954020","system_id":"levelo_inurba_marseille","lat":43.27608,"lon":5.36114,"is_reserved":false,"is_disabled":false,"rental_uris":{"android":"levelo://app?vid=bd8458f6-0df0-494d-bd1f-126971954020","ios":"levelo://app?vid=bd8458f6-0df0-494d-bd1f-126971954020"},"vehicle_type_id":"4","last_reported":1743707249,"current_range_meters":11200,"station_id":"ce4bgj92rcd13ifvqbe0","pricing_plan_id":"cebpf4jnsgd1na2vs0mg"},{"bike_id":"b5fd6c07-3b63-4ca0-a7d3-ae7cb0809d13","system_id":"levelo_inurba_marseille","lat":43.31113,"lon":5.37775,"is_reserved":false,"is_disabled":false,"rental_uris":{"android":"levelo://app?vid=b5fd6c07-3b63-4ca0-a7d3-ae7cb0809d13","ios":"levelo://app?vid=b5fd6c07-3b63-4ca0-a7d3-ae7cb0809d13"},"vehicle_type_id":"4","last_reported":1743707249,"current_range_meters":11200,"station_id":"ce4bgt92rcd13ifvqcg0","pricing_plan_id":"cebpf4jnsgd1na2vs0mg"},{"bike_id":"7aafecc6-162c-4e65-a83b-a414363ed47a","system_id":"levelo_inurba_marseille","lat":43.28424,"lon":5.34981,"is_reserved":false,"is_disabled":false,"rental_uris":{"android":"levelo://app?vid=7aafecc6-162c-4e65-a83b-a414363ed47a","ios":"levelo://app?vid=7aafecc6-162c-4e65-a83b-a414363ed47a"},"vehicle_type_id":"4","last_reported":1743707249,"current_range_meters":11200,"station_id":"ce4bhbh2rcd13ifvqepg","pricing_plan_id":"cebpf4jnsgd1na2vs0mg"},{"bike_id":"7c5a3ac9-108c-42a2-a263-860d748dadb2","system_id":"levelo_inurba_marseille","lat":43.2481,"lon":5.37461,"is_reserved":false,"is_disabled":false,"rental_uris":{"android":"levelo://app?vid=7c5a3ac9-108c-42a2-a263-860d748dadb2","ios":"levelo://app?vid=7c5a3ac9-108c-42a2-a263-860d748dadb2"},"vehicle_type_id":"4","last_reported":1743707249,"current_range_meters":11200,"station_id":"ce4bhgh2rcd13ifvqfb0","pricing_plan_id":"cebpf4jnsgd1na2vs0mg"},{"bike_id":"da3649e0-2b6f-425e-ac75-d70497e5c37e","system_id":"levelo_inurba_marseille","lat":43.29625,"lon":5.40597,"is_reserved":false,"is_disabled":false,"rental_uris":{"android":"levelo://app?vid=da3649e0-2b6f-425e-ac75-d70497e5c37e","ios":"levelo://app?vid=da3649e0-2b6f-425e-ac75-d70497e5c37e"},"vehicle_type_id":"4","last_reported":1743707249,"current_range_meters":11200,"station_id":"ce4bh0h2rcd13ifvqd60","pricing_plan_id":"cebpf4jnsgd1na2vs0mg"},{"bike_id":"f78932fa-0bac-4734-911f-ea786847da38","system_id":"levelo_inurba_marseille","lat":43.24068,"lon":5.3778,"is_reserved":false,"is_disabled":false,"rental_uris":{"android":"levelo://app?vid=f78932fa-0bac-4734-911f-ea786847da38","ios":"levelo://app?vid=f78932fa-0bac-4734-911f-ea786847da38"},"vehicle_type_id":"4","last_reported":1743707249,"current_range_meters":11200,"station_id":"ce4bhnp2rcd13ifvqgvg","pricing_plan_id":"cebpf4jnsgd1na2vs0mg"},{"bike_id":"069feb28-9c06-4535-8070-12f86469d30d","system_id":"levelo_inurba_marseille","lat":43.28438,"lon":5.35002,"is_reserved":false,"is_disabled":false,"rental_uris":{"android":"levelo://app?vid=069feb28-9c06-4535-8070-12f86469d30d","ios":"levelo://app?vid=069feb28-9c06-4535-8070-12f86469d30d"},"vehicle_type_id":"4","last_reported":1743707249,"current_range_meters":11200,"station_id":"ce4bhbh2rcd13ifvqepg","pricing_plan_id":"cebpf4jnsgd1na2vs0mg"},{"bike_id":"ad7ccb36-1574-4eee-87d6-b5d5ad8318bf","system_id":"levelo_inurba_marseille","lat":43.28355,"lon":5.38111,"is_reserved":false,"is_disabled":false,"rental_uris":{"android":"levelo://app?vid=ad7ccb36-1574-4eee-87d6-b5d5ad8318bf","ios":"levelo://app?vid=ad7ccb36-1574-4eee-87d6-b5d5ad8318bf"},"vehicle_type_id":"4","last_reported":1743707249,"current_range_meters":11200,"station_id":"ce4bh412rcd13ifvqdr0","pricing_plan_id":"cebpf4jnsgd1na2vs0mg"},{"bike_id":"edd02042-c196-4d20-a37c-a08275872345","system_id":"levelo_inurba_marseille","lat":43.29519,"lon":5.39064,"is_reserved":false,"is_disabled":false,"rental_uris":{"android":"levelo://app?vid=edd02042-c196-4d20-a37c-a08275872345","ios":"levelo://app?vid=edd02042-c196-4d20-a37c-a08275872345"},"vehicle_type_id":"4","last_reported":1743707249,"current_range_meters":10800,"station_id":"ce4bh3p2rcd13ifvqdp0","pricing_plan_id":"cebpf4jnsgd1na2vs0mg"},{"bike_id":"785b2f0e-7d62-42c5-bd7e-93f3c8a74d6a","system_id":"levelo_inurba_marseille","lat":43.28416,"lon":5.34997,"is_reserved":false,"is_disabled":false,"rental_uris":{"android":"levelo://app?vid=785b2f0e-7d62-42c5-bd7e-93f3c8a74d6a","ios":"levelo://app?vid=785b2f0e-7d62-42c5-bd7e-93f3c8a74d6a"},"vehicle_type_id":"4","last_reported":1743707249,"current_range_meters":11600,"station_id":"ce4bhbh2rcd13ifvqepg","pricing_plan_id":"cebpf4jnsgd1na2vs0mg"},{"bike_id":"71bba453-497f-43b7-a5e8-9f0220d13b6b","system_id":"levelo_inurba_marseille","lat":43.2512,"lon":5.40321,"is_reserved":false,"is_disabled":false,"rental_uris":{"android":"levelo://app?vid=71bba453-497f-43b7-a5e8-9f0220d13b6b","ios":"levelo://app?vid=71bba453-497f-43b7-a5e8-9f0220d13b6b"},"vehicle_type_id":"4","last_reported":1743707249,"current_range_meters":11600,"station_id":"ce4bhlh2rcd13ifvqgig","pricing_plan_id":"cebpf4jnsgd1na2vs0mg"},{"bike_id":"becd4d9c-f5b2-4018-aadd-5312c9b4ec50","system_id":"levelo_inurba_marseille","lat":43.23972,"lon":5.36657,"is_reserved":false,"is_disabled":false,"rental_uris":{"android":"levelo://app?vid=becd4d9c-f5b2-4018-aadd-5312c9b4ec50","ios":"levelo://app?vid=becd4d9c-f5b2-4018-aadd-5312c9b4ec50"},"vehicle_type_id":"4","last_reported":1743707249,"current_range_meters":11600,"station_id":"ce4bhi12rcd13ifvqfp0","pricing_plan_id":"cebpf4jnsgd1na2vs0mg"},{"bike_id":"63139285-137c-4e8d-8e95-6c2a275f8333","system_id":"levelo_inurba_marseille","lat":43.32157,"lon":5.36758,"is_reserved":false,"is_disabled":false,"rental_uris":{"android":"levelo://app?vid=63139285-137c-4e8d-8e95-6c2a275f8333","ios":"levelo://app?vid=63139285-137c-4e8d-8e95-6c2a275f8333"},"vehicle_type_id":"4","last_reported":1743707249,"current_range_meters":11600,"station_id":"ce4bhrh2rcd13ifvqhug","pricing_plan_id":"cebpf4jnsgd1na2vs0mg"},{"bike_id":"f320bcfd-d3a7-4746-b26f-e416beaa874d","system_id":"levelo_inurba_marseille","lat":43.313599,"lon":5.36818,"is_reserved":false,"is_disabled":false,"rental_uris":{"android":"levelo://app?vid=f320bcfd-d3a7-4746-b26f-e416beaa874d","ios":"levelo://app?vid=f320bcfd-d3a7-4746-b26f-e416beaa874d"},"vehicle_type_id":"4","last_reported":1743707249,"current_range_meters":11600,"station_id":"ce4bhsp2rcd13ifvqi50","pricing_plan_id":"cebpf4jnsgd1na2vs0mg"},{"bike_id":"5f46717b-05d1-4f34-a220-8087932d755b","system_id":"levelo_inurba_marseille","lat":43.30125,"lon":5.36973,"is_reserved":false,"is_disabled":false,"rental_uris":{"android":"levelo://app?vid=5f46717b-05d1-4f34-a220-8087932d755b","ios":"levelo://app?vid=5f46717b-05d1-4f34-a220-8087932d755b"},"vehicle_type_id":"4","last_reported":1743707249,"current_range_meters":11600,"station_id":"","pricing_plan_id":"cebpf4jnsgd1na2vs0mg"},{"bike_id":"39376265-6bad-4efb-9d48-5084d6979a0a","system_id":"levelo_inurba_marseille","lat":43.25718,"lon":5.41104,"is_reserved":false,"is_disabled":false,"rental_uris":{"android":"levelo://app?vid=39376265-6bad-4efb-9d48-5084d6979a0a","ios":"levelo://app?vid=39376265-6bad-4efb-9d48-5084d6979a0a"},"vehicle_type_id":"4","last_reported":1743707249,"current_range_meters":11200,"station_id":"ce4bhkp2rcd13ifvqgd0","pricing_plan_id":"cebpf4jnsgd1na2vs0mg"},{"bike_id":"7d7822ac-8994-4ba9-9628-971a28ebb76b","system_id":"levelo_inurba_marseille","lat":43.29444,"lon":5.39753,"is_reserved":false,"is_disabled":false,"rental_uris":{"android":"levelo://app?vid=7d7822ac-8994-4ba9-9628-971a28ebb76b","ios":"levelo://app?vid=7d7822ac-8994-4ba9-9628-971a28ebb76b"},"vehicle_type_id":"4","last_reported":1743707249,"current_range_meters":11600,"station_id":"ce4bh3h2rcd13ifvqdo0","pricing_plan_id":"cebpf4jnsgd1na2vs0mg"},{"bike_id":"c457b9c7-aa79-427b-a586-05626b6d92be","system_id":"levelo_inurba_marseille","lat":43.23195,"lon":5.35559,"is_reserved":false,"is_disabled":false,"rental_uris":{"android":"levelo://app?vid=c457b9c7-aa79-427b-a586-05626b6d92be","ios":"levelo://app?vid=c457b9c7-aa79-427b-a586-05626b6d92be"},"vehicle_type_id":"4","last_reported":1743707249,"current_range_meters":12000,"station_id":"ce4bhu92rcd13ifvqi70","pricing_plan_id":"cebpf4jnsgd1na2vs0mg"},{"bike_id":"a465b8bd-85e3-4f23-ae0c-c4dd3303490e","system_id":"levelo_inurba_marseille","lat":43.27177,"lon":5.40993,"is_reserved":false,"is_disabled":false,"rental_uris":{"android":"levelo://app?vid=a465b8bd-85e3-4f23-ae0c-c4dd3303490e","ios":"levelo://app?vid=a465b8bd-85e3-4f23-ae0c-c4dd3303490e"},"vehicle_type_id":"4","last_reported":1743707249,"current_range_meters":12000,"station_id":"ce4bhl12rcd13ifvqgf0","pricing_plan_id":"cebpf4jnsgd1na2vs0mg"},{"bike_id":"d75acc28-423f-45f3-947b-400f070d7177","system_id":"levelo_inurba_marseille","lat":43.24662,"lon":5.38167,"is_reserved":false,"is_disabled":false,"rental_uris":{"android":"levelo://app?vid=d75acc28-423f-45f3-947b-400f070d7177","ios":"levelo://app?vid=d75acc28-423f-45f3-947b-400f070d7177"},"vehicle_type_id":"4","last_reported":1743707249,"current_range_meters":12000,"station_id":"ce4bhih2rcd13ifvqfr0","pricing_plan_id":"cebpf4jnsgd1na2vs0mg"},{"bike_id":"69c0db05-6ded-4dc6-9720-2452c83c1020","system_id":"levelo_inurba_marseille","lat":43.22943,"lon":5.3539,"is_reserved":false,"is_disabled":false,"rental_uris":{"android":"levelo://app?vid=69c0db05-6ded-4dc6-9720-2452c83c1020","ios":"levelo://app?vid=69c0db05-6ded-4dc6-9720-2452c83c1020"},"vehicle_type_id":"4","last_reported":1743707249,"current_range_meters":12000,"station_id":"cpo3532slgdg3j2ikp40","pricing_plan_id":"cebpf4jnsgd1na2vs0mg"},{"bike_id":"a6303451-5b45-435c-bf0e-748f94cc010d","system_id":"levelo_inurba_marseille","lat":43.23193,"lon":5.35554,"is_reserved":false,"is_disabled":false,"rental_uris":{"android":"levelo://app?vid=a6303451-5b45-435c-bf0e-748f94cc010d","ios":"levelo://app?vid=a6303451-5b45-435c-bf0e-748f94cc010d"},"vehicle_type_id":"4","last_reported":1743707249,"current_range_meters":12400,"station_id":"ce4bhu92rcd13ifvqi70","pricing_plan_id":"cebpf4jnsgd1na2vs0mg"},{"bike_id":"ff1301e1-0d63-44b3-bce2-273444a65096","system_id":"levelo_inurba_marseille","lat":43.29254,"lon":5.38433,"is_reserved":false,"is_disabled":false,"rental_uris":{"android":"levelo://app?vid=ff1301e1-0d63-44b3-bce2-273444a65096","ios":"levelo://app?vid=ff1301e1-0d63-44b3-bce2-273444a65096"},"vehicle_type_id":"4","last_reported":1743707249,"current_range_meters":12400,"station_id":"ce4bh692rcd13ifvqea0","pricing_plan_id":"cebpf4jnsgd1na2vs0mg"},{"bike_id":"c611372a-1bd7-4682-a269-9a02ba50eeab","system_id":"levelo_inurba_marseille","lat":43.29978,"lon":5.3848,"is_reserved":false,"is_disabled":true,"rental_uris":{"android":"levelo://app?vid=c611372a-1bd7-4682-a269-9a02ba50eeab","ios":"levelo://app?vid=c611372a-1bd7-4682-a269-9a02ba50eeab"},"vehicle_type_id":"4","last_reported":1743707249,"current_range_meters":12400,"station_id":"ce4bgj92rcd13ifvqbd0","pricing_plan_id":"cebpf4jnsgd1na2vs0mg"},{"bike_id":"e4804a34-b217-493b-b5d1-ca7eb1fa5363","system_id":"levelo_inurba_marseille","lat":43.28354,"lon":5.38105,"is_reserved":false,"is_disabled":false,"rental_uris":{"android":"levelo://app?vid=e4804a34-b217-493b-b5d1-ca7eb1fa5363","ios":"levelo://app?vid=e4804a34-b217-493b-b5d1-ca7eb1fa5363"},"vehicle_type_id":"4","last_reported":1743707249,"current_range_meters":12400,"station_id":"ce4bh412rcd13ifvqdr0","pricing_plan_id":"cebpf4jnsgd1na2vs0mg"},{"bike_id":"81ad2bbb-877c-4a87-a825-ee1308ee1943","system_id":"levelo_inurba_marseille","lat":43.30438,"lon":5.3975,"is_reserved":false,"is_disabled":false,"rental_uris":{"android":"levelo://app?vid=81ad2bbb-877c-4a87-a825-ee1308ee1943","ios":"levelo://app?vid=81ad2bbb-877c-4a87-a825-ee1308ee1943"},"vehicle_type_id":"4","last_reported":1743707249,"current_range_meters":12400,"station_id":"ce4bh092rcd13ifvqd20","pricing_plan_id":"cebpf4jnsgd1na2vs0mg"},{"bike_id":"6bae748d-6031-41ef-83a6-0e495485c08e","system_id":"levelo_inurba_marseille","lat":43.28848,"lon":5.35893,"is_reserved":false,"is_disabled":false,"rental_uris":{"android":"levelo://app?vid=6bae748d-6031-41ef-83a6-0e495485c08e","ios":"levelo://app?vid=6bae748d-6031-41ef-83a6-0e495485c08e"},"vehicle_type_id":"4","last_reported":1743707249,"current_range_meters":12400,"station_id":"ce4bhb12rcd13ifvqem0","pricing_plan_id":"cebpf4jnsgd1na2vs0mg"},{"bike_id":"6bca0a29-b040-49bc-b07b-918965c53d85","system_id":"levelo_inurba_marseille","lat":43.28972,"lon":5.3641,"is_reserved":false,"is_disabled":false,"rental_uris":{"android":"levelo://app?vid=6bca0a29-b040-49bc-b07b-918965c53d85","ios":"levelo://app?vid=6bca0a29-b040-49bc-b07b-918965c53d85"},"vehicle_type_id":"4","last_reported":1743707249,"current_range_meters":12800,"station_id":"ce4bhc92rcd13ifvqetg","pricing_plan_id":"cebpf4jnsgd1na2vs0mg"},{"bike_id":"a2cc56b1-ff5c-4d49-8794-6951d2d93f41","system_id":"levelo_inurba_marseille","lat":43.23955,"lon":5.36634,"is_reserved":false,"is_disabled":false,"rental_uris":{"android":"levelo://app?vid=a2cc56b1-ff5c-4d49-8794-6951d2d93f41","ios":"levelo://app?vid=a2cc56b1-ff5c-4d49-8794-6951d2d93f41"},"vehicle_type_id":"4","last_reported":1743707249,"current_range_meters":12800,"station_id":"ce4bhi12rcd13ifvqfp0","pricing_plan_id":"cebpf4jnsgd1na2vs0mg"},{"bike_id":"b31ed20a-7366-48c8-9a08-4f2938fd31ad","system_id":"levelo_inurba_marseille","lat":43.2815,"lon":5.42677,"is_reserved":false,"is_disabled":false,"rental_uris":{"android":"levelo://app?vid=b31ed20a-7366-48c8-9a08-4f2938fd31ad","ios":"levelo://app?vid=b31ed20a-7366-48c8-9a08-4f2938fd31ad"},"vehicle_type_id":"4","last_reported":1743707249,"current_range_meters":12800,"station_id":"ce4bhnh2rcd13ifvqgug","pricing_plan_id":"cebpf4jnsgd1na2vs0mg"},{"bike_id":"2907afc2-01ac-4aec-9b08-c3a75d8347bc","system_id":"levelo_inurba_marseille","lat":43.26226,"lon":5.40481,"is_reserved":false,"is_disabled":false,"rental_uris":{"android":"levelo://app?vid=2907afc2-01ac-4aec-9b08-c3a75d8347bc","ios":"levelo://app?vid=2907afc2-01ac-4aec-9b08-c3a75d8347bc"},"vehicle_type_id":"4","last_reported":1743707249,"current_range_meters":12800,"station_id":"ce4bhmh2rcd13ifvqgmg","pricing_plan_id":"cebpf4jnsgd1na2vs0mg"},{"bike_id":"1ac4251c-6cc3-482a-b732-2a78b2d6ce13","system_id":"levelo_inurba_marseille","lat":43.30098,"lon":5.39094,"is_reserved":false,"is_disabled":false,"rental_uris":{"android":"levelo://app?vid=1ac4251c-6cc3-482a-b732-2a78b2d6ce13","ios":"levelo://app?vid=1ac4251c-6cc3-482a-b732-2a78b2d6ce13"},"vehicle_type_id":"4","last_reported":1743707249,"current_range_meters":12800,"station_id":"ce4bh192rcd13ifvqdb0","pricing_plan_id":"cebpf4jnsgd1na2vs0mg"},{"bike_id":"4463428e-f6c6-494a-931b-3e1bc5011a61","system_id":"levelo_inurba_marseille","lat":43.285665,"lon":5.391107,"is_reserved":false,"is_disabled":false,"rental_uris":{"android":"levelo://app?vid=4463428e-f6c6-494a-931b-3e1bc5011a61","ios":"levelo://app?vid=4463428e-f6c6-494a-931b-3e1bc5011a61"},"vehicle_type_id":"4","last_reported":1743707249,"current_range_meters":12800,"station_id":"ce4bh692rcd13ifvqea0","pricing_plan_id":"cebpf4jnsgd1na2vs0mg"},{"bike_id":"26de9ab4-b8ad-4e7c-854b-8126d7e29d18","system_id":"levelo_inurba_marseille","lat":43.30439,"lon":5.39758,"is_reserved":false,"is_disabled":false,"rental_uris":{"android":"levelo://app?vid=26de9ab4-b8ad-4e7c-854b-8126d7e29d18","ios":"levelo://app?vid=26de9ab4-b8ad-4e7c-854b-8126d7e29d18"},"vehicle_type_id":"4","last_reported":1743707249,"current_range_meters":12400,"station_id":"ce4bh092rcd13ifvqd20","pricing_plan_id":"cebpf4jnsgd1na2vs0mg"},{"bike_id":"f1e5f20d-e5bb-4349-9a72-f7ab8a004414","system_id":"levelo_inurba_marseille","lat":43.3032,"lon":5.40444,"is_reserved":false,"is_disabled":true,"rental_uris":{"android":"levelo://app?vid=f1e5f20d-e5bb-4349-9a72-f7ab8a004414","ios":"levelo://app?vid=f1e5f20d-e5bb-4349-9a72-f7ab8a004414"},"vehicle_type_id":"4","last_reported":1743707249,"current_range_meters":12800,"station_id":"ce4bh012rcd13ifvqd10","pricing_plan_id":"cebpf4jnsgd1na2vs0mg"},{"bike_id":"0da307f0-a737-4f3f-8786-4dd451d57e79","system_id":"levelo_inurba_marseille","lat":43.30875,"lon":5.36788,"is_reserved":false,"is_disabled":false,"rental_uris":{"android":"levelo://app?vid=0da307f0-a737-4f3f-8786-4dd451d57e79","ios":"levelo://app?vid=0da307f0-a737-4f3f-8786-4dd451d57e79"},"vehicle_type_id":"4","last_reported":1743707249,"current_range_meters":13600,"station_id":"","pricing_plan_id":"cebpf4jnsgd1na2vs0mg"},{"bike_id":"59db9786-7d0c-4870-b6e9-df9c4ab5f946","system_id":"levelo_inurba_marseille","lat":43.29417,"lon":5.38622,"is_reserved":false,"is_disabled":false,"rental_uris":{"android":"levelo://app?vid=59db9786-7d0c-4870-b6e9-df9c4ab5f946","ios":"levelo://app?vid=59db9786-7d0c-4870-b6e9-df9c4ab5f946"},"vehicle_type_id":"4","last_reported":1743707249,"current_range_meters":13600,"station_id":"ce4bh2h2rcd13ifvqdh0","pricing_plan_id":"cebpf4jnsgd1na2vs0mg"},{"bike_id":"49ff43cb-e4c6-4545-b1a6-b74ea1f55189","system_id":"levelo_inurba_marseille","lat":43.29849,"lon":5.36284,"is_reserved":false,"is_disabled":false,"rental_uris":{"android":"levelo://app?vid=49ff43cb-e4c6-4545-b1a6-b74ea1f55189","ios":"levelo://app?vid=49ff43cb-e4c6-4545-b1a6-b74ea1f55189"},"vehicle_type_id":"4","last_reported":1743707249,"current_range_meters":12800,"station_id":"ce4bgpp2rcd13ifvqc3g","pricing_plan_id":"cebpf4jnsgd1na2vs0mg"},{"bike_id":"27d773f5-abc4-4449-8646-4689393ad8e9","system_id":"levelo_inurba_marseille","lat":43.30133,"lon":5.38781,"is_reserved":false,"is_disabled":false,"rental_uris":{"android":"levelo://app?vid=27d773f5-abc4-4449-8646-4689393ad8e9","ios":"levelo://app?vid=27d773f5-abc4-4449-8646-4689393ad8e9"},"vehicle_type_id":"4","last_reported":1743707249,"current_range_meters":12800,"station_id":"ce4bghh2rcd13ifvqb60","pricing_plan_id":"cebpf4jnsgd1na2vs0mg"},{"bike_id":"98c952e9-dab2-4620-82fc-82fe9fbeb329","system_id":"levelo_inurba_marseille","lat":43.29532,"lon":5.38557,"is_reserved":false,"is_disabled":false,"rental_uris":{"android":"levelo://app?vid=98c952e9-dab2-4620-82fc-82fe9fbeb329","ios":"levelo://app?vid=98c952e9-dab2-4620-82fc-82fe9fbeb329"},"vehicle_type_id":"4","last_reported":1743707249,"current_range_meters":13600,"station_id":"ce4bgih2rcd13ifvqba0","pricing_plan_id":"cebpf4jnsgd1na2vs0mg"},{"bike_id":"6f265f94-717f-47cc-a3f0-d8fbcc3aef74","system_id":"levelo_inurba_marseille","lat":43.29531,"lon":5.38553,"is_reserved":false,"is_disabled":false,"rental_uris":{"android":"levelo://app?vid=6f265f94-717f-47cc-a3f0-d8fbcc3aef74","ios":"levelo://app?vid=6f265f94-717f-47cc-a3f0-d8fbcc3aef74"},"vehicle_type_id":"4","last_reported":1743707249,"current_range_meters":13600,"station_id":"ce4bgih2rcd13ifvqba0","pricing_plan_id":"cebpf4jnsgd1na2vs0mg"},{"bike_id":"42f532f2-d7bd-4c2e-8810-585bc9998121","system_id":"levelo_inurba_marseille","lat":43.29296,"lon":5.38459,"is_reserved":false,"is_disabled":false,"rental_uris":{"android":"levelo://app?vid=42f532f2-d7bd-4c2e-8810-585bc9998121","ios":"levelo://app?vid=42f532f2-d7bd-4c2e-8810-585bc9998121"},"vehicle_type_id":"4","last_reported":1743707249,"current_range_meters":13600,"station_id":"ce4bh692rcd13ifvqea0","pricing_plan_id":"cebpf4jnsgd1na2vs0mg"},{"bike_id":"74a13a18-430a-4f50-ba26-e7dfbad23482","system_id":"levelo_inurba_marseille","lat":43.23063,"lon":5.35491,"is_reserved":false,"is_disabled":false,"rental_uris":{"android":"levelo://app?vid=74a13a18-430a-4f50-ba26-e7dfbad23482","ios":"levelo://app?vid=74a13a18-430a-4f50-ba26-e7dfbad23482"},"vehicle_type_id":"4","last_reported":1743707249,"current_range_meters":13600,"station_id":"cpo3342slgdg3j2ifvpg","pricing_plan_id":"cebpf4jnsgd1na2vs0mg"},{"bike_id":"9396f31d-e485-4f45-a818-9888089b5bb6","system_id":"levelo_inurba_marseille","lat":43.23199,"lon":5.35564,"is_reserved":false,"is_disabled":false,"rental_uris":{"android":"levelo://app?vid=9396f31d-e485-4f45-a818-9888089b5bb6","ios":"levelo://app?vid=9396f31d-e485-4f45-a818-9888089b5bb6"},"vehicle_type_id":"4","last_reported":1743707249,"current_range_meters":13600,"station_id":"ce4bhu92rcd13ifvqi70","pricing_plan_id":"cebpf4jnsgd1na2vs0mg"},{"bike_id":"c6862948-1edf-4fc3-a5ff-69194aa75788","system_id":"levelo_inurba_marseille","lat":43.26226,"lon":5.40461,"is_reserved":false,"is_disabled":false,"rental_uris":{"android":"levelo://app?vid=c6862948-1edf-4fc3-a5ff-69194aa75788","ios":"levelo://app?vid=c6862948-1edf-4fc3-a5ff-69194aa75788"},"vehicle_type_id":"4","last_reported":1743707249,"current_range_meters":14000,"station_id":"ce4bhmh2rcd13ifvqgmg","pricing_plan_id":"cebpf4jnsgd1na2vs0mg"},{"bike_id":"79fb6a36-eb6f-49e8-a73d-1646d200cbf5","system_id":"levelo_inurba_marseille","lat":43.33132,"lon":5.39573,"is_reserved":false,"is_disabled":false,"rental_uris":{"android":"levelo://app?vid=79fb6a36-eb6f-49e8-a73d-1646d200cbf5","ios":"levelo://app?vid=79fb6a36-eb6f-49e8-a73d-1646d200cbf5"},"vehicle_type_id":"4","last_reported":1743707249,"current_range_meters":14000,"station_id":"","pricing_plan_id":"cebpf4jnsgd1na2vs0mg"},{"bike_id":"81f4fa39-fcae-4eb6-936b-4c640b5dd88e","system_id":"levelo_inurba_marseille","lat":43.23963,"lon":5.36629,"is_reserved":false,"is_disabled":false,"rental_uris":{"android":"levelo://app?vid=81f4fa39-fcae-4eb6-936b-4c640b5dd88e","ios":"levelo://app?vid=81f4fa39-fcae-4eb6-936b-4c640b5dd88e"},"vehicle_type_id":"4","last_reported":1743707249,"current_range_meters":14000,"station_id":"ce4bhi12rcd13ifvqfp0","pricing_plan_id":"cebpf4jnsgd1na2vs0mg"},{"bike_id":"12a4927d-7630-458e-8378-d7c426acbf93","system_id":"levelo_inurba_marseille","lat":43.29423,"lon":5.38622,"is_reserved":false,"is_disabled":false,"rental_uris":{"android":"levelo://app?vid=12a4927d-7630-458e-8378-d7c426acbf93","ios":"levelo://app?vid=12a4927d-7630-458e-8378-d7c426acbf93"},"vehicle_type_id":"4","last_reported":1743707249,"current_range_meters":14000,"station_id":"ce4bh2h2rcd13ifvqdh0","pricing_plan_id":"cebpf4jnsgd1na2vs0mg"},{"bike_id":"42fadadd-58be-41f7-96ef-7397eccf4964","system_id":"levelo_inurba_marseille","lat":43.29419,"lon":5.38632,"is_reserved":false,"is_disabled":false,"rental_uris":{"android":"levelo://app?vid=42fadadd-58be-41f7-96ef-7397eccf4964","ios":"levelo://app?vid=42fadadd-58be-41f7-96ef-7397eccf4964"},"vehicle_type_id":"4","last_reported":1743707249,"current_range_meters":14000,"station_id":"ce4bh2h2rcd13ifvqdh0","pricing_plan_id":"cebpf4jnsgd1na2vs0mg"},{"bike_id":"266c3b32-3559-493d-8f0a-9a6f7ea354d8","system_id":"levelo_inurba_marseille","lat":43.29405,"lon":5.3862,"is_reserved":false,"is_disabled":false,"rental_uris":{"android":"levelo://app?vid=266c3b32-3559-493d-8f0a-9a6f7ea354d8","ios":"levelo://app?vid=266c3b32-3559-493d-8f0a-9a6f7ea354d8"},"vehicle_type_id":"4","last_reported":1743707249,"current_range_meters":14000,"station_id":"ce4bh2h2rcd13ifvqdh0","pricing_plan_id":"cebpf4jnsgd1na2vs0mg"},{"bike_id":"ed034283-1492-4da7-9409-35bdead80f30","system_id":"levelo_inurba_marseille","lat":43.30133,"lon":5.38783,"is_reserved":false,"is_disabled":true,"rental_uris":{"android":"levelo://app?vid=ed034283-1492-4da7-9409-35bdead80f30","ios":"levelo://app?vid=ed034283-1492-4da7-9409-35bdead80f30"},"vehicle_type_id":"4","last_reported":1743707249,"current_range_meters":14000,"station_id":"ce4bghh2rcd13ifvqb60","pricing_plan_id":"cebpf4jnsgd1na2vs0mg"},{"bike_id":"19224d95-e048-4cbb-8884-43e0e6b3db9b","system_id":"levelo_inurba_marseille","lat":43.29869,"lon":5.39737,"is_reserved":false,"is_disabled":true,"rental_uris":{"android":"levelo://app?vid=19224d95-e048-4cbb-8884-43e0e6b3db9b","ios":"levelo://app?vid=19224d95-e048-4cbb-8884-43e0e6b3db9b"},"vehicle_type_id":"4","last_reported":1743707249,"current_range_meters":14000,"station_id":"ce4bh0h2rcd13ifvqd50","pricing_plan_id":"cebpf4jnsgd1na2vs0mg"},{"bike_id":"38fc986d-b07d-483d-8662-9cc3d2ebc616","system_id":"levelo_inurba_marseille","lat":43.2873,"lon":5.36082,"is_reserved":false,"is_disabled":false,"rental_uris":{"android":"levelo://app?vid=38fc986d-b07d-483d-8662-9cc3d2ebc616","ios":"levelo://app?vid=38fc986d-b07d-483d-8662-9cc3d2ebc616"},"vehicle_type_id":"4","last_reported":1743707249,"current_range_meters":14000,"station_id":"cki0cbj6b192h4jlfktg","pricing_plan_id":"cebpf4jnsgd1na2vs0mg"},{"bike_id":"1423e46b-aad1-4364-87cd-e9ef81c7fd9e","system_id":"levelo_inurba_marseille","lat":43.28162,"lon":5.42674,"is_reserved":false,"is_disabled":false,"rental_uris":{"android":"levelo://app?vid=1423e46b-aad1-4364-87cd-e9ef81c7fd9e","ios":"levelo://app?vid=1423e46b-aad1-4364-87cd-e9ef81c7fd9e"},"vehicle_type_id":"4","last_reported":1743707249,"current_range_meters":14000,"station_id":"ce4bhnh2rcd13ifvqgug","pricing_plan_id":"cebpf4jnsgd1na2vs0mg"},{"bike_id":"65c86302-8ef0-46f4-ab6e-bac7149a2865","system_id":"levelo_inurba_marseille","lat":43.32107,"lon":5.36781,"is_reserved":false,"is_disabled":false,"rental_uris":{"android":"levelo://app?vid=65c86302-8ef0-46f4-ab6e-bac7149a2865","ios":"levelo://app?vid=65c86302-8ef0-46f4-ab6e-bac7149a2865"},"vehicle_type_id":"4","last_reported":1743707249,"current_range_meters":14000,"station_id":"ce4bhrh2rcd13ifvqhug","pricing_plan_id":"cebpf4jnsgd1na2vs0mg"},{"bike_id":"738b48b2-3c01-4eec-9f7f-f3973989f9cd","system_id":"levelo_inurba_marseille","lat":43.29691,"lon":5.37309,"is_reserved":false,"is_disabled":false,"rental_uris":{"android":"levelo://app?vid=738b48b2-3c01-4eec-9f7f-f3973989f9cd","ios":"levelo://app?vid=738b48b2-3c01-4eec-9f7f-f3973989f9cd"},"vehicle_type_id":"4","last_reported":1743707249,"current_range_meters":13600,"station_id":"ce4bgk12rcd13ifvqbj0","pricing_plan_id":"cebpf4jnsgd1na2vs0mg"},{"bike_id":"821620e4-ad6d-4bf4-9100-664ee25fd19f","system_id":"levelo_inurba_marseille","lat":43.29425,"lon":5.386,"is_reserved":false,"is_disabled":false,"rental_uris":{"android":"levelo://app?vid=821620e4-ad6d-4bf4-9100-664ee25fd19f","ios":"levelo://app?vid=821620e4-ad6d-4bf4-9100-664ee25fd19f"},"vehicle_type_id":"4","last_reported":1743707249,"current_range_meters":14400,"station_id":"ce4bh2h2rcd13ifvqdh0","pricing_plan_id":"cebpf4jnsgd1na2vs0mg"},{"bike_id":"3a0b0f90-790c-4160-b50c-b4d5547d0490","system_id":"levelo_inurba_marseille","lat":43.30372,"lon":5.42485,"is_reserved":false,"is_disabled":false,"rental_uris":{"android":"levelo://app?vid=3a0b0f90-790c-4160-b50c-b4d5547d0490","ios":"levelo://app?vid=3a0b0f90-790c-4160-b50c-b4d5547d0490"},"vehicle_type_id":"4","last_reported":1743707249,"current_range_meters":14400,"station_id":"ce4bhoh2rcd13ifvqh6g","pricing_plan_id":"cebpf4jnsgd1na2vs0mg"},{"bike_id":"758c2355-846a-4f3d-bcd8-eac4b3145cd6","system_id":"levelo_inurba_marseille","lat":43.23212,"lon":5.35557,"is_reserved":false,"is_disabled":false,"rental_uris":{"android":"levelo://app?vid=758c2355-846a-4f3d-bcd8-eac4b3145cd6","ios":"levelo://app?vid=758c2355-846a-4f3d-bcd8-eac4b3145cd6"},"vehicle_type_id":"4","last_reported":1743707249,"current_range_meters":14400,"station_id":"ce4bhu92rcd13ifvqi70","pricing_plan_id":"cebpf4jnsgd1na2vs0mg"},{"bike_id":"b82bba1a-8c72-4058-95d3-7a18eb5187df","system_id":"levelo_inurba_marseille","lat":43.30093,"lon":5.391,"is_reserved":false,"is_disabled":false,"rental_uris":{"android":"levelo://app?vid=b82bba1a-8c72-4058-95d3-7a18eb5187df","ios":"levelo://app?vid=b82bba1a-8c72-4058-95d3-7a18eb5187df"},"vehicle_type_id":"4","last_reported":1743707249,"current_range_meters":14400,"station_id":"ce4bh192rcd13ifvqdb0","pricing_plan_id":"cebpf4jnsgd1na2vs0mg"},{"bike_id":"fb348b09-6abb-47a4-a266-91f2eeaee291","system_id":"levelo_inurba_marseille","lat":43.32111,"lon":5.36777,"is_reserved":false,"is_disabled":false,"rental_uris":{"android":"levelo://app?vid=fb348b09-6abb-47a4-a266-91f2eeaee291","ios":"levelo://app?vid=fb348b09-6abb-47a4-a266-91f2eeaee291"},"vehicle_type_id":"4","last_reported":1743707249,"current_range_meters":14800,"station_id":"ce4bhrh2rcd13ifvqhug","pricing_plan_id":"cebpf4jnsgd1na2vs0mg"},