{"last_updated":1722287359,"ttl":30,"version":"2.2","data":{"bikes":[{"bike_id":"def5710e-d266-4f5d-9f1f-fd3103fccbef","system_id":"levelo_inurba_marseille","lat":43.31243,"lon":5.36825,"is_reserved":false,"is_disabled":false,"rental_uris":{"android":"levelo://app?vid=def5710e-d266-4f5d-9f1f-fd3103fccbef","ios":"levelo://app?vid=def5710e-d266-4f5d-9f1f-fd3103fccbef"},"vehicle_type_id":"4","last_reported":1722287359,"current_range_meters":2000,"station_id":"","pricing_plan_id":"cebpf4jnsgd1na2vs0mg"},{"bike_id":"6860c33a-87a4-491d-a63e-31996f4ae32c","system_id":"levelo_inurba_marseille","lat":43.312239,"lon":5.368562,"is_reserved":false,"is_disabled":false,"rental_uris":{"android":"levelo://app?vid=6860c33a-87a4-491d-a63e-31996f4ae32c","ios":"levelo://app?vid=6860c33a-87a4-491d-a63e-31996f4ae32c"},"vehicle_type_id":"4","last_reported":1722287359,"current_range_meters":19200,"station_id":"ce4bgl92rcd13ifvqbq0","pricing_plan_id":"cebpf4jnsgd1na2vs0mg"},{"bike_id":"b600dce5-74ab-44b3-982c-e3b3c401978b","system_id":"levelo_inurba_marseille","lat":43.31233,"lon":5.36878,"is_reserved":false,"is_disabled":false,"rental_uris":{"android":"levelo://app?vid=b600dce5-74ab-44b3-982c-e3b3c401978b","ios":"levelo://app?vid=b600dce5-74ab-44b3-982c-e3b3c401978b"},"vehicle_type_id":"4","last_reported":1722287359,"current_range_meters":0,"station_id":"ce4bgl92rcd13ifvqbq0","pricing_plan_id":"cebpf4jnsgd1na2vs0mg"},{"bike_id":"8e7bcd4f-ca4b-407d-9b14-741fe7e5fc5d","system_id":"levelo_inurba_marseille","lat":43.312239,"lon":5.368562,"is_reserved":false,"is_disabled":false,"rental_uris":{"android":"levelo://app?vid=8e7bcd4f-ca4b-407d-9b14-741fe7e5fc5d","ios":"levelo://app?vid=8e7bcd4f-ca4b-407d-9b14-741fe7e5fc5d"},"vehicle_type_id":"4","last_reported":1722287359,"current_range_meters":3600,"station_id":"ce4bgl92rcd13ifvqbq0","pricing_plan_id":"cebpf4jnsgd1na2vs0mg"},{"bike_id":"3eadd90b-bd25-4873-9d41-3124bcd69f80","system_id":"levelo_inurba_marseille","lat":43.312239,"lon":5.368562,"is_reserved":false,"is_disabled":false,"rental_uris":{"android":"levelo://app?vid=3eadd90b-bd25-4873-9d41-3124bcd69f80","ios":"levelo://app?vid=3eadd90b-bd25-4873-9d41-3124bcd69f80"},"vehicle_type_id":"4","last_reported":1722287359,"current_range_meters":8400,"station_id":"ce4bgl92rcd13ifvqbq0","pricing_plan_id":"cebpf4jnsgd1na2vs0mg"},{"bike_id":"afea0e28-fa0f-4272-a0c2-0c5cf610ce4a","system_id":"levelo_inurba_marseille","lat":43.309076,"lon":5.368465,"is_reserved":false,"is_disabled":false,"rental_uris":{"android":"levelo://app?vid=afea0e28-fa0f-4272-a0c2-0c5cf610ce4a","ios":"levelo://app?vid=afea0e28-fa0f-4272-a0c2-0c5cf610ce4a"},"vehicle_type_id":"4","last_reported":1722287359,"current_range_meters":10800,"station_id":"ce4bgn92rcd13ifvqbvg","pricing_plan_id":"cebpf4jnsgd1na2vs0mg"},{"bike_id":"322fea0e-8634-423b-adc9-3d77979cdd0b","system_id":"levelo_inurba_marseille","lat":43.314755,"lon":5.372258,"is_reserved":false,"is_disabled":false,"rental_uris":{"android":"levelo://app?vid=322fea0e-8634-423b-adc9-3d77979cdd0b","ios":"levelo://app?vid=322fea0e-8634-423b-adc9-3d77979cdd0b"},"vehicle_type_id":"4","last_reported":1722287359,"current_range_meters":0,"station_id":"ce4bgt12rcd13ifvqcd0","pricing_plan_id":"cebpf4jnsgd1na2vs0mg"},{"bike_id":"748d07c9-a5c5-4bb4-8371-dc4bf9e13949","system_id":"levelo_inurba_marseille","lat":43.309034,"lon":5.371783,"is_reserved":false,"is_disabled":false,"rental_uris":{"android":"levelo://app?vid=748d07c9-a5c5-4bb4-8371-dc4bf9e13949","ios":"levelo://app?vid=748d07c9-a5c5-4bb4-8371-dc4bf9e13949"},"vehicle_type_id":"4","last_reported":1722287359,"current_range_meters":25200,"station_id":"ce4bguh2rcd13ifvqckg","pricing_plan_id":"cebpf4jnsgd1na2vs0mg"},{"bike_id":"45dc0ebc-5284-4635-b195-1956cf4f950a","system_id":"levelo_inurba_marseille","lat":43.309034,"lon":5.371783,"is_reserved":false,"is_disabled":false,"rental_uris":{"android":"levelo://app?vid=45dc0ebc-5284-4635-b195-1956cf4f950a","ios":"levelo://app?vid=45dc0ebc-5284-4635-b195-1956cf4f950a"},"vehicle_type_id":"4","last_reported":1722287359,"current_range_meters":18800,"station_id":"ce4bguh2rcd13ifvqckg","pricing_plan_id":"cebpf4jnsgd1na2vs0mg"},{"bike_id":"45dc4f9a-2c69-4abc-89f3-bdb47f67e96e","system_id":"levelo_inurba_marseille","lat":43.305989,"lon":5.37225,"is_reserved":false,"is_disabled":false,"rental_uris":{"android":"levelo://app?vid=45dc4f9a-2c69-4abc-89f3-bdb47f67e96e","ios":"levelo://app?vid=45dc4f9a-2c69-4abc-89f3-bdb47f67e96e"},"vehicle_type_id":"4","last_reported":1722287359,"current_range_meters":10800,"station_id":"ce4bgqh2rcd13ifvqc4g","pricing_plan_id":"cebpf4jnsgd1na2vs0mg"},{"bike_id":"af8b3c68-2567-40f5-a520-72eff7856332","system_id":"levelo_inurba_marseille","lat":43.305989,"lon":5.37225,"is_reserved":false,"is_disabled":false,"rental_uris":{"android":"levelo://app?vid=af8b3c68-2567-40f5-a520-72eff7856332","ios":"levelo://app?vid=af8b3c68-2567-40f5-a520-72eff7856332"},"vehicle_type_id":"4","last_reported":1722287359,"current_range_meters":9600,"station_id":"ce4bgqh2rcd13ifvqc4g","pricing_plan_id":"cebpf4jnsgd1na2vs0mg"},{"bike_id":"57530662-da69-4797-9d15-c8c6a37c05f7","system_id":"levelo_inurba_marseille","lat":43.305989,"lon":5.37225,"is_reserved":false,"is_disabled":false,"rental_uris":{"android":"levelo://app?vid=57530662-da69-4797-9d15-c8c6a37c05f7","ios":"levelo://app?vid=57530662-da69-4797-9d15-c8c6a37c05f7"},"vehicle_type_id":"4","last_reported":1722287359,"current_range_meters":31200,"station_id":"ce4bgqh2rcd13ifvqc4g","pricing_plan_id":"cebpf4jnsgd1na2vs0mg"},{"bike_id":"5fc67278-82a2-4af1-8354-c065f88cafc8","system_id":"levelo_inurba_marseille","lat":43.305989,"lon":5.37225,"is_reserved":false,"is_disabled":false,"rental_uris":{"android":"levelo://app?vid=5fc67278-82a2-4af1-8354-c065f88cafc8","ios":"levelo://app?vid=5fc67278-82a2-4af1-8354-c065f88cafc8"},"vehicle_type_id":"4","last_reported":1722287359,"current_range_meters":6400,"station_id":"ce4bgqh2rcd13ifvqc4g","pricing_plan_id":"cebpf4jnsgd1na2vs0mg"},{"bike_id":"1efe3508-61b9-4347-a2bf-ff1d22e1ef7a","system_id":"levelo_inurba_marseille","lat":43.305989,"lon":5.37225,"is_reserved":false,"is_disabled":false,"rental_uris":{"android":"levelo://app?vid=1efe3508-61b9-4347-a2bf-ff1d22e1ef7a","ios":"levelo://app?vid=1efe3508-61b9-4347-a2bf-ff1d22e1ef7a"},"vehicle_type_id":"4","last_reported":1722287359,"current_range_meters":31600,"station_id":"ce4bgqh2rcd13ifvqc4g","pricing_plan_id":"cebpf4jnsgd1na2vs0mg"},{"bike_id":"146a08bd-a7ed-4ffb-a52d-932f354643b9","system_id":"levelo_inurba_marseille","lat":43.305989,"lon":5.37225,"is_reserved":false,"is_disabled":false,"rental_uris":{"android":"levelo://app?vid=146a08bd-a7ed-4ffb-a52d-932f354643b9","ios":"levelo://app?vid=146a08bd-a7ed-4ffb-a52d-932f354643b9"},"vehicle_type_id":"4","last_reported":1722287359,"current_range_meters":7600,"station_id":"ce4bgqh2rcd13ifvqc4g","pricing_plan_id":"cebpf4jnsgd1na2vs0mg"},{"bike_id":"623c8a28-14cc-47a3-a382-34dabd2c323c","system_id":"levelo_inurba_marseille","lat":43.305989,"lon":5.37225,"is_reserved":false,"is_disabled":false,"rental_uris":{"android":"levelo://app?vid=623c8a28-14cc-47a3-a382-34dabd2c323c","ios":"levelo://app?vid=623c8a28-14cc-47a3-a382-34dabd2c323c"},"vehicle_type_id":"4","last_reported":1722287359,"current_range_meters":8000,"station_id":"ce4bgqh2rcd13ifvqc4g","pricing_plan_id":"cebpf4jnsgd1na2vs0mg"},{"bike_id":"e6574eae-1d63-4792-91dd-eaec8b9a073d","system_id":"levelo_inurba_marseille","lat":43.311125,"lon":5.377624,"is_reserved":false,"is_disabled":false,"rental_uris":{"android":"levelo://app?vid=e6574eae-1d63-4792-91dd-eaec8b9a073d","ios":"levelo://app?vid=e6574eae-1d63-4792-91dd-eaec8b9a073d"},"vehicle_type_id":"4","last_reported":1722287359,"current_range_meters":18800,"station_id":"ce4bgt92rcd13ifvqcg0","pricing_plan_id":"cebpf4jnsgd1na2vs0mg"},{"bike_id":"636b6b98-514f-4e50-9ba0-0a6085e416d0","system_id":"levelo_inurba_marseille","lat":43.307945,"lon":5.376487,"is_reserved":false,"is_disabled":false,"rental_uris":{"android":"levelo://app?vid=636b6b98-514f-4e50-9ba0-0a6085e416d0","ios":"levelo://app?vid=636b6b98-514f-4e50-9ba0-0a6085e416d0"},"vehicle_type_id":"4","last_reported":1722287359,"current_range_meters":14400,"station_id":"ce4bgv92rcd13ifvqcq0","pricing_plan_id":"cebpf4jnsgd1na2vs0mg"},{"bike_id":"aff9d9e1-0755-441d-b3d9-43c937a8a802","system_id":"levelo_inurba_marseille","lat":43.307945,"lon":5.376487,"is_reserved":false,"is_disabled":false,"rental_uris":{"android":"levelo://app?vid=aff9d9e1-0755-441d-b3d9-43c937a8a802","ios":"levelo://app?vid=aff9d9e1-0755-441d-b3d9-43c937a8a802"},"vehicle_type_id":"4","last_reported":1722287359,"current_range_meters":12000,"station_id":"ce4bgv92rcd13ifvqcq0","pricing_plan_id":"cebpf4jnsgd1na2vs0mg"},{"bike_id":"3437cab5-4d61-41f2-9e9e-de07a1900aff","system_id":"levelo_inurba_marseille","lat":43.307945,"lon":5.376487,"is_reserved":false,"is_disabled":false,"rental_uris":{"android":"levelo://app?vid=3437cab5-4d61-41f2-9e9e-de07a1900aff","ios":"levelo://app?vid=3437cab5-4d61-41f2-9e9e-de07a1900aff"},"vehicle_type_id":"4","last_reported":1722287359,"current_range_meters":31600,"station_id":"ce4bgv92rcd13ifvqcq0","pricing_plan_id":"cebpf4jnsgd1na2vs0mg"},{"bike_id":"6a62307c-8770-4e1f-9993-fe65ba895ebf","system_id":"levelo_inurba_marseille","lat":43.307945,"lon":5.376487,"is_reserved":false,"is_disabled":false,"rental_uris":{"android":"levelo://app?vid=6a62307c-8770-4e1f-9993-fe65ba895ebf","ios":"levelo://app?vid=6a62307c-8770-4e1f-9993-fe65ba895ebf"},"vehicle_type_id":"4","last_reported":1722287359,"current_range_meters":5600,"station_id":"ce4bgv92rcd13ifvqcq0","pricing_plan_id":"cebpf4jnsgd1na2vs0mg"},{"bike_id":"52168e9c-4ab2-4c91-860a-ae11ae35f7c5","system_id":"levelo_inurba_marseille","lat":43.317075,"lon":5.377367,"is_reserved":false,"is_disabled":false,"rental_uris":{"android":"levelo://app?vid=52168e9c-4ab2-4c91-860a-ae11ae35f7c5","ios":"levelo://app?vid=52168e9c-4ab2-4c91-860a-ae11ae35f7c5"},"vehicle_type_id":"4","last_reported":1722287359,"current_range_meters":28000,"station_id":"ce4bgth2rcd13ifvqch0","pricing_plan_id":"cebpf4jnsgd1na2vs0mg"},{"bike_id":"e31f90ea-7cca-4dcb-bfc9-467e6c9667a0","system_id":"levelo_inurba_marseille","lat":43.317075,"lon":5.377367,"is_reserved":false,"is_disabled":false,"rental_uris":{"android":"levelo://app?vid=e31f90ea-7cca-4dcb-bfc9-467e6c9667a0","ios":"levelo://app?vid=e31f90ea-7cca-4dcb-bfc9-467e6c9667a0"},"vehicle_type_id":"4","last_reported":1722287359,"current_range_meters":26000,"station_id":"ce4bgth2rcd13ifvqch0","pricing_plan_id":"cebpf4jnsgd1na2vs0mg"},{"bike_id":"b8280a5e-10c9-4932-93ef-c7e48a1330df","system_id":"levelo_inurba_marseille","lat":43.317075,"lon":5.377367,"is_reserved":false,"is_disabled":false,"rental_uris":{"android":"levelo://app?vid=b8280a5e-10c9-4932-93ef-c7e48a1330df","ios":"levelo://app?vid=b8280a5e-10c9-4932-93ef-c7e48a1330df"},"vehicle_type_id":"4","last_reported":1722287359,"current_range_meters":10800,"station_id":"ce4bgth2rcd13ifvqch0","pricing_plan_id":"cebpf4jnsgd1na2vs0mg"},{"bike_id":"d0622db4-89f7-4aed-8e71-4f426048d943","system_id":"levelo_inurba_marseille","lat":43.317075,"lon":5.377367,"is_reserved":false,"is_disabled":false,"rental_uris":{"android":"levelo://app?vid=d0622db4-89f7-4aed-8e71-4f426048d943","ios":"levelo://app?vid=d0622db4-89f7-4aed-8e71-4f426048d943"},"vehicle_type_id":"4","last_reported":1722287359,"current_range_meters":6000,"station_id":"ce4bgth2rcd13ifvqch0","pricing_plan_id":"cebpf4jnsgd1na2vs0mg"},{"bike_id":"2da070f6-a457-4b0a-8ec2-7005b9088380","system_id":"levelo_inurba_marseille","lat":43.315289,"lon":5.380349,"is_reserved":false,"is_disabled":false,"rental_uris":{"android":"levelo://app?vid=2da070f6-a457-4b0a-8ec2-7005b9088380","ios":"levelo://app?vid=2da070f6-a457-4b0a-8ec2-7005b9088380"},"vehicle_type_id":"4","last_reported":1722287359,"current_range_meters":8000,"station_id":"ce4bhsp2rcd13ifvqi50","pricing_plan_id":"cebpf4jnsgd1na2vs0mg"},{"bike_id":"62d70331-2d58-4982-96f4-dc9e01b71c66","system_id":"levelo_inurba_marseille","lat":43.301939,"lon":5.366286,"is_reserved":false,"is_disabled":false,"rental_uris":{"android":"levelo://app?vid=62d70331-2d58-4982-96f4-dc9e01b71c66","ios":"levelo://app?vid=62d70331-2d58-4982-96f4-dc9e01b71c66"},"vehicle_type_id":"4","last_reported":1722287359,"current_range_meters":23200,"station_id":"ce4bgrh2rcd13ifvqc8g","pricing_plan_id":"cebpf4jnsgd1na2vs0mg"},{"bike_id":"55a64758-06b7-4c3c-8a48-f0135d95c1b1","system_id":"levelo_inurba_marseille","lat":43.308012,"lon":5.381511,"is_reserved":false,"is_disabled":false,"rental_uris":{"android":"levelo://app?vid=55a64758-06b7-4c3c-8a48-f0135d95c1b1","ios":"levelo://app?vid=55a64758-06b7-4c3c-8a48-f0135d95c1b1"},"vehicle_type_id":"4","last_reported":1722287359,"current_range_meters":2800,"station_id":"ce4bgt12rcd13ifvqce0","pricing_plan_id":"cebpf4jnsgd1na2vs0mg"},{"bike_id":"11337172-1a4d-4988-9bbe-cc581a9cae76","system_id":"levelo_inurba_marseille","lat":43.308012,"lon":5.381511,"is_reserved":false,"is_disabled":false,"rental_uris":{"android":"levelo://app?vid=11337172-1a4d-4988-9bbe-cc581a9cae76","ios":"levelo://app?vid=11337172-1a4d-4988-9bbe-cc581a9cae76"},"vehicle_type_id":"4","last_reported":1722287359,"current_range_meters":12400,"station_id":"ce4bgt12rcd13ifvqce0","pricing_plan_id":"cebpf4jnsgd1na2vs0mg"},{"bike_id":"5a0d9dcf-3c9e-48d6-ab7e-efc6d8e4c83c","system_id":"levelo_inurba_marseille","lat":43.308012,"lon":5.381511,"is_reserved":false,"is_disabled":false,"rental_uris":{"android":"levelo://app?vid=5a0d9dcf-3c9e-48d6-ab7e-efc6d8e4c83c","ios":"levelo://app?vid=5a0d9dcf-3c9e-48d6-ab7e-efc6d8e4c83c"},"vehicle_type_id":"4","last_reported":1722287359,"current_range_meters":6800,"station_id":"ce4bgt12rcd13ifvqce0","pricing_plan_id":"cebpf4jnsgd1na2vs0mg"},{"bike_id":"043658cf-9c92-481d-a650-4f1af8f46619","system_id":"levelo_inurba_marseille","lat":43.308012,"lon":5.381511,"is_reserved":false,"is_disabled":false,"rental_uris":{"android":"levelo://app?vid=043658cf-9c92-481d-a650-4f1af8f46619","ios":"levelo://app?vid=043658cf-9c92-481d-a650-4f1af8f46619"},"vehicle_type_id":"4","last_reported":1722287359,"current_range_meters":9600,"station_id":"ce4bgt12rcd13ifvqce0","pricing_plan_id":"cebpf4jnsgd1na2vs0mg"},{"bike_id":"2f1b83b8-7435-4ae5-a19b-da3bac9d804c","system_id":"levelo_inurba_marseille","lat":43.308012,"lon":5.381511,"is_reserved":false,"is_disabled":false,"rental_uris":{"android":"levelo://app?vid=2f1b83b8-7435-4ae5-a19b-da3bac9d804c","ios":"levelo://app?vid=2f1b83b8-7435-4ae5-a19b-da3bac9d804c"},"vehicle_type_id":"4","last_reported":1722287359,"current_range_meters":6800,"station_id":"ce4bgt12rcd13ifvqce0","pricing_plan_id":"cebpf4jnsgd1na2vs0mg"},{"bike_id":"8bdcfc44-430b-49d3-875c-6c48cd32b3d0","system_id":"levelo_inurba_marseille","lat":43.308012,"lon":5.381511,"is_reserved":false,"is_disabled":false,"rental_uris":{"android":"levelo://app?vid=8bdcfc44-430b-49d3-875c-6c48cd32b3d0","ios":"levelo://app?vid=8bdcfc44-430b-49d3-875c-6c48cd32b3d0"},"vehicle_type_id":"4","last_reported":1722287359,"current_range_meters":16400,"station_id":"ce4bgt12rcd13ifvqce0","pricing_plan_id":"cebpf4jnsgd1na2vs0mg"},{"bike_id":"c78fbc47-1b10-4287-ae4b-467375bd990d","system_id":"levelo_inurba_marseille","lat":43.30111,"lon":5.36444,"is_reserved":false,"is_disabled":false,"rental_uris":{"android":"levelo://app?vid=c78fbc47-1b10-4287-ae4b-467375bd990d","ios":"levelo://app?vid=c78fbc47-1b10-4287-ae4b-467375bd990d"},"vehicle_type_id":"4","last_reported":1722287359,"current_range_meters":0,"station_id":"","pricing_plan_id":"cebpf4jnsgd1na2vs0mg"},{"bike_id":"b860bb5f-523b-4242-a573-d5de8d277743","system_id":"levelo_inurba_marseille","lat":43.3069,"lon":5.381,"is_reserved":false,"is_disabled":false,"rental_uris":{"android":"levelo://app?vid=b860bb5f-523b-4242-a573-d5de8d277743","ios":"levelo://app?vid=b860bb5f-523b-4242-a573-d5de8d277743"},"vehicle_type_id":"4","last_reported":1722287359,"current_range_meters":800,"station_id":"","pricing_plan_id":"cebpf4jnsgd1na2vs0mg"},{"bike_id":"4975be64-f468-4a1e-b067-4145119b7b8d","system_id":"levelo_inurba_marseille","lat":43.324771,"lon":5.36557,"is_reserved":false,"is_disabled":false,"rental_uris":{"android":"levelo://app?vid=4975be64-f468-4a1e-b067-4145119b7b8d","ios":"levelo://app?vid=4975be64-f468-4a1e-b067-4145119b7b8d"},"vehicle_type_id":"4","last_reported":1722287359,"current_range_meters":24000,"station_id":"ce4bhs12rcd13ifvqhvg","pricing_plan_id":"cebpf4jnsgd1na2vs0mg"},{"bike_id":"cf07caa6-f665-4243-be8b-9fcc46aac601","system_id":"levelo_inurba_marseille","lat":43.324771,"lon":5.36557,"is_reserved":false,"is_disabled":false,"rental_uris":{"android":"levelo://app?vid=cf07caa6-f665-4243-be8b-9fcc46aac601","ios":"levelo://app?vid=cf07caa6-f665-4243-be8b-9fcc46aac601"},"vehicle_type_id":"4","last_reported":1722287359,"current_range_meters":29200,"station_id":"ce4bhs12rcd13ifvqhvg","pricing_plan_id":"cebpf4jnsgd1na2vs0mg"},{"bike_id":"99bd0741-5faa-4815-a2e1-13964c9aab5f","system_id":"levelo_inurba_marseille","lat":43.324771,"lon":5.36557,"is_reserved":false,"is_disabled":false,"rental_uris":{"android":"levelo://app?vid=99bd0741-5faa-4815-a2e1-13964c9aab5f","ios":"levelo://app?vid=99bd0741-5faa-4815-a2e1-13964c9aab5f"},"vehicle_type_id":"4","last_reported":1722287359,"current_range_meters":3200,"station_id":"ce4bhs12rcd13ifvqhvg","pricing_plan_id":"cebpf4jnsgd1na2vs0mg"},{"bike_id":"cf2295fe-e9a5-4fa3-992d-424feac9b7ac","system_id":"levelo_inurba_marseille","lat":43.324771,"lon":5.36557,"is_reserved":false,"is_disabled":false,"rental_uris":{"android":"levelo://app?vid=cf2295fe-e9a5-4fa3-992d-424feac9b7ac","ios":"levelo://app?vid=cf2295fe-e9a5-4fa3-992d-424feac9b7ac"},"vehicle_type_id":"4","last_reported":1722287359,"current_range_meters":5600,"station_id":"ce4bhs12rcd13ifvqhvg","pricing_plan_id":"cebpf4jnsgd1na2vs0mg"},{"bike_id":"bbc4a081-5d44-4c70-aca6-ba0be4373e40","system_id":"levelo_inurba_marseille","lat":43.324771,"lon":5.36557,"is_reserved":false,"is_disabled":false,"rental_uris":{"android":"levelo://app?vid=bbc4a081-5d44-4c70-aca6-ba0be4373e40","ios":"levelo://app?vid=bbc4a081-5d44-4c70-aca6-ba0be4373e40"},"vehicle_type_id":"4","last_reported":1722287359,"current_range_meters":26800,"station_id":"ce4bhs12rcd13ifvqhvg","pricing_plan_id":"cebpf4jnsgd1na2vs0mg"},{"bike_id":"2cea40d3-5fd0-4d75-8dd2-15c4087239df","system_id":"levelo_inurba_marseille","lat":43.324771,"lon":5.36557,"is_reserved":false,"is_disabled":false,"rental_uris":{"android":"levelo://app?vid=2cea40d3-5fd0-4d75-8dd2-15c4087239df","ios":"levelo://app?vid=2cea40d3-5fd0-4d75-8dd2-15c4087239df"},"vehicle_type_id":"4","last_reported":1722287359,"current_range_meters":29600,"station_id":"ce4bhs12rcd13ifvqhvg","pricing_plan_id":"cebpf4jnsgd1na2vs0mg"},{"bike_id":"cf683de5-3de5-4d99-8008-6d5a893bb89e","system_id":"levelo_inurba_marseille","lat":43.324771,"lon":5.36557,"is_reserved":false,"is_disabled":false,"rental_uris":{"android":"levelo://app?vid=cf683de5-3de5-4d99-8008-6d5a893bb89e","ios":"levelo://app?vid=cf683de5-3de5-4d99-8008-6d5a893bb89e"},"vehicle_type_id":"4","last_reported":1722287359,"current_range_meters":0,"station_id":"ce4bhs12rcd13ifvqhvg","pricing_plan_id":"cebpf4jnsgd1na2vs0mg"},{"bike_id":"67f2719d-efb7-437f-873c-145064bde10b","system_id":"levelo_inurba_marseille","lat":43.310804,"lon":5.38359,"is_reserved":false,"is_disabled":false,"rental_uris":{"android":"levelo://app?vid=67f2719d-efb7-437f-873c-145064bde10b","ios":"levelo://app?vid=67f2719d-efb7-437f-873c-145064bde10b"},"vehicle_type_id":"4","last_reported":1722287359,"current_range_meters":0,"station_id":"ce4bgv92rcd13ifvqcr0","pricing_plan_id":"cebpf4jnsgd1na2vs0mg"},{"bike_id":"a7c1ffd1-9fe0-4487-bf27-a30b2301a239","system_id":"levelo_inurba_marseille","lat":43.310804,"lon":5.38359,"is_reserved":false,"is_disabled":false,"rental_uris":{"android":"levelo://app?vid=a7c1ffd1-9fe0-4487-bf27-a30b2301a239","ios":"levelo://app?vid=a7c1ffd1-9fe0-4487-bf27-a30b2301a239"},"vehicle_type_id":"4","last_reported":1722287359,"current_range_meters":4000,"station_id":"ce4bgv92rcd13ifvqcr0","pricing_plan_id":"cebpf4jnsgd1na2vs0mg"},{"bike_id":"a5c63302-d1f4-4bd9-a350-b445a5c8c3eb","system_id":"levelo_inurba_marseille","lat":43.302784,"lon":5.377158,"is_reserved":false,"is_disabled":false,"rental_uris":{"android":"levelo://app?vid=a5c63302-d1f4-4bd9-a350-b445a5c8c3eb","ios":"levelo://app?vid=a5c63302-d1f4-4bd9-a350-b445a5c8c3eb"},"vehicle_type_id":"4","last_reported":1722287359,"current_range_meters":7200,"station_id":"ce4bguh2rcd13ifvqcj0","pricing_plan_id":"cebpf4jnsgd1na2vs0mg"},{"bike_id":"eeeb8765-97db-4675-a0a4-a673dbf14ff6","system_id":"levelo_inurba_marseille","lat":43.301429,"lon":5.37413,"is_reserved":false,"is_disabled":false,"rental_uris":{"android":"levelo://app?vid=eeeb8765-97db-4675-a0a4-a673dbf14ff6","ios":"levelo://app?vid=eeeb8765-97db-4675-a0a4-a673dbf14ff6"},"vehicle_type_id":"4","last_reported":1722287359,"current_range_meters":14000,"station_id":"ce4bgs92rcd13ifvqcc0","pricing_plan_id":"cebpf4jnsgd1na2vs0mg"},{"bike_id":"baff2518-192d-4e03-b6c8-80d7ae052787","system_id":"levelo_inurba_marseille","lat":43.30706,"lon":5.38249,"is_reserved":false,"is_disabled":false,"rental_uris":{"android":"levelo://app?vid=baff2518-192d-4e03-b6c8-80d7ae052787","ios":"levelo://app?vid=baff2518-192d-4e03-b6c8-80d7ae052787"},"vehicle_type_id":"4","last_reported":1722287359,"current_range_meters":400,"station_id":"","pricing_plan_id":"cebpf4jnsgd1na2vs0mg"},{"bike_id":"71c418ba-9c9e-47bf-af82-11a3bfe14db1","system_id":"levelo_inurba_marseille","lat":43.31992,"lon":5.38149,"is_reserved":false,"is_disabled":false,"rental_uris":{"android":"levelo://app?vid=71c418ba-9c9e-47bf-af82-11a3bfe14db1","ios":"levelo://app?vid=71c418ba-9c9e-47bf-af82-11a3bfe14db1"},"vehicle_type_id":"4","last_reported":1722287359,"current_range_meters":400,"station_id":"ce4bhr12rcd13ifvqhpg","pricing_plan_id":"cebpf4jnsgd1na2vs0mg"},{"bike_id":"a0aacf68-221f-44ff-a245-f29c8bd7eae7","system_id":"levelo_inurba_marseille","lat":43.313571,"lon":5.384829,"is_reserved":false,"is_disabled":false,"rental_uris":{"android":"levelo://app?vid=a0aacf68-221f-44ff-a245-f29c8bd7eae7","ios":"levelo://app?vid=a0aacf68-221f-44ff-a245-f29c8bd7eae7"},"vehicle_type_id":"4","last_reported":1722287359,"current_range_meters":7600,"station_id":"ce4bgt92rcd13ifvqcf0","pricing_plan_id":"cebpf4jnsgd1na2vs0mg"},{"bike_id":"c5c42fcb-acdf-41d7-b6aa-280ccc3a089b","system_id":"levelo_inurba_marseille","lat":43.313571,"lon":5.384829,"is_reserved":false,"is_disabled":false,"rental_uris":{"android":"levelo://app?vid=c5c42fcb-acdf-41d7-b6aa-280ccc3a089b","ios":"levelo://app?vid=c5c42fcb-acdf-41d7-b6aa-280ccc3a089b"},"vehicle_type_id":"4","last_reported":1722287359,"current_range_meters":20000,"station_id":"ce4bgt92rcd13ifvqcf0","pricing_plan_id":"cebpf4jnsgd1na2vs0mg"},{"bike_id":"26d4ce63-6473-437e-8557-afd6f059f5af","system_id":"levelo_inurba_marseille","lat":43.313571,"lon":5.384829,"is_reserved":false,"is_disabled":false,"rental_uris":{"android":"levelo://app?vid=26d4ce63-6473-437e-8557-afd6f059f5af","ios":"levelo://app?vid=26d4ce63-6473-437e-8557-afd6f059f5af"},"vehicle_type_id":"4","last_reported":1722287359,"current_range_meters":30000,"station_id":"ce4bgt92rcd13ifvqcf0","pricing_plan_id":"cebpf4jnsgd1na2vs0mg"},{"bike_id":"9f658fdc-39e1-42ab-94dc-9a53b2b58f4a","system_id":"levelo_inurba_marseille","lat":43.29999,"lon":5.37171,"is_reserved":false,"is_disabled":false,"rental_uris":{"android":"levelo://app?vid=9f658fdc-39e1-42ab-94dc-9a53b2b58f4a","ios":"levelo://app?vid=9f658fdc-39e1-42ab-94dc-9a53b2b58f4a"},"vehicle_type_id":"4","last_reported":1722287359,"current_range_meters":6000,"station_id":"ce4bgr92rcd13ifvqc7g","pricing_plan_id":"cebpf4jnsgd1na2vs0mg"},{"bike_id":"003b9c01-2b30-499d-b3e1-e874c3f2b629","system_id":"levelo_inurba_marseille","lat":43.299222,"lon":5.365554,"is_reserved":false,"is_disabled":false,"rental_uris":{"android":"levelo://app?vid=003b9c01-2b30-499d-b3e1-e874c3f2b629","ios":"levelo://app?vid=003b9c01-2b30-499d-b3e1-e874c3f2b629"},"vehicle_type_id":"4","last_reported":1722287359,"current_range_meters":31200,"station_id":"ce4bgm92rcd13ifvqbr0","pricing_plan_id":"cebpf4jnsgd1na2vs0mg"},{"bike_id":"3ee70534-e838-4670-a02e-abc4fc44b1f5","system_id":"levelo_inurba_marseille","lat":43.299724,"lon":5.371829,"is_reserved":false,"is_disabled":false,"rental_uris":{"android":"levelo://app?vid=3ee70534-e838-4670-a02e-abc4fc44b1f5","ios":"levelo://app?vid=3ee70534-e838-4670-a02e-abc4fc44b1f5"},"vehicle_type_id":"4","last_reported":1722287359,"current_range_meters":21200,"station_id":"ce4bgr92rcd13ifvqc7g","pricing_plan_id":"cebpf4jnsgd1na2vs0mg"},{"bike_id":"9f160214-4362-4503-a87f-858dd9023603","system_id":"levelo_inurba_marseille","lat":43.299724,"lon":5.371829,"is_reserved":false,"is_disabled":false,"rental_uris":{"android":"levelo://app?vid=9f160214-4362-4503-a87f-858dd9023603","ios":"levelo://app?vid=9f160214-4362-4503-a87f-858dd9023603"},"vehicle_type_id":"4","last_reported":1722287359,"current_range_meters":13200,"station_id":"ce4bgr92rcd13ifvqc7g","pricing_plan_id":"cebpf4jnsgd1na2vs0mg"},{"bike_id":"2fbdf4ad-0ef0-49d2-883c-8f7ca36298cd","system_id":"levelo_inurba_marseille","lat":43.32025,"lon":5.38306,"is_reserved":false,"is_disabled":false,"rental_uris":{"android":"levelo://app?vid=2fbdf4ad-0ef0-49d2-883c-8f7ca36298cd","ios":"levelo://app?vid=2fbdf4ad-0ef0-49d2-883c-8f7ca36298cd"},"vehicle_type_id":"4","last_reported":1722287359,"current_range_meters":24000,"station_id":"","pricing_plan_id":"cebpf4jnsgd1na2vs0mg"},{"bike_id":"1d7d0b23-8054-4709-b90a-4f33fb5f8add","system_id":"levelo_inurba_marseille","lat":43.305408,"lon":5.384271,"is_reserved":false,"is_disabled":false,"rental_uris":{"android":"levelo://app?vid=1d7d0b23-8054-4709-b90a-4f33fb5f8add","ios":"levelo://app?vid=1d7d0b23-8054-4709-b90a-4f33fb5f8add"},"vehicle_type_id":"4","last_reported":1722287359,"current_range_meters":16800,"station_id":"ce4bgg92rcd13ifvqb30","pricing_plan_id":"cebpf4jnsgd1na2vs0mg"},{"bike_id":"e537863d-f560-4566-bf9f-d01aa11240c8","system_id":"levelo_inurba_marseille","lat":43.311722,"lon":5.387247,"is_reserved":false,"is_disabled":false,"rental_uris":{"android":"levelo://app?vid=e537863d-f560-4566-bf9f-d01aa11240c8","ios":"levelo://app?vid=e537863d-f560-4566-bf9f-d01aa11240c8"},"vehicle_type_id":"4","last_reported":1722287359,"current_range_meters":4800,"station_id":"ce4bgv12rcd13ifvqcp0","pricing_plan_id":"cebpf4jnsgd1na2vs0mg"},{"bike_id":"b4470ea4-8872-45e2-bcc8-19058d387b60","system_id":"levelo_inurba_marseille","lat":43.31167,"lon":5.3871,"is_reserved":false,"is_disabled":false,"rental_uris":{"android":"levelo://app?vid=b4470ea4-8872-45e2-bcc8-19058d387b60","ios":"levelo://app?vid=b4470ea4-8872-45e2-bcc8-19058d387b60"},"vehicle_type_id":"4","last_reported":1722287359,"current_range_meters":0,"station_id":"ce4bgv12rcd13ifvqcp0","pricing_plan_id":"cebpf4jnsgd1na2vs0mg"},{"bike_id":"e83fec7b-89bb-4763-897e-548ce7f9a7e2","system_id":"levelo_inurba_marseille","lat":43.311722,"lon":5.387247,"is_reserved":false,"is_disabled":false,"rental_uris":{"android":"levelo://app?vid=e83fec7b-89bb-4763-897e-548ce7f9a7e2","ios":"levelo://app?vid=e83fec7b-89bb-4763-897e-548ce7f9a7e2"},"vehicle_type_id":"4","last_reported":1722287359,"current_range_meters":13200,"station_id":"ce4bgv12rcd13ifvqcp0","pricing_plan_id":"cebpf4jnsgd1na2vs0mg"},{"bike_id":"43bdb86b-718d-434e-bb5c-38e7240016d4","system_id":"levelo_inurba_marseille","lat":43.311722,"lon":5.387247,"is_reserved":false,"is_disabled":false,"rental_uris":{"android":"levelo://app?vid=43bdb86b-718d-434e-bb5c-38e7240016d4","ios":"levelo://app?vid=43bdb86b-718d-434e-bb5c-38e7240016d4"},"vehicle_type_id":"4","last_reported":1722287359,"current_range_meters":0,"station_id":"ce4bgv12rcd13ifvqcp0","pricing_plan_id":"cebpf4jnsgd1na2vs0mg"},{"bike_id":"d91ad721-98ca-4f43-881e-50760843b5a8","system_id":"levelo_inurba_marseille","lat":43.311722,"lon":5.387247,"is_reserved":false,"is_disabled":false,"rental_uris":{"android":"levelo://app?vid=d91ad721-98ca-4f43-881e-50760843b5a8","ios":"levelo://app?vid=d91ad721-98ca-4f43-881e-50760843b5a8"},"vehicle_type_id":"4","last_reported":1722287359,"current_range_meters":19200,"station_id":"ce4bgv12rcd13ifvqcp0","pricing_plan_id":"cebpf4jnsgd1na2vs0mg"},{"bike_id":"21c452a0-8c71-4673-b132-904b012584d6","system_id":"levelo_inurba_marseille","lat":43.311722,"lon":5.387247,"is_reserved":false,"is_disabled":false,"rental_uris":{"android":"levelo://app?vid=21c452a0-8c71-4673-b132-904b012584d6","ios":"levelo://app?vid=21c452a0-8c71-4673-b132-904b012584d6"},"vehicle_type_id":"4","last_reported":1722287359,"current_range_meters":26800,"station_id":"ce4bgv12rcd13ifvqcp0","pricing_plan_id":"cebpf4jnsgd1na2vs0mg"},{"bike_id":"61ea2fe5-36fa-47fb-b103-6db8e8d64398","system_id":"levelo_inurba_marseille","lat":43.311722,"lon":5.387247,"is_reserved":false,"is_disabled":false,"rental_uris":{"android":"levelo://app?vid=61ea2fe5-36fa-47fb-b103-6db8e8d64398","ios":"levelo://app?vid=61ea2fe5-36fa-47fb-b103-6db8e8d64398"},"vehicle_type_id":"4","last_reported":1722287359,"current_range_meters":18000,"station_id":"ce4bgv12rcd13ifvqcp0","pricing_plan_id":"cebpf4jnsgd1na2vs0mg"},{"bike_id":"e0908873-6834-41e2-88d1-48f77e9ff239","system_id":"levelo_inurba_marseille","lat":43.311722,"lon":5.387247,"is_reserved":false,"is_disabled":false,"rental_uris":{"android":"levelo://app?vid=e0908873-6834-41e2-88d1-48f77e9ff239","ios":"levelo://app?vid=e0908873-6834-41e2-88d1-48f77e9ff239"},"vehicle_type_id":"4","last_reported":1722287359,"current_range_meters":9200,"station_id":"ce4bgv12rcd13ifvqcp0","pricing_plan_id":"cebpf4jnsgd1na2vs0mg"},{"bike_id":"c3377c51-fa83-4df4-9cd3-f1d58439c220","system_id":"levelo_inurba_marseille","lat":43.31182,"lon":5.38724,"is_reserved":false,"is_disabled":false,"rental_uris":{"android":"levelo://app?vid=c3377c51-fa83-4df4-9cd3-f1d58439c220","ios":"levelo://app?vid=c3377c51-fa83-4df4-9cd3-f1d58439c220"},"vehicle_type_id":"4","last_reported":1722287359,"current_range_meters":9600,"station_id":"ce4bgv12rcd13ifvqcp0","pricing_plan_id":"cebpf4jnsgd1na2vs0mg"},{"bike_id":"3da704ee-5d94-4e0c-9d75-d387664c2e32","system_id":"levelo_inurba_marseille","lat":43.311722,"lon":5.387247,"is_reserved":false,"is_disabled":false,"rental_uris":{"android":"levelo://app?vid=3da704ee-5d94-4e0c-9d75-d387664c2e32","ios":"levelo://app?vid=3da704ee-5d94-4e0c-9d75-d387664c2e32"},"vehicle_type_id":"4","last_reported":1722287359,"current_range_meters":24400,"station_id":"ce4bgv12rcd13ifvqcp0","pricing_plan_id":"cebpf4jnsgd1na2vs0mg"},{"bike_id":"d04b0b7c-d2e7-43f4-85b9-9e2b1c973014","system_id":"levelo_inurba_marseille","lat":43.322872,"lon":5.382756,"is_reserved":false,"is_disabled":false,"rental_uris":{"android":"levelo://app?vid=d04b0b7c-d2e7-43f4-85b9-9e2b1c973014","ios":"levelo://app?vid=d04b0b7c-d2e7-43f4-85b9-9e2b1c973014"},"vehicle_type_id":"4","last_reported":1722287359,"current_range_meters":4000,"station_id":"ce4bhr12rcd13ifvqhqg","pricing_plan_id":"cebpf4jnsgd1na2vs0mg"},{"bike_id":"1b694876-1032-4ee2-a32a-38ab367e264f","system_id":"levelo_inurba_marseille","lat":43.32804,"lon":5.36688,"is_reserved":false,"is_disabled":false,"rental_uris":{"android":"levelo://app?vid=1b694876-1032-4ee2-a32a-38ab367e264f","ios":"levelo://app?vid=1b694876-1032-4ee2-a32a-38ab367e264f"},"vehicle_type_id":"4","last_reported":1722287359,"current_range_meters":800,"station_id":"","pricing_plan_id":"cebpf4jnsgd1na2vs0mg"},{"bike_id":"d78bf4aa-2d0a-486c-84a5-e164728c1fd5","system_id":"levelo_inurba_marseille","lat":43.322872,"lon":5.382756,"is_reserved":false,"is_disabled":false,"rental_uris":{"android":"levelo://app?vid=d78bf4aa-2d0a-486c-84a5-e164728c1fd5","ios":"levelo://app?vid=d78bf4aa-2d0a-486c-84a5-e164728c1fd5"},"vehicle_type_id":"4","last_reported":1722287359,"current_range_meters":28800,"station_id":"ce4bhr12rcd13ifvqhqg","pricing_plan_id":"cebpf4jnsgd1na2vs0mg"},{"bike_id":"7e420390-46e3-4400-a547-9310b3cf16d6","system_id":"levelo_inurba_marseille","lat":43.29713,"lon":5.36622,"is_reserved":false,"is_disabled":false,"rental_uris":{"android":"levelo://app?vid=7e420390-46e3-4400-a547-9310b3cf16d6","ios":"levelo://app?vid=7e420390-46e3-4400-a547-9310b3cf16d6"},"vehicle_type_id":"4","last_reported":1722287359,"current_range_meters":31200,"station_id":"ce4bgn12rcd13ifvqbt0","pricing_plan_id":"cebpf4jnsgd1na2vs0mg"},{"bike_id":"dab66a24-90d8-4797-a4c1-320daad5505b","system_id":"levelo_inurba_marseille","lat":43.322872,"lon":5.382756,"is_reserved":false,"is_disabled":false,"rental_uris":{"android":"levelo://app?vid=dab66a24-90d8-4797-a4c1-320daad5505b","ios":"levelo://app?vid=dab66a24-90d8-4797-a4c1-320daad5505b"},"vehicle_type_id":"4","last_reported":1722287359,"current_range_meters":800,"station_id":"ce4bhr12rcd13ifvqhqg","pricing_plan_id":"cebpf4jnsgd1na2vs0mg"},{"bike_id":"9266143a-9546-4c26-9e06-b1ecc4abae8a","system_id":"levelo_inurba_marseille","lat":43.3007,"lon":5.381087,"is_reserved":false,"is_disabled":false,"rental_uris":{"android":"levelo://app?vid=9266143a-9546-4c26-9e06-b1ecc4abae8a","ios":"levelo://app?vid=9266143a-9546-4c26-9e06-b1ecc4abae8a"},"vehicle_type_id":"4","last_reported":1722287359,"current_range_meters":9600,"station_id":"","pricing_plan_id":"cebpf4jnsgd1na2vs0mg"},{"bike_id":"5932ee77-83d9-4b91-9255-21dca70643b8","system_id":"levelo_inurba_marseille","lat":43.29694,"lon":5.370853,"is_reserved":false,"is_disabled":false,"rental_uris":{"android":"levelo://app?vid=5932ee77-83d9-4b91-9255-21dca70643b8","ios":"levelo://app?vid=5932ee77-83d9-4b91-9255-21dca70643b8"},"vehicle_type_id":"4","last_reported":1722287359,"current_range_meters":20000,"station_id":"","pricing_plan_id":"cebpf4jnsgd1na2vs0mg"},{"bike_id":"fb6712f6-e3d2-4e70-9a10-260796e0336d","system_id":"levelo_inurba_marseille","lat":43.325941,"lon":5.379713,"is_reserved":false,"is_disabled":false,"rental_uris":{"android":"levelo://app?vid=fb6712f6-e3d2-4e70-9a10-260796e0336d","ios":"levelo://app?vid=fb6712f6-e3d2-4e70-9a10-260796e0336d"},"vehicle_type_id":"4","last_reported":1722287359,"current_range_meters":10800,"station_id":"","pricing_plan_id":"cebpf4jnsgd1na2vs0mg"},{"bike_id":"244d841e-6e13-4462-b415-cf65a07b149d","system_id":"levelo_inurba_marseille","lat":43.32922,"lon":5.36554,"is_reserved":false,"is_disabled":false,"rental_uris":{"android":"levelo://app?vid=244d841e-6e13-4462-b415-cf65a07b149d","ios":"levelo://app?vid=244d841e-6e13-4462-b415-cf65a07b149d"},"vehicle_type_id":"4","last_reported":1722287359,"current_range_meters":5600,"station_id":"","pricing_plan_id":"cebpf4jnsgd1na2vs0mg"},{"bike_id":"da446a68-da15-4350-aa87-6c25fe9b4df5","system_id":"levelo_inurba_marseille","lat":43.29573,"lon":5.367355,"is_reserved":false,"is_disabled":false,"rental_uris":{"android":"levelo://app?vid=da446a68-da15-4350-aa87-6c25fe9b4df5","ios":"levelo://app?vid=da446a68-da15-4350-aa87-6c25fe9b4df5"},"vehicle_type_id":"4","last_reported":1722287359,"current_range_meters":30800,"station_id":"ce4bgph2rcd13ifvqc2g","pricing_plan_id":"cebpf4jnsgd1na2vs0mg"},{"bike_id":"7068bfcf-dfd3-445a-a4c5-3dc06f1fdd02","system_id":"levelo_inurba_marseille","lat":43.29621,"lon":5.3717,"is_reserved":false,"is_disabled":false,"rental_uris":{"android":"levelo://app?vid=7068bfcf-dfd3-445a-a4c5-3dc06f1fdd02","ios":"levelo://app?vid=7068bfcf-dfd3-445a-a4c5-3dc06f1fdd02"},"vehicle_type_id":"4","last_reported":1722287359,"current_range_meters":12800,"station_id":"","pricing_plan_id":"cebpf4jnsgd1na2vs0mg"},{"bike_id":"c5e35a58-9de9-45f2-b024-f456a4ec07ee","system_id":"levelo_inurba_marseille","lat":43.299028,"lon":5.381509,"is_reserved":false,"is_disabled":false,"rental_uris":{"android":"levelo://app?vid=c5e35a58-9de9-45f2-b024-f456a4ec07ee","ios":"levelo://app?vid=c5e35a58-9de9-45f2-b024-f456a4ec07ee"},"vehicle_type_id":"4","last_reported":1722287359,"current_range_meters":6400,"station_id":"ce4bgj12rcd13ifvqbc0","pricing_plan_id":"cebpf4jnsgd1na2vs0mg"},{"bike_id":"8d4202e5-ab9f-481c-bde3-78a07ebbbafa","system_id":"levelo_inurba_marseille","lat":43.309513,"lon":5.390247,"is_reserved":false,"is_disabled":false,"rental_uris":{"android":"levelo://app?vid=8d4202e5-ab9f-481c-bde3-78a07ebbbafa","ios":"levelo://app?vid=8d4202e5-ab9f-481c-bde3-78a07ebbbafa"},"vehicle_type_id":"4","last_reported":1722287359,"current_range_meters":0,"station_id":"ce4bgup2rcd13ifvqco0","pricing_plan_id":"cebpf4jnsgd1na2vs0mg"},{"bike_id":"466eb33e-8736-4cb9-bb50-4bd93ef82123","system_id":"levelo_inurba_marseille","lat":43.317557,"lon":5.390173,"is_reserved":false,"is_disabled":false,"rental_uris":{"android":"levelo://app?vid=466eb33e-8736-4cb9-bb50-4bd93ef82123","ios":"levelo://app?vid=466eb33e-8736-4cb9-bb50-4bd93ef82123"},"vehicle_type_id":"4","last_reported":1722287359,"current_range_meters":13600,"station_id":"ce4bhqp2rcd13ifvqhng","pricing_plan_id":"cebpf4jnsgd1na2vs0mg"},{"bike_id":"9e96dca9-a0f6-4b71-a2c7-1606f1719b92","system_id":"levelo_inurba_marseille","lat":43.317557,"lon":5.390173,"is_reserved":false,"is_disabled":false,"rental_uris":{"android":"levelo://app?vid=9e96dca9-a0f6-4b71-a2c7-1606f1719b92","ios":"levelo://app?vid=9e96dca9-a0f6-4b71-a2c7-1606f1719b92"},"vehicle_type_id":"4","last_reported":1722287359,"current_range_meters":20000,"station_id":"ce4bhqp2rcd13ifvqhng","pricing_plan_id":"cebpf4jnsgd1na2vs0mg"},{"bike_id":"f7dd39be-26f0-409d-8b7c-a302b89b7805","system_id":"levelo_inurba_marseille","lat":43.317501,"lon":5.39012,"is_reserved":false,"is_disabled":false,"rental_uris":{"android":"levelo://app?vid=f7dd39be-26f0-409d-8b7c-a302b89b7805","ios":"levelo://app?vid=f7dd39be-26f0-409d-8b7c-a302b89b7805"},"vehicle_type_id":"4","last_reported":1722287359,"current_range_meters":14400,"station_id":"ce4bhqp2rcd13ifvqhng","pricing_plan_id":"cebpf4jnsgd1na2vs0mg"},{"bike_id":"ff2dd3e3-0211-4577-92b5-ac50ba95d965","system_id":"levelo_inurba_marseille","lat":43.317557,"lon":5.390173,"is_reserved":false,"is_disabled":false,"rental_uris":{"android":"levelo://app?vid=ff2dd3e3-0211-4577-92b5-ac50ba95d965","ios":"levelo://app?vid=ff2dd3e3-0211-4577-92b5-ac50ba95d965"},"vehicle_type_id":"4","last_reported":1722287359,"current_range_meters":9600,"station_id":"ce4bhqp2rcd13ifvqhng","pricing_plan_id":"cebpf4jnsgd1na2vs0mg"},{"bike_id":"b8b3eb9b-3f23-4b6c-8bb0-d8831dc75e42","system_id":"levelo_inurba_marseille","lat":43.29588,"lon":5.37382,"is_reserved":false,"is_disabled":false,"rental_uris":{"android":"levelo://app?vid=b8b3eb9b-3f23-4b6c-8bb0-d8831dc75e42","ios":"levelo://app?vid=b8b3eb9b-3f23-4b6c-8bb0-d8831dc75e42"},"vehicle_type_id":"4","last_reported":1722287359,"current_range_meters":18000,"station_id":"","pricing_plan_id":"cebpf4jnsgd1na2vs0mg"},{"bike_id":"d864b411-2436-4b8f-a66f-6f11a90c6889","system_id":"levelo_inurba_marseille","lat":43.317557,"lon":5.390173,"is_reserved":false,"is_disabled":false,"rental_uris":{"android":"levelo://app?vid=d864b411-2436-4b8f-a66f-6f11a90c6889","ios":"levelo://app?vid=d864b411-2436-4b8f-a66f-6f11a90c6889"},"vehicle_type_id":"4","last_reported":1722287359,"current_range_meters":1200,"station_id":"ce4bhqp2rcd13ifvqhng","pricing_plan_id":"cebpf4jnsgd1na2vs0mg"},{"bike_id":"70eaf37c-5b60-4b0a-8e8b-9bd845f6b4ef","system_id":"levelo_inurba_marseille","lat":43.317557,"lon":5.390173,"is_reserved":false,"is_disabled":false,"rental_uris":{"android":"levelo://app?vid=70eaf37c-5b60-4b0a-8e8b-9bd845f6b4ef","ios":"levelo://app?vid=70eaf37c-5b60-4b0a-8e8b-9bd845f6b4ef"},"vehicle_type_id":"4","last_reported":1722287359,"current_range_meters":6000,"station_id":"ce4bhqp2rcd13ifvqhng","pricing_plan_id":"cebpf4jnsgd1na2vs0mg"},{"bike_id":"112a122f-9397-4a53-a249-2325930d3a58","system_id":"levelo_inurba_marseille","lat":43.304274,"lon":5.388873,"is_reserved":false,"is_disabled":false,"rental_uris":{"android":"levelo://app?vid=112a122f-9397-4a53-a249-2325930d3a58","ios":"levelo://app?vid=112a122f-9397-4a53-a249-2325930d3a58"},"vehicle_type_id":"4","last_reported":1722287359,"current_range_meters":17600,"station_id":"ce4bgk12rcd13ifvqbi0","pricing_plan_id":"cebpf4jnsgd1na2vs0mg"},{"bike_id":"0afb1b1a-84ed-48f0-aa67-ca1d74919552","system_id":"levelo_inurba_marseille","lat":43.304274,"lon":5.388873,"is_reserved":false,"is_disabled":false,"rental_uris":{"android":"levelo://app?vid=0afb1b1a-84ed-48f0-aa67-ca1d74919552","ios":"levelo://app?vid=0afb1b1a-84ed-48f0-aa67-ca1d74919552"},"vehicle_type_id":"4","last_reported":1722287359,"current_range_meters":30800,"station_id":"ce4bgk12rcd13ifvqbi0","pricing_plan_id":"cebpf4jnsgd1na2vs0mg"},{"bike_id":"8a2e629b-235a-4fc0-b890-6b6eb1788d94","system_id":"levelo_inurba_marseille","lat":43.304274,"lon":5.388873,"is_reserved":false,"is_disabled":false,"rental_uris":{"android":"levelo://app?vid=8a2e629b-235a-4fc0-b890-6b6eb1788d94","ios":"levelo://app?vid=8a2e629b-235a-4fc0-b890-6b6eb1788d94"},"vehicle_type_id":"4","last_reported":1722287359,"current_range_meters":6000,"station_id":"ce4bgk12rcd13ifvqbi0","pricing_plan_id":"cebpf4jnsgd1na2vs0mg"},{"bike_id":"727876cb-8d15-4846-9aff-14459d75d24d","system_id":"levelo_inurba_marseille","lat":43.304274,"lon":5.388873,"is_reserved":false,"is_disabled":false,"rental_uris":{"android":"levelo://app?vid=727876cb-8d15-4846-9aff-14459d75d24d","ios":"levelo://app?vid=727876cb-8d15-4846-9aff-14459d75d24d"},"vehicle_type_id":"4","last_reported":1722287359,"current_range_meters":31600,"station_id":"ce4bgk12rcd13ifvqbi0","pricing_plan_id":"cebpf4jnsgd1na2vs0mg"},{"bike_id":"cf41b522-950a-4484-a070-f63aa6eba60e","system_id":"levelo_inurba_marseille","lat":43.304274,"lon":5.388873,"is_reserved":false,"is_disabled":false,"rental_uris":{"android":"levelo://app?vid=cf41b522-950a-4484-a070-f63aa6eba60e","ios":"levelo://app?vid=cf41b522-950a-4484-a070-f63aa6eba60e"},"vehicle_type_id":"4","last_reported":1722287359,"current_range_meters":0,"station_id":"ce4bgk12rcd13ifvqbi0","pricing_plan_id":"cebpf4jnsgd1na2vs0mg"},{"bike_id":"2113386c-ef40-4939-a4fe-9e300a77f200","system_id":"levelo_inurba_marseille","lat":43.295748,"lon":5.37522,"is_reserved":false,"is_disabled":false,"rental_uris":{"android":"levelo://app?vid=2113386c-ef40-4939-a4fe-9e300a77f200","ios":"levelo://app?vid=2113386c-ef40-4939-a4fe-9e300a77f200"},"vehicle_type_id":"4","last_reported":1722287359,"current_range_meters":0,"station_id":"ce4bgh92rcd13ifvqb50","pricing_plan_id":"cebpf4jnsgd1na2vs0mg"},{"bike_id":"420d4741-4690-4ce5-8510-390ee8a72d08","system_id":"levelo_inurba_marseille","lat":43.30433,"lon":5.38896,"is_reserved":false,"is_disabled":false,"rental_uris":{"android":"levelo://app?vid=420d4741-4690-4ce5-8510-390ee8a72d08","ios":"levelo://app?vid=420d4741-4690-4ce5-8510-390ee8a72d08"},"vehicle_type_id":"4","last_reported":1722287359,"current_range_meters":20000,"station_id":"ce4bgk12rcd13ifvqbi0","pricing_plan_id":"cebpf4jnsgd1na2vs0mg"},{"bike_id":"e43216e1-2d99-4a18-964c-8f263217190f","system_id":"levelo_inurba_marseille","lat":43.304278,"lon":5.388868,"is_reserved":false,"is_disabled":false,"rental_uris":{"android":"levelo://app?vid=e43216e1-2d99-4a18-964c-8f263217190f","ios":"levelo://app?vid=e43216e1-2d99-4a18-964c-8f263217190f"},"vehicle_type_id":"4","last_reported":1722287359,"current_range_meters":14400,"station_id":"ce4bgk12rcd13ifvqbi0","pricing_plan_id":"cebpf4jnsgd1na2vs0mg"},{"bike_id":"436ba77f-a241-45b0-8ab5-e596dd72a083","system_id":"levelo_inurba_marseille","lat":43.2948,"lon":5.36353,"is_reserved":false,"is_disabled":false,"rental_uris":{"android":"levelo://app?vid=436ba77f-a241-45b0-8ab5-e596dd72a083","ios":"levelo://app?vid=436ba77f-a241-45b0-8ab5-e596dd72a083"},"vehicle_type_id":"4","last_reported":1722287359,"current_range_meters":5200,"station_id":"","pricing_plan_id":"cebpf4jnsgd1na2vs0mg"},{"bike_id":"95c9ea42-52bb-4ace-8e2e-260d72f0147f","system_id":"levelo_inurba_marseille","lat":43.304278,"lon":5.388868,"is_reserved":false,"is_disabled":false,"rental_uris":{"android":"levelo://app?vid=95c9ea42-52bb-4ace-8e2e-260d72f0147f","ios":"levelo://app?vid=95c9ea42-52bb-4ace-8e2e-260d72f0147f"},"vehicle_type_id":"4","last_reported":1722287359,"current_range_meters":22800,"station_id":"ce4bgk12rcd13ifvqbi0","pricing_plan_id":"cebpf4jnsgd1na2vs0mg"},{"bike_id":"6218e0ba-55e0-4241-96d6-339a7951f3b8","system_id":"levelo_inurba_marseille","lat":43.295748,"lon":5.37522,"is_reserved":false,"is_disabled":false,"rental_uris":{"android":"levelo://app?vid=6218e0ba-55e0-4241-96d6-339a7951f3b8","ios":"levelo://app?vid=6218e0ba-55e0-4241-96d6-339a7951f3b8"},"vehicle_type_id":"4","last_reported":1722287359,"current_range_meters":14000,"station_id":"ce4bgh92rcd13ifvqb50","pricing_plan_id":"cebpf4jnsgd1na2vs0mg"},{"bike_id":"4ff219fa-917a-4ca2-8afc-9279582cba14","system_id":"levelo_inurba_marseille","lat":43.304274,"lon":5.388873,"is_reserved":false,"is_disabled":false,"rental_uris":{"android":"levelo://app?vid=4ff219fa-917a-4ca2-8afc-9279582cba14","ios":"levelo://app?vid=4ff219fa-917a-4ca2-8afc-9279582cba14"},"vehicle_type_id":"4","last_reported":1722287359,"current_range_meters":18800,"station_id":"ce4bgk12rcd13ifvqbi0","pricing_plan_id":"cebpf4jnsgd1na2vs0mg"},{"bike_id":"d3e61a78-ada5-41be-9c9a-96f981b9a24a","system_id":"levelo_inurba_marseille","lat":43.296073,"lon":5.377105,"is_reserved":false,"is_disabled":false,"rental_uris":{"android":"levelo://app?vid=d3e61a78-ada5-41be-9c9a-96f981b9a24a","ios":"levelo://app?vid=d3e61a78-ada5-41be-9c9a-96f981b9a24a"},"vehicle_type_id":"4","last_reported":1722287359,"current_range_meters":15200,"station_id":"ce4bgi92rcd13ifvqb90","pricing_plan_id":"cebpf4jnsgd1na2vs0mg"},{"bike_id":"d2832156-be97-4e09-90ee-eab2f615c99d","system_id":"levelo_inurba_marseille","lat":43.299707,"lon":5.384859,"is_reserved":false,"is_disabled":false,"rental_uris":{"android":"levelo://app?vid=d2832156-be97-4e09-90ee-eab2f615c99d","ios":"levelo://app?vid=d2832156-be97-4e09-90ee-eab2f615c99d"},"vehicle_type_id":"4","last_reported":1722287359,"current_range_meters":7600,"station_id":"ce4bgj92rcd13ifvqbd0","pricing_plan_id":"cebpf4jnsgd1na2vs0mg"},{"bike_id":"4eef5915-ae5b-494c-a6ae-b73d5e4e756e","system_id":"levelo_inurba_marseille","lat":43.299707,"lon":5.384859,"is_reserved":false,"is_disabled":false,"rental_uris":{"android":"levelo://app?vid=4eef5915-ae5b-494c-a6ae-b73d5e4e756e","ios":"levelo://app?vid=4eef5915-ae5b-494c-a6ae-b73d5e4e756e"},"vehicle_type_id":"4","last_reported":1722287359,"current_range_meters":5600,"station_id":"ce4bgj92rcd13ifvqbd0","pricing_plan_id":"cebpf4jnsgd1na2vs0mg"},{"bike_id":"21d1041e-f9a8-42d8-9a34-e92a0745fb76","system_id":"levelo_inurba_marseille","lat":43.299707,"lon":5.384859,"is_reserved":false,"is_disabled":false,"rental_uris":{"android":"levelo://app?vid=21d1041e-f9a8-42d8-9a34-e92a0745fb76","ios":"levelo://app?vid=21d1041e-f9a8-42d8-9a34-e92a0745fb76"},"vehicle_type_id":"4","last_reported":1722287359,"current_range_meters":2800,"station_id":"ce4bgj92rcd13ifvqbd0","pricing_plan_id":"cebpf4jnsgd1na2vs0mg"},{"bike_id":"17daf730-f9fa-46c6-b112-b0fb95a42525","system_id":"levelo_inurba_marseille","lat":43.29967,"lon":5.38496,"is_reserved":false,"is_disabled":false,"rental_uris":{"android":"levelo://app?vid=17daf730-f9fa-46c6-b112-b0fb95a42525","ios":"levelo://app?vid=17daf730-f9fa-46c6-b112-b0fb95a42525"},"vehicle_type_id":"4","last_reported":1722287359,"current_range_meters":0,"station_id":"ce4bgj92rcd13ifvqbd0","pricing_plan_id":"cebpf4jnsgd1na2vs0mg"},{"bike_id":"522b2042-f534-4577-a97b-dafc858f5350","system_id":"levelo_inurba_marseille","lat":43.29965,"lon":5.38494,"is_reserved":false,"is_disabled":false,"rental_uris":{"android":"levelo://app?vid=522b2042-f534-4577-a97b-dafc858f5350","ios":"levelo://app?vid=522b2042-f534-4577-a97b-dafc858f5350"},"vehicle_type_id":"4","last_reported":1722287359,"current_range_meters":30800,"station_id":"ce4bgj92rcd13ifvqbd0","pricing_plan_id":"cebpf4jnsgd1na2vs0mg"},{"bike_id":"08dadd80-c878-4935-8fee-b545fae754aa","system_id":"levelo_inurba_marseille","lat":43.29964,"lon":5.38497,"is_reserved":false,"is_disabled":false,"rental_uris":{"android":"levelo://app?vid=08dadd80-c878-4935-8fee-b545fae754aa","ios":"levelo://app?vid=08dadd80-c878-4935-8fee-b545fae754aa"},"vehicle_type_id":"4","last_reported":1722287359,"current_range_meters":30400,"station_id":"ce4bgj92rcd13ifvqbd0","pricing_plan_id":"cebpf4jnsgd1na2vs0mg"},{"bike_id":"4ecc829f-c659-4e4a-b105-282325d2ff3d","system_id":"levelo_inurba_marseille","lat":43.29961,"lon":5.38498,"is_reserved":false,"is_disabled":false,"rental_uris":{"android":"levelo://app?vid=4ecc829f-c659-4e4a-b105-282325d2ff3d","ios":"levelo://app?vid=4ecc829f-c659-4e4a-b105-282325d2ff3d"},"vehicle_type_id":"4","last_reported":1722287359,"current_range_meters":400,"station_id":"ce4bgj92rcd13ifvqbd0","pricing_plan_id":"cebpf4jnsgd1na2vs0mg"},{"bike_id":"da2fbcb8-d313-4903-98c0-37a9ee2b4e21","system_id":"levelo_inurba_marseille","lat":43.29969,"lon":5.38509,"is_reserved":false,"is_disabled":false,"rental_uris":{"android":"levelo://app?vid=da2fbcb8-d313-4903-98c0-37a9ee2b4e21","ios":"levelo://app?vid=da2fbcb8-d313-4903-98c0-37a9ee2b4e21"},"vehicle_type_id":"4","last_reported":1722287359,"current_range_meters":0,"station_id":"ce4bgj92rcd13ifvqbd0","pricing_plan_id":"cebpf4jnsgd1na2vs0mg"},{"bike_id":"b36bfcb0-1855-4f74-bf55-2a94f299985d","system_id":"levelo_inurba_marseille","lat":43.301396,"lon":5.387812,"is_reserved":false,"is_disabled":false,"rental_uris":{"android":"levelo://app?vid=b36bfcb0-1855-4f74-bf55-2a94f299985d","ios":"levelo://app?vid=b36bfcb0-1855-4f74-bf55-2a94f299985d"},"vehicle_type_id":"4","last_reported":1722287359,"current_range_meters":10000,"station_id":"ce4bghh2rcd13ifvqb60","pricing_plan_id":"cebpf4jnsgd1na2vs0mg"},{"bike_id":"d8523410-63fb-4e6f-9760-a19a400b86ce","system_id":"levelo_inurba_marseille","lat":43.301396,"lon":5.387812,"is_reserved":false,"is_disabled":false,"rental_uris":{"android":"levelo://app?vid=d8523410-63fb-4e6f-9760-a19a400b86ce","ios":"levelo://app?vid=d8523410-63fb-4e6f-9760-a19a400b86ce"},"vehicle_type_id":"4","last_reported":1722287359,"current_range_meters":31200,"station_id":"ce4bghh2rcd13ifvqb60","pricing_plan_id":"cebpf4jnsgd1na2vs0mg"},{"bike_id":"99ef7e87-9585-430f-aa38-719ba97ecbce","system_id":"levelo_inurba_marseille","lat":43.301396,"lon":5.387812,"is_reserved":false,"is_disabled":false,"rental_uris":{"android":"levelo://app?vid=99ef7e87-9585-430f-aa38-719ba97ecbce","ios":"levelo://app?vid=99ef7e87-9585-430f-aa38-719ba97ecbce"},"vehicle_type_id":"4","last_reported":1722287359,"current_range_meters":15200,"station_id":"ce4bghh2rcd13ifvqb60","pricing_plan_id":"cebpf4jnsgd1na2vs0mg"},{"bike_id":"35d1039a-e5b5-40c8-8dea-a9e36348d2b3","system_id":"levelo_inurba_marseille","lat":43.30145,"lon":5.38792,"is_reserved":false,"is_disabled":false,"rental_uris":{"android":"levelo://app?vid=35d1039a-e5b5-40c8-8dea-a9e36348d2b3","ios":"levelo://app?vid=35d1039a-e5b5-40c8-8dea-a9e36348d2b3"},"vehicle_type_id":"4","last_reported":1722287359,"current_range_meters":11200,"station_id":"ce4bghh2rcd13ifvqb60","pricing_plan_id":"cebpf4jnsgd1na2vs0mg"},{"bike_id":"e5ae5070-32b4-4b7f-8cc4-0b8839ca3876","system_id":"levelo_inurba_marseille","lat":43.301396,"lon":5.387812,"is_reserved":false,"is_disabled":false,"rental_uris":{"android":"levelo://app?vid=e5ae5070-32b4-4b7f-8cc4-0b8839ca3876","ios":"levelo://app?vid=e5ae5070-32b4-4b7f-8cc4-0b8839ca3876"},"vehicle_type_id":"4","last_reported":1722287359,"current_range_meters":23200,"station_id":"ce4bghh2rcd13ifvqb60","pricing_plan_id":"cebpf4jnsgd1na2vs0mg"},{"bike_id":"e872cf94-70ce-4710-ae89-be7f8308ba84","system_id":"levelo_inurba_marseille","lat":43.301396,"lon":5.387812,"is_reserved":false,"is_disabled":false,"rental_uris":{"android":"levelo://app?vid=e872cf94-70ce-4710-ae89-be7f8308ba84","ios":"levelo://app?vid=e872cf94-70ce-4710-ae89-be7f8308ba84"},"vehicle_type_id":"4","last_reported":1722287359,"current_range_meters":8400,"station_id":"ce4bghh2rcd13ifvqb60","pricing_plan_id":"cebpf4jnsgd1na2vs0mg"},{"bike_id":"ad84d62b-b6dc-4c4b-b1b2-f1c394f8ea17","system_id":"levelo_inurba_marseille","lat":43.301396,"lon":5.387812,"is_reserved":false,"is_disabled":false,"rental_uris":{"android":"levelo://app?vid=ad84d62b-b6dc-4c4b-b1b2-f1c394f8ea17","ios":"levelo://app?vid=ad84d62b-b6dc-4c4b-b1b2-f1c394f8ea17"},"vehicle_type_id":"4","last_reported":1722287359,"current_range_meters":28000,"station_id":"ce4bghh2rcd13ifvqb60","pricing_plan_id":"cebpf4jnsgd1na2vs0mg"},{"bike_id":"4beb7deb-ec62-4b0f-a16b-88a235ae67ed","system_id":"levelo_inurba_marseille","lat":43.301396,"lon":5.387812,"is_reserved":false,"is_disabled":false,"rental_uris":{"android":"levelo://app?vid=4beb7deb-ec62-4b0f-a16b-88a235ae67ed","ios":"levelo://app?vid=4beb7deb-ec62-4b0f-a16b-88a235ae67ed"},"vehicle_type_id":"4","last_reported":1722287359,"current_range_meters":26400,"station_id":"ce4bghh2rcd13ifvqb60","pricing_plan_id":"cebpf4jnsgd1na2vs0mg"},{"bike_id":"694a1d31-1e87-4d95-b8aa-222de898cb49","system_id":"levelo_inurba_marseille","lat":43.305989,"lon":5.37225,"is_reserved":false,"is_disabled":false,"rental_uris":{"android":"levelo://app?vid=694a1d31-1e87-4d95-b8aa-222de898cb49","ios":"levelo://app?vid=694a1d31-1e87-4d95-b8aa-222de898cb49"},"vehicle_type_id":"4","last_reported":1722287359,"current_range_meters":7600,"station_id":"ce4bgqh2rcd13ifvqc4g","pricing_plan_id":"cebpf4jnsgd1na2vs0mg"},{"bike_id":"426918af-05b5-4e1c-8f97-13ad824648db","system_id":"levelo_inurba_marseille","lat":43.32364,"lon":5.38873,"is_reserved":false,"is_disabled":false,"rental_uris":{"android":"levelo://app?vid=426918af-05b5-4e1c-8f97-13ad824648db","ios":"levelo://app?vid=426918af-05b5-4e1c-8f97-13ad824648db"},"vehicle_type_id":"4","last_reported":1722287359,"current_range_meters":3600,"station_id":"ce4bhqp2rcd13ifvqhog","pricing_plan_id":"cebpf4jnsgd1na2vs0mg"},{"bike_id":"2a8ef76a-8573-4dc5-ab80-cff87e0222cc","system_id":"levelo_inurba_marseille","lat":43.32364,"lon":5.38876,"is_reserved":false,"is_disabled":false,"rental_uris":{"android":"levelo://app?vid=2a8ef76a-8573-4dc5-ab80-cff87e0222cc","ios":"levelo://app?vid=2a8ef76a-8573-4dc5-ab80-cff87e0222cc"},"vehicle_type_id":"4","last_reported":1722287359,"current_range_meters":0,"station_id":"ce4bhqp2rcd13ifvqhog","pricing_plan_id":"cebpf4jnsgd1na2vs0mg"},{"bike_id":"83214de5-9631-4cbf-b279-cc81d7313287","system_id":"levelo_inurba_marseille","lat":43.32367,"lon":5.388836,"is_reserved":false,"is_disabled":false,"rental_uris":{"android":"levelo://app?vid=83214de5-9631-4cbf-b279-cc81d7313287","ios":"levelo://app?vid=83214de5-9631-4cbf-b279-cc81d7313287"},"vehicle_type_id":"4","last_reported":1722287359,"current_range_meters":25200,"station_id":"ce4bhqp2rcd13ifvqhog","pricing_plan_id":"cebpf4jnsgd1na2vs0mg"},{"bike_id":"4c9b2a69-157c-4d96-9abb-2a7226d78bd9","system_id":"levelo_inurba_marseille","lat":43.32301,"lon":5.38944,"is_reserved":false,"is_disabled":false,"rental_uris":{"android":"levelo://app?vid=4c9b2a69-157c-4d96-9abb-2a7226d78bd9","ios":"levelo://app?vid=4c9b2a69-157c-4d96-9abb-2a7226d78bd9"},"vehicle_type_id":"4","last_reported":1722287359,"current_range_meters":11600,"station_id":"","pricing_plan_id":"cebpf4jnsgd1na2vs0mg"},{"bike_id":"08283361-ac73-452b-8e23-2284cbf3f0fe","system_id":"levelo_inurba_marseille","lat":43.32368,"lon":5.38884,"is_reserved":false,"is_disabled":false,"rental_uris":{"android":"levelo://app?vid=08283361-ac73-452b-8e23-2284cbf3f0fe","ios":"levelo://app?vid=08283361-ac73-452b-8e23-2284cbf3f0fe"},"vehicle_type_id":"4","last_reported":1722287359,"current_range_meters":0,"station_id":"ce4bhqp2rcd13ifvqhog","pricing_plan_id":"cebpf4jnsgd1na2vs0mg"},{"bike_id":"30e481ac-02a9-4507-9318-657741a76c55","system_id":"levelo_inurba_marseille","lat":43.29595,"lon":5.381,"is_reserved":false,"is_disabled":false,"rental_uris":{"android":"levelo://app?vid=30e481ac-02a9-4507-9318-657741a76c55","ios":"levelo://app?vid=30e481ac-02a9-4507-9318-657741a76c55"},"vehicle_type_id":"4","last_reported":1722287359,"current_range_meters":11200,"station_id":"ce4bgl12rcd13ifvqbo0","pricing_plan_id":"cebpf4jnsgd1na2vs0mg"},{"bike_id":"6f7cf1a1-dae6-478e-87a6-64c19e4f84f6","system_id":"levelo_inurba_marseille","lat":43.29593,"lon":5.38103,"is_reserved":false,"is_disabled":false,"rental_uris":{"android":"levelo://app?vid=6f7cf1a1-dae6-478e-87a6-64c19e4f84f6","ios":"levelo://app?vid=6f7cf1a1-dae6-478e-87a6-64c19e4f84f6"},"vehicle_type_id":"4","last_reported":1722287359,"current_range_meters":5200,"station_id":"ce4bgl12rcd13ifvqbo0","pricing_plan_id":"cebpf4jnsgd1na2vs0mg"},{"bike_id":"84afaf63-04a1-484d-9486-5735f1f6a550","system_id":"levelo_inurba_marseille","lat":43.29589,"lon":5.38096,"is_reserved":false,"is_disabled":false,"rental_uris":{"android":"levelo://app?vid=84afaf63-04a1-484d-9486-5735f1f6a550","ios":"levelo://app?vid=84afaf63-04a1-484d-9486-5735f1f6a550"},"vehicle_type_id":"4","last_reported":1722287359,"current_range_meters":24400,"station_id":"ce4bgl12rcd13ifvqbo0","pricing_plan_id":"cebpf4jnsgd1na2vs0mg"},{"bike_id":"381b8a4c-83f4-483f-9ed5-274e1088d8d5","system_id":"levelo_inurba_marseille","lat":43.29589,"lon":5.38112,"is_reserved":false,"is_disabled":false,"rental_uris":{"android":"levelo://app?vid=381b8a4c-83f4-483f-9ed5-274e1088d8d5","ios":"levelo://app?vid=381b8a4c-83f4-483f-9ed5-274e1088d8d5"},"vehicle_type_id":"4","last_reported":1722287359,"current_range_meters":8800,"station_id":"ce4bgl12rcd13ifvqbo0","pricing_plan_id":"cebpf4jnsgd1na2vs0mg"},{"bike_id":"41c1da4b-712b-447e-9504-c5b6b6b34473","system_id":"levelo_inurba_marseille","lat":43.29278,"lon":5.36846,"is_reserved":false,"is_disabled":false,"rental_uris":{"android":"levelo://app?vid=41c1da4b-712b-447e-9504-c5b6b6b34473","ios":"levelo://app?vid=41c1da4b-712b-447e-9504-c5b6b6b34473"},"vehicle_type_id":"4","last_reported":1722287359,"current_range_meters":0,"station_id":"ce4bhbp2rcd13ifvqesg","pricing_plan_id":"cebpf4jnsgd1na2vs0mg"},{"bike_id":"aeeec97c-3ee1-4e61-998d-afa7b51c01dc","system_id":"levelo_inurba_marseille","lat":43.293023,"lon":5.371724,"is_reserved":false,"is_disabled":false,"rental_uris":{"android":"levelo://app?vid=aeeec97c-3ee1-4e61-998d-afa7b51c01dc","ios":"levelo://app?vid=aeeec97c-3ee1-4e61-998d-afa7b51c01dc"},"vehicle_type_id":"4","last_reported":1722287359,"current_range_meters":0,"station_id":"ce4bgh92rcd13ifvqb40","pricing_plan_id":"cebpf4jnsgd1na2vs0mg"},{"bike_id":"d19524da-6c54-4477-986d-f9b62d830572","system_id":"levelo_inurba_marseille","lat":43.298764,"lon":5.388973,"is_reserved":false,"is_disabled":false,"rental_uris":{"android":"levelo://app?vid=d19524da-6c54-4477-986d-f9b62d830572","ios":"levelo://app?vid=d19524da-6c54-4477-986d-f9b62d830572"},"vehicle_type_id":"4","last_reported":1722287359,"current_range_meters":18800,"station_id":"ce4bh392rcd13ifvqdl0","pricing_plan_id":"cebpf4jnsgd1na2vs0mg"},{"bike_id":"dfa134c6-8c8e-44a7-9b6d-c785f8919709","system_id":"levelo_inurba_marseille","lat":43.305994,"lon":5.393687,"is_reserved":false,"is_disabled":false,"rental_uris":{"android":"levelo://app?vid=dfa134c6-8c8e-44a7-9b6d-c785f8919709","ios":"levelo://app?vid=dfa134c6-8c8e-44a7-9b6d-c785f8919709"},"vehicle_type_id":"4","last_reported":1722287359,"current_range_meters":2400,"station_id":"ce4bh0p2rcd13ifvqd80","pricing_plan_id":"cebpf4jnsgd1na2vs0mg"},{"bike_id":"2d6be91f-a295-4949-bc79-454d7c8e549c","system_id":"levelo_inurba_marseille","lat":43.302992,"lon":5.392136,"is_reserved":false,"is_disabled":false,"rental_uris":{"android":"levelo://app?vid=2d6be91f-a295-4949-bc79-454d7c8e549c","ios":"levelo://app?vid=2d6be91f-a295-4949-bc79-454d7c8e549c"},"vehicle_type_id":"4","last_reported":1722287359,"current_range_meters":10400,"station_id":"ce4bgkh2rcd13ifvqbk0","pricing_plan_id":"cebpf4jnsgd1na2vs0mg"},{"bike_id":"7d8a37b3-6ec4-493c-a238-52b4b4a54918","system_id":"levelo_inurba_marseille","lat":43.305994,"lon":5.393687,"is_reserved":false,"is_disabled":false,"rental_uris":{"android":"levelo://app?vid=7d8a37b3-6ec4-493c-a238-52b4b4a54918","ios":"levelo://app?vid=7d8a37b3-6ec4-493c-a238-52b4b4a54918"},"vehicle_type_id":"4","last_reported":1722287359,"current_range_meters":1600,"station_id":"ce4bh0p2rcd13ifvqd80","pricing_plan_id":"cebpf4jnsgd1na2vs0mg"},{"bike_id":"81253035-fea1-4708-9e7f-2ae9f8850f41","system_id":"levelo_inurba_marseille","lat":43.303002,"lon":5.392142,"is_reserved":false,"is_disabled":false,"rental_uris":{"android":"levelo://app?vid=81253035-fea1-4708-9e7f-2ae9f8850f41","ios":"levelo://app?vid=81253035-fea1-4708-9e7f-2ae9f8850f41"},"vehicle_type_id":"4","last_reported":1722287359,"current_range_meters":3200,"station_id":"ce4bgkh2rcd13ifvqbk0","pricing_plan_id":"cebpf4jnsgd1na2vs0mg"},{"bike_id":"2bdb4fc5-3fa0-4e7c-9863-fe2daf80d2b4","system_id":"levelo_inurba_marseille","lat":43.303,"lon":5.39207,"is_reserved":false,"is_disabled":false,"rental_uris":{"android":"levelo://app?vid=2bdb4fc5-3fa0-4e7c-9863-fe2daf80d2b4","ios":"levelo://app?vid=2bdb4fc5-3fa0-4e7c-9863-fe2daf80d2b4"},"vehicle_type_id":"4","last_reported":1722287359,"current_range_meters":31200,"station_id":"ce4bgkh2rcd13ifvqbk0","pricing_plan_id":"cebpf4jnsgd1na2vs0mg"},{"bike_id":"0720385d-6919-4883-8f00-5eb19ef74e97","system_id":"levelo_inurba_marseille","lat":43.30299,"lon":5.39209,"is_reserved":false,"is_disabled":false,"rental_uris":{"android":"levelo://app?vid=0720385d-6919-4883-8f00-5eb19ef74e97","ios":"levelo://app?vid=0720385d-6919-4883-8f00-5eb19ef74e97"},"vehicle_type_id":"4","last_reported":1722287359,"current_range_meters":800,"station_id":"ce4bgkh2rcd13ifvqbk0","pricing_plan_id":"cebpf4jnsgd1na2vs0mg"},{"bike_id":"8c9559ed-ce61-4b21-ad60-9230b728ef96","system_id":"levelo_inurba_marseille","lat":43.30302,"lon":5.39217,"is_reserved":false,"is_disabled":false,"rental_uris":{"android":"levelo://app?vid=8c9559ed-ce61-4b21-ad60-9230b728ef96","ios":"levelo://app?vid=8c9559ed-ce61-4b21-ad60-9230b728ef96"},"vehicle_type_id":"4","last_reported":1722287359,"current_range_meters":31200,"station_id":"ce4bgkh2rcd13ifvqbk0","pricing_plan_id":"cebpf4jnsgd1na2vs0mg"},{"bike_id":"3d52a621-1eea-41d8-b328-48f86b6b4302","system_id":"levelo_inurba_marseille","lat":43.30296,"lon":5.39216,"is_reserved":false,"is_disabled":false,"rental_uris":{"android":"levelo://app?vid=3d52a621-1eea-41d8-b328-48f86b6b4302","ios":"levelo://app?vid=3d52a621-1eea-41d8-b328-48f86b6b4302"},"vehicle_type_id":"4","last_reported":1722287359,"current_range_meters":25600,"station_id":"ce4bgkh2rcd13ifvqbk0","pricing_plan_id":"cebpf4jnsgd1na2vs0mg"},{"bike_id":"39e9811b-9316-4bf8-aea7-1eee90869a9b","system_id":"levelo_inurba_marseille","lat":43.30085,"lon":5.390856,"is_reserved":false,"is_disabled":false,"rental_uris":{"android":"levelo://app?vid=39e9811b-9316-4bf8-aea7-1eee90869a9b","ios":"levelo://app?vid=39e9811b-9316-4bf8-aea7-1eee90869a9b"},"vehicle_type_id":"4","last_reported":1722287359,"current_range_meters":14000,"station_id":"ce4bh192rcd13ifvqdb0","pricing_plan_id":"cebpf4jnsgd1na2vs0mg"},{"bike_id":"a97aa504-9678-4121-8099-3429d56272e0","system_id":"levelo_inurba_marseille","lat":43.30085,"lon":5.390856,"is_reserved":false,"is_disabled":false,"rental_uris":{"android":"levelo://app?vid=a97aa504-9678-4121-8099-3429d56272e0","ios":"levelo://app?vid=a97aa504-9678-4121-8099-3429d56272e0"},"vehicle_type_id":"4","last_reported":1722287359,"current_range_meters":25600,"station_id":"ce4bh192rcd13ifvqdb0","pricing_plan_id":"cebpf4jnsgd1na2vs0mg"},{"bike_id":"1f561d32-6070-4c99-81d0-15753a7afccf","system_id":"levelo_inurba_marseille","lat":43.29226,"lon":5.36062,"is_reserved":false,"is_disabled":false,"rental_uris":{"android":"levelo://app?vid=1f561d32-6070-4c99-81d0-15753a7afccf","ios":"levelo://app?vid=1f561d32-6070-4c99-81d0-15753a7afccf"},"vehicle_type_id":"4","last_reported":1722287359,"current_range_meters":0,"station_id":"ce4bhbh2rcd13ifvqeqg","pricing_plan_id":"cebpf4jnsgd1na2vs0mg"},{"bike_id":"06b19f22-4e1e-4ca5-882c-e9580ddd5068","system_id":"levelo_inurba_marseille","lat":43.300969,"lon":5.39086,"is_reserved":false,"is_disabled":false,"rental_uris":{"android":"levelo://app?vid=06b19f22-4e1e-4ca5-882c-e9580ddd5068","ios":"levelo://app?vid=06b19f22-4e1e-4ca5-882c-e9580ddd5068"},"vehicle_type_id":"4","last_reported":1722287359,"current_range_meters":25600,"station_id":"ce4bh192rcd13ifvqdb0","pricing_plan_id":"cebpf4jnsgd1na2vs0mg"},{"bike_id":"d94fa585-eb08-46f8-a8bd-dcac6e0ad895","system_id":"levelo_inurba_marseille","lat":43.30096,"lon":5.39086,"is_reserved":false,"is_disabled":false,"rental_uris":{"android":"levelo://app?vid=d94fa585-eb08-46f8-a8bd-dcac6e0ad895","ios":"levelo://app?vid=d94fa585-eb08-46f8-a8bd-dcac6e0ad895"},"vehicle_type_id":"4","last_reported":1722287359,"current_range_meters":14400,"station_id":"ce4bh192rcd13ifvqdb0","pricing_plan_id":"cebpf4jnsgd1na2vs0mg"},{"bike_id":"c1f2866c-1d61-4de5-8ed8-ac16e913a5ef","system_id":"levelo_inurba_marseille","lat":43.30085,"lon":5.390856,"is_reserved":false,"is_disabled":false,"rental_uris":{"android":"levelo://app?vid=c1f2866c-1d61-4de5-8ed8-ac16e913a5ef","ios":"levelo://app?vid=c1f2866c-1d61-4de5-8ed8-ac16e913a5ef"},"vehicle_type_id":"4","last_reported":1722287359,"current_range_meters":28800,"station_id":"ce4bh192rcd13ifvqdb0","pricing_plan_id":"cebpf4jnsgd1na2vs0mg"},{"bike_id":"1cd48eb2-b3a4-428f-9bbb-d4a00af2347c","system_id":"levelo_inurba_marseille","lat":43.30085,"lon":5.390856,"is_reserved":false,"is_disabled":false,"rental_uris":{"android":"levelo://app?vid=1cd48eb2-b3a4-428f-9bbb-d4a00af2347c","ios":"levelo://app?vid=1cd48eb2-b3a4-428f-9bbb-d4a00af2347c"},"vehicle_type_id":"4","last_reported":1722287359,"current_range_meters":24400,"station_id":"ce4bh192rcd13ifvqdb0","pricing_plan_id":"cebpf4jnsgd1na2vs0mg"},{"bike_id":"14d8d4f8-8ed1-45b7-ae29-67121a125c23","system_id":"levelo_inurba_marseille","lat":43.29258,"lon":5.376146,"is_reserved":false,"is_disabled":false,"rental_uris":{"android":"levelo://app?vid=14d8d4f8-8ed1-45b7-ae29-67121a125c23","ios":"levelo://app?vid=14d8d4f8-8ed1-45b7-ae29-67121a125c23"},"vehicle_type_id":"4","last_reported":1722287359,"current_range_meters":15200,"station_id":"ce4bgi12rcd13ifvqb80","pricing_plan_id":"cebpf4jnsgd1na2vs0mg"},{"bike_id":"28419f62-b671-45bb-aeb7-d6bd22cc0271","system_id":"levelo_inurba_marseille","lat":43.293009,"lon":5.374584,"is_reserved":false,"is_disabled":false,"rental_uris":{"android":"levelo://app?vid=28419f62-b671-45bb-aeb7-d6bd22cc0271","ios":"levelo://app?vid=28419f62-b671-45bb-aeb7-d6bd22cc0271"},"vehicle_type_id":"4","last_reported":1722287359,"current_range_meters":10800,"station_id":"ce4bgi12rcd13ifvqb70","pricing_plan_id":"cebpf4jnsgd1na2vs0mg"},{"bike_id":"b7e406c8-b7df-4064-b36e-399bc1d5aca0","system_id":"levelo_inurba_marseille","lat":43.298764,"lon":5.388973,"is_reserved":false,"is_disabled":false,"rental_uris":{"android":"levelo://app?vid=b7e406c8-b7df-4064-b36e-399bc1d5aca0","ios":"levelo://app?vid=b7e406c8-b7df-4064-b36e-399bc1d5aca0"},"vehicle_type_id":"4","last_reported":1722287359,"current_range_meters":27600,"station_id":"ce4bh392rcd13ifvqdl0","pricing_plan_id":"cebpf4jnsgd1na2vs0mg"},{"bike_id":"63e6861c-e58f-42be-bcf9-51e7b54082cf","system_id":"levelo_inurba_marseille","lat":43.292558,"lon":5.376165,"is_reserved":false,"is_disabled":false,"rental_uris":{"android":"levelo://app?vid=63e6861c-e58f-42be-bcf9-51e7b54082cf","ios":"levelo://app?vid=63e6861c-e58f-42be-bcf9-51e7b54082cf"},"vehicle_type_id":"4","last_reported":1722287359,"current_range_meters":800,"station_id":"ce4bgi12rcd13ifvqb80","pricing_plan_id":"cebpf4jnsgd1na2vs0mg"},{"bike_id":"2326cbfa-4b9c-4225-b692-5380d94a3214","system_id":"levelo_inurba_marseille","lat":43.298764,"lon":5.388973,"is_reserved":false,"is_disabled":false,"rental_uris":{"android":"levelo://app?vid=2326cbfa-4b9c-4225-b692-5380d94a3214","ios":"levelo://app?vid=2326cbfa-4b9c-4225-b692-5380d94a3214"},"vehicle_type_id":"4","last_reported":1722287359,"current_range_meters":30800,"station_id":"ce4bh392rcd13ifvqdl0","pricing_plan_id":"cebpf4jnsgd1na2vs0mg"},{"bike_id":"c45c18b9-12f1-465c-a9bb-236d35f92e46","system_id":"levelo_inurba_marseille","lat":43.298764,"lon":5.388973,"is_reserved":false,"is_disabled":false,"rental_uris":{"android":"levelo://app?vid=c45c18b9-12f1-465c-a9bb-236d35f92e46","ios":"levelo://app?vid=c45c18b9-12f1-465c-a9bb-236d35f92e46"},"vehicle_type_id":"4","last_reported":1722287359,"current_range_meters":31600,"station_id":"ce4bh392rcd13ifvqdl0","pricing_plan_id":"cebpf4jnsgd1na2vs0mg"},{"bike_id":"fb82c908-95b4-4abe-857d-2245965647cd","system_id":"levelo_inurba_marseille","lat":43.291671,"lon":5.371575,"is_reserved":false,"is_disabled":false,"rental_uris":{"android":"levelo://app?vid=fb82c908-95b4-4abe-857d-2245965647cd","ios":"levelo://app?vid=fb82c908-95b4-4abe-857d-2245965647cd"},"vehicle_type_id":"4","last_reported":1722287359,"current_range_meters":0,"station_id":"ce4bha92rcd13ifvqeh0","pricing_plan_id":"cebpf4jnsgd1na2vs0mg"},{"bike_id":"a323831f-fe39-40f9-af34-4cbff72bc0f6","system_id":"levelo_inurba_marseille","lat":43.30957,"lon":5.39653,"is_reserved":false,"is_disabled":false,"rental_uris":{"android":"levelo://app?vid=a323831f-fe39-40f9-af34-4cbff72bc0f6","ios":"levelo://app?vid=a323831f-fe39-40f9-af34-4cbff72bc0f6"},"vehicle_type_id":"4","last_reported":1722287359,"current_range_meters":24000,"station_id":"ce4bh012rcd13ifvqcv0","pricing_plan_id":"cebpf4jnsgd1na2vs0mg"},{"bike_id":"31a7f5e4-f63e-488b-9008-1aaeb2f1c8db","system_id":"levelo_inurba_marseille","lat":43.313291,"lon":5.396838,"is_reserved":false,"is_disabled":false,"rental_uris":{"android":"levelo://app?vid=31a7f5e4-f63e-488b-9008-1aaeb2f1c8db","ios":"levelo://app?vid=31a7f5e4-f63e-488b-9008-1aaeb2f1c8db"},"vehicle_type_id":"4","last_reported":1722287359,"current_range_meters":4000,"station_id":"ce4bgvp2rcd13ifvqcu0","pricing_plan_id":"cebpf4jnsgd1na2vs0mg"},{"bike_id":"be57990b-2700-4e33-8aa5-b6e0681d750f","system_id":"levelo_inurba_marseille","lat":43.313291,"lon":5.396838,"is_reserved":false,"is_disabled":false,"rental_uris":{"android":"levelo://app?vid=be57990b-2700-4e33-8aa5-b6e0681d750f","ios":"levelo://app?vid=be57990b-2700-4e33-8aa5-b6e0681d750f"},"vehicle_type_id":"4","last_reported":1722287359,"current_range_meters":28000,"station_id":"ce4bgvp2rcd13ifvqcu0","pricing_plan_id":"cebpf4jnsgd1na2vs0mg"},{"bike_id":"d1f1e085-23bb-4baa-a325-0a8c71b55f76","system_id":"levelo_inurba_marseille","lat":43.313291,"lon":5.396838,"is_reserved":false,"is_disabled":false,"rental_uris":{"android":"levelo://app?vid=d1f1e085-23bb-4baa-a325-0a8c71b55f76","ios":"levelo://app?vid=d1f1e085-23bb-4baa-a325-0a8c71b55f76"},"vehicle_type_id":"4","last_reported":1722287359,"current_range_meters":25200,"station_id":"ce4bgvp2rcd13ifvqcu0","pricing_plan_id":"cebpf4jnsgd1na2vs0mg"},{"bike_id":"bf61c277-745f-41f4-8515-09761ba9e5b2","system_id":"levelo_inurba_marseille","lat":43.313291,"lon":5.396838,"is_reserved":false,"is_disabled":false,"rental_uris":{"android":"levelo://app?vid=bf61c277-745f-41f4-8515-09761ba9e5b2","ios":"levelo://app?vid=bf61c277-745f-41f4-8515-09761ba9e5b2"},"vehicle_type_id":"4","last_reported":1722287359,"current_range_meters":19600,"station_id":"ce4bgvp2rcd13ifvqcu0","pricing_plan_id":"cebpf4jnsgd1na2vs0mg"},{"bike_id":"95e580eb-e694-4d92-8e55-1809bc895c43","system_id":"levelo_inurba_marseille","lat":43.313291,"lon":5.396838,"is_reserved":false,"is_disabled":false,"rental_uris":{"android":"levelo://app?vid=95e580eb-e694-4d92-8e55-1809bc895c43","ios":"levelo://app?vid=95e580eb-e694-4d92-8e55-1809bc895c43"},"vehicle_type_id":"4","last_reported":1722287359,"current_range_meters":800,"station_id":"ce4bgvp2rcd13ifvqcu0","pricing_plan_id":"cebpf4jnsgd1na2vs0mg"},{"bike_id":"2923c2c6-4ae3-47bd-8b66-4b3b30f6f1f7","system_id":"levelo_inurba_marseille","lat":43.313291,"lon":5.396838,"is_reserved":false,"is_disabled":false,"rental_uris":{"android":"levelo://app?vid=2923c2c6-4ae3-47bd-8b66-4b3b30f6f1f7","ios":"levelo://app?vid=2923c2c6-4ae3-47bd-8b66-4b3b30f6f1f7"},"vehicle_type_id":"4","last_reported":1722287359,"current_range_meters":0,"station_id":"ce4bgvp2rcd13ifvqcu0","pricing_plan_id":"cebpf4jnsgd1na2vs0mg"},{"bike_id":"7ea10b4c-56d8-43f4-ba0e-514e7e4dea71","system_id":"levelo_inurba_marseille","lat":43.31331,"lon":5.39695,"is_reserved":false,"is_disabled":false,"rental_uris":{"android":"levelo://app?vid=7ea10b4c-56d8-43f4-ba0e-514e7e4dea71","ios":"levelo://app?vid=7ea10b4c-56d8-43f4-ba0e-514e7e4dea71"},"vehicle_type_id":"4","last_reported":1722287359,"current_range_meters":0,"station_id":"ce4bgvp2rcd13ifvqcu0","pricing_plan_id":"cebpf4jnsgd1na2vs0mg"},{"bike_id":"4df976b3-261c-45c6-a7f0-aeb19e8113ea","system_id":"levelo_inurba_marseille","lat":43.30085,"lon":5.390856,"is_reserved":false,"is_disabled":false,"rental_uris":{"android":"levelo://app?vid=4df976b3-261c-45c6-a7f0-aeb19e8113ea","ios":"levelo://app?vid=4df976b3-261c-45c6-a7f0-aeb19e8113ea"},"vehicle_type_id":"4","last_reported":1722287359,"current_range_meters":0,"station_id":"ce4bh192rcd13ifvqdb0","pricing_plan_id":"cebpf4jnsgd1na2vs0mg"},{"bike_id":"f8a92018-4416-4f48-aa9d-597d58d22a38","system_id":"levelo_inurba_marseille","lat":43.313291,"lon":5.396838,"is_reserved":false,"is_disabled":false,"rental_uris":{"android":"levelo://app?vid=f8a92018-4416-4f48-aa9d-597d58d22a38","ios":"levelo://app?vid=f8a92018-4416-4f48-aa9d-597d58d22a38"},"vehicle_type_id":"4","last_reported":1722287359,"current_range_meters":25200,"station_id":"ce4bgvp2rcd13ifvqcu0","pricing_plan_id":"cebpf4jnsgd1na2vs0mg"},{"bike_id":"c2b8a11d-49f7-4f69-804c-19d4898e74c3","system_id":"levelo_inurba_marseille","lat":43.309038,"lon":5.396546,"is_reserved":false,"is_disabled":false,"rental_uris":{"android":"levelo://app?vid=c2b8a11d-49f7-4f69-804c-19d4898e74c3","ios":"levelo://app?vid=c2b8a11d-49f7-4f69-804c-19d4898e74c3"},"vehicle_type_id":"4","last_reported":1722287359,"current_range_meters":16400,"station_id":"ce4bh012rcd13ifvqcv0","pricing_plan_id":"cebpf4jnsgd1na2vs0mg"},{"bike_id":"7a6cf2fe-3c19-470e-be77-f0387b7b48cb","system_id":"levelo_inurba_marseille","lat":43.309038,"lon":5.396546,"is_reserved":false,"is_disabled":false,"rental_uris":{"android":"levelo://app?vid=7a6cf2fe-3c19-470e-be77-f0387b7b48cb","ios":"levelo://app?vid=7a6cf2fe-3c19-470e-be77-f0387b7b48cb"},"vehicle_type_id":"4","last_reported":1722287359,"current_range_meters":24400,"station_id":"ce4bh012rcd13ifvqcv0","pricing_plan_id":"cebpf4jnsgd1na2vs0mg"},{"bike_id":"71d63286-7cf7-4f6a-a282-57ba786465a0","system_id":"levelo_inurba_marseille","lat":43.309047,"lon":5.396551,"is_reserved":false,"is_disabled":false,"rental_uris":{"android":"levelo://app?vid=71d63286-7cf7-4f6a-a282-57ba786465a0","ios":"levelo://app?vid=71d63286-7cf7-4f6a-a282-57ba786465a0"},"vehicle_type_id":"4","last_reported":1722287359,"current_range_meters":2800,"station_id":"ce4bh012rcd13ifvqcv0","pricing_plan_id":"cebpf4jnsgd1na2vs0mg"},{"bike_id":"14117964-af52-435d-ac85-76153d64f200","system_id":"levelo_inurba_marseille","lat":43.29529,"lon":5.385581,"is_reserved":false,"is_disabled":false,"rental_uris":{"android":"levelo://app?vid=14117964-af52-435d-ac85-76153d64f200","ios":"levelo://app?vid=14117964-af52-435d-ac85-76153d64f200"},"vehicle_type_id":"4","last_reported":1722287359,"current_range_meters":30000,"station_id":"ce4bgih2rcd13ifvqba0","pricing_plan_id":"cebpf4jnsgd1na2vs0mg"},{"bike_id":"70e25c13-6e47-41fd-93f8-576f9a2dcf62","system_id":"levelo_inurba_marseille","lat":43.29529,"lon":5.385581,"is_reserved":false,"is_disabled":false,"rental_uris":{"android":"levelo://app?vid=70e25c13-6e47-41fd-93f8-576f9a2dcf62","ios":"levelo://app?vid=70e25c13-6e47-41fd-93f8-576f9a2dcf62"},"vehicle_type_id":"4","last_reported":1722287359,"current_range_meters":10400,"station_id":"ce4bgih2rcd13ifvqba0","pricing_plan_id":"cebpf4jnsgd1na2vs0mg"},{"bike_id":"534a94dc-515e-4895-9db7-8dd015dea746","system_id":"levelo_inurba_marseille","lat":43.29536,"lon":5.38546,"is_reserved":false,"is_disabled":false,"rental_uris":{"android":"levelo://app?vid=534a94dc-515e-4895-9db7-8dd015dea746","ios":"levelo://app?vid=534a94dc-515e-4895-9db7-8dd015dea746"},"vehicle_type_id":"4","last_reported":1722287359,"current_range_meters":4400,"station_id":"ce4bgih2rcd13ifvqba0","pricing_plan_id":"cebpf4jnsgd1na2vs0mg"},{"bike_id":"e4753366-2ce8-4e25-b5c4-1564e1d53cb3","system_id":"levelo_inurba_marseille","lat":43.29536,"lon":5.38547,"is_reserved":false,"is_disabled":false,"rental_uris":{"android":"levelo://app?vid=e4753366-2ce8-4e25-b5c4-1564e1d53cb3","ios":"levelo://app?vid=e4753366-2ce8-4e25-b5c4-1564e1d53cb3"},"vehicle_type_id":"4","last_reported":1722287359,"current_range_meters":12400,"station_id":"ce4bgih2rcd13ifvqba0","pricing_plan_id":"cebpf4jnsgd1na2vs0mg"},{"bike_id":"1932e318-d71d-4653-9eb0-83bdeb89cd13","system_id":"levelo_inurba_marseille","lat":43.29529,"lon":5.385581,"is_reserved":false,"is_disabled":false,"rental_uris":{"android":"levelo://app?vid=1932e318-d71d-4653-9eb0-83bdeb89cd13","ios":"levelo://app?vid=1932e318-d71d-4653-9eb0-83bdeb89cd13"},"vehicle_type_id":"4","last_reported":1722287359,"current_range_meters":0,"station_id":"ce4bgih2rcd13ifvqba0","pricing_plan_id":"cebpf4jnsgd1na2vs0mg"},{"bike_id":"b72cb341-36fb-4a99-bc2b-29c1a5e01482","system_id":"levelo_inurba_marseille","lat":43.29529,"lon":5.385581,"is_reserved":false,"is_disabled":false,"rental_uris":{"android":"levelo://app?vid=b72cb341-36fb-4a99-bc2b-29c1a5e01482","ios":"levelo://app?vid=b72cb341-36fb-4a99-bc2b-29c1a5e01482"},"vehicle_type_id":"4","last_reported":1722287359,"current_range_meters":18400,"station_id":"ce4bgih2rcd13ifvqba0","pricing_plan_id":"cebpf4jnsgd1na2vs0mg"},{"bike_id":"be903ebb-aa6b-4572-acf1-5af35c2c8f09","system_id":"levelo_inurba_marseille","lat":43.295333,"lon":5.385455,"is_reserved":false,"is_disabled":false,"rental_uris":{"android":"levelo://app?vid=be903ebb-aa6b-4572-acf1-5af35c2c8f09","ios":"levelo://app?vid=be903ebb-aa6b-4572-acf1-5af35c2c8f09"},"vehicle_type_id":"4","last_reported":1722287359,"current_range_meters":31200,"station_id":"ce4bgih2rcd13ifvqba0","pricing_plan_id":"cebpf4jnsgd1na2vs0mg"},{"bike_id":"a41701f3-72fb-45e4-a2c5-2d7b9b3acd31","system_id":"levelo_inurba_marseille","lat":43.2953,"lon":5.38546,"is_reserved":false,"is_disabled":false,"rental_uris":{"android":"levelo://app?vid=a41701f3-72fb-45e4-a2c5-2d7b9b3acd31","ios":"levelo://app?vid=a41701f3-72fb-45e4-a2c5-2d7b9b3acd31"},"vehicle_type_id":"4","last_reported":1722287359,"current_range_meters":31200,"station_id":"ce4bgih2rcd13ifvqba0","pricing_plan_id":"cebpf4jnsgd1na2vs0mg"},{"bike_id":"1e2f01c8-75e4-4bbb-a52e-131c5f65d986","system_id":"levelo_inurba_marseille","lat":43.29529,"lon":5.385581,"is_reserved":false,"is_disabled":false,"rental_uris":{"android":"levelo://app?vid=1e2f01c8-75e4-4bbb-a52e-131c5f65d986","ios":"levelo://app?vid=1e2f01c8-75e4-4bbb-a52e-131c5f65d986"},"vehicle_type_id":"4","last_reported":1722287359,"current_range_meters":29200,"station_id":"ce4bgih2rcd13ifvqba0","pricing_plan_id":"cebpf4jnsgd1na2vs0mg"},{"bike_id":"1d0a36e2-3ed1-4fa5-b4e3-7e9dca43b07d","system_id":"levelo_inurba_marseille","lat":43.29529,"lon":5.385581,"is_reserved":false,"is_disabled":false,"rental_uris":{"android":"levelo://app?vid=1d0a36e2-3ed1-4fa5-b4e3-7e9dca43b07d","ios":"levelo://app?vid=1d0a36e2-3ed1-4fa5-b4e3-7e9dca43b07d"},"vehicle_type_id":"4","last_reported":1722287359,"current_range_meters":5200,"station_id":"ce4bgih2rcd13ifvqba0","pricing_plan_id":"cebpf4jnsgd1na2vs0mg"},{"bike_id":"6a0f2c9e-09bc-450e-ae00-2cd600e929ca","system_id":"levelo_inurba_marseille","lat":43.29529,"lon":5.385581,"is_reserved":false,"is_disabled":false,"rental_uris":{"android":"levelo://app?vid=6a0f2c9e-09bc-450e-ae00-2cd600e929ca","ios":"levelo://app?vid=6a0f2c9e-09bc-450e-ae00-2cd600e929ca"},"vehicle_type_id":"4","last_reported":1722287359,"current_range_meters":8000,"station_id":"ce4bgih2rcd13ifvqba0","pricing_plan_id":"cebpf4jnsgd1na2vs0mg"},{"bike_id":"9c831dd8-a2c7-42d5-bd0a-6196ce0b1c4d","system_id":"levelo_inurba_marseille","lat":43.29421,"lon":5.38625,"is_reserved":false,"is_disabled":false,"rental_uris":{"android":"levelo://app?vid=9c831dd8-a2c7-42d5-bd0a-6196ce0b1c4d","ios":"levelo://app?vid=9c831dd8-a2c7-42d5-bd0a-6196ce0b1c4d"},"vehicle_type_id":"4","last_reported":1722287359,"current_range_meters":13200,"station_id":"ce4bh2h2rcd13ifvqdh0","pricing_plan_id":"cebpf4jnsgd1na2vs0mg"},{"bike_id":"7d4d7306-6bbf-4e56-a464-d9dd0016ce27","system_id":"levelo_inurba_marseille","lat":43.2942,"lon":5.38626,"is_reserved":false,"is_disabled":false,"rental_uris":{"android":"levelo://app?vid=7d4d7306-6bbf-4e56-a464-d9dd0016ce27","ios":"levelo://app?vid=7d4d7306-6bbf-4e56-a464-d9dd0016ce27"},"vehicle_type_id":"4","last_reported":1722287359,"current_range_meters":11200,"station_id":"ce4bh2h2rcd13ifvqdh0","pricing_plan_id":"cebpf4jnsgd1na2vs0mg"},{"bike_id":"381efe29-1d18-46e1-bb49-83f42281e794","system_id":"levelo_inurba_marseille","lat":43.29419,"lon":5.38626,"is_reserved":false,"is_disabled":false,"rental_uris":{"android":"levelo://app?vid=381efe29-1d18-46e1-bb49-83f42281e794","ios":"levelo://app?vid=381efe29-1d18-46e1-bb49-83f42281e794"},"vehicle_type_id":"4","last_reported":1722287359,"current_range_meters":0,"station_id":"ce4bh2h2rcd13ifvqdh0","pricing_plan_id":"cebpf4jnsgd1na2vs0mg"},{"bike_id":"d6499bc2-37af-409e-aaec-187a7db2b3cc","system_id":"levelo_inurba_marseille","lat":43.29419,"lon":5.38626,"is_reserved":false,"is_disabled":false,"rental_uris":{"android":"levelo://app?vid=d6499bc2-37af-409e-aaec-187a7db2b3cc","ios":"levelo://app?vid=d6499bc2-37af-409e-aaec-187a7db2b3cc"},"vehicle_type_id":"4","last_reported":1722287359,"current_range_meters":17200,"station_id":"ce4bh2h2rcd13ifvqdh0","pricing_plan_id":"cebpf4jnsgd1na2vs0mg"},{"bike_id":"bfcebad6-40a6-427a-aad5-e4fff1c7e5f5","system_id":"levelo_inurba_marseille","lat":43.29418,"lon":5.38625,"is_reserved":false,"is_disabled":false,"rental_uris":{"android":"levelo://app?vid=bfcebad6-40a6-427a-aad5-e4fff1c7e5f5","ios":"levelo://app?vid=bfcebad6-40a6-427a-aad5-e4fff1c7e5f5"},"vehicle_type_id":"4","last_reported":1722287359,"current_range_meters":800,"station_id":"ce4bh2h2rcd13ifvqdh0","pricing_plan_id":"cebpf4jnsgd1na2vs0mg"},{"bike_id":"a3ec187f-22c4-4b15-bfa5-23e9fbead812","system_id":"levelo_inurba_marseille","lat":43.28945,"lon":5.366358,"is_reserved":false,"is_disabled":false,"rental_uris":{"android":"levelo://app?vid=a3ec187f-22c4-4b15-bfa5-23e9fbead812","ios":"levelo://app?vid=a3ec187f-22c4-4b15-bfa5-23e9fbead812"},"vehicle_type_id":"4","last_reported":1722287359,"current_range_meters":0,"station_id":"ce4bhap2rcd13ifvqek0","pricing_plan_id":"cebpf4jnsgd1na2vs0mg"},{"bike_id":"90d9d397-1012-472b-bf9c-26566f67b2bf","system_id":"levelo_inurba_marseille","lat":43.29417,"lon":5.38627,"is_reserved":false,"is_disabled":false,"rental_uris":{"android":"levelo://app?vid=90d9d397-1012-472b-bf9c-26566f67b2bf","ios":"levelo://app?vid=90d9d397-1012-472b-bf9c-26566f67b2bf"},"vehicle_type_id":"4","last_reported":1722287359,"current_range_meters":25200,"station_id":"ce4bh2h2rcd13ifvqdh0","pricing_plan_id":"cebpf4jnsgd1na2vs0mg"},{"bike_id":"b7b40cfc-71e5-4675-b85f-ad1877e50955","system_id":"levelo_inurba_marseille","lat":43.294167,"lon":5.386285,"is_reserved":false,"is_disabled":false,"rental_uris":{"android":"levelo://app?vid=b7b40cfc-71e5-4675-b85f-ad1877e50955","ios":"levelo://app?vid=b7b40cfc-71e5-4675-b85f-ad1877e50955"},"vehicle_type_id":"4","last_reported":1722287359,"current_range_meters":11600,"station_id":"ce4bh2h2rcd13ifvqdh0","pricing_plan_id":"cebpf4jnsgd1na2vs0mg"},{"bike_id":"26ef19c3-1bbc-45cb-bc66-9c794bb04568","system_id":"levelo_inurba_marseille","lat":43.28943,"lon":5.36629,"is_reserved":false,"is_disabled":false,"rental_uris":{"android":"levelo://app?vid=26ef19c3-1bbc-45cb-bc66-9c794bb04568","ios":"levelo://app?vid=26ef19c3-1bbc-45cb-bc66-9c794bb04568"},"vehicle_type_id":"4","last_reported":1722287359,"current_range_meters":0,"station_id":"ce4bhap2rcd13ifvqek0","pricing_plan_id":"cebpf4jnsgd1na2vs0mg"},{"bike_id":"5db7c6c4-3206-4b95-b045-86b33407aae0","system_id":"levelo_inurba_marseille","lat":43.29416,"lon":5.38629,"is_reserved":false,"is_disabled":false,"rental_uris":{"android":"levelo://app?vid=5db7c6c4-3206-4b95-b045-86b33407aae0","ios":"levelo://app?vid=5db7c6c4-3206-4b95-b045-86b33407aae0"},"vehicle_type_id":"4","last_reported":1722287359,"current_range_meters":20800,"station_id":"ce4bh2h2rcd13ifvqdh0","pricing_plan_id":"cebpf4jnsgd1na2vs0mg"},{"bike_id":"7ef3f7ee-ee1e-4ccd-abf1-8c528e9e7bf7","system_id":"levelo_inurba_marseille","lat":43.29414,"lon":5.3863,"is_reserved":false,"is_disabled":false,"rental_uris":{"android":"levelo://app?vid=7ef3f7ee-ee1e-4ccd-abf1-8c528e9e7bf7","ios":"levelo://app?vid=7ef3f7ee-ee1e-4ccd-abf1-8c528e9e7bf7"},"vehicle_type_id":"4","last_reported":1722287359,"current_range_meters":18400,"station_id":"ce4bh2h2rcd13ifvqdh0","pricing_plan_id":"cebpf4jnsgd1na2vs0mg"},{"bike_id":"2efc4c48-914c-4839-8845-d9e085e7041e","system_id":"levelo_inurba_marseille","lat":43.2894,"lon":5.36628,"is_reserved":false,"is_disabled":false,"rental_uris":{"android":"levelo://app?vid=2efc4c48-914c-4839-8845-d9e085e7041e","ios":"levelo://app?vid=2efc4c48-914c-4839-8845-d9e085e7041e"},"vehicle_type_id":"4","last_reported":1722287359,"current_range_meters":0,"station_id":"ce4bhap2rcd13ifvqek0","pricing_plan_id":"cebpf4jnsgd1na2vs0mg"},{"bike_id":"a99dde7e-a700-4d66-93c5-bbd80848c2c8","system_id":"levelo_inurba_marseille","lat":43.29419,"lon":5.38649,"is_reserved":false,"is_disabled":false,"rental_uris":{"android":"levelo://app?vid=a99dde7e-a700-4d66-93c5-bbd80848c2c8","ios":"levelo://app?vid=a99dde7e-a700-4d66-93c5-bbd80848c2c8"},"vehicle_type_id":"4","last_reported":1722287359,"current_range_meters":14000,"station_id":"ce4bh2h2rcd13ifvqdh0","pricing_plan_id":"cebpf4jnsgd1na2vs0mg"},{"bike_id":"600ccd8c-5627-47a6-b1c6-79c523b78cd3","system_id":"levelo_inurba_marseille","lat":43.289468,"lon":5.363719,"is_reserved":false,"is_disabled":false,"rental_uris":{"android":"levelo://app?vid=600ccd8c-5627-47a6-b1c6-79c523b78cd3","ios":"levelo://app?vid=600ccd8c-5627-47a6-b1c6-79c523b78cd3"},"vehicle_type_id":"4","last_reported":1722287359,"current_range_meters":0,"station_id":"ce4bhc92rcd13ifvqetg","pricing_plan_id":"cebpf4jnsgd1na2vs0mg"},{"bike_id":"edf1bd04-025a-4bc8-bca3-9660d5971460","system_id":"levelo_inurba_marseille","lat":43.292655,"lon":5.384395,"is_reserved":false,"is_disabled":false,"rental_uris":{"android":"levelo://app?vid=edf1bd04-025a-4bc8-bca3-9660d5971460","ios":"levelo://app?vid=edf1bd04-025a-4bc8-bca3-9660d5971460"},"vehicle_type_id":"4","last_reported":1722287359,"current_range_meters":0,"station_id":"ce4bh692rcd13ifvqea0","pricing_plan_id":"cebpf4jnsgd1na2vs0mg"},{"bike_id":"d28c98a6-951f-4882-8208-62235d542672","system_id":"levelo_inurba_marseille","lat":43.292644,"lon":5.384257,"is_reserved":false,"is_disabled":false,"rental_uris":{"android":"levelo://app?vid=d28c98a6-951f-4882-8208-62235d542672","ios":"levelo://app?vid=d28c98a6-951f-4882-8208-62235d542672"},"vehicle_type_id":"4","last_reported":1722287359,"current_range_meters":0,"station_id":"ce4bh692rcd13ifvqea0","pricing_plan_id":"cebpf4jnsgd1na2vs0mg"},{"bike_id":"b5bce02e-5485-4ba7-b5fc-a47eb012ef5c","system_id":"levelo_inurba_marseille","lat":43.29268,"lon":5.384477,"is_reserved":false,"is_disabled":false,"rental_uris":{"android":"levelo://app?vid=b5bce02e-5485-4ba7-b5fc-a47eb012ef5c","ios":"levelo://app?vid=b5bce02e-5485-4ba7-b5fc-a47eb012ef5c"},"vehicle_type_id":"4","last_reported":1722287359,"current_range_meters":21200,"station_id":"ce4bh692rcd13ifvqea0","pricing_plan_id":"cebpf4jnsgd1na2vs0mg"},{"bike_id":"09a419f8-e8a6-49a4-9b63-3ae7dddf348a","system_id":"levelo_inurba_marseille","lat":43.292644,"lon":5.384257,"is_reserved":false,"is_disabled":false,"rental_uris":{"android":"levelo://app?vid=09a419f8-e8a6-49a4-9b63-3ae7dddf348a","ios":"levelo://app?vid=09a419f8-e8a6-49a4-9b63-3ae7dddf348a"},"vehicle_type_id":"4","last_reported":1722287359,"current_range_meters":7600,"station_id":"ce4bh692rcd13ifvqea0","pricing_plan_id":"cebpf4jnsgd1na2vs0mg"},{"bike_id":"08df5215-eea6-4e16-a54a-6ef4c36e811c","system_id":"levelo_inurba_marseille","lat":43.286595,"lon":5.386795,"is_reserved":false,"is_disabled":false,"rental_uris":{"android":"levelo://app?vid=08df5215-eea6-4e16-a54a-6ef4c36e811c","ios":"levelo://app?vid=08df5215-eea6-4e16-a54a-6ef4c36e811c"},"vehicle_type_id":"4","last_reported":1722287359,"current_range_meters":1600,"station_id":"ce4bh492rcd13ifvqdug","pricing_plan_id":"cebpf4jnsgd1na2vs0mg"},{"bike_id":"031ac9b2-3382-408f-81e9-b3225ecf8fce","system_id":"levelo_inurba_marseille","lat":43.290104,"lon":5.356111,"is_reserved":false,"is_disabled":false,"rental_uris":{"android":"levelo://app?vid=031ac9b2-3382-408f-81e9-b3225ecf8fce","ios":"levelo://app?vid=031ac9b2-3382-408f-81e9-b3225ecf8fce"},"vehicle_type_id":"4","last_reported":1722287359,"current_range_meters":0,"station_id":"ce4bhb92rcd13ifvqen0","pricing_plan_id":"cebpf4jnsgd1na2vs0mg"},{"bike_id":"bc0be0d6-006d-45aa-a18d-1ba2ef6d2f04","system_id":"levelo_inurba_marseille","lat":43.29101,"lon":5.381383,"is_reserved":false,"is_disabled":false,"rental_uris":{"android":"levelo://app?vid=bc0be0d6-006d-45aa-a18d-1ba2ef6d2f04","ios":"levelo://app?vid=bc0be0d6-006d-45aa-a18d-1ba2ef6d2f04"},"vehicle_type_id":"4","last_reported":1722287359,"current_range_meters":3200,"station_id":"ce4bh512rcd13ifvqe2g","pricing_plan_id":"cebpf4jnsgd1na2vs0mg"},{"bike_id":"4a3a90ef-b448-4824-a4ea-f4de608b64ca","system_id":"levelo_inurba_marseille","lat":43.290957,"lon":5.381297,"is_reserved":false,"is_disabled":false,"rental_uris":{"android":"levelo://app?vid=4a3a90ef-b448-4824-a4ea-f4de608b64ca","ios":"levelo://app?vid=4a3a90ef-b448-4824-a4ea-f4de608b64ca"},"vehicle_type_id":"4","last_reported":1722287359,"current_range_meters":27200,"station_id":"ce4bh512rcd13ifvqe2g","pricing_plan_id":"cebpf4jnsgd1na2vs0mg"},{"bike_id":"36724e67-c0f4-46a5-b806-af77193848ac","system_id":"levelo_inurba_marseille","lat":43.29094,"lon":5.38131,"is_reserved":false,"is_disabled":false,"rental_uris":{"android":"levelo://app?vid=36724e67-c0f4-46a5-b806-af77193848ac","ios":"levelo://app?vid=36724e67-c0f4-46a5-b806-af77193848ac"},"vehicle_type_id":"4","last_reported":1722287359,"current_range_meters":0,"station_id":"ce4bh512rcd13ifvqe2g","pricing_plan_id":"cebpf4jnsgd1na2vs0mg"},{"bike_id":"70c0034a-4ca9-4dc8-9ef7-4cc56508bac5","system_id":"levelo_inurba_marseille","lat":43.29096,"lon":5.38144,"is_reserved":false,"is_disabled":false,"rental_uris":{"android":"levelo://app?vid=70c0034a-4ca9-4dc8-9ef7-4cc56508bac5","ios":"levelo://app?vid=70c0034a-4ca9-4dc8-9ef7-4cc56508bac5"},"vehicle_type_id":"4","last_reported":1722287359,"current_range_meters":27200,"station_id":"ce4bh512rcd13ifvqe2g","pricing_plan_id":"cebpf4jnsgd1na2vs0mg"},{"bike_id":"3f43d974-b0d3-492c-a5a8-50078baa9363","system_id":"levelo_inurba_marseille","lat":43.290995,"lon":5.381361,"is_reserved":false,"is_disabled":false,"rental_uris":{"android":"levelo://app?vid=3f43d974-b0d3-492c-a5a8-50078baa9363","ios":"levelo://app?vid=3f43d974-b0d3-492c-a5a8-50078baa9363"},"vehicle_type_id":"4","last_reported":1722287359,"current_range_meters":3600,"station_id":"ce4bh512rcd13ifvqe2g","pricing_plan_id":"cebpf4jnsgd1na2vs0mg"},{"bike_id":"e67fc9c4-1a10-45a4-98c7-3ec5fa5deaed","system_id":"levelo_inurba_marseille","lat":43.290995,"lon":5.381361,"is_reserved":false,"is_disabled":false,"rental_uris":{"android":"levelo://app?vid=e67fc9c4-1a10-45a4-98c7-3ec5fa5deaed","ios":"levelo://app?vid=e67fc9c4-1a10-45a4-98c7-3ec5fa5deaed"},"vehicle_type_id":"4","last_reported":1722287359,"current_range_meters":29600,"station_id":"ce4bh512rcd13ifvqe2g","pricing_plan_id":"cebpf4jnsgd1na2vs0mg"},{"bike_id":"8c841ea1-9478-4a6f-81d5-59d74591058a","system_id":"levelo_inurba_marseille","lat":43.297807,"lon":5.393533,"is_reserved":false,"is_disabled":false,"rental_uris":{"android":"levelo://app?vid=8c841ea1-9478-4a6f-81d5-59d74591058a","ios":"levelo://app?vid=8c841ea1-9478-4a6f-81d5-59d74591058a"},"vehicle_type_id":"4","last_reported":1722287359,"current_range_meters":0,"station_id":"chh1huq6cuj3fo74tm60","pricing_plan_id":"cebpf4jnsgd1na2vs0mg"},{"bike_id":"883ea57e-bbe3-476e-b407-9f20e6c0c35c","system_id":"levelo_inurba_marseille","lat":43.297815,"lon":5.393548,"is_reserved":false,"is_disabled":false,"rental_uris":{"android":"levelo://app?vid=883ea57e-bbe3-476e-b407-9f20e6c0c35c","ios":"levelo://app?vid=883ea57e-bbe3-476e-b407-9f20e6c0c35c"},"vehicle_type_id":"4","last_reported":1722287359,"current_range_meters":25200,"station_id":"chh1huq6cuj3fo74tm60","pricing_plan_id":"cebpf4jnsgd1na2vs0mg"},{"bike_id":"09c97683-3af2-475c-9f9b-ff5b2e4917cb","system_id":"levelo_inurba_marseille","lat":43.297807,"lon":5.393533,"is_reserved":false,"is_disabled":false,"rental_uris":{"android":"levelo://app?vid=09c97683-3af2-475c-9f9b-ff5b2e4917cb","ios":"levelo://app?vid=09c97683-3af2-475c-9f9b-ff5b2e4917cb"},"vehicle_type_id":"4","last_reported":1722287359,"current_range_meters":12400,"station_id":"chh1huq6cuj3fo74tm60","pricing_plan_id":"cebpf4jnsgd1na2vs0mg"},{"bike_id":"2147cf05-c670-4365-9bc3-8863d2ff4ed0","system_id":"levelo_inurba_marseille","lat":43.330442,"lon":5.389148,"is_reserved":false,"is_disabled":false,"rental_uris":{"android":"levelo://app?vid=2147cf05-c670-4365-9bc3-8863d2ff4ed0","ios":"levelo://app?vid=2147cf05-c670-4365-9bc3-8863d2ff4ed0"},"vehicle_type_id":"4","last_reported":1722287359,"current_range_meters":800,"station_id":"ce4bhr92rcd13ifvqhrg","pricing_plan_id":"cebpf4jnsgd1na2vs0mg"},{"bike_id":"e096eb15-bb48-4843-8919-bfce160b2392","system_id":"levelo_inurba_marseille","lat":43.289741,"lon":5.378306,"is_reserved":false,"is_disabled":false,"rental_uris":{"android":"levelo://app?vid=e096eb15-bb48-4843-8919-bfce160b2392","ios":"levelo://app?vid=e096eb15-bb48-4843-8919-bfce160b2392"},"vehicle_type_id":"4","last_reported":1722287359,"current_range_meters":4000,"station_id":"ce4bh9p2rcd13ifvqed0","pricing_plan_id":"cebpf4jnsgd1na2vs0mg"},{"bike_id":"6d9125d2-3947-4d3b-8e84-69c56fc4ad9f","system_id":"levelo_inurba_marseille","lat":43.33034,"lon":5.39051,"is_reserved":false,"is_disabled":false,"rental_uris":{"android":"levelo://app?vid=6d9125d2-3947-4d3b-8e84-69c56fc4ad9f","ios":"levelo://app?vid=6d9125d2-3947-4d3b-8e84-69c56fc4ad9f"},"vehicle_type_id":"4","last_reported":1722287359,"current_range_meters":21200,"station_id":"ce4bhr92rcd13ifvqhrg","pricing_plan_id":"cebpf4jnsgd1na2vs0mg"},{"bike_id":"88b9551f-5d62-428c-8f3b-9dc101a9f05c","system_id":"levelo_inurba_marseille","lat":43.29024,"lon":5.38136,"is_reserved":false,"is_disabled":false,"rental_uris":{"android":"levelo://app?vid=88b9551f-5d62-428c-8f3b-9dc101a9f05c","ios":"levelo://app?vid=88b9551f-5d62-428c-8f3b-9dc101a9f05c"},"vehicle_type_id":"4","last_reported":1722287359,"current_range_meters":0,"station_id":"ce4bh4p2rcd13ifvqe1g","pricing_plan_id":"cebpf4jnsgd1na2vs0mg"},{"bike_id":"099bd739-fd60-41a1-9743-4d1bdbfaaf94","system_id":"levelo_inurba_marseille","lat":43.290196,"lon":5.381313,"is_reserved":false,"is_disabled":false,"rental_uris":{"android":"levelo://app?vid=099bd739-fd60-41a1-9743-4d1bdbfaaf94","ios":"levelo://app?vid=099bd739-fd60-41a1-9743-4d1bdbfaaf94"},"vehicle_type_id":"4","last_reported":1722287359,"current_range_meters":0,"station_id":"ce4bh4p2rcd13ifvqe1g","pricing_plan_id":"cebpf4jnsgd1na2vs0mg"},{"bike_id":"f4cdf6f8-59cc-4926-bbd3-bf830cd7e7b6","system_id":"levelo_inurba_marseille","lat":43.29021,"lon":5.38137,"is_reserved":false,"is_disabled":false,"rental_uris":{"android":"levelo://app?vid=f4cdf6f8-59cc-4926-bbd3-bf830cd7e7b6","ios":"levelo://app?vid=f4cdf6f8-59cc-4926-bbd3-bf830cd7e7b6"},"vehicle_type_id":"4","last_reported":1722287359,"current_range_meters":25200,"station_id":"ce4bh4p2rcd13ifvqe1g","pricing_plan_id":"cebpf4jnsgd1na2vs0mg"},{"bike_id":"4fabf254-48ec-447f-affc-c482b162900b","system_id":"levelo_inurba_marseille","lat":43.29023,"lon":5.381453,"is_reserved":false,"is_disabled":false,"rental_uris":{"android":"levelo://app?vid=4fabf254-48ec-447f-affc-c482b162900b","ios":"levelo://app?vid=4fabf254-48ec-447f-affc-c482b162900b"},"vehicle_type_id":"4","last_reported":1722287359,"current_range_meters":0,"station_id":"ce4bh4p2rcd13ifvqe1g","pricing_plan_id":"cebpf4jnsgd1na2vs0mg"},{"bike_id":"c9e356b5-8364-4077-9ca2-f0802622174d","system_id":"levelo_inurba_marseille","lat":43.290094,"lon":5.381264,"is_reserved":false,"is_disabled":false,"rental_uris":{"android":"levelo://app?vid=c9e356b5-8364-4077-9ca2-f0802622174d","ios":"levelo://app?vid=c9e356b5-8364-4077-9ca2-f0802622174d"},"vehicle_type_id":"4","last_reported":1722287359,"current_range_meters":30000,"station_id":"ce4bh4p2rcd13ifvqe1g","pricing_plan_id":"cebpf4jnsgd1na2vs0mg"},{"bike_id":"7f0dc52c-cd2c-45d5-a94a-87ba788ef313","system_id":"levelo_inurba_marseille","lat":43.28845,"lon":5.35843,"is_reserved":false,"is_disabled":false,"rental_uris":{"android":"levelo://app?vid=7f0dc52c-cd2c-45d5-a94a-87ba788ef313","ios":"levelo://app?vid=7f0dc52c-cd2c-45d5-a94a-87ba788ef313"},"vehicle_type_id":"4","last_reported":1722287359,"current_range_meters":0,"station_id":"ce4bhb12rcd13ifvqem0","pricing_plan_id":"cebpf4jnsgd1na2vs0mg"},{"bike_id":"64ab59ad-1c1c-457a-a7dd-ad1ccdc9bd25","system_id":"levelo_inurba_marseille","lat":43.302798,"lon":5.398754,"is_reserved":false,"is_disabled":false,"rental_uris":{"android":"levelo://app?vid=64ab59ad-1c1c-457a-a7dd-ad1ccdc9bd25","ios":"levelo://app?vid=64ab59ad-1c1c-457a-a7dd-ad1ccdc9bd25"},"vehicle_type_id":"4","last_reported":1722287359,"current_range_meters":6800,"station_id":"","pricing_plan_id":"cebpf4jnsgd1na2vs0mg"},{"bike_id":"18f1bb31-7260-4f94-a69f-4efe2b505942","system_id":"levelo_inurba_marseille","lat":43.309371,"lon":5.401449,"is_reserved":false,"is_disabled":false,"rental_uris":{"android":"levelo://app?vid=18f1bb31-7260-4f94-a69f-4efe2b505942","ios":"levelo://app?vid=18f1bb31-7260-4f94-a69f-4efe2b505942"},"vehicle_type_id":"4","last_reported":1722287359,"current_range_meters":31200,"station_id":"ce4bgvp2rcd13ifvqct0","pricing_plan_id":"cebpf4jnsgd1na2vs0mg"},{"bike_id":"d1cfa970-ef87-4bc6-8a2a-b1e4860bb4e0","system_id":"levelo_inurba_marseille","lat":43.312609,"lon":5.401662,"is_reserved":false,"is_disabled":false,"rental_uris":{"android":"levelo://app?vid=d1cfa970-ef87-4bc6-8a2a-b1e4860bb4e0","ios":"levelo://app?vid=d1cfa970-ef87-4bc6-8a2a-b1e4860bb4e0"},"vehicle_type_id":"4","last_reported":1722287359,"current_range_meters":28400,"station_id":"ce4bh092rcd13ifvqd30","pricing_plan_id":"cebpf4jnsgd1na2vs0mg"},{"bike_id":"28ce06b9-878c-4c18-87e4-ccd45f3b9ff4","system_id":"levelo_inurba_marseille","lat":43.30933,"lon":5.40146,"is_reserved":false,"is_disabled":false,"rental_uris":{"android":"levelo://app?vid=28ce06b9-878c-4c18-87e4-ccd45f3b9ff4","ios":"levelo://app?vid=28ce06b9-878c-4c18-87e4-ccd45f3b9ff4"},"vehicle_type_id":"4","last_reported":1722287359,"current_range_meters":30800,"station_id":"ce4bgvp2rcd13ifvqct0","pricing_plan_id":"cebpf4jnsgd1na2vs0mg"},{"bike_id":"522db91b-cd2a-4577-8c4b-651f78f287e0","system_id":"levelo_inurba_marseille","lat":43.309371,"lon":5.401449,"is_reserved":false,"is_disabled":false,"rental_uris":{"android":"levelo://app?vid=522db91b-cd2a-4577-8c4b-651f78f287e0","ios":"levelo://app?vid=522db91b-cd2a-4577-8c4b-651f78f287e0"},"vehicle_type_id":"4","last_reported":1722287359,"current_range_meters":28800,"station_id":"ce4bgvp2rcd13ifvqct0","pricing_plan_id":"cebpf4jnsgd1na2vs0mg"},{"bike_id":"06893d85-53a4-4867-afd8-82559233763e","system_id":"levelo_inurba_marseille","lat":43.287812,"lon":5.373682,"is_reserved":false,"is_disabled":false,"rental_uris":{"android":"levelo://app?vid=06893d85-53a4-4867-afd8-82559233763e","ios":"levelo://app?vid=06893d85-53a4-4867-afd8-82559233763e"},"vehicle_type_id":"4","last_reported":1722287359,"current_range_meters":22000,"station_id":"","pricing_plan_id":"cebpf4jnsgd1na2vs0mg"},