{"last_updated":1779474431,"ttl":60,"version":"2.2","data":{"bikes":[{"bike_id":"7d641315-6110-49cb-a9dd-d637ff032de1","system_id":"levelo_inurba_marseille","lat":43.337444,"lon":5.374475,"is_reserved":false,"is_disabled":false,"rental_uris":{"android":"levelo://app?vid=7d641315-6110-49cb-a9dd-d637ff032de1","ios":"levelo://app?vid=7d641315-6110-49cb-a9dd-d637ff032de1"},"vehicle_type_id":"4","last_reported":1779474432,"current_range_meters":0,"station_id":"","pricing_plan_id":"cebpf4jnsgd1na2vs0mg"},{"bike_id":"ad6d8b73-6259-410d-979f-09e40ec16dc9","system_id":"levelo_inurba_marseille","lat":43.3082,"lon":5.37198,"is_reserved":false,"is_disabled":false,"rental_uris":{"android":"levelo://app?vid=ad6d8b73-6259-410d-979f-09e40ec16dc9","ios":"levelo://app?vid=ad6d8b73-6259-410d-979f-09e40ec16dc9"},"vehicle_type_id":"4","last_reported":1779474432,"current_range_meters":2800,"station_id":"","pricing_plan_id":"cebpf4jnsgd1na2vs0mg"},{"bike_id":"620f68a1-fedb-4466-88c1-a3b742a84bc0","system_id":"levelo_inurba_marseille","lat":43.29014,"lon":5.38616,"is_reserved":false,"is_disabled":false,"rental_uris":{"android":"levelo://app?vid=620f68a1-fedb-4466-88c1-a3b742a84bc0","ios":"levelo://app?vid=620f68a1-fedb-4466-88c1-a3b742a84bc0"},"vehicle_type_id":"4","last_reported":1779474432,"current_range_meters":2800,"station_id":"ce4bh4p2rcd13ifvqe0g","pricing_plan_id":"cebpf4jnsgd1na2vs0mg"},{"bike_id":"6ecace9b-c16d-43aa-9c1a-0ebc2e7bcfc4","system_id":"levelo_inurba_marseille","lat":43.32108,"lon":5.36782,"is_reserved":false,"is_disabled":false,"rental_uris":{"android":"levelo://app?vid=6ecace9b-c16d-43aa-9c1a-0ebc2e7bcfc4","ios":"levelo://app?vid=6ecace9b-c16d-43aa-9c1a-0ebc2e7bcfc4"},"vehicle_type_id":"4","last_reported":1779474432,"current_range_meters":2800,"station_id":"ce4bhrh2rcd13ifvqhug","pricing_plan_id":"cebpf4jnsgd1na2vs0mg"},{"bike_id":"678c2486-f208-445a-a253-9dfac60b0dc7","system_id":"levelo_inurba_marseille","lat":43.32442,"lon":5.36902,"is_reserved":false,"is_disabled":false,"rental_uris":{"android":"levelo://app?vid=678c2486-f208-445a-a253-9dfac60b0dc7","ios":"levelo://app?vid=678c2486-f208-445a-a253-9dfac60b0dc7"},"vehicle_type_id":"4","last_reported":1779474432,"current_range_meters":2800,"station_id":"","pricing_plan_id":"cebpf4jnsgd1na2vs0mg"},{"bike_id":"12481d7b-ca53-44d2-a72d-3641cbe06950","system_id":"levelo_inurba_marseille","lat":43.29917,"lon":5.41008,"is_reserved":false,"is_disabled":false,"rental_uris":{"android":"levelo://app?vid=12481d7b-ca53-44d2-a72d-3641cbe06950","ios":"levelo://app?vid=12481d7b-ca53-44d2-a72d-3641cbe06950"},"vehicle_type_id":"4","last_reported":1779474432,"current_range_meters":2800,"station_id":"","pricing_plan_id":"cebpf4jnsgd1na2vs0mg"},{"bike_id":"f1e0c070-f120-414b-ba52-6d5511548f79","system_id":"levelo_inurba_marseille","lat":43.225304,"lon":5.34842,"is_reserved":false,"is_disabled":true,"rental_uris":{"android":"levelo://app?vid=f1e0c070-f120-414b-ba52-6d5511548f79","ios":"levelo://app?vid=f1e0c070-f120-414b-ba52-6d5511548f79"},"vehicle_type_id":"4","last_reported":1779474432,"current_range_meters":2800,"station_id":"st_cvj5dfep6f1abm77gieg","pricing_plan_id":"cebpf4jnsgd1na2vs0mg"},{"bike_id":"1904b40a-0dd4-42af-8ba9-b291e2fcd3f4","system_id":"levelo_inurba_marseille","lat":43.24938,"lon":5.40513,"is_reserved":false,"is_disabled":false,"rental_uris":{"android":"levelo://app?vid=1904b40a-0dd4-42af-8ba9-b291e2fcd3f4","ios":"levelo://app?vid=1904b40a-0dd4-42af-8ba9-b291e2fcd3f4"},"vehicle_type_id":"4","last_reported":1779474432,"current_range_meters":2800,"station_id":"st_d2ngiaodas8pm72gd1h0","pricing_plan_id":"cebpf4jnsgd1na2vs0mg"},{"bike_id":"64f18dbb-3507-4466-ad4f-382547b6b451","system_id":"levelo_inurba_marseille","lat":43.298706,"lon":5.397242,"is_reserved":false,"is_disabled":false,"rental_uris":{"android":"levelo://app?vid=64f18dbb-3507-4466-ad4f-382547b6b451","ios":"levelo://app?vid=64f18dbb-3507-4466-ad4f-382547b6b451"},"vehicle_type_id":"4","last_reported":1779474432,"current_range_meters":2800,"station_id":"ce4bh0h2rcd13ifvqd50","pricing_plan_id":"cebpf4jnsgd1na2vs0mg"},{"bike_id":"7ec51a2f-4a16-4f13-bc58-d0fe3f82fb73","system_id":"levelo_inurba_marseille","lat":43.28699,"lon":5.37946,"is_reserved":false,"is_disabled":false,"rental_uris":{"android":"levelo://app?vid=7ec51a2f-4a16-4f13-bc58-d0fe3f82fb73","ios":"levelo://app?vid=7ec51a2f-4a16-4f13-bc58-d0fe3f82fb73"},"vehicle_type_id":"4","last_reported":1779474432,"current_range_meters":2800,"station_id":"ce4bh9p2rcd13ifvqec0","pricing_plan_id":"cebpf4jnsgd1na2vs0mg"},{"bike_id":"3164d9e8-c839-4029-b458-2d3d9b344e5f","system_id":"levelo_inurba_marseille","lat":43.275716,"lon":5.396434,"is_reserved":false,"is_disabled":false,"rental_uris":{"android":"levelo://app?vid=3164d9e8-c839-4029-b458-2d3d9b344e5f","ios":"levelo://app?vid=3164d9e8-c839-4029-b458-2d3d9b344e5f"},"vehicle_type_id":"4","last_reported":1779474432,"current_range_meters":2800,"station_id":"","pricing_plan_id":"cebpf4jnsgd1na2vs0mg"},{"bike_id":"d876f250-8123-419d-a895-9645003d3c01","system_id":"levelo_inurba_marseille","lat":43.27255,"lon":5.41629,"is_reserved":false,"is_disabled":false,"rental_uris":{"android":"levelo://app?vid=d876f250-8123-419d-a895-9645003d3c01","ios":"levelo://app?vid=d876f250-8123-419d-a895-9645003d3c01"},"vehicle_type_id":"4","last_reported":1779474432,"current_range_meters":2800,"station_id":"","pricing_plan_id":"cebpf4jnsgd1na2vs0mg"},{"bike_id":"516ca16f-fd29-4370-ae36-5f4c47a7f34f","system_id":"levelo_inurba_marseille","lat":43.30133,"lon":5.38787,"is_reserved":false,"is_disabled":false,"rental_uris":{"android":"levelo://app?vid=516ca16f-fd29-4370-ae36-5f4c47a7f34f","ios":"levelo://app?vid=516ca16f-fd29-4370-ae36-5f4c47a7f34f"},"vehicle_type_id":"4","last_reported":1779474432,"current_range_meters":2800,"station_id":"ce4bghh2rcd13ifvqb60","pricing_plan_id":"cebpf4jnsgd1na2vs0mg"},{"bike_id":"01e0d0eb-aceb-45d0-b448-f190cc7530a6","system_id":"levelo_inurba_marseille","lat":43.22541,"lon":5.34814,"is_reserved":false,"is_disabled":true,"rental_uris":{"android":"levelo://app?vid=01e0d0eb-aceb-45d0-b448-f190cc7530a6","ios":"levelo://app?vid=01e0d0eb-aceb-45d0-b448-f190cc7530a6"},"vehicle_type_id":"4","last_reported":1779474432,"current_range_meters":2800,"station_id":"st_cvj5dfep6f1abm77gieg","pricing_plan_id":"cebpf4jnsgd1na2vs0mg"},{"bike_id":"3b3648bc-114e-4573-b5a4-e0750016f792","system_id":"levelo_inurba_marseille","lat":43.23837,"lon":5.41334,"is_reserved":false,"is_disabled":false,"rental_uris":{"android":"levelo://app?vid=3b3648bc-114e-4573-b5a4-e0750016f792","ios":"levelo://app?vid=3b3648bc-114e-4573-b5a4-e0750016f792"},"vehicle_type_id":"4","last_reported":1779474432,"current_range_meters":2800,"station_id":"","pricing_plan_id":"cebpf4jnsgd1na2vs0mg"},{"bike_id":"e27feea1-9bc4-4f71-870f-9ba99b38e6d2","system_id":"levelo_inurba_marseille","lat":43.2916,"lon":5.37281,"is_reserved":false,"is_disabled":false,"rental_uris":{"android":"levelo://app?vid=e27feea1-9bc4-4f71-870f-9ba99b38e6d2","ios":"levelo://app?vid=e27feea1-9bc4-4f71-870f-9ba99b38e6d2"},"vehicle_type_id":"4","last_reported":1779474432,"current_range_meters":2800,"station_id":"","pricing_plan_id":"cebpf4jnsgd1na2vs0mg"},{"bike_id":"72990549-565e-44c2-8673-3a1f3d742861","system_id":"levelo_inurba_marseille","lat":43.31897,"lon":5.3681,"is_reserved":false,"is_disabled":false,"rental_uris":{"android":"levelo://app?vid=72990549-565e-44c2-8673-3a1f3d742861","ios":"levelo://app?vid=72990549-565e-44c2-8673-3a1f3d742861"},"vehicle_type_id":"4","last_reported":1779474432,"current_range_meters":2800,"station_id":"st_d6o2h0d0559c73evc1b0","pricing_plan_id":"cebpf4jnsgd1na2vs0mg"},{"bike_id":"643f37d8-d032-4634-a3ab-bbf52c0841c3","system_id":"levelo_inurba_marseille","lat":43.29007,"lon":5.35603,"is_reserved":false,"is_disabled":false,"rental_uris":{"android":"levelo://app?vid=643f37d8-d032-4634-a3ab-bbf52c0841c3","ios":"levelo://app?vid=643f37d8-d032-4634-a3ab-bbf52c0841c3"},"vehicle_type_id":"4","last_reported":1779474432,"current_range_meters":3200,"station_id":"ce4bhb92rcd13ifvqen0","pricing_plan_id":"cebpf4jnsgd1na2vs0mg"},{"bike_id":"45476df2-ce3b-48e5-8c5b-ffc569732a54","system_id":"levelo_inurba_marseille","lat":43.29986,"lon":5.38498,"is_reserved":false,"is_disabled":false,"rental_uris":{"android":"levelo://app?vid=45476df2-ce3b-48e5-8c5b-ffc569732a54","ios":"levelo://app?vid=45476df2-ce3b-48e5-8c5b-ffc569732a54"},"vehicle_type_id":"4","last_reported":1779474432,"current_range_meters":3200,"station_id":"ce4bgj92rcd13ifvqbd0","pricing_plan_id":"cebpf4jnsgd1na2vs0mg"},{"bike_id":"c99cee5d-126d-4dd5-9087-604338168bd9","system_id":"levelo_inurba_marseille","lat":43.29519,"lon":5.3904,"is_reserved":false,"is_disabled":false,"rental_uris":{"android":"levelo://app?vid=c99cee5d-126d-4dd5-9087-604338168bd9","ios":"levelo://app?vid=c99cee5d-126d-4dd5-9087-604338168bd9"},"vehicle_type_id":"4","last_reported":1779474432,"current_range_meters":3200,"station_id":"ce4bh3p2rcd13ifvqdp0","pricing_plan_id":"cebpf4jnsgd1na2vs0mg"},{"bike_id":"d95c6373-e518-4821-89b9-ed2ad48343d0","system_id":"levelo_inurba_marseille","lat":43.28841,"lon":5.35849,"is_reserved":false,"is_disabled":false,"rental_uris":{"android":"levelo://app?vid=d95c6373-e518-4821-89b9-ed2ad48343d0","ios":"levelo://app?vid=d95c6373-e518-4821-89b9-ed2ad48343d0"},"vehicle_type_id":"4","last_reported":1779474432,"current_range_meters":3200,"station_id":"ce4bhb12rcd13ifvqem0","pricing_plan_id":"cebpf4jnsgd1na2vs0mg"},{"bike_id":"7ec93175-8d9c-4b31-b534-34e06405c4e0","system_id":"levelo_inurba_marseille","lat":43.29607,"lon":5.44707,"is_reserved":false,"is_disabled":false,"rental_uris":{"android":"levelo://app?vid=7ec93175-8d9c-4b31-b534-34e06405c4e0","ios":"levelo://app?vid=7ec93175-8d9c-4b31-b534-34e06405c4e0"},"vehicle_type_id":"4","last_reported":1779474432,"current_range_meters":3200,"station_id":"","pricing_plan_id":"cebpf4jnsgd1na2vs0mg"},{"bike_id":"d6ff3646-0274-4dd9-a106-3da2b6ba4b7a","system_id":"levelo_inurba_marseille","lat":43.31079,"lon":5.42427,"is_reserved":false,"is_disabled":false,"rental_uris":{"android":"levelo://app?vid=d6ff3646-0274-4dd9-a106-3da2b6ba4b7a","ios":"levelo://app?vid=d6ff3646-0274-4dd9-a106-3da2b6ba4b7a"},"vehicle_type_id":"4","last_reported":1779474432,"current_range_meters":3200,"station_id":"ce4bhp92rcd13ifvqhag","pricing_plan_id":"cebpf4jnsgd1na2vs0mg"},{"bike_id":"ffa17aa1-19f7-41fc-b107-bc5cbb96f634","system_id":"levelo_inurba_marseille","lat":43.298458,"lon":5.362778,"is_reserved":false,"is_disabled":false,"rental_uris":{"android":"levelo://app?vid=ffa17aa1-19f7-41fc-b107-bc5cbb96f634","ios":"levelo://app?vid=ffa17aa1-19f7-41fc-b107-bc5cbb96f634"},"vehicle_type_id":"4","last_reported":1779474432,"current_range_meters":3200,"station_id":"ce4bgpp2rcd13ifvqc3g","pricing_plan_id":"cebpf4jnsgd1na2vs0mg"},{"bike_id":"38d8c6d1-0842-4d1f-91cb-0622f3c94d6c","system_id":"levelo_inurba_marseille","lat":43.30456,"lon":5.38874,"is_reserved":false,"is_disabled":false,"rental_uris":{"android":"levelo://app?vid=38d8c6d1-0842-4d1f-91cb-0622f3c94d6c","ios":"levelo://app?vid=38d8c6d1-0842-4d1f-91cb-0622f3c94d6c"},"vehicle_type_id":"4","last_reported":1779474432,"current_range_meters":3200,"station_id":"ce4bgk12rcd13ifvqbi0","pricing_plan_id":"cebpf4jnsgd1na2vs0mg"},{"bike_id":"802f6596-9e42-4944-b997-3e6d9a946ac3","system_id":"levelo_inurba_marseille","lat":43.28403,"lon":5.37521,"is_reserved":false,"is_disabled":false,"rental_uris":{"android":"levelo://app?vid=802f6596-9e42-4944-b997-3e6d9a946ac3","ios":"levelo://app?vid=802f6596-9e42-4944-b997-3e6d9a946ac3"},"vehicle_type_id":"4","last_reported":1779474432,"current_range_meters":3200,"station_id":"ce4bh412rcd13ifvqds0","pricing_plan_id":"cebpf4jnsgd1na2vs0mg"},{"bike_id":"ce615eef-6ad9-4c68-9d98-cb91cd71adf6","system_id":"levelo_inurba_marseille","lat":43.24805,"lon":5.37468,"is_reserved":false,"is_disabled":false,"rental_uris":{"android":"levelo://app?vid=ce615eef-6ad9-4c68-9d98-cb91cd71adf6","ios":"levelo://app?vid=ce615eef-6ad9-4c68-9d98-cb91cd71adf6"},"vehicle_type_id":"4","last_reported":1779474432,"current_range_meters":3200,"station_id":"ce4bhgh2rcd13ifvqfb0","pricing_plan_id":"cebpf4jnsgd1na2vs0mg"},{"bike_id":"ca8a2f0a-5935-4f1a-8f98-7a83aa5c69de","system_id":"levelo_inurba_marseille","lat":43.30675,"lon":5.36849,"is_reserved":false,"is_disabled":false,"rental_uris":{"android":"levelo://app?vid=ca8a2f0a-5935-4f1a-8f98-7a83aa5c69de","ios":"levelo://app?vid=ca8a2f0a-5935-4f1a-8f98-7a83aa5c69de"},"vehicle_type_id":"4","last_reported":1779474432,"current_range_meters":3200,"station_id":"","pricing_plan_id":"cebpf4jnsgd1na2vs0mg"},{"bike_id":"74660328-c441-4424-99ad-d9576cde46bb","system_id":"levelo_inurba_marseille","lat":43.31884,"lon":5.36813,"is_reserved":false,"is_disabled":false,"rental_uris":{"android":"levelo://app?vid=74660328-c441-4424-99ad-d9576cde46bb","ios":"levelo://app?vid=74660328-c441-4424-99ad-d9576cde46bb"},"vehicle_type_id":"4","last_reported":1779474432,"current_range_meters":3200,"station_id":"st_d6o2h0d0559c73evc1b0","pricing_plan_id":"cebpf4jnsgd1na2vs0mg"},{"bike_id":"b5113365-dc56-4954-a612-9b8159184bc3","system_id":"levelo_inurba_marseille","lat":43.295109,"lon":5.39052,"is_reserved":false,"is_disabled":false,"rental_uris":{"android":"levelo://app?vid=b5113365-dc56-4954-a612-9b8159184bc3","ios":"levelo://app?vid=b5113365-dc56-4954-a612-9b8159184bc3"},"vehicle_type_id":"4","last_reported":1779474432,"current_range_meters":3200,"station_id":"ce4bh3p2rcd13ifvqdp0","pricing_plan_id":"cebpf4jnsgd1na2vs0mg"},{"bike_id":"80bc07e0-53c4-41fe-9549-9989b2143487","system_id":"levelo_inurba_marseille","lat":43.29022,"lon":5.38625,"is_reserved":false,"is_disabled":false,"rental_uris":{"android":"levelo://app?vid=80bc07e0-53c4-41fe-9549-9989b2143487","ios":"levelo://app?vid=80bc07e0-53c4-41fe-9549-9989b2143487"},"vehicle_type_id":"4","last_reported":1779474432,"current_range_meters":3200,"station_id":"ce4bh4p2rcd13ifvqe0g","pricing_plan_id":"cebpf4jnsgd1na2vs0mg"},{"bike_id":"7eebbda7-66b3-4973-bb8a-7ba5bc875a88","system_id":"levelo_inurba_marseille","lat":43.27172,"lon":5.40998,"is_reserved":false,"is_disabled":false,"rental_uris":{"android":"levelo://app?vid=7eebbda7-66b3-4973-bb8a-7ba5bc875a88","ios":"levelo://app?vid=7eebbda7-66b3-4973-bb8a-7ba5bc875a88"},"vehicle_type_id":"4","last_reported":1779474432,"current_range_meters":3200,"station_id":"ce4bhl12rcd13ifvqgf0","pricing_plan_id":"cebpf4jnsgd1na2vs0mg"},{"bike_id":"d5925df4-084c-4520-8a3f-e5f152dbfff6","system_id":"levelo_inurba_marseille","lat":43.31334,"lon":5.4032,"is_reserved":false,"is_disabled":false,"rental_uris":{"android":"levelo://app?vid=d5925df4-084c-4520-8a3f-e5f152dbfff6","ios":"levelo://app?vid=d5925df4-084c-4520-8a3f-e5f152dbfff6"},"vehicle_type_id":"4","last_reported":1779474432,"current_range_meters":3200,"station_id":"","pricing_plan_id":"cebpf4jnsgd1na2vs0mg"},{"bike_id":"1812d555-b6e7-4504-b98f-d49cd595a2a2","system_id":"levelo_inurba_marseille","lat":43.30437,"lon":5.38874,"is_reserved":false,"is_disabled":false,"rental_uris":{"android":"levelo://app?vid=1812d555-b6e7-4504-b98f-d49cd595a2a2","ios":"levelo://app?vid=1812d555-b6e7-4504-b98f-d49cd595a2a2"},"vehicle_type_id":"4","last_reported":1779474432,"current_range_meters":3200,"station_id":"ce4bgk12rcd13ifvqbi0","pricing_plan_id":"cebpf4jnsgd1na2vs0mg"},{"bike_id":"972e4029-acc2-47bb-a7c9-18c55104124c","system_id":"levelo_inurba_marseille","lat":43.29494,"lon":5.43311,"is_reserved":false,"is_disabled":false,"rental_uris":{"android":"levelo://app?vid=972e4029-acc2-47bb-a7c9-18c55104124c","ios":"levelo://app?vid=972e4029-acc2-47bb-a7c9-18c55104124c"},"vehicle_type_id":"4","last_reported":1779474432,"current_range_meters":3200,"station_id":"st_d3j5ugp08ojc73fj9d10","pricing_plan_id":"cebpf4jnsgd1na2vs0mg"},{"bike_id":"2cc0eb90-f189-4f0a-b8fe-98d17e83c758","system_id":"levelo_inurba_marseille","lat":43.30287,"lon":5.39222,"is_reserved":false,"is_disabled":false,"rental_uris":{"android":"levelo://app?vid=2cc0eb90-f189-4f0a-b8fe-98d17e83c758","ios":"levelo://app?vid=2cc0eb90-f189-4f0a-b8fe-98d17e83c758"},"vehicle_type_id":"4","last_reported":1779474432,"current_range_meters":3600,"station_id":"ce4bgkh2rcd13ifvqbk0","pricing_plan_id":"cebpf4jnsgd1na2vs0mg"},{"bike_id":"3936af97-ef4d-4f58-a35e-a0221d7e9a6c","system_id":"levelo_inurba_marseille","lat":43.22563,"lon":5.41646,"is_reserved":false,"is_disabled":false,"rental_uris":{"android":"levelo://app?vid=3936af97-ef4d-4f58-a35e-a0221d7e9a6c","ios":"levelo://app?vid=3936af97-ef4d-4f58-a35e-a0221d7e9a6c"},"vehicle_type_id":"4","last_reported":1779474432,"current_range_meters":3600,"station_id":"st_d2o4gvlbi1j2169b742g","pricing_plan_id":"cebpf4jnsgd1na2vs0mg"},{"bike_id":"b916dc26-3594-41bd-b79f-127b3208b674","system_id":"levelo_inurba_marseille","lat":43.25581,"lon":5.38237,"is_reserved":false,"is_disabled":true,"rental_uris":{"android":"levelo://app?vid=b916dc26-3594-41bd-b79f-127b3208b674","ios":"levelo://app?vid=b916dc26-3594-41bd-b79f-127b3208b674"},"vehicle_type_id":"4","last_reported":1779474432,"current_range_meters":3600,"station_id":"ce4bhih2rcd13ifvqfs0","pricing_plan_id":"cebpf4jnsgd1na2vs0mg"},{"bike_id":"8fa0d1c7-c544-456a-b047-c98ca3bbcad3","system_id":"levelo_inurba_marseille","lat":43.26949,"lon":5.40244,"is_reserved":false,"is_disabled":false,"rental_uris":{"android":"levelo://app?vid=8fa0d1c7-c544-456a-b047-c98ca3bbcad3","ios":"levelo://app?vid=8fa0d1c7-c544-456a-b047-c98ca3bbcad3"},"vehicle_type_id":"4","last_reported":1779474432,"current_range_meters":3600,"station_id":"cjm6bp8fraef2m0cb0m0","pricing_plan_id":"cebpf4jnsgd1na2vs0mg"},{"bike_id":"13667a7c-3253-4c24-a805-02c2f7b035ca","system_id":"levelo_inurba_marseille","lat":43.30109,"lon":5.3906,"is_reserved":false,"is_disabled":false,"rental_uris":{"android":"levelo://app?vid=13667a7c-3253-4c24-a805-02c2f7b035ca","ios":"levelo://app?vid=13667a7c-3253-4c24-a805-02c2f7b035ca"},"vehicle_type_id":"4","last_reported":1779474432,"current_range_meters":3600,"station_id":"ce4bh192rcd13ifvqdb0","pricing_plan_id":"cebpf4jnsgd1na2vs0mg"},{"bike_id":"659c92a3-3b72-4555-9299-8a3f645238bf","system_id":"levelo_inurba_marseille","lat":43.30125,"lon":5.43122,"is_reserved":false,"is_disabled":false,"rental_uris":{"android":"levelo://app?vid=659c92a3-3b72-4555-9299-8a3f645238bf","ios":"levelo://app?vid=659c92a3-3b72-4555-9299-8a3f645238bf"},"vehicle_type_id":"4","last_reported":1779474432,"current_range_meters":3600,"station_id":"st_d3js3co5814s73ftftug","pricing_plan_id":"cebpf4jnsgd1na2vs0mg"},{"bike_id":"831eb3fe-58c0-43aa-9c3c-e788c914eb48","system_id":"levelo_inurba_marseille","lat":43.27603,"lon":5.36121,"is_reserved":false,"is_disabled":true,"rental_uris":{"android":"levelo://app?vid=831eb3fe-58c0-43aa-9c3c-e788c914eb48","ios":"levelo://app?vid=831eb3fe-58c0-43aa-9c3c-e788c914eb48"},"vehicle_type_id":"4","last_reported":1779474432,"current_range_meters":3600,"station_id":"ce4bgj92rcd13ifvqbe0","pricing_plan_id":"cebpf4jnsgd1na2vs0mg"},{"bike_id":"013939bc-c53d-4e6f-be2a-05c79303cd52","system_id":"levelo_inurba_marseille","lat":43.3099,"lon":5.36649,"is_reserved":false,"is_disabled":false,"rental_uris":{"android":"levelo://app?vid=013939bc-c53d-4e6f-be2a-05c79303cd52","ios":"levelo://app?vid=013939bc-c53d-4e6f-be2a-05c79303cd52"},"vehicle_type_id":"4","last_reported":1779474432,"current_range_meters":3600,"station_id":"","pricing_plan_id":"cebpf4jnsgd1na2vs0mg"},{"bike_id":"eeca1756-cd62-40df-b0f5-c2894ddebeef","system_id":"levelo_inurba_marseille","lat":43.2622,"lon":5.38762,"is_reserved":false,"is_disabled":false,"rental_uris":{"android":"levelo://app?vid=eeca1756-cd62-40df-b0f5-c2894ddebeef","ios":"levelo://app?vid=eeca1756-cd62-40df-b0f5-c2894ddebeef"},"vehicle_type_id":"4","last_reported":1779474432,"current_range_meters":3600,"station_id":"","pricing_plan_id":"cebpf4jnsgd1na2vs0mg"},{"bike_id":"88d4750e-68c8-4422-93c8-338e2c3cf9b8","system_id":"levelo_inurba_marseille","lat":43.28632,"lon":5.37027,"is_reserved":false,"is_disabled":false,"rental_uris":{"android":"levelo://app?vid=88d4750e-68c8-4422-93c8-338e2c3cf9b8","ios":"levelo://app?vid=88d4750e-68c8-4422-93c8-338e2c3cf9b8"},"vehicle_type_id":"4","last_reported":1779474432,"current_range_meters":3600,"station_id":"ce4bht12rcd13ifvqi60","pricing_plan_id":"cebpf4jnsgd1na2vs0mg"},{"bike_id":"3b153416-13e5-411d-93a7-4e6ae1432f32","system_id":"levelo_inurba_marseille","lat":43.25707,"lon":5.41092,"is_reserved":false,"is_disabled":false,"rental_uris":{"android":"levelo://app?vid=3b153416-13e5-411d-93a7-4e6ae1432f32","ios":"levelo://app?vid=3b153416-13e5-411d-93a7-4e6ae1432f32"},"vehicle_type_id":"4","last_reported":1779474432,"current_range_meters":3600,"station_id":"ce4bhkp2rcd13ifvqgd0","pricing_plan_id":"cebpf4jnsgd1na2vs0mg"},{"bike_id":"6fd53c7f-da6e-4be7-86f8-d124fe216f16","system_id":"levelo_inurba_marseille","lat":43.27206,"lon":5.39177,"is_reserved":false,"is_disabled":false,"rental_uris":{"android":"levelo://app?vid=6fd53c7f-da6e-4be7-86f8-d124fe216f16","ios":"levelo://app?vid=6fd53c7f-da6e-4be7-86f8-d124fe216f16"},"vehicle_type_id":"4","last_reported":1779474432,"current_range_meters":3600,"station_id":"ce4bhhp2rcd13ifvqfm0","pricing_plan_id":"cebpf4jnsgd1na2vs0mg"},{"bike_id":"dd2abed1-ddeb-4b73-a2d1-73d2e33e9c90","system_id":"levelo_inurba_marseille","lat":43.26484,"lon":5.39547,"is_reserved":false,"is_disabled":false,"rental_uris":{"android":"levelo://app?vid=dd2abed1-ddeb-4b73-a2d1-73d2e33e9c90","ios":"levelo://app?vid=dd2abed1-ddeb-4b73-a2d1-73d2e33e9c90"},"vehicle_type_id":"4","last_reported":1779474432,"current_range_meters":3600,"station_id":"ce4bhi12rcd13ifvqfq0","pricing_plan_id":"cebpf4jnsgd1na2vs0mg"},{"bike_id":"0b1f493d-49f6-40eb-b2ec-87a4e2e2259a","system_id":"levelo_inurba_marseille","lat":43.23148,"lon":5.43723,"is_reserved":false,"is_disabled":false,"rental_uris":{"android":"levelo://app?vid=0b1f493d-49f6-40eb-b2ec-87a4e2e2259a","ios":"levelo://app?vid=0b1f493d-49f6-40eb-b2ec-87a4e2e2259a"},"vehicle_type_id":"4","last_reported":1779474432,"current_range_meters":3600,"station_id":"ce4bhmp2rcd13ifvqgog","pricing_plan_id":"cebpf4jnsgd1na2vs0mg"},{"bike_id":"326c3b88-1483-4040-a2ea-d8c9fab51d96","system_id":"levelo_inurba_marseille","lat":43.2957,"lon":5.37521,"is_reserved":false,"is_disabled":false,"rental_uris":{"android":"levelo://app?vid=326c3b88-1483-4040-a2ea-d8c9fab51d96","ios":"levelo://app?vid=326c3b88-1483-4040-a2ea-d8c9fab51d96"},"vehicle_type_id":"4","last_reported":1779474432,"current_range_meters":4000,"station_id":"ce4bgh92rcd13ifvqb50","pricing_plan_id":"cebpf4jnsgd1na2vs0mg"},{"bike_id":"e01e9a76-7559-40e0-bc65-36123416e7b0","system_id":"levelo_inurba_marseille","lat":43.31211,"lon":5.36877,"is_reserved":false,"is_disabled":false,"rental_uris":{"android":"levelo://app?vid=e01e9a76-7559-40e0-bc65-36123416e7b0","ios":"levelo://app?vid=e01e9a76-7559-40e0-bc65-36123416e7b0"},"vehicle_type_id":"4","last_reported":1779474432,"current_range_meters":4000,"station_id":"ce4bgl92rcd13ifvqbq0","pricing_plan_id":"cebpf4jnsgd1na2vs0mg"},{"bike_id":"a84fab8c-089a-4371-8813-a34f0edb4145","system_id":"levelo_inurba_marseille","lat":43.22956,"lon":5.35352,"is_reserved":false,"is_disabled":true,"rental_uris":{"android":"levelo://app?vid=a84fab8c-089a-4371-8813-a34f0edb4145","ios":"levelo://app?vid=a84fab8c-089a-4371-8813-a34f0edb4145"},"vehicle_type_id":"4","last_reported":1779474432,"current_range_meters":4000,"station_id":"cpo3532slgdg3j2ikp40","pricing_plan_id":"cebpf4jnsgd1na2vs0mg"},{"bike_id":"1f269095-bec3-4cce-9e7d-fde787e363dc","system_id":"levelo_inurba_marseille","lat":43.21762,"lon":5.34598,"is_reserved":false,"is_disabled":false,"rental_uris":{"android":"levelo://app?vid=1f269095-bec3-4cce-9e7d-fde787e363dc","ios":"levelo://app?vid=1f269095-bec3-4cce-9e7d-fde787e363dc"},"vehicle_type_id":"4","last_reported":1779474432,"current_range_meters":4000,"station_id":"st_cvj6r9ubvosntc0bgbag","pricing_plan_id":"cebpf4jnsgd1na2vs0mg"},{"bike_id":"ce0b92c9-8521-4993-b755-85a5078be877","system_id":"levelo_inurba_marseille","lat":43.30331,"lon":5.40432,"is_reserved":false,"is_disabled":false,"rental_uris":{"android":"levelo://app?vid=ce0b92c9-8521-4993-b755-85a5078be877","ios":"levelo://app?vid=ce0b92c9-8521-4993-b755-85a5078be877"},"vehicle_type_id":"4","last_reported":1779474432,"current_range_meters":4000,"station_id":"ce4bh012rcd13ifvqd10","pricing_plan_id":"cebpf4jnsgd1na2vs0mg"},{"bike_id":"6c9e73af-8242-4078-9c56-89b8665bcd3a","system_id":"levelo_inurba_marseille","lat":43.2843,"lon":5.37511,"is_reserved":false,"is_disabled":false,"rental_uris":{"android":"levelo://app?vid=6c9e73af-8242-4078-9c56-89b8665bcd3a","ios":"levelo://app?vid=6c9e73af-8242-4078-9c56-89b8665bcd3a"},"vehicle_type_id":"4","last_reported":1779474432,"current_range_meters":4000,"station_id":"ce4bh412rcd13ifvqds0","pricing_plan_id":"cebpf4jnsgd1na2vs0mg"},{"bike_id":"4fd71387-5464-406a-8960-7d8b8ea649a5","system_id":"levelo_inurba_marseille","lat":43.279211,"lon":5.395836,"is_reserved":false,"is_disabled":false,"rental_uris":{"android":"levelo://app?vid=4fd71387-5464-406a-8960-7d8b8ea649a5","ios":"levelo://app?vid=4fd71387-5464-406a-8960-7d8b8ea649a5"},"vehicle_type_id":"4","last_reported":1779474432,"current_range_meters":4000,"station_id":"ce4bhf92rcd13ifvqf40","pricing_plan_id":"cebpf4jnsgd1na2vs0mg"},{"bike_id":"79d5e3f2-b9b6-4883-b22f-eb7e8c5c417d","system_id":"levelo_inurba_marseille","lat":43.291644,"lon":5.371471,"is_reserved":false,"is_disabled":false,"rental_uris":{"android":"levelo://app?vid=79d5e3f2-b9b6-4883-b22f-eb7e8c5c417d","ios":"levelo://app?vid=79d5e3f2-b9b6-4883-b22f-eb7e8c5c417d"},"vehicle_type_id":"4","last_reported":1779474432,"current_range_meters":4000,"station_id":"ce4bha92rcd13ifvqeh0","pricing_plan_id":"cebpf4jnsgd1na2vs0mg"},{"bike_id":"5847f592-4000-4124-844d-747683bbddd0","system_id":"levelo_inurba_marseille","lat":43.299189,"lon":5.374859,"is_reserved":false,"is_disabled":false,"rental_uris":{"android":"levelo://app?vid=5847f592-4000-4124-844d-747683bbddd0","ios":"levelo://app?vid=5847f592-4000-4124-844d-747683bbddd0"},"vehicle_type_id":"4","last_reported":1779474432,"current_range_meters":4000,"station_id":"ce4bgjh2rcd13ifvqbg0","pricing_plan_id":"cebpf4jnsgd1na2vs0mg"},{"bike_id":"5d9a010c-8ce6-456e-a6ed-3d05a9432993","system_id":"levelo_inurba_marseille","lat":43.27991,"lon":5.40026,"is_reserved":false,"is_disabled":false,"rental_uris":{"android":"levelo://app?vid=5d9a010c-8ce6-456e-a6ed-3d05a9432993","ios":"levelo://app?vid=5d9a010c-8ce6-456e-a6ed-3d05a9432993"},"vehicle_type_id":"4","last_reported":1779474432,"current_range_meters":4000,"station_id":"ce4bho92rcd13ifvqh4g","pricing_plan_id":"cebpf4jnsgd1na2vs0mg"},{"bike_id":"c0fc652c-1559-442c-9073-abcdfaa2b068","system_id":"levelo_inurba_marseille","lat":43.28691,"lon":5.4669,"is_reserved":false,"is_disabled":false,"rental_uris":{"android":"levelo://app?vid=c0fc652c-1559-442c-9073-abcdfaa2b068","ios":"levelo://app?vid=c0fc652c-1559-442c-9073-abcdfaa2b068"},"vehicle_type_id":"4","last_reported":1779474432,"current_range_meters":4000,"station_id":"st_d6tc3vkotcvc738tfjhg","pricing_plan_id":"cebpf4jnsgd1na2vs0mg"},{"bike_id":"5891cb29-6e79-4ef7-851d-b9bad9543cb4","system_id":"levelo_inurba_marseille","lat":43.26554,"lon":5.37283,"is_reserved":false,"is_disabled":false,"rental_uris":{"android":"levelo://app?vid=5891cb29-6e79-4ef7-851d-b9bad9543cb4","ios":"levelo://app?vid=5891cb29-6e79-4ef7-851d-b9bad9543cb4"},"vehicle_type_id":"4","last_reported":1779474432,"current_range_meters":4000,"station_id":"ce4bhg12rcd13ifvqf70","pricing_plan_id":"cebpf4jnsgd1na2vs0mg"},{"bike_id":"1b9991e8-ab2a-4bf0-b1da-f039659865dc","system_id":"levelo_inurba_marseille","lat":43.29976,"lon":5.37215,"is_reserved":false,"is_disabled":false,"rental_uris":{"android":"levelo://app?vid=1b9991e8-ab2a-4bf0-b1da-f039659865dc","ios":"levelo://app?vid=1b9991e8-ab2a-4bf0-b1da-f039659865dc"},"vehicle_type_id":"4","last_reported":1779474432,"current_range_meters":4000,"station_id":"ce4bgr92rcd13ifvqc7g","pricing_plan_id":"cebpf4jnsgd1na2vs0mg"},{"bike_id":"01ff637c-65dd-4819-b832-fefc669722a1","system_id":"levelo_inurba_marseille","lat":43.29005,"lon":5.3561,"is_reserved":false,"is_disabled":false,"rental_uris":{"android":"levelo://app?vid=01ff637c-65dd-4819-b832-fefc669722a1","ios":"levelo://app?vid=01ff637c-65dd-4819-b832-fefc669722a1"},"vehicle_type_id":"4","last_reported":1779474432,"current_range_meters":4000,"station_id":"ce4bhb92rcd13ifvqen0","pricing_plan_id":"cebpf4jnsgd1na2vs0mg"},{"bike_id":"7f97e4dd-d5f8-4e84-b370-97270dd6e28b","system_id":"levelo_inurba_marseille","lat":43.26201,"lon":5.37932,"is_reserved":false,"is_disabled":false,"rental_uris":{"android":"levelo://app?vid=7f97e4dd-d5f8-4e84-b370-97270dd6e28b","ios":"levelo://app?vid=7f97e4dd-d5f8-4e84-b370-97270dd6e28b"},"vehicle_type_id":"4","last_reported":1779474432,"current_range_meters":4000,"station_id":"ce4bhjp2rcd13ifvqg90","pricing_plan_id":"cebpf4jnsgd1na2vs0mg"},{"bike_id":"2acb06d9-ff6b-48a5-9dd2-755efb559ed4","system_id":"levelo_inurba_marseille","lat":43.286084,"lon":5.351156,"is_reserved":false,"is_disabled":false,"rental_uris":{"android":"levelo://app?vid=2acb06d9-ff6b-48a5-9dd2-755efb559ed4","ios":"levelo://app?vid=2acb06d9-ff6b-48a5-9dd2-755efb559ed4"},"vehicle_type_id":"4","last_reported":1779474432,"current_range_meters":4000,"station_id":"ce4bhch2rcd13ifvqeug","pricing_plan_id":"cebpf4jnsgd1na2vs0mg"},{"bike_id":"ec5b297c-6c6f-46d7-af1b-87cfe632aa27","system_id":"levelo_inurba_marseille","lat":43.29196,"lon":5.35792,"is_reserved":false,"is_disabled":true,"rental_uris":{"android":"levelo://app?vid=ec5b297c-6c6f-46d7-af1b-87cfe632aa27","ios":"levelo://app?vid=ec5b297c-6c6f-46d7-af1b-87cfe632aa27"},"vehicle_type_id":"4","last_reported":1779474432,"current_range_meters":4000,"station_id":"ce4bhb12rcd13ifvqel0","pricing_plan_id":"cebpf4jnsgd1na2vs0mg"},{"bike_id":"7b864e30-ee41-43a5-bdbf-5420b31e564b","system_id":"levelo_inurba_marseille","lat":43.295305,"lon":5.385422,"is_reserved":false,"is_disabled":false,"rental_uris":{"android":"levelo://app?vid=7b864e30-ee41-43a5-bdbf-5420b31e564b","ios":"levelo://app?vid=7b864e30-ee41-43a5-bdbf-5420b31e564b"},"vehicle_type_id":"4","last_reported":1779474432,"current_range_meters":4000,"station_id":"ce4bgih2rcd13ifvqba0","pricing_plan_id":"cebpf4jnsgd1na2vs0mg"},{"bike_id":"d6b25117-ad92-4551-b0d4-3dc0d96e8362","system_id":"levelo_inurba_marseille","lat":43.31994,"lon":5.38162,"is_reserved":false,"is_disabled":false,"rental_uris":{"android":"levelo://app?vid=d6b25117-ad92-4551-b0d4-3dc0d96e8362","ios":"levelo://app?vid=d6b25117-ad92-4551-b0d4-3dc0d96e8362"},"vehicle_type_id":"4","last_reported":1779474432,"current_range_meters":4000,"station_id":"ce4bhr12rcd13ifvqhpg","pricing_plan_id":"cebpf4jnsgd1na2vs0mg"},{"bike_id":"9f0bf3d5-33c7-47d1-8145-065d476432c1","system_id":"levelo_inurba_marseille","lat":43.2902,"lon":5.38636,"is_reserved":false,"is_disabled":false,"rental_uris":{"android":"levelo://app?vid=9f0bf3d5-33c7-47d1-8145-065d476432c1","ios":"levelo://app?vid=9f0bf3d5-33c7-47d1-8145-065d476432c1"},"vehicle_type_id":"4","last_reported":1779474432,"current_range_meters":4000,"station_id":"ce4bh4p2rcd13ifvqe0g","pricing_plan_id":"cebpf4jnsgd1na2vs0mg"},{"bike_id":"c97309d8-44c6-4946-84f5-9a696edce419","system_id":"levelo_inurba_marseille","lat":43.31724,"lon":5.37722,"is_reserved":false,"is_disabled":false,"rental_uris":{"android":"levelo://app?vid=c97309d8-44c6-4946-84f5-9a696edce419","ios":"levelo://app?vid=c97309d8-44c6-4946-84f5-9a696edce419"},"vehicle_type_id":"4","last_reported":1779474432,"current_range_meters":4400,"station_id":"ce4bgth2rcd13ifvqch0","pricing_plan_id":"cebpf4jnsgd1na2vs0mg"},{"bike_id":"e3186371-0391-47d4-9927-7c8a3c2904ba","system_id":"levelo_inurba_marseille","lat":43.28304,"lon":5.38538,"is_reserved":false,"is_disabled":false,"rental_uris":{"android":"levelo://app?vid=e3186371-0391-47d4-9927-7c8a3c2904ba","ios":"levelo://app?vid=e3186371-0391-47d4-9927-7c8a3c2904ba"},"vehicle_type_id":"4","last_reported":1779474432,"current_range_meters":4400,"station_id":"","pricing_plan_id":"cebpf4jnsgd1na2vs0mg"},{"bike_id":"4f9b74af-2a14-4f34-bdde-27a61de43c5b","system_id":"levelo_inurba_marseille","lat":43.309433,"lon":5.39034,"is_reserved":false,"is_disabled":false,"rental_uris":{"android":"levelo://app?vid=4f9b74af-2a14-4f34-bdde-27a61de43c5b","ios":"levelo://app?vid=4f9b74af-2a14-4f34-bdde-27a61de43c5b"},"vehicle_type_id":"4","last_reported":1779474432,"current_range_meters":4400,"station_id":"ce4bgup2rcd13ifvqco0","pricing_plan_id":"cebpf4jnsgd1na2vs0mg"},{"bike_id":"936efd8c-4ba7-4c43-9116-1a8338e319af","system_id":"levelo_inurba_marseille","lat":43.29259,"lon":5.40948,"is_reserved":false,"is_disabled":false,"rental_uris":{"android":"levelo://app?vid=936efd8c-4ba7-4c43-9116-1a8338e319af","ios":"levelo://app?vid=936efd8c-4ba7-4c43-9116-1a8338e319af"},"vehicle_type_id":"4","last_reported":1779474432,"current_range_meters":4400,"station_id":"ce4bh192rcd13ifvqdc0","pricing_plan_id":"cebpf4jnsgd1na2vs0mg"},{"bike_id":"b45e4448-ee2b-44cc-b30f-f1a02ee56d36","system_id":"levelo_inurba_marseille","lat":43.28276,"lon":5.35071,"is_reserved":false,"is_disabled":false,"rental_uris":{"android":"levelo://app?vid=b45e4448-ee2b-44cc-b30f-f1a02ee56d36","ios":"levelo://app?vid=b45e4448-ee2b-44cc-b30f-f1a02ee56d36"},"vehicle_type_id":"4","last_reported":1779474432,"current_range_meters":4400,"station_id":"ce4bhbp2rcd13ifvqerg","pricing_plan_id":"cebpf4jnsgd1na2vs0mg"},{"bike_id":"bee028a3-208d-46e1-986d-7836b1ea51f7","system_id":"levelo_inurba_marseille","lat":43.29966,"lon":5.38479,"is_reserved":false,"is_disabled":false,"rental_uris":{"android":"levelo://app?vid=bee028a3-208d-46e1-986d-7836b1ea51f7","ios":"levelo://app?vid=bee028a3-208d-46e1-986d-7836b1ea51f7"},"vehicle_type_id":"4","last_reported":1779474432,"current_range_meters":4400,"station_id":"ce4bgj92rcd13ifvqbd0","pricing_plan_id":"cebpf4jnsgd1na2vs0mg"},{"bike_id":"0515141f-c245-4fd9-bbd6-8bc3719eeff2","system_id":"levelo_inurba_marseille","lat":43.28879,"lon":5.36061,"is_reserved":false,"is_disabled":true,"rental_uris":{"android":"levelo://app?vid=0515141f-c245-4fd9-bbd6-8bc3719eeff2","ios":"levelo://app?vid=0515141f-c245-4fd9-bbd6-8bc3719eeff2"},"vehicle_type_id":"4","last_reported":1779474432,"current_range_meters":4400,"station_id":"","pricing_plan_id":"cebpf4jnsgd1na2vs0mg"},{"bike_id":"cb3ca1a6-9e19-4658-bee5-6fee89decdb4","system_id":"levelo_inurba_marseille","lat":43.28835,"lon":5.39331,"is_reserved":false,"is_disabled":false,"rental_uris":{"android":"levelo://app?vid=cb3ca1a6-9e19-4658-bee5-6fee89decdb4","ios":"levelo://app?vid=cb3ca1a6-9e19-4658-bee5-6fee89decdb4"},"vehicle_type_id":"4","last_reported":1779474432,"current_range_meters":4400,"station_id":"ce4bh2p2rcd13ifvqdi0","pricing_plan_id":"cebpf4jnsgd1na2vs0mg"},{"bike_id":"ae73dd5f-c448-475f-be97-7d9f664d23a6","system_id":"levelo_inurba_marseille","lat":43.28555,"lon":5.38469,"is_reserved":false,"is_disabled":false,"rental_uris":{"android":"levelo://app?vid=ae73dd5f-c448-475f-be97-7d9f664d23a6","ios":"levelo://app?vid=ae73dd5f-c448-475f-be97-7d9f664d23a6"},"vehicle_type_id":"4","last_reported":1779474432,"current_range_meters":4400,"station_id":"","pricing_plan_id":"cebpf4jnsgd1na2vs0mg"},{"bike_id":"7847fedb-3405-46b4-aa4b-ee7257c9a4e8","system_id":"levelo_inurba_marseille","lat":43.26686,"lon":5.38257,"is_reserved":false,"is_disabled":false,"rental_uris":{"android":"levelo://app?vid=7847fedb-3405-46b4-aa4b-ee7257c9a4e8","ios":"levelo://app?vid=7847fedb-3405-46b4-aa4b-ee7257c9a4e8"},"vehicle_type_id":"4","last_reported":1779474432,"current_range_meters":4400,"station_id":"ce4bhg92rcd13ifvqf90","pricing_plan_id":"cebpf4jnsgd1na2vs0mg"},{"bike_id":"1204b2ed-716f-433d-a659-fbcf8963dc7b","system_id":"levelo_inurba_marseille","lat":43.2417,"lon":5.3973,"is_reserved":false,"is_disabled":false,"rental_uris":{"android":"levelo://app?vid=1204b2ed-716f-433d-a659-fbcf8963dc7b","ios":"levelo://app?vid=1204b2ed-716f-433d-a659-fbcf8963dc7b"},"vehicle_type_id":"4","last_reported":1779474432,"current_range_meters":4400,"station_id":"ce4bhn12rcd13ifvqgpg","pricing_plan_id":"cebpf4jnsgd1na2vs0mg"},{"bike_id":"78b7a86a-a4af-4200-9b4f-06f48ffe27ce","system_id":"levelo_inurba_marseille","lat":43.29667,"lon":5.402056,"is_reserved":false,"is_disabled":false,"rental_uris":{"android":"levelo://app?vid=78b7a86a-a4af-4200-9b4f-06f48ffe27ce","ios":"levelo://app?vid=78b7a86a-a4af-4200-9b4f-06f48ffe27ce"},"vehicle_type_id":"4","last_reported":1779474432,"current_range_meters":4400,"station_id":"","pricing_plan_id":"cebpf4jnsgd1na2vs0mg"},{"bike_id":"dc8ecb17-877e-4cc1-b17b-162fccaf564d","system_id":"levelo_inurba_marseille","lat":43.301392,"lon":5.39857,"is_reserved":false,"is_disabled":false,"rental_uris":{"android":"levelo://app?vid=dc8ecb17-877e-4cc1-b17b-162fccaf564d","ios":"levelo://app?vid=dc8ecb17-877e-4cc1-b17b-162fccaf564d"},"vehicle_type_id":"4","last_reported":1779474432,"current_range_meters":4400,"station_id":"ce4bh0h2rcd13ifvqd40","pricing_plan_id":"cebpf4jnsgd1na2vs0mg"},{"bike_id":"011acc2d-3788-4c35-89bb-7ac25962a865","system_id":"levelo_inurba_marseille","lat":43.2985,"lon":5.38085,"is_reserved":false,"is_disabled":false,"rental_uris":{"android":"levelo://app?vid=011acc2d-3788-4c35-89bb-7ac25962a865","ios":"levelo://app?vid=011acc2d-3788-4c35-89bb-7ac25962a865"},"vehicle_type_id":"4","last_reported":1779474432,"current_range_meters":4400,"station_id":"ce4bgip2rcd13ifvqbb0","pricing_plan_id":"cebpf4jnsgd1na2vs0mg"},{"bike_id":"80edc1b2-da5d-435a-b577-fef452505ec4","system_id":"levelo_inurba_marseille","lat":43.2623,"lon":5.38774,"is_reserved":false,"is_disabled":false,"rental_uris":{"android":"levelo://app?vid=80edc1b2-da5d-435a-b577-fef452505ec4","ios":"levelo://app?vid=80edc1b2-da5d-435a-b577-fef452505ec4"},"vehicle_type_id":"4","last_reported":1779474432,"current_range_meters":4400,"station_id":"","pricing_plan_id":"cebpf4jnsgd1na2vs0mg"},{"bike_id":"d7cf18c6-1af6-4a9a-a7bc-2d2565b0efcf","system_id":"levelo_inurba_marseille","lat":43.27812,"lon":5.4071,"is_reserved":false,"is_disabled":false,"rental_uris":{"android":"levelo://app?vid=d7cf18c6-1af6-4a9a-a7bc-2d2565b0efcf","ios":"levelo://app?vid=d7cf18c6-1af6-4a9a-a7bc-2d2565b0efcf"},"vehicle_type_id":"4","last_reported":1779474432,"current_range_meters":4400,"station_id":"ce4bhnh2rcd13ifvqgtg","pricing_plan_id":"cebpf4jnsgd1na2vs0mg"},{"bike_id":"24abcfc1-4580-4a46-b970-73785234bcb8","system_id":"levelo_inurba_marseille","lat":43.24071,"lon":5.37759,"is_reserved":false,"is_disabled":false,"rental_uris":{"android":"levelo://app?vid=24abcfc1-4580-4a46-b970-73785234bcb8","ios":"levelo://app?vid=24abcfc1-4580-4a46-b970-73785234bcb8"},"vehicle_type_id":"4","last_reported":1779474432,"current_range_meters":4400,"station_id":"ce4bhnp2rcd13ifvqgvg","pricing_plan_id":"cebpf4jnsgd1na2vs0mg"},{"bike_id":"8a59138f-e9ab-4084-bd9c-4a7113ee474f","system_id":"levelo_inurba_marseille","lat":43.25512,"lon":5.37655,"is_reserved":false,"is_disabled":false,"rental_uris":{"android":"levelo://app?vid=8a59138f-e9ab-4084-bd9c-4a7113ee474f","ios":"levelo://app?vid=8a59138f-e9ab-4084-bd9c-4a7113ee474f"},"vehicle_type_id":"4","last_reported":1779474432,"current_range_meters":4800,"station_id":"ce4bhh12rcd13ifvqff0","pricing_plan_id":"cebpf4jnsgd1na2vs0mg"},{"bike_id":"37893482-1ca7-4e65-a3f3-86c49eda4a22","system_id":"levelo_inurba_marseille","lat":43.30387,"lon":5.42465,"is_reserved":false,"is_disabled":true,"rental_uris":{"android":"levelo://app?vid=37893482-1ca7-4e65-a3f3-86c49eda4a22","ios":"levelo://app?vid=37893482-1ca7-4e65-a3f3-86c49eda4a22"},"vehicle_type_id":"4","last_reported":1779474432,"current_range_meters":4800,"station_id":"ce4bhoh2rcd13ifvqh6g","pricing_plan_id":"cebpf4jnsgd1na2vs0mg"},{"bike_id":"0ebd8f06-dab0-44bf-94cf-d6d99aba450f","system_id":"levelo_inurba_marseille","lat":43.305464,"lon":5.365632,"is_reserved":false,"is_disabled":false,"rental_uris":{"android":"levelo://app?vid=0ebd8f06-dab0-44bf-94cf-d6d99aba450f","ios":"levelo://app?vid=0ebd8f06-dab0-44bf-94cf-d6d99aba450f"},"vehicle_type_id":"4","last_reported":1779474432,"current_range_meters":4800,"station_id":"ce4bgs12rcd13ifvqcag","pricing_plan_id":"cebpf4jnsgd1na2vs0mg"},{"bike_id":"04c63912-095e-401c-ad25-ccb7776a5453","system_id":"levelo_inurba_marseille","lat":43.23966,"lon":5.36635,"is_reserved":false,"is_disabled":false,"rental_uris":{"android":"levelo://app?vid=04c63912-095e-401c-ad25-ccb7776a5453","ios":"levelo://app?vid=04c63912-095e-401c-ad25-ccb7776a5453"},"vehicle_type_id":"4","last_reported":1779474432,"current_range_meters":4800,"station_id":"ce4bhi12rcd13ifvqfp0","pricing_plan_id":"cebpf4jnsgd1na2vs0mg"},{"bike_id":"966d87b1-f1e6-4b94-9ea3-cdc148e4ba06","system_id":"levelo_inurba_marseille","lat":43.27681,"lon":5.38896,"is_reserved":false,"is_disabled":false,"rental_uris":{"android":"levelo://app?vid=966d87b1-f1e6-4b94-9ea3-cdc148e4ba06","ios":"levelo://app?vid=966d87b1-f1e6-4b94-9ea3-cdc148e4ba06"},"vehicle_type_id":"4","last_reported":1779474432,"current_range_meters":4800,"station_id":"ce4bhi12rcd13ifvqfo0","pricing_plan_id":"cebpf4jnsgd1na2vs0mg"},{"bike_id":"907b319a-de6f-446b-b8d5-32c712a07baf","system_id":"levelo_inurba_marseille","lat":43.27632,"lon":5.36106,"is_reserved":false,"is_disabled":false,"rental_uris":{"android":"levelo://app?vid=907b319a-de6f-446b-b8d5-32c712a07baf","ios":"levelo://app?vid=907b319a-de6f-446b-b8d5-32c712a07baf"},"vehicle_type_id":"4","last_reported":1779474432,"current_range_meters":4800,"station_id":"ce4bgj92rcd13ifvqbe0","pricing_plan_id":"cebpf4jnsgd1na2vs0mg"},{"bike_id":"c345dd67-7e70-4ddf-acbc-8d4309817164","system_id":"levelo_inurba_marseille","lat":43.27677,"lon":5.38881,"is_reserved":false,"is_disabled":false,"rental_uris":{"android":"levelo://app?vid=c345dd67-7e70-4ddf-acbc-8d4309817164","ios":"levelo://app?vid=c345dd67-7e70-4ddf-acbc-8d4309817164"},"vehicle_type_id":"4","last_reported":1779474432,"current_range_meters":4800,"station_id":"ce4bhi12rcd13ifvqfo0","pricing_plan_id":"cebpf4jnsgd1na2vs0mg"},{"bike_id":"1c18f7e7-efdd-45f7-ba21-e0d32607c74c","system_id":"levelo_inurba_marseille","lat":43.28687,"lon":5.46677,"is_reserved":false,"is_disabled":false,"rental_uris":{"android":"levelo://app?vid=1c18f7e7-efdd-45f7-ba21-e0d32607c74c","ios":"levelo://app?vid=1c18f7e7-efdd-45f7-ba21-e0d32607c74c"},"vehicle_type_id":"4","last_reported":1779474432,"current_range_meters":4800,"station_id":"st_d6tc3vkotcvc738tfjhg","pricing_plan_id":"cebpf4jnsgd1na2vs0mg"},{"bike_id":"b145127f-b86c-4a71-b4c0-33f76deb60c3","system_id":"levelo_inurba_marseille","lat":43.290285,"lon":5.386391,"is_reserved":false,"is_disabled":false,"rental_uris":{"android":"levelo://app?vid=b145127f-b86c-4a71-b4c0-33f76deb60c3","ios":"levelo://app?vid=b145127f-b86c-4a71-b4c0-33f76deb60c3"},"vehicle_type_id":"4","last_reported":1779474432,"current_range_meters":4800,"station_id":"ce4bh4p2rcd13ifvqe0g","pricing_plan_id":"cebpf4jnsgd1na2vs0mg"},{"bike_id":"3b5e9217-ce66-40c3-b799-7947d6e748b0","system_id":"levelo_inurba_marseille","lat":43.22573,"lon":5.34797,"is_reserved":false,"is_disabled":false,"rental_uris":{"android":"levelo://app?vid=3b5e9217-ce66-40c3-b799-7947d6e748b0","ios":"levelo://app?vid=3b5e9217-ce66-40c3-b799-7947d6e748b0"},"vehicle_type_id":"4","last_reported":1779474432,"current_range_meters":4800,"station_id":"st_cvj5dfep6f1abm77gieg","pricing_plan_id":"cebpf4jnsgd1na2vs0mg"},{"bike_id":"c8d558af-ac97-4e77-9fc7-e811447926c0","system_id":"levelo_inurba_marseille","lat":43.26221,"lon":5.38764,"is_reserved":false,"is_disabled":false,"rental_uris":{"android":"levelo://app?vid=c8d558af-ac97-4e77-9fc7-e811447926c0","ios":"levelo://app?vid=c8d558af-ac97-4e77-9fc7-e811447926c0"},"vehicle_type_id":"4","last_reported":1779474432,"current_range_meters":4800,"station_id":"","pricing_plan_id":"cebpf4jnsgd1na2vs0mg"},{"bike_id":"daa7210a-fefe-43d8-9c2d-46511d010a3b","system_id":"levelo_inurba_marseille","lat":43.30953,"lon":5.39032,"is_reserved":false,"is_disabled":false,"rental_uris":{"android":"levelo://app?vid=daa7210a-fefe-43d8-9c2d-46511d010a3b","ios":"levelo://app?vid=daa7210a-fefe-43d8-9c2d-46511d010a3b"},"vehicle_type_id":"4","last_reported":1779474432,"current_range_meters":4800,"station_id":"ce4bgup2rcd13ifvqco0","pricing_plan_id":"cebpf4jnsgd1na2vs0mg"},{"bike_id":"4c73ac5b-f848-44b9-9488-246344552796","system_id":"levelo_inurba_marseille","lat":43.28536,"lon":5.44093,"is_reserved":false,"is_disabled":false,"rental_uris":{"android":"levelo://app?vid=4c73ac5b-f848-44b9-9488-246344552796","ios":"levelo://app?vid=4c73ac5b-f848-44b9-9488-246344552796"},"vehicle_type_id":"4","last_reported":1779474432,"current_range_meters":4800,"station_id":"st_d3j3df2ikq2c7380ej80","pricing_plan_id":"cebpf4jnsgd1na2vs0mg"},{"bike_id":"ed4d1ee0-82fa-450e-939b-ff59569d454f","system_id":"levelo_inurba_marseille","lat":43.27561,"lon":5.38449,"is_reserved":false,"is_disabled":false,"rental_uris":{"android":"levelo://app?vid=ed4d1ee0-82fa-450e-939b-ff59569d454f","ios":"levelo://app?vid=ed4d1ee0-82fa-450e-939b-ff59569d454f"},"vehicle_type_id":"4","last_reported":1779474432,"current_range_meters":4800,"station_id":"ce4bhh92rcd13ifvqfi0","pricing_plan_id":"cebpf4jnsgd1na2vs0mg"},{"bike_id":"9bd2c99d-831a-4bd4-9d28-b381a9585878","system_id":"levelo_inurba_marseille","lat":43.23956,"lon":5.36635,"is_reserved":false,"is_disabled":false,"rental_uris":{"android":"levelo://app?vid=9bd2c99d-831a-4bd4-9d28-b381a9585878","ios":"levelo://app?vid=9bd2c99d-831a-4bd4-9d28-b381a9585878"},"vehicle_type_id":"4","last_reported":1779474432,"current_range_meters":4800,"station_id":"ce4bhi12rcd13ifvqfp0","pricing_plan_id":"cebpf4jnsgd1na2vs0mg"},{"bike_id":"70a2f69d-4e26-4fc4-915f-a643f1da2da3","system_id":"levelo_inurba_marseille","lat":43.27671,"lon":5.38875,"is_reserved":false,"is_disabled":false,"rental_uris":{"android":"levelo://app?vid=70a2f69d-4e26-4fc4-915f-a643f1da2da3","ios":"levelo://app?vid=70a2f69d-4e26-4fc4-915f-a643f1da2da3"},"vehicle_type_id":"4","last_reported":1779474432,"current_range_meters":4800,"station_id":"ce4bhi12rcd13ifvqfo0","pricing_plan_id":"cebpf4jnsgd1na2vs0mg"},{"bike_id":"8494ae9f-0028-448d-9f37-e52ed5e4c776","system_id":"levelo_inurba_marseille","lat":43.313207,"lon":5.396995,"is_reserved":false,"is_disabled":false,"rental_uris":{"android":"levelo://app?vid=8494ae9f-0028-448d-9f37-e52ed5e4c776","ios":"levelo://app?vid=8494ae9f-0028-448d-9f37-e52ed5e4c776"},"vehicle_type_id":"4","last_reported":1779474432,"current_range_meters":4800,"station_id":"ce4bgvp2rcd13ifvqcu0","pricing_plan_id":"cebpf4jnsgd1na2vs0mg"},{"bike_id":"c77ed54e-3d2a-4435-90ab-591781710cbd","system_id":"levelo_inurba_marseille","lat":43.290183,"lon":5.381307,"is_reserved":false,"is_disabled":false,"rental_uris":{"android":"levelo://app?vid=c77ed54e-3d2a-4435-90ab-591781710cbd","ios":"levelo://app?vid=c77ed54e-3d2a-4435-90ab-591781710cbd"},"vehicle_type_id":"4","last_reported":1779474432,"current_range_meters":4800,"station_id":"ce4bh4p2rcd13ifvqe1g","pricing_plan_id":"cebpf4jnsgd1na2vs0mg"},{"bike_id":"586336a8-35d5-48ea-9dcf-0a54c29152fb","system_id":"levelo_inurba_marseille","lat":43.28446,"lon":5.3588,"is_reserved":false,"is_disabled":false,"rental_uris":{"android":"levelo://app?vid=586336a8-35d5-48ea-9dcf-0a54c29152fb","ios":"levelo://app?vid=586336a8-35d5-48ea-9dcf-0a54c29152fb"},"vehicle_type_id":"4","last_reported":1779474432,"current_range_meters":4800,"station_id":"ce4bhah2rcd13ifvqei0","pricing_plan_id":"cebpf4jnsgd1na2vs0mg"},{"bike_id":"3087c968-4926-49f3-8cf6-3c974e51f6a0","system_id":"levelo_inurba_marseille","lat":43.24859,"lon":5.37503,"is_reserved":false,"is_disabled":true,"rental_uris":{"android":"levelo://app?vid=3087c968-4926-49f3-8cf6-3c974e51f6a0","ios":"levelo://app?vid=3087c968-4926-49f3-8cf6-3c974e51f6a0"},"vehicle_type_id":"4","last_reported":1779474432,"current_range_meters":4800,"station_id":"","pricing_plan_id":"cebpf4jnsgd1na2vs0mg"},{"bike_id":"55f2ba3e-152c-4acf-ad3c-6fb659a8843f","system_id":"levelo_inurba_marseille","lat":43.262,"lon":5.37449,"is_reserved":false,"is_disabled":false,"rental_uris":{"android":"levelo://app?vid=55f2ba3e-152c-4acf-ad3c-6fb659a8843f","ios":"levelo://app?vid=55f2ba3e-152c-4acf-ad3c-6fb659a8843f"},"vehicle_type_id":"4","last_reported":1779474432,"current_range_meters":4800,"station_id":"ce4bhgp2rcd13ifvqfc0","pricing_plan_id":"cebpf4jnsgd1na2vs0mg"},{"bike_id":"3d436a0d-575b-42d3-8681-5c87057b3b7f","system_id":"levelo_inurba_marseille","lat":43.27935,"lon":5.43627,"is_reserved":false,"is_disabled":false,"rental_uris":{"android":"levelo://app?vid=3d436a0d-575b-42d3-8681-5c87057b3b7f","ios":"levelo://app?vid=3d436a0d-575b-42d3-8681-5c87057b3b7f"},"vehicle_type_id":"4","last_reported":1779474432,"current_range_meters":4800,"station_id":"","pricing_plan_id":"cebpf4jnsgd1na2vs0mg"},{"bike_id":"acd6894a-5372-437b-a9b7-c0a175650af8","system_id":"levelo_inurba_marseille","lat":43.29175,"lon":5.42208,"is_reserved":false,"is_disabled":true,"rental_uris":{"android":"levelo://app?vid=acd6894a-5372-437b-a9b7-c0a175650af8","ios":"levelo://app?vid=acd6894a-5372-437b-a9b7-c0a175650af8"},"vehicle_type_id":"4","last_reported":1779474432,"current_range_meters":4800,"station_id":"","pricing_plan_id":"cebpf4jnsgd1na2vs0mg"},{"bike_id":"4f335df4-1473-48c1-8255-a7e6b92b85d3","system_id":"levelo_inurba_marseille","lat":43.24404,"lon":5.37416,"is_reserved":false,"is_disabled":false,"rental_uris":{"android":"levelo://app?vid=4f335df4-1473-48c1-8255-a7e6b92b85d3","ios":"levelo://app?vid=4f335df4-1473-48c1-8255-a7e6b92b85d3"},"vehicle_type_id":"4","last_reported":1779474432,"current_range_meters":4800,"station_id":"","pricing_plan_id":"cebpf4jnsgd1na2vs0mg"},{"bike_id":"20a29b98-7ed5-4dad-8b80-4060875ba548","system_id":"levelo_inurba_marseille","lat":43.2671,"lon":5.3825,"is_reserved":false,"is_disabled":false,"rental_uris":{"android":"levelo://app?vid=20a29b98-7ed5-4dad-8b80-4060875ba548","ios":"levelo://app?vid=20a29b98-7ed5-4dad-8b80-4060875ba548"},"vehicle_type_id":"4","last_reported":1779474432,"current_range_meters":5600,"station_id":"ce4bhg92rcd13ifvqf90","pricing_plan_id":"cebpf4jnsgd1na2vs0mg"},{"bike_id":"3a1cd3a6-234a-463f-a7bd-b8c4701053ff","system_id":"levelo_inurba_marseille","lat":43.285716,"lon":5.394941,"is_reserved":false,"is_disabled":false,"rental_uris":{"android":"levelo://app?vid=3a1cd3a6-234a-463f-a7bd-b8c4701053ff","ios":"levelo://app?vid=3a1cd3a6-234a-463f-a7bd-b8c4701053ff"},"vehicle_type_id":"4","last_reported":1779474432,"current_range_meters":5600,"station_id":"ce4bh292rcd13ifvqdg0","pricing_plan_id":"cebpf4jnsgd1na2vs0mg"},{"bike_id":"dbb64609-0996-41ff-88a8-2d79d3b5bca3","system_id":"levelo_inurba_marseille","lat":43.29535,"lon":5.38541,"is_reserved":false,"is_disabled":false,"rental_uris":{"android":"levelo://app?vid=dbb64609-0996-41ff-88a8-2d79d3b5bca3","ios":"levelo://app?vid=dbb64609-0996-41ff-88a8-2d79d3b5bca3"},"vehicle_type_id":"4","last_reported":1779474432,"current_range_meters":5600,"station_id":"ce4bgih2rcd13ifvqba0","pricing_plan_id":"cebpf4jnsgd1na2vs0mg"},{"bike_id":"953377cf-ed60-4f2b-827e-5d32a60b75f9","system_id":"levelo_inurba_marseille","lat":43.28614,"lon":5.35099,"is_reserved":false,"is_disabled":false,"rental_uris":{"android":"levelo://app?vid=953377cf-ed60-4f2b-827e-5d32a60b75f9","ios":"levelo://app?vid=953377cf-ed60-4f2b-827e-5d32a60b75f9"},"vehicle_type_id":"4","last_reported":1779474432,"current_range_meters":5600,"station_id":"ce4bhch2rcd13ifvqeug","pricing_plan_id":"cebpf4jnsgd1na2vs0mg"},{"bike_id":"5f78cafb-50df-43c9-ba0e-71375d271df2","system_id":"levelo_inurba_marseille","lat":43.30519,"lon":5.36712,"is_reserved":false,"is_disabled":false,"rental_uris":{"android":"levelo://app?vid=5f78cafb-50df-43c9-ba0e-71375d271df2","ios":"levelo://app?vid=5f78cafb-50df-43c9-ba0e-71375d271df2"},"vehicle_type_id":"4","last_reported":1779474432,"current_range_meters":5600,"station_id":"ce4bgrp2rcd13ifvqc9g","pricing_plan_id":"cebpf4jnsgd1na2vs0mg"},{"bike_id":"669755b1-4bec-434c-9d11-dd7c750b4c3b","system_id":"levelo_inurba_marseille","lat":43.30124,"lon":5.43113,"is_reserved":false,"is_disabled":false,"rental_uris":{"android":"levelo://app?vid=669755b1-4bec-434c-9d11-dd7c750b4c3b","ios":"levelo://app?vid=669755b1-4bec-434c-9d11-dd7c750b4c3b"},"vehicle_type_id":"4","last_reported":1779474432,"current_range_meters":5600,"station_id":"st_d3js3co5814s73ftftug","pricing_plan_id":"cebpf4jnsgd1na2vs0mg"},{"bike_id":"5c530a9e-7c4a-4aa6-adac-4172a237ef4e","system_id":"levelo_inurba_marseille","lat":43.28587,"lon":5.34964,"is_reserved":false,"is_disabled":false,"rental_uris":{"android":"levelo://app?vid=5c530a9e-7c4a-4aa6-adac-4172a237ef4e","ios":"levelo://app?vid=5c530a9e-7c4a-4aa6-adac-4172a237ef4e"},"vehicle_type_id":"4","last_reported":1779474432,"current_range_meters":5600,"station_id":"","pricing_plan_id":"cebpf4jnsgd1na2vs0mg"},{"bike_id":"b7e0fa63-60b1-4ef3-814a-19fe58151f8d","system_id":"levelo_inurba_marseille","lat":43.24165,"lon":5.3642,"is_reserved":false,"is_disabled":false,"rental_uris":{"android":"levelo://app?vid=b7e0fa63-60b1-4ef3-814a-19fe58151f8d","ios":"levelo://app?vid=b7e0fa63-60b1-4ef3-814a-19fe58151f8d"},"vehicle_type_id":"4","last_reported":1779474432,"current_range_meters":5600,"station_id":"cpo36qri1sfpv3e86is0","pricing_plan_id":"cebpf4jnsgd1na2vs0mg"},{"bike_id":"d58c4095-f4e1-4367-a58f-48d18bc0482c","system_id":"levelo_inurba_marseille","lat":43.27316,"lon":5.39095,"is_reserved":false,"is_disabled":false,"rental_uris":{"android":"levelo://app?vid=d58c4095-f4e1-4367-a58f-48d18bc0482c","ios":"levelo://app?vid=d58c4095-f4e1-4367-a58f-48d18bc0482c"},"vehicle_type_id":"4","last_reported":1779474432,"current_range_meters":5600,"station_id":"ce4bhgp2rcd13ifvqfe0","pricing_plan_id":"cebpf4jnsgd1na2vs0mg"},{"bike_id":"55ff971c-f753-4ef7-83e4-054f84d32949","system_id":"levelo_inurba_marseille","lat":43.29951,"lon":5.36636,"is_reserved":false,"is_disabled":true,"rental_uris":{"android":"levelo://app?vid=55ff971c-f753-4ef7-83e4-054f84d32949","ios":"levelo://app?vid=55ff971c-f753-4ef7-83e4-054f84d32949"},"vehicle_type_id":"4","last_reported":1779474432,"current_range_meters":5600,"station_id":"","pricing_plan_id":"cebpf4jnsgd1na2vs0mg"},{"bike_id":"ca8270b4-d39a-47bc-a5ba-46cea51aa1f5","system_id":"levelo_inurba_marseille","lat":43.28047,"lon":5.35291,"is_reserved":false,"is_disabled":false,"rental_uris":{"android":"levelo://app?vid=ca8270b4-d39a-47bc-a5ba-46cea51aa1f5","ios":"levelo://app?vid=ca8270b4-d39a-47bc-a5ba-46cea51aa1f5"},"vehicle_type_id":"4","last_reported":1779474432,"current_range_meters":5600,"station_id":"","pricing_plan_id":"cebpf4jnsgd1na2vs0mg"},{"bike_id":"a0789018-2c68-4a2f-8146-a8f2b8e4a119","system_id":"levelo_inurba_marseille","lat":43.2796,"lon":5.38708,"is_reserved":false,"is_disabled":true,"rental_uris":{"android":"levelo://app?vid=a0789018-2c68-4a2f-8146-a8f2b8e4a119","ios":"levelo://app?vid=a0789018-2c68-4a2f-8146-a8f2b8e4a119"},"vehicle_type_id":"4","last_reported":1779474432,"current_range_meters":5600,"station_id":"ce4bhg12rcd13ifvqf80","pricing_plan_id":"cebpf4jnsgd1na2vs0mg"},{"bike_id":"e786b313-4356-4a74-b6dc-374e1e4b0c67","system_id":"levelo_inurba_marseille","lat":43.27808,"lon":5.40723,"is_reserved":false,"is_disabled":false,"rental_uris":{"android":"levelo://app?vid=e786b313-4356-4a74-b6dc-374e1e4b0c67","ios":"levelo://app?vid=e786b313-4356-4a74-b6dc-374e1e4b0c67"},"vehicle_type_id":"4","last_reported":1779474432,"current_range_meters":5600,"station_id":"ce4bhnh2rcd13ifvqgtg","pricing_plan_id":"cebpf4jnsgd1na2vs0mg"},{"bike_id":"e1e8d0c5-7cff-4a52-a548-b6f5342738ad","system_id":"levelo_inurba_marseille","lat":43.31391,"lon":5.36661,"is_reserved":false,"is_disabled":false,"rental_uris":{"android":"levelo://app?vid=e1e8d0c5-7cff-4a52-a548-b6f5342738ad","ios":"levelo://app?vid=e1e8d0c5-7cff-4a52-a548-b6f5342738ad"},"vehicle_type_id":"4","last_reported":1779474432,"current_range_meters":5600,"station_id":"ce4bgr92rcd13ifvqc6g","pricing_plan_id":"cebpf4jnsgd1na2vs0mg"},{"bike_id":"b5f78969-2d9d-448d-8f6d-b8c13de13c70","system_id":"levelo_inurba_marseille","lat":43.23178,"lon":5.39993,"is_reserved":false,"is_disabled":false,"rental_uris":{"android":"levelo://app?vid=b5f78969-2d9d-448d-8f6d-b8c13de13c70","ios":"levelo://app?vid=b5f78969-2d9d-448d-8f6d-b8c13de13c70"},"vehicle_type_id":"4","last_reported":1779474432,"current_range_meters":5600,"station_id":"ce4bhn12rcd13ifvqgqg","pricing_plan_id":"cebpf4jnsgd1na2vs0mg"},{"bike_id":"a2d22f16-f484-44b8-b314-a7c10ff07acc","system_id":"levelo_inurba_marseille","lat":43.30301,"lon":5.39212,"is_reserved":false,"is_disabled":false,"rental_uris":{"android":"levelo://app?vid=a2d22f16-f484-44b8-b314-a7c10ff07acc","ios":"levelo://app?vid=a2d22f16-f484-44b8-b314-a7c10ff07acc"},"vehicle_type_id":"4","last_reported":1779474432,"current_range_meters":5600,"station_id":"ce4bgkh2rcd13ifvqbk0","pricing_plan_id":"cebpf4jnsgd1na2vs0mg"},{"bike_id":"4a65d6b3-dc2f-4012-868a-1c12b04ab0ca","system_id":"levelo_inurba_marseille","lat":43.23069,"lon":5.35478,"is_reserved":false,"is_disabled":false,"rental_uris":{"android":"levelo://app?vid=4a65d6b3-dc2f-4012-868a-1c12b04ab0ca","ios":"levelo://app?vid=4a65d6b3-dc2f-4012-868a-1c12b04ab0ca"},"vehicle_type_id":"4","last_reported":1779474432,"current_range_meters":5600,"station_id":"cpo3342slgdg3j2ifvpg","pricing_plan_id":"cebpf4jnsgd1na2vs0mg"},{"bike_id":"e0c89d73-82ff-4881-9178-6a3f1a454ba1","system_id":"levelo_inurba_marseille","lat":43.25862,"lon":5.3991,"is_reserved":false,"is_disabled":false,"rental_uris":{"android":"levelo://app?vid=e0c89d73-82ff-4881-9178-6a3f1a454ba1","ios":"levelo://app?vid=e0c89d73-82ff-4881-9178-6a3f1a454ba1"},"vehicle_type_id":"4","last_reported":1779474432,"current_range_meters":5600,"station_id":"ce4bhl92rcd13ifvqghg","pricing_plan_id":"cebpf4jnsgd1na2vs0mg"},{"bike_id":"9c5487b1-6c5e-436b-81d2-45c9e12dac00","system_id":"levelo_inurba_marseille","lat":43.28269,"lon":5.35073,"is_reserved":false,"is_disabled":false,"rental_uris":{"android":"levelo://app?vid=9c5487b1-6c5e-436b-81d2-45c9e12dac00","ios":"levelo://app?vid=9c5487b1-6c5e-436b-81d2-45c9e12dac00"},"vehicle_type_id":"4","last_reported":1779474432,"current_range_meters":5600,"station_id":"ce4bhbp2rcd13ifvqerg","pricing_plan_id":"cebpf4jnsgd1na2vs0mg"},{"bike_id":"531e6b23-1b60-475a-9411-24d6c208971a","system_id":"levelo_inurba_marseille","lat":43.25639,"lon":5.38535,"is_reserved":false,"is_disabled":false,"rental_uris":{"android":"levelo://app?vid=531e6b23-1b60-475a-9411-24d6c208971a","ios":"levelo://app?vid=531e6b23-1b60-475a-9411-24d6c208971a"},"vehicle_type_id":"4","last_reported":1779474432,"current_range_meters":5600,"station_id":"","pricing_plan_id":"cebpf4jnsgd1na2vs0mg"},{"bike_id":"103c3925-0fed-4670-8dde-c29c1ddbe606","system_id":"levelo_inurba_marseille","lat":43.246323,"lon":5.431301,"is_reserved":false,"is_disabled":false,"rental_uris":{"android":"levelo://app?vid=103c3925-0fed-4670-8dde-c29c1ddbe606","ios":"levelo://app?vid=103c3925-0fed-4670-8dde-c29c1ddbe606"},"vehicle_type_id":"4","last_reported":1779474432,"current_range_meters":5600,"station_id":"st_d2m6c4gdas8pm72e190g","pricing_plan_id":"cebpf4jnsgd1na2vs0mg"},{"bike_id":"875ff3ec-3d53-4289-87d8-004996e2dc85","system_id":"levelo_inurba_marseille","lat":43.292646,"lon":5.38435,"is_reserved":false,"is_disabled":false,"rental_uris":{"android":"levelo://app?vid=875ff3ec-3d53-4289-87d8-004996e2dc85","ios":"levelo://app?vid=875ff3ec-3d53-4289-87d8-004996e2dc85"},"vehicle_type_id":"4","last_reported":1779474432,"current_range_meters":5600,"station_id":"ce4bh692rcd13ifvqea0","pricing_plan_id":"cebpf4jnsgd1na2vs0mg"},{"bike_id":"5296272f-58b1-4446-aeda-ac09e7b9cbb9","system_id":"levelo_inurba_marseille","lat":43.28456,"lon":5.3589,"is_reserved":false,"is_disabled":false,"rental_uris":{"android":"levelo://app?vid=5296272f-58b1-4446-aeda-ac09e7b9cbb9","ios":"levelo://app?vid=5296272f-58b1-4446-aeda-ac09e7b9cbb9"},"vehicle_type_id":"4","last_reported":1779474432,"current_range_meters":5600,"station_id":"ce4bhah2rcd13ifvqei0","pricing_plan_id":"cebpf4jnsgd1na2vs0mg"},{"bike_id":"7bf6ce88-507a-4053-8d22-733e816b3a21","system_id":"levelo_inurba_marseille","lat":43.30545,"lon":5.38415,"is_reserved":false,"is_disabled":false,"rental_uris":{"android":"levelo://app?vid=7bf6ce88-507a-4053-8d22-733e816b3a21","ios":"levelo://app?vid=7bf6ce88-507a-4053-8d22-733e816b3a21"},"vehicle_type_id":"4","last_reported":1779474432,"current_range_meters":5600,"station_id":"ce4bgg92rcd13ifvqb30","pricing_plan_id":"cebpf4jnsgd1na2vs0mg"},{"bike_id":"6378b808-d994-4004-9991-97fbd05b2293","system_id":"levelo_inurba_marseille","lat":43.28406,"lon":5.37511,"is_reserved":false,"is_disabled":false,"rental_uris":{"android":"levelo://app?vid=6378b808-d994-4004-9991-97fbd05b2293","ios":"levelo://app?vid=6378b808-d994-4004-9991-97fbd05b2293"},"vehicle_type_id":"4","last_reported":1779474432,"current_range_meters":5600,"station_id":"ce4bh412rcd13ifvqds0","pricing_plan_id":"cebpf4jnsgd1na2vs0mg"},{"bike_id":"b36f6250-7319-4924-8bcd-74f03836ee41","system_id":"levelo_inurba_marseille","lat":43.23953,"lon":5.36617,"is_reserved":false,"is_disabled":false,"rental_uris":{"android":"levelo://app?vid=b36f6250-7319-4924-8bcd-74f03836ee41","ios":"levelo://app?vid=b36f6250-7319-4924-8bcd-74f03836ee41"},"vehicle_type_id":"4","last_reported":1779474432,"current_range_meters":6000,"station_id":"ce4bhi12rcd13ifvqfp0","pricing_plan_id":"cebpf4jnsgd1na2vs0mg"},{"bike_id":"d6ef5181-9c65-4b14-a132-bd2560a893a3","system_id":"levelo_inurba_marseille","lat":43.25826,"lon":5.39434,"is_reserved":false,"is_disabled":false,"rental_uris":{"android":"levelo://app?vid=d6ef5181-9c65-4b14-a132-bd2560a893a3","ios":"levelo://app?vid=d6ef5181-9c65-4b14-a132-bd2560a893a3"},"vehicle_type_id":"4","last_reported":1779474432,"current_range_meters":6000,"station_id":"ce4bhip2rcd13ifvqft0","pricing_plan_id":"cebpf4jnsgd1na2vs0mg"},{"bike_id":"58f08ebb-b0c6-47ad-85e5-88369ba3049c","system_id":"levelo_inurba_marseille","lat":43.25105,"lon":5.40379,"is_reserved":false,"is_disabled":true,"rental_uris":{"android":"levelo://app?vid=58f08ebb-b0c6-47ad-85e5-88369ba3049c","ios":"levelo://app?vid=58f08ebb-b0c6-47ad-85e5-88369ba3049c"},"vehicle_type_id":"4","last_reported":1779474432,"current_range_meters":6000,"station_id":"ce4bhlh2rcd13ifvqgig","pricing_plan_id":"cebpf4jnsgd1na2vs0mg"},{"bike_id":"2d09449d-df92-4d3e-9412-ea34f0e8afc0","system_id":"levelo_inurba_marseille","lat":43.29612,"lon":5.38532,"is_reserved":false,"is_disabled":false,"rental_uris":{"android":"levelo://app?vid=2d09449d-df92-4d3e-9412-ea34f0e8afc0","ios":"levelo://app?vid=2d09449d-df92-4d3e-9412-ea34f0e8afc0"},"vehicle_type_id":"4","last_reported":1779474432,"current_range_meters":6000,"station_id":"","pricing_plan_id":"cebpf4jnsgd1na2vs0mg"},{"bike_id":"ca7bec4c-c9ce-4816-988f-528f79a7e440","system_id":"levelo_inurba_marseille","lat":43.3205,"lon":5.41568,"is_reserved":false,"is_disabled":false,"rental_uris":{"android":"levelo://app?vid=ca7bec4c-c9ce-4816-988f-528f79a7e440","ios":"levelo://app?vid=ca7bec4c-c9ce-4816-988f-528f79a7e440"},"vehicle_type_id":"4","last_reported":1779474432,"current_range_meters":6000,"station_id":"ce4bhq92rcd13ifvqhkg","pricing_plan_id":"cebpf4jnsgd1na2vs0mg"},{"bike_id":"3200b978-002a-4bf0-9ea7-51cc9e75e711","system_id":"levelo_inurba_marseille","lat":43.27177,"lon":5.40994,"is_reserved":false,"is_disabled":false,"rental_uris":{"android":"levelo://app?vid=3200b978-002a-4bf0-9ea7-51cc9e75e711","ios":"levelo://app?vid=3200b978-002a-4bf0-9ea7-51cc9e75e711"},"vehicle_type_id":"4","last_reported":1779474432,"current_range_meters":6000,"station_id":"ce4bhl12rcd13ifvqgf0","pricing_plan_id":"cebpf4jnsgd1na2vs0mg"},{"bike_id":"96f42b6b-6441-4dab-b89d-94bd7ab6e703","system_id":"levelo_inurba_marseille","lat":43.282702,"lon":5.350702,"is_reserved":false,"is_disabled":false,"rental_uris":{"android":"levelo://app?vid=96f42b6b-6441-4dab-b89d-94bd7ab6e703","ios":"levelo://app?vid=96f42b6b-6441-4dab-b89d-94bd7ab6e703"},"vehicle_type_id":"4","last_reported":1779474432,"current_range_meters":6000,"station_id":"ce4bhbp2rcd13ifvqerg","pricing_plan_id":"cebpf4jnsgd1na2vs0mg"},{"bike_id":"49f65257-042b-426a-94b6-303e737799d9","system_id":"levelo_inurba_marseille","lat":43.28449,"lon":5.39207,"is_reserved":false,"is_disabled":false,"rental_uris":{"android":"levelo://app?vid=49f65257-042b-426a-94b6-303e737799d9","ios":"levelo://app?vid=49f65257-042b-426a-94b6-303e737799d9"},"vehicle_type_id":"4","last_reported":1779474432,"current_range_meters":6000,"station_id":"ce4bhoh2rcd13ifvqh5g","pricing_plan_id":"cebpf4jnsgd1na2vs0mg"},{"bike_id":"aa71664e-fae7-4d97-8515-ddae352558ad","system_id":"levelo_inurba_marseille","lat":43.29274,"lon":5.4012,"is_reserved":false,"is_disabled":true,"rental_uris":{"android":"levelo://app?vid=aa71664e-fae7-4d97-8515-ddae352558ad","ios":"levelo://app?vid=aa71664e-fae7-4d97-8515-ddae352558ad"},"vehicle_type_id":"4","last_reported":1779474432,"current_range_meters":6000,"station_id":"ce4bh312rcd13ifvqdk0","pricing_plan_id":"cebpf4jnsgd1na2vs0mg"},{"bike_id":"843e51c5-e16f-4b79-aadc-becfcf0f79be","system_id":"levelo_inurba_marseille","lat":43.32375,"lon":5.36736,"is_reserved":false,"is_disabled":false,"rental_uris":{"android":"levelo://app?vid=843e51c5-e16f-4b79-aadc-becfcf0f79be","ios":"levelo://app?vid=843e51c5-e16f-4b79-aadc-becfcf0f79be"},"vehicle_type_id":"4","last_reported":1779474432,"current_range_meters":6000,"station_id":"ce4bhsh2rcd13ifvqi2g","pricing_plan_id":"cebpf4jnsgd1na2vs0mg"},{"bike_id":"72526a08-f6ff-46a9-9b10-91d396b96e2d","system_id":"levelo_inurba_marseille","lat":43.29568,"lon":5.36754,"is_reserved":false,"is_disabled":true,"rental_uris":{"android":"levelo://app?vid=72526a08-f6ff-46a9-9b10-91d396b96e2d","ios":"levelo://app?vid=72526a08-f6ff-46a9-9b10-91d396b96e2d"},"vehicle_type_id":"4","last_reported":1779474432,"current_range_meters":6000,"station_id":"ce4bgph2rcd13ifvqc2g","pricing_plan_id":"cebpf4jnsgd1na2vs0mg"},{"bike_id":"6ae6b289-622c-48b2-9751-488e7011ac94","system_id":"levelo_inurba_marseille","lat":43.29221,"lon":5.36071,"is_reserved":false,"is_disabled":false,"rental_uris":{"android":"levelo://app?vid=6ae6b289-622c-48b2-9751-488e7011ac94","ios":"levelo://app?vid=6ae6b289-622c-48b2-9751-488e7011ac94"},"vehicle_type_id":"4","last_reported":1779474432,"current_range_meters":6000,"station_id":"ce4bhbh2rcd13ifvqeqg","pricing_plan_id":"cebpf4jnsgd1na2vs0mg"},{"bike_id":"ce1257fa-2ee4-4500-b86b-8956ada98213","system_id":"levelo_inurba_marseille","lat":43.30616,"lon":5.39286,"is_reserved":false,"is_disabled":true,"rental_uris":{"android":"levelo://app?vid=ce1257fa-2ee4-4500-b86b-8956ada98213","ios":"levelo://app?vid=ce1257fa-2ee4-4500-b86b-8956ada98213"},"vehicle_type_id":"4","last_reported":1779474432,"current_range_meters":6000,"station_id":"","pricing_plan_id":"cebpf4jnsgd1na2vs0mg"},{"bike_id":"ae813e1c-f002-41c2-ab00-93a6ceca7521","system_id":"levelo_inurba_marseille","lat":43.30749,"lon":5.39254,"is_reserved":false,"is_disabled":false,"rental_uris":{"android":"levelo://app?vid=ae813e1c-f002-41c2-ab00-93a6ceca7521","ios":"levelo://app?vid=ae813e1c-f002-41c2-ab00-93a6ceca7521"},"vehicle_type_id":"4","last_reported":1779474432,"current_range_meters":6000,"station_id":"","pricing_plan_id":"cebpf4jnsgd1na2vs0mg"},{"bike_id":"69adb8c1-b468-446b-96d2-2304cf4b54a1","system_id":"levelo_inurba_marseille","lat":43.290043,"lon":5.356052,"is_reserved":false,"is_disabled":false,"rental_uris":{"android":"levelo://app?vid=69adb8c1-b468-446b-96d2-2304cf4b54a1","ios":"levelo://app?vid=69adb8c1-b468-446b-96d2-2304cf4b54a1"},"vehicle_type_id":"4","last_reported":1779474432,"current_range_meters":6000,"station_id":"ce4bhb92rcd13ifvqen0","pricing_plan_id":"cebpf4jnsgd1na2vs0mg"},{"bike_id":"5eb47de2-6d0b-4d6a-b931-7c6d8bfe6b8f","system_id":"levelo_inurba_marseille","lat":43.26225,"lon":5.38765,"is_reserved":false,"is_disabled":false,"rental_uris":{"android":"levelo://app?vid=5eb47de2-6d0b-4d6a-b931-7c6d8bfe6b8f","ios":"levelo://app?vid=5eb47de2-6d0b-4d6a-b931-7c6d8bfe6b8f"},"vehicle_type_id":"4","last_reported":1779474432,"current_range_meters":6000,"station_id":"","pricing_plan_id":"cebpf4jnsgd1na2vs0mg"},{"bike_id":"0a90cc3b-8db7-464a-bb0d-3f833b7522f3","system_id":"levelo_inurba_marseille","lat":43.23397,"lon":5.4121,"is_reserved":false,"is_disabled":false,"rental_uris":{"android":"levelo://app?vid=0a90cc3b-8db7-464a-bb0d-3f833b7522f3","ios":"levelo://app?vid=0a90cc3b-8db7-464a-bb0d-3f833b7522f3"},"vehicle_type_id":"4","last_reported":1779474432,"current_range_meters":6000,"station_id":"st_d75pvndhf9lc73cqq3eg","pricing_plan_id":"cebpf4jnsgd1na2vs0mg"},{"bike_id":"c7352d91-a351-4741-9e2e-3bbeeac985d0","system_id":"levelo_inurba_marseille","lat":43.30747,"lon":5.42428,"is_reserved":false,"is_disabled":false,"rental_uris":{"android":"levelo://app?vid=c7352d91-a351-4741-9e2e-3bbeeac985d0","ios":"levelo://app?vid=c7352d91-a351-4741-9e2e-3bbeeac985d0"},"vehicle_type_id":"4","last_reported":1779474432,"current_range_meters":6000,"station_id":"st_cvj6ca6bvosntc0bfgr0","pricing_plan_id":"cebpf4jnsgd1na2vs0mg"},{"bike_id":"5cd16571-7e0f-4f01-8cf6-d8caba7f9ec5","system_id":"levelo_inurba_marseille","lat":43.28847,"lon":5.35838,"is_reserved":false,"is_disabled":false,"rental_uris":{"android":"levelo://app?vid=5cd16571-7e0f-4f01-8cf6-d8caba7f9ec5","ios":"levelo://app?vid=5cd16571-7e0f-4f01-8cf6-d8caba7f9ec5"},"vehicle_type_id":"4","last_reported":1779474432,"current_range_meters":6400,"station_id":"ce4bhb12rcd13ifvqem0","pricing_plan_id":"cebpf4jnsgd1na2vs0mg"},{"bike_id":"eab6554e-ffe1-41e6-b6c3-fb0d8578d82f","system_id":"levelo_inurba_marseille","lat":43.29529,"lon":5.38553,"is_reserved":false,"is_disabled":false,"rental_uris":{"android":"levelo://app?vid=eab6554e-ffe1-41e6-b6c3-fb0d8578d82f","ios":"levelo://app?vid=eab6554e-ffe1-41e6-b6c3-fb0d8578d82f"},"vehicle_type_id":"4","last_reported":1779474432,"current_range_meters":6400,"station_id":"ce4bgih2rcd13ifvqba0","pricing_plan_id":"cebpf4jnsgd1na2vs0mg"},{"bike_id":"ffd53158-4574-470f-825a-07c56015133e","system_id":"levelo_inurba_marseille","lat":43.28608,"lon":5.39874,"is_reserved":false,"is_disabled":false,"rental_uris":{"android":"levelo://app?vid=ffd53158-4574-470f-825a-07c56015133e","ios":"levelo://app?vid=ffd53158-4574-470f-825a-07c56015133e"},"vehicle_type_id":"4","last_reported":1779474432,"current_range_meters":6400,"station_id":"st_d4a7ka997mjs738ck50g","pricing_plan_id":"cebpf4jnsgd1na2vs0mg"},{"bike_id":"31665be4-7222-4aed-bedf-38bc28233d8a","system_id":"levelo_inurba_marseille","lat":43.29704,"lon":5.36614,"is_reserved":false,"is_disabled":false,"rental_uris":{"android":"levelo://app?vid=31665be4-7222-4aed-bedf-38bc28233d8a","ios":"levelo://app?vid=31665be4-7222-4aed-bedf-38bc28233d8a"},"vehicle_type_id":"4","last_reported":1779474432,"current_range_meters":6400,"station_id":"ce4bgn12rcd13ifvqbt0","pricing_plan_id":"cebpf4jnsgd1na2vs0mg"},{"bike_id":"1b7e50a4-0ca1-4803-b64e-e40d94c245d4","system_id":"levelo_inurba_marseille","lat":43.29157,"lon":5.37167,"is_reserved":false,"is_disabled":false,"rental_uris":{"android":"levelo://app?vid=1b7e50a4-0ca1-4803-b64e-e40d94c245d4","ios":"levelo://app?vid=1b7e50a4-0ca1-4803-b64e-e40d94c245d4"},"vehicle_type_id":"4","last_reported":1779474432,"current_range_meters":6400,"station_id":"ce4bha92rcd13ifvqeh0","pricing_plan_id":"cebpf4jnsgd1na2vs0mg"},{"bike_id":"b659cdc4-b049-4fe2-8023-e3ad3542cc9b","system_id":"levelo_inurba_marseille","lat":43.27429,"lon":5.3941,"is_reserved":false,"is_disabled":false,"rental_uris":{"android":"levelo://app?vid=b659cdc4-b049-4fe2-8023-e3ad3542cc9b","ios":"levelo://app?vid=b659cdc4-b049-4fe2-8023-e3ad3542cc9b"},"vehicle_type_id":"4","last_reported":1779474432,"current_range_meters":6400,"station_id":"ce4bhdp2rcd13ifvqf20","pricing_plan_id":"cebpf4jnsgd1na2vs0mg"},{"bike_id":"f387904c-d50f-45a2-ba9c-d68694636136","system_id":"levelo_inurba_marseille","lat":43.30946,"lon":5.39053,"is_reserved":false,"is_disabled":false,"rental_uris":{"android":"levelo://app?vid=f387904c-d50f-45a2-ba9c-d68694636136","ios":"levelo://app?vid=f387904c-d50f-45a2-ba9c-d68694636136"},"vehicle_type_id":"4","last_reported":1779474432,"current_range_meters":6400,"station_id":"ce4bgup2rcd13ifvqco0","pricing_plan_id":"cebpf4jnsgd1na2vs0mg"},{"bike_id":"0db8267b-0e02-4e40-9b69-4889ebb416f0","system_id":"levelo_inurba_marseille","lat":43.29566,"lon":5.37505,"is_reserved":false,"is_disabled":true,"rental_uris":{"android":"levelo://app?vid=0db8267b-0e02-4e40-9b69-4889ebb416f0","ios":"levelo://app?vid=0db8267b-0e02-4e40-9b69-4889ebb416f0"},"vehicle_type_id":"4","last_reported":1779474432,"current_range_meters":6400,"station_id":"ce4bgh92rcd13ifvqb50","pricing_plan_id":"cebpf4jnsgd1na2vs0mg"},{"bike_id":"a821a46f-2560-423c-9235-2c6ca27aa55b","system_id":"levelo_inurba_marseille","lat":43.28089,"lon":5.35661,"is_reserved":false,"is_disabled":false,"rental_uris":{"android":"levelo://app?vid=a821a46f-2560-423c-9235-2c6ca27aa55b","ios":"levelo://app?vid=a821a46f-2560-423c-9235-2c6ca27aa55b"},"vehicle_type_id":"4","last_reported":1779474432,"current_range_meters":6400,"station_id":"","pricing_plan_id":"cebpf4jnsgd1na2vs0mg"},{"bike_id":"a48e9725-901e-43ad-9509-b3b3bd6891f5","system_id":"levelo_inurba_marseille","lat":43.29692,"lon":5.37299,"is_reserved":false,"is_disabled":false,"rental_uris":{"android":"levelo://app?vid=a48e9725-901e-43ad-9509-b3b3bd6891f5","ios":"levelo://app?vid=a48e9725-901e-43ad-9509-b3b3bd6891f5"},"vehicle_type_id":"4","last_reported":1779474432,"current_range_meters":6400,"station_id":"ce4bgk12rcd13ifvqbj0","pricing_plan_id":"cebpf4jnsgd1na2vs0mg"},{"bike_id":"ad0ce0a0-b313-407e-b7d9-63b7147a0c85","system_id":"levelo_inurba_marseille","lat":43.2446,"lon":5.42535,"is_reserved":false,"is_disabled":false,"rental_uris":{"android":"levelo://app?vid=ad0ce0a0-b313-407e-b7d9-63b7147a0c85","ios":"levelo://app?vid=ad0ce0a0-b313-407e-b7d9-63b7147a0c85"},"vehicle_type_id":"4","last_reported":1779474432,"current_range_meters":6400,"station_id":"st_d4a3vfp97mjs738cd8kg","pricing_plan_id":"cebpf4jnsgd1na2vs0mg"},{"bike_id":"d89aab4f-9874-4fd6-8a64-ba02cf0591f6","system_id":"levelo_inurba_marseille","lat":43.28635,"lon":5.35101,"is_reserved":false,"is_disabled":false,"rental_uris":{"android":"levelo://app?vid=d89aab4f-9874-4fd6-8a64-ba02cf0591f6","ios":"levelo://app?vid=d89aab4f-9874-4fd6-8a64-ba02cf0591f6"},"vehicle_type_id":"4","last_reported":1779474432,"current_range_meters":6400,"station_id":"ce4bhch2rcd13ifvqeug","pricing_plan_id":"cebpf4jnsgd1na2vs0mg"},{"bike_id":"898345a5-015f-4e7c-abad-d69e931303cd","system_id":"levelo_inurba_marseille","lat":43.30592,"lon":5.36625,"is_reserved":false,"is_disabled":false,"rental_uris":{"android":"levelo://app?vid=898345a5-015f-4e7c-abad-d69e931303cd","ios":"levelo://app?vid=898345a5-015f-4e7c-abad-d69e931303cd"},"vehicle_type_id":"4","last_reported":1779474432,"current_range_meters":6400,"station_id":"","pricing_plan_id":"cebpf4jnsgd1na2vs0mg"},{"bike_id":"8ff10286-24d8-4737-8d22-82cc067a1dcd","system_id":"levelo_inurba_marseille","lat":43.28619,"lon":5.35102,"is_reserved":false,"is_disabled":false,"rental_uris":{"android":"levelo://app?vid=8ff10286-24d8-4737-8d22-82cc067a1dcd","ios":"levelo://app?vid=8ff10286-24d8-4737-8d22-82cc067a1dcd"},"vehicle_type_id":"4","last_reported":1779474432,"current_range_meters":6400,"station_id":"ce4bhch2rcd13ifvqeug","pricing_plan_id":"cebpf4jnsgd1na2vs0mg"},{"bike_id":"29f4756e-20ba-48af-83c2-b5be4ce60e4e","system_id":"levelo_inurba_marseille","lat":43.28414,"lon":5.34985,"is_reserved":false,"is_disabled":false,"rental_uris":{"android":"levelo://app?vid=29f4756e-20ba-48af-83c2-b5be4ce60e4e","ios":"levelo://app?vid=29f4756e-20ba-48af-83c2-b5be4ce60e4e"},"vehicle_type_id":"4","last_reported":1779474432,"current_range_meters":6400,"station_id":"ce4bhbh2rcd13ifvqepg","pricing_plan_id":"cebpf4jnsgd1na2vs0mg"},{"bike_id":"81b87aaa-61ab-4b7e-a7d9-94d5bd011fec","system_id":"levelo_inurba_marseille","lat":43.30884,"lon":5.37191,"is_reserved":false,"is_disabled":false,"rental_uris":{"android":"levelo://app?vid=81b87aaa-61ab-4b7e-a7d9-94d5bd011fec","ios":"levelo://app?vid=81b87aaa-61ab-4b7e-a7d9-94d5bd011fec"},"vehicle_type_id":"4","last_reported":1779474432,"current_range_meters":6400,"station_id":"ce4bguh2rcd13ifvqckg","pricing_plan_id":"cebpf4jnsgd1na2vs0mg"},{"bike_id":"593ba0d4-91b5-41d0-9f27-e5d8a6146a7a","system_id":"levelo_inurba_marseille","lat":43.286165,"lon":5.351075,"is_reserved":false,"is_disabled":false,"rental_uris":{"android":"levelo://app?vid=593ba0d4-91b5-41d0-9f27-e5d8a6146a7a","ios":"levelo://app?vid=593ba0d4-91b5-41d0-9f27-e5d8a6146a7a"},"vehicle_type_id":"4","last_reported":1779474432,"current_range_meters":6400,"station_id":"ce4bhch2rcd13ifvqeug","pricing_plan_id":"cebpf4jnsgd1na2vs0mg"},{"bike_id":"125c4d5b-9f0c-4f70-b053-7773cea0e270","system_id":"levelo_inurba_marseille","lat":43.28157,"lon":5.43766,"is_reserved":false,"is_disabled":false,"rental_uris":{"android":"levelo://app?vid=125c4d5b-9f0c-4f70-b053-7773cea0e270","ios":"levelo://app?vid=125c4d5b-9f0c-4f70-b053-7773cea0e270"},"vehicle_type_id":"4","last_reported":1779474432,"current_range_meters":6400,"station_id":"","pricing_plan_id":"cebpf4jnsgd1na2vs0mg"},{"bike_id":"fbefdaf9-9ae3-453d-9e01-6859af337962","system_id":"levelo_inurba_marseille","lat":43.31122,"lon":5.37761,"is_reserved":false,"is_disabled":false,"rental_uris":{"android":"levelo://app?vid=fbefdaf9-9ae3-453d-9e01-6859af337962","ios":"levelo://app?vid=fbefdaf9-9ae3-453d-9e01-6859af337962"},"vehicle_type_id":"4","last_reported":1779474432,"current_range_meters":6400,"station_id":"ce4bgt92rcd13ifvqcg0","pricing_plan_id":"cebpf4jnsgd1na2vs0mg"},{"bike_id":"a59e2711-f8aa-42a4-97d2-4c0a32cbbb0e","system_id":"levelo_inurba_marseille","lat":43.28412,"lon":5.34994,"is_reserved":false,"is_disabled":false,"rental_uris":{"android":"levelo://app?vid=a59e2711-f8aa-42a4-97d2-4c0a32cbbb0e","ios":"levelo://app?vid=a59e2711-f8aa-42a4-97d2-4c0a32cbbb0e"},"vehicle_type_id":"4","last_reported":1779474432,"current_range_meters":6400,"station_id":"ce4bhbh2rcd13ifvqepg","pricing_plan_id":"cebpf4jnsgd1na2vs0mg"},{"bike_id":"026a1394-2fec-4046-a48e-b79688147bd2","system_id":"levelo_inurba_marseille","lat":43.27204,"lon":5.39174,"is_reserved":false,"is_disabled":false,"rental_uris":{"android":"levelo://app?vid=026a1394-2fec-4046-a48e-b79688147bd2","ios":"levelo://app?vid=026a1394-2fec-4046-a48e-b79688147bd2"},"vehicle_type_id":"4","last_reported":1779474432,"current_range_meters":6400,"station_id":"ce4bhhp2rcd13ifvqfm0","pricing_plan_id":"cebpf4jnsgd1na2vs0mg"},{"bike_id":"d73d43ed-daf3-4afa-9ebb-d44638da0b02","system_id":"levelo_inurba_marseille","lat":43.28864,"lon":5.35841,"is_reserved":false,"is_disabled":false,"rental_uris":{"android":"levelo://app?vid=d73d43ed-daf3-4afa-9ebb-d44638da0b02","ios":"levelo://app?vid=d73d43ed-daf3-4afa-9ebb-d44638da0b02"},"vehicle_type_id":"4","last_reported":1779474432,"current_range_meters":6400,"station_id":"ce4bhb12rcd13ifvqem0","pricing_plan_id":"cebpf4jnsgd1na2vs0mg"},{"bike_id":"92f55a06-09e7-490e-aef6-78292570638c","system_id":"levelo_inurba_marseille","lat":43.23086,"lon":5.35502,"is_reserved":false,"is_disabled":false,"rental_uris":{"android":"levelo://app?vid=92f55a06-09e7-490e-aef6-78292570638c","ios":"levelo://app?vid=92f55a06-09e7-490e-aef6-78292570638c"},"vehicle_type_id":"4","last_reported":1779474432,"current_range_meters":6800,"station_id":"cpo3342slgdg3j2ifvpg","pricing_plan_id":"cebpf4jnsgd1na2vs0mg"},{"bike_id":"20f52871-1aed-4877-a3a3-cb10650ae58f","system_id":"levelo_inurba_marseille","lat":43.28432,"lon":5.35001,"is_reserved":false,"is_disabled":false,"rental_uris":{"android":"levelo://app?vid=20f52871-1aed-4877-a3a3-cb10650ae58f","ios":"levelo://app?vid=20f52871-1aed-4877-a3a3-cb10650ae58f"},"vehicle_type_id":"4","last_reported":1779474432,"current_range_meters":6800,"station_id":"ce4bhbh2rcd13ifvqepg","pricing_plan_id":"cebpf4jnsgd1na2vs0mg"},{"bike_id":"a54270e7-ae4d-43a8-a3da-f8a8a482945d","system_id":"levelo_inurba_marseille","lat":43.28848,"lon":5.35854,"is_reserved":false,"is_disabled":false,"rental_uris":{"android":"levelo://app?vid=a54270e7-ae4d-43a8-a3da-f8a8a482945d","ios":"levelo://app?vid=a54270e7-ae4d-43a8-a3da-f8a8a482945d"},"vehicle_type_id":"4","last_reported":1779474432,"current_range_meters":6800,"station_id":"ce4bhb12rcd13ifvqem0","pricing_plan_id":"cebpf4jnsgd1na2vs0mg"},{"bike_id":"cec6be4a-cc22-4cf4-bd64-fca9586e727c","system_id":"levelo_inurba_marseille","lat":43.27825,"lon":5.39209,"is_reserved":false,"is_disabled":false,"rental_uris":{"android":"levelo://app?vid=cec6be4a-cc22-4cf4-bd64-fca9586e727c","ios":"levelo://app?vid=cec6be4a-cc22-4cf4-bd64-fca9586e727c"},"vehicle_type_id":"4","last_reported":1779474432,"current_range_meters":6800,"station_id":"ce4bhjp2rcd13ifvqga0","pricing_plan_id":"cebpf4jnsgd1na2vs0mg"},{"bike_id":"d827e303-aea2-4311-8dc0-b4274f2eb69c","system_id":"levelo_inurba_marseille","lat":43.28854,"lon":5.42438,"is_reserved":false,"is_disabled":false,"rental_uris":{"android":"levelo://app?vid=d827e303-aea2-4311-8dc0-b4274f2eb69c","ios":"levelo://app?vid=d827e303-aea2-4311-8dc0-b4274f2eb69c"},"vehicle_type_id":"4","last_reported":1779474432,"current_range_meters":6800,"station_id":"","pricing_plan_id":"cebpf4jnsgd1na2vs0mg"},{"bike_id":"a937fd21-c70f-4e0f-88f7-641ada6ab82c","system_id":"levelo_inurba_marseille","lat":43.260294,"lon":5.375518,"is_reserved":false,"is_disabled":true,"rental_uris":{"android":"levelo://app?vid=a937fd21-c70f-4e0f-88f7-641ada6ab82c","ios":"levelo://app?vid=a937fd21-c70f-4e0f-88f7-641ada6ab82c"},"vehicle_type_id":"4","last_reported":1779474432,"current_range_meters":6800,"station_id":"ce4bhgh2rcd13ifvqfa0","pricing_plan_id":"cebpf4jnsgd1na2vs0mg"},{"bike_id":"dd3b1121-6257-4056-97cc-d5d9f21bb0ea","system_id":"levelo_inurba_marseille","lat":43.265567,"lon":5.372853,"is_reserved":false,"is_disabled":false,"rental_uris":{"android":"levelo://app?vid=dd3b1121-6257-4056-97cc-d5d9f21bb0ea","ios":"levelo://app?vid=dd3b1121-6257-4056-97cc-d5d9f21bb0ea"},"vehicle_type_id":"4","last_reported":1779474432,"current_range_meters":6800,"station_id":"ce4bhg12rcd13ifvqf70","pricing_plan_id":"cebpf4jnsgd1na2vs0mg"},{"bike_id":"a178688d-fd28-46a3-9742-20e9e3d623fd","system_id":"levelo_inurba_marseille","lat":43.29839,"lon":5.38018,"is_reserved":false,"is_disabled":false,"rental_uris":{"android":"levelo://app?vid=a178688d-fd28-46a3-9742-20e9e3d623fd","ios":"levelo://app?vid=a178688d-fd28-46a3-9742-20e9e3d623fd"},"vehicle_type_id":"4","last_reported":1779474432,"current_range_meters":6800,"station_id":"ce4bgip2rcd13ifvqbb0","pricing_plan_id":"cebpf4jnsgd1na2vs0mg"},{"bike_id":"67fd4f56-d6e3-41be-8298-e0a75fdcdf70","system_id":"levelo_inurba_marseille","lat":43.29756,"lon":5.37646,"is_reserved":false,"is_disabled":true,"rental_uris":{"android":"levelo://app?vid=67fd4f56-d6e3-41be-8298-e0a75fdcdf70","ios":"levelo://app?vid=67fd4f56-d6e3-41be-8298-e0a75fdcdf70"},"vehicle_type_id":"4","last_reported":1779474432,"current_range_meters":6800,"station_id":"","pricing_plan_id":"cebpf4jnsgd1na2vs0mg"},{"bike_id":"32a25fe3-2373-47a8-a335-b50e587c0c03","system_id":"levelo_inurba_marseille","lat":43.27619,"lon":5.36107,"is_reserved":false,"is_disabled":false,"rental_uris":{"android":"levelo://app?vid=32a25fe3-2373-47a8-a335-b50e587c0c03","ios":"levelo://app?vid=32a25fe3-2373-47a8-a335-b50e587c0c03"},"vehicle_type_id":"4","last_reported":1779474432,"current_range_meters":6800,"station_id":"ce4bgj92rcd13ifvqbe0","pricing_plan_id":"cebpf4jnsgd1na2vs0mg"},{"bike_id":"e5765682-87e3-4649-97f1-cbe838483508","system_id":"levelo_inurba_marseille","lat":43.32107,"lon":5.36776,"is_reserved":false,"is_disabled":false,"rental_uris":{"android":"levelo://app?vid=e5765682-87e3-4649-97f1-cbe838483508","ios":"levelo://app?vid=e5765682-87e3-4649-97f1-cbe838483508"},"vehicle_type_id":"4","last_reported":1779474432,"current_range_meters":6800,"station_id":"ce4bhrh2rcd13ifvqhug","pricing_plan_id":"cebpf4jnsgd1na2vs0mg"},{"bike_id":"9ababcea-6d2c-4b63-b274-5f3326cd3fee","system_id":"levelo_inurba_marseille","lat":43.25505,"lon":5.37656,"is_reserved":false,"is_disabled":false,"rental_uris":{"android":"levelo://app?vid=9ababcea-6d2c-4b63-b274-5f3326cd3fee","ios":"levelo://app?vid=9ababcea-6d2c-4b63-b274-5f3326cd3fee"},"vehicle_type_id":"4","last_reported":1779474432,"current_range_meters":6800,"station_id":"ce4bhh12rcd13ifvqff0","pricing_plan_id":"cebpf4jnsgd1na2vs0mg"},{"bike_id":"842bc819-110f-4368-b3ff-9e842854a1ed","system_id":"levelo_inurba_marseille","lat":43.24813,"lon":5.37466,"is_reserved":false,"is_disabled":false,"rental_uris":{"android":"levelo://app?vid=842bc819-110f-4368-b3ff-9e842854a1ed","ios":"levelo://app?vid=842bc819-110f-4368-b3ff-9e842854a1ed"},"vehicle_type_id":"4","last_reported":1779474432,"current_range_meters":6800,"station_id":"ce4bhgh2rcd13ifvqfb0","pricing_plan_id":"cebpf4jnsgd1na2vs0mg"},{"bike_id":"493d9d75-38f9-44c2-9b0b-8da69bf50b7d","system_id":"levelo_inurba_marseille","lat":43.29244,"lon":5.40907,"is_reserved":false,"is_disabled":false,"rental_uris":{"android":"levelo://app?vid=493d9d75-38f9-44c2-9b0b-8da69bf50b7d","ios":"levelo://app?vid=493d9d75-38f9-44c2-9b0b-8da69bf50b7d"},"vehicle_type_id":"4","last_reported":1779474432,"current_range_meters":6800,"station_id":"ce4bh192rcd13ifvqdc0","pricing_plan_id":"cebpf4jnsgd1na2vs0mg"},{"bike_id":"a6eff3ea-a943-4634-b8e9-0a0f61e755bd","system_id":"levelo_inurba_marseille","lat":43.290051,"lon":5.356249,"is_reserved":false,"is_disabled":false,"rental_uris":{"android":"levelo://app?vid=a6eff3ea-a943-4634-b8e9-0a0f61e755bd","ios":"levelo://app?vid=a6eff3ea-a943-4634-b8e9-0a0f61e755bd"},"vehicle_type_id":"4","last_reported":1779474432,"current_range_meters":6800,"station_id":"ce4bhb92rcd13ifvqen0","pricing_plan_id":"cebpf4jnsgd1na2vs0mg"},{"bike_id":"7816563c-9631-4d35-a020-dda58ed96e8f","system_id":"levelo_inurba_marseille","lat":43.23194,"lon":5.35556,"is_reserved":false,"is_disabled":true,"rental_uris":{"android":"levelo://app?vid=7816563c-9631-4d35-a020-dda58ed96e8f","ios":"levelo://app?vid=7816563c-9631-4d35-a020-dda58ed96e8f"},"vehicle_type_id":"4","last_reported":1779474432,"current_range_meters":6800,"station_id":"ce4bhu92rcd13ifvqi70","pricing_plan_id":"cebpf4jnsgd1na2vs0mg"},{"bike_id":"a06e9d5d-6bcb-4fc7-b6c7-23dbf200556d","system_id":"levelo_inurba_marseille","lat":43.33129,"lon":5.37774,"is_reserved":false,"is_disabled":false,"rental_uris":{"android":"levelo://app?vid=a06e9d5d-6bcb-4fc7-b6c7-23dbf200556d","ios":"levelo://app?vid=a06e9d5d-6bcb-4fc7-b6c7-23dbf200556d"},"vehicle_type_id":"4","last_reported":1779474432,"current_range_meters":6800,"station_id":"","pricing_plan_id":"cebpf4jnsgd1na2vs0mg"},{"bike_id":"4441972b-7bcd-41ec-a161-75d1792b802d","system_id":"levelo_inurba_marseille","lat":43.30797,"lon":5.37636,"is_reserved":false,"is_disabled":true,"rental_uris":{"android":"levelo://app?vid=4441972b-7bcd-41ec-a161-75d1792b802d","ios":"levelo://app?vid=4441972b-7bcd-41ec-a161-75d1792b802d"},"vehicle_type_id":"4","last_reported":1779474432,"current_range_meters":6800,"station_id":"ce4bgv92rcd13ifvqcq0","pricing_plan_id":"cebpf4jnsgd1na2vs0mg"},{"bike_id":"23b9361c-eba5-4306-98b2-3eb1c0511004","system_id":"levelo_inurba_marseille","lat":43.24179,"lon":5.39726,"is_reserved":false,"is_disabled":false,"rental_uris":{"android":"levelo://app?vid=23b9361c-eba5-4306-98b2-3eb1c0511004","ios":"levelo://app?vid=23b9361c-eba5-4306-98b2-3eb1c0511004"},"vehicle_type_id":"4","last_reported":1779474432,"current_range_meters":6800,"station_id":"ce4bhn12rcd13ifvqgpg","pricing_plan_id":"cebpf4jnsgd1na2vs0mg"},{"bike_id":"1b107236-5c99-4d3e-b827-c2ab64321487","system_id":"levelo_inurba_marseille","lat":43.27171,"lon":5.40989,"is_reserved":false,"is_disabled":false,"rental_uris":{"android":"levelo://app?vid=1b107236-5c99-4d3e-b827-c2ab64321487","ios":"levelo://app?vid=1b107236-5c99-4d3e-b827-c2ab64321487"},"vehicle_type_id":"4","last_reported":1779474432,"current_range_meters":6800,"station_id":"ce4bhl12rcd13ifvqgf0","pricing_plan_id":"cebpf4jnsgd1na2vs0mg"},{"bike_id":"8e5683c2-4140-4ca4-b466-7b671c6130d0","system_id":"levelo_inurba_marseille","lat":43.29436,"lon":5.3808,"is_reserved":false,"is_disabled":false,"rental_uris":{"android":"levelo://app?vid=8e5683c2-4140-4ca4-b466-7b671c6130d0","ios":"levelo://app?vid=8e5683c2-4140-4ca4-b466-7b671c6130d0"},"vehicle_type_id":"4","last_reported":1779474432,"current_range_meters":6800,"station_id":"","pricing_plan_id":"cebpf4jnsgd1na2vs0mg"},{"bike_id":"83c3d2f7-1ced-49b6-b8d0-508fade4841c","system_id":"levelo_inurba_marseille","lat":43.2992,"lon":5.3748,"is_reserved":false,"is_disabled":false,"rental_uris":{"android":"levelo://app?vid=83c3d2f7-1ced-49b6-b8d0-508fade4841c","ios":"levelo://app?vid=83c3d2f7-1ced-49b6-b8d0-508fade4841c"},"vehicle_type_id":"4","last_reported":1779474432,"current_range_meters":6800,"station_id":"ce4bgjh2rcd13ifvqbg0","pricing_plan_id":"cebpf4jnsgd1na2vs0mg"},{"bike_id":"2f9bb4c0-196e-4b2f-9eb0-251ff9444f6a","system_id":"levelo_inurba_marseille","lat":43.3106,"lon":5.37177,"is_reserved":false,"is_disabled":false,"rental_uris":{"android":"levelo://app?vid=2f9bb4c0-196e-4b2f-9eb0-251ff9444f6a","ios":"levelo://app?vid=2f9bb4c0-196e-4b2f-9eb0-251ff9444f6a"},"vehicle_type_id":"4","last_reported":1779474432,"current_range_meters":6800,"station_id":"st_d4kl2rp97mjs73e7tdfg","pricing_plan_id":"cebpf4jnsgd1na2vs0mg"},{"bike_id":"9bfe0a0e-2452-446c-9067-5722e3acc11b","system_id":"levelo_inurba_marseille","lat":43.29879,"lon":5.39719,"is_reserved":false,"is_disabled":false,"rental_uris":{"android":"levelo://app?vid=9bfe0a0e-2452-446c-9067-5722e3acc11b","ios":"levelo://app?vid=9bfe0a0e-2452-446c-9067-5722e3acc11b"},"vehicle_type_id":"4","last_reported":1779474432,"current_range_meters":6800,"station_id":"ce4bh0h2rcd13ifvqd50","pricing_plan_id":"cebpf4jnsgd1na2vs0mg"},{"bike_id":"cff01f48-2242-4259-93d1-73a2bba9da1f","system_id":"levelo_inurba_marseille","lat":43.30289,"lon":5.39225,"is_reserved":false,"is_disabled":false,"rental_uris":{"android":"levelo://app?vid=cff01f48-2242-4259-93d1-73a2bba9da1f","ios":"levelo://app?vid=cff01f48-2242-4259-93d1-73a2bba9da1f"},"vehicle_type_id":"4","last_reported":1779474432,"current_range_meters":6800,"station_id":"ce4bgkh2rcd13ifvqbk0","pricing_plan_id":"cebpf4jnsgd1na2vs0mg"},{"bike_id":"1a26d517-7410-40d4-ae7d-dee019ea3ded","system_id":"levelo_inurba_marseille","lat":43.29254,"lon":5.37618,"is_reserved":false,"is_disabled":false,"rental_uris":{"android":"levelo://app?vid=1a26d517-7410-40d4-ae7d-dee019ea3ded","ios":"levelo://app?vid=1a26d517-7410-40d4-ae7d-dee019ea3ded"},"vehicle_type_id":"4","last_reported":1779474432,"current_range_meters":6800,"station_id":"ce4bgi12rcd13ifvqb80","pricing_plan_id":"cebpf4jnsgd1na2vs0mg"},{"bike_id":"9344265d-ff03-45ef-9121-0085bc1a43ad","system_id":"levelo_inurba_marseille","lat":43.28401,"lon":5.37525,"is_reserved":false,"is_disabled":true,"rental_uris":{"android":"levelo://app?vid=9344265d-ff03-45ef-9121-0085bc1a43ad","ios":"levelo://app?vid=9344265d-ff03-45ef-9121-0085bc1a43ad"},"vehicle_type_id":"4","last_reported":1779474432,"current_range_meters":6800,"station_id":"ce4bh412rcd13ifvqds0","pricing_plan_id":"cebpf4jnsgd1na2vs0mg"},{"bike_id":"9fb74047-56c4-40a2-a30a-c2d7f57a9404","system_id":"levelo_inurba_marseille","lat":43.31068,"lon":5.36855,"is_reserved":false,"is_disabled":false,"rental_uris":{"android":"levelo://app?vid=9fb74047-56c4-40a2-a30a-c2d7f57a9404","ios":"levelo://app?vid=9fb74047-56c4-40a2-a30a-c2d7f57a9404"},"vehicle_type_id":"4","last_reported":1779474432,"current_range_meters":7200,"station_id":"","pricing_plan_id":"cebpf4jnsgd1na2vs0mg"},{"bike_id":"92a5d274-31fe-4272-a3cb-5e1c3b848c93","system_id":"levelo_inurba_marseille","lat":43.28268,"lon":5.35071,"is_reserved":false,"is_disabled":true,"rental_uris":{"android":"levelo://app?vid=92a5d274-31fe-4272-a3cb-5e1c3b848c93","ios":"levelo://app?vid=92a5d274-31fe-4272-a3cb-5e1c3b848c93"},"vehicle_type_id":"4","last_reported":1779474432,"current_range_meters":7200,"station_id":"ce4bhbp2rcd13ifvqerg","pricing_plan_id":"cebpf4jnsgd1na2vs0mg"},{"bike_id":"9afaa460-233d-4fca-beb6-b2f716068717","system_id":"levelo_inurba_marseille","lat":43.28935,"lon":5.39641,"is_reserved":false,"is_disabled":false,"rental_uris":{"android":"levelo://app?vid=9afaa460-233d-4fca-beb6-b2f716068717","ios":"levelo://app?vid=9afaa460-233d-4fca-beb6-b2f716068717"},"vehicle_type_id":"4","last_reported":1779474432,"current_range_meters":7200,"station_id":"ce4bh3h2rcd13ifvqdn0","pricing_plan_id":"cebpf4jnsgd1na2vs0mg"},{"bike_id":"33fd2c4d-0195-4fe3-9b07-cb7d63fcd224","system_id":"levelo_inurba_marseille","lat":43.25344,"lon":5.42173,"is_reserved":false,"is_disabled":false,"rental_uris":{"android":"levelo://app?vid=33fd2c4d-0195-4fe3-9b07-cb7d63fcd224","ios":"levelo://app?vid=33fd2c4d-0195-4fe3-9b07-cb7d63fcd224"},"vehicle_type_id":"4","last_reported":1779474432,"current_range_meters":7200,"station_id":"st_d2m65c5bi1j21697t3ng","pricing_plan_id":"cebpf4jnsgd1na2vs0mg"},{"bike_id":"21365cae-86d6-4d77-a777-80caf46a8b04","system_id":"levelo_inurba_marseille","lat":43.3377,"lon":5.37493,"is_reserved":false,"is_disabled":false,"rental_uris":{"android":"levelo://app?vid=21365cae-86d6-4d77-a777-80caf46a8b04","ios":"levelo://app?vid=21365cae-86d6-4d77-a777-80caf46a8b04"},"vehicle_type_id":"4","last_reported":1779474432,"current_range_meters":7200,"station_id":"st_d46tts09ee8s73dlu43g","pricing_plan_id":"cebpf4jnsgd1na2vs0mg"},{"bike_id":"da40bec0-b591-41c6-b74c-f6b2ec962e4a","system_id":"levelo_inurba_marseille","lat":43.25002,"lon":5.38923,"is_reserved":false,"is_disabled":false,"rental_uris":{"android":"levelo://app?vid=da40bec0-b591-41c6-b74c-f6b2ec962e4a","ios":"levelo://app?vid=da40bec0-b591-41c6-b74c-f6b2ec962e4a"},"vehicle_type_id":"4","last_reported":1779474432,"current_range_meters":7200,"station_id":"ce4bhgp2rcd13ifvqfd0","pricing_plan_id":"cebpf4jnsgd1na2vs0mg"},{"bike_id":"f4c0b23e-43a3-4715-8696-99bddc13e830","system_id":"levelo_inurba_marseille","lat":43.30815,"lon":5.44605,"is_reserved":false,"is_disabled":false,"rental_uris":{"android":"levelo://app?vid=f4c0b23e-43a3-4715-8696-99bddc13e830","ios":"levelo://app?vid=f4c0b23e-43a3-4715-8696-99bddc13e830"},"vehicle_type_id":"4","last_reported":1779474432,"current_range_meters":7200,"station_id":"","pricing_plan_id":"cebpf4jnsgd1na2vs0mg"},{"bike_id":"999d3ebd-e3d7-4530-b990-3ec06b375240","system_id":"levelo_inurba_marseille","lat":43.28094,"lon":5.37845,"is_reserved":false,"is_disabled":true,"rental_uris":{"android":"levelo://app?vid=999d3ebd-e3d7-4530-b990-3ec06b375240","ios":"levelo://app?vid=999d3ebd-e3d7-4530-b990-3ec06b375240"},"vehicle_type_id":"4","last_reported":1779474432,"current_range_meters":7200,"station_id":"ce4bha12rcd13ifvqee0","pricing_plan_id":"cebpf4jnsgd1na2vs0mg"},{"bike_id":"04a0bd15-df8e-43b9-ae24-5fbdc289fcdc","system_id":"levelo_inurba_marseille","lat":43.29535,"lon":5.3854,"is_reserved":false,"is_disabled":false,"rental_uris":{"android":"levelo://app?vid=04a0bd15-df8e-43b9-ae24-5fbdc289fcdc","ios":"levelo://app?vid=04a0bd15-df8e-43b9-ae24-5fbdc289fcdc"},"vehicle_type_id":"4","last_reported":1779474432,"current_range_meters":7200,"station_id":"ce4bgih2rcd13ifvqba0","pricing_plan_id":"cebpf4jnsgd1na2vs0mg"},{"bike_id":"6a94ba67-44c6-4208-b305-a9f0a5c4db3e","system_id":"levelo_inurba_marseille","lat":43.22567,"lon":5.4164,"is_reserved":false,"is_disabled":false,"rental_uris":{"android":"levelo://app?vid=6a94ba67-44c6-4208-b305-a9f0a5c4db3e","ios":"levelo://app?vid=6a94ba67-44c6-4208-b305-a9f0a5c4db3e"},"vehicle_type_id":"4","last_reported":1779474432,"current_range_meters":7200,"station_id":"st_d2o4gvlbi1j2169b742g","pricing_plan_id":"cebpf4jnsgd1na2vs0mg"},{"bike_id":"29f177f7-be7f-4da8-8bcc-664e10bce6bf","system_id":"levelo_inurba_marseille","lat":43.2853,"lon":5.44106,"is_reserved":false,"is_disabled":false,"rental_uris":{"android":"levelo://app?vid=29f177f7-be7f-4da8-8bcc-664e10bce6bf","ios":"levelo://app?vid=29f177f7-be7f-4da8-8bcc-664e10bce6bf"},"vehicle_type_id":"4","last_reported":1779474432,"current_range_meters":7200,"station_id":"st_d3j3df2ikq2c7380ej80","pricing_plan_id":"cebpf4jnsgd1na2vs0mg"},{"bike_id":"e182c879-136b-48ee-8e04-998e7c0d9a86","system_id":"levelo_inurba_marseille","lat":43.28861,"lon":5.35847,"is_reserved":false,"is_disabled":false,"rental_uris":{"android":"levelo://app?vid=e182c879-136b-48ee-8e04-998e7c0d9a86","ios":"levelo://app?vid=e182c879-136b-48ee-8e04-998e7c0d9a86"},"vehicle_type_id":"4","last_reported":1779474432,"current_range_meters":7200,"station_id":"ce4bhb12rcd13ifvqem0","pricing_plan_id":"cebpf4jnsgd1na2vs0mg"},{"bike_id":"817893f7-1b67-482b-b5d5-97d6dbd87b32","system_id":"levelo_inurba_marseille","lat":43.24806,"lon":5.37452,"is_reserved":false,"is_disabled":false,"rental_uris":{"android":"levelo://app?vid=817893f7-1b67-482b-b5d5-97d6dbd87b32","ios":"levelo://app?vid=817893f7-1b67-482b-b5d5-97d6dbd87b32"},"vehicle_type_id":"4","last_reported":1779474432,"current_range_meters":7200,"station_id":"ce4bhgh2rcd13ifvqfb0","pricing_plan_id":"cebpf4jnsgd1na2vs0mg"},{"bike_id":"a468becb-cfcc-4425-88fd-08f2a5a23757","system_id":"levelo_inurba_marseille","lat":43.29267,"lon":5.36823,"is_reserved":false,"is_disabled":false,"rental_uris":{"android":"levelo://app?vid=a468becb-cfcc-4425-88fd-08f2a5a23757","ios":"levelo://app?vid=a468becb-cfcc-4425-88fd-08f2a5a23757"},"vehicle_type_id":"4","last_reported":1779474432,"current_range_meters":7200,"station_id":"ce4bhbp2rcd13ifvqesg","pricing_plan_id":"cebpf4jnsgd1na2vs0mg"},{"bike_id":"22959713-78b1-4c59-ae64-a27c86f368bf","system_id":"levelo_inurba_marseille","lat":43.23948,"lon":5.3666,"is_reserved":false,"is_disabled":false,"rental_uris":{"android":"levelo://app?vid=22959713-78b1-4c59-ae64-a27c86f368bf","ios":"levelo://app?vid=22959713-78b1-4c59-ae64-a27c86f368bf"},"vehicle_type_id":"4","last_reported":1779474432,"current_range_meters":7200,"station_id":"ce4bhi12rcd13ifvqfp0","pricing_plan_id":"cebpf4jnsgd1na2vs0mg"},{"bike_id":"76e6273b-4292-4901-b515-293fbc8b0258","system_id":"levelo_inurba_marseille","lat":43.28941,"lon":5.36643,"is_reserved":false,"is_disabled":false,"rental_uris":{"android":"levelo://app?vid=76e6273b-4292-4901-b515-293fbc8b0258","ios":"levelo://app?vid=76e6273b-4292-4901-b515-293fbc8b0258"},"vehicle_type_id":"4","last_reported":1779474432,"current_range_meters":7200,"station_id":"ce4bhap2rcd13ifvqek0","pricing_plan_id":"cebpf4jnsgd1na2vs0mg"},{"bike_id":"3544666c-d662-472f-8211-9ab465510c00","system_id":"levelo_inurba_marseille","lat":43.24646,"lon":5.38895,"is_reserved":false,"is_disabled":false,"rental_uris":{"android":"levelo://app?vid=3544666c-d662-472f-8211-9ab465510c00","ios":"levelo://app?vid=3544666c-d662-472f-8211-9ab465510c00"},"vehicle_type_id":"4","last_reported":1779474432,"current_range_meters":7200,"station_id":"ce4bhg12rcd13ifvqf60","pricing_plan_id":"cebpf4jnsgd1na2vs0mg"},{"bike_id":"2cede324-d456-4558-ac0a-2a84941d7b49","system_id":"levelo_inurba_marseille","lat":43.26557,"lon":5.39026,"is_reserved":false,"is_disabled":false,"rental_uris":{"android":"levelo://app?vid=2cede324-d456-4558-ac0a-2a84941d7b49","ios":"levelo://app?vid=2cede324-d456-4558-ac0a-2a84941d7b49"},"vehicle_type_id":"4","last_reported":1779474432,"current_range_meters":7200,"station_id":"ce4bhe12rcd13ifvqf30","pricing_plan_id":"cebpf4jnsgd1na2vs0mg"},{"bike_id":"ce8d53bb-2e59-41a6-90c6-31de32a3a076","system_id":"levelo_inurba_marseille","lat":43.31188,"lon":5.36848,"is_reserved":false,"is_disabled":false,"rental_uris":{"android":"levelo://app?vid=ce8d53bb-2e59-41a6-90c6-31de32a3a076","ios":"levelo://app?vid=ce8d53bb-2e59-41a6-90c6-31de32a3a076"},