{"last_updated":1702905051,"ttl":30,"version":"2.2","data":{"bikes":[{"bike_id":"326bfdf4-09c4-442e-9403-17dfa75ea4b3","system_id":"levelo_inurba_marseille","lat":43.313391,"lon":5.36706,"is_reserved":false,"is_disabled":false,"rental_uris":{"android":"levelo://app?vid=326bfdf4-09c4-442e-9403-17dfa75ea4b3","ios":"levelo://app?vid=326bfdf4-09c4-442e-9403-17dfa75ea4b3"},"vehicle_type_id":"4","last_reported":1702905051,"current_range_meters":6800,"station_id":"ce4bgr92rcd13ifvqc6g","pricing_plan_id":"free"},{"bike_id":"8674721c-8264-432f-ac0b-74403cd59655","system_id":"levelo_inurba_marseille","lat":43.31341,"lon":5.367098,"is_reserved":false,"is_disabled":false,"rental_uris":{"android":"levelo://app?vid=8674721c-8264-432f-ac0b-74403cd59655","ios":"levelo://app?vid=8674721c-8264-432f-ac0b-74403cd59655"},"vehicle_type_id":"4","last_reported":1702905051,"current_range_meters":27600,"station_id":"ce4bgr92rcd13ifvqc6g","pricing_plan_id":"free"},{"bike_id":"812640e8-713d-45a8-b988-a17ad1ceb406","system_id":"levelo_inurba_marseille","lat":43.313391,"lon":5.36706,"is_reserved":false,"is_disabled":false,"rental_uris":{"android":"levelo://app?vid=812640e8-713d-45a8-b988-a17ad1ceb406","ios":"levelo://app?vid=812640e8-713d-45a8-b988-a17ad1ceb406"},"vehicle_type_id":"4","last_reported":1702905051,"current_range_meters":800,"station_id":"ce4bgr92rcd13ifvqc6g","pricing_plan_id":"free"},{"bike_id":"4fc9f832-7db8-4188-af64-2e5c98dde42e","system_id":"levelo_inurba_marseille","lat":43.313391,"lon":5.36706,"is_reserved":false,"is_disabled":false,"rental_uris":{"android":"levelo://app?vid=4fc9f832-7db8-4188-af64-2e5c98dde42e","ios":"levelo://app?vid=4fc9f832-7db8-4188-af64-2e5c98dde42e"},"vehicle_type_id":"4","last_reported":1702905051,"current_range_meters":30000,"station_id":"ce4bgr92rcd13ifvqc6g","pricing_plan_id":"free"},{"bike_id":"2a35484a-0926-4daa-abd1-ee8694286426","system_id":"levelo_inurba_marseille","lat":43.31341,"lon":5.367098,"is_reserved":false,"is_disabled":false,"rental_uris":{"android":"levelo://app?vid=2a35484a-0926-4daa-abd1-ee8694286426","ios":"levelo://app?vid=2a35484a-0926-4daa-abd1-ee8694286426"},"vehicle_type_id":"4","last_reported":1702905051,"current_range_meters":23200,"station_id":"ce4bgr92rcd13ifvqc6g","pricing_plan_id":"free"},{"bike_id":"0e7f4743-633f-4c5f-bb63-d3239429ae2f","system_id":"levelo_inurba_marseille","lat":43.313391,"lon":5.36706,"is_reserved":false,"is_disabled":false,"rental_uris":{"android":"levelo://app?vid=0e7f4743-633f-4c5f-bb63-d3239429ae2f","ios":"levelo://app?vid=0e7f4743-633f-4c5f-bb63-d3239429ae2f"},"vehicle_type_id":"4","last_reported":1702905051,"current_range_meters":24000,"station_id":"ce4bgr92rcd13ifvqc6g","pricing_plan_id":"free"},{"bike_id":"e223c69a-1d61-4a03-811f-5db9cad1005b","system_id":"levelo_inurba_marseille","lat":43.31341,"lon":5.367098,"is_reserved":false,"is_disabled":false,"rental_uris":{"android":"levelo://app?vid=e223c69a-1d61-4a03-811f-5db9cad1005b","ios":"levelo://app?vid=e223c69a-1d61-4a03-811f-5db9cad1005b"},"vehicle_type_id":"4","last_reported":1702905051,"current_range_meters":31600,"station_id":"ce4bgr92rcd13ifvqc6g","pricing_plan_id":"free"},{"bike_id":"b9e387d8-18f5-443a-b524-a9bc938b3c3c","system_id":"levelo_inurba_marseille","lat":43.31363,"lon":5.36708,"is_reserved":false,"is_disabled":false,"rental_uris":{"android":"levelo://app?vid=b9e387d8-18f5-443a-b524-a9bc938b3c3c","ios":"levelo://app?vid=b9e387d8-18f5-443a-b524-a9bc938b3c3c"},"vehicle_type_id":"4","last_reported":1702905051,"current_range_meters":22000,"station_id":"ce4bgr92rcd13ifvqc6g","pricing_plan_id":"free"},{"bike_id":"19d38c64-1f80-4241-ae3f-24cc0f2bed28","system_id":"levelo_inurba_marseille","lat":43.31341,"lon":5.367098,"is_reserved":false,"is_disabled":false,"rental_uris":{"android":"levelo://app?vid=19d38c64-1f80-4241-ae3f-24cc0f2bed28","ios":"levelo://app?vid=19d38c64-1f80-4241-ae3f-24cc0f2bed28"},"vehicle_type_id":"4","last_reported":1702905051,"current_range_meters":19200,"station_id":"ce4bgr92rcd13ifvqc6g","pricing_plan_id":"free"},{"bike_id":"b1904172-6d31-4e2b-90b6-aa8ecd6c6b2a","system_id":"levelo_inurba_marseille","lat":43.312239,"lon":5.368562,"is_reserved":false,"is_disabled":false,"rental_uris":{"android":"levelo://app?vid=b1904172-6d31-4e2b-90b6-aa8ecd6c6b2a","ios":"levelo://app?vid=b1904172-6d31-4e2b-90b6-aa8ecd6c6b2a"},"vehicle_type_id":"4","last_reported":1702905051,"current_range_meters":23600,"station_id":"ce4bgl92rcd13ifvqbq0","pricing_plan_id":"free"},{"bike_id":"22041a00-c209-485e-b261-f69ee9cb67b3","system_id":"levelo_inurba_marseille","lat":43.312239,"lon":5.368562,"is_reserved":false,"is_disabled":false,"rental_uris":{"android":"levelo://app?vid=22041a00-c209-485e-b261-f69ee9cb67b3","ios":"levelo://app?vid=22041a00-c209-485e-b261-f69ee9cb67b3"},"vehicle_type_id":"4","last_reported":1702905051,"current_range_meters":28000,"station_id":"ce4bgl92rcd13ifvqbq0","pricing_plan_id":"free"},{"bike_id":"58a6fe03-9213-4ac3-8464-010a86d79d06","system_id":"levelo_inurba_marseille","lat":43.308818,"lon":5.37191,"is_reserved":false,"is_disabled":false,"rental_uris":{"android":"levelo://app?vid=58a6fe03-9213-4ac3-8464-010a86d79d06","ios":"levelo://app?vid=58a6fe03-9213-4ac3-8464-010a86d79d06"},"vehicle_type_id":"4","last_reported":1702905051,"current_range_meters":10800,"station_id":"ce4bguh2rcd13ifvqckg","pricing_plan_id":"free"},{"bike_id":"97feb4a9-95f3-4623-b18e-e01b976c3eff","system_id":"levelo_inurba_marseille","lat":43.309039,"lon":5.371797,"is_reserved":false,"is_disabled":false,"rental_uris":{"android":"levelo://app?vid=97feb4a9-95f3-4623-b18e-e01b976c3eff","ios":"levelo://app?vid=97feb4a9-95f3-4623-b18e-e01b976c3eff"},"vehicle_type_id":"4","last_reported":1702905051,"current_range_meters":30000,"station_id":"ce4bguh2rcd13ifvqckg","pricing_plan_id":"free"},{"bike_id":"993482b7-cfc4-4090-857a-dce3e7e54f70","system_id":"levelo_inurba_marseille","lat":43.316877,"lon":5.372892,"is_reserved":false,"is_disabled":false,"rental_uris":{"android":"levelo://app?vid=993482b7-cfc4-4090-857a-dce3e7e54f70","ios":"levelo://app?vid=993482b7-cfc4-4090-857a-dce3e7e54f70"},"vehicle_type_id":"4","last_reported":1702905051,"current_range_meters":0,"station_id":"","pricing_plan_id":"free"},{"bike_id":"8b84148c-8fa9-4f4b-a73c-c88863b8745c","system_id":"levelo_inurba_marseille","lat":43.30534,"lon":5.36717,"is_reserved":false,"is_disabled":false,"rental_uris":{"android":"levelo://app?vid=8b84148c-8fa9-4f4b-a73c-c88863b8745c","ios":"levelo://app?vid=8b84148c-8fa9-4f4b-a73c-c88863b8745c"},"vehicle_type_id":"4","last_reported":1702905051,"current_range_meters":27600,"station_id":"ce4bgrp2rcd13ifvqc9g","pricing_plan_id":"free"},{"bike_id":"2eac921e-7ebe-4faf-99b5-41fad8876780","system_id":"levelo_inurba_marseille","lat":43.305712,"lon":5.365641,"is_reserved":false,"is_disabled":false,"rental_uris":{"android":"levelo://app?vid=2eac921e-7ebe-4faf-99b5-41fad8876780","ios":"levelo://app?vid=2eac921e-7ebe-4faf-99b5-41fad8876780"},"vehicle_type_id":"4","last_reported":1702905051,"current_range_meters":18400,"station_id":"ce4bgs12rcd13ifvqcag","pricing_plan_id":"free"},{"bike_id":"955e4ab2-16e5-44e8-a986-a2f50ff96c06","system_id":"levelo_inurba_marseille","lat":43.305382,"lon":5.365389,"is_reserved":false,"is_disabled":false,"rental_uris":{"android":"levelo://app?vid=955e4ab2-16e5-44e8-a986-a2f50ff96c06","ios":"levelo://app?vid=955e4ab2-16e5-44e8-a986-a2f50ff96c06"},"vehicle_type_id":"4","last_reported":1702905051,"current_range_meters":8000,"station_id":"","pricing_plan_id":"free"},{"bike_id":"a107648f-40e7-40ca-af1b-b03e5b10a64f","system_id":"levelo_inurba_marseille","lat":43.305714,"lon":5.365633,"is_reserved":false,"is_disabled":false,"rental_uris":{"android":"levelo://app?vid=a107648f-40e7-40ca-af1b-b03e5b10a64f","ios":"levelo://app?vid=a107648f-40e7-40ca-af1b-b03e5b10a64f"},"vehicle_type_id":"4","last_reported":1702905051,"current_range_meters":22800,"station_id":"ce4bgs12rcd13ifvqcag","pricing_plan_id":"free"},{"bike_id":"05fa78bb-31b8-4484-a9b9-352b2251b854","system_id":"levelo_inurba_marseille","lat":43.305706,"lon":5.365654,"is_reserved":false,"is_disabled":false,"rental_uris":{"android":"levelo://app?vid=05fa78bb-31b8-4484-a9b9-352b2251b854","ios":"levelo://app?vid=05fa78bb-31b8-4484-a9b9-352b2251b854"},"vehicle_type_id":"4","last_reported":1702905051,"current_range_meters":31200,"station_id":"ce4bgs12rcd13ifvqcag","pricing_plan_id":"free"},{"bike_id":"9ed0b164-624d-4304-9ca1-bdafb7c8e4bf","system_id":"levelo_inurba_marseille","lat":43.307945,"lon":5.376487,"is_reserved":false,"is_disabled":false,"rental_uris":{"android":"levelo://app?vid=9ed0b164-624d-4304-9ca1-bdafb7c8e4bf","ios":"levelo://app?vid=9ed0b164-624d-4304-9ca1-bdafb7c8e4bf"},"vehicle_type_id":"4","last_reported":1702905051,"current_range_meters":26800,"station_id":"ce4bgv92rcd13ifvqcq0","pricing_plan_id":"free"},{"bike_id":"7975d01e-f8f4-4b20-9d10-f06edb4947b9","system_id":"levelo_inurba_marseille","lat":43.317075,"lon":5.377367,"is_reserved":false,"is_disabled":false,"rental_uris":{"android":"levelo://app?vid=7975d01e-f8f4-4b20-9d10-f06edb4947b9","ios":"levelo://app?vid=7975d01e-f8f4-4b20-9d10-f06edb4947b9"},"vehicle_type_id":"4","last_reported":1702905051,"current_range_meters":22800,"station_id":"ce4bgth2rcd13ifvqch0","pricing_plan_id":"free"},{"bike_id":"f845128f-13fd-450d-911c-c17198a8712f","system_id":"levelo_inurba_marseille","lat":43.317075,"lon":5.377367,"is_reserved":false,"is_disabled":false,"rental_uris":{"android":"levelo://app?vid=f845128f-13fd-450d-911c-c17198a8712f","ios":"levelo://app?vid=f845128f-13fd-450d-911c-c17198a8712f"},"vehicle_type_id":"4","last_reported":1702905051,"current_range_meters":31200,"station_id":"ce4bgth2rcd13ifvqch0","pricing_plan_id":"free"},{"bike_id":"0347294b-2523-49f1-b765-4732b50d00b6","system_id":"levelo_inurba_marseille","lat":43.317075,"lon":5.377367,"is_reserved":false,"is_disabled":false,"rental_uris":{"android":"levelo://app?vid=0347294b-2523-49f1-b765-4732b50d00b6","ios":"levelo://app?vid=0347294b-2523-49f1-b765-4732b50d00b6"},"vehicle_type_id":"4","last_reported":1702905051,"current_range_meters":10800,"station_id":"ce4bgth2rcd13ifvqch0","pricing_plan_id":"free"},{"bike_id":"153c0b5a-b62c-420b-bfaa-1adb70a1cbaf","system_id":"levelo_inurba_marseille","lat":43.30806,"lon":5.38153,"is_reserved":false,"is_disabled":false,"rental_uris":{"android":"levelo://app?vid=153c0b5a-b62c-420b-bfaa-1adb70a1cbaf","ios":"levelo://app?vid=153c0b5a-b62c-420b-bfaa-1adb70a1cbaf"},"vehicle_type_id":"4","last_reported":1702905051,"current_range_meters":24400,"station_id":"ce4bgt12rcd13ifvqce0","pricing_plan_id":"free"},{"bike_id":"ba9dab49-1eda-4166-a246-691b2dd62560","system_id":"levelo_inurba_marseille","lat":43.304606,"lon":5.379026,"is_reserved":false,"is_disabled":false,"rental_uris":{"android":"levelo://app?vid=ba9dab49-1eda-4166-a246-691b2dd62560","ios":"levelo://app?vid=ba9dab49-1eda-4166-a246-691b2dd62560"},"vehicle_type_id":"4","last_reported":1702905051,"current_range_meters":0,"station_id":"ce4bgup2rcd13ifvqcn0","pricing_plan_id":"free"},{"bike_id":"07a376be-02e2-44de-a85d-9e028c589ebd","system_id":"levelo_inurba_marseille","lat":43.32476,"lon":5.36568,"is_reserved":false,"is_disabled":false,"rental_uris":{"android":"levelo://app?vid=07a376be-02e2-44de-a85d-9e028c589ebd","ios":"levelo://app?vid=07a376be-02e2-44de-a85d-9e028c589ebd"},"vehicle_type_id":"4","last_reported":1702905051,"current_range_meters":4800,"station_id":"ce4bhs12rcd13ifvqhvg","pricing_plan_id":"free"},{"bike_id":"8b97c3f1-bb5f-4c4b-bae8-74bcb68230ca","system_id":"levelo_inurba_marseille","lat":43.31073,"lon":5.38341,"is_reserved":false,"is_disabled":false,"rental_uris":{"android":"levelo://app?vid=8b97c3f1-bb5f-4c4b-bae8-74bcb68230ca","ios":"levelo://app?vid=8b97c3f1-bb5f-4c4b-bae8-74bcb68230ca"},"vehicle_type_id":"4","last_reported":1702905051,"current_range_meters":1200,"station_id":"","pricing_plan_id":"free"},{"bike_id":"185f555b-ac99-40ee-8bd5-2bf1973b7f08","system_id":"levelo_inurba_marseille","lat":43.30412,"lon":5.37891,"is_reserved":false,"is_disabled":false,"rental_uris":{"android":"levelo://app?vid=185f555b-ac99-40ee-8bd5-2bf1973b7f08","ios":"levelo://app?vid=185f555b-ac99-40ee-8bd5-2bf1973b7f08"},"vehicle_type_id":"4","last_reported":1702905051,"current_range_meters":15200,"station_id":"","pricing_plan_id":"free"},{"bike_id":"bffff0f0-d709-428b-be59-0bfb2ec71c57","system_id":"levelo_inurba_marseille","lat":43.30268,"lon":5.377064,"is_reserved":false,"is_disabled":false,"rental_uris":{"android":"levelo://app?vid=bffff0f0-d709-428b-be59-0bfb2ec71c57","ios":"levelo://app?vid=bffff0f0-d709-428b-be59-0bfb2ec71c57"},"vehicle_type_id":"4","last_reported":1702905051,"current_range_meters":6000,"station_id":"ce4bguh2rcd13ifvqcj0","pricing_plan_id":"free"},{"bike_id":"e76a37a4-4dcd-4f4d-94bd-3b088a9a5597","system_id":"levelo_inurba_marseille","lat":43.30143,"lon":5.37413,"is_reserved":false,"is_disabled":false,"rental_uris":{"android":"levelo://app?vid=e76a37a4-4dcd-4f4d-94bd-3b088a9a5597","ios":"levelo://app?vid=e76a37a4-4dcd-4f4d-94bd-3b088a9a5597"},"vehicle_type_id":"4","last_reported":1702905051,"current_range_meters":24000,"station_id":"ce4bgs92rcd13ifvqcc0","pricing_plan_id":"free"},{"bike_id":"07d5a6e2-d23d-42a6-84fa-30d13d01d939","system_id":"levelo_inurba_marseille","lat":43.313571,"lon":5.384829,"is_reserved":false,"is_disabled":false,"rental_uris":{"android":"levelo://app?vid=07d5a6e2-d23d-42a6-84fa-30d13d01d939","ios":"levelo://app?vid=07d5a6e2-d23d-42a6-84fa-30d13d01d939"},"vehicle_type_id":"4","last_reported":1702905051,"current_range_meters":24400,"station_id":"ce4bgt92rcd13ifvqcf0","pricing_plan_id":"free"},{"bike_id":"ef157e0f-7f03-4f2a-b5bc-11570eb6b3f8","system_id":"levelo_inurba_marseille","lat":43.313571,"lon":5.384829,"is_reserved":false,"is_disabled":false,"rental_uris":{"android":"levelo://app?vid=ef157e0f-7f03-4f2a-b5bc-11570eb6b3f8","ios":"levelo://app?vid=ef157e0f-7f03-4f2a-b5bc-11570eb6b3f8"},"vehicle_type_id":"4","last_reported":1702905051,"current_range_meters":16000,"station_id":"ce4bgt92rcd13ifvqcf0","pricing_plan_id":"free"},{"bike_id":"381eb466-1050-41f7-8e25-ace5a40d2930","system_id":"levelo_inurba_marseille","lat":43.313571,"lon":5.384829,"is_reserved":false,"is_disabled":false,"rental_uris":{"android":"levelo://app?vid=381eb466-1050-41f7-8e25-ace5a40d2930","ios":"levelo://app?vid=381eb466-1050-41f7-8e25-ace5a40d2930"},"vehicle_type_id":"4","last_reported":1702905051,"current_range_meters":30400,"station_id":"ce4bgt92rcd13ifvqcf0","pricing_plan_id":"free"},{"bike_id":"bdbc360e-8690-4b10-88f3-8f14540f3e21","system_id":"levelo_inurba_marseille","lat":43.313571,"lon":5.384829,"is_reserved":false,"is_disabled":false,"rental_uris":{"android":"levelo://app?vid=bdbc360e-8690-4b10-88f3-8f14540f3e21","ios":"levelo://app?vid=bdbc360e-8690-4b10-88f3-8f14540f3e21"},"vehicle_type_id":"4","last_reported":1702905051,"current_range_meters":18800,"station_id":"ce4bgt92rcd13ifvqcf0","pricing_plan_id":"free"},{"bike_id":"6e466a69-adbe-4011-8ebf-82051a17e97c","system_id":"levelo_inurba_marseille","lat":43.313571,"lon":5.384829,"is_reserved":false,"is_disabled":false,"rental_uris":{"android":"levelo://app?vid=6e466a69-adbe-4011-8ebf-82051a17e97c","ios":"levelo://app?vid=6e466a69-adbe-4011-8ebf-82051a17e97c"},"vehicle_type_id":"4","last_reported":1702905051,"current_range_meters":26000,"station_id":"ce4bgt92rcd13ifvqcf0","pricing_plan_id":"free"},{"bike_id":"7153f8cf-c66d-4f6f-9396-aca030331c6f","system_id":"levelo_inurba_marseille","lat":43.299778,"lon":5.371795,"is_reserved":false,"is_disabled":false,"rental_uris":{"android":"levelo://app?vid=7153f8cf-c66d-4f6f-9396-aca030331c6f","ios":"levelo://app?vid=7153f8cf-c66d-4f6f-9396-aca030331c6f"},"vehicle_type_id":"4","last_reported":1702905051,"current_range_meters":22400,"station_id":"","pricing_plan_id":"free"},{"bike_id":"b684dcfe-22d4-49db-8570-06e5d9228f38","system_id":"levelo_inurba_marseille","lat":43.305364,"lon":5.384119,"is_reserved":false,"is_disabled":false,"rental_uris":{"android":"levelo://app?vid=b684dcfe-22d4-49db-8570-06e5d9228f38","ios":"levelo://app?vid=b684dcfe-22d4-49db-8570-06e5d9228f38"},"vehicle_type_id":"4","last_reported":1702905051,"current_range_meters":27600,"station_id":"ce4bgg92rcd13ifvqb30","pricing_plan_id":"free"},{"bike_id":"819cb438-2e9c-4e0b-902b-5e19ef554d5c","system_id":"levelo_inurba_marseille","lat":43.30548,"lon":5.384313,"is_reserved":false,"is_disabled":false,"rental_uris":{"android":"levelo://app?vid=819cb438-2e9c-4e0b-902b-5e19ef554d5c","ios":"levelo://app?vid=819cb438-2e9c-4e0b-902b-5e19ef554d5c"},"vehicle_type_id":"4","last_reported":1702905051,"current_range_meters":6400,"station_id":"ce4bgg92rcd13ifvqb30","pricing_plan_id":"free"},{"bike_id":"a34244de-9ac6-431e-9749-ab4cef049c05","system_id":"levelo_inurba_marseille","lat":43.297794,"lon":5.370888,"is_reserved":false,"is_disabled":false,"rental_uris":{"android":"levelo://app?vid=a34244de-9ac6-431e-9749-ab4cef049c05","ios":"levelo://app?vid=a34244de-9ac6-431e-9749-ab4cef049c05"},"vehicle_type_id":"4","last_reported":1702905051,"current_range_meters":21600,"station_id":"ce4bgop2rcd13ifvqc1g","pricing_plan_id":"free"},{"bike_id":"3737aebe-1cce-415b-8132-94746ed5f00f","system_id":"levelo_inurba_marseille","lat":43.32297,"lon":5.38268,"is_reserved":false,"is_disabled":false,"rental_uris":{"android":"levelo://app?vid=3737aebe-1cce-415b-8132-94746ed5f00f","ios":"levelo://app?vid=3737aebe-1cce-415b-8132-94746ed5f00f"},"vehicle_type_id":"4","last_reported":1702905051,"current_range_meters":0,"station_id":"ce4bhr12rcd13ifvqhqg","pricing_plan_id":"free"},{"bike_id":"766d6340-3d41-4586-8670-21e632028ca3","system_id":"levelo_inurba_marseille","lat":43.328243,"lon":5.366763,"is_reserved":false,"is_disabled":false,"rental_uris":{"android":"levelo://app?vid=766d6340-3d41-4586-8670-21e632028ca3","ios":"levelo://app?vid=766d6340-3d41-4586-8670-21e632028ca3"},"vehicle_type_id":"4","last_reported":1702905051,"current_range_meters":29200,"station_id":"ce4bhs92rcd13ifvqi0g","pricing_plan_id":"free"},{"bike_id":"1c4e0be7-4a56-4d58-8b2f-9899334fc7b6","system_id":"levelo_inurba_marseille","lat":43.32825,"lon":5.36675,"is_reserved":false,"is_disabled":false,"rental_uris":{"android":"levelo://app?vid=1c4e0be7-4a56-4d58-8b2f-9899334fc7b6","ios":"levelo://app?vid=1c4e0be7-4a56-4d58-8b2f-9899334fc7b6"},"vehicle_type_id":"4","last_reported":1702905051,"current_range_meters":21600,"station_id":"ce4bhs92rcd13ifvqi0g","pricing_plan_id":"free"},{"bike_id":"a5dac851-f559-43de-bdec-4e65877cf593","system_id":"levelo_inurba_marseille","lat":43.2968,"lon":5.37291,"is_reserved":false,"is_disabled":false,"rental_uris":{"android":"levelo://app?vid=a5dac851-f559-43de-bdec-4e65877cf593","ios":"levelo://app?vid=a5dac851-f559-43de-bdec-4e65877cf593"},"vehicle_type_id":"4","last_reported":1702905051,"current_range_meters":400,"station_id":"ce4bgk12rcd13ifvqbj0","pricing_plan_id":"free"},{"bike_id":"025f4c6e-d145-4a7f-a2d5-360fcc388921","system_id":"levelo_inurba_marseille","lat":43.309589,"lon":5.390258,"is_reserved":false,"is_disabled":false,"rental_uris":{"android":"levelo://app?vid=025f4c6e-d145-4a7f-a2d5-360fcc388921","ios":"levelo://app?vid=025f4c6e-d145-4a7f-a2d5-360fcc388921"},"vehicle_type_id":"4","last_reported":1702905051,"current_range_meters":0,"station_id":"ce4bgup2rcd13ifvqco0","pricing_plan_id":"free"},{"bike_id":"0c885fd1-bd4e-40ab-9d7d-d92bdce65fcf","system_id":"levelo_inurba_marseille","lat":43.299028,"lon":5.381509,"is_reserved":false,"is_disabled":false,"rental_uris":{"android":"levelo://app?vid=0c885fd1-bd4e-40ab-9d7d-d92bdce65fcf","ios":"levelo://app?vid=0c885fd1-bd4e-40ab-9d7d-d92bdce65fcf"},"vehicle_type_id":"4","last_reported":1702905051,"current_range_meters":14800,"station_id":"ce4bgj12rcd13ifvqbc0","pricing_plan_id":"free"},{"bike_id":"6faba801-aa27-41f7-9d75-6a5bbcd4e7ed","system_id":"levelo_inurba_marseille","lat":43.309589,"lon":5.390258,"is_reserved":false,"is_disabled":false,"rental_uris":{"android":"levelo://app?vid=6faba801-aa27-41f7-9d75-6a5bbcd4e7ed","ios":"levelo://app?vid=6faba801-aa27-41f7-9d75-6a5bbcd4e7ed"},"vehicle_type_id":"4","last_reported":1702905051,"current_range_meters":4800,"station_id":"ce4bgup2rcd13ifvqco0","pricing_plan_id":"free"},{"bike_id":"cdb7859f-f50d-4a68-9f00-00d8c4729da3","system_id":"levelo_inurba_marseille","lat":43.317557,"lon":5.390173,"is_reserved":false,"is_disabled":false,"rental_uris":{"android":"levelo://app?vid=cdb7859f-f50d-4a68-9f00-00d8c4729da3","ios":"levelo://app?vid=cdb7859f-f50d-4a68-9f00-00d8c4729da3"},"vehicle_type_id":"4","last_reported":1702905051,"current_range_meters":10800,"station_id":"ce4bhqp2rcd13ifvqhng","pricing_plan_id":"free"},{"bike_id":"e62dea4f-317e-489d-a433-acb22a495d31","system_id":"levelo_inurba_marseille","lat":43.317557,"lon":5.390173,"is_reserved":false,"is_disabled":false,"rental_uris":{"android":"levelo://app?vid=e62dea4f-317e-489d-a433-acb22a495d31","ios":"levelo://app?vid=e62dea4f-317e-489d-a433-acb22a495d31"},"vehicle_type_id":"4","last_reported":1702905051,"current_range_meters":4000,"station_id":"ce4bhqp2rcd13ifvqhng","pricing_plan_id":"free"},{"bike_id":"ce69846d-6046-4db1-89d4-618e220ea11f","system_id":"levelo_inurba_marseille","lat":43.29796,"lon":5.38096,"is_reserved":false,"is_disabled":false,"rental_uris":{"android":"levelo://app?vid=ce69846d-6046-4db1-89d4-618e220ea11f","ios":"levelo://app?vid=ce69846d-6046-4db1-89d4-618e220ea11f"},"vehicle_type_id":"4","last_reported":1702905051,"current_range_meters":20400,"station_id":"","pricing_plan_id":"free"},{"bike_id":"38a19376-e9b4-4582-88f3-3c04eab62918","system_id":"levelo_inurba_marseille","lat":43.29791,"lon":5.38092,"is_reserved":false,"is_disabled":false,"rental_uris":{"android":"levelo://app?vid=38a19376-e9b4-4582-88f3-3c04eab62918","ios":"levelo://app?vid=38a19376-e9b4-4582-88f3-3c04eab62918"},"vehicle_type_id":"4","last_reported":1702905051,"current_range_meters":16400,"station_id":"ce4bgip2rcd13ifvqbb0","pricing_plan_id":"free"},{"bike_id":"febf5407-c89b-4367-af37-5da98d4eec0e","system_id":"levelo_inurba_marseille","lat":43.29573,"lon":5.37501,"is_reserved":false,"is_disabled":false,"rental_uris":{"android":"levelo://app?vid=febf5407-c89b-4367-af37-5da98d4eec0e","ios":"levelo://app?vid=febf5407-c89b-4367-af37-5da98d4eec0e"},"vehicle_type_id":"4","last_reported":1702905051,"current_range_meters":28000,"station_id":"ce4bgh92rcd13ifvqb50","pricing_plan_id":"free"},{"bike_id":"9b584deb-a881-41db-8131-16fb57ae0357","system_id":"levelo_inurba_marseille","lat":43.304274,"lon":5.388873,"is_reserved":false,"is_disabled":false,"rental_uris":{"android":"levelo://app?vid=9b584deb-a881-41db-8131-16fb57ae0357","ios":"levelo://app?vid=9b584deb-a881-41db-8131-16fb57ae0357"},"vehicle_type_id":"4","last_reported":1702905051,"current_range_meters":14800,"station_id":"ce4bgk12rcd13ifvqbi0","pricing_plan_id":"free"},{"bike_id":"cefc94bf-e5b9-4c6d-9dcf-fe15df8ebac4","system_id":"levelo_inurba_marseille","lat":43.295279,"lon":5.375048,"is_reserved":false,"is_disabled":false,"rental_uris":{"android":"levelo://app?vid=cefc94bf-e5b9-4c6d-9dcf-fe15df8ebac4","ios":"levelo://app?vid=cefc94bf-e5b9-4c6d-9dcf-fe15df8ebac4"},"vehicle_type_id":"4","last_reported":1702905051,"current_range_meters":0,"station_id":"ce4bgkp2rcd13ifvqbmg","pricing_plan_id":"free"},{"bike_id":"db7218f7-a9bd-426e-99b9-1b0ee3bcae93","system_id":"levelo_inurba_marseille","lat":43.32367,"lon":5.388836,"is_reserved":false,"is_disabled":false,"rental_uris":{"android":"levelo://app?vid=db7218f7-a9bd-426e-99b9-1b0ee3bcae93","ios":"levelo://app?vid=db7218f7-a9bd-426e-99b9-1b0ee3bcae93"},"vehicle_type_id":"4","last_reported":1702905051,"current_range_meters":0,"station_id":"ce4bhqp2rcd13ifvqhog","pricing_plan_id":"free"},{"bike_id":"d8b6a40d-18fa-4704-8739-a53d09c47825","system_id":"levelo_inurba_marseille","lat":43.29601,"lon":5.381084,"is_reserved":false,"is_disabled":false,"rental_uris":{"android":"levelo://app?vid=d8b6a40d-18fa-4704-8739-a53d09c47825","ios":"levelo://app?vid=d8b6a40d-18fa-4704-8739-a53d09c47825"},"vehicle_type_id":"4","last_reported":1702905051,"current_range_meters":18400,"station_id":"ce4bgl12rcd13ifvqbo0","pricing_plan_id":"free"},{"bike_id":"8837fb0e-fe21-41bb-a093-7f1764105404","system_id":"levelo_inurba_marseille","lat":43.29601,"lon":5.381084,"is_reserved":false,"is_disabled":false,"rental_uris":{"android":"levelo://app?vid=8837fb0e-fe21-41bb-a093-7f1764105404","ios":"levelo://app?vid=8837fb0e-fe21-41bb-a093-7f1764105404"},"vehicle_type_id":"4","last_reported":1702905051,"current_range_meters":0,"station_id":"ce4bgl12rcd13ifvqbo0","pricing_plan_id":"free"},{"bike_id":"2ade7473-2436-4e05-969a-b66ab28892b5","system_id":"levelo_inurba_marseille","lat":43.29601,"lon":5.381084,"is_reserved":false,"is_disabled":false,"rental_uris":{"android":"levelo://app?vid=2ade7473-2436-4e05-969a-b66ab28892b5","ios":"levelo://app?vid=2ade7473-2436-4e05-969a-b66ab28892b5"},"vehicle_type_id":"4","last_reported":1702905051,"current_range_meters":0,"station_id":"ce4bgl12rcd13ifvqbo0","pricing_plan_id":"free"},{"bike_id":"7e56b56a-9a99-4129-909d-60c90008b8cc","system_id":"levelo_inurba_marseille","lat":43.30602,"lon":5.39361,"is_reserved":false,"is_disabled":false,"rental_uris":{"android":"levelo://app?vid=7e56b56a-9a99-4129-909d-60c90008b8cc","ios":"levelo://app?vid=7e56b56a-9a99-4129-909d-60c90008b8cc"},"vehicle_type_id":"4","last_reported":1702905051,"current_range_meters":0,"station_id":"ce4bh0p2rcd13ifvqd80","pricing_plan_id":"free"},{"bike_id":"f747611c-87f5-4ad7-a020-29255acecbbe","system_id":"levelo_inurba_marseille","lat":43.29225,"lon":5.36054,"is_reserved":false,"is_disabled":false,"rental_uris":{"android":"levelo://app?vid=f747611c-87f5-4ad7-a020-29255acecbbe","ios":"levelo://app?vid=f747611c-87f5-4ad7-a020-29255acecbbe"},"vehicle_type_id":"4","last_reported":1702905051,"current_range_meters":0,"station_id":"ce4bhbh2rcd13ifvqeqg","pricing_plan_id":"free"},{"bike_id":"d3636c9e-709b-4ee4-8849-ada01e50110e","system_id":"levelo_inurba_marseille","lat":43.29268,"lon":5.37634,"is_reserved":false,"is_disabled":false,"rental_uris":{"android":"levelo://app?vid=d3636c9e-709b-4ee4-8849-ada01e50110e","ios":"levelo://app?vid=d3636c9e-709b-4ee4-8849-ada01e50110e"},"vehicle_type_id":"4","last_reported":1702905051,"current_range_meters":18800,"station_id":"","pricing_plan_id":"free"},{"bike_id":"a5a29d3b-da1c-4319-877f-571050a1da7b","system_id":"levelo_inurba_marseille","lat":43.291675,"lon":5.371583,"is_reserved":false,"is_disabled":false,"rental_uris":{"android":"levelo://app?vid=a5a29d3b-da1c-4319-877f-571050a1da7b","ios":"levelo://app?vid=a5a29d3b-da1c-4319-877f-571050a1da7b"},"vehicle_type_id":"4","last_reported":1702905051,"current_range_meters":25600,"station_id":"ce4bha92rcd13ifvqeh0","pricing_plan_id":"free"},{"bike_id":"ff66b23d-5369-41ef-bbdf-3721c9f21bba","system_id":"levelo_inurba_marseille","lat":43.3021,"lon":5.39469,"is_reserved":false,"is_disabled":false,"rental_uris":{"android":"levelo://app?vid=ff66b23d-5369-41ef-bbdf-3721c9f21bba","ios":"levelo://app?vid=ff66b23d-5369-41ef-bbdf-3721c9f21bba"},"vehicle_type_id":"4","last_reported":1702905051,"current_range_meters":0,"station_id":"ce4bh0p2rcd13ifvqd70","pricing_plan_id":"free"},{"bike_id":"26cc4de1-04cf-4f4f-a264-9ee88781713d","system_id":"levelo_inurba_marseille","lat":43.289184,"lon":5.366408,"is_reserved":false,"is_disabled":false,"rental_uris":{"android":"levelo://app?vid=26cc4de1-04cf-4f4f-a264-9ee88781713d","ios":"levelo://app?vid=26cc4de1-04cf-4f4f-a264-9ee88781713d"},"vehicle_type_id":"4","last_reported":1702905051,"current_range_meters":5600,"station_id":"ce4bhap2rcd13ifvqek0","pricing_plan_id":"free"},{"bike_id":"f1481588-6d6e-4c81-addf-c25fcaf090e0","system_id":"levelo_inurba_marseille","lat":43.289184,"lon":5.366408,"is_reserved":false,"is_disabled":false,"rental_uris":{"android":"levelo://app?vid=f1481588-6d6e-4c81-addf-c25fcaf090e0","ios":"levelo://app?vid=f1481588-6d6e-4c81-addf-c25fcaf090e0"},"vehicle_type_id":"4","last_reported":1702905051,"current_range_meters":26000,"station_id":"ce4bhap2rcd13ifvqek0","pricing_plan_id":"free"},{"bike_id":"e1a432ce-c1e6-44e5-9147-55c83512656c","system_id":"levelo_inurba_marseille","lat":43.289447,"lon":5.363973,"is_reserved":false,"is_disabled":false,"rental_uris":{"android":"levelo://app?vid=e1a432ce-c1e6-44e5-9147-55c83512656c","ios":"levelo://app?vid=e1a432ce-c1e6-44e5-9147-55c83512656c"},"vehicle_type_id":"4","last_reported":1702905051,"current_range_meters":21600,"station_id":"ce4bhc92rcd13ifvqetg","pricing_plan_id":"free"},{"bike_id":"b8c0eacb-edde-41e5-b85d-ab5737036089","system_id":"levelo_inurba_marseille","lat":43.289184,"lon":5.366408,"is_reserved":false,"is_disabled":false,"rental_uris":{"android":"levelo://app?vid=b8c0eacb-edde-41e5-b85d-ab5737036089","ios":"levelo://app?vid=b8c0eacb-edde-41e5-b85d-ab5737036089"},"vehicle_type_id":"4","last_reported":1702905051,"current_range_meters":6000,"station_id":"ce4bhap2rcd13ifvqek0","pricing_plan_id":"free"},{"bike_id":"c618c69a-919b-4120-b74a-f07bd7ac8598","system_id":"levelo_inurba_marseille","lat":43.289385,"lon":5.363795,"is_reserved":false,"is_disabled":false,"rental_uris":{"android":"levelo://app?vid=c618c69a-919b-4120-b74a-f07bd7ac8598","ios":"levelo://app?vid=c618c69a-919b-4120-b74a-f07bd7ac8598"},"vehicle_type_id":"4","last_reported":1702905051,"current_range_meters":24800,"station_id":"ce4bhc92rcd13ifvqetg","pricing_plan_id":"free"},{"bike_id":"cf5c9730-3daa-40a2-9027-c782ea16f1c2","system_id":"levelo_inurba_marseille","lat":43.290104,"lon":5.356111,"is_reserved":false,"is_disabled":false,"rental_uris":{"android":"levelo://app?vid=cf5c9730-3daa-40a2-9027-c782ea16f1c2","ios":"levelo://app?vid=cf5c9730-3daa-40a2-9027-c782ea16f1c2"},"vehicle_type_id":"4","last_reported":1702905051,"current_range_meters":14400,"station_id":"ce4bhb92rcd13ifvqen0","pricing_plan_id":"free"},{"bike_id":"242f6b2f-9bf8-4d7a-8077-0b67ac502ad6","system_id":"levelo_inurba_marseille","lat":43.290104,"lon":5.356111,"is_reserved":false,"is_disabled":false,"rental_uris":{"android":"levelo://app?vid=242f6b2f-9bf8-4d7a-8077-0b67ac502ad6","ios":"levelo://app?vid=242f6b2f-9bf8-4d7a-8077-0b67ac502ad6"},"vehicle_type_id":"4","last_reported":1702905051,"current_range_meters":22000,"station_id":"ce4bhb92rcd13ifvqen0","pricing_plan_id":"free"},{"bike_id":"282ba60c-f1e1-42a2-9f32-efc11c9ca038","system_id":"levelo_inurba_marseille","lat":43.29001,"lon":5.35613,"is_reserved":false,"is_disabled":false,"rental_uris":{"android":"levelo://app?vid=282ba60c-f1e1-42a2-9f32-efc11c9ca038","ios":"levelo://app?vid=282ba60c-f1e1-42a2-9f32-efc11c9ca038"},"vehicle_type_id":"4","last_reported":1702905051,"current_range_meters":17200,"station_id":"ce4bhb92rcd13ifvqen0","pricing_plan_id":"free"},{"bike_id":"4c22962d-e7aa-40c6-b15a-88421926b6fb","system_id":"levelo_inurba_marseille","lat":43.295169,"lon":5.390426,"is_reserved":false,"is_disabled":false,"rental_uris":{"android":"levelo://app?vid=4c22962d-e7aa-40c6-b15a-88421926b6fb","ios":"levelo://app?vid=4c22962d-e7aa-40c6-b15a-88421926b6fb"},"vehicle_type_id":"4","last_reported":1702905051,"current_range_meters":15600,"station_id":"ce4bh3p2rcd13ifvqdp0","pricing_plan_id":"free"},{"bike_id":"f883d03a-d811-4007-88a1-4f5b4fe2bc23","system_id":"levelo_inurba_marseille","lat":43.297815,"lon":5.393548,"is_reserved":false,"is_disabled":false,"rental_uris":{"android":"levelo://app?vid=f883d03a-d811-4007-88a1-4f5b4fe2bc23","ios":"levelo://app?vid=f883d03a-d811-4007-88a1-4f5b4fe2bc23"},"vehicle_type_id":"4","last_reported":1702905051,"current_range_meters":28400,"station_id":"chh1huq6cuj3fo74tm60","pricing_plan_id":"free"},{"bike_id":"6a68734a-d4cc-4377-ac07-ec392a32f3df","system_id":"levelo_inurba_marseille","lat":43.28856,"lon":5.358371,"is_reserved":false,"is_disabled":false,"rental_uris":{"android":"levelo://app?vid=6a68734a-d4cc-4377-ac07-ec392a32f3df","ios":"levelo://app?vid=6a68734a-d4cc-4377-ac07-ec392a32f3df"},"vehicle_type_id":"4","last_reported":1702905051,"current_range_meters":2800,"station_id":"ce4bhb12rcd13ifvqem0","pricing_plan_id":"free"},{"bike_id":"1089b036-46ae-439f-8d77-0d52e794ca6b","system_id":"levelo_inurba_marseille","lat":43.290094,"lon":5.381264,"is_reserved":false,"is_disabled":false,"rental_uris":{"android":"levelo://app?vid=1089b036-46ae-439f-8d77-0d52e794ca6b","ios":"levelo://app?vid=1089b036-46ae-439f-8d77-0d52e794ca6b"},"vehicle_type_id":"4","last_reported":1702905051,"current_range_meters":21600,"station_id":"ce4bh4p2rcd13ifvqe1g","pricing_plan_id":"free"},{"bike_id":"0221fc65-d6d3-43b6-8d9e-8aa47390afee","system_id":"levelo_inurba_marseille","lat":43.288473,"lon":5.358565,"is_reserved":false,"is_disabled":false,"rental_uris":{"android":"levelo://app?vid=0221fc65-d6d3-43b6-8d9e-8aa47390afee","ios":"levelo://app?vid=0221fc65-d6d3-43b6-8d9e-8aa47390afee"},"vehicle_type_id":"4","last_reported":1702905051,"current_range_meters":11600,"station_id":"ce4bhb12rcd13ifvqem0","pricing_plan_id":"free"},{"bike_id":"6c56daa4-91bf-414a-acd8-5ccc1d32de29","system_id":"levelo_inurba_marseille","lat":43.28856,"lon":5.358371,"is_reserved":false,"is_disabled":false,"rental_uris":{"android":"levelo://app?vid=6c56daa4-91bf-414a-acd8-5ccc1d32de29","ios":"levelo://app?vid=6c56daa4-91bf-414a-acd8-5ccc1d32de29"},"vehicle_type_id":"4","last_reported":1702905051,"current_range_meters":21600,"station_id":"ce4bhb12rcd13ifvqem0","pricing_plan_id":"free"},{"bike_id":"dcd157fb-29bc-4e9f-ae0c-ebec506ae33b","system_id":"levelo_inurba_marseille","lat":43.31269,"lon":5.40176,"is_reserved":false,"is_disabled":false,"rental_uris":{"android":"levelo://app?vid=dcd157fb-29bc-4e9f-ae0c-ebec506ae33b","ios":"levelo://app?vid=dcd157fb-29bc-4e9f-ae0c-ebec506ae33b"},"vehicle_type_id":"4","last_reported":1702905051,"current_range_meters":5200,"station_id":"ce4bh092rcd13ifvqd30","pricing_plan_id":"free"},{"bike_id":"58964417-d611-4878-b14e-6202aa088dde","system_id":"levelo_inurba_marseille","lat":43.33746,"lon":5.37469,"is_reserved":false,"is_disabled":false,"rental_uris":{"android":"levelo://app?vid=58964417-d611-4878-b14e-6202aa088dde","ios":"levelo://app?vid=58964417-d611-4878-b14e-6202aa088dde"},"vehicle_type_id":"4","last_reported":1702905051,"current_range_meters":30800,"station_id":"","pricing_plan_id":"free"},{"bike_id":"e61eb103-5a29-4cab-b61b-755c776e1d07","system_id":"levelo_inurba_marseille","lat":43.30926,"lon":5.40153,"is_reserved":false,"is_disabled":false,"rental_uris":{"android":"levelo://app?vid=e61eb103-5a29-4cab-b61b-755c776e1d07","ios":"levelo://app?vid=e61eb103-5a29-4cab-b61b-755c776e1d07"},"vehicle_type_id":"4","last_reported":1702905051,"current_range_meters":14400,"station_id":"ce4bgvp2rcd13ifvqct0","pricing_plan_id":"free"},{"bike_id":"fc8d24bb-0c26-4688-9bac-affcc075aa4d","system_id":"levelo_inurba_marseille","lat":43.3376,"lon":5.3746,"is_reserved":false,"is_disabled":false,"rental_uris":{"android":"levelo://app?vid=fc8d24bb-0c26-4688-9bac-affcc075aa4d","ios":"levelo://app?vid=fc8d24bb-0c26-4688-9bac-affcc075aa4d"},"vehicle_type_id":"4","last_reported":1702905051,"current_range_meters":28800,"station_id":"","pricing_plan_id":"free"},{"bike_id":"9f8c5768-c1c4-42f2-ab94-e0edbdd8cc01","system_id":"levelo_inurba_marseille","lat":43.30642,"lon":5.401031,"is_reserved":false,"is_disabled":false,"rental_uris":{"android":"levelo://app?vid=9f8c5768-c1c4-42f2-ab94-e0edbdd8cc01","ios":"levelo://app?vid=9f8c5768-c1c4-42f2-ab94-e0edbdd8cc01"},"vehicle_type_id":"4","last_reported":1702905051,"current_range_meters":25600,"station_id":"ce4bh112rcd13ifvqda0","pricing_plan_id":"free"},{"bike_id":"18998502-0794-410a-adf2-0138953645e2","system_id":"levelo_inurba_marseille","lat":43.292571,"lon":5.409107,"is_reserved":false,"is_disabled":false,"rental_uris":{"android":"levelo://app?vid=18998502-0794-410a-adf2-0138953645e2","ios":"levelo://app?vid=18998502-0794-410a-adf2-0138953645e2"},"vehicle_type_id":"4","last_reported":1702905051,"current_range_meters":20400,"station_id":"ce4bh192rcd13ifvqdc0","pricing_plan_id":"free"},{"bike_id":"36e7e7ea-739c-44d4-a127-00d6ca008c70","system_id":"levelo_inurba_marseille","lat":43.30642,"lon":5.401031,"is_reserved":false,"is_disabled":false,"rental_uris":{"android":"levelo://app?vid=36e7e7ea-739c-44d4-a127-00d6ca008c70","ios":"levelo://app?vid=36e7e7ea-739c-44d4-a127-00d6ca008c70"},"vehicle_type_id":"4","last_reported":1702905051,"current_range_meters":9200,"station_id":"ce4bh112rcd13ifvqda0","pricing_plan_id":"free"},{"bike_id":"2669fed3-6368-452c-91a0-ae26038de732","system_id":"levelo_inurba_marseille","lat":43.30113,"lon":5.39884,"is_reserved":false,"is_disabled":false,"rental_uris":{"android":"levelo://app?vid=2669fed3-6368-452c-91a0-ae26038de732","ios":"levelo://app?vid=2669fed3-6368-452c-91a0-ae26038de732"},"vehicle_type_id":"4","last_reported":1702905051,"current_range_meters":31200,"station_id":"ce4bh0h2rcd13ifvqd40","pricing_plan_id":"free"},{"bike_id":"d3c4c810-edb1-4f0f-b4df-755f991e2a2c","system_id":"levelo_inurba_marseille","lat":43.286591,"lon":5.363346,"is_reserved":false,"is_disabled":false,"rental_uris":{"android":"levelo://app?vid=d3c4c810-edb1-4f0f-b4df-755f991e2a2c","ios":"levelo://app?vid=d3c4c810-edb1-4f0f-b4df-755f991e2a2c"},"vehicle_type_id":"4","last_reported":1702905051,"current_range_meters":3200,"station_id":"ce4bhah2rcd13ifvqej0","pricing_plan_id":"free"},{"bike_id":"f0ed242c-ed9e-4d1c-859a-ecf9f620057b","system_id":"levelo_inurba_marseille","lat":43.298681,"lon":5.397225,"is_reserved":false,"is_disabled":false,"rental_uris":{"android":"levelo://app?vid=f0ed242c-ed9e-4d1c-859a-ecf9f620057b","ios":"levelo://app?vid=f0ed242c-ed9e-4d1c-859a-ecf9f620057b"},"vehicle_type_id":"4","last_reported":1702905051,"current_range_meters":22400,"station_id":"ce4bh0h2rcd13ifvqd50","pricing_plan_id":"free"},{"bike_id":"c43f0a05-3f06-4eba-ac7f-e3aab36b247b","system_id":"levelo_inurba_marseille","lat":43.286593,"lon":5.363346,"is_reserved":false,"is_disabled":false,"rental_uris":{"android":"levelo://app?vid=c43f0a05-3f06-4eba-ac7f-e3aab36b247b","ios":"levelo://app?vid=c43f0a05-3f06-4eba-ac7f-e3aab36b247b"},"vehicle_type_id":"4","last_reported":1702905051,"current_range_meters":18400,"station_id":"ce4bhah2rcd13ifvqej0","pricing_plan_id":"free"},{"bike_id":"c01c9ad5-e30f-4be0-9dcc-93bc246de845","system_id":"levelo_inurba_marseille","lat":43.290345,"lon":5.38646,"is_reserved":false,"is_disabled":false,"rental_uris":{"android":"levelo://app?vid=c01c9ad5-e30f-4be0-9dcc-93bc246de845","ios":"levelo://app?vid=c01c9ad5-e30f-4be0-9dcc-93bc246de845"},"vehicle_type_id":"4","last_reported":1702905051,"current_range_meters":0,"station_id":"ce4bh4p2rcd13ifvqe0g","pricing_plan_id":"free"},{"bike_id":"87ec457e-e14e-4b4b-b230-55f02c5dac1a","system_id":"levelo_inurba_marseille","lat":43.316828,"lon":5.404723,"is_reserved":false,"is_disabled":false,"rental_uris":{"android":"levelo://app?vid=87ec457e-e14e-4b4b-b230-55f02c5dac1a","ios":"levelo://app?vid=87ec457e-e14e-4b4b-b230-55f02c5dac1a"},"vehicle_type_id":"4","last_reported":1702905051,"current_range_meters":0,"station_id":"ce4bh012rcd13ifvqd00","pricing_plan_id":"free"},{"bike_id":"aa1ee429-abab-4b18-bf26-eb900d28aaf6","system_id":"levelo_inurba_marseille","lat":43.284538,"lon":5.358657,"is_reserved":false,"is_disabled":false,"rental_uris":{"android":"levelo://app?vid=aa1ee429-abab-4b18-bf26-eb900d28aaf6","ios":"levelo://app?vid=aa1ee429-abab-4b18-bf26-eb900d28aaf6"},"vehicle_type_id":"4","last_reported":1702905051,"current_range_meters":23600,"station_id":"ce4bhah2rcd13ifvqei0","pricing_plan_id":"free"},{"bike_id":"df0ce0b0-8ace-4435-bd6a-465884fb3816","system_id":"levelo_inurba_marseille","lat":43.284534,"lon":5.358662,"is_reserved":false,"is_disabled":false,"rental_uris":{"android":"levelo://app?vid=df0ce0b0-8ace-4435-bd6a-465884fb3816","ios":"levelo://app?vid=df0ce0b0-8ace-4435-bd6a-465884fb3816"},"vehicle_type_id":"4","last_reported":1702905051,"current_range_meters":27600,"station_id":"ce4bhah2rcd13ifvqei0","pricing_plan_id":"free"},{"bike_id":"f8e070ab-b69b-418e-8a37-e603a988be8f","system_id":"levelo_inurba_marseille","lat":43.29436,"lon":5.3975,"is_reserved":false,"is_disabled":false,"rental_uris":{"android":"levelo://app?vid=f8e070ab-b69b-418e-8a37-e603a988be8f","ios":"levelo://app?vid=f8e070ab-b69b-418e-8a37-e603a988be8f"},"vehicle_type_id":"4","last_reported":1702905051,"current_range_meters":26000,"station_id":"","pricing_plan_id":"free"},{"bike_id":"69b19753-ebae-494e-8696-884e48c07101","system_id":"levelo_inurba_marseille","lat":43.285848,"lon":5.350787,"is_reserved":false,"is_disabled":false,"rental_uris":{"android":"levelo://app?vid=69b19753-ebae-494e-8696-884e48c07101","ios":"levelo://app?vid=69b19753-ebae-494e-8696-884e48c07101"},"vehicle_type_id":"4","last_reported":1702905051,"current_range_meters":4000,"station_id":"ce4bhch2rcd13ifvqeug","pricing_plan_id":"free"},{"bike_id":"2dfa5049-0e1b-4839-b5c3-156910a65dbd","system_id":"levelo_inurba_marseille","lat":43.33218,"lon":5.397067,"is_reserved":false,"is_disabled":false,"rental_uris":{"android":"levelo://app?vid=2dfa5049-0e1b-4839-b5c3-156910a65dbd","ios":"levelo://app?vid=2dfa5049-0e1b-4839-b5c3-156910a65dbd"},"vehicle_type_id":"4","last_reported":1702905051,"current_range_meters":5200,"station_id":"","pricing_plan_id":"free"},{"bike_id":"dc42f82d-aa6c-4774-ab5d-ab9b08892630","system_id":"levelo_inurba_marseille","lat":43.295713,"lon":5.399639,"is_reserved":false,"is_disabled":false,"rental_uris":{"android":"levelo://app?vid=dc42f82d-aa6c-4774-ab5d-ab9b08892630","ios":"levelo://app?vid=dc42f82d-aa6c-4774-ab5d-ab9b08892630"},"vehicle_type_id":"4","last_reported":1702905051,"current_range_meters":3600,"station_id":"ce4bh312rcd13ifvqdj0","pricing_plan_id":"free"},{"bike_id":"d6517976-0bcf-4d17-8e96-35cea8d2ddc2","system_id":"levelo_inurba_marseille","lat":43.286595,"lon":5.386795,"is_reserved":false,"is_disabled":false,"rental_uris":{"android":"levelo://app?vid=d6517976-0bcf-4d17-8e96-35cea8d2ddc2","ios":"levelo://app?vid=d6517976-0bcf-4d17-8e96-35cea8d2ddc2"},"vehicle_type_id":"4","last_reported":1702905051,"current_range_meters":19200,"station_id":"ce4bh492rcd13ifvqdug","pricing_plan_id":"free"},{"bike_id":"57144cb7-32cb-4131-a3cc-3a1d34b4d37c","system_id":"levelo_inurba_marseille","lat":43.286595,"lon":5.386795,"is_reserved":false,"is_disabled":false,"rental_uris":{"android":"levelo://app?vid=57144cb7-32cb-4131-a3cc-3a1d34b4d37c","ios":"levelo://app?vid=57144cb7-32cb-4131-a3cc-3a1d34b4d37c"},"vehicle_type_id":"4","last_reported":1702905051,"current_range_meters":29200,"station_id":"ce4bh492rcd13ifvqdug","pricing_plan_id":"free"},{"bike_id":"516e5b1c-186b-4cad-9493-39ac2b5af9b4","system_id":"levelo_inurba_marseille","lat":43.286595,"lon":5.386795,"is_reserved":false,"is_disabled":false,"rental_uris":{"android":"levelo://app?vid=516e5b1c-186b-4cad-9493-39ac2b5af9b4","ios":"levelo://app?vid=516e5b1c-186b-4cad-9493-39ac2b5af9b4"},"vehicle_type_id":"4","last_reported":1702905051,"current_range_meters":28400,"station_id":"ce4bh492rcd13ifvqdug","pricing_plan_id":"free"},{"bike_id":"831e2d4c-5f0e-4ae5-9050-c85672a4a9fb","system_id":"levelo_inurba_marseille","lat":43.319179,"lon":5.407725,"is_reserved":false,"is_disabled":false,"rental_uris":{"android":"levelo://app?vid=831e2d4c-5f0e-4ae5-9050-c85672a4a9fb","ios":"levelo://app?vid=831e2d4c-5f0e-4ae5-9050-c85672a4a9fb"},"vehicle_type_id":"4","last_reported":1702905051,"current_range_meters":27600,"station_id":"ce4bhq12rcd13ifvqhig","pricing_plan_id":"free"},{"bike_id":"76ed1a54-38dd-49ea-983c-422ba156661a","system_id":"levelo_inurba_marseille","lat":43.319179,"lon":5.407725,"is_reserved":false,"is_disabled":false,"rental_uris":{"android":"levelo://app?vid=76ed1a54-38dd-49ea-983c-422ba156661a","ios":"levelo://app?vid=76ed1a54-38dd-49ea-983c-422ba156661a"},"vehicle_type_id":"4","last_reported":1702905051,"current_range_meters":2400,"station_id":"ce4bhq12rcd13ifvqhig","pricing_plan_id":"free"},{"bike_id":"d7712de3-f0cd-46af-b706-7fa343bd6e56","system_id":"levelo_inurba_marseille","lat":43.337168,"lon":5.391825,"is_reserved":false,"is_disabled":false,"rental_uris":{"android":"levelo://app?vid=d7712de3-f0cd-46af-b706-7fa343bd6e56","ios":"levelo://app?vid=d7712de3-f0cd-46af-b706-7fa343bd6e56"},"vehicle_type_id":"4","last_reported":1702905051,"current_range_meters":26000,"station_id":"ce4bhr92rcd13ifvqhsg","pricing_plan_id":"free"},{"bike_id":"c489507f-c310-4fc6-9558-9b80a81af1d9","system_id":"levelo_inurba_marseille","lat":43.323464,"lon":5.406297,"is_reserved":false,"is_disabled":false,"rental_uris":{"android":"levelo://app?vid=c489507f-c310-4fc6-9558-9b80a81af1d9","ios":"levelo://app?vid=c489507f-c310-4fc6-9558-9b80a81af1d9"},"vehicle_type_id":"4","last_reported":1702905051,"current_range_meters":16400,"station_id":"ce4bhq92rcd13ifvqhjg","pricing_plan_id":"free"},{"bike_id":"71835d2c-6997-42c9-9032-bdce2b8ed02f","system_id":"levelo_inurba_marseille","lat":43.283498,"lon":5.380948,"is_reserved":false,"is_disabled":false,"rental_uris":{"android":"levelo://app?vid=71835d2c-6997-42c9-9032-bdce2b8ed02f","ios":"levelo://app?vid=71835d2c-6997-42c9-9032-bdce2b8ed02f"},"vehicle_type_id":"4","last_reported":1702905051,"current_range_meters":26400,"station_id":"ce4bh412rcd13ifvqdr0","pricing_plan_id":"free"},{"bike_id":"a3889c86-4b3b-4f4f-9f8e-a7d02a433165","system_id":"levelo_inurba_marseille","lat":43.283498,"lon":5.380948,"is_reserved":false,"is_disabled":false,"rental_uris":{"android":"levelo://app?vid=a3889c86-4b3b-4f4f-9f8e-a7d02a433165","ios":"levelo://app?vid=a3889c86-4b3b-4f4f-9f8e-a7d02a433165"},"vehicle_type_id":"4","last_reported":1702905051,"current_range_meters":7200,"station_id":"ce4bh412rcd13ifvqdr0","pricing_plan_id":"free"},{"bike_id":"bff84e65-aa8c-4a91-ac50-1d86f96eb58f","system_id":"levelo_inurba_marseille","lat":43.28339,"lon":5.38098,"is_reserved":false,"is_disabled":false,"rental_uris":{"android":"levelo://app?vid=bff84e65-aa8c-4a91-ac50-1d86f96eb58f","ios":"levelo://app?vid=bff84e65-aa8c-4a91-ac50-1d86f96eb58f"},"vehicle_type_id":"4","last_reported":1702905051,"current_range_meters":13200,"station_id":"","pricing_plan_id":"free"},{"bike_id":"4750a7db-0b58-45be-b2a6-7f7ae8d3db56","system_id":"levelo_inurba_marseille","lat":43.284219,"lon":5.3497,"is_reserved":false,"is_disabled":false,"rental_uris":{"android":"levelo://app?vid=4750a7db-0b58-45be-b2a6-7f7ae8d3db56","ios":"levelo://app?vid=4750a7db-0b58-45be-b2a6-7f7ae8d3db56"},"vehicle_type_id":"4","last_reported":1702905051,"current_range_meters":21200,"station_id":"ce4bhbh2rcd13ifvqepg","pricing_plan_id":"free"},{"bike_id":"1a23e290-f5d2-46d4-8f68-0532ce140f03","system_id":"levelo_inurba_marseille","lat":43.284219,"lon":5.3497,"is_reserved":false,"is_disabled":false,"rental_uris":{"android":"levelo://app?vid=1a23e290-f5d2-46d4-8f68-0532ce140f03","ios":"levelo://app?vid=1a23e290-f5d2-46d4-8f68-0532ce140f03"},"vehicle_type_id":"4","last_reported":1702905051,"current_range_meters":16800,"station_id":"ce4bhbh2rcd13ifvqepg","pricing_plan_id":"free"},{"bike_id":"ff389810-ea92-4c33-8b66-6a4a00d9f6d1","system_id":"levelo_inurba_marseille","lat":43.284219,"lon":5.3497,"is_reserved":false,"is_disabled":false,"rental_uris":{"android":"levelo://app?vid=ff389810-ea92-4c33-8b66-6a4a00d9f6d1","ios":"levelo://app?vid=ff389810-ea92-4c33-8b66-6a4a00d9f6d1"},"vehicle_type_id":"4","last_reported":1702905051,"current_range_meters":15600,"station_id":"ce4bhbh2rcd13ifvqepg","pricing_plan_id":"free"},{"bike_id":"ae642e8a-0117-44b5-a060-a47e6c6915ee","system_id":"levelo_inurba_marseille","lat":43.306412,"lon":5.401035,"is_reserved":false,"is_disabled":false,"rental_uris":{"android":"levelo://app?vid=ae642e8a-0117-44b5-a060-a47e6c6915ee","ios":"levelo://app?vid=ae642e8a-0117-44b5-a060-a47e6c6915ee"},"vehicle_type_id":"4","last_reported":1702905051,"current_range_meters":26800,"station_id":"ce4bh112rcd13ifvqda0","pricing_plan_id":"free"},{"bike_id":"b51e4b6b-2b53-4ac4-af43-8967e1ed67c2","system_id":"levelo_inurba_marseille","lat":43.282754,"lon":5.350519,"is_reserved":false,"is_disabled":false,"rental_uris":{"android":"levelo://app?vid=b51e4b6b-2b53-4ac4-af43-8967e1ed67c2","ios":"levelo://app?vid=b51e4b6b-2b53-4ac4-af43-8967e1ed67c2"},"vehicle_type_id":"4","last_reported":1702905051,"current_range_meters":17200,"station_id":"ce4bhbp2rcd13ifvqerg","pricing_plan_id":"free"},{"bike_id":"9153737e-99e5-496e-b061-56c0c7aead41","system_id":"levelo_inurba_marseille","lat":43.282744,"lon":5.350533,"is_reserved":false,"is_disabled":false,"rental_uris":{"android":"levelo://app?vid=9153737e-99e5-496e-b061-56c0c7aead41","ios":"levelo://app?vid=9153737e-99e5-496e-b061-56c0c7aead41"},"vehicle_type_id":"4","last_reported":1702905051,"current_range_meters":28400,"station_id":"ce4bhbp2rcd13ifvqerg","pricing_plan_id":"free"},{"bike_id":"f6964ecd-e178-4e04-8559-5cad6c31dd13","system_id":"levelo_inurba_marseille","lat":43.282754,"lon":5.350519,"is_reserved":false,"is_disabled":false,"rental_uris":{"android":"levelo://app?vid=f6964ecd-e178-4e04-8559-5cad6c31dd13","ios":"levelo://app?vid=f6964ecd-e178-4e04-8559-5cad6c31dd13"},"vehicle_type_id":"4","last_reported":1702905051,"current_range_meters":26800,"station_id":"ce4bhbp2rcd13ifvqerg","pricing_plan_id":"free"},{"bike_id":"70111e4d-3908-42b4-9d8d-3b7f4191f276","system_id":"levelo_inurba_marseille","lat":43.282754,"lon":5.350519,"is_reserved":false,"is_disabled":false,"rental_uris":{"android":"levelo://app?vid=70111e4d-3908-42b4-9d8d-3b7f4191f276","ios":"levelo://app?vid=70111e4d-3908-42b4-9d8d-3b7f4191f276"},"vehicle_type_id":"4","last_reported":1702905051,"current_range_meters":4400,"station_id":"ce4bhbp2rcd13ifvqerg","pricing_plan_id":"free"},{"bike_id":"ba9870c8-f0eb-40d7-919a-3c074064bb80","system_id":"levelo_inurba_marseille","lat":43.282754,"lon":5.350519,"is_reserved":false,"is_disabled":false,"rental_uris":{"android":"levelo://app?vid=ba9870c8-f0eb-40d7-919a-3c074064bb80","ios":"levelo://app?vid=ba9870c8-f0eb-40d7-919a-3c074064bb80"},"vehicle_type_id":"4","last_reported":1702905051,"current_range_meters":14400,"station_id":"ce4bhbp2rcd13ifvqerg","pricing_plan_id":"free"},{"bike_id":"8e7581a4-bee5-4330-a11e-65db4a112dd2","system_id":"levelo_inurba_marseille","lat":43.280363,"lon":5.369474,"is_reserved":false,"is_disabled":false,"rental_uris":{"android":"levelo://app?vid=8e7581a4-bee5-4330-a11e-65db4a112dd2","ios":"levelo://app?vid=8e7581a4-bee5-4330-a11e-65db4a112dd2"},"vehicle_type_id":"4","last_reported":1702905051,"current_range_meters":19200,"station_id":"ce4bha12rcd13ifvqef0","pricing_plan_id":"free"},{"bike_id":"c0764253-098e-4a70-8107-b1e23c51e520","system_id":"levelo_inurba_marseille","lat":43.29034,"lon":5.39959,"is_reserved":false,"is_disabled":false,"rental_uris":{"android":"levelo://app?vid=c0764253-098e-4a70-8107-b1e23c51e520","ios":"levelo://app?vid=c0764253-098e-4a70-8107-b1e23c51e520"},"vehicle_type_id":"4","last_reported":1702905051,"current_range_meters":10000,"station_id":"ce4bh392rcd13ifvqdm0","pricing_plan_id":"free"},{"bike_id":"78cdcae9-6c8e-4365-91bc-bfa5cd6137e0","system_id":"levelo_inurba_marseille","lat":43.29033,"lon":5.39963,"is_reserved":false,"is_disabled":false,"rental_uris":{"android":"levelo://app?vid=78cdcae9-6c8e-4365-91bc-bfa5cd6137e0","ios":"levelo://app?vid=78cdcae9-6c8e-4365-91bc-bfa5cd6137e0"},"vehicle_type_id":"4","last_reported":1702905051,"current_range_meters":24800,"station_id":"ce4bh392rcd13ifvqdm0","pricing_plan_id":"free"},{"bike_id":"c1509ab5-0660-4b62-b340-10e5c2dd4dc6","system_id":"levelo_inurba_marseille","lat":43.290412,"lon":5.399633,"is_reserved":false,"is_disabled":false,"rental_uris":{"android":"levelo://app?vid=c1509ab5-0660-4b62-b340-10e5c2dd4dc6","ios":"levelo://app?vid=c1509ab5-0660-4b62-b340-10e5c2dd4dc6"},"vehicle_type_id":"4","last_reported":1702905051,"current_range_meters":2400,"station_id":"ce4bh392rcd13ifvqdm0","pricing_plan_id":"free"},{"bike_id":"5428322a-a400-4219-9f38-9b9ebf025bb8","system_id":"levelo_inurba_marseille","lat":43.290065,"lon":5.399313,"is_reserved":false,"is_disabled":false,"rental_uris":{"android":"levelo://app?vid=5428322a-a400-4219-9f38-9b9ebf025bb8","ios":"levelo://app?vid=5428322a-a400-4219-9f38-9b9ebf025bb8"},"vehicle_type_id":"4","last_reported":1702905051,"current_range_meters":18400,"station_id":"ce4bh392rcd13ifvqdm0","pricing_plan_id":"free"},{"bike_id":"7afada19-f63c-41da-af75-028a9c6e36f6","system_id":"levelo_inurba_marseille","lat":43.281044,"lon":5.378308,"is_reserved":false,"is_disabled":false,"rental_uris":{"android":"levelo://app?vid=7afada19-f63c-41da-af75-028a9c6e36f6","ios":"levelo://app?vid=7afada19-f63c-41da-af75-028a9c6e36f6"},"vehicle_type_id":"4","last_reported":1702905051,"current_range_meters":27600,"station_id":"ce4bha12rcd13ifvqee0","pricing_plan_id":"free"},{"bike_id":"2b0df95d-242b-4ad6-915d-1e41ca072c74","system_id":"levelo_inurba_marseille","lat":43.281044,"lon":5.378308,"is_reserved":false,"is_disabled":false,"rental_uris":{"android":"levelo://app?vid=2b0df95d-242b-4ad6-915d-1e41ca072c74","ios":"levelo://app?vid=2b0df95d-242b-4ad6-915d-1e41ca072c74"},"vehicle_type_id":"4","last_reported":1702905051,"current_range_meters":29600,"station_id":"ce4bha12rcd13ifvqee0","pricing_plan_id":"free"},{"bike_id":"3a42f932-208d-4f66-995d-d434ed3cebbc","system_id":"levelo_inurba_marseille","lat":43.296263,"lon":5.40601,"is_reserved":false,"is_disabled":false,"rental_uris":{"android":"levelo://app?vid=3a42f932-208d-4f66-995d-d434ed3cebbc","ios":"levelo://app?vid=3a42f932-208d-4f66-995d-d434ed3cebbc"},"vehicle_type_id":"4","last_reported":1702905051,"current_range_meters":8400,"station_id":"ce4bh0h2rcd13ifvqd60","pricing_plan_id":"free"},{"bike_id":"0d091555-f1c1-4c98-b95e-3c0b4ff332d4","system_id":"levelo_inurba_marseille","lat":43.284462,"lon":5.392121,"is_reserved":false,"is_disabled":false,"rental_uris":{"android":"levelo://app?vid=0d091555-f1c1-4c98-b95e-3c0b4ff332d4","ios":"levelo://app?vid=0d091555-f1c1-4c98-b95e-3c0b4ff332d4"},"vehicle_type_id":"4","last_reported":1702905051,"current_range_meters":29600,"station_id":"ce4bhoh2rcd13ifvqh5g","pricing_plan_id":"free"},{"bike_id":"83da5fba-52d2-40ab-80de-b542b6cda0ed","system_id":"levelo_inurba_marseille","lat":43.284462,"lon":5.392121,"is_reserved":false,"is_disabled":false,"rental_uris":{"android":"levelo://app?vid=83da5fba-52d2-40ab-80de-b542b6cda0ed","ios":"levelo://app?vid=83da5fba-52d2-40ab-80de-b542b6cda0ed"},"vehicle_type_id":"4","last_reported":1702905051,"current_range_meters":14000,"station_id":"ce4bhoh2rcd13ifvqh5g","pricing_plan_id":"free"},{"bike_id":"16e7faa3-f0cc-483a-ad48-c3938590e9e8","system_id":"levelo_inurba_marseille","lat":43.28573,"lon":5.394992,"is_reserved":false,"is_disabled":false,"rental_uris":{"android":"levelo://app?vid=16e7faa3-f0cc-483a-ad48-c3938590e9e8","ios":"levelo://app?vid=16e7faa3-f0cc-483a-ad48-c3938590e9e8"},"vehicle_type_id":"4","last_reported":1702905051,"current_range_meters":26000,"station_id":"ce4bh292rcd13ifvqdg0","pricing_plan_id":"free"},{"bike_id":"6968aa60-fcac-4e85-a54e-4a2c1101ee9e","system_id":"levelo_inurba_marseille","lat":43.304188,"lon":5.412904,"is_reserved":false,"is_disabled":false,"rental_uris":{"android":"levelo://app?vid=6968aa60-fcac-4e85-a54e-4a2c1101ee9e","ios":"levelo://app?vid=6968aa60-fcac-4e85-a54e-4a2c1101ee9e"},"vehicle_type_id":"4","last_reported":1702905051,"current_range_meters":12800,"station_id":"ce4bhop2rcd13ifvqh8g","pricing_plan_id":"free"},{"bike_id":"c9a59b04-600c-45c8-989e-bea4665420ab","system_id":"levelo_inurba_marseille","lat":43.299577,"lon":5.413277,"is_reserved":false,"is_disabled":false,"rental_uris":{"android":"levelo://app?vid=c9a59b04-600c-45c8-989e-bea4665420ab","ios":"levelo://app?vid=c9a59b04-600c-45c8-989e-bea4665420ab"},"vehicle_type_id":"4","last_reported":1702905051,"current_range_meters":30000,"station_id":"ce4bhp12rcd13ifvqh9g","pricing_plan_id":"free"},{"bike_id":"b5403f37-b9c5-4890-963b-867555b474a4","system_id":"levelo_inurba_marseille","lat":43.320045,"lon":5.415048,"is_reserved":false,"is_disabled":false,"rental_uris":{"android":"levelo://app?vid=b5403f37-b9c5-4890-963b-867555b474a4","ios":"levelo://app?vid=b5403f37-b9c5-4890-963b-867555b474a4"},"vehicle_type_id":"4","last_reported":1702905051,"current_range_meters":30000,"station_id":"ce4bhq92rcd13ifvqhkg","pricing_plan_id":"free"},{"bike_id":"df993fa3-d8d8-45a6-80ae-c3580b861029","system_id":"levelo_inurba_marseille","lat":43.279742,"lon":5.38744,"is_reserved":false,"is_disabled":false,"rental_uris":{"android":"levelo://app?vid=df993fa3-d8d8-45a6-80ae-c3580b861029","ios":"levelo://app?vid=df993fa3-d8d8-45a6-80ae-c3580b861029"},"vehicle_type_id":"4","last_reported":1702905051,"current_range_meters":30400,"station_id":"ce4bhg12rcd13ifvqf80","pricing_plan_id":"free"},{"bike_id":"459d580d-dcbf-4ffd-a3fe-c4beb4d7ae5a","system_id":"levelo_inurba_marseille","lat":43.32538,"lon":5.41424,"is_reserved":false,"is_disabled":false,"rental_uris":{"android":"levelo://app?vid=459d580d-dcbf-4ffd-a3fe-c4beb4d7ae5a","ios":"levelo://app?vid=459d580d-dcbf-4ffd-a3fe-c4beb4d7ae5a"},"vehicle_type_id":"4","last_reported":1702905051,"current_range_meters":27600,"station_id":"ce4bhq12rcd13ifvqhhg","pricing_plan_id":"free"},{"bike_id":"f25ea5b6-b591-4bf5-a2b4-9765332068ae","system_id":"levelo_inurba_marseille","lat":43.325243,"lon":5.414326,"is_reserved":false,"is_disabled":false,"rental_uris":{"android":"levelo://app?vid=f25ea5b6-b591-4bf5-a2b4-9765332068ae","ios":"levelo://app?vid=f25ea5b6-b591-4bf5-a2b4-9765332068ae"},"vehicle_type_id":"4","last_reported":1702905051,"current_range_meters":28000,"station_id":"ce4bhq12rcd13ifvqhhg","pricing_plan_id":"free"},{"bike_id":"9783b029-37a4-4b0f-b2eb-c8b4f0a0e6a4","system_id":"levelo_inurba_marseille","lat":43.32542,"lon":5.41433,"is_reserved":false,"is_disabled":false,"rental_uris":{"android":"levelo://app?vid=9783b029-37a4-4b0f-b2eb-c8b4f0a0e6a4","ios":"levelo://app?vid=9783b029-37a4-4b0f-b2eb-c8b4f0a0e6a4"},"vehicle_type_id":"4","last_reported":1702905051,"current_range_meters":31200,"station_id":"ce4bhq12rcd13ifvqhhg","pricing_plan_id":"free"},{"bike_id":"224bcffd-86fc-4c77-ac09-12306f63094d","system_id":"levelo_inurba_marseille","lat":43.32539,"lon":5.41437,"is_reserved":false,"is_disabled":false,"rental_uris":{"android":"levelo://app?vid=224bcffd-86fc-4c77-ac09-12306f63094d","ios":"levelo://app?vid=224bcffd-86fc-4c77-ac09-12306f63094d"},"vehicle_type_id":"4","last_reported":1702905051,"current_range_meters":31200,"station_id":"ce4bhq12rcd13ifvqhhg","pricing_plan_id":"free"},{"bike_id":"8b89a6cf-b837-45b4-ae98-4ba2c5780b41","system_id":"levelo_inurba_marseille","lat":43.325243,"lon":5.414326,"is_reserved":false,"is_disabled":false,"rental_uris":{"android":"levelo://app?vid=8b89a6cf-b837-45b4-ae98-4ba2c5780b41","ios":"levelo://app?vid=8b89a6cf-b837-45b4-ae98-4ba2c5780b41"},"vehicle_type_id":"4","last_reported":1702905051,"current_range_meters":31200,"station_id":"ce4bhq12rcd13ifvqhhg","pricing_plan_id":"free"},{"bike_id":"fb79d974-ca56-4830-8df3-e08fb2f52349","system_id":"levelo_inurba_marseille","lat":43.276141,"lon":5.361149,"is_reserved":false,"is_disabled":false,"rental_uris":{"android":"levelo://app?vid=fb79d974-ca56-4830-8df3-e08fb2f52349","ios":"levelo://app?vid=fb79d974-ca56-4830-8df3-e08fb2f52349"},"vehicle_type_id":"4","last_reported":1702905051,"current_range_meters":8800,"station_id":"ce4bgj92rcd13ifvqbe0","pricing_plan_id":"free"},{"bike_id":"0996178a-e20e-429d-88c9-783e15747b15","system_id":"levelo_inurba_marseille","lat":43.325243,"lon":5.414326,"is_reserved":false,"is_disabled":false,"rental_uris":{"android":"levelo://app?vid=0996178a-e20e-429d-88c9-783e15747b15","ios":"levelo://app?vid=0996178a-e20e-429d-88c9-783e15747b15"},"vehicle_type_id":"4","last_reported":1702905051,"current_range_meters":4400,"station_id":"ce4bhq12rcd13ifvqhhg","pricing_plan_id":"free"},{"bike_id":"4f03c101-63c3-4d5f-af66-0b723a072504","system_id":"levelo_inurba_marseille","lat":43.278401,"lon":5.392152,"is_reserved":false,"is_disabled":false,"rental_uris":{"android":"levelo://app?vid=4f03c101-63c3-4d5f-af66-0b723a072504","ios":"levelo://app?vid=4f03c101-63c3-4d5f-af66-0b723a072504"},"vehicle_type_id":"4","last_reported":1702905051,"current_range_meters":16000,"station_id":"ce4bhjp2rcd13ifvqga0","pricing_plan_id":"free"},{"bike_id":"c2cc2e3a-5ec8-4a4b-8453-c93e07e97a6b","system_id":"levelo_inurba_marseille","lat":43.273613,"lon":5.362705,"is_reserved":false,"is_disabled":false,"rental_uris":{"android":"levelo://app?vid=c2cc2e3a-5ec8-4a4b-8453-c93e07e97a6b","ios":"levelo://app?vid=c2cc2e3a-5ec8-4a4b-8453-c93e07e97a6b"},"vehicle_type_id":"4","last_reported":1702905051,"current_range_meters":16400,"station_id":"ce4bhbh2rcd13ifvqeo0","pricing_plan_id":"free"},{"bike_id":"f6d15e4d-9bcb-4cf3-a47e-c0f6bc60be7f","system_id":"levelo_inurba_marseille","lat":43.33603,"lon":5.41025,"is_reserved":false,"is_disabled":false,"rental_uris":{"android":"levelo://app?vid=f6d15e4d-9bcb-4cf3-a47e-c0f6bc60be7f","ios":"levelo://app?vid=f6d15e4d-9bcb-4cf3-a47e-c0f6bc60be7f"},"vehicle_type_id":"4","last_reported":1702905051,"current_range_meters":9200,"station_id":"ce4bhqh2rcd13ifvqhmg","pricing_plan_id":"free"},{"bike_id":"b6bf96a3-db4d-455a-a0e1-70c967b2f251","system_id":"levelo_inurba_marseille","lat":43.276769,"lon":5.388787,"is_reserved":false,"is_disabled":false,"rental_uris":{"android":"levelo://app?vid=b6bf96a3-db4d-455a-a0e1-70c967b2f251","ios":"levelo://app?vid=b6bf96a3-db4d-455a-a0e1-70c967b2f251"},"vehicle_type_id":"4","last_reported":1702905051,"current_range_meters":13200,"station_id":"ce4bhi12rcd13ifvqfo0","pricing_plan_id":"free"},{"bike_id":"dbacf333-149a-4773-8993-468a136d8f8b","system_id":"levelo_inurba_marseille","lat":43.276771,"lon":5.388799,"is_reserved":false,"is_disabled":false,"rental_uris":{"android":"levelo://app?vid=dbacf333-149a-4773-8993-468a136d8f8b","ios":"levelo://app?vid=dbacf333-149a-4773-8993-468a136d8f8b"},"vehicle_type_id":"4","last_reported":1702905051,"current_range_meters":29600,"station_id":"ce4bhi12rcd13ifvqfo0","pricing_plan_id":"free"},{"bike_id":"ba23a49f-f752-40f9-b881-d731ba920e07","system_id":"levelo_inurba_marseille","lat":43.32423,"lon":5.42002,"is_reserved":false,"is_disabled":false,"rental_uris":{"android":"levelo://app?vid=ba23a49f-f752-40f9-b881-d731ba920e07","ios":"levelo://app?vid=ba23a49f-f752-40f9-b881-d731ba920e07"},"vehicle_type_id":"4","last_reported":1702905051,"current_range_meters":28400,"station_id":"","pricing_plan_id":"free"},{"bike_id":"b8c95c0c-f35c-4196-a66f-18376fec6af3","system_id":"levelo_inurba_marseille","lat":43.340804,"lon":5.410219,"is_reserved":false,"is_disabled":false,"rental_uris":{"android":"levelo://app?vid=b8c95c0c-f35c-4196-a66f-18376fec6af3","ios":"levelo://app?vid=b8c95c0c-f35c-4196-a66f-18376fec6af3"},"vehicle_type_id":"4","last_reported":1702905051,"current_range_meters":18000,"station_id":"ce4bhqh2rcd13ifvqhlg","pricing_plan_id":"free"},{"bike_id":"3ca2c2d2-99b0-4aa6-a05d-e30f02e6a7fb","system_id":"levelo_inurba_marseille","lat":43.276092,"lon":5.395289,"is_reserved":false,"is_disabled":false,"rental_uris":{"android":"levelo://app?vid=3ca2c2d2-99b0-4aa6-a05d-e30f02e6a7fb","ios":"levelo://app?vid=3ca2c2d2-99b0-4aa6-a05d-e30f02e6a7fb"},"vehicle_type_id":"4","last_reported":1702905051,"current_range_meters":13200,"station_id":"","pricing_plan_id":"free"},{"bike_id":"b6361d43-88a7-4fa3-abb6-e227fb4ee0a3","system_id":"levelo_inurba_marseille","lat":43.27304,"lon":5.39075,"is_reserved":false,"is_disabled":false,"rental_uris":{"android":"levelo://app?vid=b6361d43-88a7-4fa3-abb6-e227fb4ee0a3","ios":"levelo://app?vid=b6361d43-88a7-4fa3-abb6-e227fb4ee0a3"},"vehicle_type_id":"4","last_reported":1702905051,"current_range_meters":31200,"station_id":"ce4bhgp2rcd13ifvqfe0","pricing_plan_id":"free"},{"bike_id":"9a5705ab-37f9-4c05-83f0-8d4906950224","system_id":"levelo_inurba_marseille","lat":43.27309,"lon":5.3911,"is_reserved":false,"is_disabled":false,"rental_uris":{"android":"levelo://app?vid=9a5705ab-37f9-4c05-83f0-8d4906950224","ios":"levelo://app?vid=9a5705ab-37f9-4c05-83f0-8d4906950224"},"vehicle_type_id":"4","last_reported":1702905051,"current_range_meters":15200,"station_id":"ce4bhgp2rcd13ifvqfe0","pricing_plan_id":"free"},{"bike_id":"3be05306-32ba-460c-830b-c3f5cb8fc928","system_id":"levelo_inurba_marseille","lat":43.29552,"lon":5.42276,"is_reserved":false,"is_disabled":false,"rental_uris":{"android":"levelo://app?vid=3be05306-32ba-460c-830b-c3f5cb8fc928","ios":"levelo://app?vid=3be05306-32ba-460c-830b-c3f5cb8fc928"},"vehicle_type_id":"4","last_reported":1702905051,"current_range_meters":28400,"station_id":"ce4bhph2rcd13ifvqhdg","pricing_plan_id":"free"},{"bike_id":"35f4c7df-1dd1-49cd-b086-e9b64d14ba25","system_id":"levelo_inurba_marseille","lat":43.295511,"lon":5.422926,"is_reserved":false,"is_disabled":false,"rental_uris":{"android":"levelo://app?vid=35f4c7df-1dd1-49cd-b086-e9b64d14ba25","ios":"levelo://app?vid=35f4c7df-1dd1-49cd-b086-e9b64d14ba25"},"vehicle_type_id":"4","last_reported":1702905051,"current_range_meters":26400,"station_id":"ce4bhph2rcd13ifvqhdg","pricing_plan_id":"free"},{"bike_id":"9cbe5e87-404e-4c09-afbe-5ee44247e5dc","system_id":"levelo_inurba_marseille","lat":43.295523,"lon":5.422926,"is_reserved":false,"is_disabled":false,"rental_uris":{"android":"levelo://app?vid=9cbe5e87-404e-4c09-afbe-5ee44247e5dc","ios":"levelo://app?vid=9cbe5e87-404e-4c09-afbe-5ee44247e5dc"},"vehicle_type_id":"4","last_reported":1702905051,"current_range_meters":31600,"station_id":"ce4bhph2rcd13ifvqhdg","pricing_plan_id":"free"},{"bike_id":"628a1844-4de6-4ff8-b7b8-44bb12a39376","system_id":"levelo_inurba_marseille","lat":43.295511,"lon":5.422926,"is_reserved":false,"is_disabled":false,"rental_uris":{"android":"levelo://app?vid=628a1844-4de6-4ff8-b7b8-44bb12a39376","ios":"levelo://app?vid=628a1844-4de6-4ff8-b7b8-44bb12a39376"},"vehicle_type_id":"4","last_reported":1702905051,"current_range_meters":31200,"station_id":"ce4bhph2rcd13ifvqhdg","pricing_plan_id":"free"},{"bike_id":"c5b44840-1601-43ac-abe9-c1e5b739efac","system_id":"levelo_inurba_marseille","lat":43.295523,"lon":5.422926,"is_reserved":false,"is_disabled":false,"rental_uris":{"android":"levelo://app?vid=c5b44840-1601-43ac-abe9-c1e5b739efac","ios":"levelo://app?vid=c5b44840-1601-43ac-abe9-c1e5b739efac"},"vehicle_type_id":"4","last_reported":1702905051,"current_range_meters":27600,"station_id":"ce4bhph2rcd13ifvqhdg","pricing_plan_id":"free"},{"bike_id":"fb094048-824a-49d1-905f-084ec3753a88","system_id":"levelo_inurba_marseille","lat":43.295523,"lon":5.422926,"is_reserved":false,"is_disabled":false,"rental_uris":{"android":"levelo://app?vid=fb094048-824a-49d1-905f-084ec3753a88","ios":"levelo://app?vid=fb094048-824a-49d1-905f-084ec3753a88"},"vehicle_type_id":"4","last_reported":1702905051,"current_range_meters":25200,"station_id":"ce4bhph2rcd13ifvqhdg","pricing_plan_id":"free"},{"bike_id":"9b8f5ce3-81d5-4ecb-80a2-771cfce35fc0","system_id":"levelo_inurba_marseille","lat":43.29547,"lon":5.42283,"is_reserved":false,"is_disabled":false,"rental_uris":{"android":"levelo://app?vid=9b8f5ce3-81d5-4ecb-80a2-771cfce35fc0","ios":"levelo://app?vid=9b8f5ce3-81d5-4ecb-80a2-771cfce35fc0"},"vehicle_type_id":"4","last_reported":1702905051,"current_range_meters":26000,"station_id":"ce4bhph2rcd13ifvqhdg","pricing_plan_id":"free"},{"bike_id":"7e7a5738-c5cf-463d-ac18-24bbb8cc5bdf","system_id":"levelo_inurba_marseille","lat":43.272116,"lon":5.391763,"is_reserved":false,"is_disabled":false,"rental_uris":{"android":"levelo://app?vid=7e7a5738-c5cf-463d-ac18-24bbb8cc5bdf","ios":"levelo://app?vid=7e7a5738-c5cf-463d-ac18-24bbb8cc5bdf"},"vehicle_type_id":"4","last_reported":1702905051,"current_range_meters":18800,"station_id":"ce4bhhp2rcd13ifvqfm0","pricing_plan_id":"free"},{"bike_id":"67417dc0-58e4-49d8-86dc-1e97a3ce2438","system_id":"levelo_inurba_marseille","lat":43.272093,"lon":5.39183,"is_reserved":false,"is_disabled":false,"rental_uris":{"android":"levelo://app?vid=67417dc0-58e4-49d8-86dc-1e97a3ce2438","ios":"levelo://app?vid=67417dc0-58e4-49d8-86dc-1e97a3ce2438"},"vehicle_type_id":"4","last_reported":1702905051,"current_range_meters":8000,"station_id":"ce4bhhp2rcd13ifvqfm0","pricing_plan_id":"free"},{"bike_id":"7c5e5a9a-9f39-4a14-9573-d5b8ab599dd5","system_id":"levelo_inurba_marseille","lat":43.27188,"lon":5.39224,"is_reserved":false,"is_disabled":false,"rental_uris":{"android":"levelo://app?vid=7c5e5a9a-9f39-4a14-9573-d5b8ab599dd5","ios":"levelo://app?vid=7c5e5a9a-9f39-4a14-9573-d5b8ab599dd5"},"vehicle_type_id":"4","last_reported":1702905051,"current_range_meters":14000,"station_id":"ce4bhhp2rcd13ifvqfm0","pricing_plan_id":"free"},{"bike_id":"bf35bab0-18a0-430b-aae8-f5f5d5ab7ad7","system_id":"levelo_inurba_marseille","lat":43.278128,"lon":5.407195,"is_reserved":false,"is_disabled":false,"rental_uris":{"android":"levelo://app?vid=bf35bab0-18a0-430b-aae8-f5f5d5ab7ad7","ios":"levelo://app?vid=bf35bab0-18a0-430b-aae8-f5f5d5ab7ad7"},"vehicle_type_id":"4","last_reported":1702905051,"current_range_meters":14400,"station_id":"ce4bhnh2rcd13ifvqgtg","pricing_plan_id":"free"},{"bike_id":"5fa474d5-f070-4086-b105-0c3f476d6cce","system_id":"levelo_inurba_marseille","lat":43.27808,"lon":5.4072,"is_reserved":false,"is_disabled":false,"rental_uris":{"android":"levelo://app?vid=5fa474d5-f070-4086-b105-0c3f476d6cce","ios":"levelo://app?vid=5fa474d5-f070-4086-b105-0c3f476d6cce"},"vehicle_type_id":"4","last_reported":1702905051,"current_range_meters":31200,"station_id":"ce4bhnh2rcd13ifvqgtg","pricing_plan_id":"free"},{"bike_id":"80ab57ea-ccf0-4ace-beb6-ba79104b604c","system_id":"levelo_inurba_marseille","lat":43.26956,"lon":5.38636,"is_reserved":false,"is_disabled":false,"rental_uris":{"android":"levelo://app?vid=80ab57ea-ccf0-4ace-beb6-ba79104b604c","ios":"levelo://app?vid=80ab57ea-ccf0-4ace-beb6-ba79104b604c"},"vehicle_type_id":"4","last_reported":1702905051,"current_range_meters":10800,"station_id":"ce4bhh92rcd13ifvqfh0","pricing_plan_id":"free"},{"bike_id":"43bdc323-4f88-4041-9885-bebe31ff13ab","system_id":"levelo_inurba_marseille","lat":43.269467,"lon":5.386439,"is_reserved":false,"is_disabled":false,"rental_uris":{"android":"levelo://app?vid=43bdc323-4f88-4041-9885-bebe31ff13ab","ios":"levelo://app?vid=43bdc323-4f88-4041-9885-bebe31ff13ab"},"vehicle_type_id":"4","last_reported":1702905051,"current_range_meters":21200,"station_id":"ce4bhh92rcd13ifvqfh0","pricing_plan_id":"free"},{"bike_id":"667613aa-2fcf-436e-bbdc-1abad38f1798","system_id":"levelo_inurba_marseille","lat":43.279537,"lon":5.410403,"is_reserved":false,"is_disabled":false,"rental_uris":{"android":"levelo://app?vid=667613aa-2fcf-436e-bbdc-1abad38f1798","ios":"levelo://app?vid=667613aa-2fcf-436e-bbdc-1abad38f1798"},"vehicle_type_id":"4","last_reported":1702905051,"current_range_meters":31200,"station_id":"ce4bhnp2rcd13ifvqh0g","pricing_plan_id":"free"},{"bike_id":"0dd289f2-7f07-4556-8e26-e0ef8090caba","system_id":"levelo_inurba_marseille","lat":43.27951,"lon":5.41048,"is_reserved":false,"is_disabled":false,"rental_uris":{"android":"levelo://app?vid=0dd289f2-7f07-4556-8e26-e0ef8090caba","ios":"levelo://app?vid=0dd289f2-7f07-4556-8e26-e0ef8090caba"},"vehicle_type_id":"4","last_reported":1702905051,"current_range_meters":29200,"station_id":"ce4bhnp2rcd13ifvqh0g","pricing_plan_id":"free"},{"bike_id":"67cf9c99-2a49-403e-9c43-8f292437af26","system_id":"levelo_inurba_marseille","lat":43.279465,"lon":5.410561,"is_reserved":false,"is_disabled":false,"rental_uris":{"android":"levelo://app?vid=67cf9c99-2a49-403e-9c43-8f292437af26","ios":"levelo://app?vid=67cf9c99-2a49-403e-9c43-8f292437af26"},"vehicle_type_id":"4","last_reported":1702905051,"current_range_meters":30800,"station_id":"ce4bhnp2rcd13ifvqh0g","pricing_plan_id":"free"},{"bike_id":"db774753-4382-453e-a138-c32d538f9839","system_id":"levelo_inurba_marseille","lat":43.358673,"lon":5.356887,"is_reserved":false,"is_disabled":false,"rental_uris":{"android":"levelo://app?vid=db774753-4382-453e-a138-c32d538f9839","ios":"levelo://app?vid=db774753-4382-453e-a138-c32d538f9839"},"vehicle_type_id":"4","last_reported":1702905051,"current_range_meters":9600,"station_id":"","pricing_plan_id":"free"},{"bike_id":"699b2556-3b0c-48f8-938a-84b85204dbcb","system_id":"levelo_inurba_marseille","lat":43.26554,"lon":5.37284,"is_reserved":false,"is_disabled":false,"rental_uris":{"android":"levelo://app?vid=699b2556-3b0c-48f8-938a-84b85204dbcb","ios":"levelo://app?vid=699b2556-3b0c-48f8-938a-84b85204dbcb"},"vehicle_type_id":"4","last_reported":1702905051,"current_range_meters":24000,"station_id":"ce4bhg12rcd13ifvqf70","pricing_plan_id":"free"},{"bike_id":"aace4bf7-67a0-4161-840d-95d449713c44","system_id":"levelo_inurba_marseille","lat":43.265714,"lon":5.372891,"is_reserved":false,"is_disabled":false,"rental_uris":{"android":"levelo://app?vid=aace4bf7-67a0-4161-840d-95d449713c44","ios":"levelo://app?vid=aace4bf7-67a0-4161-840d-95d449713c44"},"vehicle_type_id":"4","last_reported":1702905051,"current_range_meters":1600,"station_id":"ce4bhg12rcd13ifvqf70","pricing_plan_id":"free"},{"bike_id":"53058b4c-369d-4979-8a38-a159f7b9063f","system_id":"levelo_inurba_marseille","lat":43.26554,"lon":5.37284,"is_reserved":false,"is_disabled":false,"rental_uris":{"android":"levelo://app?vid=53058b4c-369d-4979-8a38-a159f7b9063f","ios":"levelo://app?vid=53058b4c-369d-4979-8a38-a159f7b9063f"},"vehicle_type_id":"4","last_reported":1702905051,"current_range_meters":9200,"station_id":"ce4bhg12rcd13ifvqf70","pricing_plan_id":"free"},{"bike_id":"1d676511-3b4b-47fd-b5e1-1dcc6f3e83ad","system_id":"levelo_inurba_marseille","lat":43.26552,"lon":5.37285,"is_reserved":false,"is_disabled":false,"rental_uris":{"android":"levelo://app?vid=1d676511-3b4b-47fd-b5e1-1dcc6f3e83ad","ios":"levelo://app?vid=1d676511-3b4b-47fd-b5e1-1dcc6f3e83ad"},"vehicle_type_id":"4","last_reported":1702905051,"current_range_meters":24800,"station_id":"ce4bhg12rcd13ifvqf70","pricing_plan_id":"free"},{"bike_id":"52d02a16-98a7-42b3-9676-007c2ae8e728","system_id":"levelo_inurba_marseille","lat":43.27996,"lon":5.416624,"is_reserved":false,"is_disabled":false,"rental_uris":{"android":"levelo://app?vid=52d02a16-98a7-42b3-9676-007c2ae8e728","ios":"levelo://app?vid=52d02a16-98a7-42b3-9676-007c2ae8e728"},"vehicle_type_id":"4","last_reported":1702905051,"current_range_meters":29200,"station_id":"ce4bho12rcd13ifvqh1g","pricing_plan_id":"free"},{"bike_id":"5abcec44-0c2c-47e1-96cd-ac237d9ab184","system_id":"levelo_inurba_marseille","lat":43.27996,"lon":5.416624,"is_reserved":false,"is_disabled":false,"rental_uris":{"android":"levelo://app?vid=5abcec44-0c2c-47e1-96cd-ac237d9ab184","ios":"levelo://app?vid=5abcec44-0c2c-47e1-96cd-ac237d9ab184"},"vehicle_type_id":"4","last_reported":1702905051,"current_range_meters":30800,"station_id":"ce4bho12rcd13ifvqh1g","pricing_plan_id":"free"},{"bike_id":"0519215d-32e4-4f20-abcf-50d7be4e3298","system_id":"levelo_inurba_marseille","lat":43.27996,"lon":5.416624,"is_reserved":false,"is_disabled":false,"rental_uris":{"android":"levelo://app?vid=0519215d-32e4-4f20-abcf-50d7be4e3298","ios":"levelo://app?vid=0519215d-32e4-4f20-abcf-50d7be4e3298"},"vehicle_type_id":"4","last_reported":1702905051,"current_range_meters":30400,"station_id":"ce4bho12rcd13ifvqh1g","pricing_plan_id":"free"},{"bike_id":"679bc0e7-0881-4769-8465-407f9d906f91","system_id":"levelo_inurba_marseille","lat":43.265714,"lon":5.372891,"is_reserved":false,"is_disabled":false,"rental_uris":{"android":"levelo://app?vid=679bc0e7-0881-4769-8465-407f9d906f91","ios":"levelo://app?vid=679bc0e7-0881-4769-8465-407f9d906f91"},"vehicle_type_id":"4","last_reported":1702905051,"current_range_meters":10400,"station_id":"ce4bhg12rcd13ifvqf70","pricing_plan_id":"free"},{"bike_id":"81b2c913-0917-407a-81aa-acfccd92bab4","system_id":"levelo_inurba_marseille","lat":43.267966,"lon":5.393976,"is_reserved":false,"is_disabled":false,"rental_uris":{"android":"levelo://app?vid=81b2c913-0917-407a-81aa-acfccd92bab4","ios":"levelo://app?vid=81b2c913-0917-407a-81aa-acfccd92bab4"},"vehicle_type_id":"4","last_reported":1702905051,"current_range_meters":26000,"station_id":"ce4bhh12rcd13ifvqfg0","pricing_plan_id":"free"},{"bike_id":"7a4d1ec5-2036-4a3e-944d-1ac76f41ce77","system_id":"levelo_inurba_marseille","lat":43.267966,"lon":5.393976,"is_reserved":false,"is_disabled":false,"rental_uris":{"android":"levelo://app?vid=7a4d1ec5-2036-4a3e-944d-1ac76f41ce77","ios":"levelo://app?vid=7a4d1ec5-2036-4a3e-944d-1ac76f41ce77"},"vehicle_type_id":"4","last_reported":1702905051,"current_range_meters":24000,"station_id":"ce4bhh12rcd13ifvqfg0","pricing_plan_id":"free"},{"bike_id":"88241bb3-32ae-413c-bd93-0f8c9883baf2","system_id":"levelo_inurba_marseille","lat":43.267966,"lon":5.393976,"is_reserved":false,"is_disabled":false,"rental_uris":{"android":"levelo://app?vid=88241bb3-32ae-413c-bd93-0f8c9883baf2","ios":"levelo://app?vid=88241bb3-32ae-413c-bd93-0f8c9883baf2"},"vehicle_type_id":"4","last_reported":1702905051,"current_range_meters":29200,"station_id":"ce4bhh12rcd13ifvqfg0","pricing_plan_id":"free"},{"bike_id":"a4cc3643-0b78-49ea-bb69-072a51937fbe","system_id":"levelo_inurba_marseille","lat":43.26189,"lon":5.37439,"is_reserved":false,"is_disabled":false,"rental_uris":{"android":"levelo://app?vid=a4cc3643-0b78-49ea-bb69-072a51937fbe","ios":"levelo://app?vid=a4cc3643-0b78-49ea-bb69-072a51937fbe"},"vehicle_type_id":"4","last_reported":1702905051,"current_range_meters":25200,"station_id":"","pricing_plan_id":"free"},{"bike_id":"ee1964dd-bd19-4163-8977-66dfe213996c","system_id":"levelo_inurba_marseille","lat":43.261782,"lon":5.374515,"is_reserved":false,"is_disabled":false,"rental_uris":{"android":"levelo://app?vid=ee1964dd-bd19-4163-8977-66dfe213996c","ios":"levelo://app?vid=ee1964dd-bd19-4163-8977-66dfe213996c"},"vehicle_type_id":"4","last_reported":1702905051,"current_range_meters":26800,"station_id":"ce4bhgp2rcd13ifvqfc0","pricing_plan_id":"free"},{"bike_id":"83c9141c-0e17-4ce9-bd02-a73d837efde8","system_id":"levelo_inurba_marseille","lat":43.317104,"lon":5.436818,"is_reserved":false,"is_disabled":false,"rental_uris":{"android":"levelo://app?vid=83c9141c-0e17-4ce9-bd02-a73d837efde8","ios":"levelo://app?vid=83c9141c-0e17-4ce9-bd02-a73d837efde8"},"vehicle_type_id":"4","last_reported":1702905051,"current_range_meters":2800,"station_id":"ce4bhp92rcd13ifvqhcg","pricing_plan_id":"free"},{"bike_id":"703b6509-8c35-4db9-ad24-8c18ddb8785e","system_id":"levelo_inurba_marseille","lat":43.26202,"lon":5.379299,"is_reserved":false,"is_disabled":false,"rental_uris":{"android":"levelo://app?vid=703b6509-8c35-4db9-ad24-8c18ddb8785e","ios":"levelo://app?vid=703b6509-8c35-4db9-ad24-8c18ddb8785e"},"vehicle_type_id":"4","last_reported":1702905051,"current_range_meters":30000,"station_id":"ce4bhjp2rcd13ifvqg90","pricing_plan_id":"free"},{"bike_id":"a1ccfd96-36d1-43e3-b5f0-602d1cb178f7","system_id":"levelo_inurba_marseille","lat":43.271368,"lon":5.40928,"is_reserved":false,"is_disabled":false,"rental_uris":{"android":"levelo://app?vid=a1ccfd96-36d1-43e3-b5f0-602d1cb178f7","ios":"levelo://app?vid=a1ccfd96-36d1-43e3-b5f0-602d1cb178f7"},"vehicle_type_id":"4","last_reported":1702905051,"current_range_meters":26000,"station_id":"ce4bhl12rcd13ifvqgf0","pricing_plan_id":"free"},{"bike_id":"a9abbe83-e949-42aa-9f60-9dee7129fc93","system_id":"levelo_inurba_marseille","lat":43.271388,"lon":5.409269,"is_reserved":false,"is_disabled":false,"rental_uris":{"android":"levelo://app?vid=a9abbe83-e949-42aa-9f60-9dee7129fc93","ios":"levelo://app?vid=a9abbe83-e949-42aa-9f60-9dee7129fc93"},"vehicle_type_id":"4","last_reported":1702905051,"current_range_meters":14800,"station_id":"ce4bhl12rcd13ifvqgf0","pricing_plan_id":"free"},{"bike_id":"3689f1f2-d401-4226-b753-16dc9143befe","system_id":"levelo_inurba_marseille","lat":43.267959,"lon":5.402687,"is_reserved":false,"is_disabled":false,"rental_uris":{"android":"levelo://app?vid=3689f1f2-d401-4226-b753-16dc9143befe","ios":"levelo://app?vid=3689f1f2-d401-4226-b753-16dc9143befe"},"vehicle_type_id":"4","last_reported":1702905051,"current_range_meters":18400,"station_id":"ce501612rcd8frsf0b60","pricing_plan_id":"free"},{"bike_id":"8b000818-ee66-4afa-956c-06d1feec8088","system_id":"levelo_inurba_marseille","lat":43.298768,"lon":5.43643,"is_reserved":false,"is_disabled":false,"rental_uris":{"android":"levelo://app?vid=8b000818-ee66-4afa-956c-06d1feec8088","ios":"levelo://app?vid=8b000818-ee66-4afa-956c-06d1feec8088"},"vehicle_type_id":"4","last_reported":1702905051,"current_range_meters":31200,"station_id":"ce4bhpp2rcd13ifvqhfg","pricing_plan_id":"free"},{"bike_id":"be3c7518-3a90-4ace-b263-cbe424279bc2","system_id":"levelo_inurba_marseille","lat":43.298768,"lon":5.43643,"is_reserved":false,"is_disabled":false,"rental_uris":{"android":"levelo://app?vid=be3c7518-3a90-4ace-b263-cbe424279bc2","ios":"levelo://app?vid=be3c7518-3a90-4ace-b263-cbe424279bc2"},"vehicle_type_id":"4","last_reported":1702905051,"current_range_meters":29600,"station_id":"ce4bhpp2rcd13ifvqhfg","pricing_plan_id":"free"},{"bike_id":"8511549a-ea56-4454-9c7a-4281042c965e","system_id":"levelo_inurba_marseille","lat":43.298768,"lon":5.43643,"is_reserved":false,"is_disabled":false,"rental_uris":{"android":"levelo://app?vid=8511549a-ea56-4454-9c7a-4281042c965e","ios":"levelo://app?vid=8511549a-ea56-4454-9c7a-4281042c965e"},"vehicle_type_id":"4","last_reported":1702905051,"current_range_meters":16000,"station_id":"ce4bhpp2rcd13ifvqhfg","pricing_plan_id":"free"},{"bike_id":"c9a3d65d-2491-4ef4-915d-7e74ff265d0f","system_id":"levelo_inurba_marseille","lat":43.260225,"lon":5.375455,"is_reserved":false,"is_disabled":false,"rental_uris":{"android":"levelo://app?vid=c9a3d65d-2491-4ef4-915d-7e74ff265d0f","ios":"levelo://app?vid=c9a3d65d-2491-4ef4-915d-7e74ff265d0f"},"vehicle_type_id":"4","last_reported":1702905051,"current_range_meters":28800,"station_id":"ce4bhgh2rcd13ifvqfa0","pricing_plan_id":"free"},{"bike_id":"99867697-39b0-4506-8cb3-35ad1ffd1128","system_id":"levelo_inurba_marseille","lat":43.260219,"lon":5.37546,"is_reserved":false,"is_disabled":false,"rental_uris":{"android":"levelo://app?vid=99867697-39b0-4506-8cb3-35ad1ffd1128","ios":"levelo://app?vid=99867697-39b0-4506-8cb3-35ad1ffd1128"},"vehicle_type_id":"4","last_reported":1702905051,"current_range_meters":28000,"station_id":"ce4bhgh2rcd13ifvqfa0","pricing_plan_id":"free"},{"bike_id":"5e86fbab-807a-4ddf-af4c-7e9d6f7d0080","system_id":"levelo_inurba_marseille","lat":43.26058,"lon":5.39386,"is_reserved":false,"is_disabled":false,"rental_uris":{"android":"levelo://app?vid=5e86fbab-807a-4ddf-af4c-7e9d6f7d0080","ios":"levelo://app?vid=5e86fbab-807a-4ddf-af4c-7e9d6f7d0080"},"vehicle_type_id":"4","last_reported":1702905051,"current_range_meters":23600,"station_id":"ce4bhh92rcd13ifvqfj0","pricing_plan_id":"free"},{"bike_id":"d2007443-4338-42cb-923c-147041d30edf","system_id":"levelo_inurba_marseille","lat":43.275028,"lon":5.424534,"is_reserved":false,"is_disabled":false,"rental_uris":{"android":"levelo://app?vid=d2007443-4338-42cb-923c-147041d30edf","ios":"levelo://app?vid=d2007443-4338-42cb-923c-147041d30edf"},"vehicle_type_id":"4","last_reported":1702905051,"current_range_meters":31600,"station_id":"ce4bhn92rcd13ifvqgrg","pricing_plan_id":"free"},{"bike_id":"77d7f02f-7499-49fa-944e-1f8fcd4548af","system_id":"levelo_inurba_marseille","lat":43.275028,"lon":5.424534,"is_reserved":false,"is_disabled":false,"rental_uris":{"android":"levelo://app?vid=77d7f02f-7499-49fa-944e-1f8fcd4548af","ios":"levelo://app?vid=77d7f02f-7499-49fa-944e-1f8fcd4548af"},"vehicle_type_id":"4","last_reported":1702905051,"current_range_meters":27600,"station_id":"ce4bhn92rcd13ifvqgrg","pricing_plan_id":"free"},{"bike_id":"b41d8c65-a328-409e-a2f2-8750a4fd551a","system_id":"levelo_inurba_marseille","lat":43.275028,"lon":5.424534,"is_reserved":false,"is_disabled":false,"rental_uris":{"android":"levelo://app?vid=b41d8c65-a328-409e-a2f2-8750a4fd551a","ios":"levelo://app?vid=b41d8c65-a328-409e-a2f2-8750a4fd551a"},"vehicle_type_id":"4","last_reported":1702905051,"current_range_meters":31200,"station_id":"ce4bhn92rcd13ifvqgrg","pricing_plan_id":"free"},{"bike_id":"6a89e612-49be-4ceb-9060-aef7fedc77dd","system_id":"levelo_inurba_marseille","lat":43.275028,"lon":5.424534,"is_reserved":false,"is_disabled":false,"rental_uris":{"android":"levelo://app?vid=6a89e612-49be-4ceb-9060-aef7fedc77dd","ios":"levelo://app?vid=6a89e612-49be-4ceb-9060-aef7fedc77dd"},"vehicle_type_id":"4","last_reported":1702905051,"current_range_meters":16400,"station_id":"ce4bhn92rcd13ifvqgrg","pricing_plan_id":"free"},{"bike_id":"08b1e760-1319-4f81-8e0f-f84c2e5c9411","system_id":"levelo_inurba_marseille","lat":43.275028,"lon":5.424534,"is_reserved":false,"is_disabled":false,"rental_uris":{"android":"levelo://app?vid=08b1e760-1319-4f81-8e0f-f84c2e5c9411","ios":"levelo://app?vid=08b1e760-1319-4f81-8e0f-f84c2e5c9411"},"vehicle_type_id":"4","last_reported":1702905051,"current_range_meters":11600,"station_id":"ce4bhn92rcd13ifvqgrg","pricing_plan_id":"free"},{"bike_id":"2188099c-7aa1-4e97-afe3-6fe49c2db248","system_id":"levelo_inurba_marseille","lat":43.275028,"lon":5.424534,"is_reserved":false,"is_disabled":false,"rental_uris":{"android":"levelo://app?vid=2188099c-7aa1-4e97-afe3-6fe49c2db248","ios":"levelo://app?vid=2188099c-7aa1-4e97-afe3-6fe49c2db248"},"vehicle_type_id":"4","last_reported":1702905051,"current_range_meters":28000,"station_id":"ce4bhn92rcd13ifvqgrg","pricing_plan_id":"free"},{"bike_id":"ff00ffc6-1f36-457c-a38b-c213194d2ed3","system_id":"levelo_inurba_marseille","lat":43.275028,"lon":5.424534,"is_reserved":false,"is_disabled":false,"rental_uris":{"android":"levelo://app?vid=ff00ffc6-1f36-457c-a38b-c213194d2ed3","ios":"levelo://app?vid=ff00ffc6-1f36-457c-a38b-c213194d2ed3"},"vehicle_type_id":"4","last_reported":1702905051,"current_range_meters":31200,"station_id":"ce4bhn92rcd13ifvqgrg","pricing_plan_id":"free"},{"bike_id":"89e74116-7a06-4c35-bf40-a9032dbe0038","system_id":"levelo_inurba_marseille","lat":43.275028,"lon":5.424534,"is_reserved":false,"is_disabled":false,"rental_uris":{"android":"levelo://app?vid=89e74116-7a06-4c35-bf40-a9032dbe0038","ios":"levelo://app?vid=89e74116-7a06-4c35-bf40-a9032dbe0038"},"vehicle_type_id":"4","last_reported":1702905051,"current_range_meters":20400,"station_id":"ce4bhn92rcd13ifvqgrg","pricing_plan_id":"free"},{"bike_id":"6a24c9c2-0536-4d05-8056-8d8332f4bc28","system_id":"levelo_inurba_marseille","lat":43.275028,"lon":5.424534,"is_reserved":false,"is_disabled":false,"rental_uris":{"android":"levelo://app?vid=6a24c9c2-0536-4d05-8056-8d8332f4bc28","ios":"levelo://app?vid=6a24c9c2-0536-4d05-8056-8d8332f4bc28"},"vehicle_type_id":"4","last_reported":1702905051,"current_range_meters":31200,"station_id":"ce4bhn92rcd13ifvqgrg","pricing_plan_id":"free"},{"bike_id":"f43d719f-a0b4-4fdd-b18e-2d3126557013","system_id":"levelo_inurba_marseille","lat":43.275028,"lon":5.424534,"is_reserved":false,"is_disabled":false,"rental_uris":{"android":"levelo://app?vid=f43d719f-a0b4-4fdd-b18e-2d3126557013","ios":"levelo://app?vid=f43d719f-a0b4-4fdd-b18e-2d3126557013"},"vehicle_type_id":"4","last_reported":1702905051,"current_range_meters":13600,"station_id":"ce4bhn92rcd13ifvqgrg","pricing_plan_id":"free"},{"bike_id":"fdceae04-adce-4951-89fc-a39188c2b1d8","system_id":"levelo_inurba_marseille","lat":43.25579,"lon":5.38231,"is_reserved":false,"is_disabled":false,"rental_uris":{"android":"levelo://app?vid=fdceae04-adce-4951-89fc-a39188c2b1d8","ios":"levelo://app?vid=fdceae04-adce-4951-89fc-a39188c2b1d8"},"vehicle_type_id":"4","last_reported":1702905051,"current_range_meters":16000,"station_id":"ce4bhih2rcd13ifvqfs0","pricing_plan_id":"free"},{"bike_id":"0321a54a-62ee-4f46-ada9-f44a4494e978","system_id":"levelo_inurba_marseille","lat":43.258224,"lon":5.394369,"is_reserved":false,"is_disabled":false,"rental_uris":{"android":"levelo://app?vid=0321a54a-62ee-4f46-ada9-f44a4494e978","ios":"levelo://app?vid=0321a54a-62ee-4f46-ada9-f44a4494e978"},"vehicle_type_id":"4","last_reported":1702905051,"current_range_meters":22000,"station_id":"ce4bhip2rcd13ifvqft0","pricing_plan_id":"free"},{"bike_id":"e556e286-fc2d-495d-9049-140edac504cc","system_id":"levelo_inurba_marseille","lat":43.258224,"lon":5.394369,"is_reserved":false,"is_disabled":false,"rental_uris":{"android":"levelo://app?vid=e556e286-fc2d-495d-9049-140edac504cc","ios":"levelo://app?vid=e556e286-fc2d-495d-9049-140edac504cc"},"vehicle_type_id":"4","last_reported":1702905051,"current_range_meters":25200,"station_id":"ce4bhip2rcd13ifvqft0","pricing_plan_id":"free"},{"bike_id":"57d795dc-eac6-4278-8a39-fc0e3f331682","system_id":"levelo_inurba_marseille","lat":43.258224,"lon":5.394369,"is_reserved":false,"is_disabled":false,"rental_uris":{"android":"levelo://app?vid=57d795dc-eac6-4278-8a39-fc0e3f331682","ios":"levelo://app?vid=57d795dc-eac6-4278-8a39-fc0e3f331682"},"vehicle_type_id":"4","last_reported":1702905051,"current_range_meters":17200,"station_id":"ce4bhip2rcd13ifvqft0","pricing_plan_id":"free"},{"bike_id":"f5075650-2824-4d3b-a7ef-e7bc4b7f03f1","system_id":"levelo_inurba_marseille","lat":43.25577,"lon":5.38231,"is_reserved":false,"is_disabled":false,"rental_uris":{"android":"levelo://app?vid=f5075650-2824-4d3b-a7ef-e7bc4b7f03f1","ios":"levelo://app?vid=f5075650-2824-4d3b-a7ef-e7bc4b7f03f1"},"vehicle_type_id":"4","last_reported":1702905051,"current_range_meters":31200,"station_id":"ce4bhih2rcd13ifvqfs0","pricing_plan_id":"free"},{"bike_id":"2a49bcf8-fdfb-41e1-91bd-16a50274d949","system_id":"levelo_inurba_marseille","lat":43.25506,"lon":5.37646,"is_reserved":false,"is_disabled":false,"rental_uris":{"android":"levelo://app?vid=2a49bcf8-fdfb-41e1-91bd-16a50274d949","ios":"levelo://app?vid=2a49bcf8-fdfb-41e1-91bd-16a50274d949"},"vehicle_type_id":"4","last_reported":1702905051,"current_range_meters":28400,"station_id":"ce4bhh12rcd13ifvqff0","pricing_plan_id":"free"},{"bike_id":"c54dc5b4-d146-447c-8dc1-8eeed11c8dfb","system_id":"levelo_inurba_marseille","lat":43.25574,"lon":5.38239,"is_reserved":false,"is_disabled":false,"rental_uris":{"android":"levelo://app?vid=c54dc5b4-d146-447c-8dc1-8eeed11c8dfb","ios":"levelo://app?vid=c54dc5b4-d146-447c-8dc1-8eeed11c8dfb"},"vehicle_type_id":"4","last_reported":1702905051,"current_range_meters":29600,"station_id":"ce4bhih2rcd13ifvqfs0","pricing_plan_id":"free"},{"bike_id":"be658c3f-46cd-48f6-8564-6834cc59288a","system_id":"levelo_inurba_marseille","lat":43.2582,"lon":5.39444,"is_reserved":false,"is_disabled":false,"rental_uris":{"android":"levelo://app?vid=be658c3f-46cd-48f6-8564-6834cc59288a","ios":"levelo://app?vid=be658c3f-46cd-48f6-8564-6834cc59288a"},"vehicle_type_id":"4","last_reported":1702905051,"current_range_meters":31200,"station_id":"ce4bhip2rcd13ifvqft0","pricing_plan_id":"free"},{"bike_id":"2dade895-b0dd-45dd-a512-682c2c3c1128","system_id":"levelo_inurba_marseille","lat":43.258224,"lon":5.394369,"is_reserved":false,"is_disabled":false,"rental_uris":{"android":"levelo://app?vid=2dade895-b0dd-45dd-a512-682c2c3c1128","ios":"levelo://app?vid=2dade895-b0dd-45dd-a512-682c2c3c1128"},"vehicle_type_id":"4","last_reported":1702905051,"current_range_meters":31200,"station_id":"ce4bhip2rcd13ifvqft0","pricing_plan_id":"free"},{"bike_id":"c9d6fceb-76ba-4403-b0ee-5c822527c88f","system_id":"levelo_inurba_marseille","lat":43.258224,"lon":5.394369,"is_reserved":false,"is_disabled":false,"rental_uris":{"android":"levelo://app?vid=c9d6fceb-76ba-4403-b0ee-5c822527c88f","ios":"levelo://app?vid=c9d6fceb-76ba-4403-b0ee-5c822527c88f"},"vehicle_type_id":"4","last_reported":1702905051,"current_range_meters":20400,"station_id":"ce4bhip2rcd13ifvqft0","pricing_plan_id":"free"},{"bike_id":"29a9c5c8-a202-4a42-82bd-8f2dc973454b","system_id":"levelo_inurba_marseille","lat":43.25504,"lon":5.37647,"is_reserved":false,"is_disabled":false,"rental_uris":{"android":"levelo://app?vid=29a9c5c8-a202-4a42-82bd-8f2dc973454b","ios":"levelo://app?vid=29a9c5c8-a202-4a42-82bd-8f2dc973454b"},"vehicle_type_id":"4","last_reported":1702905051,"current_range_meters":28400,"station_id":"ce4bhh12rcd13ifvqff0","pricing_plan_id":"free"},{"bike_id":"c89dcb56-7515-448e-b5f6-fb6ed21417b0","system_id":"levelo_inurba_marseille","lat":43.25503,"lon":5.37651,"is_reserved":false,"is_disabled":false,"rental_uris":{"android":"levelo://app?vid=c89dcb56-7515-448e-b5f6-fb6ed21417b0","ios":"levelo://app?vid=c89dcb56-7515-448e-b5f6-fb6ed21417b0"},"vehicle_type_id":"4","last_reported":1702905051,"current_range_meters":28400,"station_id":"ce4bhh12rcd13ifvqff0","pricing_plan_id":"free"},{"bike_id":"554b9716-3962-44dd-9cdb-dc4e11773c87","system_id":"levelo_inurba_marseille","lat":43.25502,"lon":5.37653,"is_reserved":false,"is_disabled":false,"rental_uris":{"android":"levelo://app?vid=554b9716-3962-44dd-9cdb-dc4e11773c87","ios":"levelo://app?vid=554b9716-3962-44dd-9cdb-dc4e11773c87"},"vehicle_type_id":"4","last_reported":1702905051,"current_range_meters":30000,"station_id":"ce4bhh12rcd13ifvqff0","pricing_plan_id":"free"},{"bike_id":"60eede1b-ac4d-4892-9773-f8a5cb9486b9","system_id":"levelo_inurba_marseille","lat":43.255,"lon":5.3765,"is_reserved":false,"is_disabled":false,"rental_uris":{"android":"levelo://app?vid=60eede1b-ac4d-4892-9773-f8a5cb9486b9","ios":"levelo://app?vid=60eede1b-ac4d-4892-9773-f8a5cb9486b9"},"vehicle_type_id":"4","last_reported":1702905051,"current_range_meters":30400,"station_id":"ce4bhh12rcd13ifvqff0","pricing_plan_id":"free"},{"bike_id":"dfce80b5-08e1-440a-ba3d-beda3ac761c3","system_id":"levelo_inurba_marseille","lat":43.25567,"lon":5.38253,"is_reserved":false,"is_disabled":false,"rental_uris":{"android":"levelo://app?vid=dfce80b5-08e1-440a-ba3d-beda3ac761c3","ios":"levelo://app?vid=dfce80b5-08e1-440a-ba3d-beda3ac761c3"},"vehicle_type_id":"4","last_reported":1702905051,"current_range_meters":23600,"station_id":"ce4bhih2rcd13ifvqfs0","pricing_plan_id":"free"},{"bike_id":"aca2dcca-a316-4f0c-ac24-39f4a3a60bd2","system_id":"levelo_inurba_marseille","lat":43.254947,"lon":5.376454,"is_reserved":false,"is_disabled":false,"rental_uris":{"android":"levelo://app?vid=aca2dcca-a316-4f0c-ac24-39f4a3a60bd2","ios":"levelo://app?vid=aca2dcca-a316-4f0c-ac24-39f4a3a60bd2"},"vehicle_type_id":"4","last_reported":1702905051,"current_range_meters":31200,"station_id":"ce4bhh12rcd13ifvqff0","pricing_plan_id":"free"},{"bike_id":"fe246cc1-9e05-408f-96d5-f0c10c79350c","system_id":"levelo_inurba_marseille","lat":43.270721,"lon":5.422764,"is_reserved":false,"is_disabled":false,"rental_uris":{"android":"levelo://app?vid=fe246cc1-9e05-408f-96d5-f0c10c79350c","ios":"levelo://app?vid=fe246cc1-9e05-408f-96d5-f0c10c79350c"},"vehicle_type_id":"4","last_reported":1702905051,"current_range_meters":25200,"station_id":"ce4bhk92rcd13ifvqgb0","pricing_plan_id":"free"},{"bike_id":"5420a08a-6c87-499e-beec-30fc66b08773","system_id":"levelo_inurba_marseille","lat":43.2594,"lon":5.40903,"is_reserved":false,"is_disabled":false,"rental_uris":{"android":"levelo://app?vid=5420a08a-6c87-499e-beec-30fc66b08773","ios":"levelo://app?vid=5420a08a-6c87-499e-beec-30fc66b08773"},"vehicle_type_id":"4","last_reported":1702905051,"current_range_meters":21600,"station_id":"ce4bhm92rcd13ifvqglg","pricing_plan_id":"free"},{"bike_id":"a1e96a51-911c-4a70-ab8f-59bdd053ef9a","system_id":"levelo_inurba_marseille","lat":43.25933,"lon":5.40903,"is_reserved":false,"is_disabled":false,"rental_uris":{"android":"levelo://app?vid=a1e96a51-911c-4a70-ab8f-59bdd053ef9a","ios":"levelo://app?vid=a1e96a51-911c-4a70-ab8f-59bdd053ef9a"},"vehicle_type_id":"4","last_reported":1702905051,"current_range_meters":14800,"station_id":"ce4bhm92rcd13ifvqglg","pricing_plan_id":"free"},{"bike_id":"418b19ae-6fb6-4d94-bab6-c8b738cb1c25","system_id":"levelo_inurba_marseille","lat":43.25933,"lon":5.40913,"is_reserved":false,"is_disabled":false,"rental_uris":{"android":"levelo://app?vid=418b19ae-6fb6-4d94-bab6-c8b738cb1c25","ios":"levelo://app?vid=418b19ae-6fb6-4d94-bab6-c8b738cb1c25"},"vehicle_type_id":"4","last_reported":1702905051,"current_range_meters":30800,"station_id":"ce4bhm92rcd13ifvqglg","pricing_plan_id":"free"},{"bike_id":"75b58ad3-589c-4015-9a40-0297bf20ca67","system_id":"levelo_inurba_marseille","lat":43.25928,"lon":5.40909,"is_reserved":false,"is_disabled":false,"rental_uris":{"android":"levelo://app?vid=75b58ad3-589c-4015-9a40-0297bf20ca67","ios":"levelo://app?vid=75b58ad3-589c-4015-9a40-0297bf20ca67"},"vehicle_type_id":"4","last_reported":1702905051,"current_range_meters":31200,"station_id":"ce4bhm92rcd13ifvqglg","pricing_plan_id":"free"},{"bike_id":"d1643b37-094b-4021-a8c9-b96fdb2a620a","system_id":"levelo_inurba_marseille","lat":43.259009,"lon":5.40929,"is_reserved":false,"is_disabled":false,"rental_uris":{"android":"levelo://app?vid=d1643b37-094b-4021-a8c9-b96fdb2a620a","ios":"levelo://app?vid=d1643b37-094b-4021-a8c9-b96fdb2a620a"},"vehicle_type_id":"4","last_reported":1702905051,"current_range_meters":15200,"station_id":"ce4bhm92rcd13ifvqglg","pricing_plan_id":"free"},{"bike_id":"61a4c449-70c1-4d31-941e-a3fe596474dd","system_id":"levelo_inurba_marseille","lat":43.2589,"lon":5.40922,"is_reserved":false,"is_disabled":false,"rental_uris":{"android":"levelo://app?vid=61a4c449-70c1-4d31-941e-a3fe596474dd","ios":"levelo://app?vid=61a4c449-70c1-4d31-941e-a3fe596474dd"},"vehicle_type_id":"4","last_reported":1702905051,"current_range_meters":28800,"station_id":"ce4bhm92rcd13ifvqglg","pricing_plan_id":"free"},{"bike_id":"1b5b8572-9f39-4d0f-8e18-fca8919c82a0","system_id":"levelo_inurba_marseille","lat":43.2573,"lon":5.41105,"is_reserved":false,"is_disabled":false,"rental_uris":{"android":"levelo://app?vid=1b5b8572-9f39-4d0f-8e18-fca8919c82a0","ios":"levelo://app?vid=1b5b8572-9f39-4d0f-8e18-fca8919c82a0"},"vehicle_type_id":"4","last_reported":1702905051,"current_range_meters":31200,"station_id":"ce4bhkp2rcd13ifvqgd0","pricing_plan_id":"free"},{"bike_id":"21688c1b-cc57-4087-bd2c-250c700396fa","system_id":"levelo_inurba_marseille","lat":43.25723,"lon":5.41108,"is_reserved":false,"is_disabled":false,"rental_uris":{"android":"levelo://app?vid=21688c1b-cc57-4087-bd2c-250c700396fa","ios":"levelo://app?vid=21688c1b-cc57-4087-bd2c-250c700396fa"},"vehicle_type_id":"4","last_reported":1702905051,"current_range_meters":6400,"station_id":"ce4bhkp2rcd13ifvqgd0","pricing_plan_id":"free"},{"bike_id":"56de427f-2d41-40a4-8f47-6a9e922439dc","system_id":"levelo_inurba_marseille","lat":43.257079,"lon":5.411051,"is_reserved":false,"is_disabled":false,"rental_uris":{"android":"levelo://app?vid=56de427f-2d41-40a4-8f47-6a9e922439dc","ios":"levelo://app?vid=56de427f-2d41-40a4-8f47-6a9e922439dc"},"vehicle_type_id":"4","last_reported":1702905051,"current_range_meters":30400,"station_id":"ce4bhkp2rcd13ifvqgd0","pricing_plan_id":"free"},{"bike_id":"f7355d0c-75e0-4eb6-a66b-8a3f13e7d068","system_id":"levelo_inurba_marseille","lat":43.250966,"lon":5.395186,"is_reserved":false,"is_disabled":false,"rental_uris":{"android":"levelo://app?vid=f7355d0c-75e0-4eb6-a66b-8a3f13e7d068","ios":"levelo://app?vid=f7355d0c-75e0-4eb6-a66b-8a3f13e7d068"},"vehicle_type_id":"4","last_reported":1702905051,"current_range_meters":27600,"station_id":"ce4bhm12rcd13ifvqgkg","pricing_plan_id":"free"},{"bike_id":"dd57e497-ed13-4339-91ea-ac27b19d2715","system_id":"levelo_inurba_marseille","lat":43.250966,"lon":5.395186,"is_reserved":false,"is_disabled":false,"rental_uris":{"android":"levelo://app?vid=dd57e497-ed13-4339-91ea-ac27b19d2715","ios":"levelo://app?vid=dd57e497-ed13-4339-91ea-ac27b19d2715"},"vehicle_type_id":"4","last_reported":1702905051,"current_range_meters":21200,"station_id":"ce4bhm12rcd13ifvqgkg","pricing_plan_id":"free"},{"bike_id":"f704f7ba-b74c-4c44-bbbd-8723c0693642","system_id":"levelo_inurba_marseille","lat":43.25102,"lon":5.403214,"is_reserved":false,"is_disabled":false,"rental_uris":{"android":"levelo://app?vid=f704f7ba-b74c-4c44-bbbd-8723c0693642","ios":"levelo://app?vid=f704f7ba-b74c-4c44-bbbd-8723c0693642"},