{"last_updated":1767770239,"ttl":60,"version":"2.2","data":{"bikes":[{"bike_id":"d09b3a65-a44b-46d5-8d1c-408888c8f37d","system_id":"levelo_inurba_marseille","lat":43.254948,"lon":5.376722,"is_reserved":false,"is_disabled":false,"rental_uris":{"android":"levelo://app?vid=d09b3a65-a44b-46d5-8d1c-408888c8f37d","ios":"levelo://app?vid=d09b3a65-a44b-46d5-8d1c-408888c8f37d"},"vehicle_type_id":"4","last_reported":1767770240,"current_range_meters":2800,"station_id":"ce4bhh12rcd13ifvqff0","pricing_plan_id":"cebpf4jnsgd1na2vs0mg"},{"bike_id":"85f3a20d-d8f5-4866-91c3-88ca4361a07a","system_id":"levelo_inurba_marseille","lat":43.271828,"lon":5.409933,"is_reserved":false,"is_disabled":false,"rental_uris":{"android":"levelo://app?vid=85f3a20d-d8f5-4866-91c3-88ca4361a07a","ios":"levelo://app?vid=85f3a20d-d8f5-4866-91c3-88ca4361a07a"},"vehicle_type_id":"4","last_reported":1767770240,"current_range_meters":2800,"station_id":"ce4bhl12rcd13ifvqgf0","pricing_plan_id":"cebpf4jnsgd1na2vs0mg"},{"bike_id":"d25c1254-5ba5-4cef-9983-c90b3ec9b80a","system_id":"levelo_inurba_marseille","lat":43.30475,"lon":5.4106,"is_reserved":false,"is_disabled":false,"rental_uris":{"android":"levelo://app?vid=d25c1254-5ba5-4cef-9983-c90b3ec9b80a","ios":"levelo://app?vid=d25c1254-5ba5-4cef-9983-c90b3ec9b80a"},"vehicle_type_id":"4","last_reported":1767770240,"current_range_meters":2800,"station_id":"","pricing_plan_id":"cebpf4jnsgd1na2vs0mg"},{"bike_id":"4b4a53ce-6685-4c48-92e4-9aa87114a53f","system_id":"levelo_inurba_marseille","lat":43.28085,"lon":5.40742,"is_reserved":false,"is_disabled":false,"rental_uris":{"android":"levelo://app?vid=4b4a53ce-6685-4c48-92e4-9aa87114a53f","ios":"levelo://app?vid=4b4a53ce-6685-4c48-92e4-9aa87114a53f"},"vehicle_type_id":"4","last_reported":1767770240,"current_range_meters":2800,"station_id":"","pricing_plan_id":"cebpf4jnsgd1na2vs0mg"},{"bike_id":"41f54ea5-6f88-45f1-a241-b51bcaf483a2","system_id":"levelo_inurba_marseille","lat":43.22933,"lon":5.35367,"is_reserved":false,"is_disabled":false,"rental_uris":{"android":"levelo://app?vid=41f54ea5-6f88-45f1-a241-b51bcaf483a2","ios":"levelo://app?vid=41f54ea5-6f88-45f1-a241-b51bcaf483a2"},"vehicle_type_id":"4","last_reported":1767770240,"current_range_meters":2800,"station_id":"cpo3532slgdg3j2ikp40","pricing_plan_id":"cebpf4jnsgd1na2vs0mg"},{"bike_id":"40ef5c73-5486-43cb-8929-d818e25dffa6","system_id":"levelo_inurba_marseille","lat":43.32652,"lon":5.41944,"is_reserved":false,"is_disabled":false,"rental_uris":{"android":"levelo://app?vid=40ef5c73-5486-43cb-8929-d818e25dffa6","ios":"levelo://app?vid=40ef5c73-5486-43cb-8929-d818e25dffa6"},"vehicle_type_id":"4","last_reported":1767770240,"current_range_meters":2800,"station_id":"","pricing_plan_id":"cebpf4jnsgd1na2vs0mg"},{"bike_id":"da45bb56-86d5-4030-9d91-f45fda8bfbd1","system_id":"levelo_inurba_marseille","lat":43.274978,"lon":5.424433,"is_reserved":false,"is_disabled":false,"rental_uris":{"android":"levelo://app?vid=da45bb56-86d5-4030-9d91-f45fda8bfbd1","ios":"levelo://app?vid=da45bb56-86d5-4030-9d91-f45fda8bfbd1"},"vehicle_type_id":"4","last_reported":1767770240,"current_range_meters":2800,"station_id":"ce4bhn92rcd13ifvqgrg","pricing_plan_id":"cebpf4jnsgd1na2vs0mg"},{"bike_id":"98790e95-c908-4bc9-9227-66e899c0bc97","system_id":"levelo_inurba_marseille","lat":43.28938,"lon":5.3663,"is_reserved":false,"is_disabled":true,"rental_uris":{"android":"levelo://app?vid=98790e95-c908-4bc9-9227-66e899c0bc97","ios":"levelo://app?vid=98790e95-c908-4bc9-9227-66e899c0bc97"},"vehicle_type_id":"4","last_reported":1767770240,"current_range_meters":2800,"station_id":"ce4bhap2rcd13ifvqek0","pricing_plan_id":"cebpf4jnsgd1na2vs0mg"},{"bike_id":"32f416f0-7dd4-4e56-8f3c-9c7d79a6c088","system_id":"levelo_inurba_marseille","lat":43.31684,"lon":5.4047,"is_reserved":false,"is_disabled":false,"rental_uris":{"android":"levelo://app?vid=32f416f0-7dd4-4e56-8f3c-9c7d79a6c088","ios":"levelo://app?vid=32f416f0-7dd4-4e56-8f3c-9c7d79a6c088"},"vehicle_type_id":"4","last_reported":1767770240,"current_range_meters":2800,"station_id":"ce4bh012rcd13ifvqd00","pricing_plan_id":"cebpf4jnsgd1na2vs0mg"},{"bike_id":"341fa175-b404-4e99-a30d-b02f1e1adee4","system_id":"levelo_inurba_marseille","lat":43.24405,"lon":5.37054,"is_reserved":false,"is_disabled":false,"rental_uris":{"android":"levelo://app?vid=341fa175-b404-4e99-a30d-b02f1e1adee4","ios":"levelo://app?vid=341fa175-b404-4e99-a30d-b02f1e1adee4"},"vehicle_type_id":"4","last_reported":1767770240,"current_range_meters":2800,"station_id":"","pricing_plan_id":"cebpf4jnsgd1na2vs0mg"},{"bike_id":"52c72146-79fe-4541-85f3-56ae2d6845a6","system_id":"levelo_inurba_marseille","lat":43.25081,"lon":5.3951,"is_reserved":false,"is_disabled":false,"rental_uris":{"android":"levelo://app?vid=52c72146-79fe-4541-85f3-56ae2d6845a6","ios":"levelo://app?vid=52c72146-79fe-4541-85f3-56ae2d6845a6"},"vehicle_type_id":"4","last_reported":1767770240,"current_range_meters":2800,"station_id":"ce4bhm12rcd13ifvqgkg","pricing_plan_id":"cebpf4jnsgd1na2vs0mg"},{"bike_id":"438148d1-4441-4c2a-9fb4-0da67b1d1c82","system_id":"levelo_inurba_marseille","lat":43.29847,"lon":5.38545,"is_reserved":false,"is_disabled":false,"rental_uris":{"android":"levelo://app?vid=438148d1-4441-4c2a-9fb4-0da67b1d1c82","ios":"levelo://app?vid=438148d1-4441-4c2a-9fb4-0da67b1d1c82"},"vehicle_type_id":"4","last_reported":1767770240,"current_range_meters":2800,"station_id":"","pricing_plan_id":"cebpf4jnsgd1na2vs0mg"},{"bike_id":"87e8b266-b373-4616-baea-2d580c40657d","system_id":"levelo_inurba_marseille","lat":43.31665,"lon":5.37407,"is_reserved":false,"is_disabled":false,"rental_uris":{"android":"levelo://app?vid=87e8b266-b373-4616-baea-2d580c40657d","ios":"levelo://app?vid=87e8b266-b373-4616-baea-2d580c40657d"},"vehicle_type_id":"4","last_reported":1767770240,"current_range_meters":2800,"station_id":"","pricing_plan_id":"cebpf4jnsgd1na2vs0mg"},{"bike_id":"6a1f68a8-4c0d-48e4-8253-89c4ff19b6ce","system_id":"levelo_inurba_marseille","lat":43.28477,"lon":5.48379,"is_reserved":false,"is_disabled":false,"rental_uris":{"android":"levelo://app?vid=6a1f68a8-4c0d-48e4-8253-89c4ff19b6ce","ios":"levelo://app?vid=6a1f68a8-4c0d-48e4-8253-89c4ff19b6ce"},"vehicle_type_id":"4","last_reported":1767770240,"current_range_meters":2800,"station_id":"","pricing_plan_id":"cebpf4jnsgd1na2vs0mg"},{"bike_id":"71301dea-c3a1-42a9-9f97-d2ccd23f6149","system_id":"levelo_inurba_marseille","lat":43.33725,"lon":5.39185,"is_reserved":false,"is_disabled":false,"rental_uris":{"android":"levelo://app?vid=71301dea-c3a1-42a9-9f97-d2ccd23f6149","ios":"levelo://app?vid=71301dea-c3a1-42a9-9f97-d2ccd23f6149"},"vehicle_type_id":"4","last_reported":1767770240,"current_range_meters":2800,"station_id":"ce4bhr92rcd13ifvqhsg","pricing_plan_id":"cebpf4jnsgd1na2vs0mg"},{"bike_id":"27fd1dae-9b5f-4946-91a5-7e16675cd4af","system_id":"levelo_inurba_marseille","lat":43.25582,"lon":5.38234,"is_reserved":false,"is_disabled":false,"rental_uris":{"android":"levelo://app?vid=27fd1dae-9b5f-4946-91a5-7e16675cd4af","ios":"levelo://app?vid=27fd1dae-9b5f-4946-91a5-7e16675cd4af"},"vehicle_type_id":"4","last_reported":1767770240,"current_range_meters":2800,"station_id":"ce4bhih2rcd13ifvqfs0","pricing_plan_id":"cebpf4jnsgd1na2vs0mg"},{"bike_id":"c4a9c7de-d13e-49f2-9440-e9f8190bf99d","system_id":"levelo_inurba_marseille","lat":43.29908,"lon":5.38155,"is_reserved":false,"is_disabled":false,"rental_uris":{"android":"levelo://app?vid=c4a9c7de-d13e-49f2-9440-e9f8190bf99d","ios":"levelo://app?vid=c4a9c7de-d13e-49f2-9440-e9f8190bf99d"},"vehicle_type_id":"4","last_reported":1767770240,"current_range_meters":2800,"station_id":"ce4bgj12rcd13ifvqbc0","pricing_plan_id":"cebpf4jnsgd1na2vs0mg"},{"bike_id":"77c6e077-c5cf-4e32-a75b-b4333f5b5292","system_id":"levelo_inurba_marseille","lat":43.31051,"lon":5.37169,"is_reserved":false,"is_disabled":false,"rental_uris":{"android":"levelo://app?vid=77c6e077-c5cf-4e32-a75b-b4333f5b5292","ios":"levelo://app?vid=77c6e077-c5cf-4e32-a75b-b4333f5b5292"},"vehicle_type_id":"4","last_reported":1767770240,"current_range_meters":2800,"station_id":"st_d4kl2rp97mjs73e7tdfg","pricing_plan_id":"cebpf4jnsgd1na2vs0mg"},{"bike_id":"7e9901e5-0ecb-4064-a195-f0e8bbeeaa5c","system_id":"levelo_inurba_marseille","lat":43.28513,"lon":5.38551,"is_reserved":false,"is_disabled":false,"rental_uris":{"android":"levelo://app?vid=7e9901e5-0ecb-4064-a195-f0e8bbeeaa5c","ios":"levelo://app?vid=7e9901e5-0ecb-4064-a195-f0e8bbeeaa5c"},"vehicle_type_id":"4","last_reported":1767770240,"current_range_meters":3200,"station_id":"ce4bh8p2rcd13ifvqeb0","pricing_plan_id":"cebpf4jnsgd1na2vs0mg"},{"bike_id":"d8c06048-428c-4885-a31f-55edb4b42195","system_id":"levelo_inurba_marseille","lat":43.26237,"lon":5.38824,"is_reserved":false,"is_disabled":false,"rental_uris":{"android":"levelo://app?vid=d8c06048-428c-4885-a31f-55edb4b42195","ios":"levelo://app?vid=d8c06048-428c-4885-a31f-55edb4b42195"},"vehicle_type_id":"4","last_reported":1767770240,"current_range_meters":3200,"station_id":"","pricing_plan_id":"cebpf4jnsgd1na2vs0mg"},{"bike_id":"28710909-6836-4051-8df5-ac7ea21a74d1","system_id":"levelo_inurba_marseille","lat":43.31498,"lon":5.38633,"is_reserved":false,"is_disabled":false,"rental_uris":{"android":"levelo://app?vid=28710909-6836-4051-8df5-ac7ea21a74d1","ios":"levelo://app?vid=28710909-6836-4051-8df5-ac7ea21a74d1"},"vehicle_type_id":"4","last_reported":1767770240,"current_range_meters":3200,"station_id":"","pricing_plan_id":"cebpf4jnsgd1na2vs0mg"},{"bike_id":"01c1c982-c85a-43b4-826d-86228268ee48","system_id":"levelo_inurba_marseille","lat":43.29594,"lon":5.38107,"is_reserved":false,"is_disabled":false,"rental_uris":{"android":"levelo://app?vid=01c1c982-c85a-43b4-826d-86228268ee48","ios":"levelo://app?vid=01c1c982-c85a-43b4-826d-86228268ee48"},"vehicle_type_id":"4","last_reported":1767770240,"current_range_meters":3200,"station_id":"ce4bgl12rcd13ifvqbo0","pricing_plan_id":"cebpf4jnsgd1na2vs0mg"},{"bike_id":"a184e25a-1604-4e63-9035-4f507c575ca1","system_id":"levelo_inurba_marseille","lat":43.31372,"lon":5.37148,"is_reserved":false,"is_disabled":false,"rental_uris":{"android":"levelo://app?vid=a184e25a-1604-4e63-9035-4f507c575ca1","ios":"levelo://app?vid=a184e25a-1604-4e63-9035-4f507c575ca1"},"vehicle_type_id":"4","last_reported":1767770240,"current_range_meters":3200,"station_id":"","pricing_plan_id":"cebpf4jnsgd1na2vs0mg"},{"bike_id":"671c9bed-c065-4692-8d5b-35a3a80355e4","system_id":"levelo_inurba_marseille","lat":43.240705,"lon":5.377658,"is_reserved":false,"is_disabled":false,"rental_uris":{"android":"levelo://app?vid=671c9bed-c065-4692-8d5b-35a3a80355e4","ios":"levelo://app?vid=671c9bed-c065-4692-8d5b-35a3a80355e4"},"vehicle_type_id":"4","last_reported":1767770240,"current_range_meters":3200,"station_id":"ce4bhnp2rcd13ifvqgvg","pricing_plan_id":"cebpf4jnsgd1na2vs0mg"},{"bike_id":"bcba726c-86cc-4920-9b66-bf7117212d7c","system_id":"levelo_inurba_marseille","lat":43.297729,"lon":5.377554,"is_reserved":false,"is_disabled":false,"rental_uris":{"android":"levelo://app?vid=bcba726c-86cc-4920-9b66-bf7117212d7c","ios":"levelo://app?vid=bcba726c-86cc-4920-9b66-bf7117212d7c"},"vehicle_type_id":"4","last_reported":1767770240,"current_range_meters":3200,"station_id":"","pricing_plan_id":"cebpf4jnsgd1na2vs0mg"},{"bike_id":"2c27ec0a-e1a6-45d7-8934-b7b3f64dcd18","system_id":"levelo_inurba_marseille","lat":43.27339,"lon":5.38712,"is_reserved":false,"is_disabled":false,"rental_uris":{"android":"levelo://app?vid=2c27ec0a-e1a6-45d7-8934-b7b3f64dcd18","ios":"levelo://app?vid=2c27ec0a-e1a6-45d7-8934-b7b3f64dcd18"},"vehicle_type_id":"4","last_reported":1767770240,"current_range_meters":3200,"station_id":"ce4bgvh2rcd13ifvqcs0","pricing_plan_id":"cebpf4jnsgd1na2vs0mg"},{"bike_id":"bcc58918-32eb-474c-8530-7b17c1e1f9a0","system_id":"levelo_inurba_marseille","lat":43.29495,"lon":5.43277,"is_reserved":false,"is_disabled":false,"rental_uris":{"android":"levelo://app?vid=bcc58918-32eb-474c-8530-7b17c1e1f9a0","ios":"levelo://app?vid=bcc58918-32eb-474c-8530-7b17c1e1f9a0"},"vehicle_type_id":"4","last_reported":1767770240,"current_range_meters":3200,"station_id":"st_d3j5ugp08ojc73fj9d10","pricing_plan_id":"cebpf4jnsgd1na2vs0mg"},{"bike_id":"3319aec4-7e7b-43cf-9456-90eff9571d7a","system_id":"levelo_inurba_marseille","lat":43.26791,"lon":5.40268,"is_reserved":false,"is_disabled":false,"rental_uris":{"android":"levelo://app?vid=3319aec4-7e7b-43cf-9456-90eff9571d7a","ios":"levelo://app?vid=3319aec4-7e7b-43cf-9456-90eff9571d7a"},"vehicle_type_id":"4","last_reported":1767770240,"current_range_meters":3200,"station_id":"ce501612rcd8frsf0b60","pricing_plan_id":"cebpf4jnsgd1na2vs0mg"},{"bike_id":"c3b09027-98b0-4a8f-bc63-99e9b4d2c4b3","system_id":"levelo_inurba_marseille","lat":43.24075,"lon":5.37764,"is_reserved":false,"is_disabled":false,"rental_uris":{"android":"levelo://app?vid=c3b09027-98b0-4a8f-bc63-99e9b4d2c4b3","ios":"levelo://app?vid=c3b09027-98b0-4a8f-bc63-99e9b4d2c4b3"},"vehicle_type_id":"4","last_reported":1767770240,"current_range_meters":3200,"station_id":"ce4bhnp2rcd13ifvqgvg","pricing_plan_id":"cebpf4jnsgd1na2vs0mg"},{"bike_id":"8a54edd1-0de8-4a4c-9c5f-25cd4bebb22a","system_id":"levelo_inurba_marseille","lat":43.31883,"lon":5.40734,"is_reserved":false,"is_disabled":false,"rental_uris":{"android":"levelo://app?vid=8a54edd1-0de8-4a4c-9c5f-25cd4bebb22a","ios":"levelo://app?vid=8a54edd1-0de8-4a4c-9c5f-25cd4bebb22a"},"vehicle_type_id":"4","last_reported":1767770240,"current_range_meters":3200,"station_id":"ce4bhq12rcd13ifvqhig","pricing_plan_id":"cebpf4jnsgd1na2vs0mg"},{"bike_id":"a2ee0046-b4e1-4d51-a835-3346a736acf2","system_id":"levelo_inurba_marseille","lat":43.25583,"lon":5.3822,"is_reserved":false,"is_disabled":false,"rental_uris":{"android":"levelo://app?vid=a2ee0046-b4e1-4d51-a835-3346a736acf2","ios":"levelo://app?vid=a2ee0046-b4e1-4d51-a835-3346a736acf2"},"vehicle_type_id":"4","last_reported":1767770240,"current_range_meters":3200,"station_id":"ce4bhih2rcd13ifvqfs0","pricing_plan_id":"cebpf4jnsgd1na2vs0mg"},{"bike_id":"74deac9c-14f6-44ef-a499-acb59adfcb48","system_id":"levelo_inurba_marseille","lat":43.29578,"lon":5.37576,"is_reserved":false,"is_disabled":false,"rental_uris":{"android":"levelo://app?vid=74deac9c-14f6-44ef-a499-acb59adfcb48","ios":"levelo://app?vid=74deac9c-14f6-44ef-a499-acb59adfcb48"},"vehicle_type_id":"4","last_reported":1767770240,"current_range_meters":3600,"station_id":"ce4bgh92rcd13ifvqb50","pricing_plan_id":"cebpf4jnsgd1na2vs0mg"},{"bike_id":"a189c7e9-2059-416c-bc22-9ffb3c8e4803","system_id":"levelo_inurba_marseille","lat":43.30173,"lon":5.38083,"is_reserved":false,"is_disabled":false,"rental_uris":{"android":"levelo://app?vid=a189c7e9-2059-416c-bc22-9ffb3c8e4803","ios":"levelo://app?vid=a189c7e9-2059-416c-bc22-9ffb3c8e4803"},"vehicle_type_id":"4","last_reported":1767770240,"current_range_meters":3600,"station_id":"ce4bgjp2rcd13ifvqbh0","pricing_plan_id":"cebpf4jnsgd1na2vs0mg"},{"bike_id":"7f5bb0c6-af89-46a1-bb01-083f5b368191","system_id":"levelo_inurba_marseille","lat":43.31069,"lon":5.372,"is_reserved":false,"is_disabled":false,"rental_uris":{"android":"levelo://app?vid=7f5bb0c6-af89-46a1-bb01-083f5b368191","ios":"levelo://app?vid=7f5bb0c6-af89-46a1-bb01-083f5b368191"},"vehicle_type_id":"4","last_reported":1767770240,"current_range_meters":3600,"station_id":"st_d4kl2rp97mjs73e7tdfg","pricing_plan_id":"cebpf4jnsgd1na2vs0mg"},{"bike_id":"7e039e1a-81ef-4a17-ad52-372923d2ba74","system_id":"levelo_inurba_marseille","lat":43.30151,"lon":5.38075,"is_reserved":false,"is_disabled":false,"rental_uris":{"android":"levelo://app?vid=7e039e1a-81ef-4a17-ad52-372923d2ba74","ios":"levelo://app?vid=7e039e1a-81ef-4a17-ad52-372923d2ba74"},"vehicle_type_id":"4","last_reported":1767770240,"current_range_meters":3600,"station_id":"ce4bgjp2rcd13ifvqbh0","pricing_plan_id":"cebpf4jnsgd1na2vs0mg"},{"bike_id":"5a18c1df-d347-46aa-9fec-899b3b6a1b84","system_id":"levelo_inurba_marseille","lat":43.27496,"lon":5.42445,"is_reserved":false,"is_disabled":false,"rental_uris":{"android":"levelo://app?vid=5a18c1df-d347-46aa-9fec-899b3b6a1b84","ios":"levelo://app?vid=5a18c1df-d347-46aa-9fec-899b3b6a1b84"},"vehicle_type_id":"4","last_reported":1767770240,"current_range_meters":3600,"station_id":"ce4bhn92rcd13ifvqgrg","pricing_plan_id":"cebpf4jnsgd1na2vs0mg"},{"bike_id":"5a22cce2-d36e-4ce8-b4a5-19216ad59fe6","system_id":"levelo_inurba_marseille","lat":43.27481,"lon":5.42473,"is_reserved":false,"is_disabled":false,"rental_uris":{"android":"levelo://app?vid=5a22cce2-d36e-4ce8-b4a5-19216ad59fe6","ios":"levelo://app?vid=5a22cce2-d36e-4ce8-b4a5-19216ad59fe6"},"vehicle_type_id":"4","last_reported":1767770240,"current_range_meters":3600,"station_id":"ce4bhn92rcd13ifvqgrg","pricing_plan_id":"cebpf4jnsgd1na2vs0mg"},{"bike_id":"0597b508-1261-4db8-9e17-c13a262518a7","system_id":"levelo_inurba_marseille","lat":43.28999,"lon":5.35614,"is_reserved":false,"is_disabled":false,"rental_uris":{"android":"levelo://app?vid=0597b508-1261-4db8-9e17-c13a262518a7","ios":"levelo://app?vid=0597b508-1261-4db8-9e17-c13a262518a7"},"vehicle_type_id":"4","last_reported":1767770240,"current_range_meters":3600,"station_id":"ce4bhb92rcd13ifvqen0","pricing_plan_id":"cebpf4jnsgd1na2vs0mg"},{"bike_id":"8f1dcf1e-ec47-4cfd-9ca8-b695074a8473","system_id":"levelo_inurba_marseille","lat":43.23966,"lon":5.36616,"is_reserved":false,"is_disabled":false,"rental_uris":{"android":"levelo://app?vid=8f1dcf1e-ec47-4cfd-9ca8-b695074a8473","ios":"levelo://app?vid=8f1dcf1e-ec47-4cfd-9ca8-b695074a8473"},"vehicle_type_id":"4","last_reported":1767770240,"current_range_meters":3600,"station_id":"ce4bhi12rcd13ifvqfp0","pricing_plan_id":"cebpf4jnsgd1na2vs0mg"},{"bike_id":"0ad89277-7a5c-47b1-9fe5-75f32ef13985","system_id":"levelo_inurba_marseille","lat":43.31177,"lon":5.3692,"is_reserved":false,"is_disabled":false,"rental_uris":{"android":"levelo://app?vid=0ad89277-7a5c-47b1-9fe5-75f32ef13985","ios":"levelo://app?vid=0ad89277-7a5c-47b1-9fe5-75f32ef13985"},"vehicle_type_id":"4","last_reported":1767770240,"current_range_meters":3600,"station_id":"","pricing_plan_id":"cebpf4jnsgd1na2vs0mg"},{"bike_id":"f7266f96-97df-4d00-8894-b574c422868e","system_id":"levelo_inurba_marseille","lat":43.2871,"lon":5.36113,"is_reserved":false,"is_disabled":false,"rental_uris":{"android":"levelo://app?vid=f7266f96-97df-4d00-8894-b574c422868e","ios":"levelo://app?vid=f7266f96-97df-4d00-8894-b574c422868e"},"vehicle_type_id":"4","last_reported":1767770240,"current_range_meters":4000,"station_id":"cki0cbj6b192h4jlfktg","pricing_plan_id":"cebpf4jnsgd1na2vs0mg"},{"bike_id":"5489f607-ea9c-45c1-a29b-b9982299f403","system_id":"levelo_inurba_marseille","lat":43.29485,"lon":5.43294,"is_reserved":false,"is_disabled":false,"rental_uris":{"android":"levelo://app?vid=5489f607-ea9c-45c1-a29b-b9982299f403","ios":"levelo://app?vid=5489f607-ea9c-45c1-a29b-b9982299f403"},"vehicle_type_id":"4","last_reported":1767770240,"current_range_meters":4000,"station_id":"st_d3j5ugp08ojc73fj9d10","pricing_plan_id":"cebpf4jnsgd1na2vs0mg"},{"bike_id":"9543aad1-f2c5-4f3f-ab6a-e1b8918ce8ce","system_id":"levelo_inurba_marseille","lat":43.29899,"lon":5.38499,"is_reserved":false,"is_disabled":false,"rental_uris":{"android":"levelo://app?vid=9543aad1-f2c5-4f3f-ab6a-e1b8918ce8ce","ios":"levelo://app?vid=9543aad1-f2c5-4f3f-ab6a-e1b8918ce8ce"},"vehicle_type_id":"4","last_reported":1767770240,"current_range_meters":4000,"station_id":"","pricing_plan_id":"cebpf4jnsgd1na2vs0mg"},{"bike_id":"565f99b7-e9e2-4b44-8331-6450d9ae6732","system_id":"levelo_inurba_marseille","lat":43.32095,"lon":5.36795,"is_reserved":false,"is_disabled":false,"rental_uris":{"android":"levelo://app?vid=565f99b7-e9e2-4b44-8331-6450d9ae6732","ios":"levelo://app?vid=565f99b7-e9e2-4b44-8331-6450d9ae6732"},"vehicle_type_id":"4","last_reported":1767770240,"current_range_meters":4000,"station_id":"ce4bhrh2rcd13ifvqhug","pricing_plan_id":"cebpf4jnsgd1na2vs0mg"},{"bike_id":"969b1719-3fa2-4d7b-b48c-3f3c994a3da7","system_id":"levelo_inurba_marseille","lat":43.29168,"lon":5.39494,"is_reserved":false,"is_disabled":false,"rental_uris":{"android":"levelo://app?vid=969b1719-3fa2-4d7b-b48c-3f3c994a3da7","ios":"levelo://app?vid=969b1719-3fa2-4d7b-b48c-3f3c994a3da7"},"vehicle_type_id":"4","last_reported":1767770240,"current_range_meters":4000,"station_id":"","pricing_plan_id":"cebpf4jnsgd1na2vs0mg"},{"bike_id":"68ecef4a-3d03-4b87-95fa-e44657e4c2a6","system_id":"levelo_inurba_marseille","lat":43.29758,"lon":5.42772,"is_reserved":false,"is_disabled":false,"rental_uris":{"android":"levelo://app?vid=68ecef4a-3d03-4b87-95fa-e44657e4c2a6","ios":"levelo://app?vid=68ecef4a-3d03-4b87-95fa-e44657e4c2a6"},"vehicle_type_id":"4","last_reported":1767770240,"current_range_meters":4000,"station_id":"st_d3md5207bmas73dh9klg","pricing_plan_id":"cebpf4jnsgd1na2vs0mg"},{"bike_id":"bf0a0489-ec91-406d-a7a0-4b4e36bfc3bb","system_id":"levelo_inurba_marseille","lat":43.229333,"lon":5.353798,"is_reserved":false,"is_disabled":false,"rental_uris":{"android":"levelo://app?vid=bf0a0489-ec91-406d-a7a0-4b4e36bfc3bb","ios":"levelo://app?vid=bf0a0489-ec91-406d-a7a0-4b4e36bfc3bb"},"vehicle_type_id":"4","last_reported":1767770240,"current_range_meters":4000,"station_id":"cpo3532slgdg3j2ikp40","pricing_plan_id":"cebpf4jnsgd1na2vs0mg"},{"bike_id":"8015c7a3-ca99-4bed-b795-854d89867176","system_id":"levelo_inurba_marseille","lat":43.300345,"lon":5.373509,"is_reserved":false,"is_disabled":false,"rental_uris":{"android":"levelo://app?vid=8015c7a3-ca99-4bed-b795-854d89867176","ios":"levelo://app?vid=8015c7a3-ca99-4bed-b795-854d89867176"},"vehicle_type_id":"4","last_reported":1767770240,"current_range_meters":4000,"station_id":"","pricing_plan_id":"cebpf4jnsgd1na2vs0mg"},{"bike_id":"5ec1f8c3-0e16-411f-9afb-0b32d03d3548","system_id":"levelo_inurba_marseille","lat":43.31334,"lon":5.40586,"is_reserved":false,"is_disabled":false,"rental_uris":{"android":"levelo://app?vid=5ec1f8c3-0e16-411f-9afb-0b32d03d3548","ios":"levelo://app?vid=5ec1f8c3-0e16-411f-9afb-0b32d03d3548"},"vehicle_type_id":"4","last_reported":1767770240,"current_range_meters":4000,"station_id":"","pricing_plan_id":"cebpf4jnsgd1na2vs0mg"},{"bike_id":"894b4f76-8c9e-4d33-a2b8-92add82ee6e6","system_id":"levelo_inurba_marseille","lat":43.26567,"lon":5.38988,"is_reserved":false,"is_disabled":false,"rental_uris":{"android":"levelo://app?vid=894b4f76-8c9e-4d33-a2b8-92add82ee6e6","ios":"levelo://app?vid=894b4f76-8c9e-4d33-a2b8-92add82ee6e6"},"vehicle_type_id":"4","last_reported":1767770240,"current_range_meters":4000,"station_id":"ce4bhe12rcd13ifvqf30","pricing_plan_id":"cebpf4jnsgd1na2vs0mg"},{"bike_id":"7ac39850-82c4-49d5-b766-440456775b0a","system_id":"levelo_inurba_marseille","lat":43.29627,"lon":5.40577,"is_reserved":false,"is_disabled":false,"rental_uris":{"android":"levelo://app?vid=7ac39850-82c4-49d5-b766-440456775b0a","ios":"levelo://app?vid=7ac39850-82c4-49d5-b766-440456775b0a"},"vehicle_type_id":"4","last_reported":1767770240,"current_range_meters":4000,"station_id":"ce4bh0h2rcd13ifvqd60","pricing_plan_id":"cebpf4jnsgd1na2vs0mg"},{"bike_id":"e39e909d-a3c5-43e0-be4e-6cfc87e9605c","system_id":"levelo_inurba_marseille","lat":43.27708,"lon":5.38889,"is_reserved":false,"is_disabled":false,"rental_uris":{"android":"levelo://app?vid=e39e909d-a3c5-43e0-be4e-6cfc87e9605c","ios":"levelo://app?vid=e39e909d-a3c5-43e0-be4e-6cfc87e9605c"},"vehicle_type_id":"4","last_reported":1767770240,"current_range_meters":4000,"station_id":"ce4bhi12rcd13ifvqfo0","pricing_plan_id":"cebpf4jnsgd1na2vs0mg"},{"bike_id":"5babf9f3-7072-4603-b843-97fa20e169e4","system_id":"levelo_inurba_marseille","lat":43.28538,"lon":5.44099,"is_reserved":false,"is_disabled":false,"rental_uris":{"android":"levelo://app?vid=5babf9f3-7072-4603-b843-97fa20e169e4","ios":"levelo://app?vid=5babf9f3-7072-4603-b843-97fa20e169e4"},"vehicle_type_id":"4","last_reported":1767770240,"current_range_meters":4000,"station_id":"st_d3j3df2ikq2c7380ej80","pricing_plan_id":"cebpf4jnsgd1na2vs0mg"},{"bike_id":"71c53044-c0ca-48e9-968f-ab1ba6524736","system_id":"levelo_inurba_marseille","lat":43.23959,"lon":5.36631,"is_reserved":false,"is_disabled":false,"rental_uris":{"android":"levelo://app?vid=71c53044-c0ca-48e9-968f-ab1ba6524736","ios":"levelo://app?vid=71c53044-c0ca-48e9-968f-ab1ba6524736"},"vehicle_type_id":"4","last_reported":1767770240,"current_range_meters":4000,"station_id":"ce4bhi12rcd13ifvqfp0","pricing_plan_id":"cebpf4jnsgd1na2vs0mg"},{"bike_id":"13a6c74f-e581-4908-8c6f-d118aa971759","system_id":"levelo_inurba_marseille","lat":43.284045,"lon":5.375022,"is_reserved":false,"is_disabled":false,"rental_uris":{"android":"levelo://app?vid=13a6c74f-e581-4908-8c6f-d118aa971759","ios":"levelo://app?vid=13a6c74f-e581-4908-8c6f-d118aa971759"},"vehicle_type_id":"4","last_reported":1767770240,"current_range_meters":4000,"station_id":"ce4bh412rcd13ifvqds0","pricing_plan_id":"cebpf4jnsgd1na2vs0mg"},{"bike_id":"60916bb9-ee79-440c-bae4-4bd2970bb5e0","system_id":"levelo_inurba_marseille","lat":43.30596,"lon":5.39364,"is_reserved":false,"is_disabled":false,"rental_uris":{"android":"levelo://app?vid=60916bb9-ee79-440c-bae4-4bd2970bb5e0","ios":"levelo://app?vid=60916bb9-ee79-440c-bae4-4bd2970bb5e0"},"vehicle_type_id":"4","last_reported":1767770240,"current_range_meters":4000,"station_id":"ce4bh0p2rcd13ifvqd80","pricing_plan_id":"cebpf4jnsgd1na2vs0mg"},{"bike_id":"d599e143-3cfd-4dd2-ba0d-054f2e412eda","system_id":"levelo_inurba_marseille","lat":43.28263,"lon":5.35085,"is_reserved":false,"is_disabled":false,"rental_uris":{"android":"levelo://app?vid=d599e143-3cfd-4dd2-ba0d-054f2e412eda","ios":"levelo://app?vid=d599e143-3cfd-4dd2-ba0d-054f2e412eda"},"vehicle_type_id":"4","last_reported":1767770240,"current_range_meters":4400,"station_id":"ce4bhbp2rcd13ifvqerg","pricing_plan_id":"cebpf4jnsgd1na2vs0mg"},{"bike_id":"c7b123e1-c083-424e-863b-05285ba211b6","system_id":"levelo_inurba_marseille","lat":43.30897,"lon":5.38665,"is_reserved":false,"is_disabled":false,"rental_uris":{"android":"levelo://app?vid=c7b123e1-c083-424e-863b-05285ba211b6","ios":"levelo://app?vid=c7b123e1-c083-424e-863b-05285ba211b6"},"vehicle_type_id":"4","last_reported":1767770240,"current_range_meters":4400,"station_id":"","pricing_plan_id":"cebpf4jnsgd1na2vs0mg"},{"bike_id":"860d18f6-ee6d-4ae4-92d3-0bf28977ee8c","system_id":"levelo_inurba_marseille","lat":43.30665,"lon":5.40065,"is_reserved":false,"is_disabled":false,"rental_uris":{"android":"levelo://app?vid=860d18f6-ee6d-4ae4-92d3-0bf28977ee8c","ios":"levelo://app?vid=860d18f6-ee6d-4ae4-92d3-0bf28977ee8c"},"vehicle_type_id":"4","last_reported":1767770240,"current_range_meters":4400,"station_id":"ce4bh112rcd13ifvqda0","pricing_plan_id":"cebpf4jnsgd1na2vs0mg"},{"bike_id":"5c78052d-8b4f-4e51-8ddb-87be6fb225ca","system_id":"levelo_inurba_marseille","lat":43.23197,"lon":5.35564,"is_reserved":false,"is_disabled":false,"rental_uris":{"android":"levelo://app?vid=5c78052d-8b4f-4e51-8ddb-87be6fb225ca","ios":"levelo://app?vid=5c78052d-8b4f-4e51-8ddb-87be6fb225ca"},"vehicle_type_id":"4","last_reported":1767770240,"current_range_meters":4400,"station_id":"ce4bhu92rcd13ifvqi70","pricing_plan_id":"cebpf4jnsgd1na2vs0mg"},{"bike_id":"823e21cc-99fa-41e6-b65e-7caf30f42494","system_id":"levelo_inurba_marseille","lat":43.28937,"lon":5.36403,"is_reserved":false,"is_disabled":false,"rental_uris":{"android":"levelo://app?vid=823e21cc-99fa-41e6-b65e-7caf30f42494","ios":"levelo://app?vid=823e21cc-99fa-41e6-b65e-7caf30f42494"},"vehicle_type_id":"4","last_reported":1767770240,"current_range_meters":4400,"station_id":"ce4bhc92rcd13ifvqetg","pricing_plan_id":"cebpf4jnsgd1na2vs0mg"},{"bike_id":"fad68b58-3feb-4a99-9f33-50e6502be28a","system_id":"levelo_inurba_marseille","lat":43.32874,"lon":5.37492,"is_reserved":false,"is_disabled":false,"rental_uris":{"android":"levelo://app?vid=fad68b58-3feb-4a99-9f33-50e6502be28a","ios":"levelo://app?vid=fad68b58-3feb-4a99-9f33-50e6502be28a"},"vehicle_type_id":"4","last_reported":1767770240,"current_range_meters":4400,"station_id":"","pricing_plan_id":"cebpf4jnsgd1na2vs0mg"},{"bike_id":"c773f61c-a83f-41d9-bdd4-df8791dcab70","system_id":"levelo_inurba_marseille","lat":43.29782,"lon":5.37734,"is_reserved":false,"is_disabled":false,"rental_uris":{"android":"levelo://app?vid=c773f61c-a83f-41d9-bdd4-df8791dcab70","ios":"levelo://app?vid=c773f61c-a83f-41d9-bdd4-df8791dcab70"},"vehicle_type_id":"4","last_reported":1767770240,"current_range_meters":4400,"station_id":"","pricing_plan_id":"cebpf4jnsgd1na2vs0mg"},{"bike_id":"51bab64f-1b87-4acc-8f72-1bf6c05e5090","system_id":"levelo_inurba_marseille","lat":43.231917,"lon":5.355514,"is_reserved":false,"is_disabled":false,"rental_uris":{"android":"levelo://app?vid=51bab64f-1b87-4acc-8f72-1bf6c05e5090","ios":"levelo://app?vid=51bab64f-1b87-4acc-8f72-1bf6c05e5090"},"vehicle_type_id":"4","last_reported":1767770240,"current_range_meters":4400,"station_id":"ce4bhu92rcd13ifvqi70","pricing_plan_id":"cebpf4jnsgd1na2vs0mg"},{"bike_id":"79050b2d-51dd-4422-b5f7-33cfc5837f53","system_id":"levelo_inurba_marseille","lat":43.3127,"lon":5.37745,"is_reserved":false,"is_disabled":false,"rental_uris":{"android":"levelo://app?vid=79050b2d-51dd-4422-b5f7-33cfc5837f53","ios":"levelo://app?vid=79050b2d-51dd-4422-b5f7-33cfc5837f53"},"vehicle_type_id":"4","last_reported":1767770240,"current_range_meters":4400,"station_id":"","pricing_plan_id":"cebpf4jnsgd1na2vs0mg"},{"bike_id":"9265da08-af6b-41f8-a564-a7a5e4a8d66e","system_id":"levelo_inurba_marseille","lat":43.28466,"lon":5.48404,"is_reserved":false,"is_disabled":false,"rental_uris":{"android":"levelo://app?vid=9265da08-af6b-41f8-a564-a7a5e4a8d66e","ios":"levelo://app?vid=9265da08-af6b-41f8-a564-a7a5e4a8d66e"},"vehicle_type_id":"4","last_reported":1767770240,"current_range_meters":4400,"station_id":"","pricing_plan_id":"cebpf4jnsgd1na2vs0mg"},{"bike_id":"3bc88049-fe85-4f81-88f2-4fe0073c7893","system_id":"levelo_inurba_marseille","lat":43.29819,"lon":5.3904,"is_reserved":false,"is_disabled":false,"rental_uris":{"android":"levelo://app?vid=3bc88049-fe85-4f81-88f2-4fe0073c7893","ios":"levelo://app?vid=3bc88049-fe85-4f81-88f2-4fe0073c7893"},"vehicle_type_id":"4","last_reported":1767770240,"current_range_meters":4400,"station_id":"ce4bgqh2rcd13ifvqc5g","pricing_plan_id":"cebpf4jnsgd1na2vs0mg"},{"bike_id":"c92f9eb1-4edf-4277-a16e-c93cc6295b90","system_id":"levelo_inurba_marseille","lat":43.3141,"lon":5.40428,"is_reserved":false,"is_disabled":false,"rental_uris":{"android":"levelo://app?vid=c92f9eb1-4edf-4277-a16e-c93cc6295b90","ios":"levelo://app?vid=c92f9eb1-4edf-4277-a16e-c93cc6295b90"},"vehicle_type_id":"4","last_reported":1767770240,"current_range_meters":4400,"station_id":"","pricing_plan_id":"cebpf4jnsgd1na2vs0mg"},{"bike_id":"ad9c57a4-d8a7-41c0-8bf9-21a179390ca8","system_id":"levelo_inurba_marseille","lat":43.28532,"lon":5.44096,"is_reserved":false,"is_disabled":false,"rental_uris":{"android":"levelo://app?vid=ad9c57a4-d8a7-41c0-8bf9-21a179390ca8","ios":"levelo://app?vid=ad9c57a4-d8a7-41c0-8bf9-21a179390ca8"},"vehicle_type_id":"4","last_reported":1767770240,"current_range_meters":4400,"station_id":"st_d3j3df2ikq2c7380ej80","pricing_plan_id":"cebpf4jnsgd1na2vs0mg"},{"bike_id":"53c41dbc-a189-46fe-9df7-e2f8eb0cf29f","system_id":"levelo_inurba_marseille","lat":43.30926,"lon":5.40133,"is_reserved":false,"is_disabled":false,"rental_uris":{"android":"levelo://app?vid=53c41dbc-a189-46fe-9df7-e2f8eb0cf29f","ios":"levelo://app?vid=53c41dbc-a189-46fe-9df7-e2f8eb0cf29f"},"vehicle_type_id":"4","last_reported":1767770240,"current_range_meters":4400,"station_id":"ce4bgvp2rcd13ifvqct0","pricing_plan_id":"cebpf4jnsgd1na2vs0mg"},{"bike_id":"cb160781-6f91-4de0-bc7d-1c259304a6fa","system_id":"levelo_inurba_marseille","lat":43.26688,"lon":5.38243,"is_reserved":false,"is_disabled":false,"rental_uris":{"android":"levelo://app?vid=cb160781-6f91-4de0-bc7d-1c259304a6fa","ios":"levelo://app?vid=cb160781-6f91-4de0-bc7d-1c259304a6fa"},"vehicle_type_id":"4","last_reported":1767770240,"current_range_meters":4400,"station_id":"ce4bhg92rcd13ifvqf90","pricing_plan_id":"cebpf4jnsgd1na2vs0mg"},{"bike_id":"f9e0be05-0c5c-44c5-9abb-6450b6fb17f7","system_id":"levelo_inurba_marseille","lat":43.28491,"lon":5.38556,"is_reserved":false,"is_disabled":false,"rental_uris":{"android":"levelo://app?vid=f9e0be05-0c5c-44c5-9abb-6450b6fb17f7","ios":"levelo://app?vid=f9e0be05-0c5c-44c5-9abb-6450b6fb17f7"},"vehicle_type_id":"4","last_reported":1767770240,"current_range_meters":4400,"station_id":"ce4bh8p2rcd13ifvqeb0","pricing_plan_id":"cebpf4jnsgd1na2vs0mg"},{"bike_id":"e7a3a4e7-8dd9-43fd-916f-59fbfe992844","system_id":"levelo_inurba_marseille","lat":43.27945,"lon":5.41043,"is_reserved":false,"is_disabled":false,"rental_uris":{"android":"levelo://app?vid=e7a3a4e7-8dd9-43fd-916f-59fbfe992844","ios":"levelo://app?vid=e7a3a4e7-8dd9-43fd-916f-59fbfe992844"},"vehicle_type_id":"4","last_reported":1767770240,"current_range_meters":4400,"station_id":"ce4bhnp2rcd13ifvqh0g","pricing_plan_id":"cebpf4jnsgd1na2vs0mg"},{"bike_id":"30bdf5f3-a661-4384-ac7f-dbac1930b152","system_id":"levelo_inurba_marseille","lat":43.23164,"lon":5.43705,"is_reserved":false,"is_disabled":false,"rental_uris":{"android":"levelo://app?vid=30bdf5f3-a661-4384-ac7f-dbac1930b152","ios":"levelo://app?vid=30bdf5f3-a661-4384-ac7f-dbac1930b152"},"vehicle_type_id":"4","last_reported":1767770240,"current_range_meters":4800,"station_id":"ce4bhmp2rcd13ifvqgog","pricing_plan_id":"cebpf4jnsgd1na2vs0mg"},{"bike_id":"2af0ce7c-ca3c-4dfe-9ab3-190f23e26597","system_id":"levelo_inurba_marseille","lat":43.238731,"lon":5.365227,"is_reserved":false,"is_disabled":false,"rental_uris":{"android":"levelo://app?vid=2af0ce7c-ca3c-4dfe-9ab3-190f23e26597","ios":"levelo://app?vid=2af0ce7c-ca3c-4dfe-9ab3-190f23e26597"},"vehicle_type_id":"4","last_reported":1767770240,"current_range_meters":4800,"station_id":"","pricing_plan_id":"cebpf4jnsgd1na2vs0mg"},{"bike_id":"849ba240-1c4b-472d-ba7f-64c303775005","system_id":"levelo_inurba_marseille","lat":43.30461,"lon":5.37909,"is_reserved":false,"is_disabled":false,"rental_uris":{"android":"levelo://app?vid=849ba240-1c4b-472d-ba7f-64c303775005","ios":"levelo://app?vid=849ba240-1c4b-472d-ba7f-64c303775005"},"vehicle_type_id":"4","last_reported":1767770240,"current_range_meters":4800,"station_id":"ce4bgup2rcd13ifvqcn0","pricing_plan_id":"cebpf4jnsgd1na2vs0mg"},{"bike_id":"bd983e6e-4496-4e22-8f82-0e7ec04ab7fa","system_id":"levelo_inurba_marseille","lat":43.30146,"lon":5.38091,"is_reserved":false,"is_disabled":false,"rental_uris":{"android":"levelo://app?vid=bd983e6e-4496-4e22-8f82-0e7ec04ab7fa","ios":"levelo://app?vid=bd983e6e-4496-4e22-8f82-0e7ec04ab7fa"},"vehicle_type_id":"4","last_reported":1767770240,"current_range_meters":4800,"station_id":"","pricing_plan_id":"cebpf4jnsgd1na2vs0mg"},{"bike_id":"a3da1827-148b-41c2-bd04-cbeb3bb21a64","system_id":"levelo_inurba_marseille","lat":43.2796,"lon":5.38734,"is_reserved":false,"is_disabled":false,"rental_uris":{"android":"levelo://app?vid=a3da1827-148b-41c2-bd04-cbeb3bb21a64","ios":"levelo://app?vid=a3da1827-148b-41c2-bd04-cbeb3bb21a64"},"vehicle_type_id":"4","last_reported":1767770240,"current_range_meters":4800,"station_id":"ce4bhg12rcd13ifvqf80","pricing_plan_id":"cebpf4jnsgd1na2vs0mg"},{"bike_id":"6f74c1e4-e119-4020-9d7d-910ee87d2a79","system_id":"levelo_inurba_marseille","lat":43.30925,"lon":5.40137,"is_reserved":false,"is_disabled":false,"rental_uris":{"android":"levelo://app?vid=6f74c1e4-e119-4020-9d7d-910ee87d2a79","ios":"levelo://app?vid=6f74c1e4-e119-4020-9d7d-910ee87d2a79"},"vehicle_type_id":"4","last_reported":1767770240,"current_range_meters":4800,"station_id":"ce4bgvp2rcd13ifvqct0","pricing_plan_id":"cebpf4jnsgd1na2vs0mg"},{"bike_id":"59f38118-6a4d-4e62-8844-f6df1659fc07","system_id":"levelo_inurba_marseille","lat":43.29893,"lon":5.4366,"is_reserved":false,"is_disabled":false,"rental_uris":{"android":"levelo://app?vid=59f38118-6a4d-4e62-8844-f6df1659fc07","ios":"levelo://app?vid=59f38118-6a4d-4e62-8844-f6df1659fc07"},"vehicle_type_id":"4","last_reported":1767770240,"current_range_meters":4800,"station_id":"ce4bhpp2rcd13ifvqhfg","pricing_plan_id":"cebpf4jnsgd1na2vs0mg"},{"bike_id":"999e74f3-d4b2-444d-89bc-239d909db7d5","system_id":"levelo_inurba_marseille","lat":43.30087,"lon":5.36933,"is_reserved":false,"is_disabled":false,"rental_uris":{"android":"levelo://app?vid=999e74f3-d4b2-444d-89bc-239d909db7d5","ios":"levelo://app?vid=999e74f3-d4b2-444d-89bc-239d909db7d5"},"vehicle_type_id":"4","last_reported":1767770240,"current_range_meters":4800,"station_id":"","pricing_plan_id":"cebpf4jnsgd1na2vs0mg"},{"bike_id":"e3a8c53a-be94-43ea-8e9c-18d2a8cf0834","system_id":"levelo_inurba_marseille","lat":43.27225,"lon":5.39192,"is_reserved":false,"is_disabled":false,"rental_uris":{"android":"levelo://app?vid=e3a8c53a-be94-43ea-8e9c-18d2a8cf0834","ios":"levelo://app?vid=e3a8c53a-be94-43ea-8e9c-18d2a8cf0834"},"vehicle_type_id":"4","last_reported":1767770240,"current_range_meters":4800,"station_id":"ce4bhhp2rcd13ifvqfm0","pricing_plan_id":"cebpf4jnsgd1na2vs0mg"},{"bike_id":"d2d5c922-3ec7-47cf-bb49-4d3b2b6af0f3","system_id":"levelo_inurba_marseille","lat":43.27671,"lon":5.38912,"is_reserved":false,"is_disabled":false,"rental_uris":{"android":"levelo://app?vid=d2d5c922-3ec7-47cf-bb49-4d3b2b6af0f3","ios":"levelo://app?vid=d2d5c922-3ec7-47cf-bb49-4d3b2b6af0f3"},"vehicle_type_id":"4","last_reported":1767770240,"current_range_meters":4800,"station_id":"ce4bhi12rcd13ifvqfo0","pricing_plan_id":"cebpf4jnsgd1na2vs0mg"},{"bike_id":"27d9b984-914c-44c6-abe9-2fee68ccfc43","system_id":"levelo_inurba_marseille","lat":43.33068,"lon":5.37814,"is_reserved":false,"is_disabled":false,"rental_uris":{"android":"levelo://app?vid=27d9b984-914c-44c6-abe9-2fee68ccfc43","ios":"levelo://app?vid=27d9b984-914c-44c6-abe9-2fee68ccfc43"},"vehicle_type_id":"4","last_reported":1767770240,"current_range_meters":4800,"station_id":"","pricing_plan_id":"cebpf4jnsgd1na2vs0mg"},{"bike_id":"496c262d-e7e0-4aec-87e1-00a1e17e7c6f","system_id":"levelo_inurba_marseille","lat":43.25306,"lon":5.42091,"is_reserved":false,"is_disabled":false,"rental_uris":{"android":"levelo://app?vid=496c262d-e7e0-4aec-87e1-00a1e17e7c6f","ios":"levelo://app?vid=496c262d-e7e0-4aec-87e1-00a1e17e7c6f"},"vehicle_type_id":"4","last_reported":1767770240,"current_range_meters":4800,"station_id":"st_d2m65c5bi1j21697t3ng","pricing_plan_id":"cebpf4jnsgd1na2vs0mg"},{"bike_id":"9b0bcd1c-36fe-49d2-a04e-fd212b9423ce","system_id":"levelo_inurba_marseille","lat":43.28937,"lon":5.39623,"is_reserved":false,"is_disabled":false,"rental_uris":{"android":"levelo://app?vid=9b0bcd1c-36fe-49d2-a04e-fd212b9423ce","ios":"levelo://app?vid=9b0bcd1c-36fe-49d2-a04e-fd212b9423ce"},"vehicle_type_id":"4","last_reported":1767770240,"current_range_meters":4800,"station_id":"ce4bh3h2rcd13ifvqdn0","pricing_plan_id":"cebpf4jnsgd1na2vs0mg"},{"bike_id":"2b249141-87e2-4eaa-8d21-183c28a1a8bb","system_id":"levelo_inurba_marseille","lat":43.29733,"lon":5.42801,"is_reserved":false,"is_disabled":false,"rental_uris":{"android":"levelo://app?vid=2b249141-87e2-4eaa-8d21-183c28a1a8bb","ios":"levelo://app?vid=2b249141-87e2-4eaa-8d21-183c28a1a8bb"},"vehicle_type_id":"4","last_reported":1767770240,"current_range_meters":4800,"station_id":"st_d3md5207bmas73dh9klg","pricing_plan_id":"cebpf4jnsgd1na2vs0mg"},{"bike_id":"b8cf98ec-4e7b-45be-a805-02d539b0c532","system_id":"levelo_inurba_marseille","lat":43.30953,"lon":5.39038,"is_reserved":false,"is_disabled":false,"rental_uris":{"android":"levelo://app?vid=b8cf98ec-4e7b-45be-a805-02d539b0c532","ios":"levelo://app?vid=b8cf98ec-4e7b-45be-a805-02d539b0c532"},"vehicle_type_id":"4","last_reported":1767770240,"current_range_meters":4800,"station_id":"ce4bgup2rcd13ifvqco0","pricing_plan_id":"cebpf4jnsgd1na2vs0mg"},{"bike_id":"f01d6bb3-25d2-4dd8-ad19-a2c323dee842","system_id":"levelo_inurba_marseille","lat":43.3082,"lon":5.3814,"is_reserved":false,"is_disabled":false,"rental_uris":{"android":"levelo://app?vid=f01d6bb3-25d2-4dd8-ad19-a2c323dee842","ios":"levelo://app?vid=f01d6bb3-25d2-4dd8-ad19-a2c323dee842"},"vehicle_type_id":"4","last_reported":1767770240,"current_range_meters":4800,"station_id":"ce4bgt12rcd13ifvqce0","pricing_plan_id":"cebpf4jnsgd1na2vs0mg"},{"bike_id":"d22d9ece-62b8-40c6-881b-8ad44e1a6b0e","system_id":"levelo_inurba_marseille","lat":43.26205,"lon":5.37451,"is_reserved":false,"is_disabled":true,"rental_uris":{"android":"levelo://app?vid=d22d9ece-62b8-40c6-881b-8ad44e1a6b0e","ios":"levelo://app?vid=d22d9ece-62b8-40c6-881b-8ad44e1a6b0e"},"vehicle_type_id":"4","last_reported":1767770240,"current_range_meters":5600,"station_id":"ce4bhgp2rcd13ifvqfc0","pricing_plan_id":"cebpf4jnsgd1na2vs0mg"},{"bike_id":"9429cadb-a739-4f5f-8c2b-cc91a27439eb","system_id":"levelo_inurba_marseille","lat":43.27687,"lon":5.420473,"is_reserved":false,"is_disabled":false,"rental_uris":{"android":"levelo://app?vid=9429cadb-a739-4f5f-8c2b-cc91a27439eb","ios":"levelo://app?vid=9429cadb-a739-4f5f-8c2b-cc91a27439eb"},"vehicle_type_id":"4","last_reported":1767770240,"current_range_meters":5600,"station_id":"","pricing_plan_id":"cebpf4jnsgd1na2vs0mg"},{"bike_id":"e2760079-bd3c-47bc-8c8b-a332f7947d82","system_id":"levelo_inurba_marseille","lat":43.30425,"lon":5.39742,"is_reserved":false,"is_disabled":false,"rental_uris":{"android":"levelo://app?vid=e2760079-bd3c-47bc-8c8b-a332f7947d82","ios":"levelo://app?vid=e2760079-bd3c-47bc-8c8b-a332f7947d82"},"vehicle_type_id":"4","last_reported":1767770240,"current_range_meters":5600,"station_id":"ce4bh092rcd13ifvqd20","pricing_plan_id":"cebpf4jnsgd1na2vs0mg"},{"bike_id":"6a37a502-8a4f-4bc7-83bd-16348e8cf97e","system_id":"levelo_inurba_marseille","lat":43.32086,"lon":5.36763,"is_reserved":false,"is_disabled":false,"rental_uris":{"android":"levelo://app?vid=6a37a502-8a4f-4bc7-83bd-16348e8cf97e","ios":"levelo://app?vid=6a37a502-8a4f-4bc7-83bd-16348e8cf97e"},"vehicle_type_id":"4","last_reported":1767770240,"current_range_meters":5600,"station_id":"ce4bhrh2rcd13ifvqhug","pricing_plan_id":"cebpf4jnsgd1na2vs0mg"},{"bike_id":"c12ea4a3-bcf0-4ab0-a612-03910cec9930","system_id":"levelo_inurba_marseille","lat":43.28071,"lon":5.3965,"is_reserved":false,"is_disabled":false,"rental_uris":{"android":"levelo://app?vid=c12ea4a3-bcf0-4ab0-a612-03910cec9930","ios":"levelo://app?vid=c12ea4a3-bcf0-4ab0-a612-03910cec9930"},"vehicle_type_id":"4","last_reported":1767770240,"current_range_meters":5600,"station_id":"ce4bho12rcd13ifvqh2g","pricing_plan_id":"cebpf4jnsgd1na2vs0mg"},{"bike_id":"1cc14a4e-8f2c-4bea-9c25-f855a4eff001","system_id":"levelo_inurba_marseille","lat":43.28629,"lon":5.35096,"is_reserved":false,"is_disabled":false,"rental_uris":{"android":"levelo://app?vid=1cc14a4e-8f2c-4bea-9c25-f855a4eff001","ios":"levelo://app?vid=1cc14a4e-8f2c-4bea-9c25-f855a4eff001"},"vehicle_type_id":"4","last_reported":1767770240,"current_range_meters":5600,"station_id":"ce4bhch2rcd13ifvqeug","pricing_plan_id":"cebpf4jnsgd1na2vs0mg"},{"bike_id":"0b039971-bf09-49b0-8d20-8e14306bc9bb","system_id":"levelo_inurba_marseille","lat":43.30422,"lon":5.39765,"is_reserved":false,"is_disabled":false,"rental_uris":{"android":"levelo://app?vid=0b039971-bf09-49b0-8d20-8e14306bc9bb","ios":"levelo://app?vid=0b039971-bf09-49b0-8d20-8e14306bc9bb"},"vehicle_type_id":"4","last_reported":1767770240,"current_range_meters":5600,"station_id":"ce4bh092rcd13ifvqd20","pricing_plan_id":"cebpf4jnsgd1na2vs0mg"},{"bike_id":"1aab9789-bffd-4a51-8860-d68a520871ab","system_id":"levelo_inurba_marseille","lat":43.335363,"lon":5.374747,"is_reserved":false,"is_disabled":false,"rental_uris":{"android":"levelo://app?vid=1aab9789-bffd-4a51-8860-d68a520871ab","ios":"levelo://app?vid=1aab9789-bffd-4a51-8860-d68a520871ab"},"vehicle_type_id":"4","last_reported":1767770240,"current_range_meters":5600,"station_id":"st_d46tts09ee8s73dlu43g","pricing_plan_id":"cebpf4jnsgd1na2vs0mg"},{"bike_id":"b873d448-1951-4df5-bd2c-5e9d96c8aae5","system_id":"levelo_inurba_marseille","lat":43.23785,"lon":5.3663,"is_reserved":false,"is_disabled":false,"rental_uris":{"android":"levelo://app?vid=b873d448-1951-4df5-bd2c-5e9d96c8aae5","ios":"levelo://app?vid=b873d448-1951-4df5-bd2c-5e9d96c8aae5"},"vehicle_type_id":"4","last_reported":1767770240,"current_range_meters":5600,"station_id":"st_d3nk18o9ro0c73en2l3g","pricing_plan_id":"cebpf4jnsgd1na2vs0mg"},{"bike_id":"82f6d72a-169c-46dc-bf44-f03a21f411bf","system_id":"levelo_inurba_marseille","lat":43.24474,"lon":5.42545,"is_reserved":false,"is_disabled":false,"rental_uris":{"android":"levelo://app?vid=82f6d72a-169c-46dc-bf44-f03a21f411bf","ios":"levelo://app?vid=82f6d72a-169c-46dc-bf44-f03a21f411bf"},"vehicle_type_id":"4","last_reported":1767770240,"current_range_meters":5600,"station_id":"st_d4a3vfp97mjs738cd8kg","pricing_plan_id":"cebpf4jnsgd1na2vs0mg"},{"bike_id":"174e0a88-28ce-484e-8861-adcbe3a929da","system_id":"levelo_inurba_marseille","lat":43.28478,"lon":5.48363,"is_reserved":false,"is_disabled":false,"rental_uris":{"android":"levelo://app?vid=174e0a88-28ce-484e-8861-adcbe3a929da","ios":"levelo://app?vid=174e0a88-28ce-484e-8861-adcbe3a929da"},"vehicle_type_id":"4","last_reported":1767770240,"current_range_meters":5600,"station_id":"st_d3svhcjqgbts73a3dn0g","pricing_plan_id":"cebpf4jnsgd1na2vs0mg"},{"bike_id":"9b21424a-1587-45e4-bf2a-4284accabf77","system_id":"levelo_inurba_marseille","lat":43.28476,"lon":5.48389,"is_reserved":false,"is_disabled":false,"rental_uris":{"android":"levelo://app?vid=9b21424a-1587-45e4-bf2a-4284accabf77","ios":"levelo://app?vid=9b21424a-1587-45e4-bf2a-4284accabf77"},"vehicle_type_id":"4","last_reported":1767770240,"current_range_meters":5600,"station_id":"","pricing_plan_id":"cebpf4jnsgd1na2vs0mg"},{"bike_id":"3e97ff81-5a9c-479a-9f03-e37d3c657c25","system_id":"levelo_inurba_marseille","lat":43.29583,"lon":5.37508,"is_reserved":false,"is_disabled":false,"rental_uris":{"android":"levelo://app?vid=3e97ff81-5a9c-479a-9f03-e37d3c657c25","ios":"levelo://app?vid=3e97ff81-5a9c-479a-9f03-e37d3c657c25"},"vehicle_type_id":"4","last_reported":1767770240,"current_range_meters":5600,"station_id":"ce4bgh92rcd13ifvqb50","pricing_plan_id":"cebpf4jnsgd1na2vs0mg"},{"bike_id":"ea843870-d9f0-40b6-b1db-f93a09b2bdd8","system_id":"levelo_inurba_marseille","lat":43.31065,"lon":5.38353,"is_reserved":false,"is_disabled":false,"rental_uris":{"android":"levelo://app?vid=ea843870-d9f0-40b6-b1db-f93a09b2bdd8","ios":"levelo://app?vid=ea843870-d9f0-40b6-b1db-f93a09b2bdd8"},"vehicle_type_id":"4","last_reported":1767770240,"current_range_meters":6000,"station_id":"ce4bgv92rcd13ifvqcr0","pricing_plan_id":"cebpf4jnsgd1na2vs0mg"},{"bike_id":"a60e859d-20a7-4efc-ab94-0c4ccc8ad025","system_id":"levelo_inurba_marseille","lat":43.30596,"lon":5.36557,"is_reserved":false,"is_disabled":true,"rental_uris":{"android":"levelo://app?vid=a60e859d-20a7-4efc-ab94-0c4ccc8ad025","ios":"levelo://app?vid=a60e859d-20a7-4efc-ab94-0c4ccc8ad025"},"vehicle_type_id":"4","last_reported":1767770240,"current_range_meters":6000,"station_id":"ce4bgs12rcd13ifvqcag","pricing_plan_id":"cebpf4jnsgd1na2vs0mg"},{"bike_id":"4a8f2201-ba85-4240-853c-f6582b130004","system_id":"levelo_inurba_marseille","lat":43.30188,"lon":5.366,"is_reserved":false,"is_disabled":false,"rental_uris":{"android":"levelo://app?vid=4a8f2201-ba85-4240-853c-f6582b130004","ios":"levelo://app?vid=4a8f2201-ba85-4240-853c-f6582b130004"},"vehicle_type_id":"4","last_reported":1767770240,"current_range_meters":6000,"station_id":"ce4bgrh2rcd13ifvqc8g","pricing_plan_id":"cebpf4jnsgd1na2vs0mg"},{"bike_id":"b9ef9ffa-3698-4ed4-90be-ab322f6963f9","system_id":"levelo_inurba_marseille","lat":43.27914,"lon":5.39548,"is_reserved":false,"is_disabled":false,"rental_uris":{"android":"levelo://app?vid=b9ef9ffa-3698-4ed4-90be-ab322f6963f9","ios":"levelo://app?vid=b9ef9ffa-3698-4ed4-90be-ab322f6963f9"},"vehicle_type_id":"4","last_reported":1767770240,"current_range_meters":6000,"station_id":"ce4bhf92rcd13ifvqf40","pricing_plan_id":"cebpf4jnsgd1na2vs0mg"},{"bike_id":"15bf6c3d-bc89-4e44-bfe7-ef27538e093c","system_id":"levelo_inurba_marseille","lat":43.24638,"lon":5.43139,"is_reserved":false,"is_disabled":false,"rental_uris":{"android":"levelo://app?vid=15bf6c3d-bc89-4e44-bfe7-ef27538e093c","ios":"levelo://app?vid=15bf6c3d-bc89-4e44-bfe7-ef27538e093c"},"vehicle_type_id":"4","last_reported":1767770240,"current_range_meters":6000,"station_id":"st_d2m6c4gdas8pm72e190g","pricing_plan_id":"cebpf4jnsgd1na2vs0mg"},{"bike_id":"c50f334f-1e66-4878-a664-9e4a75db668f","system_id":"levelo_inurba_marseille","lat":43.31167,"lon":5.38706,"is_reserved":false,"is_disabled":false,"rental_uris":{"android":"levelo://app?vid=c50f334f-1e66-4878-a664-9e4a75db668f","ios":"levelo://app?vid=c50f334f-1e66-4878-a664-9e4a75db668f"},"vehicle_type_id":"4","last_reported":1767770240,"current_range_meters":6000,"station_id":"","pricing_plan_id":"cebpf4jnsgd1na2vs0mg"},{"bike_id":"14bc2d15-ab21-49de-92cc-66abd0ede386","system_id":"levelo_inurba_marseille","lat":43.31327,"lon":5.39691,"is_reserved":false,"is_disabled":false,"rental_uris":{"android":"levelo://app?vid=14bc2d15-ab21-49de-92cc-66abd0ede386","ios":"levelo://app?vid=14bc2d15-ab21-49de-92cc-66abd0ede386"},"vehicle_type_id":"4","last_reported":1767770240,"current_range_meters":6000,"station_id":"ce4bgvp2rcd13ifvqcu0","pricing_plan_id":"cebpf4jnsgd1na2vs0mg"},{"bike_id":"cccedf1f-544a-43fc-88c9-0f2af297f59c","system_id":"levelo_inurba_marseille","lat":43.31392,"lon":5.39268,"is_reserved":false,"is_disabled":false,"rental_uris":{"android":"levelo://app?vid=cccedf1f-544a-43fc-88c9-0f2af297f59c","ios":"levelo://app?vid=cccedf1f-544a-43fc-88c9-0f2af297f59c"},"vehicle_type_id":"4","last_reported":1767770240,"current_range_meters":6000,"station_id":"","pricing_plan_id":"cebpf4jnsgd1na2vs0mg"},{"bike_id":"e6881e64-ba8f-40f0-979a-56972fafa528","system_id":"levelo_inurba_marseille","lat":43.27502,"lon":5.42491,"is_reserved":false,"is_disabled":false,"rental_uris":{"android":"levelo://app?vid=e6881e64-ba8f-40f0-979a-56972fafa528","ios":"levelo://app?vid=e6881e64-ba8f-40f0-979a-56972fafa528"},"vehicle_type_id":"4","last_reported":1767770240,"current_range_meters":6000,"station_id":"ce4bhn92rcd13ifvqgrg","pricing_plan_id":"cebpf4jnsgd1na2vs0mg"},{"bike_id":"8cd310db-0579-4f8a-80da-3c85bf174941","system_id":"levelo_inurba_marseille","lat":43.27935,"lon":5.39648,"is_reserved":false,"is_disabled":false,"rental_uris":{"android":"levelo://app?vid=8cd310db-0579-4f8a-80da-3c85bf174941","ios":"levelo://app?vid=8cd310db-0579-4f8a-80da-3c85bf174941"},"vehicle_type_id":"4","last_reported":1767770240,"current_range_meters":6000,"station_id":"ce4bhf92rcd13ifvqf40","pricing_plan_id":"cebpf4jnsgd1na2vs0mg"},{"bike_id":"1206a4a8-f4d1-423c-a34f-7b8c1b1bbace","system_id":"levelo_inurba_marseille","lat":43.30244,"lon":5.40546,"is_reserved":false,"is_disabled":false,"rental_uris":{"android":"levelo://app?vid=1206a4a8-f4d1-423c-a34f-7b8c1b1bbace","ios":"levelo://app?vid=1206a4a8-f4d1-423c-a34f-7b8c1b1bbace"},"vehicle_type_id":"4","last_reported":1767770240,"current_range_meters":6000,"station_id":"","pricing_plan_id":"cebpf4jnsgd1na2vs0mg"},{"bike_id":"b8408ccb-17d0-4ba3-b31e-918a33cf6e7d","system_id":"levelo_inurba_marseille","lat":43.24664,"lon":5.38168,"is_reserved":false,"is_disabled":true,"rental_uris":{"android":"levelo://app?vid=b8408ccb-17d0-4ba3-b31e-918a33cf6e7d","ios":"levelo://app?vid=b8408ccb-17d0-4ba3-b31e-918a33cf6e7d"},"vehicle_type_id":"4","last_reported":1767770240,"current_range_meters":6000,"station_id":"ce4bhih2rcd13ifvqfr0","pricing_plan_id":"cebpf4jnsgd1na2vs0mg"},{"bike_id":"2176eaf1-e9c4-449b-8388-e10ccad02cce","system_id":"levelo_inurba_marseille","lat":43.29027,"lon":5.38644,"is_reserved":false,"is_disabled":false,"rental_uris":{"android":"levelo://app?vid=2176eaf1-e9c4-449b-8388-e10ccad02cce","ios":"levelo://app?vid=2176eaf1-e9c4-449b-8388-e10ccad02cce"},"vehicle_type_id":"4","last_reported":1767770240,"current_range_meters":6000,"station_id":"ce4bh4p2rcd13ifvqe0g","pricing_plan_id":"cebpf4jnsgd1na2vs0mg"},{"bike_id":"32efa4dc-2329-4928-a150-aa392815b565","system_id":"levelo_inurba_marseille","lat":43.2957,"lon":5.39975,"is_reserved":false,"is_disabled":false,"rental_uris":{"android":"levelo://app?vid=32efa4dc-2329-4928-a150-aa392815b565","ios":"levelo://app?vid=32efa4dc-2329-4928-a150-aa392815b565"},"vehicle_type_id":"4","last_reported":1767770240,"current_range_meters":6000,"station_id":"ce4bh312rcd13ifvqdj0","pricing_plan_id":"cebpf4jnsgd1na2vs0mg"},{"bike_id":"65abfba9-190a-4a23-89ee-b7e60341596f","system_id":"levelo_inurba_marseille","lat":43.28738,"lon":5.37932,"is_reserved":false,"is_disabled":false,"rental_uris":{"android":"levelo://app?vid=65abfba9-190a-4a23-89ee-b7e60341596f","ios":"levelo://app?vid=65abfba9-190a-4a23-89ee-b7e60341596f"},"vehicle_type_id":"4","last_reported":1767770240,"current_range_meters":6000,"station_id":"ce4bh9p2rcd13ifvqec0","pricing_plan_id":"cebpf4jnsgd1na2vs0mg"},{"bike_id":"06992c46-6889-40f3-a5d1-edc32d603bfb","system_id":"levelo_inurba_marseille","lat":43.286176,"lon":5.398774,"is_reserved":false,"is_disabled":false,"rental_uris":{"android":"levelo://app?vid=06992c46-6889-40f3-a5d1-edc32d603bfb","ios":"levelo://app?vid=06992c46-6889-40f3-a5d1-edc32d603bfb"},"vehicle_type_id":"4","last_reported":1767770240,"current_range_meters":6000,"station_id":"ce4bho92rcd13ifvqh3g","pricing_plan_id":"cebpf4jnsgd1na2vs0mg"},{"bike_id":"99ed8f74-4701-459c-9402-abc8a52eb125","system_id":"levelo_inurba_marseille","lat":43.30119,"lon":5.43121,"is_reserved":false,"is_disabled":false,"rental_uris":{"android":"levelo://app?vid=99ed8f74-4701-459c-9402-abc8a52eb125","ios":"levelo://app?vid=99ed8f74-4701-459c-9402-abc8a52eb125"},"vehicle_type_id":"4","last_reported":1767770240,"current_range_meters":6400,"station_id":"st_d3js3co5814s73ftftug","pricing_plan_id":"cebpf4jnsgd1na2vs0mg"},{"bike_id":"6cfe61d6-fc1a-4eb6-bdce-b76472120e6d","system_id":"levelo_inurba_marseille","lat":43.23152,"lon":5.43685,"is_reserved":false,"is_disabled":false,"rental_uris":{"android":"levelo://app?vid=6cfe61d6-fc1a-4eb6-bdce-b76472120e6d","ios":"levelo://app?vid=6cfe61d6-fc1a-4eb6-bdce-b76472120e6d"},"vehicle_type_id":"4","last_reported":1767770240,"current_range_meters":6400,"station_id":"ce4bhmp2rcd13ifvqgog","pricing_plan_id":"cebpf4jnsgd1na2vs0mg"},{"bike_id":"255f6a83-686a-42d7-b59b-0886f81cf758","system_id":"levelo_inurba_marseille","lat":43.231554,"lon":5.437023,"is_reserved":false,"is_disabled":true,"rental_uris":{"android":"levelo://app?vid=255f6a83-686a-42d7-b59b-0886f81cf758","ios":"levelo://app?vid=255f6a83-686a-42d7-b59b-0886f81cf758"},"vehicle_type_id":"4","last_reported":1767770240,"current_range_meters":6400,"station_id":"ce4bhmp2rcd13ifvqgog","pricing_plan_id":"cebpf4jnsgd1na2vs0mg"},{"bike_id":"459ee04e-7967-4830-998f-9d391834d978","system_id":"levelo_inurba_marseille","lat":43.253346,"lon":5.42182,"is_reserved":false,"is_disabled":false,"rental_uris":{"android":"levelo://app?vid=459ee04e-7967-4830-998f-9d391834d978","ios":"levelo://app?vid=459ee04e-7967-4830-998f-9d391834d978"},"vehicle_type_id":"4","last_reported":1767770240,"current_range_meters":6400,"station_id":"st_d2m65c5bi1j21697t3ng","pricing_plan_id":"cebpf4jnsgd1na2vs0mg"},{"bike_id":"a12d0214-d901-4a7d-b315-4d327e206f7f","system_id":"levelo_inurba_marseille","lat":43.26541,"lon":5.3728,"is_reserved":false,"is_disabled":false,"rental_uris":{"android":"levelo://app?vid=a12d0214-d901-4a7d-b315-4d327e206f7f","ios":"levelo://app?vid=a12d0214-d901-4a7d-b315-4d327e206f7f"},"vehicle_type_id":"4","last_reported":1767770240,"current_range_meters":6400,"station_id":"ce4bhg12rcd13ifvqf70","pricing_plan_id":"cebpf4jnsgd1na2vs0mg"},{"bike_id":"fbecbfb7-b1b4-4fe2-8b49-8108b576e60c","system_id":"levelo_inurba_marseille","lat":43.31362,"lon":5.38483,"is_reserved":false,"is_disabled":false,"rental_uris":{"android":"levelo://app?vid=fbecbfb7-b1b4-4fe2-8b49-8108b576e60c","ios":"levelo://app?vid=fbecbfb7-b1b4-4fe2-8b49-8108b576e60c"},"vehicle_type_id":"4","last_reported":1767770240,"current_range_meters":6400,"station_id":"ce4bgt92rcd13ifvqcf0","pricing_plan_id":"cebpf4jnsgd1na2vs0mg"},{"bike_id":"72ba40ff-3811-448f-9824-0a29539e09d4","system_id":"levelo_inurba_marseille","lat":43.23118,"lon":5.43683,"is_reserved":false,"is_disabled":false,"rental_uris":{"android":"levelo://app?vid=72ba40ff-3811-448f-9824-0a29539e09d4","ios":"levelo://app?vid=72ba40ff-3811-448f-9824-0a29539e09d4"},"vehicle_type_id":"4","last_reported":1767770240,"current_range_meters":6400,"station_id":"ce4bhmp2rcd13ifvqgog","pricing_plan_id":"cebpf4jnsgd1na2vs0mg"},{"bike_id":"03bb26cc-5abe-463b-b42d-df12dfc80fb1","system_id":"levelo_inurba_marseille","lat":43.28004,"lon":5.40002,"is_reserved":false,"is_disabled":false,"rental_uris":{"android":"levelo://app?vid=03bb26cc-5abe-463b-b42d-df12dfc80fb1","ios":"levelo://app?vid=03bb26cc-5abe-463b-b42d-df12dfc80fb1"},"vehicle_type_id":"4","last_reported":1767770240,"current_range_meters":6400,"station_id":"ce4bho92rcd13ifvqh4g","pricing_plan_id":"cebpf4jnsgd1na2vs0mg"},{"bike_id":"7159e6a5-a318-480f-adc2-dc04a9a524b6","system_id":"levelo_inurba_marseille","lat":43.28367,"lon":5.38633,"is_reserved":false,"is_disabled":false,"rental_uris":{"android":"levelo://app?vid=7159e6a5-a318-480f-adc2-dc04a9a524b6","ios":"levelo://app?vid=7159e6a5-a318-480f-adc2-dc04a9a524b6"},"vehicle_type_id":"4","last_reported":1767770240,"current_range_meters":6400,"station_id":"ce4bh492rcd13ifvqdvg","pricing_plan_id":"cebpf4jnsgd1na2vs0mg"},{"bike_id":"ab6fe2ee-200d-418c-a693-20bf0b5f3548","system_id":"levelo_inurba_marseille","lat":43.260668,"lon":5.393931,"is_reserved":false,"is_disabled":false,"rental_uris":{"android":"levelo://app?vid=ab6fe2ee-200d-418c-a693-20bf0b5f3548","ios":"levelo://app?vid=ab6fe2ee-200d-418c-a693-20bf0b5f3548"},"vehicle_type_id":"4","last_reported":1767770240,"current_range_meters":6400,"station_id":"","pricing_plan_id":"cebpf4jnsgd1na2vs0mg"},{"bike_id":"e9e6f93f-566e-422e-9b71-a79556ab8c5d","system_id":"levelo_inurba_marseille","lat":43.30286,"lon":5.45653,"is_reserved":false,"is_disabled":false,"rental_uris":{"android":"levelo://app?vid=e9e6f93f-566e-422e-9b71-a79556ab8c5d","ios":"levelo://app?vid=e9e6f93f-566e-422e-9b71-a79556ab8c5d"},"vehicle_type_id":"4","last_reported":1767770240,"current_range_meters":6400,"station_id":"","pricing_plan_id":"cebpf4jnsgd1na2vs0mg"},{"bike_id":"63931dd9-5e9c-4cb5-b5fe-d5d26fe59f6e","system_id":"levelo_inurba_marseille","lat":43.24168,"lon":5.36397,"is_reserved":false,"is_disabled":false,"rental_uris":{"android":"levelo://app?vid=63931dd9-5e9c-4cb5-b5fe-d5d26fe59f6e","ios":"levelo://app?vid=63931dd9-5e9c-4cb5-b5fe-d5d26fe59f6e"},"vehicle_type_id":"4","last_reported":1767770240,"current_range_meters":6400,"station_id":"cpo36qri1sfpv3e86is0","pricing_plan_id":"cebpf4jnsgd1na2vs0mg"},{"bike_id":"d7bec6dc-1994-46ce-8ce3-628467d5e3aa","system_id":"levelo_inurba_marseille","lat":43.2794,"lon":5.41047,"is_reserved":false,"is_disabled":false,"rental_uris":{"android":"levelo://app?vid=d7bec6dc-1994-46ce-8ce3-628467d5e3aa","ios":"levelo://app?vid=d7bec6dc-1994-46ce-8ce3-628467d5e3aa"},"vehicle_type_id":"4","last_reported":1767770240,"current_range_meters":6400,"station_id":"ce4bhnp2rcd13ifvqh0g","pricing_plan_id":"cebpf4jnsgd1na2vs0mg"},{"bike_id":"9664c604-c49f-4e11-935f-20095d606ade","system_id":"levelo_inurba_marseille","lat":43.27812,"lon":5.40706,"is_reserved":false,"is_disabled":false,"rental_uris":{"android":"levelo://app?vid=9664c604-c49f-4e11-935f-20095d606ade","ios":"levelo://app?vid=9664c604-c49f-4e11-935f-20095d606ade"},"vehicle_type_id":"4","last_reported":1767770240,"current_range_meters":6400,"station_id":"ce4bhnh2rcd13ifvqgtg","pricing_plan_id":"cebpf4jnsgd1na2vs0mg"},{"bike_id":"3f2f1631-23db-4e01-a38b-0daabcdf369a","system_id":"levelo_inurba_marseille","lat":43.29924,"lon":5.40297,"is_reserved":false,"is_disabled":false,"rental_uris":{"android":"levelo://app?vid=3f2f1631-23db-4e01-a38b-0daabcdf369a","ios":"levelo://app?vid=3f2f1631-23db-4e01-a38b-0daabcdf369a"},"vehicle_type_id":"4","last_reported":1767770240,"current_range_meters":6400,"station_id":"","pricing_plan_id":"cebpf4jnsgd1na2vs0mg"},{"bike_id":"7d4c6a05-ddd6-4ac1-a1da-538d6f12800a","system_id":"levelo_inurba_marseille","lat":43.288664,"lon":5.425221,"is_reserved":false,"is_disabled":true,"rental_uris":{"android":"levelo://app?vid=7d4c6a05-ddd6-4ac1-a1da-538d6f12800a","ios":"levelo://app?vid=7d4c6a05-ddd6-4ac1-a1da-538d6f12800a"},"vehicle_type_id":"4","last_reported":1767770240,"current_range_meters":6400,"station_id":"st_d3b462108ojc7389ooeg","pricing_plan_id":"cebpf4jnsgd1na2vs0mg"},{"bike_id":"4b02a8d2-87b0-4ad1-9463-8088094b1434","system_id":"levelo_inurba_marseille","lat":43.29306,"lon":5.37796,"is_reserved":false,"is_disabled":false,"rental_uris":{"android":"levelo://app?vid=4b02a8d2-87b0-4ad1-9463-8088094b1434","ios":"levelo://app?vid=4b02a8d2-87b0-4ad1-9463-8088094b1434"},"vehicle_type_id":"4","last_reported":1767770240,"current_range_meters":6400,"station_id":"","pricing_plan_id":"cebpf4jnsgd1na2vs0mg"},{"bike_id":"62cb22d9-379f-4a14-9307-a2357290642a","system_id":"levelo_inurba_marseille","lat":43.30042,"lon":5.37821,"is_reserved":false,"is_disabled":false,"rental_uris":{"android":"levelo://app?vid=62cb22d9-379f-4a14-9307-a2357290642a","ios":"levelo://app?vid=62cb22d9-379f-4a14-9307-a2357290642a"},"vehicle_type_id":"4","last_reported":1767770240,"current_range_meters":6400,"station_id":"","pricing_plan_id":"cebpf4jnsgd1na2vs0mg"},{"bike_id":"a833ec77-cb7d-4361-b834-287cd5470bbc","system_id":"levelo_inurba_marseille","lat":43.28277,"lon":5.35067,"is_reserved":false,"is_disabled":false,"rental_uris":{"android":"levelo://app?vid=a833ec77-cb7d-4361-b834-287cd5470bbc","ios":"levelo://app?vid=a833ec77-cb7d-4361-b834-287cd5470bbc"},"vehicle_type_id":"4","last_reported":1767770240,"current_range_meters":6400,"station_id":"ce4bhbp2rcd13ifvqerg","pricing_plan_id":"cebpf4jnsgd1na2vs0mg"},{"bike_id":"bc2eb7b0-bb23-4973-8afa-e645fdad0791","system_id":"levelo_inurba_marseille","lat":43.29816,"lon":5.44083,"is_reserved":false,"is_disabled":true,"rental_uris":{"android":"levelo://app?vid=bc2eb7b0-bb23-4973-8afa-e645fdad0791","ios":"levelo://app?vid=bc2eb7b0-bb23-4973-8afa-e645fdad0791"},"vehicle_type_id":"4","last_reported":1767770240,"current_range_meters":6800,"station_id":"st_d3jp68qikq2c7381ktn0","pricing_plan_id":"cebpf4jnsgd1na2vs0mg"},{"bike_id":"7f8f8133-4c5b-4469-8602-47a2aed54586","system_id":"levelo_inurba_marseille","lat":43.30296,"lon":5.43517,"is_reserved":false,"is_disabled":false,"rental_uris":{"android":"levelo://app?vid=7f8f8133-4c5b-4469-8602-47a2aed54586","ios":"levelo://app?vid=7f8f8133-4c5b-4469-8602-47a2aed54586"},"vehicle_type_id":"4","last_reported":1767770240,"current_range_meters":6800,"station_id":"","pricing_plan_id":"cebpf4jnsgd1na2vs0mg"},{"bike_id":"5b1e28d0-cfd4-4f63-bcd7-e389c7a33f6a","system_id":"levelo_inurba_marseille","lat":43.24632,"lon":5.43148,"is_reserved":false,"is_disabled":false,"rental_uris":{"android":"levelo://app?vid=5b1e28d0-cfd4-4f63-bcd7-e389c7a33f6a","ios":"levelo://app?vid=5b1e28d0-cfd4-4f63-bcd7-e389c7a33f6a"},"vehicle_type_id":"4","last_reported":1767770240,"current_range_meters":6800,"station_id":"st_d2m6c4gdas8pm72e190g","pricing_plan_id":"cebpf4jnsgd1na2vs0mg"},{"bike_id":"d4cb7d87-6e05-4a12-a6a8-801515607d75","system_id":"levelo_inurba_marseille","lat":43.32096,"lon":5.3677,"is_reserved":false,"is_disabled":false,"rental_uris":{"android":"levelo://app?vid=d4cb7d87-6e05-4a12-a6a8-801515607d75","ios":"levelo://app?vid=d4cb7d87-6e05-4a12-a6a8-801515607d75"},"vehicle_type_id":"4","last_reported":1767770240,"current_range_meters":6800,"station_id":"ce4bhrh2rcd13ifvqhug","pricing_plan_id":"cebpf4jnsgd1na2vs0mg"},{"bike_id":"be7227e2-45a4-4771-9323-92bb1a731453","system_id":"levelo_inurba_marseille","lat":43.299245,"lon":5.365315,"is_reserved":false,"is_disabled":false,"rental_uris":{"android":"levelo://app?vid=be7227e2-45a4-4771-9323-92bb1a731453","ios":"levelo://app?vid=be7227e2-45a4-4771-9323-92bb1a731453"},"vehicle_type_id":"4","last_reported":1767770240,"current_range_meters":6800,"station_id":"ce4bgm92rcd13ifvqbr0","pricing_plan_id":"cebpf4jnsgd1na2vs0mg"},{"bike_id":"3275b859-c08d-4706-afc8-86a6bdcab3a2","system_id":"levelo_inurba_marseille","lat":43.24406,"lon":5.37063,"is_reserved":false,"is_disabled":false,"rental_uris":{"android":"levelo://app?vid=3275b859-c08d-4706-afc8-86a6bdcab3a2","ios":"levelo://app?vid=3275b859-c08d-4706-afc8-86a6bdcab3a2"},"vehicle_type_id":"4","last_reported":1767770240,"current_range_meters":6800,"station_id":"ce4bhhh2rcd13ifvqfk0","pricing_plan_id":"cebpf4jnsgd1na2vs0mg"},{"bike_id":"00ea198f-1513-4ae8-9202-e0794b524e8a","system_id":"levelo_inurba_marseille","lat":43.29819,"lon":5.44043,"is_reserved":false,"is_disabled":false,"rental_uris":{"android":"levelo://app?vid=00ea198f-1513-4ae8-9202-e0794b524e8a","ios":"levelo://app?vid=00ea198f-1513-4ae8-9202-e0794b524e8a"},"vehicle_type_id":"4","last_reported":1767770240,"current_range_meters":6800,"station_id":"st_d3jp68qikq2c7381ktn0","pricing_plan_id":"cebpf4jnsgd1na2vs0mg"},{"bike_id":"05913a82-5d97-49fd-869e-011fe384b874","system_id":"levelo_inurba_marseille","lat":43.29843,"lon":5.378312,"is_reserved":false,"is_disabled":false,"rental_uris":{"android":"levelo://app?vid=05913a82-5d97-49fd-869e-011fe384b874","ios":"levelo://app?vid=05913a82-5d97-49fd-869e-011fe384b874"},"vehicle_type_id":"4","last_reported":1767770240,"current_range_meters":6800,"station_id":"","pricing_plan_id":"cebpf4jnsgd1na2vs0mg"},{"bike_id":"319f623d-4bd3-422e-938a-0641721e9b26","system_id":"levelo_inurba_marseille","lat":43.29027,"lon":5.3861,"is_reserved":false,"is_disabled":false,"rental_uris":{"android":"levelo://app?vid=319f623d-4bd3-422e-938a-0641721e9b26","ios":"levelo://app?vid=319f623d-4bd3-422e-938a-0641721e9b26"},"vehicle_type_id":"4","last_reported":1767770240,"current_range_meters":6800,"station_id":"ce4bh4p2rcd13ifvqe0g","pricing_plan_id":"cebpf4jnsgd1na2vs0mg"},{"bike_id":"25bcfc78-3f0b-4981-8911-91eda9adaaf9","system_id":"levelo_inurba_marseille","lat":43.28354,"lon":5.41659,"is_reserved":false,"is_disabled":false,"rental_uris":{"android":"levelo://app?vid=25bcfc78-3f0b-4981-8911-91eda9adaaf9","ios":"levelo://app?vid=25bcfc78-3f0b-4981-8911-91eda9adaaf9"},"vehicle_type_id":"4","last_reported":1767770240,"current_range_meters":6800,"station_id":"","pricing_plan_id":"cebpf4jnsgd1na2vs0mg"},{"bike_id":"1b7a2fca-319d-4e0f-a5a0-58a5c3ffcc52","system_id":"levelo_inurba_marseille","lat":43.2827,"lon":5.35078,"is_reserved":false,"is_disabled":false,"rental_uris":{"android":"levelo://app?vid=1b7a2fca-319d-4e0f-a5a0-58a5c3ffcc52","ios":"levelo://app?vid=1b7a2fca-319d-4e0f-a5a0-58a5c3ffcc52"},"vehicle_type_id":"4","last_reported":1767770240,"current_range_meters":6800,"station_id":"ce4bhbp2rcd13ifvqerg","pricing_plan_id":"cebpf4jnsgd1na2vs0mg"},{"bike_id":"3a1a012f-e2cb-489c-8aaa-49659e7dafd1","system_id":"levelo_inurba_marseille","lat":43.29226,"lon":5.36044,"is_reserved":false,"is_disabled":false,"rental_uris":{"android":"levelo://app?vid=3a1a012f-e2cb-489c-8aaa-49659e7dafd1","ios":"levelo://app?vid=3a1a012f-e2cb-489c-8aaa-49659e7dafd1"},"vehicle_type_id":"4","last_reported":1767770240,"current_range_meters":6800,"station_id":"ce4bhbh2rcd13ifvqeqg","pricing_plan_id":"cebpf4jnsgd1na2vs0mg"},{"bike_id":"35c3cbbb-0469-478d-b4da-bfb159e2f13b","system_id":"levelo_inurba_marseille","lat":43.2592,"lon":5.40908,"is_reserved":false,"is_disabled":true,"rental_uris":{"android":"levelo://app?vid=35c3cbbb-0469-478d-b4da-bfb159e2f13b","ios":"levelo://app?vid=35c3cbbb-0469-478d-b4da-bfb159e2f13b"},"vehicle_type_id":"4","last_reported":1767770240,"current_range_meters":6800,"station_id":"ce4bhm92rcd13ifvqglg","pricing_plan_id":"cebpf4jnsgd1na2vs0mg"},{"bike_id":"7952c2b5-458b-434c-b477-5e625fd39350","system_id":"levelo_inurba_marseille","lat":43.29072,"lon":5.38109,"is_reserved":false,"is_disabled":false,"rental_uris":{"android":"levelo://app?vid=7952c2b5-458b-434c-b477-5e625fd39350","ios":"levelo://app?vid=7952c2b5-458b-434c-b477-5e625fd39350"},"vehicle_type_id":"4","last_reported":1767770240,"current_range_meters":6800,"station_id":"ce4bh512rcd13ifvqe2g","pricing_plan_id":"cebpf4jnsgd1na2vs0mg"},{"bike_id":"3d163433-337c-4cc3-97e0-f9a58c389d22","system_id":"levelo_inurba_marseille","lat":43.2495,"lon":5.40462,"is_reserved":false,"is_disabled":false,"rental_uris":{"android":"levelo://app?vid=3d163433-337c-4cc3-97e0-f9a58c389d22","ios":"levelo://app?vid=3d163433-337c-4cc3-97e0-f9a58c389d22"},"vehicle_type_id":"4","last_reported":1767770240,"current_range_meters":6800,"station_id":"st_d2ngiaodas8pm72gd1h0","pricing_plan_id":"cebpf4jnsgd1na2vs0mg"},{"bike_id":"032b3963-2994-4f10-a389-50b512ea6caa","system_id":"levelo_inurba_marseille","lat":43.29255,"lon":5.37642,"is_reserved":false,"is_disabled":true,"rental_uris":{"android":"levelo://app?vid=032b3963-2994-4f10-a389-50b512ea6caa","ios":"levelo://app?vid=032b3963-2994-4f10-a389-50b512ea6caa"},"vehicle_type_id":"4","last_reported":1767770240,"current_range_meters":7200,"station_id":"ce4bgi12rcd13ifvqb80","pricing_plan_id":"cebpf4jnsgd1na2vs0mg"},{"bike_id":"1511a012-c085-4f38-8ab1-d9eee4c01f86","system_id":"levelo_inurba_marseille","lat":43.24168,"lon":5.36417,"is_reserved":false,"is_disabled":false,"rental_uris":{"android":"levelo://app?vid=1511a012-c085-4f38-8ab1-d9eee4c01f86","ios":"levelo://app?vid=1511a012-c085-4f38-8ab1-d9eee4c01f86"},"vehicle_type_id":"4","last_reported":1767770240,"current_range_meters":7200,"station_id":"cpo36qri1sfpv3e86is0","pricing_plan_id":"cebpf4jnsgd1na2vs0mg"},{"bike_id":"9033b937-ee7a-4715-9069-64785792c162","system_id":"levelo_inurba_marseille","lat":43.31289,"lon":5.40147,"is_reserved":false,"is_disabled":false,"rental_uris":{"android":"levelo://app?vid=9033b937-ee7a-4715-9069-64785792c162","ios":"levelo://app?vid=9033b937-ee7a-4715-9069-64785792c162"},"vehicle_type_id":"4","last_reported":1767770240,"current_range_meters":7200,"station_id":"ce4bh092rcd13ifvqd30","pricing_plan_id":"cebpf4jnsgd1na2vs0mg"},{"bike_id":"84f7691c-2bc8-49bf-9255-f72e6562e90e","system_id":"levelo_inurba_marseille","lat":43.28627,"lon":5.35113,"is_reserved":false,"is_disabled":true,"rental_uris":{"android":"levelo://app?vid=84f7691c-2bc8-49bf-9255-f72e6562e90e","ios":"levelo://app?vid=84f7691c-2bc8-49bf-9255-f72e6562e90e"},"vehicle_type_id":"4","last_reported":1767770240,"current_range_meters":7200,"station_id":"ce4bhch2rcd13ifvqeug","pricing_plan_id":"cebpf4jnsgd1na2vs0mg"},{"bike_id":"4e9944d7-ff17-431f-9506-b409b96c8161","system_id":"levelo_inurba_marseille","lat":43.25581,"lon":5.38227,"is_reserved":false,"is_disabled":false,"rental_uris":{"android":"levelo://app?vid=4e9944d7-ff17-431f-9506-b409b96c8161","ios":"levelo://app?vid=4e9944d7-ff17-431f-9506-b409b96c8161"},"vehicle_type_id":"4","last_reported":1767770240,"current_range_meters":7200,"station_id":"ce4bhih2rcd13ifvqfs0","pricing_plan_id":"cebpf4jnsgd1na2vs0mg"},{"bike_id":"0e7be8fb-8b4e-4f31-b6a9-c9720e32396b","system_id":"levelo_inurba_marseille","lat":43.26782,"lon":5.39426,"is_reserved":false,"is_disabled":false,"rental_uris":{"android":"levelo://app?vid=0e7be8fb-8b4e-4f31-b6a9-c9720e32396b","ios":"levelo://app?vid=0e7be8fb-8b4e-4f31-b6a9-c9720e32396b"},"vehicle_type_id":"4","last_reported":1767770240,"current_range_meters":7200,"station_id":"ce4bhh12rcd13ifvqfg0","pricing_plan_id":"cebpf4jnsgd1na2vs0mg"},{"bike_id":"d94a94f4-003c-473b-87bc-9cd8d9c889e2","system_id":"levelo_inurba_marseille","lat":43.32354,"lon":5.36735,"is_reserved":false,"is_disabled":false,"rental_uris":{"android":"levelo://app?vid=d94a94f4-003c-473b-87bc-9cd8d9c889e2","ios":"levelo://app?vid=d94a94f4-003c-473b-87bc-9cd8d9c889e2"},"vehicle_type_id":"4","last_reported":1767770240,"current_range_meters":7200,"station_id":"ce4bhsh2rcd13ifvqi2g","pricing_plan_id":"cebpf4jnsgd1na2vs0mg"},{"bike_id":"9eb913cd-2db4-48fc-a9eb-2256ba745c47","system_id":"levelo_inurba_marseille","lat":43.31704,"lon":5.437,"is_reserved":false,"is_disabled":false,"rental_uris":{"android":"levelo://app?vid=9eb913cd-2db4-48fc-a9eb-2256ba745c47","ios":"levelo://app?vid=9eb913cd-2db4-48fc-a9eb-2256ba745c47"},"vehicle_type_id":"4","last_reported":1767770240,"current_range_meters":7200,"station_id":"ce4bhp92rcd13ifvqhcg","pricing_plan_id":"cebpf4jnsgd1na2vs0mg"},{"bike_id":"c5a08515-36c2-4e55-b1a8-edb92b0fe596","system_id":"levelo_inurba_marseille","lat":43.27685,"lon":5.389136,"is_reserved":false,"is_disabled":false,"rental_uris":{"android":"levelo://app?vid=c5a08515-36c2-4e55-b1a8-edb92b0fe596","ios":"levelo://app?vid=c5a08515-36c2-4e55-b1a8-edb92b0fe596"},"vehicle_type_id":"4","last_reported":1767770240,"current_range_meters":7200,"station_id":"ce4bhi12rcd13ifvqfo0","pricing_plan_id":"cebpf4jnsgd1na2vs0mg"},{"bike_id":"26471476-0788-4cdb-9b4d-9f0b3e686ab5","system_id":"levelo_inurba_marseille","lat":43.31311,"lon":5.3868,"is_reserved":false,"is_disabled":false,"rental_uris":{"android":"levelo://app?vid=26471476-0788-4cdb-9b4d-9f0b3e686ab5","ios":"levelo://app?vid=26471476-0788-4cdb-9b4d-9f0b3e686ab5"},"vehicle_type_id":"4","last_reported":1767770240,"current_range_meters":7200,"station_id":"","pricing_plan_id":"cebpf4jnsgd1na2vs0mg"},{"bike_id":"7042a0e8-d2ac-44ca-802a-793de3db9458","system_id":"levelo_inurba_marseille","lat":43.31493,"lon":5.37323,"is_reserved":false,"is_disabled":false,"rental_uris":{"android":"levelo://app?vid=7042a0e8-d2ac-44ca-802a-793de3db9458","ios":"levelo://app?vid=7042a0e8-d2ac-44ca-802a-793de3db9458"},"vehicle_type_id":"4","last_reported":1767770240,"current_range_meters":7200,"station_id":"ce4bgt12rcd13ifvqcd0","pricing_plan_id":"cebpf4jnsgd1na2vs0mg"},{"bike_id":"f5e7e1f2-33c5-4813-86da-3c7d45f6a313","system_id":"levelo_inurba_marseille","lat":43.2716,"lon":5.362827,"is_reserved":false,"is_disabled":false,"rental_uris":{"android":"levelo://app?vid=f5e7e1f2-33c5-4813-86da-3c7d45f6a313","ios":"levelo://app?vid=f5e7e1f2-33c5-4813-86da-3c7d45f6a313"},"vehicle_type_id":"4","last_reported":1767770240,"current_range_meters":7200,"station_id":"","pricing_plan_id":"cebpf4jnsgd1na2vs0mg"},{"bike_id":"a31ba797-d219-4a65-a019-17190c6343b6","system_id":"levelo_inurba_marseille","lat":43.31945,"lon":5.37606,"is_reserved":false,"is_disabled":false,"rental_uris":{"android":"levelo://app?vid=a31ba797-d219-4a65-a019-17190c6343b6","ios":"levelo://app?vid=a31ba797-d219-4a65-a019-17190c6343b6"},"vehicle_type_id":"4","last_reported":1767770240,"current_range_meters":7200,"station_id":"","pricing_plan_id":"cebpf4jnsgd1na2vs0mg"},{"bike_id":"bf8126c6-abe4-46db-a96a-5ca7db55888b","system_id":"levelo_inurba_marseille","lat":43.25823,"lon":5.39434,"is_reserved":false,"is_disabled":false,"rental_uris":{"android":"levelo://app?vid=bf8126c6-abe4-46db-a96a-5ca7db55888b","ios":"levelo://app?vid=bf8126c6-abe4-46db-a96a-5ca7db55888b"},"vehicle_type_id":"4","last_reported":1767770240,"current_range_meters":7200,"station_id":"ce4bhip2rcd13ifvqft0","pricing_plan_id":"cebpf4jnsgd1na2vs0mg"},{"bike_id":"cda56e6e-b293-40ec-ba6f-729b4b4c28db","system_id":"levelo_inurba_marseille","lat":43.26786,"lon":5.39411,"is_reserved":false,"is_disabled":false,"rental_uris":{"android":"levelo://app?vid=cda56e6e-b293-40ec-ba6f-729b4b4c28db","ios":"levelo://app?vid=cda56e6e-b293-40ec-ba6f-729b4b4c28db"},"vehicle_type_id":"4","last_reported":1767770240,"current_range_meters":7200,"station_id":"ce4bhh12rcd13ifvqfg0","pricing_plan_id":"cebpf4jnsgd1na2vs0mg"},{"bike_id":"d5b0c4ed-7646-45b9-b9d3-d49c57b897b7","system_id":"levelo_inurba_marseille","lat":43.29758,"lon":5.42786,"is_reserved":false,"is_disabled":false,"rental_uris":{"android":"levelo://app?vid=d5b0c4ed-7646-45b9-b9d3-d49c57b897b7","ios":"levelo://app?vid=d5b0c4ed-7646-45b9-b9d3-d49c57b897b7"},"vehicle_type_id":"4","last_reported":1767770240,"current_range_meters":7200,"station_id":"st_d3md5207bmas73dh9klg","pricing_plan_id":"cebpf4jnsgd1na2vs0mg"},{"bike_id":"533ded1c-f64a-40a7-987e-c996af8b74ed","system_id":"levelo_inurba_marseille","lat":43.23787,"lon":5.36625,"is_reserved":false,"is_disabled":false,"rental_uris":{"android":"levelo://app?vid=533ded1c-f64a-40a7-987e-c996af8b74ed","ios":"levelo://app?vid=533ded1c-f64a-40a7-987e-c996af8b74ed"},"vehicle_type_id":"4","last_reported":1767770240,"current_range_meters":7200,"station_id":"st_d3nk18o9ro0c73en2l3g","pricing_plan_id":"cebpf4jnsgd1na2vs0mg"},{"bike_id":"1ac84a2f-834c-4512-8844-a6504078a505","system_id":"levelo_inurba_marseille","lat":43.292308,"lon":5.36073,"is_reserved":false,"is_disabled":false,"rental_uris":{"android":"levelo://app?vid=1ac84a2f-834c-4512-8844-a6504078a505","ios":"levelo://app?vid=1ac84a2f-834c-4512-8844-a6504078a505"},"vehicle_type_id":"4","last_reported":1767770240,"current_range_meters":8000,"station_id":"ce4bhbh2rcd13ifvqeqg","pricing_plan_id":"cebpf4jnsgd1na2vs0mg"},{"bike_id":"20bfaf98-2999-426d-b7f7-c7562b0dd26b","system_id":"levelo_inurba_marseille","lat":43.286205,"lon":5.351137,"is_reserved":false,"is_disabled":false,"rental_uris":{"android":"levelo://app?vid=20bfaf98-2999-426d-b7f7-c7562b0dd26b","ios":"levelo://app?vid=20bfaf98-2999-426d-b7f7-c7562b0dd26b"},"vehicle_type_id":"4","last_reported":1767770240,"current_range_meters":8000,"station_id":"ce4bhch2rcd13ifvqeug","pricing_plan_id":"cebpf4jnsgd1na2vs0mg"},{"bike_id":"4f78526f-f3f4-4a2e-a221-7b252d199c1c","system_id":"levelo_inurba_marseille","lat":43.28953,"lon":5.36368,"is_reserved":false,"is_disabled":false,"rental_uris":{"android":"levelo://app?vid=4f78526f-f3f4-4a2e-a221-7b252d199c1c","ios":"levelo://app?vid=4f78526f-f3f4-4a2e-a221-7b252d199c1c"},"vehicle_type_id":"4","last_reported":1767770240,"current_range_meters":8000,"station_id":"ce4bhc92rcd13ifvqetg","pricing_plan_id":"cebpf4jnsgd1na2vs0mg"},{"bike_id":"d293f938-06f4-47c6-ae6d-906beae764af","system_id":"levelo_inurba_marseille","lat":43.27997,"lon":5.40013,"is_reserved":false,"is_disabled":false,"rental_uris":{"android":"levelo://app?vid=d293f938-06f4-47c6-ae6d-906beae764af","ios":"levelo://app?vid=d293f938-06f4-47c6-ae6d-906beae764af"},"vehicle_type_id":"4","last_reported":1767770240,"current_range_meters":8000,"station_id":"ce4bho92rcd13ifvqh4g","pricing_plan_id":"cebpf4jnsgd1na2vs0mg"},{"bike_id":"a0baeed8-1c2d-4b3d-a98c-a841d5f11ee9","system_id":"levelo_inurba_marseille","lat":43.23149,"lon":5.43739,"is_reserved":false,"is_disabled":false,"rental_uris":{"android":"levelo://app?vid=a0baeed8-1c2d-4b3d-a98c-a841d5f11ee9","ios":"levelo://app?vid=a0baeed8-1c2d-4b3d-a98c-a841d5f11ee9"},"vehicle_type_id":"4","last_reported":1767770240,"current_range_meters":8000,"station_id":"ce4bhmp2rcd13ifvqgog","pricing_plan_id":"cebpf4jnsgd1na2vs0mg"},{"bike_id":"184adeb8-9203-4f19-b080-ca451c49fd36","system_id":"levelo_inurba_marseille","lat":43.29159,"lon":5.37164,"is_reserved":false,"is_disabled":false,"rental_uris":{"android":"levelo://app?vid=184adeb8-9203-4f19-b080-ca451c49fd36","ios":"levelo://app?vid=184adeb8-9203-4f19-b080-ca451c49fd36"},"vehicle_type_id":"4","last_reported":1767770240,"current_range_meters":8000,"station_id":"ce4bha92rcd13ifvqeh0","pricing_plan_id":"cebpf4jnsgd1na2vs0mg"},{"bike_id":"3a3979a9-13de-42fb-b2b5-459d626be407","system_id":"levelo_inurba_marseille","lat":43.26065,"lon":5.3938,"is_reserved":false,"is_disabled":false,"rental_uris":{"android":"levelo://app?vid=3a3979a9-13de-42fb-b2b5-459d626be407","ios":"levelo://app?vid=3a3979a9-13de-42fb-b2b5-459d626be407"},"vehicle_type_id":"4","last_reported":1767770240,"current_range_meters":8000,"station_id":"ce4bhh92rcd13ifvqfj0","pricing_plan_id":"cebpf4jnsgd1na2vs0mg"},{"bike_id":"faa2d6e5-3611-43a5-9ff2-659f9cb4ec4e","system_id":"levelo_inurba_marseille","lat":43.28942,"lon":5.36623,"is_reserved":false,"is_disabled":false,"rental_uris":{"android":"levelo://app?vid=faa2d6e5-3611-43a5-9ff2-659f9cb4ec4e","ios":"levelo://app?vid=faa2d6e5-3611-43a5-9ff2-659f9cb4ec4e"},"vehicle_type_id":"4","last_reported":1767770240,"current_range_meters":8000,"station_id":"ce4bhap2rcd13ifvqek0","pricing_plan_id":"cebpf4jnsgd1na2vs0mg"},{"bike_id":"754e4108-4c57-4763-b08c-1bdebeea8ce2","system_id":"levelo_inurba_marseille","lat":43.28685,"lon":5.386,"is_reserved":false,"is_disabled":false,"rental_uris":{"android":"levelo://app?vid=754e4108-4c57-4763-b08c-1bdebeea8ce2","ios":"levelo://app?vid=754e4108-4c57-4763-b08c-1bdebeea8ce2"},"vehicle_type_id":"4","last_reported":1767770240,"current_range_meters":8000,"station_id":"","pricing_plan_id":"cebpf4jnsgd1na2vs0mg"},{"bike_id":"29a48381-8f9e-4811-9ddb-836ae859e822","system_id":"levelo_inurba_marseille","lat":43.26939,"lon":5.40247,"is_reserved":false,"is_disabled":false,"rental_uris":{"android":"levelo://app?vid=29a48381-8f9e-4811-9ddb-836ae859e822","ios":"levelo://app?vid=29a48381-8f9e-4811-9ddb-836ae859e822"},"vehicle_type_id":"4","last_reported":1767770240,"current_range_meters":8000,"station_id":"cjm6bp8fraef2m0cb0m0","pricing_plan_id":"cebpf4jnsgd1na2vs0mg"},{"bike_id":"6174981e-bed3-4bbe-a3fa-13b0fcc75de4","system_id":"levelo_inurba_marseille","lat":43.23137,"lon":5.43708,"is_reserved":false,"is_disabled":true,"rental_uris":{"android":"levelo://app?vid=6174981e-bed3-4bbe-a3fa-13b0fcc75de4","ios":"levelo://app?vid=6174981e-bed3-4bbe-a3fa-13b0fcc75de4"},"vehicle_type_id":"4","last_reported":1767770240,"current_range_meters":8000,"station_id":"ce4bhmp2rcd13ifvqgog","pricing_plan_id":"cebpf4jnsgd1na2vs0mg"},{"bike_id":"0076bf2a-ba6e-491e-990e-dad36b9a258b","system_id":"levelo_inurba_marseille","lat":43.304491,"lon":5.389168,"is_reserved":false,"is_disabled":true,"rental_uris":{"android":"levelo://app?vid=0076bf2a-ba6e-491e-990e-dad36b9a258b","ios":"levelo://app?vid=0076bf2a-ba6e-491e-990e-dad36b9a258b"},"vehicle_type_id":"4","last_reported":1767770240,"current_range_meters":8000,"station_id":"ce4bgk12rcd13ifvqbi0","pricing_plan_id":"cebpf4jnsgd1na2vs0mg"},{"bike_id":"5b5ca257-9733-4cb7-a39c-40399bbf5ca0","system_id":"levelo_inurba_marseille","lat":43.25508,"lon":5.37647,"is_reserved":false,"is_disabled":false,"rental_uris":{"android":"levelo://app?vid=5b5ca257-9733-4cb7-a39c-40399bbf5ca0","ios":"levelo://app?vid=5b5ca257-9733-4cb7-a39c-40399bbf5ca0"},"vehicle_type_id":"4","last_reported":1767770240,"current_range_meters":8000,"station_id":"ce4bhh12rcd13ifvqff0","pricing_plan_id":"cebpf4jnsgd1na2vs0mg"},{"bike_id":"fa22967a-e8a3-4285-a901-cb3fb5280fde","system_id":"levelo_inurba_marseille","lat":43.30375,"lon":5.4247,"is_reserved":false,"is_disabled":false,"rental_uris":{"android":"levelo://app?vid=fa22967a-e8a3-4285-a901-cb3fb5280fde","ios":"levelo://app?vid=fa22967a-e8a3-4285-a901-cb3fb5280fde"},"vehicle_type_id":"4","last_reported":1767770240,"current_range_meters":8000,"station_id":"ce4bhoh2rcd13ifvqh6g","pricing_plan_id":"cebpf4jnsgd1na2vs0mg"},{"bike_id":"d4cbef63-1fc9-41d6-b9a4-8191aeb0fd74","system_id":"levelo_inurba_marseille","lat":43.30173,"lon":5.38038,"is_reserved":false,"is_disabled":false,"rental_uris":{"android":"levelo://app?vid=d4cbef63-1fc9-41d6-b9a4-8191aeb0fd74","ios":"levelo://app?vid=d4cbef63-1fc9-41d6-b9a4-8191aeb0fd74"},"vehicle_type_id":"4","last_reported":1767770240,"current_range_meters":8000,"station_id":"","pricing_plan_id":"cebpf4jnsgd1na2vs0mg"},{"bike_id":"8120dcd1-aeba-4da3-b3a6-5919c684828d","system_id":"levelo_inurba_marseille","lat":43.285686,"lon":5.394855,"is_reserved":false,"is_disabled":false,"rental_uris":{"android":"levelo://app?vid=8120dcd1-aeba-4da3-b3a6-5919c684828d","ios":"levelo://app?vid=8120dcd1-aeba-4da3-b3a6-5919c684828d"},"vehicle_type_id":"4","last_reported":1767770240,"current_range_meters":8000,"station_id":"ce4bh292rcd13ifvqdg0","pricing_plan_id":"cebpf4jnsgd1na2vs0mg"},{"bike_id":"ec9151c6-ee9c-4077-aff2-0feb9119b58e","system_id":"levelo_inurba_marseille","lat":43.2706,"lon":5.40046,"is_reserved":false,"is_disabled":false,"rental_uris":{"android":"levelo://app?vid=ec9151c6-ee9c-4077-aff2-0feb9119b58e","ios":"levelo://app?vid=ec9151c6-ee9c-4077-aff2-0feb9119b58e"},"vehicle_type_id":"4","last_reported":1767770240,"current_range_meters":8000,"station_id":"","pricing_plan_id":"cebpf4jnsgd1na2vs0mg"},{"bike_id":"0622f7c5-ee76-4fc8-a5df-57e2aa3c0085","system_id":"levelo_inurba_marseille","lat":43.29922,"lon":5.38064,"is_reserved":false,"is_disabled":false,"rental_uris":{"android":"levelo://app?vid=0622f7c5-ee76-4fc8-a5df-57e2aa3c0085","ios":"levelo://app?vid=0622f7c5-ee76-4fc8-a5df-57e2aa3c0085"},"vehicle_type_id":"4","last_reported":1767770240,"current_range_meters":8400,"station_id":"","pricing_plan_id":"cebpf4jnsgd1na2vs0mg"},{"bike_id":"d4aa93f0-043b-4bba-9e4c-d0386c2a86d0","system_id":"levelo_inurba_marseille","lat":43.23749,"lon":5.36629,"is_reserved":false,"is_disabled":false,"rental_uris":{"android":"levelo://app?vid=d4aa93f0-043b-4bba-9e4c-d0386c2a86d0","ios":"levelo://app?vid=d4aa93f0-043b-4bba-9e4c-d0386c2a86d0"},"vehicle_type_id":"4","last_reported":1767770240,"current_range_meters":8400,"station_id":"st_d3nk18o9ro0c73en2l3g","pricing_plan_id":"cebpf4jnsgd1na2vs0mg"},{"bike_id":"37dc455b-6bec-4838-8bba-f2eb31c9a25b","system_id":"levelo_inurba_marseille","lat":43.255843,"lon":5.382352,"is_reserved":false,"is_disabled":false,"rental_uris":{"android":"levelo://app?vid=37dc455b-6bec-4838-8bba-f2eb31c9a25b","ios":"levelo://app?vid=37dc455b-6bec-4838-8bba-f2eb31c9a25b"},"vehicle_type_id":"4","last_reported":1767770240,"current_range_meters":8400,"station_id":"ce4bhih2rcd13ifvqfs0","pricing_plan_id":"cebpf4jnsgd1na2vs0mg"},{"bike_id":"49e0a916-8db4-493b-a560-b1ad67fc5840","system_id":"levelo_inurba_marseille","lat":43.29632,"lon":5.40596,"is_reserved":false,"is_disabled":false,"rental_uris":{"android":"levelo://app?vid=49e0a916-8db4-493b-a560-b1ad67fc5840","ios":"levelo://app?vid=49e0a916-8db4-493b-a560-b1ad67fc5840"},"vehicle_type_id":"4","last_reported":1767770240,"current_range_meters":8400,"station_id":"ce4bh0h2rcd13ifvqd60","pricing_plan_id":"cebpf4jnsgd1na2vs0mg"},{"bike_id":"9cab1035-5ac9-40f7-92e8-0cdafd2863ee","system_id":"levelo_inurba_marseille","lat":43.31495,"lon":5.37304,"is_reserved":false,"is_disabled":false,"rental_uris":{"android":"levelo://app?vid=9cab1035-5ac9-40f7-92e8-0cdafd2863ee","ios":"levelo://app?vid=9cab1035-5ac9-40f7-92e8-0cdafd2863ee"},"vehicle_type_id":"4","last_reported":1767770240,"current_range_meters":8400,"station_id":"ce4bgt12rcd13ifvqcd0","pricing_plan_id":"cebpf4jnsgd1na2vs0mg"},{"bike_id":"067ca337-309a-4444-a755-1124e864d8c9","system_id":"levelo_inurba_marseille","lat":43.29515,"lon":5.39404,"is_reserved":false,"is_disabled":true,"rental_uris":{"android":"levelo://app?vid=067ca337-309a-4444-a755-1124e864d8c9","ios":"levelo://app?vid=067ca337-309a-4444-a755-1124e864d8c9"},"vehicle_type_id":"4","last_reported":1767770240,"current_range_meters":8400,"station_id":"ce4bh292rcd13ifvqdf0","pricing_plan_id":"cebpf4jnsgd1na2vs0mg"},{"bike_id":"44fa942a-7f3c-4db8-b498-e46e05b08cc0","system_id":"levelo_inurba_marseille","lat":43.26451,"lon":5.39581,"is_reserved":false,"is_disabled":false,"rental_uris":{"android":"levelo://app?vid=44fa942a-7f3c-4db8-b498-e46e05b08cc0","ios":"levelo://app?vid=44fa942a-7f3c-4db8-b498-e46e05b08cc0"},"vehicle_type_id":"4","last_reported":1767770240,"current_range_meters":8400,"station_id":"","pricing_plan_id":"cebpf4jnsgd1na2vs0mg"},{"bike_id":"44833d54-0e08-4546-b788-0c7150b05378","system_id":"levelo_inurba_marseille","lat":43.28483,"lon":5.48393,"is_reserved":false,"is_disabled":false,"rental_uris":{"android":"levelo://app?vid=44833d54-0e08-4546-b788-0c7150b05378","ios":"levelo://app?vid=44833d54-0e08-4546-b788-0c7150b05378"},"vehicle_type_id":"4","last_reported":1767770240,"current_range_meters":8400,"station_id":"st_d3svhcjqgbts73a3dn0g","pricing_plan_id":"cebpf4jnsgd1na2vs0mg"},{"bike_id":"634b7164-acd6-4c9b-9271-d5df5ae7b888","system_id":"levelo_inurba_marseille","lat":43.31324,"lon":5.39721,"is_reserved":false,"is_disabled":false,"rental_uris":{"android":"levelo://app?vid=634b7164-acd6-4c9b-9271-d5df5ae7b888","ios":"levelo://app?vid=634b7164-acd6-4c9b-9271-d5df5ae7b888"},"vehicle_type_id":"4","last_reported":1767770240,"current_range_meters":8400,"station_id":"ce4bgvp2rcd13ifvqcu0","pricing_plan_id":"cebpf4jnsgd1na2vs0mg"},{"bike_id":"990829c5-72c3-49fa-a9fc-41696aef8e3c","system_id":"levelo_inurba_marseille","lat":43.28275,"lon":5.35072,"is_reserved":false,"is_disabled":false,"rental_uris":{"android":"levelo://app?vid=990829c5-72c3-49fa-a9fc-41696aef8e3c","ios":"levelo://app?vid=990829c5-72c3-49fa-a9fc-41696aef8e3c"},"vehicle_type_id":"4","last_reported":1767770240,"current_range_meters":8400,"station_id":"ce4bhbp2rcd13ifvqerg","pricing_plan_id":"cebpf4jnsgd1na2vs0mg"},{"bike_id":"28119d97-7102-4d29-b6d8-83d7d4b56a13","system_id":"levelo_inurba_marseille","lat":43.32359,"lon":5.36747,"is_reserved":false,"is_disabled":false,"rental_uris":{"android":"levelo://app?vid=28119d97-7102-4d29-b6d8-83d7d4b56a13","ios":"levelo://app?vid=28119d97-7102-4d29-b6d8-83d7d4b56a13"},"vehicle_type_id":"4","last_reported":1767770240,"current_range_meters":8400,"station_id":"ce4bhsh2rcd13ifvqi2g","pricing_plan_id":"cebpf4jnsgd1na2vs0mg"},{"bike_id":"1a702175-24e6-4f15-a0c9-a9b09ab8e967","system_id":"levelo_inurba_marseille","lat":43.30251,"lon":5.40062,"is_reserved":false,"is_disabled":false,"rental_uris":{"android":"levelo://app?vid=1a702175-24e6-4f15-a0c9-a9b09ab8e967","ios":"levelo://app?vid=1a702175-24e6-4f15-a0c9-a9b09ab8e967"},"vehicle_type_id":"4","last_reported":1767770240,"current_range_meters":8400,"station_id":"ce4bgvh2rcd13ifvqcs0","pricing_plan_id":"cebpf4jnsgd1na2vs0mg"},{"bike_id":"98249e23-d727-42e2-bc64-1013f35aedc9","system_id":"levelo_inurba_marseille","lat":43.23065,"lon":5.35484,"is_reserved":false,"is_disabled":false,"rental_uris":{"android":"levelo://app?vid=98249e23-d727-42e2-bc64-1013f35aedc9","ios":"levelo://app?vid=98249e23-d727-42e2-bc64-1013f35aedc9"},"vehicle_type_id":"4","last_reported":1767770240,"current_range_meters":8800,"station_id":"cpo3342slgdg3j2ifvpg","pricing_plan_id":"cebpf4jnsgd1na2vs0mg"},{"bike_id":"865283d9-7468-4c7f-b0c5-3cfacbe37880","system_id":"levelo_inurba_marseille","lat":43.26039,"lon":5.37597,"is_reserved":false,"is_disabled":false,"rental_uris":{"android":"levelo://app?vid=865283d9-7468-4c7f-b0c5-3cfacbe37880","ios":"levelo://app?vid=865283d9-7468-4c7f-b0c5-3cfacbe37880"},"vehicle_type_id":"4","last_reported":1767770240,"current_range_meters":8800,"station_id":"ce4bhgh2rcd13ifvqfa0","pricing_plan_id":"cebpf4jnsgd1na2vs0mg"},{"bike_id":"52062012-9a90-4b34-98f1-f93fa9f05ca3","system_id":"levelo_inurba_marseille","lat":43.291572,"lon":5.37163,"is_reserved":false,"is_disabled":false,"rental_uris":{"android":"levelo://app?vid=52062012-9a90-4b34-98f1-f93fa9f05ca3","ios":"levelo://app?vid=52062012-9a90-4b34-98f1-f93fa9f05ca3"},"vehicle_type_id":"4","last_reported":1767770240,"current_range_meters":8800,"station_id":"ce4bha92rcd13ifvqeh0","pricing_plan_id":"cebpf4jnsgd1na2vs0mg"},{"bike_id":"d563daa9-a26a-468e-96ac-aa24a58d4870","system_id":"levelo_inurba_marseille","lat":43.27228,"lon":5.39181,"is_reserved":false,"is_disabled":false,"rental_uris":{"android":"levelo://app?vid=d563daa9-a26a-468e-96ac-aa24a58d4870","ios":"levelo://app?vid=d563daa9-a26a-468e-96ac-aa24a58d4870"},"vehicle_type_id":"4","last_reported":1767770240,"current_range_meters":8800,"station_id":"ce4bhhp2rcd13ifvqfm0","pricing_plan_id":"cebpf4jnsgd1na2vs0mg"},{"bike_id":"cb4606a4-ce77-419c-9379-1b48a89b0fcb","system_id":"levelo_inurba_marseille","lat":43.29034,"lon":5.39954,"is_reserved":false,"is_disabled":false,"rental_uris":{"android":"levelo://app?vid=cb4606a4-ce77-419c-9379-1b48a89b0fcb","ios":"levelo://app?vid=cb4606a4-ce77-419c-9379-1b48a89b0fcb"},"vehicle_type_id":"4","last_reported":1767770240,"current_range_meters":8800,"station_id":"ce4bh392rcd13ifvqdm0","pricing_plan_id":"cebpf4jnsgd1na2vs0mg"},{"bike_id":"f9694d4b-6e2f-4fc5-ae06-59dad6b1ea4d","system_id":"levelo_inurba_marseille","lat":43.25025,"lon":5.3754,"is_reserved":false,"is_disabled":false,"rental_uris":{"android":"levelo://app?vid=f9694d4b-6e2f-4fc5-ae06-59dad6b1ea4d","ios":"levelo://app?vid=f9694d4b-6e2f-4fc5-ae06-59dad6b1ea4d"},"vehicle_type_id":"4","last_reported":1767770240,"current_range_meters":8800,"station_id":"","pricing_plan_id":"cebpf4jnsgd1na2vs0mg"},{"bike_id":"42d7f82f-3557-4ba7-9974-9f02193f22cc","system_id":"levelo_inurba_marseille","lat":43.295262,"lon":5.375011,"is_reserved":false,"is_disabled":true,"rental_uris":{"android":"levelo://app?vid=42d7f82f-3557-4ba7-9974-9f02193f22cc","ios":"levelo://app?vid=42d7f82f-3557-4ba7-9974-9f02193f22cc"},"vehicle_type_id":"4","last_reported":1767770240,"current_range_meters":8800,"station_id":"","pricing_plan_id":"cebpf4jnsgd1na2vs0mg"},{"bike_id":"eec7f246-2540-4ab7-b168-ea7ca4ebb9e0","system_id":"levelo_inurba_marseille","lat":43.31354,"lon":5.36829,"is_reserved":false,"is_disabled":false,"rental_uris":{"android":"levelo://app?vid=eec7f246-2540-4ab7-b168-ea7ca4ebb9e0","ios":"levelo://app?vid=eec7f246-2540-4ab7-b168-ea7ca4ebb9e0"},"vehicle_type_id":"4","last_reported":1767770240,"current_range_meters":8800,"station_id":"ce4bgr92rcd13ifvqc6g","pricing_plan_id":"cebpf4jnsgd1na2vs0mg"},{"bike_id":"7f02b20f-408c-4532-a1ac-7448b382eced","system_id":"levelo_inurba_marseille","lat":43.29613,"lon":5.37725,"is_reserved":false,"is_disabled":false,"rental_uris":{"android":"levelo://app?vid=7f02b20f-408c-4532-a1ac-7448b382eced","ios":"levelo://app?vid=7f02b20f-408c-4532-a1ac-7448b382eced"},"vehicle_type_id":"4","last_reported":1767770240,"current_range_meters":8800,"station_id":"ce4bgi92rcd13ifvqb90","pricing_plan_id":"cebpf4jnsgd1na2vs0mg"},{"bike_id":"6161915a-379c-47d1-a0b6-32b98cda77f1","system_id":"levelo_inurba_marseille","lat":43.32444,"lon":5.38953,"is_reserved":false,"is_disabled":false,"rental_uris":{"android":"levelo://app?vid=6161915a-379c-47d1-a0b6-32b98cda77f1","ios":"levelo://app?vid=6161915a-379c-47d1-a0b6-32b98cda77f1"},"vehicle_type_id":"4","last_reported":1767770240,"current_range_meters":8800,"station_id":"","pricing_plan_id":"cebpf4jnsgd1na2vs0mg"},{"bike_id":"7fc53fa6-f85c-423c-86d5-704a6cda6137","system_id":"levelo_inurba_marseille","lat":43.31248,"lon":5.36887,"is_reserved":false,"is_disabled":false,"rental_uris":{"android":"levelo://app?vid=7fc53fa6-f85c-423c-86d5-704a6cda6137","ios":"levelo://app?vid=7fc53fa6-f85c-423c-86d5-704a6cda6137"},"vehicle_type_id":"4","last_reported":1767770240,"current_range_meters":8800,"station_id":"ce4bgl92rcd13ifvqbq0","pricing_plan_id":"cebpf4jnsgd1na2vs0mg"},{"bike_id":"c0c8695a-5dc1-437f-a20b-09acef88b652","system_id":"levelo_inurba_marseille","lat":43.28338,"lon":5.3507,"is_reserved":false,"is_disabled":false,"rental_uris":{"android":"levelo://app?vid=c0c8695a-5dc1-437f-a20b-09acef88b652","ios":"levelo://app?vid=c0c8695a-5dc1-437f-a20b-09acef88b652"},"vehicle_type_id":"4","last_reported":1767770240,"current_range_meters":8800,"station_id":"","pricing_plan_id":"cebpf4jnsgd1na2vs0mg"},{"bike_id":"f323eec5-f654-4bdf-8118-8c8db52565b4","system_id":"levelo_inurba_marseille","lat":43.28489,"lon":5.38605,"is_reserved":false,"is_disabled":false,"rental_uris":{"android":"levelo://app?vid=f323eec5-f654-4bdf-8118-8c8db52565b4","ios":"levelo://app?vid=f323eec5-f654-4bdf-8118-8c8db52565b4"},"vehicle_type_id":"4","last_reported":1767770240,"current_range_meters":8800,"station_id":"ce4bh8p2rcd13ifvqeb0","pricing_plan_id":"cebpf4jnsgd1na2vs0mg"},{"bike_id":"a7387282-9e33-4958-afd3-355b27e2e829","system_id":"levelo_inurba_marseille","lat":43.28492,"lon":5.38471,"is_reserved":false,"is_disabled":false,"rental_uris":{"android":"levelo://app?vid=a7387282-9e33-4958-afd3-355b27e2e829","ios":"levelo://app?vid=a7387282-9e33-4958-afd3-355b27e2e829"},"vehicle_type_id":"4","last_reported":1767770240,"current_range_meters":8800,"station_id":"ce4bh512rcd13ifvqe3g","pricing_plan_id":"cebpf4jnsgd1na2vs0mg"},{"bike_id":"2222c147-0e76-4b7d-9331-971493fb6f69","system_id":"levelo_inurba_marseille","lat":43.30154,"lon":5.3806,"is_reserved":false,"is_disabled":false,"rental_uris":{"android":"levelo://app?vid=2222c147-0e76-4b7d-9331-971493fb6f69","ios":"levelo://app?vid=2222c147-0e76-4b7d-9331-971493fb6f69"},"vehicle_type_id":"4","last_reported":1767770240,"current_range_meters":8800,"station_id":"ce4bgjp2rcd13ifvqbh0","pricing_plan_id":"cebpf4jnsgd1na2vs0mg"},{"bike_id":"84bf8d34-d2d1-47c4-aefa-979970cfa538","system_id":"levelo_inurba_marseille","lat":43.28432,"lon":5.39191,"is_reserved":false,"is_disabled":false,"rental_uris":{"android":"levelo://app?vid=84bf8d34-d2d1-47c4-aefa-979970cfa538","ios":"levelo://app?vid=84bf8d34-d2d1-47c4-aefa-979970cfa538"},"vehicle_type_id":"4","last_reported":1767770240,"current_range_meters":8800,"station_id":"ce4bhoh2rcd13ifvqh5g","pricing_plan_id":"cebpf4jnsgd1na2vs0mg"},{"bike_id":"6cd0c25a-d20d-4e78-a9c0-5ec76bc6972d","system_id":"levelo_inurba_marseille","lat":43.2987,"lon":5.39731,"is_reserved":false,"is_disabled":false,"rental_uris":{"android":"levelo://app?vid=6cd0c25a-d20d-4e78-a9c0-5ec76bc6972d","ios":"levelo://app?vid=6cd0c25a-d20d-4e78-a9c0-5ec76bc6972d"},"vehicle_type_id":"4","last_reported":1767770240,"current_range_meters":8800,"station_id":"ce4bh0h2rcd13ifvqd50","pricing_plan_id":"cebpf4jnsgd1na2vs0mg"},{"bike_id":"bf3c5452-0238-43e2-b338-8c19911c88fc","system_id":"levelo_inurba_marseille","lat":43.22533,"lon":5.348305,"is_reserved":false,"is_disabled":false,"rental_uris":{"android":"levelo://app?vid=bf3c5452-0238-43e2-b338-8c19911c88fc","ios":"levelo://app?vid=bf3c5452-0238-43e2-b338-8c19911c88fc"},"vehicle_type_id":"4","last_reported":1767770240,"current_range_meters":8800,"station_id":"st_cvj6r9ubvosntc0bgbag","pricing_plan_id":"cebpf4jnsgd1na2vs0mg"},{"bike_id":"35f085a3-e56f-4686-aebb-d9e576fd73b4","system_id":"levelo_inurba_marseille","lat":43.28463,"lon":5.3591,"is_reserved":false,"is_disabled":true,"rental_uris":{"android":"levelo://app?vid=35f085a3-e56f-4686-aebb-d9e576fd73b4","ios":"levelo://app?vid=35f085a3-e56f-4686-aebb-d9e576fd73b4"},"vehicle_type_id":"4","last_reported":1767770240,"current_range_meters":8800,"station_id":"ce4bhah2rcd13ifvqei0","pricing_plan_id":"cebpf4jnsgd1na2vs0mg"},{"bike_id":"6dc6dc35-6139-4f0f-9496-d911fe9feb49","system_id":"levelo_inurba_marseille","lat":43.30163,"lon":5.38103,"is_reserved":false,"is_disabled":false,"rental_uris":{"android":"levelo://app?vid=6dc6dc35-6139-4f0f-9496-d911fe9feb49","ios":"levelo://app?vid=6dc6dc35-6139-4f0f-9496-d911fe9feb49"},"vehicle_type_id":"4","last_reported":1767770240,"current_range_meters":8800,"station_id":"ce4bgjp2rcd13ifvqbh0","pricing_plan_id":"cebpf4jnsgd1na2vs0mg"},{"bike_id":"663c6ec3-cdff-49a2-861d-91b77b2f8ef0","system_id":"levelo_inurba_marseille","lat":43.26345,"lon":5.40121,"is_reserved":false,"is_disabled":false,"rental_uris":{"android":"levelo://app?vid=663c6ec3-cdff-49a2-861d-91b77b2f8ef0","ios":"levelo://app?vid=663c6ec3-cdff-49a2-861d-91b77b2f8ef0"},"vehicle_type_id":"4","last_reported":1767770240,"current_range_meters":8800,"station_id":"","pricing_plan_id":"cebpf4jnsgd1na2vs0mg"},{"bike_id":"fff3f068-c1e3-4ab2-a40f-e4ac951b41a1","system_id":"levelo_inurba_marseille","lat":43.25825,"lon":5.39411,"is_reserved":false,"is_disabled":false,"rental_uris":{"android":"levelo://app?vid=fff3f068-c1e3-4ab2-a40f-e4ac951b41a1","ios":"levelo://app?vid=fff3f068-c1e3-4ab2-a40f-e4ac951b41a1"},"vehicle_type_id":"4","last_reported":1767770240,"current_range_meters":9200,"station_id":"ce4bhip2rcd13ifvqft0","pricing_plan_id":"cebpf4jnsgd1na2vs0mg"},{"bike_id":"86efcdb8-cda0-4c8f-bbc1-2c0a94a5dc3b","system_id":"levelo_inurba_marseille","lat":43.28484,"lon":5.38417,"is_reserved":false,"is_disabled":false,"rental_uris":{"android":"levelo://app?vid=86efcdb8-cda0-4c8f-bbc1-2c0a94a5dc3b","ios":"levelo://app?vid=86efcdb8-cda0-4c8f-bbc1-2c0a94a5dc3b"},"vehicle_type_id":"4","last_reported":1767770240,"current_range_meters":9200,"station_id":"ce4bh512rcd13ifvqe3g","pricing_plan_id":"cebpf4jnsgd1na2vs0mg"},