{"last_updated":1737810636,"ttl":60,"version":"2.2","data":{"bikes":[{"bike_id":"e8bc2939-1915-4b1a-8a90-549fa526f797","system_id":"levelo_inurba_marseille","lat":43.27395,"lon":5.39406,"is_reserved":false,"is_disabled":false,"rental_uris":{"android":"levelo://app?vid=e8bc2939-1915-4b1a-8a90-549fa526f797","ios":"levelo://app?vid=e8bc2939-1915-4b1a-8a90-549fa526f797"},"vehicle_type_id":"4","last_reported":1737810636,"current_range_meters":39200,"station_id":"ce4bhdp2rcd13ifvqf20","pricing_plan_id":"cebpf4jnsgd1na2vs0mg"},{"bike_id":"3d6c289e-6dc3-481e-8bf2-166ad02c9639","system_id":"levelo_inurba_marseille","lat":43.29029,"lon":5.38138,"is_reserved":false,"is_disabled":false,"rental_uris":{"android":"levelo://app?vid=3d6c289e-6dc3-481e-8bf2-166ad02c9639","ios":"levelo://app?vid=3d6c289e-6dc3-481e-8bf2-166ad02c9639"},"vehicle_type_id":"4","last_reported":1737810636,"current_range_meters":36800,"station_id":"ce4bh4p2rcd13ifvqe1g","pricing_plan_id":"cebpf4jnsgd1na2vs0mg"},{"bike_id":"22fdda07-29f7-4097-aa7c-457566d3caba","system_id":"levelo_inurba_marseille","lat":43.25081,"lon":5.39538,"is_reserved":false,"is_disabled":false,"rental_uris":{"android":"levelo://app?vid=22fdda07-29f7-4097-aa7c-457566d3caba","ios":"levelo://app?vid=22fdda07-29f7-4097-aa7c-457566d3caba"},"vehicle_type_id":"4","last_reported":1737810636,"current_range_meters":29600,"station_id":"ce4bhm12rcd13ifvqgkg","pricing_plan_id":"cebpf4jnsgd1na2vs0mg"},{"bike_id":"24c8250c-eb7d-40ca-8ad3-6231454ffa69","system_id":"levelo_inurba_marseille","lat":43.28716,"lon":5.36096,"is_reserved":false,"is_disabled":false,"rental_uris":{"android":"levelo://app?vid=24c8250c-eb7d-40ca-8ad3-6231454ffa69","ios":"levelo://app?vid=24c8250c-eb7d-40ca-8ad3-6231454ffa69"},"vehicle_type_id":"4","last_reported":1737810636,"current_range_meters":38800,"station_id":"cki0cbj6b192h4jlfktg","pricing_plan_id":"cebpf4jnsgd1na2vs0mg"},{"bike_id":"8c964ee4-38c3-4de8-9045-d32f4c643923","system_id":"levelo_inurba_marseille","lat":43.29893,"lon":5.37474,"is_reserved":false,"is_disabled":false,"rental_uris":{"android":"levelo://app?vid=8c964ee4-38c3-4de8-9045-d32f4c643923","ios":"levelo://app?vid=8c964ee4-38c3-4de8-9045-d32f4c643923"},"vehicle_type_id":"4","last_reported":1737810636,"current_range_meters":39200,"station_id":"ce4bgjh2rcd13ifvqbg0","pricing_plan_id":"cebpf4jnsgd1na2vs0mg"},{"bike_id":"f27962d7-2fd4-4794-b771-0341224112da","system_id":"levelo_inurba_marseille","lat":43.26576,"lon":5.39049,"is_reserved":false,"is_disabled":false,"rental_uris":{"android":"levelo://app?vid=f27962d7-2fd4-4794-b771-0341224112da","ios":"levelo://app?vid=f27962d7-2fd4-4794-b771-0341224112da"},"vehicle_type_id":"4","last_reported":1737810636,"current_range_meters":14800,"station_id":"ce4bhe12rcd13ifvqf30","pricing_plan_id":"cebpf4jnsgd1na2vs0mg"},{"bike_id":"58d9e3df-28a3-4560-b2cd-4d33fefbd544","system_id":"levelo_inurba_marseille","lat":43.28349,"lon":5.38116,"is_reserved":false,"is_disabled":true,"rental_uris":{"android":"levelo://app?vid=58d9e3df-28a3-4560-b2cd-4d33fefbd544","ios":"levelo://app?vid=58d9e3df-28a3-4560-b2cd-4d33fefbd544"},"vehicle_type_id":"4","last_reported":1737810636,"current_range_meters":22800,"station_id":"ce4bh412rcd13ifvqdr0","pricing_plan_id":"cebpf4jnsgd1na2vs0mg"},{"bike_id":"0793f05d-0029-4d54-a0fe-9c0436426db5","system_id":"levelo_inurba_marseille","lat":43.23198,"lon":5.35556,"is_reserved":false,"is_disabled":false,"rental_uris":{"android":"levelo://app?vid=0793f05d-0029-4d54-a0fe-9c0436426db5","ios":"levelo://app?vid=0793f05d-0029-4d54-a0fe-9c0436426db5"},"vehicle_type_id":"4","last_reported":1737810636,"current_range_meters":38800,"station_id":"ce4bhu92rcd13ifvqi70","pricing_plan_id":"cebpf4jnsgd1na2vs0mg"},{"bike_id":"2e69219e-a32a-45dd-bfbe-a39a3389fa1c","system_id":"levelo_inurba_marseille","lat":43.25088,"lon":5.39519,"is_reserved":false,"is_disabled":false,"rental_uris":{"android":"levelo://app?vid=2e69219e-a32a-45dd-bfbe-a39a3389fa1c","ios":"levelo://app?vid=2e69219e-a32a-45dd-bfbe-a39a3389fa1c"},"vehicle_type_id":"4","last_reported":1737810636,"current_range_meters":38000,"station_id":"ce4bhm12rcd13ifvqgkg","pricing_plan_id":"cebpf4jnsgd1na2vs0mg"},{"bike_id":"4914872c-162c-4b5d-a9af-cff65f389580","system_id":"levelo_inurba_marseille","lat":43.296,"lon":5.38099,"is_reserved":false,"is_disabled":true,"rental_uris":{"android":"levelo://app?vid=4914872c-162c-4b5d-a9af-cff65f389580","ios":"levelo://app?vid=4914872c-162c-4b5d-a9af-cff65f389580"},"vehicle_type_id":"4","last_reported":1737810636,"current_range_meters":0,"station_id":"ce4bgl12rcd13ifvqbo0","pricing_plan_id":"cebpf4jnsgd1na2vs0mg"},{"bike_id":"f19dc989-9b1f-48ea-abf9-5fac135f6a39","system_id":"levelo_inurba_marseille","lat":43.28276,"lon":5.35083,"is_reserved":false,"is_disabled":false,"rental_uris":{"android":"levelo://app?vid=f19dc989-9b1f-48ea-abf9-5fac135f6a39","ios":"levelo://app?vid=f19dc989-9b1f-48ea-abf9-5fac135f6a39"},"vehicle_type_id":"4","last_reported":1737810636,"current_range_meters":38800,"station_id":"ce4bhbp2rcd13ifvqerg","pricing_plan_id":"cebpf4jnsgd1na2vs0mg"},{"bike_id":"78f1bcbe-297f-4d89-be9d-ff7c664d65b5","system_id":"levelo_inurba_marseille","lat":43.27213,"lon":5.40981,"is_reserved":false,"is_disabled":false,"rental_uris":{"android":"levelo://app?vid=78f1bcbe-297f-4d89-be9d-ff7c664d65b5","ios":"levelo://app?vid=78f1bcbe-297f-4d89-be9d-ff7c664d65b5"},"vehicle_type_id":"4","last_reported":1737810636,"current_range_meters":8800,"station_id":"ce4bhl12rcd13ifvqgf0","pricing_plan_id":"cebpf4jnsgd1na2vs0mg"},{"bike_id":"f953f9af-9f14-4c32-8152-fe266f59e47f","system_id":"levelo_inurba_marseille","lat":43.26548,"lon":5.37287,"is_reserved":false,"is_disabled":false,"rental_uris":{"android":"levelo://app?vid=f953f9af-9f14-4c32-8152-fe266f59e47f","ios":"levelo://app?vid=f953f9af-9f14-4c32-8152-fe266f59e47f"},"vehicle_type_id":"4","last_reported":1737810636,"current_range_meters":9200,"station_id":"ce4bhg12rcd13ifvqf70","pricing_plan_id":"cebpf4jnsgd1na2vs0mg"},{"bike_id":"b75fb621-ddf4-43e4-8307-4e53f1879d3d","system_id":"levelo_inurba_marseille","lat":43.30561,"lon":5.36553,"is_reserved":false,"is_disabled":false,"rental_uris":{"android":"levelo://app?vid=b75fb621-ddf4-43e4-8307-4e53f1879d3d","ios":"levelo://app?vid=b75fb621-ddf4-43e4-8307-4e53f1879d3d"},"vehicle_type_id":"4","last_reported":1737810636,"current_range_meters":36400,"station_id":"ce4bgs12rcd13ifvqcag","pricing_plan_id":"cebpf4jnsgd1na2vs0mg"},{"bike_id":"b1279c7a-1446-4139-9aa3-d2ea00fcb203","system_id":"levelo_inurba_marseille","lat":43.32555,"lon":5.41474,"is_reserved":false,"is_disabled":false,"rental_uris":{"android":"levelo://app?vid=b1279c7a-1446-4139-9aa3-d2ea00fcb203","ios":"levelo://app?vid=b1279c7a-1446-4139-9aa3-d2ea00fcb203"},"vehicle_type_id":"4","last_reported":1737810636,"current_range_meters":37600,"station_id":"ce4bhq12rcd13ifvqhhg","pricing_plan_id":"cebpf4jnsgd1na2vs0mg"},{"bike_id":"24a66805-c17e-471a-bdd5-de10fae324cf","system_id":"levelo_inurba_marseille","lat":43.23202,"lon":5.35547,"is_reserved":false,"is_disabled":false,"rental_uris":{"android":"levelo://app?vid=24a66805-c17e-471a-bdd5-de10fae324cf","ios":"levelo://app?vid=24a66805-c17e-471a-bdd5-de10fae324cf"},"vehicle_type_id":"4","last_reported":1737810636,"current_range_meters":14800,"station_id":"ce4bhu92rcd13ifvqi70","pricing_plan_id":"cebpf4jnsgd1na2vs0mg"},{"bike_id":"9687ab49-0eb1-48af-af9a-9d5625ef7192","system_id":"levelo_inurba_marseille","lat":43.30141,"lon":5.37425,"is_reserved":false,"is_disabled":false,"rental_uris":{"android":"levelo://app?vid=9687ab49-0eb1-48af-af9a-9d5625ef7192","ios":"levelo://app?vid=9687ab49-0eb1-48af-af9a-9d5625ef7192"},"vehicle_type_id":"4","last_reported":1737810636,"current_range_meters":34000,"station_id":"ce4bgs92rcd13ifvqcc0","pricing_plan_id":"cebpf4jnsgd1na2vs0mg"},{"bike_id":"9fa14550-b343-4ac3-9931-2c3f234d871f","system_id":"levelo_inurba_marseille","lat":43.30541,"lon":5.38449,"is_reserved":false,"is_disabled":false,"rental_uris":{"android":"levelo://app?vid=9fa14550-b343-4ac3-9931-2c3f234d871f","ios":"levelo://app?vid=9fa14550-b343-4ac3-9931-2c3f234d871f"},"vehicle_type_id":"4","last_reported":1737810636,"current_range_meters":36000,"station_id":"ce4bgg92rcd13ifvqb30","pricing_plan_id":"cebpf4jnsgd1na2vs0mg"},{"bike_id":"9d5ccda8-3701-45d5-9f90-ad50ba3514f0","system_id":"levelo_inurba_marseille","lat":43.28418,"lon":5.34984,"is_reserved":false,"is_disabled":false,"rental_uris":{"android":"levelo://app?vid=9d5ccda8-3701-45d5-9f90-ad50ba3514f0","ios":"levelo://app?vid=9d5ccda8-3701-45d5-9f90-ad50ba3514f0"},"vehicle_type_id":"4","last_reported":1737810636,"current_range_meters":25200,"station_id":"ce4bhbh2rcd13ifvqepg","pricing_plan_id":"cebpf4jnsgd1na2vs0mg"},{"bike_id":"b8dabcf6-0a30-4ef3-864d-5a2b0008cb16","system_id":"levelo_inurba_marseille","lat":43.317133,"lon":5.437087,"is_reserved":false,"is_disabled":false,"rental_uris":{"android":"levelo://app?vid=b8dabcf6-0a30-4ef3-864d-5a2b0008cb16","ios":"levelo://app?vid=b8dabcf6-0a30-4ef3-864d-5a2b0008cb16"},"vehicle_type_id":"4","last_reported":1737810636,"current_range_meters":17600,"station_id":"ce4bhp92rcd13ifvqhcg","pricing_plan_id":"cebpf4jnsgd1na2vs0mg"},{"bike_id":"74e364cc-2306-441e-81f3-ee04e55cb71d","system_id":"levelo_inurba_marseille","lat":43.32362,"lon":5.36764,"is_reserved":false,"is_disabled":false,"rental_uris":{"android":"levelo://app?vid=74e364cc-2306-441e-81f3-ee04e55cb71d","ios":"levelo://app?vid=74e364cc-2306-441e-81f3-ee04e55cb71d"},"vehicle_type_id":"4","last_reported":1737810636,"current_range_meters":3600,"station_id":"ce4bhsh2rcd13ifvqi2g","pricing_plan_id":"cebpf4jnsgd1na2vs0mg"},{"bike_id":"20af1a2f-3692-4e49-a5d5-bbb228d82bca","system_id":"levelo_inurba_marseille","lat":43.25492,"lon":5.3765,"is_reserved":false,"is_disabled":false,"rental_uris":{"android":"levelo://app?vid=20af1a2f-3692-4e49-a5d5-bbb228d82bca","ios":"levelo://app?vid=20af1a2f-3692-4e49-a5d5-bbb228d82bca"},"vehicle_type_id":"4","last_reported":1737810636,"current_range_meters":36800,"station_id":"ce4bhh12rcd13ifvqff0","pricing_plan_id":"cebpf4jnsgd1na2vs0mg"},{"bike_id":"f7ac40bf-9ec2-46b3-898f-7f04d59d08e5","system_id":"levelo_inurba_marseille","lat":43.27186,"lon":5.41014,"is_reserved":false,"is_disabled":false,"rental_uris":{"android":"levelo://app?vid=f7ac40bf-9ec2-46b3-898f-7f04d59d08e5","ios":"levelo://app?vid=f7ac40bf-9ec2-46b3-898f-7f04d59d08e5"},"vehicle_type_id":"4","last_reported":1737810636,"current_range_meters":14800,"station_id":"ce4bhl12rcd13ifvqgf0","pricing_plan_id":"cebpf4jnsgd1na2vs0mg"},{"bike_id":"d6fd12db-b649-491b-ae85-e4bec940de64","system_id":"levelo_inurba_marseille","lat":43.30527,"lon":5.36542,"is_reserved":false,"is_disabled":false,"rental_uris":{"android":"levelo://app?vid=d6fd12db-b649-491b-ae85-e4bec940de64","ios":"levelo://app?vid=d6fd12db-b649-491b-ae85-e4bec940de64"},"vehicle_type_id":"4","last_reported":1737810636,"current_range_meters":39200,"station_id":"ce4bgs12rcd13ifvqcag","pricing_plan_id":"cebpf4jnsgd1na2vs0mg"},{"bike_id":"b444b066-4c87-4fd1-b7ab-37834206ba81","system_id":"levelo_inurba_marseille","lat":43.26208,"lon":5.37444,"is_reserved":false,"is_disabled":false,"rental_uris":{"android":"levelo://app?vid=b444b066-4c87-4fd1-b7ab-37834206ba81","ios":"levelo://app?vid=b444b066-4c87-4fd1-b7ab-37834206ba81"},"vehicle_type_id":"4","last_reported":1737810636,"current_range_meters":24000,"station_id":"ce4bhgp2rcd13ifvqfc0","pricing_plan_id":"cebpf4jnsgd1na2vs0mg"},{"bike_id":"2dde1f1c-4dc9-4033-bf0d-6771e7af02b4","system_id":"levelo_inurba_marseille","lat":43.26205,"lon":5.37452,"is_reserved":false,"is_disabled":false,"rental_uris":{"android":"levelo://app?vid=2dde1f1c-4dc9-4033-bf0d-6771e7af02b4","ios":"levelo://app?vid=2dde1f1c-4dc9-4033-bf0d-6771e7af02b4"},"vehicle_type_id":"4","last_reported":1737810636,"current_range_meters":12400,"station_id":"ce4bhgp2rcd13ifvqfc0","pricing_plan_id":"cebpf4jnsgd1na2vs0mg"},{"bike_id":"7ff41bb0-58bb-4e7a-856f-2a2aba66f15e","system_id":"levelo_inurba_marseille","lat":43.317089,"lon":5.437111,"is_reserved":false,"is_disabled":false,"rental_uris":{"android":"levelo://app?vid=7ff41bb0-58bb-4e7a-856f-2a2aba66f15e","ios":"levelo://app?vid=7ff41bb0-58bb-4e7a-856f-2a2aba66f15e"},"vehicle_type_id":"4","last_reported":1737810636,"current_range_meters":38800,"station_id":"ce4bhp92rcd13ifvqhcg","pricing_plan_id":"cebpf4jnsgd1na2vs0mg"},{"bike_id":"fe184b4b-9d25-408a-9883-cb03c07b1e90","system_id":"levelo_inurba_marseille","lat":43.23191,"lon":5.35559,"is_reserved":false,"is_disabled":false,"rental_uris":{"android":"levelo://app?vid=fe184b4b-9d25-408a-9883-cb03c07b1e90","ios":"levelo://app?vid=fe184b4b-9d25-408a-9883-cb03c07b1e90"},"vehicle_type_id":"4","last_reported":1737810636,"current_range_meters":30000,"station_id":"ce4bhu92rcd13ifvqi70","pricing_plan_id":"cebpf4jnsgd1na2vs0mg"},{"bike_id":"a30351db-fe9e-4b20-8751-6b327939c9b8","system_id":"levelo_inurba_marseille","lat":43.30159,"lon":5.38084,"is_reserved":false,"is_disabled":false,"rental_uris":{"android":"levelo://app?vid=a30351db-fe9e-4b20-8751-6b327939c9b8","ios":"levelo://app?vid=a30351db-fe9e-4b20-8751-6b327939c9b8"},"vehicle_type_id":"4","last_reported":1737810636,"current_range_meters":32800,"station_id":"ce4bgjp2rcd13ifvqbh0","pricing_plan_id":"cebpf4jnsgd1na2vs0mg"},{"bike_id":"d28a08f4-b8e3-43ff-90bf-8177ac7549ea","system_id":"levelo_inurba_marseille","lat":43.25571,"lon":5.38256,"is_reserved":false,"is_disabled":false,"rental_uris":{"android":"levelo://app?vid=d28a08f4-b8e3-43ff-90bf-8177ac7549ea","ios":"levelo://app?vid=d28a08f4-b8e3-43ff-90bf-8177ac7549ea"},"vehicle_type_id":"4","last_reported":1737810636,"current_range_meters":38800,"station_id":"ce4bhih2rcd13ifvqfs0","pricing_plan_id":"cebpf4jnsgd1na2vs0mg"},{"bike_id":"bebc52aa-759c-4713-8c42-8a9a04f9da60","system_id":"levelo_inurba_marseille","lat":43.26561,"lon":5.37275,"is_reserved":false,"is_disabled":false,"rental_uris":{"android":"levelo://app?vid=bebc52aa-759c-4713-8c42-8a9a04f9da60","ios":"levelo://app?vid=bebc52aa-759c-4713-8c42-8a9a04f9da60"},"vehicle_type_id":"4","last_reported":1737810636,"current_range_meters":18000,"station_id":"ce4bhg12rcd13ifvqf70","pricing_plan_id":"cebpf4jnsgd1na2vs0mg"},{"bike_id":"d97b23ac-1532-416d-97a4-ebdf3acd4687","system_id":"levelo_inurba_marseille","lat":43.28437,"lon":5.35003,"is_reserved":false,"is_disabled":false,"rental_uris":{"android":"levelo://app?vid=d97b23ac-1532-416d-97a4-ebdf3acd4687","ios":"levelo://app?vid=d97b23ac-1532-416d-97a4-ebdf3acd4687"},"vehicle_type_id":"4","last_reported":1737810636,"current_range_meters":25200,"station_id":"ce4bhbh2rcd13ifvqepg","pricing_plan_id":"cebpf4jnsgd1na2vs0mg"},{"bike_id":"d3b172d3-850d-47d6-81d4-2f9d29cf21bd","system_id":"levelo_inurba_marseille","lat":43.29525,"lon":5.3855,"is_reserved":false,"is_disabled":false,"rental_uris":{"android":"levelo://app?vid=d3b172d3-850d-47d6-81d4-2f9d29cf21bd","ios":"levelo://app?vid=d3b172d3-850d-47d6-81d4-2f9d29cf21bd"},"vehicle_type_id":"4","last_reported":1737810636,"current_range_meters":32800,"station_id":"ce4bgih2rcd13ifvqba0","pricing_plan_id":"cebpf4jnsgd1na2vs0mg"},{"bike_id":"4a3ca55c-fef4-43f3-af2c-be858b71f7ad","system_id":"levelo_inurba_marseille","lat":43.24998,"lon":5.38931,"is_reserved":false,"is_disabled":false,"rental_uris":{"android":"levelo://app?vid=4a3ca55c-fef4-43f3-af2c-be858b71f7ad","ios":"levelo://app?vid=4a3ca55c-fef4-43f3-af2c-be858b71f7ad"},"vehicle_type_id":"4","last_reported":1737810636,"current_range_meters":28800,"station_id":"ce4bhgp2rcd13ifvqfd0","pricing_plan_id":"cebpf4jnsgd1na2vs0mg"},{"bike_id":"a10d56fe-8c59-4699-a750-9d73c7dede29","system_id":"levelo_inurba_marseille","lat":43.29591,"lon":5.36744,"is_reserved":false,"is_disabled":false,"rental_uris":{"android":"levelo://app?vid=a10d56fe-8c59-4699-a750-9d73c7dede29","ios":"levelo://app?vid=a10d56fe-8c59-4699-a750-9d73c7dede29"},"vehicle_type_id":"4","last_reported":1737810636,"current_range_meters":16400,"station_id":"ce4bgph2rcd13ifvqc2g","pricing_plan_id":"cebpf4jnsgd1na2vs0mg"},{"bike_id":"bd4d9476-13e2-4284-81c9-24943ecdd8ee","system_id":"levelo_inurba_marseille","lat":43.29974,"lon":5.37179,"is_reserved":false,"is_disabled":false,"rental_uris":{"android":"levelo://app?vid=bd4d9476-13e2-4284-81c9-24943ecdd8ee","ios":"levelo://app?vid=bd4d9476-13e2-4284-81c9-24943ecdd8ee"},"vehicle_type_id":"4","last_reported":1737810636,"current_range_meters":28400,"station_id":"ce4bgr92rcd13ifvqc7g","pricing_plan_id":"cebpf4jnsgd1na2vs0mg"},{"bike_id":"200ddf53-a54a-4bcb-b67b-f4196a9a5c8c","system_id":"levelo_inurba_marseille","lat":43.27964,"lon":5.38701,"is_reserved":false,"is_disabled":true,"rental_uris":{"android":"levelo://app?vid=200ddf53-a54a-4bcb-b67b-f4196a9a5c8c","ios":"levelo://app?vid=200ddf53-a54a-4bcb-b67b-f4196a9a5c8c"},"vehicle_type_id":"4","last_reported":1737810636,"current_range_meters":2000,"station_id":"ce4bhg12rcd13ifvqf80","pricing_plan_id":"cebpf4jnsgd1na2vs0mg"},{"bike_id":"ecfff43f-746e-4881-b8cd-840e1a5ab298","system_id":"levelo_inurba_marseille","lat":43.30352,"lon":5.41879,"is_reserved":false,"is_disabled":false,"rental_uris":{"android":"levelo://app?vid=ecfff43f-746e-4881-b8cd-840e1a5ab298","ios":"levelo://app?vid=ecfff43f-746e-4881-b8cd-840e1a5ab298"},"vehicle_type_id":"4","last_reported":1737810636,"current_range_meters":36800,"station_id":"ce4bhop2rcd13ifvqh7g","pricing_plan_id":"cebpf4jnsgd1na2vs0mg"},{"bike_id":"faaf1299-e636-4d4a-b2d7-e8a3e10b7294","system_id":"levelo_inurba_marseille","lat":43.30949,"lon":5.39039,"is_reserved":false,"is_disabled":false,"rental_uris":{"android":"levelo://app?vid=faaf1299-e636-4d4a-b2d7-e8a3e10b7294","ios":"levelo://app?vid=faaf1299-e636-4d4a-b2d7-e8a3e10b7294"},"vehicle_type_id":"4","last_reported":1737810636,"current_range_meters":31200,"station_id":"","pricing_plan_id":"cebpf4jnsgd1na2vs0mg"},{"bike_id":"3608a3cf-49c3-46d4-b709-f8e9629a9213","system_id":"levelo_inurba_marseille","lat":43.24651,"lon":5.38884,"is_reserved":false,"is_disabled":false,"rental_uris":{"android":"levelo://app?vid=3608a3cf-49c3-46d4-b709-f8e9629a9213","ios":"levelo://app?vid=3608a3cf-49c3-46d4-b709-f8e9629a9213"},"vehicle_type_id":"4","last_reported":1737810636,"current_range_meters":4400,"station_id":"ce4bhg12rcd13ifvqf60","pricing_plan_id":"cebpf4jnsgd1na2vs0mg"},{"bike_id":"14bf4a6f-fef1-4a06-b3aa-0e981ead5f8c","system_id":"levelo_inurba_marseille","lat":43.3026,"lon":5.37664,"is_reserved":false,"is_disabled":false,"rental_uris":{"android":"levelo://app?vid=14bf4a6f-fef1-4a06-b3aa-0e981ead5f8c","ios":"levelo://app?vid=14bf4a6f-fef1-4a06-b3aa-0e981ead5f8c"},"vehicle_type_id":"4","last_reported":1737810636,"current_range_meters":7200,"station_id":"ce4bguh2rcd13ifvqcj0","pricing_plan_id":"cebpf4jnsgd1na2vs0mg"},{"bike_id":"11c6bc22-5e78-4c89-8deb-04f7412ed25c","system_id":"levelo_inurba_marseille","lat":43.27619,"lon":5.36109,"is_reserved":false,"is_disabled":false,"rental_uris":{"android":"levelo://app?vid=11c6bc22-5e78-4c89-8deb-04f7412ed25c","ios":"levelo://app?vid=11c6bc22-5e78-4c89-8deb-04f7412ed25c"},"vehicle_type_id":"4","last_reported":1737810636,"current_range_meters":37600,"station_id":"ce4bgj92rcd13ifvqbe0","pricing_plan_id":"cebpf4jnsgd1na2vs0mg"},{"bike_id":"60c7536f-972f-43fe-b35e-7044a891280e","system_id":"levelo_inurba_marseille","lat":43.29261,"lon":5.38455,"is_reserved":false,"is_disabled":false,"rental_uris":{"android":"levelo://app?vid=60c7536f-972f-43fe-b35e-7044a891280e","ios":"levelo://app?vid=60c7536f-972f-43fe-b35e-7044a891280e"},"vehicle_type_id":"4","last_reported":1737810636,"current_range_meters":36000,"station_id":"","pricing_plan_id":"cebpf4jnsgd1na2vs0mg"},{"bike_id":"d0464471-7753-4e6c-9572-2f26fffe9e9c","system_id":"levelo_inurba_marseille","lat":43.27618,"lon":5.36117,"is_reserved":false,"is_disabled":false,"rental_uris":{"android":"levelo://app?vid=d0464471-7753-4e6c-9572-2f26fffe9e9c","ios":"levelo://app?vid=d0464471-7753-4e6c-9572-2f26fffe9e9c"},"vehicle_type_id":"4","last_reported":1737810636,"current_range_meters":38800,"station_id":"ce4bgj92rcd13ifvqbe0","pricing_plan_id":"cebpf4jnsgd1na2vs0mg"},{"bike_id":"bf3c03cd-7438-4933-8f22-68c815fbf96c","system_id":"levelo_inurba_marseille","lat":43.2861,"lon":5.35115,"is_reserved":false,"is_disabled":true,"rental_uris":{"android":"levelo://app?vid=bf3c03cd-7438-4933-8f22-68c815fbf96c","ios":"levelo://app?vid=bf3c03cd-7438-4933-8f22-68c815fbf96c"},"vehicle_type_id":"4","last_reported":1737810636,"current_range_meters":0,"station_id":"ce4bhch2rcd13ifvqeug","pricing_plan_id":"cebpf4jnsgd1na2vs0mg"},{"bike_id":"34aa6db6-d08c-4f6b-ad5e-1bad446eaa72","system_id":"levelo_inurba_marseille","lat":43.23173,"lon":5.40009,"is_reserved":false,"is_disabled":false,"rental_uris":{"android":"levelo://app?vid=34aa6db6-d08c-4f6b-ad5e-1bad446eaa72","ios":"levelo://app?vid=34aa6db6-d08c-4f6b-ad5e-1bad446eaa72"},"vehicle_type_id":"4","last_reported":1737810636,"current_range_meters":38400,"station_id":"ce4bhn12rcd13ifvqgqg","pricing_plan_id":"cebpf4jnsgd1na2vs0mg"},{"bike_id":"a2dbdc7e-8ab2-4f75-8035-18bef5b78a3b","system_id":"levelo_inurba_marseille","lat":43.25871,"lon":5.39923,"is_reserved":false,"is_disabled":false,"rental_uris":{"android":"levelo://app?vid=a2dbdc7e-8ab2-4f75-8035-18bef5b78a3b","ios":"levelo://app?vid=a2dbdc7e-8ab2-4f75-8035-18bef5b78a3b"},"vehicle_type_id":"4","last_reported":1737810636,"current_range_meters":37600,"station_id":"ce4bhl92rcd13ifvqghg","pricing_plan_id":"cebpf4jnsgd1na2vs0mg"},{"bike_id":"9382a9ac-6268-4537-8d4c-1e70a6d4ac7d","system_id":"levelo_inurba_marseille","lat":43.25733,"lon":5.41114,"is_reserved":false,"is_disabled":false,"rental_uris":{"android":"levelo://app?vid=9382a9ac-6268-4537-8d4c-1e70a6d4ac7d","ios":"levelo://app?vid=9382a9ac-6268-4537-8d4c-1e70a6d4ac7d"},"vehicle_type_id":"4","last_reported":1737810636,"current_range_meters":8000,"station_id":"ce4bhkp2rcd13ifvqgd0","pricing_plan_id":"cebpf4jnsgd1na2vs0mg"},{"bike_id":"0a21569f-c21f-4f81-a909-7a508d862758","system_id":"levelo_inurba_marseille","lat":43.30892,"lon":5.39653,"is_reserved":false,"is_disabled":false,"rental_uris":{"android":"levelo://app?vid=0a21569f-c21f-4f81-a909-7a508d862758","ios":"levelo://app?vid=0a21569f-c21f-4f81-a909-7a508d862758"},"vehicle_type_id":"4","last_reported":1737810636,"current_range_meters":11200,"station_id":"ce4bh012rcd13ifvqcv0","pricing_plan_id":"cebpf4jnsgd1na2vs0mg"},{"bike_id":"9838cc78-2b53-49d3-ae13-82df62c4fd64","system_id":"levelo_inurba_marseille","lat":43.2839,"lon":5.40935,"is_reserved":false,"is_disabled":true,"rental_uris":{"android":"levelo://app?vid=9838cc78-2b53-49d3-ae13-82df62c4fd64","ios":"levelo://app?vid=9838cc78-2b53-49d3-ae13-82df62c4fd64"},"vehicle_type_id":"4","last_reported":1737810636,"current_range_meters":0,"station_id":"","pricing_plan_id":"cebpf4jnsgd1na2vs0mg"},{"bike_id":"78bedf98-e24e-45f2-9aa3-7d07325602d6","system_id":"levelo_inurba_marseille","lat":43.28934,"lon":5.39632,"is_reserved":false,"is_disabled":false,"rental_uris":{"android":"levelo://app?vid=78bedf98-e24e-45f2-9aa3-7d07325602d6","ios":"levelo://app?vid=78bedf98-e24e-45f2-9aa3-7d07325602d6"},"vehicle_type_id":"4","last_reported":1737810636,"current_range_meters":8000,"station_id":"ce4bh3h2rcd13ifvqdn0","pricing_plan_id":"cebpf4jnsgd1na2vs0mg"},{"bike_id":"9eb25b12-5e2d-4582-9d7a-264c52c86aa4","system_id":"levelo_inurba_marseille","lat":43.33783,"lon":5.37442,"is_reserved":false,"is_disabled":false,"rental_uris":{"android":"levelo://app?vid=9eb25b12-5e2d-4582-9d7a-264c52c86aa4","ios":"levelo://app?vid=9eb25b12-5e2d-4582-9d7a-264c52c86aa4"},"vehicle_type_id":"4","last_reported":1737810636,"current_range_meters":21600,"station_id":"","pricing_plan_id":"cebpf4jnsgd1na2vs0mg"},{"bike_id":"ae14495d-03f6-4aa8-8991-0542179a3eb8","system_id":"levelo_inurba_marseille","lat":43.29265,"lon":5.36846,"is_reserved":false,"is_disabled":false,"rental_uris":{"android":"levelo://app?vid=ae14495d-03f6-4aa8-8991-0542179a3eb8","ios":"levelo://app?vid=ae14495d-03f6-4aa8-8991-0542179a3eb8"},"vehicle_type_id":"4","last_reported":1737810636,"current_range_meters":17600,"station_id":"ce4bhbp2rcd13ifvqesg","pricing_plan_id":"cebpf4jnsgd1na2vs0mg"},{"bike_id":"a604cd02-bf67-49ed-b44f-738b9732b22c","system_id":"levelo_inurba_marseille","lat":43.31357,"lon":5.39714,"is_reserved":false,"is_disabled":true,"rental_uris":{"android":"levelo://app?vid=a604cd02-bf67-49ed-b44f-738b9732b22c","ios":"levelo://app?vid=a604cd02-bf67-49ed-b44f-738b9732b22c"},"vehicle_type_id":"4","last_reported":1737810636,"current_range_meters":36800,"station_id":"ce4bgvp2rcd13ifvqcu0","pricing_plan_id":"cebpf4jnsgd1na2vs0mg"},{"bike_id":"bf096a89-ee72-4f37-85bd-7b3cf9f0cb41","system_id":"levelo_inurba_marseille","lat":43.31928,"lon":5.37901,"is_reserved":false,"is_disabled":false,"rental_uris":{"android":"levelo://app?vid=bf096a89-ee72-4f37-85bd-7b3cf9f0cb41","ios":"levelo://app?vid=bf096a89-ee72-4f37-85bd-7b3cf9f0cb41"},"vehicle_type_id":"4","last_reported":1737810636,"current_range_meters":31200,"station_id":"","pricing_plan_id":"cebpf4jnsgd1na2vs0mg"},{"bike_id":"66d1f8cf-8260-44c6-89e8-aa09a832fe98","system_id":"levelo_inurba_marseille","lat":43.24656,"lon":5.38167,"is_reserved":false,"is_disabled":true,"rental_uris":{"android":"levelo://app?vid=66d1f8cf-8260-44c6-89e8-aa09a832fe98","ios":"levelo://app?vid=66d1f8cf-8260-44c6-89e8-aa09a832fe98"},"vehicle_type_id":"4","last_reported":1737810636,"current_range_meters":0,"station_id":"ce4bhih2rcd13ifvqfr0","pricing_plan_id":"cebpf4jnsgd1na2vs0mg"},{"bike_id":"37e3e111-9b37-43f0-b268-a39efb3d8c36","system_id":"levelo_inurba_marseille","lat":43.29631,"lon":5.37178,"is_reserved":false,"is_disabled":false,"rental_uris":{"android":"levelo://app?vid=37e3e111-9b37-43f0-b268-a39efb3d8c36","ios":"levelo://app?vid=37e3e111-9b37-43f0-b268-a39efb3d8c36"},"vehicle_type_id":"4","last_reported":1737810636,"current_range_meters":38800,"station_id":"ce4bgnh2rcd13ifvqc0g","pricing_plan_id":"cebpf4jnsgd1na2vs0mg"},{"bike_id":"0e25618d-5197-4317-84eb-8f692e6a3dde","system_id":"levelo_inurba_marseille","lat":43.29436,"lon":5.39758,"is_reserved":false,"is_disabled":false,"rental_uris":{"android":"levelo://app?vid=0e25618d-5197-4317-84eb-8f692e6a3dde","ios":"levelo://app?vid=0e25618d-5197-4317-84eb-8f692e6a3dde"},"vehicle_type_id":"4","last_reported":1737810636,"current_range_meters":30800,"station_id":"ce4bh3h2rcd13ifvqdo0","pricing_plan_id":"cebpf4jnsgd1na2vs0mg"},{"bike_id":"1023a730-44dc-4493-a3b5-8a0165f8b5f5","system_id":"levelo_inurba_marseille","lat":43.2884,"lon":5.35865,"is_reserved":false,"is_disabled":false,"rental_uris":{"android":"levelo://app?vid=1023a730-44dc-4493-a3b5-8a0165f8b5f5","ios":"levelo://app?vid=1023a730-44dc-4493-a3b5-8a0165f8b5f5"},"vehicle_type_id":"4","last_reported":1737810636,"current_range_meters":18800,"station_id":"ce4bhb12rcd13ifvqem0","pricing_plan_id":"cebpf4jnsgd1na2vs0mg"},{"bike_id":"65ca12ea-78b8-417a-804f-95973b00ea1a","system_id":"levelo_inurba_marseille","lat":43.30348,"lon":5.37708,"is_reserved":false,"is_disabled":false,"rental_uris":{"android":"levelo://app?vid=65ca12ea-78b8-417a-804f-95973b00ea1a","ios":"levelo://app?vid=65ca12ea-78b8-417a-804f-95973b00ea1a"},"vehicle_type_id":"4","last_reported":1737810636,"current_range_meters":39200,"station_id":"ce4bguh2rcd13ifvqcj0","pricing_plan_id":"cebpf4jnsgd1na2vs0mg"},{"bike_id":"f6e2a664-8ca3-4446-8dcf-4e69c7308a82","system_id":"levelo_inurba_marseille","lat":43.28612,"lon":5.35096,"is_reserved":false,"is_disabled":false,"rental_uris":{"android":"levelo://app?vid=f6e2a664-8ca3-4446-8dcf-4e69c7308a82","ios":"levelo://app?vid=f6e2a664-8ca3-4446-8dcf-4e69c7308a82"},"vehicle_type_id":"4","last_reported":1737810636,"current_range_meters":3200,"station_id":"ce4bhch2rcd13ifvqeug","pricing_plan_id":"cebpf4jnsgd1na2vs0mg"},{"bike_id":"b266e498-70cd-4652-847b-6e6aaebbaa56","system_id":"levelo_inurba_marseille","lat":43.30285,"lon":5.37746,"is_reserved":false,"is_disabled":false,"rental_uris":{"android":"levelo://app?vid=b266e498-70cd-4652-847b-6e6aaebbaa56","ios":"levelo://app?vid=b266e498-70cd-4652-847b-6e6aaebbaa56"},"vehicle_type_id":"4","last_reported":1737810636,"current_range_meters":17200,"station_id":"ce4bguh2rcd13ifvqcj0","pricing_plan_id":"cebpf4jnsgd1na2vs0mg"},{"bike_id":"f0369ced-fdfa-450c-94b2-29d4d5c666d9","system_id":"levelo_inurba_marseille","lat":43.2921,"lon":5.39308,"is_reserved":false,"is_disabled":false,"rental_uris":{"android":"levelo://app?vid=f0369ced-fdfa-450c-94b2-29d4d5c666d9","ios":"levelo://app?vid=f0369ced-fdfa-450c-94b2-29d4d5c666d9"},"vehicle_type_id":"4","last_reported":1737810636,"current_range_meters":29600,"station_id":"ce4bh192rcd13ifvqdd0","pricing_plan_id":"cebpf4jnsgd1na2vs0mg"},{"bike_id":"e82397ad-f05a-47b8-82e7-cc53537eb579","system_id":"levelo_inurba_marseille","lat":43.265375,"lon":5.373033,"is_reserved":false,"is_disabled":false,"rental_uris":{"android":"levelo://app?vid=e82397ad-f05a-47b8-82e7-cc53537eb579","ios":"levelo://app?vid=e82397ad-f05a-47b8-82e7-cc53537eb579"},"vehicle_type_id":"4","last_reported":1737810636,"current_range_meters":11600,"station_id":"ce4bhg12rcd13ifvqf70","pricing_plan_id":"cebpf4jnsgd1na2vs0mg"},{"bike_id":"867d41e1-ec2e-4484-a31e-d471983f0ab7","system_id":"levelo_inurba_marseille","lat":43.33393,"lon":5.40061,"is_reserved":false,"is_disabled":false,"rental_uris":{"android":"levelo://app?vid=867d41e1-ec2e-4484-a31e-d471983f0ab7","ios":"levelo://app?vid=867d41e1-ec2e-4484-a31e-d471983f0ab7"},"vehicle_type_id":"4","last_reported":1737810636,"current_range_meters":14000,"station_id":"","pricing_plan_id":"cebpf4jnsgd1na2vs0mg"},{"bike_id":"7bd5f868-66e3-45e1-be95-6aefbe1524e1","system_id":"levelo_inurba_marseille","lat":43.25001,"lon":5.38924,"is_reserved":false,"is_disabled":true,"rental_uris":{"android":"levelo://app?vid=7bd5f868-66e3-45e1-be95-6aefbe1524e1","ios":"levelo://app?vid=7bd5f868-66e3-45e1-be95-6aefbe1524e1"},"vehicle_type_id":"4","last_reported":1737810636,"current_range_meters":0,"station_id":"ce4bhgp2rcd13ifvqfd0","pricing_plan_id":"cebpf4jnsgd1na2vs0mg"},{"bike_id":"0f7b7b7c-c777-4a3c-b405-fbac216aeb7f","system_id":"levelo_inurba_marseille","lat":43.26206,"lon":5.37447,"is_reserved":false,"is_disabled":false,"rental_uris":{"android":"levelo://app?vid=0f7b7b7c-c777-4a3c-b405-fbac216aeb7f","ios":"levelo://app?vid=0f7b7b7c-c777-4a3c-b405-fbac216aeb7f"},"vehicle_type_id":"4","last_reported":1737810636,"current_range_meters":21600,"station_id":"ce4bhgp2rcd13ifvqfc0","pricing_plan_id":"cebpf4jnsgd1na2vs0mg"},{"bike_id":"a36a1d9c-3161-46d9-a5c1-b7de211e86c6","system_id":"levelo_inurba_marseille","lat":43.29443,"lon":5.39756,"is_reserved":false,"is_disabled":false,"rental_uris":{"android":"levelo://app?vid=a36a1d9c-3161-46d9-a5c1-b7de211e86c6","ios":"levelo://app?vid=a36a1d9c-3161-46d9-a5c1-b7de211e86c6"},"vehicle_type_id":"4","last_reported":1737810636,"current_range_meters":27600,"station_id":"ce4bh3h2rcd13ifvqdo0","pricing_plan_id":"cebpf4jnsgd1na2vs0mg"},{"bike_id":"ad58b03f-6c57-4eea-958c-6132b8412b49","system_id":"levelo_inurba_marseille","lat":43.28423,"lon":5.35,"is_reserved":false,"is_disabled":false,"rental_uris":{"android":"levelo://app?vid=ad58b03f-6c57-4eea-958c-6132b8412b49","ios":"levelo://app?vid=ad58b03f-6c57-4eea-958c-6132b8412b49"},"vehicle_type_id":"4","last_reported":1737810636,"current_range_meters":22800,"station_id":"ce4bhbh2rcd13ifvqepg","pricing_plan_id":"cebpf4jnsgd1na2vs0mg"},{"bike_id":"347dd29e-9a9e-4a37-8ddd-6e2050aaff03","system_id":"levelo_inurba_marseille","lat":43.33748,"lon":5.39201,"is_reserved":false,"is_disabled":false,"rental_uris":{"android":"levelo://app?vid=347dd29e-9a9e-4a37-8ddd-6e2050aaff03","ios":"levelo://app?vid=347dd29e-9a9e-4a37-8ddd-6e2050aaff03"},"vehicle_type_id":"4","last_reported":1737810636,"current_range_meters":35200,"station_id":"ce4bhr92rcd13ifvqhsg","pricing_plan_id":"cebpf4jnsgd1na2vs0mg"},{"bike_id":"33ad948e-4cff-4dde-a848-20c5749ac088","system_id":"levelo_inurba_marseille","lat":43.30423,"lon":5.38896,"is_reserved":false,"is_disabled":false,"rental_uris":{"android":"levelo://app?vid=33ad948e-4cff-4dde-a848-20c5749ac088","ios":"levelo://app?vid=33ad948e-4cff-4dde-a848-20c5749ac088"},"vehicle_type_id":"4","last_reported":1737810636,"current_range_meters":36000,"station_id":"ce4bgk12rcd13ifvqbi0","pricing_plan_id":"cebpf4jnsgd1na2vs0mg"},{"bike_id":"fee3014a-5b89-4df9-baaa-935270d4170f","system_id":"levelo_inurba_marseille","lat":43.29278,"lon":5.36843,"is_reserved":false,"is_disabled":false,"rental_uris":{"android":"levelo://app?vid=fee3014a-5b89-4df9-baaa-935270d4170f","ios":"levelo://app?vid=fee3014a-5b89-4df9-baaa-935270d4170f"},"vehicle_type_id":"4","last_reported":1737810636,"current_range_meters":19200,"station_id":"ce4bhbp2rcd13ifvqesg","pricing_plan_id":"cebpf4jnsgd1na2vs0mg"},{"bike_id":"c959572c-6974-4ed4-8889-654758c49222","system_id":"levelo_inurba_marseille","lat":43.26539,"lon":5.39076,"is_reserved":false,"is_disabled":true,"rental_uris":{"android":"levelo://app?vid=c959572c-6974-4ed4-8889-654758c49222","ios":"levelo://app?vid=c959572c-6974-4ed4-8889-654758c49222"},"vehicle_type_id":"4","last_reported":1737810636,"current_range_meters":1200,"station_id":"","pricing_plan_id":"cebpf4jnsgd1na2vs0mg"},{"bike_id":"088f9493-d4f4-4fa4-8701-181abed46e32","system_id":"levelo_inurba_marseille","lat":43.29276,"lon":5.36846,"is_reserved":false,"is_disabled":false,"rental_uris":{"android":"levelo://app?vid=088f9493-d4f4-4fa4-8701-181abed46e32","ios":"levelo://app?vid=088f9493-d4f4-4fa4-8701-181abed46e32"},"vehicle_type_id":"4","last_reported":1737810636,"current_range_meters":32400,"station_id":"ce4bhbp2rcd13ifvqesg","pricing_plan_id":"cebpf4jnsgd1na2vs0mg"},{"bike_id":"72724981-5caa-4073-a60d-329591fd72b9","system_id":"levelo_inurba_marseille","lat":43.29032,"lon":5.38664,"is_reserved":false,"is_disabled":false,"rental_uris":{"android":"levelo://app?vid=72724981-5caa-4073-a60d-329591fd72b9","ios":"levelo://app?vid=72724981-5caa-4073-a60d-329591fd72b9"},"vehicle_type_id":"4","last_reported":1737810636,"current_range_meters":38000,"station_id":"ce4bh4p2rcd13ifvqe0g","pricing_plan_id":"cebpf4jnsgd1na2vs0mg"},{"bike_id":"90b8a1b1-ad54-458d-9362-f5197bbdf048","system_id":"levelo_inurba_marseille","lat":43.22932,"lon":5.35372,"is_reserved":false,"is_disabled":false,"rental_uris":{"android":"levelo://app?vid=90b8a1b1-ad54-458d-9362-f5197bbdf048","ios":"levelo://app?vid=90b8a1b1-ad54-458d-9362-f5197bbdf048"},"vehicle_type_id":"4","last_reported":1737810636,"current_range_meters":38800,"station_id":"cpo3532slgdg3j2ikp40","pricing_plan_id":"cebpf4jnsgd1na2vs0mg"},{"bike_id":"53035af4-ce28-4b9e-9322-5b8d4befc56f","system_id":"levelo_inurba_marseille","lat":43.29559,"lon":5.42281,"is_reserved":false,"is_disabled":false,"rental_uris":{"android":"levelo://app?vid=53035af4-ce28-4b9e-9322-5b8d4befc56f","ios":"levelo://app?vid=53035af4-ce28-4b9e-9322-5b8d4befc56f"},"vehicle_type_id":"4","last_reported":1737810636,"current_range_meters":38800,"station_id":"ce4bhph2rcd13ifvqhdg","pricing_plan_id":"cebpf4jnsgd1na2vs0mg"},{"bike_id":"59a858f6-56fb-47d7-ac7a-cc7c4fa27434","system_id":"levelo_inurba_marseille","lat":43.29685,"lon":5.37307,"is_reserved":false,"is_disabled":false,"rental_uris":{"android":"levelo://app?vid=59a858f6-56fb-47d7-ac7a-cc7c4fa27434","ios":"levelo://app?vid=59a858f6-56fb-47d7-ac7a-cc7c4fa27434"},"vehicle_type_id":"4","last_reported":1737810636,"current_range_meters":38800,"station_id":"ce4bgk12rcd13ifvqbj0","pricing_plan_id":"cebpf4jnsgd1na2vs0mg"},{"bike_id":"7749089a-d916-410e-8277-c5070b23e763","system_id":"levelo_inurba_marseille","lat":43.29007,"lon":5.356273,"is_reserved":false,"is_disabled":true,"rental_uris":{"android":"levelo://app?vid=7749089a-d916-410e-8277-c5070b23e763","ios":"levelo://app?vid=7749089a-d916-410e-8277-c5070b23e763"},"vehicle_type_id":"4","last_reported":1737810636,"current_range_meters":800,"station_id":"ce4bhb92rcd13ifvqen0","pricing_plan_id":"cebpf4jnsgd1na2vs0mg"},{"bike_id":"0bbb47b1-8f66-4b13-8cf4-73b8403bbc6e","system_id":"levelo_inurba_marseille","lat":43.296103,"lon":5.37725,"is_reserved":false,"is_disabled":false,"rental_uris":{"android":"levelo://app?vid=0bbb47b1-8f66-4b13-8cf4-73b8403bbc6e","ios":"levelo://app?vid=0bbb47b1-8f66-4b13-8cf4-73b8403bbc6e"},"vehicle_type_id":"4","last_reported":1737810636,"current_range_meters":37600,"station_id":"ce4bgi92rcd13ifvqb90","pricing_plan_id":"cebpf4jnsgd1na2vs0mg"},{"bike_id":"9f2e1ae5-55ce-4089-8240-a2b7c48ef82f","system_id":"levelo_inurba_marseille","lat":43.30431,"lon":5.39748,"is_reserved":false,"is_disabled":false,"rental_uris":{"android":"levelo://app?vid=9f2e1ae5-55ce-4089-8240-a2b7c48ef82f","ios":"levelo://app?vid=9f2e1ae5-55ce-4089-8240-a2b7c48ef82f"},"vehicle_type_id":"4","last_reported":1737810636,"current_range_meters":14000,"station_id":"ce4bh092rcd13ifvqd20","pricing_plan_id":"cebpf4jnsgd1na2vs0mg"},{"bike_id":"b8942bec-956c-4dbc-a150-dd505ab0503f","system_id":"levelo_inurba_marseille","lat":43.30364,"lon":5.4188,"is_reserved":false,"is_disabled":false,"rental_uris":{"android":"levelo://app?vid=b8942bec-956c-4dbc-a150-dd505ab0503f","ios":"levelo://app?vid=b8942bec-956c-4dbc-a150-dd505ab0503f"},"vehicle_type_id":"4","last_reported":1737810636,"current_range_meters":37600,"station_id":"ce4bhop2rcd13ifvqh7g","pricing_plan_id":"cebpf4jnsgd1na2vs0mg"},{"bike_id":"83c8aa6d-0489-4600-af1d-2124f9ba1692","system_id":"levelo_inurba_marseille","lat":43.24995,"lon":5.38933,"is_reserved":false,"is_disabled":false,"rental_uris":{"android":"levelo://app?vid=83c8aa6d-0489-4600-af1d-2124f9ba1692","ios":"levelo://app?vid=83c8aa6d-0489-4600-af1d-2124f9ba1692"},"vehicle_type_id":"4","last_reported":1737810636,"current_range_meters":4800,"station_id":"ce4bhgp2rcd13ifvqfd0","pricing_plan_id":"cebpf4jnsgd1na2vs0mg"},{"bike_id":"1267de3f-5e86-4017-9522-3faa4504a3b1","system_id":"levelo_inurba_marseille","lat":43.30147,"lon":5.38089,"is_reserved":false,"is_disabled":false,"rental_uris":{"android":"levelo://app?vid=1267de3f-5e86-4017-9522-3faa4504a3b1","ios":"levelo://app?vid=1267de3f-5e86-4017-9522-3faa4504a3b1"},"vehicle_type_id":"4","last_reported":1737810636,"current_range_meters":16400,"station_id":"ce4bgjp2rcd13ifvqbh0","pricing_plan_id":"cebpf4jnsgd1na2vs0mg"},{"bike_id":"833c4efa-a8bf-4e0e-a76d-d4f428cf3c7a","system_id":"levelo_inurba_marseille","lat":43.24393,"lon":5.37065,"is_reserved":false,"is_disabled":false,"rental_uris":{"android":"levelo://app?vid=833c4efa-a8bf-4e0e-a76d-d4f428cf3c7a","ios":"levelo://app?vid=833c4efa-a8bf-4e0e-a76d-d4f428cf3c7a"},"vehicle_type_id":"4","last_reported":1737810636,"current_range_meters":17200,"station_id":"ce4bhhh2rcd13ifvqfk0","pricing_plan_id":"cebpf4jnsgd1na2vs0mg"},{"bike_id":"f456b3f6-6f76-4509-a072-0e95b0668b0c","system_id":"levelo_inurba_marseille","lat":43.2558,"lon":5.38237,"is_reserved":false,"is_disabled":false,"rental_uris":{"android":"levelo://app?vid=f456b3f6-6f76-4509-a072-0e95b0668b0c","ios":"levelo://app?vid=f456b3f6-6f76-4509-a072-0e95b0668b0c"},"vehicle_type_id":"4","last_reported":1737810636,"current_range_meters":2800,"station_id":"ce4bhih2rcd13ifvqfs0","pricing_plan_id":"cebpf4jnsgd1na2vs0mg"},{"bike_id":"da28def9-12ad-4630-a85b-97700b888ed6","system_id":"levelo_inurba_marseille","lat":43.30423,"lon":5.39753,"is_reserved":false,"is_disabled":false,"rental_uris":{"android":"levelo://app?vid=da28def9-12ad-4630-a85b-97700b888ed6","ios":"levelo://app?vid=da28def9-12ad-4630-a85b-97700b888ed6"},"vehicle_type_id":"4","last_reported":1737810636,"current_range_meters":8000,"station_id":"ce4bh092rcd13ifvqd20","pricing_plan_id":"cebpf4jnsgd1na2vs0mg"},{"bike_id":"38aadad5-46d0-4454-9914-96a0c0ef2ab0","system_id":"levelo_inurba_marseille","lat":43.27375,"lon":5.36257,"is_reserved":false,"is_disabled":false,"rental_uris":{"android":"levelo://app?vid=38aadad5-46d0-4454-9914-96a0c0ef2ab0","ios":"levelo://app?vid=38aadad5-46d0-4454-9914-96a0c0ef2ab0"},"vehicle_type_id":"4","last_reported":1737810636,"current_range_meters":30800,"station_id":"ce4bhbh2rcd13ifvqeo0","pricing_plan_id":"cebpf4jnsgd1na2vs0mg"},{"bike_id":"1ab9b624-40b7-465c-a005-729f21b3d75d","system_id":"levelo_inurba_marseille","lat":43.25721,"lon":5.41115,"is_reserved":false,"is_disabled":false,"rental_uris":{"android":"levelo://app?vid=1ab9b624-40b7-465c-a005-729f21b3d75d","ios":"levelo://app?vid=1ab9b624-40b7-465c-a005-729f21b3d75d"},"vehicle_type_id":"4","last_reported":1737810636,"current_range_meters":39200,"station_id":"ce4bhkp2rcd13ifvqgd0","pricing_plan_id":"cebpf4jnsgd1na2vs0mg"},{"bike_id":"01df12c3-ddb3-48ca-ae9a-59dfa4680f23","system_id":"levelo_inurba_marseille","lat":43.29306,"lon":5.37178,"is_reserved":false,"is_disabled":false,"rental_uris":{"android":"levelo://app?vid=01df12c3-ddb3-48ca-ae9a-59dfa4680f23","ios":"levelo://app?vid=01df12c3-ddb3-48ca-ae9a-59dfa4680f23"},"vehicle_type_id":"4","last_reported":1737810636,"current_range_meters":38800,"station_id":"ce4bgh92rcd13ifvqb40","pricing_plan_id":"cebpf4jnsgd1na2vs0mg"},{"bike_id":"8609669b-68c7-4651-8463-8b069e6b3840","system_id":"levelo_inurba_marseille","lat":43.32008,"lon":5.38154,"is_reserved":false,"is_disabled":false,"rental_uris":{"android":"levelo://app?vid=8609669b-68c7-4651-8463-8b069e6b3840","ios":"levelo://app?vid=8609669b-68c7-4651-8463-8b069e6b3840"},"vehicle_type_id":"4","last_reported":1737810636,"current_range_meters":36400,"station_id":"ce4bhr12rcd13ifvqhpg","pricing_plan_id":"cebpf4jnsgd1na2vs0mg"},{"bike_id":"dabad150-600b-4273-9d4a-f2cb97af39fc","system_id":"levelo_inurba_marseille","lat":43.24635,"lon":5.38917,"is_reserved":false,"is_disabled":false,"rental_uris":{"android":"levelo://app?vid=dabad150-600b-4273-9d4a-f2cb97af39fc","ios":"levelo://app?vid=dabad150-600b-4273-9d4a-f2cb97af39fc"},"vehicle_type_id":"4","last_reported":1737810636,"current_range_meters":33200,"station_id":"ce4bhg12rcd13ifvqf60","pricing_plan_id":"cebpf4jnsgd1na2vs0mg"},{"bike_id":"79721713-ca5a-4652-9ba3-8e936982dd9e","system_id":"levelo_inurba_marseille","lat":43.29582,"lon":5.38105,"is_reserved":false,"is_disabled":false,"rental_uris":{"android":"levelo://app?vid=79721713-ca5a-4652-9ba3-8e936982dd9e","ios":"levelo://app?vid=79721713-ca5a-4652-9ba3-8e936982dd9e"},"vehicle_type_id":"4","last_reported":1737810636,"current_range_meters":32400,"station_id":"ce4bgl12rcd13ifvqbo0","pricing_plan_id":"cebpf4jnsgd1na2vs0mg"},{"bike_id":"024cd548-3349-4b5a-9af8-2c3d415d44b0","system_id":"levelo_inurba_marseille","lat":43.28274,"lon":5.35068,"is_reserved":false,"is_disabled":false,"rental_uris":{"android":"levelo://app?vid=024cd548-3349-4b5a-9af8-2c3d415d44b0","ios":"levelo://app?vid=024cd548-3349-4b5a-9af8-2c3d415d44b0"},"vehicle_type_id":"4","last_reported":1737810636,"current_range_meters":11200,"station_id":"ce4bhbp2rcd13ifvqerg","pricing_plan_id":"cebpf4jnsgd1na2vs0mg"},{"bike_id":"50102038-9df7-4ef1-9e21-cb9aea9e19b5","system_id":"levelo_inurba_marseille","lat":43.27212,"lon":5.39181,"is_reserved":false,"is_disabled":false,"rental_uris":{"android":"levelo://app?vid=50102038-9df7-4ef1-9e21-cb9aea9e19b5","ios":"levelo://app?vid=50102038-9df7-4ef1-9e21-cb9aea9e19b5"},"vehicle_type_id":"4","last_reported":1737810636,"current_range_meters":28800,"station_id":"ce4bhhp2rcd13ifvqfm0","pricing_plan_id":"cebpf4jnsgd1na2vs0mg"},{"bike_id":"da351246-909a-4986-a69c-176945d7bc8a","system_id":"levelo_inurba_marseille","lat":43.27645,"lon":5.38948,"is_reserved":false,"is_disabled":false,"rental_uris":{"android":"levelo://app?vid=da351246-909a-4986-a69c-176945d7bc8a","ios":"levelo://app?vid=da351246-909a-4986-a69c-176945d7bc8a"},"vehicle_type_id":"4","last_reported":1737810636,"current_range_meters":38800,"station_id":"ce4bhi12rcd13ifvqfo0","pricing_plan_id":"cebpf4jnsgd1na2vs0mg"},{"bike_id":"9d67ce9e-3476-46bd-a24e-30eb2f617760","system_id":"levelo_inurba_marseille","lat":43.2989,"lon":5.43662,"is_reserved":false,"is_disabled":false,"rental_uris":{"android":"levelo://app?vid=9d67ce9e-3476-46bd-a24e-30eb2f617760","ios":"levelo://app?vid=9d67ce9e-3476-46bd-a24e-30eb2f617760"},"vehicle_type_id":"4","last_reported":1737810636,"current_range_meters":12800,"station_id":"ce4bhpp2rcd13ifvqhfg","pricing_plan_id":"cebpf4jnsgd1na2vs0mg"},{"bike_id":"7dc3cae4-747d-4993-b368-549807c6825a","system_id":"levelo_inurba_marseille","lat":43.27371,"lon":5.36264,"is_reserved":false,"is_disabled":false,"rental_uris":{"android":"levelo://app?vid=7dc3cae4-747d-4993-b368-549807c6825a","ios":"levelo://app?vid=7dc3cae4-747d-4993-b368-549807c6825a"},"vehicle_type_id":"4","last_reported":1737810636,"current_range_meters":12800,"station_id":"ce4bhbh2rcd13ifvqeo0","pricing_plan_id":"cebpf4jnsgd1na2vs0mg"},{"bike_id":"0e5a3f0b-2e27-48f8-9f1b-d6f7c703cae0","system_id":"levelo_inurba_marseille","lat":43.30537,"lon":5.36548,"is_reserved":false,"is_disabled":false,"rental_uris":{"android":"levelo://app?vid=0e5a3f0b-2e27-48f8-9f1b-d6f7c703cae0","ios":"levelo://app?vid=0e5a3f0b-2e27-48f8-9f1b-d6f7c703cae0"},"vehicle_type_id":"4","last_reported":1737810636,"current_range_meters":12000,"station_id":"ce4bgs12rcd13ifvqcag","pricing_plan_id":"cebpf4jnsgd1na2vs0mg"},{"bike_id":"1c35c755-8b1c-439e-8798-f1a001a3969d","system_id":"levelo_inurba_marseille","lat":43.28101,"lon":5.37838,"is_reserved":false,"is_disabled":true,"rental_uris":{"android":"levelo://app?vid=1c35c755-8b1c-439e-8798-f1a001a3969d","ios":"levelo://app?vid=1c35c755-8b1c-439e-8798-f1a001a3969d"},"vehicle_type_id":"4","last_reported":1737810636,"current_range_meters":0,"station_id":"ce4bha12rcd13ifvqee0","pricing_plan_id":"cebpf4jnsgd1na2vs0mg"},{"bike_id":"e7bbd1f2-3eab-4a3a-bb32-cf87c8be734c","system_id":"levelo_inurba_marseille","lat":43.313613,"lon":5.385081,"is_reserved":false,"is_disabled":false,"rental_uris":{"android":"levelo://app?vid=e7bbd1f2-3eab-4a3a-bb32-cf87c8be734c","ios":"levelo://app?vid=e7bbd1f2-3eab-4a3a-bb32-cf87c8be734c"},"vehicle_type_id":"4","last_reported":1737810636,"current_range_meters":38800,"station_id":"ce4bgt92rcd13ifvqcf0","pricing_plan_id":"cebpf4jnsgd1na2vs0mg"},{"bike_id":"1ed786f2-b680-4b14-ac90-f8140e2c4e24","system_id":"levelo_inurba_marseille","lat":43.30558,"lon":5.36565,"is_reserved":false,"is_disabled":false,"rental_uris":{"android":"levelo://app?vid=1ed786f2-b680-4b14-ac90-f8140e2c4e24","ios":"levelo://app?vid=1ed786f2-b680-4b14-ac90-f8140e2c4e24"},"vehicle_type_id":"4","last_reported":1737810636,"current_range_meters":16000,"station_id":"ce4bgs12rcd13ifvqcag","pricing_plan_id":"cebpf4jnsgd1na2vs0mg"},{"bike_id":"bce09769-02dc-489a-bcd7-84421f3b354f","system_id":"levelo_inurba_marseille","lat":43.32374,"lon":5.3888,"is_reserved":false,"is_disabled":false,"rental_uris":{"android":"levelo://app?vid=bce09769-02dc-489a-bcd7-84421f3b354f","ios":"levelo://app?vid=bce09769-02dc-489a-bcd7-84421f3b354f"},"vehicle_type_id":"4","last_reported":1737810636,"current_range_meters":18800,"station_id":"ce4bhqp2rcd13ifvqhog","pricing_plan_id":"cebpf4jnsgd1na2vs0mg"},{"bike_id":"9aca81ab-a9dc-44db-826b-75512ba82459","system_id":"levelo_inurba_marseille","lat":43.30639,"lon":5.40088,"is_reserved":false,"is_disabled":false,"rental_uris":{"android":"levelo://app?vid=9aca81ab-a9dc-44db-826b-75512ba82459","ios":"levelo://app?vid=9aca81ab-a9dc-44db-826b-75512ba82459"},"vehicle_type_id":"4","last_reported":1737810636,"current_range_meters":4800,"station_id":"ce4bh112rcd13ifvqda0","pricing_plan_id":"cebpf4jnsgd1na2vs0mg"},{"bike_id":"3a50cba4-791e-4240-a3e9-a38905811f0f","system_id":"levelo_inurba_marseille","lat":43.27039,"lon":5.40263,"is_reserved":false,"is_disabled":false,"rental_uris":{"android":"levelo://app?vid=3a50cba4-791e-4240-a3e9-a38905811f0f","ios":"levelo://app?vid=3a50cba4-791e-4240-a3e9-a38905811f0f"},"vehicle_type_id":"4","last_reported":1737810636,"current_range_meters":8800,"station_id":"ce4bhk92rcd13ifvqgc0","pricing_plan_id":"cebpf4jnsgd1na2vs0mg"},{"bike_id":"b96c22ba-a4c6-4ca8-b881-a2a2972e9bc2","system_id":"levelo_inurba_marseille","lat":43.26031,"lon":5.37548,"is_reserved":false,"is_disabled":true,"rental_uris":{"android":"levelo://app?vid=b96c22ba-a4c6-4ca8-b881-a2a2972e9bc2","ios":"levelo://app?vid=b96c22ba-a4c6-4ca8-b881-a2a2972e9bc2"},"vehicle_type_id":"4","last_reported":1737810636,"current_range_meters":36800,"station_id":"ce4bhgh2rcd13ifvqfa0","pricing_plan_id":"cebpf4jnsgd1na2vs0mg"},{"bike_id":"61df6208-7c8d-4faf-b087-b4cb2a715156","system_id":"levelo_inurba_marseille","lat":43.31999,"lon":5.38162,"is_reserved":false,"is_disabled":false,"rental_uris":{"android":"levelo://app?vid=61df6208-7c8d-4faf-b087-b4cb2a715156","ios":"levelo://app?vid=61df6208-7c8d-4faf-b087-b4cb2a715156"},"vehicle_type_id":"4","last_reported":1737810636,"current_range_meters":38800,"station_id":"ce4bhr12rcd13ifvqhpg","pricing_plan_id":"cebpf4jnsgd1na2vs0mg"},{"bike_id":"f1bf780d-c709-4a93-9478-a4caf61c5c21","system_id":"levelo_inurba_marseille","lat":43.28081,"lon":5.39665,"is_reserved":false,"is_disabled":false,"rental_uris":{"android":"levelo://app?vid=f1bf780d-c709-4a93-9478-a4caf61c5c21","ios":"levelo://app?vid=f1bf780d-c709-4a93-9478-a4caf61c5c21"},"vehicle_type_id":"4","last_reported":1737810636,"current_range_meters":12400,"station_id":"ce4bho12rcd13ifvqh2g","pricing_plan_id":"cebpf4jnsgd1na2vs0mg"},{"bike_id":"1346ff93-9ddb-4093-aa5d-b6cb09dfef3c","system_id":"levelo_inurba_marseille","lat":43.29067,"lon":5.38094,"is_reserved":false,"is_disabled":true,"rental_uris":{"android":"levelo://app?vid=1346ff93-9ddb-4093-aa5d-b6cb09dfef3c","ios":"levelo://app?vid=1346ff93-9ddb-4093-aa5d-b6cb09dfef3c"},"vehicle_type_id":"4","last_reported":1737810636,"current_range_meters":8400,"station_id":"","pricing_plan_id":"cebpf4jnsgd1na2vs0mg"},{"bike_id":"ef56dcdf-2a05-4ac4-a80c-b7270e7eb4ae","system_id":"levelo_inurba_marseille","lat":43.27683,"lon":5.38868,"is_reserved":false,"is_disabled":false,"rental_uris":{"android":"levelo://app?vid=ef56dcdf-2a05-4ac4-a80c-b7270e7eb4ae","ios":"levelo://app?vid=ef56dcdf-2a05-4ac4-a80c-b7270e7eb4ae"},"vehicle_type_id":"4","last_reported":1737810636,"current_range_meters":36400,"station_id":"ce4bhi12rcd13ifvqfo0","pricing_plan_id":"cebpf4jnsgd1na2vs0mg"},{"bike_id":"1e77e574-f5f3-4895-8e75-d0715b84f698","system_id":"levelo_inurba_marseille","lat":43.28622,"lon":5.35102,"is_reserved":false,"is_disabled":false,"rental_uris":{"android":"levelo://app?vid=1e77e574-f5f3-4895-8e75-d0715b84f698","ios":"levelo://app?vid=1e77e574-f5f3-4895-8e75-d0715b84f698"},"vehicle_type_id":"4","last_reported":1737810636,"current_range_meters":28000,"station_id":"ce4bhch2rcd13ifvqeug","pricing_plan_id":"cebpf4jnsgd1na2vs0mg"},{"bike_id":"d0b97dd4-6015-4f42-b5f6-8f3b6c506949","system_id":"levelo_inurba_marseille","lat":43.2955,"lon":5.42277,"is_reserved":false,"is_disabled":false,"rental_uris":{"android":"levelo://app?vid=d0b97dd4-6015-4f42-b5f6-8f3b6c506949","ios":"levelo://app?vid=d0b97dd4-6015-4f42-b5f6-8f3b6c506949"},"vehicle_type_id":"4","last_reported":1737810636,"current_range_meters":33600,"station_id":"ce4bhph2rcd13ifvqhdg","pricing_plan_id":"cebpf4jnsgd1na2vs0mg"},{"bike_id":"d5665470-c1b3-45e5-80ac-4df7d60c2564","system_id":"levelo_inurba_marseille","lat":43.3211,"lon":5.36791,"is_reserved":false,"is_disabled":false,"rental_uris":{"android":"levelo://app?vid=d5665470-c1b3-45e5-80ac-4df7d60c2564","ios":"levelo://app?vid=d5665470-c1b3-45e5-80ac-4df7d60c2564"},"vehicle_type_id":"4","last_reported":1737810636,"current_range_meters":33200,"station_id":"ce4bhrh2rcd13ifvqhug","pricing_plan_id":"cebpf4jnsgd1na2vs0mg"},{"bike_id":"ff1b0103-25b8-4cfb-a5c1-dc0a5d0a2595","system_id":"levelo_inurba_marseille","lat":43.26802,"lon":5.40273,"is_reserved":false,"is_disabled":false,"rental_uris":{"android":"levelo://app?vid=ff1b0103-25b8-4cfb-a5c1-dc0a5d0a2595","ios":"levelo://app?vid=ff1b0103-25b8-4cfb-a5c1-dc0a5d0a2595"},"vehicle_type_id":"4","last_reported":1737810636,"current_range_meters":38000,"station_id":"ce501612rcd8frsf0b60","pricing_plan_id":"cebpf4jnsgd1na2vs0mg"},{"bike_id":"7af0e28c-28ad-4586-9fde-1f2cfaa3cf2a","system_id":"levelo_inurba_marseille","lat":43.341389,"lon":5.409093,"is_reserved":false,"is_disabled":false,"rental_uris":{"android":"levelo://app?vid=7af0e28c-28ad-4586-9fde-1f2cfaa3cf2a","ios":"levelo://app?vid=7af0e28c-28ad-4586-9fde-1f2cfaa3cf2a"},"vehicle_type_id":"4","last_reported":1737810636,"current_range_meters":22800,"station_id":"ce4bhqh2rcd13ifvqhlg","pricing_plan_id":"cebpf4jnsgd1na2vs0mg"},{"bike_id":"9179c15e-b056-4d3d-9a66-7a2e26f94ac6","system_id":"levelo_inurba_marseille","lat":43.28434,"lon":5.3752,"is_reserved":false,"is_disabled":false,"rental_uris":{"android":"levelo://app?vid=9179c15e-b056-4d3d-9a66-7a2e26f94ac6","ios":"levelo://app?vid=9179c15e-b056-4d3d-9a66-7a2e26f94ac6"},"vehicle_type_id":"4","last_reported":1737810636,"current_range_meters":33600,"station_id":"ce4bh412rcd13ifvqds0","pricing_plan_id":"cebpf4jnsgd1na2vs0mg"},{"bike_id":"297b1880-b06e-45ae-a410-2e574e4682dd","system_id":"levelo_inurba_marseille","lat":43.29304,"lon":5.37175,"is_reserved":false,"is_disabled":false,"rental_uris":{"android":"levelo://app?vid=297b1880-b06e-45ae-a410-2e574e4682dd","ios":"levelo://app?vid=297b1880-b06e-45ae-a410-2e574e4682dd"},"vehicle_type_id":"4","last_reported":1737810636,"current_range_meters":36800,"station_id":"ce4bgh92rcd13ifvqb40","pricing_plan_id":"cebpf4jnsgd1na2vs0mg"},{"bike_id":"479cb780-8c58-44a6-99d3-0353db3a07bb","system_id":"levelo_inurba_marseille","lat":43.30793,"lon":5.43522,"is_reserved":false,"is_disabled":false,"rental_uris":{"android":"levelo://app?vid=479cb780-8c58-44a6-99d3-0353db3a07bb","ios":"levelo://app?vid=479cb780-8c58-44a6-99d3-0353db3a07bb"},"vehicle_type_id":"4","last_reported":1737810636,"current_range_meters":36400,"station_id":"ce4bhph2rcd13ifvqheg","pricing_plan_id":"cebpf4jnsgd1na2vs0mg"},{"bike_id":"6d17c276-0a0b-4d66-8572-ced57eea72cc","system_id":"levelo_inurba_marseille","lat":43.33587,"lon":5.41039,"is_reserved":false,"is_disabled":false,"rental_uris":{"android":"levelo://app?vid=6d17c276-0a0b-4d66-8572-ced57eea72cc","ios":"levelo://app?vid=6d17c276-0a0b-4d66-8572-ced57eea72cc"},"vehicle_type_id":"4","last_reported":1737810636,"current_range_meters":13600,"station_id":"ce4bhqh2rcd13ifvqhmg","pricing_plan_id":"cebpf4jnsgd1na2vs0mg"},{"bike_id":"58e811bb-64a6-42d5-b58d-7710b02b375a","system_id":"levelo_inurba_marseille","lat":43.25501,"lon":5.37658,"is_reserved":false,"is_disabled":false,"rental_uris":{"android":"levelo://app?vid=58e811bb-64a6-42d5-b58d-7710b02b375a","ios":"levelo://app?vid=58e811bb-64a6-42d5-b58d-7710b02b375a"},"vehicle_type_id":"4","last_reported":1737810636,"current_range_meters":39200,"station_id":"ce4bhh12rcd13ifvqff0","pricing_plan_id":"cebpf4jnsgd1na2vs0mg"},{"bike_id":"48e8ea53-6671-4afb-9c8d-1c5842cd6e14","system_id":"levelo_inurba_marseille","lat":43.30521,"lon":5.36516,"is_reserved":false,"is_disabled":false,"rental_uris":{"android":"levelo://app?vid=48e8ea53-6671-4afb-9c8d-1c5842cd6e14","ios":"levelo://app?vid=48e8ea53-6671-4afb-9c8d-1c5842cd6e14"},"vehicle_type_id":"4","last_reported":1737810636,"current_range_meters":39200,"station_id":"ce4bgs12rcd13ifvqcag","pricing_plan_id":"cebpf4jnsgd1na2vs0mg"},{"bike_id":"96e478b8-d63a-4424-b82a-650e56f7d584","system_id":"levelo_inurba_marseille","lat":43.29914,"lon":5.37461,"is_reserved":false,"is_disabled":false,"rental_uris":{"android":"levelo://app?vid=96e478b8-d63a-4424-b82a-650e56f7d584","ios":"levelo://app?vid=96e478b8-d63a-4424-b82a-650e56f7d584"},"vehicle_type_id":"4","last_reported":1737810636,"current_range_meters":39200,"station_id":"ce4bgjh2rcd13ifvqbg0","pricing_plan_id":"cebpf4jnsgd1na2vs0mg"},{"bike_id":"361cd0b7-edfc-4eec-a6fd-ba4bdf540479","system_id":"levelo_inurba_marseille","lat":43.32474,"lon":5.36555,"is_reserved":false,"is_disabled":false,"rental_uris":{"android":"levelo://app?vid=361cd0b7-edfc-4eec-a6fd-ba4bdf540479","ios":"levelo://app?vid=361cd0b7-edfc-4eec-a6fd-ba4bdf540479"},"vehicle_type_id":"4","last_reported":1737810636,"current_range_meters":36400,"station_id":"ce4bhs12rcd13ifvqhvg","pricing_plan_id":"cebpf4jnsgd1na2vs0mg"},{"bike_id":"d0ae0312-004c-40cd-8f6e-61941782f579","system_id":"levelo_inurba_marseille","lat":43.30802,"lon":5.3815,"is_reserved":false,"is_disabled":true,"rental_uris":{"android":"levelo://app?vid=d0ae0312-004c-40cd-8f6e-61941782f579","ios":"levelo://app?vid=d0ae0312-004c-40cd-8f6e-61941782f579"},"vehicle_type_id":"4","last_reported":1737810636,"current_range_meters":30400,"station_id":"ce4bgt12rcd13ifvqce0","pricing_plan_id":"cebpf4jnsgd1na2vs0mg"},{"bike_id":"29af223e-652f-45b9-ac49-c1179617d491","system_id":"levelo_inurba_marseille","lat":43.24388,"lon":5.37049,"is_reserved":false,"is_disabled":false,"rental_uris":{"android":"levelo://app?vid=29af223e-652f-45b9-ac49-c1179617d491","ios":"levelo://app?vid=29af223e-652f-45b9-ac49-c1179617d491"},"vehicle_type_id":"4","last_reported":1737810636,"current_range_meters":35600,"station_id":"ce4bhhh2rcd13ifvqfk0","pricing_plan_id":"cebpf4jnsgd1na2vs0mg"},{"bike_id":"787fabc3-eb91-469a-81b6-44a6fdcc4a9b","system_id":"levelo_inurba_marseille","lat":43.23065,"lon":5.35496,"is_reserved":false,"is_disabled":true,"rental_uris":{"android":"levelo://app?vid=787fabc3-eb91-469a-81b6-44a6fdcc4a9b","ios":"levelo://app?vid=787fabc3-eb91-469a-81b6-44a6fdcc4a9b"},"vehicle_type_id":"4","last_reported":1737810636,"current_range_meters":1200,"station_id":"cpo3342slgdg3j2ifvpg","pricing_plan_id":"cebpf4jnsgd1na2vs0mg"},{"bike_id":"bd002190-7253-4748-ac67-ef72549b7175","system_id":"levelo_inurba_marseille","lat":43.32478,"lon":5.36558,"is_reserved":false,"is_disabled":false,"rental_uris":{"android":"levelo://app?vid=bd002190-7253-4748-ac67-ef72549b7175","ios":"levelo://app?vid=bd002190-7253-4748-ac67-ef72549b7175"},"vehicle_type_id":"4","last_reported":1737810636,"current_range_meters":18800,"station_id":"ce4bhs12rcd13ifvqhvg","pricing_plan_id":"cebpf4jnsgd1na2vs0mg"},{"bike_id":"135924fb-5e1a-4006-8b3c-0a6dcc2e60ec","system_id":"levelo_inurba_marseille","lat":43.24397,"lon":5.37048,"is_reserved":false,"is_disabled":false,"rental_uris":{"android":"levelo://app?vid=135924fb-5e1a-4006-8b3c-0a6dcc2e60ec","ios":"levelo://app?vid=135924fb-5e1a-4006-8b3c-0a6dcc2e60ec"},"vehicle_type_id":"4","last_reported":1737810636,"current_range_meters":38400,"station_id":"ce4bhhh2rcd13ifvqfk0","pricing_plan_id":"cebpf4jnsgd1na2vs0mg"},{"bike_id":"6037994a-2d39-4f27-8621-92e5f0b7ed0c","system_id":"levelo_inurba_marseille","lat":43.23154,"lon":5.43725,"is_reserved":false,"is_disabled":false,"rental_uris":{"android":"levelo://app?vid=6037994a-2d39-4f27-8621-92e5f0b7ed0c","ios":"levelo://app?vid=6037994a-2d39-4f27-8621-92e5f0b7ed0c"},"vehicle_type_id":"4","last_reported":1737810636,"current_range_meters":24000,"station_id":"ce4bhmp2rcd13ifvqgog","pricing_plan_id":"cebpf4jnsgd1na2vs0mg"},{"bike_id":"bd5a1b2b-5df6-4c9a-bae6-bbbf7dd353bb","system_id":"levelo_inurba_marseille","lat":43.28267,"lon":5.35079,"is_reserved":false,"is_disabled":false,"rental_uris":{"android":"levelo://app?vid=bd5a1b2b-5df6-4c9a-bae6-bbbf7dd353bb","ios":"levelo://app?vid=bd5a1b2b-5df6-4c9a-bae6-bbbf7dd353bb"},"vehicle_type_id":"4","last_reported":1737810636,"current_range_meters":38800,"station_id":"ce4bhbp2rcd13ifvqerg","pricing_plan_id":"cebpf4jnsgd1na2vs0mg"},{"bike_id":"a6da11aa-cb09-4191-a454-c3a90a627542","system_id":"levelo_inurba_marseille","lat":43.25864,"lon":5.39901,"is_reserved":false,"is_disabled":false,"rental_uris":{"android":"levelo://app?vid=a6da11aa-cb09-4191-a454-c3a90a627542","ios":"levelo://app?vid=a6da11aa-cb09-4191-a454-c3a90a627542"},"vehicle_type_id":"4","last_reported":1737810636,"current_range_meters":6400,"station_id":"ce4bhl92rcd13ifvqghg","pricing_plan_id":"cebpf4jnsgd1na2vs0mg"},{"bike_id":"ea624404-124a-4128-9041-089ad79942c5","system_id":"levelo_inurba_marseille","lat":43.29549,"lon":5.42292,"is_reserved":false,"is_disabled":false,"rental_uris":{"android":"levelo://app?vid=ea624404-124a-4128-9041-089ad79942c5","ios":"levelo://app?vid=ea624404-124a-4128-9041-089ad79942c5"},"vehicle_type_id":"4","last_reported":1737810636,"current_range_meters":32000,"station_id":"ce4bhph2rcd13ifvqhdg","pricing_plan_id":"cebpf4jnsgd1na2vs0mg"},{"bike_id":"7f1596e0-f6d9-4072-b5fd-4558f8ae0b9d","system_id":"levelo_inurba_marseille","lat":43.25732,"lon":5.41106,"is_reserved":false,"is_disabled":false,"rental_uris":{"android":"levelo://app?vid=7f1596e0-f6d9-4072-b5fd-4558f8ae0b9d","ios":"levelo://app?vid=7f1596e0-f6d9-4072-b5fd-4558f8ae0b9d"},"vehicle_type_id":"4","last_reported":1737810636,"current_range_meters":38800,"station_id":"ce4bhkp2rcd13ifvqgd0","pricing_plan_id":"cebpf4jnsgd1na2vs0mg"},{"bike_id":"662826ac-353a-4d90-b4d6-b01a8f2632b2","system_id":"levelo_inurba_marseille","lat":43.22926,"lon":5.35387,"is_reserved":false,"is_disabled":false,"rental_uris":{"android":"levelo://app?vid=662826ac-353a-4d90-b4d6-b01a8f2632b2","ios":"levelo://app?vid=662826ac-353a-4d90-b4d6-b01a8f2632b2"},"vehicle_type_id":"4","last_reported":1737810636,"current_range_meters":24400,"station_id":"cpo3532slgdg3j2ikp40","pricing_plan_id":"cebpf4jnsgd1na2vs0mg"},{"bike_id":"29491d7d-f868-4f7c-a2e3-46ac004a6d47","system_id":"levelo_inurba_marseille","lat":43.29351,"lon":5.37846,"is_reserved":false,"is_disabled":false,"rental_uris":{"android":"levelo://app?vid=29491d7d-f868-4f7c-a2e3-46ac004a6d47","ios":"levelo://app?vid=29491d7d-f868-4f7c-a2e3-46ac004a6d47"},"vehicle_type_id":"4","last_reported":1737810636,"current_range_meters":24400,"station_id":"ce4bgjh2rcd13ifvqbf0","pricing_plan_id":"cebpf4jnsgd1na2vs0mg"},{"bike_id":"9696924a-b655-4c3b-952a-eb79690eeb58","system_id":"levelo_inurba_marseille","lat":43.23142,"lon":5.43731,"is_reserved":false,"is_disabled":false,"rental_uris":{"android":"levelo://app?vid=9696924a-b655-4c3b-952a-eb79690eeb58","ios":"levelo://app?vid=9696924a-b655-4c3b-952a-eb79690eeb58"},"vehicle_type_id":"4","last_reported":1737810636,"current_range_meters":36000,"station_id":"ce4bhmp2rcd13ifvqgog","pricing_plan_id":"cebpf4jnsgd1na2vs0mg"},{"bike_id":"40276c2b-c10e-42ab-857d-43e7ecb22cd6","system_id":"levelo_inurba_marseille","lat":43.271959,"lon":5.410068,"is_reserved":false,"is_disabled":false,"rental_uris":{"android":"levelo://app?vid=40276c2b-c10e-42ab-857d-43e7ecb22cd6","ios":"levelo://app?vid=40276c2b-c10e-42ab-857d-43e7ecb22cd6"},"vehicle_type_id":"4","last_reported":1737810636,"current_range_meters":32800,"station_id":"ce4bhl12rcd13ifvqgf0","pricing_plan_id":"cebpf4jnsgd1na2vs0mg"},{"bike_id":"a847d4ee-6dce-4ba6-81f4-b8b05e1e04c7","system_id":"levelo_inurba_marseille","lat":43.29226,"lon":5.36069,"is_reserved":false,"is_disabled":false,"rental_uris":{"android":"levelo://app?vid=a847d4ee-6dce-4ba6-81f4-b8b05e1e04c7","ios":"levelo://app?vid=a847d4ee-6dce-4ba6-81f4-b8b05e1e04c7"},"vehicle_type_id":"4","last_reported":1737810636,"current_range_meters":24000,"station_id":"ce4bhbh2rcd13ifvqeqg","pricing_plan_id":"cebpf4jnsgd1na2vs0mg"},{"bike_id":"2a11e3df-2eca-45e8-a934-0e950d59bd00","system_id":"levelo_inurba_marseille","lat":43.2827,"lon":5.35073,"is_reserved":false,"is_disabled":true,"rental_uris":{"android":"levelo://app?vid=2a11e3df-2eca-45e8-a934-0e950d59bd00","ios":"levelo://app?vid=2a11e3df-2eca-45e8-a934-0e950d59bd00"},"vehicle_type_id":"4","last_reported":1737810636,"current_range_meters":1600,"station_id":"ce4bhbp2rcd13ifvqerg","pricing_plan_id":"cebpf4jnsgd1na2vs0mg"},{"bike_id":"03c9ea00-dc72-414c-b006-4436167fc80d","system_id":"levelo_inurba_marseille","lat":43.29794,"lon":5.40418,"is_reserved":false,"is_disabled":false,"rental_uris":{"android":"levelo://app?vid=03c9ea00-dc72-414c-b006-4436167fc80d","ios":"levelo://app?vid=03c9ea00-dc72-414c-b006-4436167fc80d"},"vehicle_type_id":"4","last_reported":1737810636,"current_range_meters":38800,"station_id":"ce4bh112rcd13ifvqd90","pricing_plan_id":"cebpf4jnsgd1na2vs0mg"},{"bike_id":"18777148-8978-438b-82fa-d702dd4920f1","system_id":"levelo_inurba_marseille","lat":43.28238,"lon":5.35094,"is_reserved":false,"is_disabled":false,"rental_uris":{"android":"levelo://app?vid=18777148-8978-438b-82fa-d702dd4920f1","ios":"levelo://app?vid=18777148-8978-438b-82fa-d702dd4920f1"},"vehicle_type_id":"4","last_reported":1737810636,"current_range_meters":32800,"station_id":"ce4bhbp2rcd13ifvqerg","pricing_plan_id":"cebpf4jnsgd1na2vs0mg"},{"bike_id":"ffa5fa8a-08e2-4cca-a913-b7bcc6693e58","system_id":"levelo_inurba_marseille","lat":43.32061,"lon":5.41519,"is_reserved":false,"is_disabled":false,"rental_uris":{"android":"levelo://app?vid=ffa5fa8a-08e2-4cca-a913-b7bcc6693e58","ios":"levelo://app?vid=ffa5fa8a-08e2-4cca-a913-b7bcc6693e58"},"vehicle_type_id":"4","last_reported":1737810636,"current_range_meters":17600,"station_id":"ce4bhq92rcd13ifvqhkg","pricing_plan_id":"cebpf4jnsgd1na2vs0mg"},{"bike_id":"00d570d3-3e44-418e-8fb5-d8cab8cadbe0","system_id":"levelo_inurba_marseille","lat":43.2998,"lon":5.37179,"is_reserved":false,"is_disabled":false,"rental_uris":{"android":"levelo://app?vid=00d570d3-3e44-418e-8fb5-d8cab8cadbe0","ios":"levelo://app?vid=00d570d3-3e44-418e-8fb5-d8cab8cadbe0"},"vehicle_type_id":"4","last_reported":1737810636,"current_range_meters":39200,"station_id":"ce4bgr92rcd13ifvqc7g","pricing_plan_id":"cebpf4jnsgd1na2vs0mg"},{"bike_id":"65b8614e-3341-455c-8c98-42b5d99800dd","system_id":"levelo_inurba_marseille","lat":43.29297,"lon":5.37434,"is_reserved":false,"is_disabled":false,"rental_uris":{"android":"levelo://app?vid=65b8614e-3341-455c-8c98-42b5d99800dd","ios":"levelo://app?vid=65b8614e-3341-455c-8c98-42b5d99800dd"},"vehicle_type_id":"4","last_reported":1737810636,"current_range_meters":36000,"station_id":"ce4bgi12rcd13ifvqb70","pricing_plan_id":"cebpf4jnsgd1na2vs0mg"},{"bike_id":"4696d5ef-8a42-4036-a71c-2c9add75b0f9","system_id":"levelo_inurba_marseille","lat":43.29973,"lon":5.4133,"is_reserved":false,"is_disabled":false,"rental_uris":{"android":"levelo://app?vid=4696d5ef-8a42-4036-a71c-2c9add75b0f9","ios":"levelo://app?vid=4696d5ef-8a42-4036-a71c-2c9add75b0f9"},"vehicle_type_id":"4","last_reported":1737810636,"current_range_meters":35200,"station_id":"ce4bhp12rcd13ifvqh9g","pricing_plan_id":"cebpf4jnsgd1na2vs0mg"},{"bike_id":"0ee42e9d-671c-4504-91a8-fe1b698bb168","system_id":"levelo_inurba_marseille","lat":43.30294,"lon":5.37698,"is_reserved":false,"is_disabled":false,"rental_uris":{"android":"levelo://app?vid=0ee42e9d-671c-4504-91a8-fe1b698bb168","ios":"levelo://app?vid=0ee42e9d-671c-4504-91a8-fe1b698bb168"},"vehicle_type_id":"4","last_reported":1737810636,"current_range_meters":36400,"station_id":"ce4bguh2rcd13ifvqcj0","pricing_plan_id":"cebpf4jnsgd1na2vs0mg"},{"bike_id":"258e6798-08f1-4042-a334-2465a7133c40","system_id":"levelo_inurba_marseille","lat":43.25501,"lon":5.37655,"is_reserved":false,"is_disabled":true,"rental_uris":{"android":"levelo://app?vid=258e6798-08f1-4042-a334-2465a7133c40","ios":"levelo://app?vid=258e6798-08f1-4042-a334-2465a7133c40"},"vehicle_type_id":"4","last_reported":1737810636,"current_range_meters":2000,"station_id":"ce4bhh12rcd13ifvqff0","pricing_plan_id":"cebpf4jnsgd1na2vs0mg"},{"bike_id":"9a37ac37-f926-4d7d-86c7-a53397fd0331","system_id":"levelo_inurba_marseille","lat":43.31164,"lon":5.38721,"is_reserved":false,"is_disabled":false,"rental_uris":{"android":"levelo://app?vid=9a37ac37-f926-4d7d-86c7-a53397fd0331","ios":"levelo://app?vid=9a37ac37-f926-4d7d-86c7-a53397fd0331"},"vehicle_type_id":"4","last_reported":1737810636,"current_range_meters":36000,"station_id":"ce4bgv12rcd13ifvqcp0","pricing_plan_id":"cebpf4jnsgd1na2vs0mg"},{"bike_id":"571fc473-8937-4299-8e51-e85601e79bdd","system_id":"levelo_inurba_marseille","lat":43.30346,"lon":5.41891,"is_reserved":false,"is_disabled":false,"rental_uris":{"android":"levelo://app?vid=571fc473-8937-4299-8e51-e85601e79bdd","ios":"levelo://app?vid=571fc473-8937-4299-8e51-e85601e79bdd"},"vehicle_type_id":"4","last_reported":1737810636,"current_range_meters":29600,"station_id":"ce4bhop2rcd13ifvqh7g","pricing_plan_id":"cebpf4jnsgd1na2vs0mg"},{"bike_id":"4bb2a34b-95e7-4118-bac5-381f80bca59d","system_id":"levelo_inurba_marseille","lat":43.31482,"lon":5.37306,"is_reserved":false,"is_disabled":false,"rental_uris":{"android":"levelo://app?vid=4bb2a34b-95e7-4118-bac5-381f80bca59d","ios":"levelo://app?vid=4bb2a34b-95e7-4118-bac5-381f80bca59d"},"vehicle_type_id":"4","last_reported":1737810636,"current_range_meters":34800,"station_id":"ce4bgt12rcd13ifvqcd0","pricing_plan_id":"cebpf4jnsgd1na2vs0mg"},{"bike_id":"3652c3b8-e21b-4bee-9ce5-adee5e000098","system_id":"levelo_inurba_marseille","lat":43.27322,"lon":5.391,"is_reserved":false,"is_disabled":false,"rental_uris":{"android":"levelo://app?vid=3652c3b8-e21b-4bee-9ce5-adee5e000098","ios":"levelo://app?vid=3652c3b8-e21b-4bee-9ce5-adee5e000098"},"vehicle_type_id":"4","last_reported":1737810636,"current_range_meters":6400,"station_id":"ce4bhgp2rcd13ifvqfe0","pricing_plan_id":"cebpf4jnsgd1na2vs0mg"},{"bike_id":"9d02f1c9-e2b9-44db-a3d4-b6e99abb6bb6","system_id":"levelo_inurba_marseille","lat":43.304351,"lon":5.397371,"is_reserved":false,"is_disabled":false,"rental_uris":{"android":"levelo://app?vid=9d02f1c9-e2b9-44db-a3d4-b6e99abb6bb6","ios":"levelo://app?vid=9d02f1c9-e2b9-44db-a3d4-b6e99abb6bb6"},"vehicle_type_id":"4","last_reported":1737810636,"current_range_meters":39200,"station_id":"ce4bh092rcd13ifvqd20","pricing_plan_id":"cebpf4jnsgd1na2vs0mg"},{"bike_id":"f9c62656-c213-4d37-bccf-53ca245dbdbd","system_id":"levelo_inurba_marseille","lat":43.3301,"lon":5.39043,"is_reserved":false,"is_disabled":false,"rental_uris":{"android":"levelo://app?vid=f9c62656-c213-4d37-bccf-53ca245dbdbd","ios":"levelo://app?vid=f9c62656-c213-4d37-bccf-53ca245dbdbd"},"vehicle_type_id":"4","last_reported":1737810636,"current_range_meters":14000,"station_id":"ce4bhr92rcd13ifvqhrg","pricing_plan_id":"cebpf4jnsgd1na2vs0mg"},{"bike_id":"f24f8359-2270-49cb-8621-b8468827c436","system_id":"levelo_inurba_marseille","lat":43.26193,"lon":5.3745,"is_reserved":false,"is_disabled":false,"rental_uris":{"android":"levelo://app?vid=f24f8359-2270-49cb-8621-b8468827c436","ios":"levelo://app?vid=f24f8359-2270-49cb-8621-b8468827c436"},"vehicle_type_id":"4","last_reported":1737810636,"current_range_meters":38000,"station_id":"ce4bhgp2rcd13ifvqfc0","pricing_plan_id":"cebpf4jnsgd1na2vs0mg"},{"bike_id":"0c21f865-7b69-4aae-b926-535c6e7e0c30","system_id":"levelo_inurba_marseille","lat":43.25106,"lon":5.40332,"is_reserved":false,"is_disabled":true,"rental_uris":{"android":"levelo://app?vid=0c21f865-7b69-4aae-b926-535c6e7e0c30","ios":"levelo://app?vid=0c21f865-7b69-4aae-b926-535c6e7e0c30"},"vehicle_type_id":"4","last_reported":1737810636,"current_range_meters":0,"station_id":"ce4bhlh2rcd13ifvqgig","pricing_plan_id":"cebpf4jnsgd1na2vs0mg"},{"bike_id":"7c78a755-c7f5-4f07-a96b-621451d47948","system_id":"levelo_inurba_marseille","lat":43.29909,"lon":5.43674,"is_reserved":false,"is_disabled":false,"rental_uris":{"android":"levelo://app?vid=7c78a755-c7f5-4f07-a96b-621451d47948","ios":"levelo://app?vid=7c78a755-c7f5-4f07-a96b-621451d47948"},"vehicle_type_id":"4","last_reported":1737810636,"current_range_meters":36400,"station_id":"ce4bhpp2rcd13ifvqhfg","pricing_plan_id":"cebpf4jnsgd1na2vs0mg"},{"bike_id":"941388b2-0af8-4b8c-8a63-bf905460402c","system_id":"levelo_inurba_marseille","lat":43.23057,"lon":5.35493,"is_reserved":false,"is_disabled":false,"rental_uris":{"android":"levelo://app?vid=941388b2-0af8-4b8c-8a63-bf905460402c","ios":"levelo://app?vid=941388b2-0af8-4b8c-8a63-bf905460402c"},"vehicle_type_id":"4","last_reported":1737810636,"current_range_meters":24400,"station_id":"cpo3342slgdg3j2ifvpg","pricing_plan_id":"cebpf4jnsgd1na2vs0mg"},{"bike_id":"a8b3868c-9097-4bd1-b3b9-5aa9695377b5","system_id":"levelo_inurba_marseille","lat":43.29043,"lon":5.39977,"is_reserved":false,"is_disabled":false,"rental_uris":{"android":"levelo://app?vid=a8b3868c-9097-4bd1-b3b9-5aa9695377b5","ios":"levelo://app?vid=a8b3868c-9097-4bd1-b3b9-5aa9695377b5"},"vehicle_type_id":"4","last_reported":1737810636,"current_range_meters":4400,"station_id":"ce4bh392rcd13ifvqdm0","pricing_plan_id":"cebpf4jnsgd1na2vs0mg"},{"bike_id":"5b00c2f6-f174-421b-8166-f5972b68a123","system_id":"levelo_inurba_marseille","lat":43.28943,"lon":5.3963,"is_reserved":false,"is_disabled":false,"rental_uris":{"android":"levelo://app?vid=5b00c2f6-f174-421b-8166-f5972b68a123","ios":"levelo://app?vid=5b00c2f6-f174-421b-8166-f5972b68a123"},"vehicle_type_id":"4","last_reported":1737810636,"current_range_meters":20400,"station_id":"ce4bh3h2rcd13ifvqdn0","pricing_plan_id":"cebpf4jnsgd1na2vs0mg"},{"bike_id":"ced1cf7b-cf8e-4299-9404-33fd182e4297","system_id":"levelo_inurba_marseille","lat":43.28157,"lon":5.42655,"is_reserved":false,"is_disabled":false,"rental_uris":{"android":"levelo://app?vid=ced1cf7b-cf8e-4299-9404-33fd182e4297","ios":"levelo://app?vid=ced1cf7b-cf8e-4299-9404-33fd182e4297"},"vehicle_type_id":"4","last_reported":1737810636,"current_range_meters":33200,"station_id":"ce4bhnh2rcd13ifvqgug","pricing_plan_id":"cebpf4jnsgd1na2vs0mg"},{"bike_id":"7b1e016f-c7a2-457d-b49c-9279d3d77813","system_id":"levelo_inurba_marseille","lat":43.243873,"lon":5.370597,"is_reserved":false,"is_disabled":false,"rental_uris":{"android":"levelo://app?vid=7b1e016f-c7a2-457d-b49c-9279d3d77813","ios":"levelo://app?vid=7b1e016f-c7a2-457d-b49c-9279d3d77813"},"vehicle_type_id":"4","last_reported":1737810636,"current_range_meters":16800,"station_id":"ce4bhhh2rcd13ifvqfk0","pricing_plan_id":"cebpf4jnsgd1na2vs0mg"},{"bike_id":"33d3ffe1-e3e9-418a-b490-d57e282184f6","system_id":"levelo_inurba_marseille","lat":43.2827,"lon":5.35069,"is_reserved":false,"is_disabled":false,"rental_uris":{"android":"levelo://app?vid=33d3ffe1-e3e9-418a-b490-d57e282184f6","ios":"levelo://app?vid=33d3ffe1-e3e9-418a-b490-d57e282184f6"},"vehicle_type_id":"4","last_reported":1737810636,"current_range_meters":20000,"station_id":"ce4bhbp2rcd13ifvqerg","pricing_plan_id":"cebpf4jnsgd1na2vs0mg"},{"bike_id":"f83eae7a-ac87-48aa-9902-f2e5e16ac1f4","system_id":"levelo_inurba_marseille","lat":43.30953,"lon":5.39043,"is_reserved":false,"is_disabled":false,"rental_uris":{"android":"levelo://app?vid=f83eae7a-ac87-48aa-9902-f2e5e16ac1f4","ios":"levelo://app?vid=f83eae7a-ac87-48aa-9902-f2e5e16ac1f4"},"vehicle_type_id":"4","last_reported":1737810636,"current_range_meters":35600,"station_id":"ce4bgup2rcd13ifvqco0","pricing_plan_id":"cebpf4jnsgd1na2vs0mg"},{"bike_id":"7efe2e23-4eb5-42e6-bdfe-af45bc849b33","system_id":"levelo_inurba_marseille","lat":43.25103,"lon":5.40321,"is_reserved":false,"is_disabled":false,"rental_uris":{"android":"levelo://app?vid=7efe2e23-4eb5-42e6-bdfe-af45bc849b33","ios":"levelo://app?vid=7efe2e23-4eb5-42e6-bdfe-af45bc849b33"},"vehicle_type_id":"4","last_reported":1737810636,"current_range_meters":8000,"station_id":"ce4bhlh2rcd13ifvqgig","pricing_plan_id":"cebpf4jnsgd1na2vs0mg"},{"bike_id":"8fd0082a-8558-471d-bd5c-8f2bb03de120","system_id":"levelo_inurba_marseille","lat":43.28694,"lon":5.40007,"is_reserved":false,"is_disabled":true,"rental_uris":{"android":"levelo://app?vid=8fd0082a-8558-471d-bd5c-8f2bb03de120","ios":"levelo://app?vid=8fd0082a-8558-471d-bd5c-8f2bb03de120"},"vehicle_type_id":"4","last_reported":1737810636,"current_range_meters":30800,"station_id":"ce4bho92rcd13ifvqh3g","pricing_plan_id":"cebpf4jnsgd1na2vs0mg"},{"bike_id":"8d975c31-be34-4f8f-ae0f-d5a9b8af984f","system_id":"levelo_inurba_marseille","lat":43.26221,"lon":5.37452,"is_reserved":false,"is_disabled":false,"rental_uris":{"android":"levelo://app?vid=8d975c31-be34-4f8f-ae0f-d5a9b8af984f","ios":"levelo://app?vid=8d975c31-be34-4f8f-ae0f-d5a9b8af984f"},"vehicle_type_id":"4","last_reported":1737810636,"current_range_meters":25600,"station_id":"ce4bhgp2rcd13ifvqfc0","pricing_plan_id":"cebpf4jnsgd1na2vs0mg"},{"bike_id":"de28f31c-5ea8-45db-af22-8d2d1ee5b5f6","system_id":"levelo_inurba_marseille","lat":43.26192,"lon":5.37451,"is_reserved":false,"is_disabled":false,"rental_uris":{"android":"levelo://app?vid=de28f31c-5ea8-45db-af22-8d2d1ee5b5f6","ios":"levelo://app?vid=de28f31c-5ea8-45db-af22-8d2d1ee5b5f6"},"vehicle_type_id":"4","last_reported":1737810636,"current_range_meters":35200,"station_id":"ce4bhgp2rcd13ifvqfc0","pricing_plan_id":"cebpf4jnsgd1na2vs0mg"},{"bike_id":"981ae15d-8ce2-4b67-a580-05b436d7acf8","system_id":"levelo_inurba_marseille","lat":43.29606,"lon":5.37732,"is_reserved":false,"is_disabled":false,"rental_uris":{"android":"levelo://app?vid=981ae15d-8ce2-4b67-a580-05b436d7acf8","ios":"levelo://app?vid=981ae15d-8ce2-4b67-a580-05b436d7acf8"},"vehicle_type_id":"4","last_reported":1737810636,"current_range_meters":39200,"station_id":"ce4bgi92rcd13ifvqb90","pricing_plan_id":"cebpf4jnsgd1na2vs0mg"},{"bike_id":"b996c87f-d903-42b5-80db-0cef1eda72fd","system_id":"levelo_inurba_marseille","lat":43.23065,"lon":5.35494,"is_reserved":false,"is_disabled":false,"rental_uris":{"android":"levelo://app?vid=b996c87f-d903-42b5-80db-0cef1eda72fd","ios":"levelo://app?vid=b996c87f-d903-42b5-80db-0cef1eda72fd"},"vehicle_type_id":"4","last_reported":1737810636,"current_range_meters":9200,"station_id":"cpo3342slgdg3j2ifvpg","pricing_plan_id":"cebpf4jnsgd1na2vs0mg"},{"bike_id":"f6b9dfa3-8a24-4a50-a3d1-40c4ad4d5a60","system_id":"levelo_inurba_marseille","lat":43.30294,"lon":5.3769,"is_reserved":false,"is_disabled":false,"rental_uris":{"android":"levelo://app?vid=f6b9dfa3-8a24-4a50-a3d1-40c4ad4d5a60","ios":"levelo://app?vid=f6b9dfa3-8a24-4a50-a3d1-40c4ad4d5a60"},"vehicle_type_id":"4","last_reported":1737810636,"current_range_meters":39200,"station_id":"ce4bguh2rcd13ifvqcj0","pricing_plan_id":"cebpf4jnsgd1na2vs0mg"},{"bike_id":"ef4f3dc7-7f2f-474b-b4c3-6647cb08a0e3","system_id":"levelo_inurba_marseille","lat":43.23175,"lon":5.39988,"is_reserved":false,"is_disabled":false,"rental_uris":{"android":"levelo://app?vid=ef4f3dc7-7f2f-474b-b4c3-6647cb08a0e3","ios":"levelo://app?vid=ef4f3dc7-7f2f-474b-b4c3-6647cb08a0e3"},"vehicle_type_id":"4","last_reported":1737810636,"current_range_meters":17200,"station_id":"ce4bhn12rcd13ifvqgqg","pricing_plan_id":"cebpf4jnsgd1na2vs0mg"},{"bike_id":"9f0c46f0-4fb9-4e17-b4b9-e5ede73a87dc","system_id":"levelo_inurba_marseille","lat":43.323687,"lon":5.389057,"is_reserved":false,"is_disabled":false,"rental_uris":{"android":"levelo://app?vid=9f0c46f0-4fb9-4e17-b4b9-e5ede73a87dc","ios":"levelo://app?vid=9f0c46f0-4fb9-4e17-b4b9-e5ede73a87dc"},"vehicle_type_id":"4","last_reported":1737810636,"current_range_meters":29600,"station_id":"ce4bhqp2rcd13ifvqhog","pricing_plan_id":"cebpf4jnsgd1na2vs0mg"},{"bike_id":"1b8ab376-cfd7-48b3-9ad4-fc3dd25c0ae2","system_id":"levelo_inurba_marseille","lat":43.30141,"lon":5.38092,"is_reserved":false,"is_disabled":false,"rental_uris":{"android":"levelo://app?vid=1b8ab376-cfd7-48b3-9ad4-fc3dd25c0ae2","ios":"levelo://app?vid=1b8ab376-cfd7-48b3-9ad4-fc3dd25c0ae2"},"vehicle_type_id":"4","last_reported":1737810636,"current_range_meters":33600,"station_id":"ce4bgjp2rcd13ifvqbh0","pricing_plan_id":"cebpf4jnsgd1na2vs0mg"},{"bike_id":"2ea6a61d-d705-4a63-a98b-4f2a07523899","system_id":"levelo_inurba_marseille","lat":43.29603,"lon":5.38099,"is_reserved":false,"is_disabled":false,"rental_uris":{"android":"levelo://app?vid=2ea6a61d-d705-4a63-a98b-4f2a07523899","ios":"levelo://app?vid=2ea6a61d-d705-4a63-a98b-4f2a07523899"},"vehicle_type_id":"4","last_reported":1737810636,"current_range_meters":28400,"station_id":"ce4bgl12rcd13ifvqbo0","pricing_plan_id":"cebpf4jnsgd1na2vs0mg"},{"bike_id":"1ddf198a-94ae-4a42-a842-41c98885b560","system_id":"levelo_inurba_marseille","lat":43.28257,"lon":5.35079,"is_reserved":false,"is_disabled":false,"rental_uris":{"android":"levelo://app?vid=1ddf198a-94ae-4a42-a842-41c98885b560","ios":"levelo://app?vid=1ddf198a-94ae-4a42-a842-41c98885b560"},"vehicle_type_id":"4","last_reported":1737810636,"current_range_meters":38800,"station_id":"ce4bhbp2rcd13ifvqerg","pricing_plan_id":"cebpf4jnsgd1na2vs0mg"},{"bike_id":"0851b06b-a037-4e68-9057-2908986d991d","system_id":"levelo_inurba_marseille","lat":43.303505,"lon":5.418835,"is_reserved":false,"is_disabled":false,"rental_uris":{"android":"levelo://app?vid=0851b06b-a037-4e68-9057-2908986d991d","ios":"levelo://app?vid=0851b06b-a037-4e68-9057-2908986d991d"},"vehicle_type_id":"4","last_reported":1737810636,"current_range_meters":28800,"station_id":"ce4bhop2rcd13ifvqh7g","pricing_plan_id":"cebpf4jnsgd1na2vs0mg"},{"bike_id":"c0b644b6-26e4-455f-ae83-a05f98b1353f","system_id":"levelo_inurba_marseille","lat":43.29427,"lon":5.38623,"is_reserved":false,"is_disabled":true,"rental_uris":{"android":"levelo://app?vid=c0b644b6-26e4-455f-ae83-a05f98b1353f","ios":"levelo://app?vid=c0b644b6-26e4-455f-ae83-a05f98b1353f"},"vehicle_type_id":"4","last_reported":1737810636,"current_range_meters":1200,"station_id":"ce4bh2h2rcd13ifvqdh0","pricing_plan_id":"cebpf4jnsgd1na2vs0mg"},{"bike_id":"16cba4e1-cb10-44ef-b1a1-eca95385335f","system_id":"levelo_inurba_marseille","lat":43.28435,"lon":5.34974,"is_reserved":false,"is_disabled":true,"rental_uris":{"android":"levelo://app?vid=16cba4e1-cb10-44ef-b1a1-eca95385335f","ios":"levelo://app?vid=16cba4e1-cb10-44ef-b1a1-eca95385335f"},"vehicle_type_id":"4","last_reported":1737810636,"current_range_meters":16800,"station_id":"ce4bhbh2rcd13ifvqepg","pricing_plan_id":"cebpf4jnsgd1na2vs0mg"},{"bike_id":"7a10888c-582c-499c-a3fa-0ab95acc6885","system_id":"levelo_inurba_marseille","lat":43.27054,"lon":5.40268,"is_reserved":false,"is_disabled":false,"rental_uris":{"android":"levelo://app?vid=7a10888c-582c-499c-a3fa-0ab95acc6885","ios":"levelo://app?vid=7a10888c-582c-499c-a3fa-0ab95acc6885"},"vehicle_type_id":"4","last_reported":1737810636,"current_range_meters":36800,"station_id":"ce4bhk92rcd13ifvqgc0","pricing_plan_id":"cebpf4jnsgd1na2vs0mg"},{"bike_id":"afcc05d6-d4af-4639-9287-3a5b11787558","system_id":"levelo_inurba_marseille","lat":43.265054,"lon":5.390969,"is_reserved":false,"is_disabled":false,"rental_uris":{"android":"levelo://app?vid=afcc05d6-d4af-4639-9287-3a5b11787558","ios":"levelo://app?vid=afcc05d6-d4af-4639-9287-3a5b11787558"},"vehicle_type_id":"4","last_reported":1737810636,"current_range_meters":18000,"station_id":"ce4bhe12rcd13ifvqf30","pricing_plan_id":"cebpf4jnsgd1na2vs0mg"},{"bike_id":"bb7496df-daf2-4393-b56b-ee3b4e878b75","system_id":"levelo_inurba_marseille","lat":43.28077,"lon":5.39655,"is_reserved":false,"is_disabled":false,"rental_uris":{"android":"levelo://app?vid=bb7496df-daf2-4393-b56b-ee3b4e878b75","ios":"levelo://app?vid=bb7496df-daf2-4393-b56b-ee3b4e878b75"},"vehicle_type_id":"4","last_reported":1737810636,"current_range_meters":30400,"station_id":"ce4bho12rcd13ifvqh2g","pricing_plan_id":"cebpf4jnsgd1na2vs0mg"},{"bike_id":"83a95331-0d16-4e0a-a8a9-81eddcf100c2","system_id":"levelo_inurba_marseille","lat":43.30259,"lon":5.40078,"is_reserved":false,"is_disabled":false,"rental_uris":{"android":"levelo://app?vid=83a95331-0d16-4e0a-a8a9-81eddcf100c2","ios":"levelo://app?vid=83a95331-0d16-4e0a-a8a9-81eddcf100c2"},"vehicle_type_id":"4","last_reported":1737810636,"current_range_meters":38000,"station_id":"ce4bgvh2rcd13ifvqcs0","pricing_plan_id":"cebpf4jnsgd1na2vs0mg"},{"bike_id":"29b2f172-f357-4da9-a86c-20cfbdbf57fe","system_id":"levelo_inurba_marseille","lat":43.28865,"lon":5.39332,"is_reserved":false,"is_disabled":false,"rental_uris":{"android":"levelo://app?vid=29b2f172-f357-4da9-a86c-20cfbdbf57fe","ios":"levelo://app?vid=29b2f172-f357-4da9-a86c-20cfbdbf57fe"},"vehicle_type_id":"4","last_reported":1737810636,"current_range_meters":32800,"station_id":"ce4bh2p2rcd13ifvqdi0","pricing_plan_id":"cebpf4jnsgd1na2vs0mg"},{"bike_id":"0d1a7803-6ebb-4ea1-b5f5-51adf05304cb","system_id":"levelo_inurba_marseille","lat":43.30459,"lon":5.37911,"is_reserved":false,"is_disabled":false,"rental_uris":{"android":"levelo://app?vid=0d1a7803-6ebb-4ea1-b5f5-51adf05304cb","ios":"levelo://app?vid=0d1a7803-6ebb-4ea1-b5f5-51adf05304cb"},"vehicle_type_id":"4","last_reported":1737810636,"current_range_meters":11200,"station_id":"ce4bgup2rcd13ifvqcn0","pricing_plan_id":"cebpf4jnsgd1na2vs0mg"},{"bike_id":"e28cd362-bf6b-4a47-b19d-eace2e851faa","system_id":"levelo_inurba_marseille","lat":43.23063,"lon":5.35493,"is_reserved":false,"is_disabled":false,"rental_uris":{"android":"levelo://app?vid=e28cd362-bf6b-4a47-b19d-eace2e851faa","ios":"levelo://app?vid=e28cd362-bf6b-4a47-b19d-eace2e851faa"},"vehicle_type_id":"4","last_reported":1737810636,"current_range_meters":24800,"station_id":"cpo3342slgdg3j2ifvpg","pricing_plan_id":"cebpf4jnsgd1na2vs0mg"},{"bike_id":"c18b10af-b2f5-4b56-972a-91fb04736951","system_id":"levelo_inurba_marseille","lat":43.30547,"lon":5.36556,"is_reserved":false,"is_disabled":false,"rental_uris":{"android":"levelo://app?vid=c18b10af-b2f5-4b56-972a-91fb04736951","ios":"levelo://app?vid=c18b10af-b2f5-4b56-972a-91fb04736951"},"vehicle_type_id":"4","last_reported":1737810636,"current_range_meters":19200,"station_id":"ce4bgs12rcd13ifvqcag","pricing_plan_id":"cebpf4jnsgd1na2vs0mg"},{"bike_id":"4c0b93da-7877-486c-95dc-6eafdae732e2","system_id":"levelo_inurba_marseille","lat":43.30785,"lon":5.37642,"is_reserved":false,"is_disabled":false,"rental_uris":{"android":"levelo://app?vid=4c0b93da-7877-486c-95dc-6eafdae732e2","ios":"levelo://app?vid=4c0b93da-7877-486c-95dc-6eafdae732e2"},"vehicle_type_id":"4","last_reported":1737810636,"current_range_meters":10800,"station_id":"ce4bgv92rcd13ifvqcq0","pricing_plan_id":"cebpf4jnsgd1na2vs0mg"},{"bike_id":"4eb52794-b42c-4636-9bfd-5e9d7453cd55","system_id":"levelo_inurba_marseille","lat":43.2849,"lon":5.38569,"is_reserved":false,"is_disabled":false,"rental_uris":{"android":"levelo://app?vid=4eb52794-b42c-4636-9bfd-5e9d7453cd55","ios":"levelo://app?vid=4eb52794-b42c-4636-9bfd-5e9d7453cd55"},"vehicle_type_id":"4","last_reported":1737810636,"current_range_meters":9200,"station_id":"ce4bh8p2rcd13ifvqeb0","pricing_plan_id":"cebpf4jnsgd1na2vs0mg"},{"bike_id":"2b8e90db-8819-413f-9fe2-a6878a7b442a","system_id":"levelo_inurba_marseille","lat":43.29717,"lon":5.37687,"is_reserved":false,"is_disabled":false,"rental_uris":{"android":"levelo://app?vid=2b8e90db-8819-413f-9fe2-a6878a7b442a","ios":"levelo://app?vid=2b8e90db-8819-413f-9fe2-a6878a7b442a"},"vehicle_type_id":"4","last_reported":1737810636,"current_range_meters":38400,"station_id":"ce4bgkh2rcd13ifvqbl0","pricing_plan_id":"cebpf4jnsgd1na2vs0mg"},{"bike_id":"f4a67fd7-7ba0-462e-b321-724410a83bc3","system_id":"levelo_inurba_marseille","lat":43.28617,"lon":5.35105,"is_reserved":false,"is_disabled":true,"rental_uris":{"android":"levelo://app?vid=f4a67fd7-7ba0-462e-b321-724410a83bc3","ios":"levelo://app?vid=f4a67fd7-7ba0-462e-b321-724410a83bc3"},"vehicle_type_id":"4","last_reported":1737810636,"current_range_meters":17200,"station_id":"ce4bhch2rcd13ifvqeug","pricing_plan_id":"cebpf4jnsgd1na2vs0mg"},{"bike_id":"841a1767-078e-4378-8ef2-78843610d635","system_id":"levelo_inurba_marseille","lat":43.232,"lon":5.35565,"is_reserved":false,"is_disabled":false,"rental_uris":{"android":"levelo://app?vid=841a1767-078e-4378-8ef2-78843610d635","ios":"levelo://app?vid=841a1767-078e-4378-8ef2-78843610d635"},"vehicle_type_id":"4","last_reported":1737810636,"current_range_meters":7200,"station_id":"ce4bhu92rcd13ifvqi70","pricing_plan_id":"cebpf4jnsgd1na2vs0mg"},{"bike_id":"1ef1003d-aecf-4f9e-85a7-6c3e8f13f1c0","system_id":"levelo_inurba_marseille","lat":43.22929,"lon":5.35382,"is_reserved":false,"is_disabled":false,"rental_uris":{"android":"levelo://app?vid=1ef1003d-aecf-4f9e-85a7-6c3e8f13f1c0","ios":"levelo://app?vid=1ef1003d-aecf-4f9e-85a7-6c3e8f13f1c0"},"vehicle_type_id":"4","last_reported":1737810636,"current_range_meters":11200,"station_id":"cpo3532slgdg3j2ikp40","pricing_plan_id":"cebpf4jnsgd1na2vs0mg"},{"bike_id":"79b9e133-afd1-4fbb-a6ed-5f12602b9c05","system_id":"levelo_inurba_marseille","lat":43.28264,"lon":5.35078,"is_reserved":false,"is_disabled":false,"rental_uris":{"android":"levelo://app?vid=79b9e133-afd1-4fbb-a6ed-5f12602b9c05","ios":"levelo://app?vid=79b9e133-afd1-4fbb-a6ed-5f12602b9c05"},"vehicle_type_id":"4","last_reported":1737810636,"current_range_meters":28800,"station_id":"ce4bhbp2rcd13ifvqerg","pricing_plan_id":"cebpf4jnsgd1na2vs0mg"},{"bike_id":"a429b57d-452d-4623-b8d1-c6c8eb545a68","system_id":"levelo_inurba_marseille","lat":43.28275,"lon":5.35057,"is_reserved":false,"is_disabled":false,"rental_uris":{"android":"levelo://app?vid=a429b57d-452d-4623-b8d1-c6c8eb545a68","ios":"levelo://app?vid=a429b57d-452d-4623-b8d1-c6c8eb545a68"},"vehicle_type_id":"4","last_reported":1737810636,"current_range_meters":30800,"station_id":"ce4bhbp2rcd13ifvqerg","pricing_plan_id":"cebpf4jnsgd1na2vs0mg"},{"bike_id":"95144118-884f-4827-9dc4-395be0b57793","system_id":"levelo_inurba_marseille","lat":43.31713,"lon":5.42393,"is_reserved":false,"is_disabled":false,"rental_uris":{"android":"levelo://app?vid=95144118-884f-4827-9dc4-395be0b57793","ios":"levelo://app?vid=95144118-884f-4827-9dc4-395be0b57793"},"vehicle_type_id":"4","last_reported":1737810636,"current_range_meters":38800,"station_id":"ce4bhp92rcd13ifvqhbg","pricing_plan_id":"cebpf4jnsgd1na2vs0mg"},{"bike_id":"f0ea2b6a-80e2-4a1c-8829-2617faab7925","system_id":"levelo_inurba_marseille","lat":43.34147,"lon":5.40886,"is_reserved":false,"is_disabled":false,"rental_uris":{"android":"levelo://app?vid=f0ea2b6a-80e2-4a1c-8829-2617faab7925","ios":"levelo://app?vid=f0ea2b6a-80e2-4a1c-8829-2617faab7925"},"vehicle_type_id":"4","last_reported":1737810636,"current_range_meters":38000,"station_id":"ce4bhqh2rcd13ifvqhlg","pricing_plan_id":"cebpf4jnsgd1na2vs0mg"},{"bike_id":"5c995afd-2cd1-49c1-8bf9-110c6b679d80","system_id":"levelo_inurba_marseille","lat":43.240785,"lon":5.377488,"is_reserved":false,"is_disabled":false,"rental_uris":{"android":"levelo://app?vid=5c995afd-2cd1-49c1-8bf9-110c6b679d80","ios":"levelo://app?vid=5c995afd-2cd1-49c1-8bf9-110c6b679d80"},"vehicle_type_id":"4","last_reported":1737810636,"current_range_meters":8000,"station_id":"ce4bhnp2rcd13ifvqgvg","pricing_plan_id":"cebpf4jnsgd1na2vs0mg"},{"bike_id":"164386fe-30c9-4115-85f5-95e2f1424e97","system_id":"levelo_inurba_marseille","lat":43.2316,"lon":5.43708,"is_reserved":false,"is_disabled":false,"rental_uris":{"android":"levelo://app?vid=164386fe-30c9-4115-85f5-95e2f1424e97","ios":"levelo://app?vid=164386fe-30c9-4115-85f5-95e2f1424e97"},"vehicle_type_id":"4","last_reported":1737810636,"current_range_meters":9200,"station_id":"ce4bhmp2rcd13ifvqgog","pricing_plan_id":"cebpf4jnsgd1na2vs0mg"},{"bike_id":"adce305b-52ab-48ed-b869-88a382f8d738","system_id":"levelo_inurba_marseille","lat":43.24068,"lon":5.37758,"is_reserved":false,"is_disabled":false,"rental_uris":{"android":"levelo://app?vid=adce305b-52ab-48ed-b869-88a382f8d738","ios":"levelo://app?vid=adce305b-52ab-48ed-b869-88a382f8d738"},"vehicle_type_id":"4","last_reported":1737810636,"current_range_meters":28800,"station_id":"ce4bhnp2rcd13ifvqgvg","pricing_plan_id":"cebpf4jnsgd1na2vs0mg"},{"bike_id":"b64d880e-4583-44f0-8c16-3495e23cf3e5","system_id":"levelo_inurba_marseille","lat":43.29893,"lon":5.43663,"is_reserved":false,"is_disabled":false,"rental_uris":{"android":"levelo://app?vid=b64d880e-4583-44f0-8c16-3495e23cf3e5","ios":"levelo://app?vid=b64d880e-4583-44f0-8c16-3495e23cf3e5"},"vehicle_type_id":"4","last_reported":1737810636,"current_range_meters":24400,"station_id":"ce4bhpp2rcd13ifvqhfg","pricing_plan_id":"cebpf4jnsgd1na2vs0mg"},{"bike_id":"aa0f0c17-5398-4660-bb86-d231c3452a48","system_id":"levelo_inurba_marseille","lat":43.31359,"lon":5.3851,"is_reserved":false,"is_disabled":false,"rental_uris":{"android":"levelo://app?vid=aa0f0c17-5398-4660-bb86-d231c3452a48","ios":"levelo://app?vid=aa0f0c17-5398-4660-bb86-d231c3452a48"},"vehicle_type_id":"4","last_reported":1737810636,"current_range_meters":38800,"station_id":"ce4bgt92rcd13ifvqcf0","pricing_plan_id":"cebpf4jnsgd1na2vs0mg"},{"bike_id":"b873533f-943b-4033-a86d-9d99128fa59a","system_id":"levelo_inurba_marseille","lat":43.32477,"lon":5.36578,"is_reserved":false,"is_disabled":false,"rental_uris":{"android":"levelo://app?vid=b873533f-943b-4033-a86d-9d99128fa59a","ios":"levelo://app?vid=b873533f-943b-4033-a86d-9d99128fa59a"},"vehicle_type_id":"4","last_reported":1737810636,"current_range_meters":38800,"station_id":"ce4bhs12rcd13ifvqhvg","pricing_plan_id":"cebpf4jnsgd1na2vs0mg"},{"bike_id":"e33af010-abb5-4e39-a12d-4bc7ec9d16cc","system_id":"levelo_inurba_marseille","lat":43.2998,"lon":5.37178,"is_reserved":false,"is_disabled":false,"rental_uris":{"android":"levelo://app?vid=e33af010-abb5-4e39-a12d-4bc7ec9d16cc","ios":"levelo://app?vid=e33af010-abb5-4e39-a12d-4bc7ec9d16cc"},"vehicle_type_id":"4","last_reported":1737810636,"current_range_meters":36400,"station_id":"ce4bgr92rcd13ifvqc7g","pricing_plan_id":"cebpf4jnsgd1na2vs0mg"},{"bike_id":"c6eb5c4c-ffb8-4227-b060-4e2a28985b77","system_id":"levelo_inurba_marseille","lat":43.23168,"lon":5.39994,"is_reserved":false,"is_disabled":false,"rental_uris":{"android":"levelo://app?vid=c6eb5c4c-ffb8-4227-b060-4e2a28985b77","ios":"levelo://app?vid=c6eb5c4c-ffb8-4227-b060-4e2a28985b77"},"vehicle_type_id":"4","last_reported":1737810636,"current_range_meters":4400,"station_id":"ce4bhn12rcd13ifvqgqg","pricing_plan_id":"cebpf4jnsgd1na2vs0mg"},{"bike_id":"94456f3d-5d42-4ffd-b863-1e094f7fbd0d","system_id":"levelo_inurba_marseille","lat":43.23057,"lon":5.35491,"is_reserved":false,"is_disabled":false,"rental_uris":{"android":"levelo://app?vid=94456f3d-5d42-4ffd-b863-1e094f7fbd0d","ios":"levelo://app?vid=94456f3d-5d42-4ffd-b863-1e094f7fbd0d"},"vehicle_type_id":"4","last_reported":1737810636,"current_range_meters":14000,"station_id":"cpo3342slgdg3j2ifvpg","pricing_plan_id":"cebpf4jnsgd1na2vs0mg"},{"bike_id":"f80d01d0-a712-409a-8ab3-b8a044fec525","system_id":"levelo_inurba_marseille","lat":43.25867,"lon":5.39924,"is_reserved":false,"is_disabled":true,"rental_uris":{"android":"levelo://app?vid=f80d01d0-a712-409a-8ab3-b8a044fec525","ios":"levelo://app?vid=f80d01d0-a712-409a-8ab3-b8a044fec525"},"vehicle_type_id":"4","last_reported":1737810636,"current_range_meters":38400,"station_id":"ce4bhl92rcd13ifvqghg","pricing_plan_id":"cebpf4jnsgd1na2vs0mg"},{"bike_id":"375c54aa-d8c3-44cb-9610-967b44886ba6","system_id":"levelo_inurba_marseille","lat":43.33617,"lon":5.41019,"is_reserved":false,"is_disabled":false,"rental_uris":{"android":"levelo://app?vid=375c54aa-d8c3-44cb-9610-967b44886ba6","ios":"levelo://app?vid=375c54aa-d8c3-44cb-9610-967b44886ba6"},"vehicle_type_id":"4","last_reported":1737810636,"current_range_meters":38800,"station_id":"ce4bhqh2rcd13ifvqhmg","pricing_plan_id":"cebpf4jnsgd1na2vs0mg"},{"bike_id":"dc3cc8b3-b152-4cb6-8fc4-d6cd73f4fb97","system_id":"levelo_inurba_marseille","lat":43.2927,"lon":5.36848,"is_reserved":false,"is_disabled":false,"rental_uris":{"android":"levelo://app?vid=dc3cc8b3-b152-4cb6-8fc4-d6cd73f4fb97","ios":"levelo://app?vid=dc3cc8b3-b152-4cb6-8fc4-d6cd73f4fb97"},"vehicle_type_id":"4","last_reported":1737810636,"current_range_meters":29600,"station_id":"ce4bhbp2rcd13ifvqesg","pricing_plan_id":"cebpf4jnsgd1na2vs0mg"},{"bike_id":"c50cf93a-6b59-47ad-b33e-2c9c3fe13678","system_id":"levelo_inurba_marseille","lat":43.30896,"lon":5.37182,"is_reserved":false,"is_disabled":false,"rental_uris":{"android":"levelo://app?vid=c50cf93a-6b59-47ad-b33e-2c9c3fe13678","ios":"levelo://app?vid=c50cf93a-6b59-47ad-b33e-2c9c3fe13678"},"vehicle_type_id":"4","last_reported":1737810636,"current_range_meters":3600,"station_id":"ce4bguh2rcd13ifvqckg","pricing_plan_id":"cebpf4jnsgd1na2vs0mg"},{"bike_id":"0da05c91-b4db-4424-93fa-80e05b294f90","system_id":"levelo_inurba_marseille","lat":43.33027,"lon":5.39065,"is_reserved":false,"is_disabled":false,"rental_uris":{"android":"levelo://app?vid=0da05c91-b4db-4424-93fa-80e05b294f90","ios":"levelo://app?vid=0da05c91-b4db-4424-93fa-80e05b294f90"},"vehicle_type_id":"4","last_reported":1737810636,"current_range_meters":38000,"station_id":"ce4bhr92rcd13ifvqhrg","pricing_plan_id":"cebpf4jnsgd1na2vs0mg"},{"bike_id":"1cb608a3-2fbf-4015-a470-3ff6d2ef635e","system_id":"levelo_inurba_marseille","lat":43.31887,"lon":5.40743,"is_reserved":false,"is_disabled":false,"rental_uris":{"android":"levelo://app?vid=1cb608a3-2fbf-4015-a470-3ff6d2ef635e","ios":"levelo://app?vid=1cb608a3-2fbf-4015-a470-3ff6d2ef635e"},"vehicle_type_id":"4","last_reported":1737810636,"current_range_meters":36800,"station_id":"ce4bhq12rcd13ifvqhig","pricing_plan_id":"cebpf4jnsgd1na2vs0mg"},{"bike_id":"f9d1568c-97ef-44c7-b3b2-fce509d6d87a","system_id":"levelo_inurba_marseille","lat":43.28416,"lon":5.37516,"is_reserved":false,"is_disabled":true,"rental_uris":{"android":"levelo://app?vid=f9d1568c-97ef-44c7-b3b2-fce509d6d87a","ios":"levelo://app?vid=f9d1568c-97ef-44c7-b3b2-fce509d6d87a"},"vehicle_type_id":"4","last_reported":1737810636,"current_range_meters":10800,"station_id":"ce4bh412rcd13ifvqds0","pricing_plan_id":"cebpf4jnsgd1na2vs0mg"},{"bike_id":"47efad21-2110-4528-ad36-275b768d62d6","system_id":"levelo_inurba_marseille","lat":43.31075,"lon":5.38367,"is_reserved":false,"is_disabled":false,"rental_uris":{"android":"levelo://app?vid=47efad21-2110-4528-ad36-275b768d62d6","ios":"levelo://app?vid=47efad21-2110-4528-ad36-275b768d62d6"},"vehicle_type_id":"4","last_reported":1737810636,"current_range_meters":12000,"station_id":"ce4bgv92rcd13ifvqcr0","pricing_plan_id":"cebpf4jnsgd1na2vs0mg"},{"bike_id":"b0369faa-a437-4967-9d60-117b9aad263f","system_id":"levelo_inurba_marseille","lat":43.30543,"lon":5.36549,"is_reserved":false,"is_disabled":false,"rental_uris":{"android":"levelo://app?vid=b0369faa-a437-4967-9d60-117b9aad263f","ios":"levelo://app?vid=b0369faa-a437-4967-9d60-117b9aad263f"},"vehicle_type_id":"4","last_reported":1737810636,"current_range_meters":30400,"station_id":"ce4bgs12rcd13ifvqcag","pricing_plan_id":"cebpf4jnsgd1na2vs0mg"},{"bike_id":"cc0858b7-8adb-4ff4-8bb0-bb7e6db8eb3c","system_id":"levelo_inurba_marseille","lat":43.29042,"lon":5.39972,"is_reserved":false,"is_disabled":false,"rental_uris":{"android":"levelo://app?vid=cc0858b7-8adb-4ff4-8bb0-bb7e6db8eb3c","ios":"levelo://app?vid=cc0858b7-8adb-4ff4-8bb0-bb7e6db8eb3c"},"vehicle_type_id":"4","last_reported":1737810636,"current_range_meters":24800,"station_id":"ce4bh392rcd13ifvqdm0","pricing_plan_id":"cebpf4jnsgd1na2vs0mg"},{"bike_id":"081f9a1c-93b6-4d13-94cd-7890906fd0cd","system_id":"levelo_inurba_marseille","lat":43.28625,"lon":5.35112,"is_reserved":false,"is_disabled":false,"rental_uris":{"android":"levelo://app?vid=081f9a1c-93b6-4d13-94cd-7890906fd0cd","ios":"levelo://app?vid=081f9a1c-93b6-4d13-94cd-7890906fd0cd"},"vehicle_type_id":"4","last_reported":1737810636,"current_range_meters":36400,"station_id":"ce4bhch2rcd13ifvqeug","pricing_plan_id":"cebpf4jnsgd1na2vs0mg"},{"bike_id":"002ae048-d736-4c4f-adc0-89d9c749c6a3","system_id":"levelo_inurba_marseille","lat":43.26207,"lon":5.37927,"is_reserved":false,"is_disabled":false,"rental_uris":{"android":"levelo://app?vid=002ae048-d736-4c4f-adc0-89d9c749c6a3","ios":"levelo://app?vid=002ae048-d736-4c4f-adc0-89d9c749c6a3"},"vehicle_type_id":"4","last_reported":1737810636,"current_range_meters":39200,"station_id":"ce4bhjp2rcd13ifvqg90","pricing_plan_id":"cebpf4jnsgd1na2vs0mg"},{"bike_id":"576b8657-d5e2-4d23-9b1e-461b2180cd28","system_id":"levelo_inurba_marseille","lat":43.2293,"lon":5.35395,"is_reserved":false,"is_disabled":false,"rental_uris":{"android":"levelo://app?vid=576b8657-d5e2-4d23-9b1e-461b2180cd28","ios":"levelo://app?vid=576b8657-d5e2-4d23-9b1e-461b2180cd28"},"vehicle_type_id":"4","last_reported":1737810636,"current_range_meters":39200,"station_id":"cpo3532slgdg3j2ikp40","pricing_plan_id":"cebpf4jnsgd1na2vs0mg"},{"bike_id":"9f9d4442-89fe-47bc-91e0-b5e6dd1efdea","system_id":"levelo_inurba_marseille","lat":43.29872,"lon":5.36262,"is_reserved":false,"is_disabled":false,"rental_uris":{"android":"levelo://app?vid=9f9d4442-89fe-47bc-91e0-b5e6dd1efdea","ios":"levelo://app?vid=9f9d4442-89fe-47bc-91e0-b5e6dd1efdea"},"vehicle_type_id":"4","last_reported":1737810636,"current_range_meters":38800,"station_id":"ce4bgpp2rcd13ifvqc3g","pricing_plan_id":"cebpf4jnsgd1na2vs0mg"},