{"last_updated":1683968749,"ttl":30,"version":"2.2","data":{"bikes":[{"bike_id":"7cc72136-2914-4258-88d1-7b67816020a7","system_id":"levelo_inurba_marseille","lat":43.313391,"lon":5.36706,"is_reserved":false,"is_disabled":false,"rental_uris":{"android":"levelo://app?vid=7cc72136-2914-4258-88d1-7b67816020a7","ios":"levelo://app?vid=7cc72136-2914-4258-88d1-7b67816020a7"},"vehicle_type_id":"4","last_reported":1683968749,"current_range_meters":30000,"station_id":"ce4bgr92rcd13ifvqc6g","pricing_plan_id":"free"},{"bike_id":"587d7e94-da37-4de2-80e1-426004de5738","system_id":"levelo_inurba_marseille","lat":43.313391,"lon":5.36706,"is_reserved":false,"is_disabled":false,"rental_uris":{"android":"levelo://app?vid=587d7e94-da37-4de2-80e1-426004de5738","ios":"levelo://app?vid=587d7e94-da37-4de2-80e1-426004de5738"},"vehicle_type_id":"4","last_reported":1683968749,"current_range_meters":30800,"station_id":"ce4bgr92rcd13ifvqc6g","pricing_plan_id":"free"},{"bike_id":"6b7c3507-e295-43af-a5ca-a2173ed82b2f","system_id":"levelo_inurba_marseille","lat":43.312239,"lon":5.368562,"is_reserved":false,"is_disabled":false,"rental_uris":{"android":"levelo://app?vid=6b7c3507-e295-43af-a5ca-a2173ed82b2f","ios":"levelo://app?vid=6b7c3507-e295-43af-a5ca-a2173ed82b2f"},"vehicle_type_id":"4","last_reported":1683968749,"current_range_meters":26800,"station_id":"ce4bgl92rcd13ifvqbq0","pricing_plan_id":"free"},{"bike_id":"caf62a47-260f-4ea6-957c-2cd2b8faadb8","system_id":"levelo_inurba_marseille","lat":43.312239,"lon":5.368562,"is_reserved":false,"is_disabled":false,"rental_uris":{"android":"levelo://app?vid=caf62a47-260f-4ea6-957c-2cd2b8faadb8","ios":"levelo://app?vid=caf62a47-260f-4ea6-957c-2cd2b8faadb8"},"vehicle_type_id":"4","last_reported":1683968749,"current_range_meters":31200,"station_id":"ce4bgl92rcd13ifvqbq0","pricing_plan_id":"free"},{"bike_id":"142f6700-5d51-4b70-b614-ea33d4b62805","system_id":"levelo_inurba_marseille","lat":43.312239,"lon":5.368562,"is_reserved":false,"is_disabled":false,"rental_uris":{"android":"levelo://app?vid=142f6700-5d51-4b70-b614-ea33d4b62805","ios":"levelo://app?vid=142f6700-5d51-4b70-b614-ea33d4b62805"},"vehicle_type_id":"4","last_reported":1683968749,"current_range_meters":25200,"station_id":"ce4bgl92rcd13ifvqbq0","pricing_plan_id":"free"},{"bike_id":"236c7117-0423-4673-bd21-105819686532","system_id":"levelo_inurba_marseille","lat":43.312239,"lon":5.368562,"is_reserved":false,"is_disabled":false,"rental_uris":{"android":"levelo://app?vid=236c7117-0423-4673-bd21-105819686532","ios":"levelo://app?vid=236c7117-0423-4673-bd21-105819686532"},"vehicle_type_id":"4","last_reported":1683968749,"current_range_meters":18400,"station_id":"ce4bgl92rcd13ifvqbq0","pricing_plan_id":"free"},{"bike_id":"811330d4-6d07-4878-a99a-c9851bedcc29","system_id":"levelo_inurba_marseille","lat":43.312239,"lon":5.368562,"is_reserved":false,"is_disabled":false,"rental_uris":{"android":"levelo://app?vid=811330d4-6d07-4878-a99a-c9851bedcc29","ios":"levelo://app?vid=811330d4-6d07-4878-a99a-c9851bedcc29"},"vehicle_type_id":"4","last_reported":1683968749,"current_range_meters":29600,"station_id":"ce4bgl92rcd13ifvqbq0","pricing_plan_id":"free"},{"bike_id":"048f28fb-86d7-489b-ba57-fe72c51a5c87","system_id":"levelo_inurba_marseille","lat":43.312239,"lon":5.368562,"is_reserved":false,"is_disabled":false,"rental_uris":{"android":"levelo://app?vid=048f28fb-86d7-489b-ba57-fe72c51a5c87","ios":"levelo://app?vid=048f28fb-86d7-489b-ba57-fe72c51a5c87"},"vehicle_type_id":"4","last_reported":1683968749,"current_range_meters":26000,"station_id":"ce4bgl92rcd13ifvqbq0","pricing_plan_id":"free"},{"bike_id":"832e6e2b-5d22-4ee2-8289-94f6504362ed","system_id":"levelo_inurba_marseille","lat":43.312239,"lon":5.368562,"is_reserved":false,"is_disabled":false,"rental_uris":{"android":"levelo://app?vid=832e6e2b-5d22-4ee2-8289-94f6504362ed","ios":"levelo://app?vid=832e6e2b-5d22-4ee2-8289-94f6504362ed"},"vehicle_type_id":"4","last_reported":1683968749,"current_range_meters":25600,"station_id":"ce4bgl92rcd13ifvqbq0","pricing_plan_id":"free"},{"bike_id":"74b03030-f764-44f2-a651-9c6e9c253c21","system_id":"levelo_inurba_marseille","lat":43.312239,"lon":5.368562,"is_reserved":false,"is_disabled":false,"rental_uris":{"android":"levelo://app?vid=74b03030-f764-44f2-a651-9c6e9c253c21","ios":"levelo://app?vid=74b03030-f764-44f2-a651-9c6e9c253c21"},"vehicle_type_id":"4","last_reported":1683968749,"current_range_meters":28400,"station_id":"ce4bgl92rcd13ifvqbq0","pricing_plan_id":"free"},{"bike_id":"7dec533e-2e53-48cf-b763-0250f0d304ba","system_id":"levelo_inurba_marseille","lat":43.312239,"lon":5.368562,"is_reserved":false,"is_disabled":false,"rental_uris":{"android":"levelo://app?vid=7dec533e-2e53-48cf-b763-0250f0d304ba","ios":"levelo://app?vid=7dec533e-2e53-48cf-b763-0250f0d304ba"},"vehicle_type_id":"4","last_reported":1683968749,"current_range_meters":27200,"station_id":"ce4bgl92rcd13ifvqbq0","pricing_plan_id":"free"},{"bike_id":"8048eea1-a21f-447e-ac45-82c78ea043e7","system_id":"levelo_inurba_marseille","lat":43.308614,"lon":5.372098,"is_reserved":false,"is_disabled":false,"rental_uris":{"android":"levelo://app?vid=8048eea1-a21f-447e-ac45-82c78ea043e7","ios":"levelo://app?vid=8048eea1-a21f-447e-ac45-82c78ea043e7"},"vehicle_type_id":"4","last_reported":1683968749,"current_range_meters":21200,"station_id":"ce4bguh2rcd13ifvqckg","pricing_plan_id":"free"},{"bike_id":"9fba2d74-e12d-467e-bb49-3618cc52e11c","system_id":"levelo_inurba_marseille","lat":43.308614,"lon":5.372098,"is_reserved":false,"is_disabled":false,"rental_uris":{"android":"levelo://app?vid=9fba2d74-e12d-467e-bb49-3618cc52e11c","ios":"levelo://app?vid=9fba2d74-e12d-467e-bb49-3618cc52e11c"},"vehicle_type_id":"4","last_reported":1683968749,"current_range_meters":6000,"station_id":"ce4bguh2rcd13ifvqckg","pricing_plan_id":"free"},{"bike_id":"e719c882-3281-4031-85fe-6e5791a0dc68","system_id":"levelo_inurba_marseille","lat":43.30886,"lon":5.37188,"is_reserved":false,"is_disabled":false,"rental_uris":{"android":"levelo://app?vid=e719c882-3281-4031-85fe-6e5791a0dc68","ios":"levelo://app?vid=e719c882-3281-4031-85fe-6e5791a0dc68"},"vehicle_type_id":"4","last_reported":1683968749,"current_range_meters":0,"station_id":"","pricing_plan_id":"free"},{"bike_id":"712d80da-4d8c-4f0b-845a-1ba448167734","system_id":"levelo_inurba_marseille","lat":43.308614,"lon":5.372098,"is_reserved":false,"is_disabled":false,"rental_uris":{"android":"levelo://app?vid=712d80da-4d8c-4f0b-845a-1ba448167734","ios":"levelo://app?vid=712d80da-4d8c-4f0b-845a-1ba448167734"},"vehicle_type_id":"4","last_reported":1683968749,"current_range_meters":16800,"station_id":"ce4bguh2rcd13ifvqckg","pricing_plan_id":"free"},{"bike_id":"d2b166d9-c8d6-4fd3-b597-be54c8150895","system_id":"levelo_inurba_marseille","lat":43.305714,"lon":5.365633,"is_reserved":false,"is_disabled":false,"rental_uris":{"android":"levelo://app?vid=d2b166d9-c8d6-4fd3-b597-be54c8150895","ios":"levelo://app?vid=d2b166d9-c8d6-4fd3-b597-be54c8150895"},"vehicle_type_id":"4","last_reported":1683968749,"current_range_meters":21600,"station_id":"ce4bgs12rcd13ifvqcag","pricing_plan_id":"free"},{"bike_id":"9d26f3e0-7a81-4370-9a03-554efd7fbb1c","system_id":"levelo_inurba_marseille","lat":43.305714,"lon":5.365633,"is_reserved":false,"is_disabled":false,"rental_uris":{"android":"levelo://app?vid=9d26f3e0-7a81-4370-9a03-554efd7fbb1c","ios":"levelo://app?vid=9d26f3e0-7a81-4370-9a03-554efd7fbb1c"},"vehicle_type_id":"4","last_reported":1683968749,"current_range_meters":14000,"station_id":"ce4bgs12rcd13ifvqcag","pricing_plan_id":"free"},{"bike_id":"bf5a8e3b-df88-409d-a143-4ca353fd525b","system_id":"levelo_inurba_marseille","lat":43.305368,"lon":5.367343,"is_reserved":false,"is_disabled":false,"rental_uris":{"android":"levelo://app?vid=bf5a8e3b-df88-409d-a143-4ca353fd525b","ios":"levelo://app?vid=bf5a8e3b-df88-409d-a143-4ca353fd525b"},"vehicle_type_id":"4","last_reported":1683968749,"current_range_meters":29600,"station_id":"ce4bgrp2rcd13ifvqc9g","pricing_plan_id":"free"},{"bike_id":"31ac1052-7886-4412-8797-2b722433b3a6","system_id":"levelo_inurba_marseille","lat":43.305368,"lon":5.367343,"is_reserved":false,"is_disabled":false,"rental_uris":{"android":"levelo://app?vid=31ac1052-7886-4412-8797-2b722433b3a6","ios":"levelo://app?vid=31ac1052-7886-4412-8797-2b722433b3a6"},"vehicle_type_id":"4","last_reported":1683968749,"current_range_meters":18800,"station_id":"ce4bgrp2rcd13ifvqc9g","pricing_plan_id":"free"},{"bike_id":"5543cf46-004e-44c1-af5c-243a2dbe3f0a","system_id":"levelo_inurba_marseille","lat":43.305368,"lon":5.367343,"is_reserved":false,"is_disabled":false,"rental_uris":{"android":"levelo://app?vid=5543cf46-004e-44c1-af5c-243a2dbe3f0a","ios":"levelo://app?vid=5543cf46-004e-44c1-af5c-243a2dbe3f0a"},"vehicle_type_id":"4","last_reported":1683968749,"current_range_meters":21600,"station_id":"ce4bgrp2rcd13ifvqc9g","pricing_plan_id":"free"},{"bike_id":"c706453a-66b4-41d7-a74a-468a5939e1f6","system_id":"levelo_inurba_marseille","lat":43.305706,"lon":5.365654,"is_reserved":false,"is_disabled":false,"rental_uris":{"android":"levelo://app?vid=c706453a-66b4-41d7-a74a-468a5939e1f6","ios":"levelo://app?vid=c706453a-66b4-41d7-a74a-468a5939e1f6"},"vehicle_type_id":"4","last_reported":1683968749,"current_range_meters":0,"station_id":"ce4bgs12rcd13ifvqcag","pricing_plan_id":"free"},{"bike_id":"c4259b04-67d1-46c9-ae96-a389910c30d9","system_id":"levelo_inurba_marseille","lat":43.305989,"lon":5.37225,"is_reserved":false,"is_disabled":false,"rental_uris":{"android":"levelo://app?vid=c4259b04-67d1-46c9-ae96-a389910c30d9","ios":"levelo://app?vid=c4259b04-67d1-46c9-ae96-a389910c30d9"},"vehicle_type_id":"4","last_reported":1683968749,"current_range_meters":23200,"station_id":"ce4bgqh2rcd13ifvqc4g","pricing_plan_id":"free"},{"bike_id":"b1af0496-764e-4073-b96f-66fda5afb230","system_id":"levelo_inurba_marseille","lat":43.305706,"lon":5.365654,"is_reserved":false,"is_disabled":false,"rental_uris":{"android":"levelo://app?vid=b1af0496-764e-4073-b96f-66fda5afb230","ios":"levelo://app?vid=b1af0496-764e-4073-b96f-66fda5afb230"},"vehicle_type_id":"4","last_reported":1683968749,"current_range_meters":25600,"station_id":"ce4bgs12rcd13ifvqcag","pricing_plan_id":"free"},{"bike_id":"279562e3-65a0-4af1-a615-40afeda75f71","system_id":"levelo_inurba_marseille","lat":43.305368,"lon":5.367343,"is_reserved":false,"is_disabled":false,"rental_uris":{"android":"levelo://app?vid=279562e3-65a0-4af1-a615-40afeda75f71","ios":"levelo://app?vid=279562e3-65a0-4af1-a615-40afeda75f71"},"vehicle_type_id":"4","last_reported":1683968749,"current_range_meters":20800,"station_id":"ce4bgrp2rcd13ifvqc9g","pricing_plan_id":"free"},{"bike_id":"151d50bc-3aee-48d5-9527-783274464e00","system_id":"levelo_inurba_marseille","lat":43.31191,"lon":5.37749,"is_reserved":false,"is_disabled":false,"rental_uris":{"android":"levelo://app?vid=151d50bc-3aee-48d5-9527-783274464e00","ios":"levelo://app?vid=151d50bc-3aee-48d5-9527-783274464e00"},"vehicle_type_id":"4","last_reported":1683968749,"current_range_meters":13600,"station_id":"","pricing_plan_id":"free"},{"bike_id":"89f69f11-fb7e-4135-ac4f-7d97c54eb311","system_id":"levelo_inurba_marseille","lat":43.303046,"lon":5.368981,"is_reserved":false,"is_disabled":false,"rental_uris":{"android":"levelo://app?vid=89f69f11-fb7e-4135-ac4f-7d97c54eb311","ios":"levelo://app?vid=89f69f11-fb7e-4135-ac4f-7d97c54eb311"},"vehicle_type_id":"4","last_reported":1683968749,"current_range_meters":21200,"station_id":"ce4bgqh2rcd13ifvqc5g","pricing_plan_id":"free"},{"bike_id":"5a141bc0-cedc-46c9-b383-2fc0e2b6c7c1","system_id":"levelo_inurba_marseille","lat":43.303046,"lon":5.368981,"is_reserved":false,"is_disabled":false,"rental_uris":{"android":"levelo://app?vid=5a141bc0-cedc-46c9-b383-2fc0e2b6c7c1","ios":"levelo://app?vid=5a141bc0-cedc-46c9-b383-2fc0e2b6c7c1"},"vehicle_type_id":"4","last_reported":1683968749,"current_range_meters":2400,"station_id":"ce4bgqh2rcd13ifvqc5g","pricing_plan_id":"free"},{"bike_id":"cc2f9074-fbb8-4db4-818b-39a62d198bcc","system_id":"levelo_inurba_marseille","lat":43.301939,"lon":5.366286,"is_reserved":false,"is_disabled":false,"rental_uris":{"android":"levelo://app?vid=cc2f9074-fbb8-4db4-818b-39a62d198bcc","ios":"levelo://app?vid=cc2f9074-fbb8-4db4-818b-39a62d198bcc"},"vehicle_type_id":"4","last_reported":1683968749,"current_range_meters":25600,"station_id":"ce4bgrh2rcd13ifvqc8g","pricing_plan_id":"free"},{"bike_id":"c49b7f70-ee92-443f-8de7-4d535d6f0ac6","system_id":"levelo_inurba_marseille","lat":43.304606,"lon":5.379026,"is_reserved":false,"is_disabled":false,"rental_uris":{"android":"levelo://app?vid=c49b7f70-ee92-443f-8de7-4d535d6f0ac6","ios":"levelo://app?vid=c49b7f70-ee92-443f-8de7-4d535d6f0ac6"},"vehicle_type_id":"4","last_reported":1683968749,"current_range_meters":14800,"station_id":"ce4bgup2rcd13ifvqcn0","pricing_plan_id":"free"},{"bike_id":"60680915-fb24-4b19-bfde-912f36d2d614","system_id":"levelo_inurba_marseille","lat":43.304606,"lon":5.379026,"is_reserved":false,"is_disabled":false,"rental_uris":{"android":"levelo://app?vid=60680915-fb24-4b19-bfde-912f36d2d614","ios":"levelo://app?vid=60680915-fb24-4b19-bfde-912f36d2d614"},"vehicle_type_id":"4","last_reported":1683968749,"current_range_meters":32000,"station_id":"ce4bgup2rcd13ifvqcn0","pricing_plan_id":"free"},{"bike_id":"003d582e-7e5f-4a87-a622-32e3086b14b0","system_id":"levelo_inurba_marseille","lat":43.304606,"lon":5.379026,"is_reserved":false,"is_disabled":false,"rental_uris":{"android":"levelo://app?vid=003d582e-7e5f-4a87-a622-32e3086b14b0","ios":"levelo://app?vid=003d582e-7e5f-4a87-a622-32e3086b14b0"},"vehicle_type_id":"4","last_reported":1683968749,"current_range_meters":31200,"station_id":"ce4bgup2rcd13ifvqcn0","pricing_plan_id":"free"},{"bike_id":"8b47ea53-5d97-44ee-9714-7e51bb264dac","system_id":"levelo_inurba_marseille","lat":43.304606,"lon":5.379026,"is_reserved":false,"is_disabled":false,"rental_uris":{"android":"levelo://app?vid=8b47ea53-5d97-44ee-9714-7e51bb264dac","ios":"levelo://app?vid=8b47ea53-5d97-44ee-9714-7e51bb264dac"},"vehicle_type_id":"4","last_reported":1683968749,"current_range_meters":31200,"station_id":"ce4bgup2rcd13ifvqcn0","pricing_plan_id":"free"},{"bike_id":"13cec834-4356-43cf-8dc1-8b628da2e78b","system_id":"levelo_inurba_marseille","lat":43.30479,"lon":5.37916,"is_reserved":false,"is_disabled":false,"rental_uris":{"android":"levelo://app?vid=13cec834-4356-43cf-8dc1-8b628da2e78b","ios":"levelo://app?vid=13cec834-4356-43cf-8dc1-8b628da2e78b"},"vehicle_type_id":"4","last_reported":1683968749,"current_range_meters":31200,"station_id":"ce4bgup2rcd13ifvqcn0","pricing_plan_id":"free"},{"bike_id":"788c65ee-7bae-4472-8eb2-3f54e474b1d0","system_id":"levelo_inurba_marseille","lat":43.304606,"lon":5.379026,"is_reserved":false,"is_disabled":false,"rental_uris":{"android":"levelo://app?vid=788c65ee-7bae-4472-8eb2-3f54e474b1d0","ios":"levelo://app?vid=788c65ee-7bae-4472-8eb2-3f54e474b1d0"},"vehicle_type_id":"4","last_reported":1683968749,"current_range_meters":18800,"station_id":"ce4bgup2rcd13ifvqcn0","pricing_plan_id":"free"},{"bike_id":"855d1619-04b0-40fe-84c8-ba142ccc5162","system_id":"levelo_inurba_marseille","lat":43.304606,"lon":5.379026,"is_reserved":false,"is_disabled":false,"rental_uris":{"android":"levelo://app?vid=855d1619-04b0-40fe-84c8-ba142ccc5162","ios":"levelo://app?vid=855d1619-04b0-40fe-84c8-ba142ccc5162"},"vehicle_type_id":"4","last_reported":1683968749,"current_range_meters":16800,"station_id":"ce4bgup2rcd13ifvqcn0","pricing_plan_id":"free"},{"bike_id":"793c250e-af9f-4886-92ae-d9a8ffeaec64","system_id":"levelo_inurba_marseille","lat":43.30464,"lon":5.37902,"is_reserved":false,"is_disabled":false,"rental_uris":{"android":"levelo://app?vid=793c250e-af9f-4886-92ae-d9a8ffeaec64","ios":"levelo://app?vid=793c250e-af9f-4886-92ae-d9a8ffeaec64"},"vehicle_type_id":"4","last_reported":1683968749,"current_range_meters":26800,"station_id":"ce4bgup2rcd13ifvqcn0","pricing_plan_id":"free"},{"bike_id":"495d7d5a-faf4-4c12-9225-d8afb00729cb","system_id":"levelo_inurba_marseille","lat":43.30465,"lon":5.37908,"is_reserved":false,"is_disabled":false,"rental_uris":{"android":"levelo://app?vid=495d7d5a-faf4-4c12-9225-d8afb00729cb","ios":"levelo://app?vid=495d7d5a-faf4-4c12-9225-d8afb00729cb"},"vehicle_type_id":"4","last_reported":1683968749,"current_range_meters":19600,"station_id":"ce4bgup2rcd13ifvqcn0","pricing_plan_id":"free"},{"bike_id":"5f5e7486-2140-4e8d-9afa-f0c197b97c26","system_id":"levelo_inurba_marseille","lat":43.304606,"lon":5.379026,"is_reserved":false,"is_disabled":false,"rental_uris":{"android":"levelo://app?vid=5f5e7486-2140-4e8d-9afa-f0c197b97c26","ios":"levelo://app?vid=5f5e7486-2140-4e8d-9afa-f0c197b97c26"},"vehicle_type_id":"4","last_reported":1683968749,"current_range_meters":19600,"station_id":"ce4bgup2rcd13ifvqcn0","pricing_plan_id":"free"},{"bike_id":"fd7b5dba-3a71-44ab-a84b-09a880911245","system_id":"levelo_inurba_marseille","lat":43.304606,"lon":5.379026,"is_reserved":false,"is_disabled":false,"rental_uris":{"android":"levelo://app?vid=fd7b5dba-3a71-44ab-a84b-09a880911245","ios":"levelo://app?vid=fd7b5dba-3a71-44ab-a84b-09a880911245"},"vehicle_type_id":"4","last_reported":1683968749,"current_range_meters":28000,"station_id":"ce4bgup2rcd13ifvqcn0","pricing_plan_id":"free"},{"bike_id":"3be21e34-8a45-4c8f-90fa-eed469a4b596","system_id":"levelo_inurba_marseille","lat":43.304606,"lon":5.379026,"is_reserved":false,"is_disabled":false,"rental_uris":{"android":"levelo://app?vid=3be21e34-8a45-4c8f-90fa-eed469a4b596","ios":"levelo://app?vid=3be21e34-8a45-4c8f-90fa-eed469a4b596"},"vehicle_type_id":"4","last_reported":1683968749,"current_range_meters":31200,"station_id":"ce4bgup2rcd13ifvqcn0","pricing_plan_id":"free"},{"bike_id":"0afad3e0-6610-44c3-bd84-886f6bd0b676","system_id":"levelo_inurba_marseille","lat":43.304606,"lon":5.379026,"is_reserved":false,"is_disabled":false,"rental_uris":{"android":"levelo://app?vid=0afad3e0-6610-44c3-bd84-886f6bd0b676","ios":"levelo://app?vid=0afad3e0-6610-44c3-bd84-886f6bd0b676"},"vehicle_type_id":"4","last_reported":1683968749,"current_range_meters":31200,"station_id":"ce4bgup2rcd13ifvqcn0","pricing_plan_id":"free"},{"bike_id":"5ebc2b59-57e9-4041-8cfa-d08e20a497fb","system_id":"levelo_inurba_marseille","lat":43.30464,"lon":5.37909,"is_reserved":false,"is_disabled":false,"rental_uris":{"android":"levelo://app?vid=5ebc2b59-57e9-4041-8cfa-d08e20a497fb","ios":"levelo://app?vid=5ebc2b59-57e9-4041-8cfa-d08e20a497fb"},"vehicle_type_id":"4","last_reported":1683968749,"current_range_meters":23600,"station_id":"ce4bgup2rcd13ifvqcn0","pricing_plan_id":"free"},{"bike_id":"4f89d854-5137-4e7e-9f60-644848ba5316","system_id":"levelo_inurba_marseille","lat":43.304606,"lon":5.379026,"is_reserved":false,"is_disabled":false,"rental_uris":{"android":"levelo://app?vid=4f89d854-5137-4e7e-9f60-644848ba5316","ios":"levelo://app?vid=4f89d854-5137-4e7e-9f60-644848ba5316"},"vehicle_type_id":"4","last_reported":1683968749,"current_range_meters":26000,"station_id":"ce4bgup2rcd13ifvqcn0","pricing_plan_id":"free"},{"bike_id":"ef8a407f-f67d-4908-9c92-73365ec44eab","system_id":"levelo_inurba_marseille","lat":43.304606,"lon":5.379026,"is_reserved":false,"is_disabled":false,"rental_uris":{"android":"levelo://app?vid=ef8a407f-f67d-4908-9c92-73365ec44eab","ios":"levelo://app?vid=ef8a407f-f67d-4908-9c92-73365ec44eab"},"vehicle_type_id":"4","last_reported":1683968749,"current_range_meters":26000,"station_id":"ce4bgup2rcd13ifvqcn0","pricing_plan_id":"free"},{"bike_id":"37fe2a91-87e9-42b4-9960-99f2c1e29642","system_id":"levelo_inurba_marseille","lat":43.304606,"lon":5.379026,"is_reserved":false,"is_disabled":false,"rental_uris":{"android":"levelo://app?vid=37fe2a91-87e9-42b4-9960-99f2c1e29642","ios":"levelo://app?vid=37fe2a91-87e9-42b4-9960-99f2c1e29642"},"vehicle_type_id":"4","last_reported":1683968749,"current_range_meters":8800,"station_id":"ce4bgup2rcd13ifvqcn0","pricing_plan_id":"free"},{"bike_id":"2dde4dcf-7c45-4c6a-8422-da8ba7b671b6","system_id":"levelo_inurba_marseille","lat":43.30458,"lon":5.37905,"is_reserved":false,"is_disabled":false,"rental_uris":{"android":"levelo://app?vid=2dde4dcf-7c45-4c6a-8422-da8ba7b671b6","ios":"levelo://app?vid=2dde4dcf-7c45-4c6a-8422-da8ba7b671b6"},"vehicle_type_id":"4","last_reported":1683968749,"current_range_meters":28000,"station_id":"ce4bgup2rcd13ifvqcn0","pricing_plan_id":"free"},{"bike_id":"c980a709-f30e-41b2-b392-a60cca74bc8c","system_id":"levelo_inurba_marseille","lat":43.304606,"lon":5.379026,"is_reserved":false,"is_disabled":false,"rental_uris":{"android":"levelo://app?vid=c980a709-f30e-41b2-b392-a60cca74bc8c","ios":"levelo://app?vid=c980a709-f30e-41b2-b392-a60cca74bc8c"},"vehicle_type_id":"4","last_reported":1683968749,"current_range_meters":31600,"station_id":"ce4bgup2rcd13ifvqcn0","pricing_plan_id":"free"},{"bike_id":"7995e2c4-6947-4e35-88a3-bc0b2280ebad","system_id":"levelo_inurba_marseille","lat":43.304606,"lon":5.379026,"is_reserved":false,"is_disabled":false,"rental_uris":{"android":"levelo://app?vid=7995e2c4-6947-4e35-88a3-bc0b2280ebad","ios":"levelo://app?vid=7995e2c4-6947-4e35-88a3-bc0b2280ebad"},"vehicle_type_id":"4","last_reported":1683968749,"current_range_meters":30000,"station_id":"ce4bgup2rcd13ifvqcn0","pricing_plan_id":"free"},{"bike_id":"06f6366e-3f49-4fb2-a3b1-353ce791950b","system_id":"levelo_inurba_marseille","lat":43.304606,"lon":5.379026,"is_reserved":false,"is_disabled":false,"rental_uris":{"android":"levelo://app?vid=06f6366e-3f49-4fb2-a3b1-353ce791950b","ios":"levelo://app?vid=06f6366e-3f49-4fb2-a3b1-353ce791950b"},"vehicle_type_id":"4","last_reported":1683968749,"current_range_meters":31600,"station_id":"ce4bgup2rcd13ifvqcn0","pricing_plan_id":"free"},{"bike_id":"7fd58bde-e9d0-4819-bf16-e0c722621005","system_id":"levelo_inurba_marseille","lat":43.30456,"lon":5.3791,"is_reserved":false,"is_disabled":false,"rental_uris":{"android":"levelo://app?vid=7fd58bde-e9d0-4819-bf16-e0c722621005","ios":"levelo://app?vid=7fd58bde-e9d0-4819-bf16-e0c722621005"},"vehicle_type_id":"4","last_reported":1683968749,"current_range_meters":16800,"station_id":"ce4bgup2rcd13ifvqcn0","pricing_plan_id":"free"},{"bike_id":"0368c736-1ed6-483e-bcad-e801795778b1","system_id":"levelo_inurba_marseille","lat":43.304606,"lon":5.379026,"is_reserved":false,"is_disabled":false,"rental_uris":{"android":"levelo://app?vid=0368c736-1ed6-483e-bcad-e801795778b1","ios":"levelo://app?vid=0368c736-1ed6-483e-bcad-e801795778b1"},"vehicle_type_id":"4","last_reported":1683968749,"current_range_meters":5600,"station_id":"ce4bgup2rcd13ifvqcn0","pricing_plan_id":"free"},{"bike_id":"02bcc4cc-9456-4e71-83d6-b073c76d1d70","system_id":"levelo_inurba_marseille","lat":43.304606,"lon":5.379026,"is_reserved":false,"is_disabled":false,"rental_uris":{"android":"levelo://app?vid=02bcc4cc-9456-4e71-83d6-b073c76d1d70","ios":"levelo://app?vid=02bcc4cc-9456-4e71-83d6-b073c76d1d70"},"vehicle_type_id":"4","last_reported":1683968749,"current_range_meters":26400,"station_id":"ce4bgup2rcd13ifvqcn0","pricing_plan_id":"free"},{"bike_id":"09b041e6-6074-4df7-a048-f6981c376cfd","system_id":"levelo_inurba_marseille","lat":43.31362,"lon":5.38519,"is_reserved":false,"is_disabled":false,"rental_uris":{"android":"levelo://app?vid=09b041e6-6074-4df7-a048-f6981c376cfd","ios":"levelo://app?vid=09b041e6-6074-4df7-a048-f6981c376cfd"},"vehicle_type_id":"4","last_reported":1683968749,"current_range_meters":18000,"station_id":"","pricing_plan_id":"free"},{"bike_id":"9a25bed5-be90-4b63-b3a8-a906ea42dc3d","system_id":"levelo_inurba_marseille","lat":43.298433,"lon":5.362774,"is_reserved":false,"is_disabled":false,"rental_uris":{"android":"levelo://app?vid=9a25bed5-be90-4b63-b3a8-a906ea42dc3d","ios":"levelo://app?vid=9a25bed5-be90-4b63-b3a8-a906ea42dc3d"},"vehicle_type_id":"4","last_reported":1683968749,"current_range_meters":26800,"station_id":"ce4bgpp2rcd13ifvqc3g","pricing_plan_id":"free"},{"bike_id":"8a045a03-ffde-4c85-a76d-ca90164a0aad","system_id":"levelo_inurba_marseille","lat":43.298433,"lon":5.362774,"is_reserved":false,"is_disabled":false,"rental_uris":{"android":"levelo://app?vid=8a045a03-ffde-4c85-a76d-ca90164a0aad","ios":"levelo://app?vid=8a045a03-ffde-4c85-a76d-ca90164a0aad"},"vehicle_type_id":"4","last_reported":1683968749,"current_range_meters":31200,"station_id":"ce4bgpp2rcd13ifvqc3g","pricing_plan_id":"free"},{"bike_id":"f42ea57c-c0a2-4d33-8787-597bed7be3b6","system_id":"levelo_inurba_marseille","lat":43.298433,"lon":5.362774,"is_reserved":false,"is_disabled":false,"rental_uris":{"android":"levelo://app?vid=f42ea57c-c0a2-4d33-8787-597bed7be3b6","ios":"levelo://app?vid=f42ea57c-c0a2-4d33-8787-597bed7be3b6"},"vehicle_type_id":"4","last_reported":1683968749,"current_range_meters":27200,"station_id":"ce4bgpp2rcd13ifvqc3g","pricing_plan_id":"free"},{"bike_id":"b28eb0e0-c31f-4266-83d8-a7cdc955124b","system_id":"levelo_inurba_marseille","lat":43.305364,"lon":5.384119,"is_reserved":false,"is_disabled":false,"rental_uris":{"android":"levelo://app?vid=b28eb0e0-c31f-4266-83d8-a7cdc955124b","ios":"levelo://app?vid=b28eb0e0-c31f-4266-83d8-a7cdc955124b"},"vehicle_type_id":"4","last_reported":1683968749,"current_range_meters":6400,"station_id":"ce4bgg92rcd13ifvqb30","pricing_plan_id":"free"},{"bike_id":"50847303-5030-42c4-a6c3-9958d46c1e9e","system_id":"levelo_inurba_marseille","lat":43.298433,"lon":5.362774,"is_reserved":false,"is_disabled":false,"rental_uris":{"android":"levelo://app?vid=50847303-5030-42c4-a6c3-9958d46c1e9e","ios":"levelo://app?vid=50847303-5030-42c4-a6c3-9958d46c1e9e"},"vehicle_type_id":"4","last_reported":1683968749,"current_range_meters":22000,"station_id":"ce4bgpp2rcd13ifvqc3g","pricing_plan_id":"free"},{"bike_id":"09e9ee45-6249-482b-8ae6-e16dc0b6eb76","system_id":"levelo_inurba_marseille","lat":43.298433,"lon":5.362774,"is_reserved":false,"is_disabled":false,"rental_uris":{"android":"levelo://app?vid=09e9ee45-6249-482b-8ae6-e16dc0b6eb76","ios":"levelo://app?vid=09e9ee45-6249-482b-8ae6-e16dc0b6eb76"},"vehicle_type_id":"4","last_reported":1683968749,"current_range_meters":30000,"station_id":"ce4bgpp2rcd13ifvqc3g","pricing_plan_id":"free"},{"bike_id":"7cd2c118-8c0c-4cc3-9dd5-54b2dc0644ea","system_id":"levelo_inurba_marseille","lat":43.298433,"lon":5.362774,"is_reserved":false,"is_disabled":false,"rental_uris":{"android":"levelo://app?vid=7cd2c118-8c0c-4cc3-9dd5-54b2dc0644ea","ios":"levelo://app?vid=7cd2c118-8c0c-4cc3-9dd5-54b2dc0644ea"},"vehicle_type_id":"4","last_reported":1683968749,"current_range_meters":9200,"station_id":"ce4bgpp2rcd13ifvqc3g","pricing_plan_id":"free"},{"bike_id":"5fed7588-b2d5-47a4-b37a-08afdb206b50","system_id":"levelo_inurba_marseille","lat":43.305364,"lon":5.384119,"is_reserved":false,"is_disabled":false,"rental_uris":{"android":"levelo://app?vid=5fed7588-b2d5-47a4-b37a-08afdb206b50","ios":"levelo://app?vid=5fed7588-b2d5-47a4-b37a-08afdb206b50"},"vehicle_type_id":"4","last_reported":1683968749,"current_range_meters":24000,"station_id":"ce4bgg92rcd13ifvqb30","pricing_plan_id":"free"},{"bike_id":"89023bbe-2daa-49ee-84fa-85cf631fd92e","system_id":"levelo_inurba_marseille","lat":43.298433,"lon":5.362774,"is_reserved":false,"is_disabled":false,"rental_uris":{"android":"levelo://app?vid=89023bbe-2daa-49ee-84fa-85cf631fd92e","ios":"levelo://app?vid=89023bbe-2daa-49ee-84fa-85cf631fd92e"},"vehicle_type_id":"4","last_reported":1683968749,"current_range_meters":31200,"station_id":"ce4bgpp2rcd13ifvqc3g","pricing_plan_id":"free"},{"bike_id":"868c18a7-1b45-4329-b5af-1fb35a84865f","system_id":"levelo_inurba_marseille","lat":43.298433,"lon":5.362774,"is_reserved":false,"is_disabled":false,"rental_uris":{"android":"levelo://app?vid=868c18a7-1b45-4329-b5af-1fb35a84865f","ios":"levelo://app?vid=868c18a7-1b45-4329-b5af-1fb35a84865f"},"vehicle_type_id":"4","last_reported":1683968749,"current_range_meters":15200,"station_id":"ce4bgpp2rcd13ifvqc3g","pricing_plan_id":"free"},{"bike_id":"7b731207-48e6-4f04-ac88-ee7d61d368a9","system_id":"levelo_inurba_marseille","lat":43.299243,"lon":5.374807,"is_reserved":false,"is_disabled":false,"rental_uris":{"android":"levelo://app?vid=7b731207-48e6-4f04-ac88-ee7d61d368a9","ios":"levelo://app?vid=7b731207-48e6-4f04-ac88-ee7d61d368a9"},"vehicle_type_id":"4","last_reported":1683968749,"current_range_meters":22000,"station_id":"ce4bgjh2rcd13ifvqbg0","pricing_plan_id":"free"},{"bike_id":"a98742f9-5c83-4432-b37a-453987e478ef","system_id":"levelo_inurba_marseille","lat":43.298433,"lon":5.362774,"is_reserved":false,"is_disabled":false,"rental_uris":{"android":"levelo://app?vid=a98742f9-5c83-4432-b37a-453987e478ef","ios":"levelo://app?vid=a98742f9-5c83-4432-b37a-453987e478ef"},"vehicle_type_id":"4","last_reported":1683968749,"current_range_meters":29200,"station_id":"ce4bgpp2rcd13ifvqc3g","pricing_plan_id":"free"},{"bike_id":"7321ca39-b466-4173-b743-8e2a180215ba","system_id":"levelo_inurba_marseille","lat":43.298433,"lon":5.362774,"is_reserved":false,"is_disabled":false,"rental_uris":{"android":"levelo://app?vid=7321ca39-b466-4173-b743-8e2a180215ba","ios":"levelo://app?vid=7321ca39-b466-4173-b743-8e2a180215ba"},"vehicle_type_id":"4","last_reported":1683968749,"current_range_meters":23600,"station_id":"ce4bgpp2rcd13ifvqc3g","pricing_plan_id":"free"},{"bike_id":"cbbfc8a8-ac8a-48ce-8cba-e5c11eaaa3b8","system_id":"levelo_inurba_marseille","lat":43.31172,"lon":5.38712,"is_reserved":false,"is_disabled":false,"rental_uris":{"android":"levelo://app?vid=cbbfc8a8-ac8a-48ce-8cba-e5c11eaaa3b8","ios":"levelo://app?vid=cbbfc8a8-ac8a-48ce-8cba-e5c11eaaa3b8"},"vehicle_type_id":"4","last_reported":1683968749,"current_range_meters":26800,"station_id":"ce4bgv12rcd13ifvqcp0","pricing_plan_id":"free"},{"bike_id":"383467fc-32d4-4010-9fa0-3d57a8263a21","system_id":"levelo_inurba_marseille","lat":43.299243,"lon":5.37481,"is_reserved":false,"is_disabled":false,"rental_uris":{"android":"levelo://app?vid=383467fc-32d4-4010-9fa0-3d57a8263a21","ios":"levelo://app?vid=383467fc-32d4-4010-9fa0-3d57a8263a21"},"vehicle_type_id":"4","last_reported":1683968749,"current_range_meters":30400,"station_id":"ce4bgjh2rcd13ifvqbg0","pricing_plan_id":"free"},{"bike_id":"217dad00-b152-4c82-904c-2ddaca49c8d1","system_id":"levelo_inurba_marseille","lat":43.299243,"lon":5.37481,"is_reserved":false,"is_disabled":false,"rental_uris":{"android":"levelo://app?vid=217dad00-b152-4c82-904c-2ddaca49c8d1","ios":"levelo://app?vid=217dad00-b152-4c82-904c-2ddaca49c8d1"},"vehicle_type_id":"4","last_reported":1683968749,"current_range_meters":5600,"station_id":"ce4bgjh2rcd13ifvqbg0","pricing_plan_id":"free"},{"bike_id":"2f96f4b7-d3f1-4b87-b98f-caf50ba6d13d","system_id":"levelo_inurba_marseille","lat":43.32772,"lon":5.36707,"is_reserved":false,"is_disabled":false,"rental_uris":{"android":"levelo://app?vid=2f96f4b7-d3f1-4b87-b98f-caf50ba6d13d","ios":"levelo://app?vid=2f96f4b7-d3f1-4b87-b98f-caf50ba6d13d"},"vehicle_type_id":"4","last_reported":1683968749,"current_range_meters":12800,"station_id":"","pricing_plan_id":"free"},{"bike_id":"7a070e52-967e-4cda-a050-dbf621e582d9","system_id":"levelo_inurba_marseille","lat":43.297774,"lon":5.370875,"is_reserved":false,"is_disabled":false,"rental_uris":{"android":"levelo://app?vid=7a070e52-967e-4cda-a050-dbf621e582d9","ios":"levelo://app?vid=7a070e52-967e-4cda-a050-dbf621e582d9"},"vehicle_type_id":"4","last_reported":1683968749,"current_range_meters":30000,"station_id":"ce4bgop2rcd13ifvqc1g","pricing_plan_id":"free"},{"bike_id":"8a568eaa-ccec-4bc4-91a5-8a121d190a5e","system_id":"levelo_inurba_marseille","lat":43.297794,"lon":5.370888,"is_reserved":false,"is_disabled":false,"rental_uris":{"android":"levelo://app?vid=8a568eaa-ccec-4bc4-91a5-8a121d190a5e","ios":"levelo://app?vid=8a568eaa-ccec-4bc4-91a5-8a121d190a5e"},"vehicle_type_id":"4","last_reported":1683968749,"current_range_meters":31200,"station_id":"ce4bgop2rcd13ifvqc1g","pricing_plan_id":"free"},{"bike_id":"0474487f-288e-4606-b7d4-e28d2ee99d8c","system_id":"levelo_inurba_marseille","lat":43.297794,"lon":5.370888,"is_reserved":false,"is_disabled":false,"rental_uris":{"android":"levelo://app?vid=0474487f-288e-4606-b7d4-e28d2ee99d8c","ios":"levelo://app?vid=0474487f-288e-4606-b7d4-e28d2ee99d8c"},"vehicle_type_id":"4","last_reported":1683968749,"current_range_meters":26000,"station_id":"ce4bgop2rcd13ifvqc1g","pricing_plan_id":"free"},{"bike_id":"bc4a5a0c-2f17-4c55-8b5c-9235cccf7bca","system_id":"levelo_inurba_marseille","lat":43.297774,"lon":5.370875,"is_reserved":false,"is_disabled":false,"rental_uris":{"android":"levelo://app?vid=bc4a5a0c-2f17-4c55-8b5c-9235cccf7bca","ios":"levelo://app?vid=bc4a5a0c-2f17-4c55-8b5c-9235cccf7bca"},"vehicle_type_id":"4","last_reported":1683968749,"current_range_meters":29200,"station_id":"ce4bgop2rcd13ifvqc1g","pricing_plan_id":"free"},{"bike_id":"ba9e564b-ef2b-491f-bc8b-cc11a63e5e01","system_id":"levelo_inurba_marseille","lat":43.297794,"lon":5.370888,"is_reserved":false,"is_disabled":false,"rental_uris":{"android":"levelo://app?vid=ba9e564b-ef2b-491f-bc8b-cc11a63e5e01","ios":"levelo://app?vid=ba9e564b-ef2b-491f-bc8b-cc11a63e5e01"},"vehicle_type_id":"4","last_reported":1683968749,"current_range_meters":29200,"station_id":"ce4bgop2rcd13ifvqc1g","pricing_plan_id":"free"},{"bike_id":"4e8d495f-48a2-4a59-a0a4-e2a0bd5ad11a","system_id":"levelo_inurba_marseille","lat":43.328371,"lon":5.366912,"is_reserved":false,"is_disabled":false,"rental_uris":{"android":"levelo://app?vid=4e8d495f-48a2-4a59-a0a4-e2a0bd5ad11a","ios":"levelo://app?vid=4e8d495f-48a2-4a59-a0a4-e2a0bd5ad11a"},"vehicle_type_id":"4","last_reported":1683968749,"current_range_meters":0,"station_id":"ce4bhs92rcd13ifvqi0g","pricing_plan_id":"free"},{"bike_id":"86719306-0ddc-4576-a656-570a4d550f46","system_id":"levelo_inurba_marseille","lat":43.328371,"lon":5.366912,"is_reserved":false,"is_disabled":false,"rental_uris":{"android":"levelo://app?vid=86719306-0ddc-4576-a656-570a4d550f46","ios":"levelo://app?vid=86719306-0ddc-4576-a656-570a4d550f46"},"vehicle_type_id":"4","last_reported":1683968749,"current_range_meters":30000,"station_id":"ce4bhs92rcd13ifvqi0g","pricing_plan_id":"free"},{"bike_id":"0a5c6e50-cd6f-4800-a0e5-993347926bc8","system_id":"levelo_inurba_marseille","lat":43.328371,"lon":5.366912,"is_reserved":false,"is_disabled":false,"rental_uris":{"android":"levelo://app?vid=0a5c6e50-cd6f-4800-a0e5-993347926bc8","ios":"levelo://app?vid=0a5c6e50-cd6f-4800-a0e5-993347926bc8"},"vehicle_type_id":"4","last_reported":1683968749,"current_range_meters":12800,"station_id":"ce4bhs92rcd13ifvqi0g","pricing_plan_id":"free"},{"bike_id":"05dd3660-fb8d-4649-b95f-77a48f876534","system_id":"levelo_inurba_marseille","lat":43.32831,"lon":5.36692,"is_reserved":false,"is_disabled":false,"rental_uris":{"android":"levelo://app?vid=05dd3660-fb8d-4649-b95f-77a48f876534","ios":"levelo://app?vid=05dd3660-fb8d-4649-b95f-77a48f876534"},"vehicle_type_id":"4","last_reported":1683968749,"current_range_meters":3600,"station_id":"ce4bhs92rcd13ifvqi0g","pricing_plan_id":"free"},{"bike_id":"d2fd4a69-1781-4d10-b230-5796d7806c38","system_id":"levelo_inurba_marseille","lat":43.328371,"lon":5.366912,"is_reserved":false,"is_disabled":false,"rental_uris":{"android":"levelo://app?vid=d2fd4a69-1781-4d10-b230-5796d7806c38","ios":"levelo://app?vid=d2fd4a69-1781-4d10-b230-5796d7806c38"},"vehicle_type_id":"4","last_reported":1683968749,"current_range_meters":2800,"station_id":"ce4bhs92rcd13ifvqi0g","pricing_plan_id":"free"},{"bike_id":"2f534b25-3d76-4ad4-bcb9-91101064834c","system_id":"levelo_inurba_marseille","lat":43.328371,"lon":5.366912,"is_reserved":false,"is_disabled":false,"rental_uris":{"android":"levelo://app?vid=2f534b25-3d76-4ad4-bcb9-91101064834c","ios":"levelo://app?vid=2f534b25-3d76-4ad4-bcb9-91101064834c"},"vehicle_type_id":"4","last_reported":1683968749,"current_range_meters":18800,"station_id":"ce4bhs92rcd13ifvqi0g","pricing_plan_id":"free"},{"bike_id":"173c35b5-642e-4cd5-9a42-cf3fc117f00c","system_id":"levelo_inurba_marseille","lat":43.328371,"lon":5.366912,"is_reserved":false,"is_disabled":false,"rental_uris":{"android":"levelo://app?vid=173c35b5-642e-4cd5-9a42-cf3fc117f00c","ios":"levelo://app?vid=173c35b5-642e-4cd5-9a42-cf3fc117f00c"},"vehicle_type_id":"4","last_reported":1683968749,"current_range_meters":18800,"station_id":"ce4bhs92rcd13ifvqi0g","pricing_plan_id":"free"},{"bike_id":"35c64b45-67cb-4db8-8dde-84eb3cae14a9","system_id":"levelo_inurba_marseille","lat":43.328371,"lon":5.366912,"is_reserved":false,"is_disabled":false,"rental_uris":{"android":"levelo://app?vid=35c64b45-67cb-4db8-8dde-84eb3cae14a9","ios":"levelo://app?vid=35c64b45-67cb-4db8-8dde-84eb3cae14a9"},"vehicle_type_id":"4","last_reported":1683968749,"current_range_meters":29600,"station_id":"ce4bhs92rcd13ifvqi0g","pricing_plan_id":"free"},{"bike_id":"053fa0fe-d0b8-4b77-9e9a-95a5b916daf2","system_id":"levelo_inurba_marseille","lat":43.328371,"lon":5.366912,"is_reserved":false,"is_disabled":false,"rental_uris":{"android":"levelo://app?vid=053fa0fe-d0b8-4b77-9e9a-95a5b916daf2","ios":"levelo://app?vid=053fa0fe-d0b8-4b77-9e9a-95a5b916daf2"},"vehicle_type_id":"4","last_reported":1683968749,"current_range_meters":1200,"station_id":"ce4bhs92rcd13ifvqi0g","pricing_plan_id":"free"},{"bike_id":"8ea15e6b-0302-4f6b-a369-2130aebae5f9","system_id":"levelo_inurba_marseille","lat":43.328371,"lon":5.366912,"is_reserved":false,"is_disabled":false,"rental_uris":{"android":"levelo://app?vid=8ea15e6b-0302-4f6b-a369-2130aebae5f9","ios":"levelo://app?vid=8ea15e6b-0302-4f6b-a369-2130aebae5f9"},"vehicle_type_id":"4","last_reported":1683968749,"current_range_meters":13600,"station_id":"ce4bhs92rcd13ifvqi0g","pricing_plan_id":"free"},{"bike_id":"2ede4aa6-cb68-4708-8adb-810b72dccf8e","system_id":"levelo_inurba_marseille","lat":43.328371,"lon":5.366912,"is_reserved":false,"is_disabled":false,"rental_uris":{"android":"levelo://app?vid=2ede4aa6-cb68-4708-8adb-810b72dccf8e","ios":"levelo://app?vid=2ede4aa6-cb68-4708-8adb-810b72dccf8e"},"vehicle_type_id":"4","last_reported":1683968749,"current_range_meters":5600,"station_id":"ce4bhs92rcd13ifvqi0g","pricing_plan_id":"free"},{"bike_id":"a061142e-9950-4692-acc5-6e5562925736","system_id":"levelo_inurba_marseille","lat":43.296131,"lon":5.370791,"is_reserved":false,"is_disabled":false,"rental_uris":{"android":"levelo://app?vid=a061142e-9950-4692-acc5-6e5562925736","ios":"levelo://app?vid=a061142e-9950-4692-acc5-6e5562925736"},"vehicle_type_id":"4","last_reported":1683968749,"current_range_meters":15600,"station_id":"ce4bgnh2rcd13ifvqc0g","pricing_plan_id":"free"},{"bike_id":"b015041f-0470-42a7-b639-da2471314936","system_id":"levelo_inurba_marseille","lat":43.29573,"lon":5.367355,"is_reserved":false,"is_disabled":false,"rental_uris":{"android":"levelo://app?vid=b015041f-0470-42a7-b639-da2471314936","ios":"levelo://app?vid=b015041f-0470-42a7-b639-da2471314936"},"vehicle_type_id":"4","last_reported":1683968749,"current_range_meters":31200,"station_id":"ce4bgph2rcd13ifvqc2g","pricing_plan_id":"free"},{"bike_id":"c142236f-616e-464a-8a6a-22c0e0945ddb","system_id":"levelo_inurba_marseille","lat":43.296921,"lon":5.376579,"is_reserved":false,"is_disabled":false,"rental_uris":{"android":"levelo://app?vid=c142236f-616e-464a-8a6a-22c0e0945ddb","ios":"levelo://app?vid=c142236f-616e-464a-8a6a-22c0e0945ddb"},"vehicle_type_id":"4","last_reported":1683968749,"current_range_meters":30400,"station_id":"ce4bgkh2rcd13ifvqbl0","pricing_plan_id":"free"},{"bike_id":"e62a4019-15e5-4aa8-ac87-39c5d1aaa8ba","system_id":"levelo_inurba_marseille","lat":43.30004,"lon":5.38276,"is_reserved":false,"is_disabled":false,"rental_uris":{"android":"levelo://app?vid=e62a4019-15e5-4aa8-ac87-39c5d1aaa8ba","ios":"levelo://app?vid=e62a4019-15e5-4aa8-ac87-39c5d1aaa8ba"},"vehicle_type_id":"4","last_reported":1683968749,"current_range_meters":400,"station_id":"","pricing_plan_id":"free"},{"bike_id":"923caf47-178a-41ec-8cc6-69c63f43fb2b","system_id":"levelo_inurba_marseille","lat":43.296935,"lon":5.376544,"is_reserved":false,"is_disabled":false,"rental_uris":{"android":"levelo://app?vid=923caf47-178a-41ec-8cc6-69c63f43fb2b","ios":"levelo://app?vid=923caf47-178a-41ec-8cc6-69c63f43fb2b"},"vehicle_type_id":"4","last_reported":1683968749,"current_range_meters":31200,"station_id":"ce4bgkh2rcd13ifvqbl0","pricing_plan_id":"free"},{"bike_id":"73ed9c61-16ef-4b5b-97f1-7867db4e609c","system_id":"levelo_inurba_marseille","lat":43.296921,"lon":5.376579,"is_reserved":false,"is_disabled":false,"rental_uris":{"android":"levelo://app?vid=73ed9c61-16ef-4b5b-97f1-7867db4e609c","ios":"levelo://app?vid=73ed9c61-16ef-4b5b-97f1-7867db4e609c"},"vehicle_type_id":"4","last_reported":1683968749,"current_range_meters":12000,"station_id":"ce4bgkh2rcd13ifvqbl0","pricing_plan_id":"free"},{"bike_id":"0e1db9eb-d9e5-414d-9e29-1b88a5183e0e","system_id":"levelo_inurba_marseille","lat":43.296921,"lon":5.376579,"is_reserved":false,"is_disabled":false,"rental_uris":{"android":"levelo://app?vid=0e1db9eb-d9e5-414d-9e29-1b88a5183e0e","ios":"levelo://app?vid=0e1db9eb-d9e5-414d-9e29-1b88a5183e0e"},"vehicle_type_id":"4","last_reported":1683968749,"current_range_meters":31200,"station_id":"ce4bgkh2rcd13ifvqbl0","pricing_plan_id":"free"},{"bike_id":"32cce5c0-f1c9-4b38-bbed-e9f339fffc0b","system_id":"levelo_inurba_marseille","lat":43.299028,"lon":5.381509,"is_reserved":false,"is_disabled":false,"rental_uris":{"android":"levelo://app?vid=32cce5c0-f1c9-4b38-bbed-e9f339fffc0b","ios":"levelo://app?vid=32cce5c0-f1c9-4b38-bbed-e9f339fffc0b"},"vehicle_type_id":"4","last_reported":1683968749,"current_range_meters":28000,"station_id":"ce4bgj12rcd13ifvqbc0","pricing_plan_id":"free"},{"bike_id":"51bcfb16-ef5a-4582-ab7e-0fc32ff9fbe4","system_id":"levelo_inurba_marseille","lat":43.296935,"lon":5.376544,"is_reserved":false,"is_disabled":false,"rental_uris":{"android":"levelo://app?vid=51bcfb16-ef5a-4582-ab7e-0fc32ff9fbe4","ios":"levelo://app?vid=51bcfb16-ef5a-4582-ab7e-0fc32ff9fbe4"},"vehicle_type_id":"4","last_reported":1683968749,"current_range_meters":28800,"station_id":"ce4bgkh2rcd13ifvqbl0","pricing_plan_id":"free"},{"bike_id":"4575b7ac-e9a8-4cc0-a77a-7d893f503fcb","system_id":"levelo_inurba_marseille","lat":43.29715,"lon":5.37701,"is_reserved":false,"is_disabled":false,"rental_uris":{"android":"levelo://app?vid=4575b7ac-e9a8-4cc0-a77a-7d893f503fcb","ios":"levelo://app?vid=4575b7ac-e9a8-4cc0-a77a-7d893f503fcb"},"vehicle_type_id":"4","last_reported":1683968749,"current_range_meters":29200,"station_id":"","pricing_plan_id":"free"},{"bike_id":"68a01d15-0169-4426-90cb-7e8e385fef41","system_id":"levelo_inurba_marseille","lat":43.309589,"lon":5.390258,"is_reserved":false,"is_disabled":false,"rental_uris":{"android":"levelo://app?vid=68a01d15-0169-4426-90cb-7e8e385fef41","ios":"levelo://app?vid=68a01d15-0169-4426-90cb-7e8e385fef41"},"vehicle_type_id":"4","last_reported":1683968749,"current_range_meters":20800,"station_id":"ce4bgup2rcd13ifvqco0","pricing_plan_id":"free"},{"bike_id":"f74cbfc3-609f-4a61-bf01-dd2e36817070","system_id":"levelo_inurba_marseille","lat":43.309589,"lon":5.390258,"is_reserved":false,"is_disabled":false,"rental_uris":{"android":"levelo://app?vid=f74cbfc3-609f-4a61-bf01-dd2e36817070","ios":"levelo://app?vid=f74cbfc3-609f-4a61-bf01-dd2e36817070"},"vehicle_type_id":"4","last_reported":1683968749,"current_range_meters":29600,"station_id":"ce4bgup2rcd13ifvqco0","pricing_plan_id":"free"},{"bike_id":"002d39e0-544e-450b-b6e2-5fab2746121e","system_id":"levelo_inurba_marseille","lat":43.309589,"lon":5.390258,"is_reserved":false,"is_disabled":false,"rental_uris":{"android":"levelo://app?vid=002d39e0-544e-450b-b6e2-5fab2746121e","ios":"levelo://app?vid=002d39e0-544e-450b-b6e2-5fab2746121e"},"vehicle_type_id":"4","last_reported":1683968749,"current_range_meters":28800,"station_id":"ce4bgup2rcd13ifvqco0","pricing_plan_id":"free"},{"bike_id":"316d6e8b-366e-4c80-b7c0-8f2d0f1dc835","system_id":"levelo_inurba_marseille","lat":43.309589,"lon":5.390258,"is_reserved":false,"is_disabled":false,"rental_uris":{"android":"levelo://app?vid=316d6e8b-366e-4c80-b7c0-8f2d0f1dc835","ios":"levelo://app?vid=316d6e8b-366e-4c80-b7c0-8f2d0f1dc835"},"vehicle_type_id":"4","last_reported":1683968749,"current_range_meters":31200,"station_id":"ce4bgup2rcd13ifvqco0","pricing_plan_id":"free"},{"bike_id":"73c2808e-6983-4817-9d81-6d9754cbe3fb","system_id":"levelo_inurba_marseille","lat":43.309589,"lon":5.390258,"is_reserved":false,"is_disabled":false,"rental_uris":{"android":"levelo://app?vid=73c2808e-6983-4817-9d81-6d9754cbe3fb","ios":"levelo://app?vid=73c2808e-6983-4817-9d81-6d9754cbe3fb"},"vehicle_type_id":"4","last_reported":1683968749,"current_range_meters":30000,"station_id":"ce4bgup2rcd13ifvqco0","pricing_plan_id":"free"},{"bike_id":"e5aac9f4-7bf8-4b66-83fb-360eab9a195a","system_id":"levelo_inurba_marseille","lat":43.309589,"lon":5.390258,"is_reserved":false,"is_disabled":false,"rental_uris":{"android":"levelo://app?vid=e5aac9f4-7bf8-4b66-83fb-360eab9a195a","ios":"levelo://app?vid=e5aac9f4-7bf8-4b66-83fb-360eab9a195a"},"vehicle_type_id":"4","last_reported":1683968749,"current_range_meters":26800,"station_id":"ce4bgup2rcd13ifvqco0","pricing_plan_id":"free"},{"bike_id":"01208a13-824a-4a94-be8d-2a48a5b6b683","system_id":"levelo_inurba_marseille","lat":43.317557,"lon":5.390173,"is_reserved":false,"is_disabled":false,"rental_uris":{"android":"levelo://app?vid=01208a13-824a-4a94-be8d-2a48a5b6b683","ios":"levelo://app?vid=01208a13-824a-4a94-be8d-2a48a5b6b683"},"vehicle_type_id":"4","last_reported":1683968749,"current_range_meters":31200,"station_id":"ce4bhqp2rcd13ifvqhng","pricing_plan_id":"free"},{"bike_id":"7e101d88-7926-4513-a08a-b2a6fdb92c65","system_id":"levelo_inurba_marseille","lat":43.31761,"lon":5.39012,"is_reserved":false,"is_disabled":false,"rental_uris":{"android":"levelo://app?vid=7e101d88-7926-4513-a08a-b2a6fdb92c65","ios":"levelo://app?vid=7e101d88-7926-4513-a08a-b2a6fdb92c65"},"vehicle_type_id":"4","last_reported":1683968749,"current_range_meters":30000,"station_id":"ce4bhqp2rcd13ifvqhng","pricing_plan_id":"free"},{"bike_id":"7da6e220-6397-4a35-a4bb-715231b4d564","system_id":"levelo_inurba_marseille","lat":43.317581,"lon":5.390141,"is_reserved":false,"is_disabled":false,"rental_uris":{"android":"levelo://app?vid=7da6e220-6397-4a35-a4bb-715231b4d564","ios":"levelo://app?vid=7da6e220-6397-4a35-a4bb-715231b4d564"},"vehicle_type_id":"4","last_reported":1683968749,"current_range_meters":27200,"station_id":"ce4bhqp2rcd13ifvqhng","pricing_plan_id":"free"},{"bike_id":"8d249c4e-5841-43df-a8c1-1ee71a14ff90","system_id":"levelo_inurba_marseille","lat":43.31756,"lon":5.39016,"is_reserved":false,"is_disabled":false,"rental_uris":{"android":"levelo://app?vid=8d249c4e-5841-43df-a8c1-1ee71a14ff90","ios":"levelo://app?vid=8d249c4e-5841-43df-a8c1-1ee71a14ff90"},"vehicle_type_id":"4","last_reported":1683968749,"current_range_meters":30000,"station_id":"ce4bhqp2rcd13ifvqhng","pricing_plan_id":"free"},{"bike_id":"80b60f6f-28ee-4635-a30c-377c46bb9c86","system_id":"levelo_inurba_marseille","lat":43.317557,"lon":5.390173,"is_reserved":false,"is_disabled":false,"rental_uris":{"android":"levelo://app?vid=80b60f6f-28ee-4635-a30c-377c46bb9c86","ios":"levelo://app?vid=80b60f6f-28ee-4635-a30c-377c46bb9c86"},"vehicle_type_id":"4","last_reported":1683968749,"current_range_meters":17600,"station_id":"ce4bhqp2rcd13ifvqhng","pricing_plan_id":"free"},{"bike_id":"a1c564bc-7833-41f9-a7ef-52015e433698","system_id":"levelo_inurba_marseille","lat":43.317557,"lon":5.390173,"is_reserved":false,"is_disabled":false,"rental_uris":{"android":"levelo://app?vid=a1c564bc-7833-41f9-a7ef-52015e433698","ios":"levelo://app?vid=a1c564bc-7833-41f9-a7ef-52015e433698"},"vehicle_type_id":"4","last_reported":1683968749,"current_range_meters":31200,"station_id":"ce4bhqp2rcd13ifvqhng","pricing_plan_id":"free"},{"bike_id":"eb214527-8203-4410-a520-f2f2d1c67bb7","system_id":"levelo_inurba_marseille","lat":43.317557,"lon":5.390173,"is_reserved":false,"is_disabled":false,"rental_uris":{"android":"levelo://app?vid=eb214527-8203-4410-a520-f2f2d1c67bb7","ios":"levelo://app?vid=eb214527-8203-4410-a520-f2f2d1c67bb7"},"vehicle_type_id":"4","last_reported":1683968749,"current_range_meters":12800,"station_id":"ce4bhqp2rcd13ifvqhng","pricing_plan_id":"free"},{"bike_id":"1b8e8455-d974-44bb-9a4e-7e7867c76231","system_id":"levelo_inurba_marseille","lat":43.31751,"lon":5.3902,"is_reserved":false,"is_disabled":false,"rental_uris":{"android":"levelo://app?vid=1b8e8455-d974-44bb-9a4e-7e7867c76231","ios":"levelo://app?vid=1b8e8455-d974-44bb-9a4e-7e7867c76231"},"vehicle_type_id":"4","last_reported":1683968749,"current_range_meters":18400,"station_id":"ce4bhqp2rcd13ifvqhng","pricing_plan_id":"free"},{"bike_id":"ebb64d41-4b06-49bb-a55c-b83574a6111f","system_id":"levelo_inurba_marseille","lat":43.317557,"lon":5.390173,"is_reserved":false,"is_disabled":false,"rental_uris":{"android":"levelo://app?vid=ebb64d41-4b06-49bb-a55c-b83574a6111f","ios":"levelo://app?vid=ebb64d41-4b06-49bb-a55c-b83574a6111f"},"vehicle_type_id":"4","last_reported":1683968749,"current_range_meters":31200,"station_id":"ce4bhqp2rcd13ifvqhng","pricing_plan_id":"free"},{"bike_id":"1fda51dc-acb8-4daa-b746-7e5e3f6185cc","system_id":"levelo_inurba_marseille","lat":43.317557,"lon":5.390173,"is_reserved":false,"is_disabled":false,"rental_uris":{"android":"levelo://app?vid=1fda51dc-acb8-4daa-b746-7e5e3f6185cc","ios":"levelo://app?vid=1fda51dc-acb8-4daa-b746-7e5e3f6185cc"},"vehicle_type_id":"4","last_reported":1683968749,"current_range_meters":31200,"station_id":"ce4bhqp2rcd13ifvqhng","pricing_plan_id":"free"},{"bike_id":"9a1266e1-7f83-4fd8-bded-ddce5176bb36","system_id":"levelo_inurba_marseille","lat":43.298037,"lon":5.381066,"is_reserved":false,"is_disabled":false,"rental_uris":{"android":"levelo://app?vid=9a1266e1-7f83-4fd8-bded-ddce5176bb36","ios":"levelo://app?vid=9a1266e1-7f83-4fd8-bded-ddce5176bb36"},"vehicle_type_id":"4","last_reported":1683968749,"current_range_meters":28000,"station_id":"ce4bgip2rcd13ifvqbb0","pricing_plan_id":"free"},{"bike_id":"0779af64-00f5-46ad-8401-22dd5c02f6aa","system_id":"levelo_inurba_marseille","lat":43.298037,"lon":5.381066,"is_reserved":false,"is_disabled":false,"rental_uris":{"android":"levelo://app?vid=0779af64-00f5-46ad-8401-22dd5c02f6aa","ios":"levelo://app?vid=0779af64-00f5-46ad-8401-22dd5c02f6aa"},"vehicle_type_id":"4","last_reported":1683968749,"current_range_meters":21200,"station_id":"ce4bgip2rcd13ifvqbb0","pricing_plan_id":"free"},{"bike_id":"9be31a47-feae-446f-9726-0edbe80b9143","system_id":"levelo_inurba_marseille","lat":43.298037,"lon":5.381066,"is_reserved":false,"is_disabled":false,"rental_uris":{"android":"levelo://app?vid=9be31a47-feae-446f-9726-0edbe80b9143","ios":"levelo://app?vid=9be31a47-feae-446f-9726-0edbe80b9143"},"vehicle_type_id":"4","last_reported":1683968749,"current_range_meters":31200,"station_id":"ce4bgip2rcd13ifvqbb0","pricing_plan_id":"free"},{"bike_id":"b2e5f890-917b-425c-a619-9cd484dc5b1c","system_id":"levelo_inurba_marseille","lat":43.298037,"lon":5.381066,"is_reserved":false,"is_disabled":false,"rental_uris":{"android":"levelo://app?vid=b2e5f890-917b-425c-a619-9cd484dc5b1c","ios":"levelo://app?vid=b2e5f890-917b-425c-a619-9cd484dc5b1c"},"vehicle_type_id":"4","last_reported":1683968749,"current_range_meters":28400,"station_id":"ce4bgip2rcd13ifvqbb0","pricing_plan_id":"free"},{"bike_id":"2467f5a6-40fb-4e98-b640-742f6f697862","system_id":"levelo_inurba_marseille","lat":43.298037,"lon":5.381066,"is_reserved":false,"is_disabled":false,"rental_uris":{"android":"levelo://app?vid=2467f5a6-40fb-4e98-b640-742f6f697862","ios":"levelo://app?vid=2467f5a6-40fb-4e98-b640-742f6f697862"},"vehicle_type_id":"4","last_reported":1683968749,"current_range_meters":27600,"station_id":"ce4bgip2rcd13ifvqbb0","pricing_plan_id":"free"},{"bike_id":"9a8f4c95-ba30-49ff-9ce9-5c6c5f83fb12","system_id":"levelo_inurba_marseille","lat":43.29807,"lon":5.381016,"is_reserved":false,"is_disabled":false,"rental_uris":{"android":"levelo://app?vid=9a8f4c95-ba30-49ff-9ce9-5c6c5f83fb12","ios":"levelo://app?vid=9a8f4c95-ba30-49ff-9ce9-5c6c5f83fb12"},"vehicle_type_id":"4","last_reported":1683968749,"current_range_meters":26000,"station_id":"","pricing_plan_id":"free"},{"bike_id":"365ac165-9ca8-49ef-910d-07364fc9a104","system_id":"levelo_inurba_marseille","lat":43.298037,"lon":5.381066,"is_reserved":false,"is_disabled":false,"rental_uris":{"android":"levelo://app?vid=365ac165-9ca8-49ef-910d-07364fc9a104","ios":"levelo://app?vid=365ac165-9ca8-49ef-910d-07364fc9a104"},"vehicle_type_id":"4","last_reported":1683968749,"current_range_meters":31200,"station_id":"ce4bgip2rcd13ifvqbb0","pricing_plan_id":"free"},{"bike_id":"2769183c-671f-4ce4-9ab5-273785762595","system_id":"levelo_inurba_marseille","lat":43.298037,"lon":5.381066,"is_reserved":false,"is_disabled":false,"rental_uris":{"android":"levelo://app?vid=2769183c-671f-4ce4-9ab5-273785762595","ios":"levelo://app?vid=2769183c-671f-4ce4-9ab5-273785762595"},"vehicle_type_id":"4","last_reported":1683968749,"current_range_meters":18800,"station_id":"ce4bgip2rcd13ifvqbb0","pricing_plan_id":"free"},{"bike_id":"eca97663-b98f-46ba-a6c1-fba285384a13","system_id":"levelo_inurba_marseille","lat":43.298037,"lon":5.381066,"is_reserved":false,"is_disabled":false,"rental_uris":{"android":"levelo://app?vid=eca97663-b98f-46ba-a6c1-fba285384a13","ios":"levelo://app?vid=eca97663-b98f-46ba-a6c1-fba285384a13"},"vehicle_type_id":"4","last_reported":1683968749,"current_range_meters":20000,"station_id":"ce4bgip2rcd13ifvqbb0","pricing_plan_id":"free"},{"bike_id":"fada3c0c-3338-4c4f-9e02-137314a02e29","system_id":"levelo_inurba_marseille","lat":43.298037,"lon":5.381066,"is_reserved":false,"is_disabled":false,"rental_uris":{"android":"levelo://app?vid=fada3c0c-3338-4c4f-9e02-137314a02e29","ios":"levelo://app?vid=fada3c0c-3338-4c4f-9e02-137314a02e29"},"vehicle_type_id":"4","last_reported":1683968749,"current_range_meters":26800,"station_id":"ce4bgip2rcd13ifvqbb0","pricing_plan_id":"free"},{"bike_id":"fd9c8c61-5744-4376-8e49-1808e8a65cfa","system_id":"levelo_inurba_marseille","lat":43.298037,"lon":5.381066,"is_reserved":false,"is_disabled":false,"rental_uris":{"android":"levelo://app?vid=fd9c8c61-5744-4376-8e49-1808e8a65cfa","ios":"levelo://app?vid=fd9c8c61-5744-4376-8e49-1808e8a65cfa"},"vehicle_type_id":"4","last_reported":1683968749,"current_range_meters":25600,"station_id":"ce4bgip2rcd13ifvqbb0","pricing_plan_id":"free"},{"bike_id":"82b33690-8674-4d6c-9d03-1a4e05890060","system_id":"levelo_inurba_marseille","lat":43.298037,"lon":5.381066,"is_reserved":false,"is_disabled":false,"rental_uris":{"android":"levelo://app?vid=82b33690-8674-4d6c-9d03-1a4e05890060","ios":"levelo://app?vid=82b33690-8674-4d6c-9d03-1a4e05890060"},"vehicle_type_id":"4","last_reported":1683968749,"current_range_meters":31200,"station_id":"ce4bgip2rcd13ifvqbb0","pricing_plan_id":"free"},{"bike_id":"3f46f6b3-5ca4-4fa0-bdc9-0f02d28530ba","system_id":"levelo_inurba_marseille","lat":43.298037,"lon":5.381066,"is_reserved":false,"is_disabled":false,"rental_uris":{"android":"levelo://app?vid=3f46f6b3-5ca4-4fa0-bdc9-0f02d28530ba","ios":"levelo://app?vid=3f46f6b3-5ca4-4fa0-bdc9-0f02d28530ba"},"vehicle_type_id":"4","last_reported":1683968749,"current_range_meters":28400,"station_id":"ce4bgip2rcd13ifvqbb0","pricing_plan_id":"free"},{"bike_id":"7e0c7a5c-0c07-4d93-bbed-dfc49dd25cc0","system_id":"levelo_inurba_marseille","lat":43.295748,"lon":5.37522,"is_reserved":false,"is_disabled":false,"rental_uris":{"android":"levelo://app?vid=7e0c7a5c-0c07-4d93-bbed-dfc49dd25cc0","ios":"levelo://app?vid=7e0c7a5c-0c07-4d93-bbed-dfc49dd25cc0"},"vehicle_type_id":"4","last_reported":1683968749,"current_range_meters":31200,"station_id":"ce4bgh92rcd13ifvqb50","pricing_plan_id":"free"},{"bike_id":"088953be-ee31-4c65-892d-dca232363e3a","system_id":"levelo_inurba_marseille","lat":43.298037,"lon":5.381066,"is_reserved":false,"is_disabled":false,"rental_uris":{"android":"levelo://app?vid=088953be-ee31-4c65-892d-dca232363e3a","ios":"levelo://app?vid=088953be-ee31-4c65-892d-dca232363e3a"},"vehicle_type_id":"4","last_reported":1683968749,"current_range_meters":28000,"station_id":"ce4bgip2rcd13ifvqbb0","pricing_plan_id":"free"},{"bike_id":"d4d6abed-d344-4940-9631-3cc0352bd86c","system_id":"levelo_inurba_marseille","lat":43.29795,"lon":5.38096,"is_reserved":false,"is_disabled":false,"rental_uris":{"android":"levelo://app?vid=d4d6abed-d344-4940-9631-3cc0352bd86c","ios":"levelo://app?vid=d4d6abed-d344-4940-9631-3cc0352bd86c"},"vehicle_type_id":"4","last_reported":1683968749,"current_range_meters":6000,"station_id":"ce4bgip2rcd13ifvqbb0","pricing_plan_id":"free"},{"bike_id":"48d6d2b8-c3e8-4271-9cba-3177c6d8fec8","system_id":"levelo_inurba_marseille","lat":43.2979,"lon":5.38093,"is_reserved":false,"is_disabled":false,"rental_uris":{"android":"levelo://app?vid=48d6d2b8-c3e8-4271-9cba-3177c6d8fec8","ios":"levelo://app?vid=48d6d2b8-c3e8-4271-9cba-3177c6d8fec8"},"vehicle_type_id":"4","last_reported":1683968749,"current_range_meters":26800,"station_id":"","pricing_plan_id":"free"},{"bike_id":"291aa194-49a8-4465-809a-3d7a84efde78","system_id":"levelo_inurba_marseille","lat":43.295748,"lon":5.37522,"is_reserved":false,"is_disabled":false,"rental_uris":{"android":"levelo://app?vid=291aa194-49a8-4465-809a-3d7a84efde78","ios":"levelo://app?vid=291aa194-49a8-4465-809a-3d7a84efde78"},"vehicle_type_id":"4","last_reported":1683968749,"current_range_meters":31200,"station_id":"ce4bgh92rcd13ifvqb50","pricing_plan_id":"free"},{"bike_id":"a1928829-9c98-40cb-ad1d-6152932c35da","system_id":"levelo_inurba_marseille","lat":43.298037,"lon":5.381066,"is_reserved":false,"is_disabled":false,"rental_uris":{"android":"levelo://app?vid=a1928829-9c98-40cb-ad1d-6152932c35da","ios":"levelo://app?vid=a1928829-9c98-40cb-ad1d-6152932c35da"},"vehicle_type_id":"4","last_reported":1683968749,"current_range_meters":20000,"station_id":"ce4bgip2rcd13ifvqbb0","pricing_plan_id":"free"},{"bike_id":"3c4a4a70-adee-4496-8b69-e28c3184700e","system_id":"levelo_inurba_marseille","lat":43.295748,"lon":5.37522,"is_reserved":false,"is_disabled":false,"rental_uris":{"android":"levelo://app?vid=3c4a4a70-adee-4496-8b69-e28c3184700e","ios":"levelo://app?vid=3c4a4a70-adee-4496-8b69-e28c3184700e"},"vehicle_type_id":"4","last_reported":1683968749,"current_range_meters":10000,"station_id":"ce4bgh92rcd13ifvqb50","pricing_plan_id":"free"},{"bike_id":"cc648482-bfc0-4d88-bc5b-3e771f49f350","system_id":"levelo_inurba_marseille","lat":43.298037,"lon":5.381066,"is_reserved":false,"is_disabled":false,"rental_uris":{"android":"levelo://app?vid=cc648482-bfc0-4d88-bc5b-3e771f49f350","ios":"levelo://app?vid=cc648482-bfc0-4d88-bc5b-3e771f49f350"},"vehicle_type_id":"4","last_reported":1683968749,"current_range_meters":31600,"station_id":"ce4bgip2rcd13ifvqbb0","pricing_plan_id":"free"},{"bike_id":"7e438a4c-bcb8-4396-9779-ce99870755b6","system_id":"levelo_inurba_marseille","lat":43.295748,"lon":5.37522,"is_reserved":false,"is_disabled":false,"rental_uris":{"android":"levelo://app?vid=7e438a4c-bcb8-4396-9779-ce99870755b6","ios":"levelo://app?vid=7e438a4c-bcb8-4396-9779-ce99870755b6"},"vehicle_type_id":"4","last_reported":1683968749,"current_range_meters":16000,"station_id":"ce4bgh92rcd13ifvqb50","pricing_plan_id":"free"},{"bike_id":"1938f12f-b66b-4bc4-8a8d-901d5bb9308c","system_id":"levelo_inurba_marseille","lat":43.29569,"lon":5.37509,"is_reserved":false,"is_disabled":false,"rental_uris":{"android":"levelo://app?vid=1938f12f-b66b-4bc4-8a8d-901d5bb9308c","ios":"levelo://app?vid=1938f12f-b66b-4bc4-8a8d-901d5bb9308c"},"vehicle_type_id":"4","last_reported":1683968749,"current_range_meters":27200,"station_id":"ce4bgh92rcd13ifvqb50","pricing_plan_id":"free"},{"bike_id":"bdb9da33-352e-43fb-be75-a6e3afc205a8","system_id":"levelo_inurba_marseille","lat":43.295748,"lon":5.37522,"is_reserved":false,"is_disabled":false,"rental_uris":{"android":"levelo://app?vid=bdb9da33-352e-43fb-be75-a6e3afc205a8","ios":"levelo://app?vid=bdb9da33-352e-43fb-be75-a6e3afc205a8"},"vehicle_type_id":"4","last_reported":1683968749,"current_range_meters":24800,"station_id":"ce4bgh92rcd13ifvqb50","pricing_plan_id":"free"},{"bike_id":"78391e36-6134-42bf-aee3-4b52a8a27141","system_id":"levelo_inurba_marseille","lat":43.295952,"lon":5.3761,"is_reserved":false,"is_disabled":false,"rental_uris":{"android":"levelo://app?vid=78391e36-6134-42bf-aee3-4b52a8a27141","ios":"levelo://app?vid=78391e36-6134-42bf-aee3-4b52a8a27141"},"vehicle_type_id":"4","last_reported":1683968749,"current_range_meters":24000,"station_id":"ce4bhh12rcd13ifvqfg0","pricing_plan_id":"free"},{"bike_id":"514b8d92-1673-474c-ad24-ce440a80dc3f","system_id":"levelo_inurba_marseille","lat":43.295748,"lon":5.37522,"is_reserved":false,"is_disabled":false,"rental_uris":{"android":"levelo://app?vid=514b8d92-1673-474c-ad24-ce440a80dc3f","ios":"levelo://app?vid=514b8d92-1673-474c-ad24-ce440a80dc3f"},"vehicle_type_id":"4","last_reported":1683968749,"current_range_meters":31200,"station_id":"ce4bgh92rcd13ifvqb50","pricing_plan_id":"free"},{"bike_id":"820d2e83-f2f3-486d-a8a6-2a13b43167fd","system_id":"levelo_inurba_marseille","lat":43.2957,"lon":5.37527,"is_reserved":false,"is_disabled":false,"rental_uris":{"android":"levelo://app?vid=820d2e83-f2f3-486d-a8a6-2a13b43167fd","ios":"levelo://app?vid=820d2e83-f2f3-486d-a8a6-2a13b43167fd"},"vehicle_type_id":"4","last_reported":1683968749,"current_range_meters":29200,"station_id":"ce4bgh92rcd13ifvqb50","pricing_plan_id":"free"},{"bike_id":"84e745b6-8978-44e1-9a14-9d53f97b2bcf","system_id":"levelo_inurba_marseille","lat":43.29791,"lon":5.38118,"is_reserved":false,"is_disabled":false,"rental_uris":{"android":"levelo://app?vid=84e745b6-8978-44e1-9a14-9d53f97b2bcf","ios":"levelo://app?vid=84e745b6-8978-44e1-9a14-9d53f97b2bcf"},"vehicle_type_id":"4","last_reported":1683968749,"current_range_meters":15200,"station_id":"ce4bgip2rcd13ifvqbb0","pricing_plan_id":"free"},{"bike_id":"0cc48832-dbc3-4d0f-a3b8-b9fa18b486e3","system_id":"levelo_inurba_marseille","lat":43.304278,"lon":5.388868,"is_reserved":false,"is_disabled":false,"rental_uris":{"android":"levelo://app?vid=0cc48832-dbc3-4d0f-a3b8-b9fa18b486e3","ios":"levelo://app?vid=0cc48832-dbc3-4d0f-a3b8-b9fa18b486e3"},"vehicle_type_id":"4","last_reported":1683968749,"current_range_meters":23600,"station_id":"ce4bgk12rcd13ifvqbi0","pricing_plan_id":"free"},{"bike_id":"bf0ce62a-95b1-43f0-86a1-d1f6f901cad2","system_id":"levelo_inurba_marseille","lat":43.295748,"lon":5.37522,"is_reserved":false,"is_disabled":false,"rental_uris":{"android":"levelo://app?vid=bf0ce62a-95b1-43f0-86a1-d1f6f901cad2","ios":"levelo://app?vid=bf0ce62a-95b1-43f0-86a1-d1f6f901cad2"},"vehicle_type_id":"4","last_reported":1683968749,"current_range_meters":23200,"station_id":"ce4bgh92rcd13ifvqb50","pricing_plan_id":"free"},{"bike_id":"2abf43cd-cf6e-43a8-a699-92badcea8054","system_id":"levelo_inurba_marseille","lat":43.295748,"lon":5.37522,"is_reserved":false,"is_disabled":false,"rental_uris":{"android":"levelo://app?vid=2abf43cd-cf6e-43a8-a699-92badcea8054","ios":"levelo://app?vid=2abf43cd-cf6e-43a8-a699-92badcea8054"},"vehicle_type_id":"4","last_reported":1683968749,"current_range_meters":26000,"station_id":"ce4bgh92rcd13ifvqb50","pricing_plan_id":"free"},{"bike_id":"fa1fd47a-05c9-4bfc-a5e1-8ab6b3a65edc","system_id":"levelo_inurba_marseille","lat":43.29563,"lon":5.37521,"is_reserved":false,"is_disabled":false,"rental_uris":{"android":"levelo://app?vid=fa1fd47a-05c9-4bfc-a5e1-8ab6b3a65edc","ios":"levelo://app?vid=fa1fd47a-05c9-4bfc-a5e1-8ab6b3a65edc"},"vehicle_type_id":"4","last_reported":1683968749,"current_range_meters":4000,"station_id":"ce4bgh92rcd13ifvqb50","pricing_plan_id":"free"},{"bike_id":"65b3dc4d-ccf8-4584-bf0e-ddcf203ad6eb","system_id":"levelo_inurba_marseille","lat":43.296263,"lon":5.377094,"is_reserved":false,"is_disabled":false,"rental_uris":{"android":"levelo://app?vid=65b3dc4d-ccf8-4584-bf0e-ddcf203ad6eb","ios":"levelo://app?vid=65b3dc4d-ccf8-4584-bf0e-ddcf203ad6eb"},"vehicle_type_id":"4","last_reported":1683968749,"current_range_meters":28000,"station_id":"ce4bgi92rcd13ifvqb90","pricing_plan_id":"free"},{"bike_id":"896f2c39-8017-4ea9-b0de-4e26784a89b7","system_id":"levelo_inurba_marseille","lat":43.29562,"lon":5.37521,"is_reserved":false,"is_disabled":false,"rental_uris":{"android":"levelo://app?vid=896f2c39-8017-4ea9-b0de-4e26784a89b7","ios":"levelo://app?vid=896f2c39-8017-4ea9-b0de-4e26784a89b7"},"vehicle_type_id":"4","last_reported":1683968749,"current_range_meters":29600,"station_id":"ce4bgh92rcd13ifvqb50","pricing_plan_id":"free"},{"bike_id":"a5b1bdd9-dd6e-4158-aea7-5a66d2e4a970","system_id":"levelo_inurba_marseille","lat":43.295748,"lon":5.37522,"is_reserved":false,"is_disabled":false,"rental_uris":{"android":"levelo://app?vid=a5b1bdd9-dd6e-4158-aea7-5a66d2e4a970","ios":"levelo://app?vid=a5b1bdd9-dd6e-4158-aea7-5a66d2e4a970"},"vehicle_type_id":"4","last_reported":1683968749,"current_range_meters":28800,"station_id":"ce4bgh92rcd13ifvqb50","pricing_plan_id":"free"},{"bike_id":"2813d3d3-8a9e-45f7-9f59-25f56b4da41c","system_id":"levelo_inurba_marseille","lat":43.296263,"lon":5.377094,"is_reserved":false,"is_disabled":false,"rental_uris":{"android":"levelo://app?vid=2813d3d3-8a9e-45f7-9f59-25f56b4da41c","ios":"levelo://app?vid=2813d3d3-8a9e-45f7-9f59-25f56b4da41c"},"vehicle_type_id":"4","last_reported":1683968749,"current_range_meters":31200,"station_id":"ce4bgi92rcd13ifvqb90","pricing_plan_id":"free"},{"bike_id":"afdbe2ea-a5ab-4b0b-94f7-ca102e4de36b","system_id":"levelo_inurba_marseille","lat":43.304274,"lon":5.388873,"is_reserved":false,"is_disabled":false,"rental_uris":{"android":"levelo://app?vid=afdbe2ea-a5ab-4b0b-94f7-ca102e4de36b","ios":"levelo://app?vid=afdbe2ea-a5ab-4b0b-94f7-ca102e4de36b"},"vehicle_type_id":"4","last_reported":1683968749,"current_range_meters":0,"station_id":"ce4bgk12rcd13ifvqbi0","pricing_plan_id":"free"},{"bike_id":"e3ae861a-53b0-4f46-84a7-63822a382315","system_id":"levelo_inurba_marseille","lat":43.296263,"lon":5.377094,"is_reserved":false,"is_disabled":false,"rental_uris":{"android":"levelo://app?vid=e3ae861a-53b0-4f46-84a7-63822a382315","ios":"levelo://app?vid=e3ae861a-53b0-4f46-84a7-63822a382315"},"vehicle_type_id":"4","last_reported":1683968749,"current_range_meters":21200,"station_id":"ce4bgi92rcd13ifvqb90","pricing_plan_id":"free"},{"bike_id":"94a0f1f4-3902-4b17-92b0-e2f749325968","system_id":"levelo_inurba_marseille","lat":43.296277,"lon":5.377108,"is_reserved":false,"is_disabled":false,"rental_uris":{"android":"levelo://app?vid=94a0f1f4-3902-4b17-92b0-e2f749325968","ios":"levelo://app?vid=94a0f1f4-3902-4b17-92b0-e2f749325968"},"vehicle_type_id":"4","last_reported":1683968749,"current_range_meters":31200,"station_id":"ce4bgi92rcd13ifvqb90","pricing_plan_id":"free"},{"bike_id":"a0c63549-f8b4-4350-a3ac-d58780044177","system_id":"levelo_inurba_marseille","lat":43.296277,"lon":5.377108,"is_reserved":false,"is_disabled":false,"rental_uris":{"android":"levelo://app?vid=a0c63549-f8b4-4350-a3ac-d58780044177","ios":"levelo://app?vid=a0c63549-f8b4-4350-a3ac-d58780044177"},"vehicle_type_id":"4","last_reported":1683968749,"current_range_meters":31200,"station_id":"ce4bgi92rcd13ifvqb90","pricing_plan_id":"free"},{"bike_id":"1f40def6-3141-44e5-971d-b88ee6ff7977","system_id":"levelo_inurba_marseille","lat":43.296263,"lon":5.377094,"is_reserved":false,"is_disabled":false,"rental_uris":{"android":"levelo://app?vid=1f40def6-3141-44e5-971d-b88ee6ff7977","ios":"levelo://app?vid=1f40def6-3141-44e5-971d-b88ee6ff7977"},"vehicle_type_id":"4","last_reported":1683968749,"current_range_meters":30000,"station_id":"ce4bgi92rcd13ifvqb90","pricing_plan_id":"free"},{"bike_id":"e25d9ec1-86b0-4790-9af8-7837c3f07c91","system_id":"levelo_inurba_marseille","lat":43.296263,"lon":5.377094,"is_reserved":false,"is_disabled":false,"rental_uris":{"android":"levelo://app?vid=e25d9ec1-86b0-4790-9af8-7837c3f07c91","ios":"levelo://app?vid=e25d9ec1-86b0-4790-9af8-7837c3f07c91"},"vehicle_type_id":"4","last_reported":1683968749,"current_range_meters":31200,"station_id":"ce4bgi92rcd13ifvqb90","pricing_plan_id":"free"},{"bike_id":"9db2343c-32cd-4269-ab54-4cce429e3320","system_id":"levelo_inurba_marseille","lat":43.296277,"lon":5.377108,"is_reserved":false,"is_disabled":false,"rental_uris":{"android":"levelo://app?vid=9db2343c-32cd-4269-ab54-4cce429e3320","ios":"levelo://app?vid=9db2343c-32cd-4269-ab54-4cce429e3320"},"vehicle_type_id":"4","last_reported":1683968749,"current_range_meters":12800,"station_id":"ce4bgi92rcd13ifvqb90","pricing_plan_id":"free"},{"bike_id":"773eda3b-e474-4a18-a0ce-e5c3cbd3349a","system_id":"levelo_inurba_marseille","lat":43.296277,"lon":5.377108,"is_reserved":false,"is_disabled":false,"rental_uris":{"android":"levelo://app?vid=773eda3b-e474-4a18-a0ce-e5c3cbd3349a","ios":"levelo://app?vid=773eda3b-e474-4a18-a0ce-e5c3cbd3349a"},"vehicle_type_id":"4","last_reported":1683968749,"current_range_meters":31200,"station_id":"ce4bgi92rcd13ifvqb90","pricing_plan_id":"free"},{"bike_id":"63fa7e13-6858-4b30-a631-e18e8ba062c3","system_id":"levelo_inurba_marseille","lat":43.296277,"lon":5.377108,"is_reserved":false,"is_disabled":false,"rental_uris":{"android":"levelo://app?vid=63fa7e13-6858-4b30-a631-e18e8ba062c3","ios":"levelo://app?vid=63fa7e13-6858-4b30-a631-e18e8ba062c3"},"vehicle_type_id":"4","last_reported":1683968749,"current_range_meters":31200,"station_id":"ce4bgi92rcd13ifvqb90","pricing_plan_id":"free"},{"bike_id":"5c725c06-4210-4afa-81ad-25e34ea59def","system_id":"levelo_inurba_marseille","lat":43.296263,"lon":5.377094,"is_reserved":false,"is_disabled":false,"rental_uris":{"android":"levelo://app?vid=5c725c06-4210-4afa-81ad-25e34ea59def","ios":"levelo://app?vid=5c725c06-4210-4afa-81ad-25e34ea59def"},"vehicle_type_id":"4","last_reported":1683968749,"current_range_meters":31200,"station_id":"ce4bgi92rcd13ifvqb90","pricing_plan_id":"free"},{"bike_id":"e2d1cf41-703d-41ea-9a1d-d7845497133c","system_id":"levelo_inurba_marseille","lat":43.296263,"lon":5.377094,"is_reserved":false,"is_disabled":false,"rental_uris":{"android":"levelo://app?vid=e2d1cf41-703d-41ea-9a1d-d7845497133c","ios":"levelo://app?vid=e2d1cf41-703d-41ea-9a1d-d7845497133c"},"vehicle_type_id":"4","last_reported":1683968749,"current_range_meters":27600,"station_id":"ce4bgi92rcd13ifvqb90","pricing_plan_id":"free"},{"bike_id":"269c3e81-9abe-42ae-91be-299ae3974219","system_id":"levelo_inurba_marseille","lat":43.295279,"lon":5.375048,"is_reserved":false,"is_disabled":false,"rental_uris":{"android":"levelo://app?vid=269c3e81-9abe-42ae-91be-299ae3974219","ios":"levelo://app?vid=269c3e81-9abe-42ae-91be-299ae3974219"},"vehicle_type_id":"4","last_reported":1683968749,"current_range_meters":31600,"station_id":"ce4bgkp2rcd13ifvqbmg","pricing_plan_id":"free"},{"bike_id":"d5ca1229-e224-48d4-a09a-822036e7f494","system_id":"levelo_inurba_marseille","lat":43.295279,"lon":5.375048,"is_reserved":false,"is_disabled":false,"rental_uris":{"android":"levelo://app?vid=d5ca1229-e224-48d4-a09a-822036e7f494","ios":"levelo://app?vid=d5ca1229-e224-48d4-a09a-822036e7f494"},"vehicle_type_id":"4","last_reported":1683968749,"current_range_meters":29600,"station_id":"ce4bgkp2rcd13ifvqbmg","pricing_plan_id":"free"},{"bike_id":"e5cf1103-d9ef-4a82-83da-03921209dde5","system_id":"levelo_inurba_marseille","lat":43.295279,"lon":5.375048,"is_reserved":false,"is_disabled":false,"rental_uris":{"android":"levelo://app?vid=e5cf1103-d9ef-4a82-83da-03921209dde5","ios":"levelo://app?vid=e5cf1103-d9ef-4a82-83da-03921209dde5"},"vehicle_type_id":"4","last_reported":1683968749,"current_range_meters":30400,"station_id":"ce4bgkp2rcd13ifvqbmg","pricing_plan_id":"free"},{"bike_id":"b7a1789d-b520-49a7-b5cc-07a484e8e92a","system_id":"levelo_inurba_marseille","lat":43.295279,"lon":5.375048,"is_reserved":false,"is_disabled":false,"rental_uris":{"android":"levelo://app?vid=b7a1789d-b520-49a7-b5cc-07a484e8e92a","ios":"levelo://app?vid=b7a1789d-b520-49a7-b5cc-07a484e8e92a"},"vehicle_type_id":"4","last_reported":1683968749,"current_range_meters":12000,"station_id":"ce4bgkp2rcd13ifvqbmg","pricing_plan_id":"free"},{"bike_id":"69438af9-ae0c-4fdb-ac1f-ecf14b265409","system_id":"levelo_inurba_marseille","lat":43.295279,"lon":5.375048,"is_reserved":false,"is_disabled":false,"rental_uris":{"android":"levelo://app?vid=69438af9-ae0c-4fdb-ac1f-ecf14b265409","ios":"levelo://app?vid=69438af9-ae0c-4fdb-ac1f-ecf14b265409"},"vehicle_type_id":"4","last_reported":1683968749,"current_range_meters":0,"station_id":"ce4bgkp2rcd13ifvqbmg","pricing_plan_id":"free"},{"bike_id":"eb9a6d0e-d1b3-4d4a-a580-65592d1d6e76","system_id":"levelo_inurba_marseille","lat":43.295279,"lon":5.375048,"is_reserved":false,"is_disabled":false,"rental_uris":{"android":"levelo://app?vid=eb9a6d0e-d1b3-4d4a-a580-65592d1d6e76","ios":"levelo://app?vid=eb9a6d0e-d1b3-4d4a-a580-65592d1d6e76"},"vehicle_type_id":"4","last_reported":1683968749,"current_range_meters":10800,"station_id":"ce4bgkp2rcd13ifvqbmg","pricing_plan_id":"free"},{"bike_id":"c0fa42b4-68e7-45cd-a78e-418396e91d9c","system_id":"levelo_inurba_marseille","lat":43.296277,"lon":5.377108,"is_reserved":false,"is_disabled":false,"rental_uris":{"android":"levelo://app?vid=c0fa42b4-68e7-45cd-a78e-418396e91d9c","ios":"levelo://app?vid=c0fa42b4-68e7-45cd-a78e-418396e91d9c"},"vehicle_type_id":"4","last_reported":1683968749,"current_range_meters":31200,"station_id":"ce4bgi92rcd13ifvqb90","pricing_plan_id":"free"},{"bike_id":"f67e485d-f8b2-44a7-8c8b-4f53a7ffc871","system_id":"levelo_inurba_marseille","lat":43.295279,"lon":5.375048,"is_reserved":false,"is_disabled":false,"rental_uris":{"android":"levelo://app?vid=f67e485d-f8b2-44a7-8c8b-4f53a7ffc871","ios":"levelo://app?vid=f67e485d-f8b2-44a7-8c8b-4f53a7ffc871"},"vehicle_type_id":"4","last_reported":1683968749,"current_range_meters":31200,"station_id":"ce4bgkp2rcd13ifvqbmg","pricing_plan_id":"free"},{"bike_id":"508cd4a9-75bb-46a7-8225-c9b3768e5329","system_id":"levelo_inurba_marseille","lat":43.295279,"lon":5.375048,"is_reserved":false,"is_disabled":false,"rental_uris":{"android":"levelo://app?vid=508cd4a9-75bb-46a7-8225-c9b3768e5329","ios":"levelo://app?vid=508cd4a9-75bb-46a7-8225-c9b3768e5329"},"vehicle_type_id":"4","last_reported":1683968749,"current_range_meters":25200,"station_id":"ce4bgkp2rcd13ifvqbmg","pricing_plan_id":"free"},{"bike_id":"b1df7b7d-d06d-4cfe-acb6-c2ce0bfbd32d","system_id":"levelo_inurba_marseille","lat":43.295279,"lon":5.375048,"is_reserved":false,"is_disabled":false,"rental_uris":{"android":"levelo://app?vid=b1df7b7d-d06d-4cfe-acb6-c2ce0bfbd32d","ios":"levelo://app?vid=b1df7b7d-d06d-4cfe-acb6-c2ce0bfbd32d"},"vehicle_type_id":"4","last_reported":1683968749,"current_range_meters":29200,"station_id":"ce4bgkp2rcd13ifvqbmg","pricing_plan_id":"free"},{"bike_id":"d72c55ca-9f53-48b5-ab8c-b907d0e58f3a","system_id":"levelo_inurba_marseille","lat":43.295279,"lon":5.375048,"is_reserved":false,"is_disabled":false,"rental_uris":{"android":"levelo://app?vid=d72c55ca-9f53-48b5-ab8c-b907d0e58f3a","ios":"levelo://app?vid=d72c55ca-9f53-48b5-ab8c-b907d0e58f3a"},"vehicle_type_id":"4","last_reported":1683968749,"current_range_meters":24800,"station_id":"ce4bgkp2rcd13ifvqbmg","pricing_plan_id":"free"},{"bike_id":"cc50c958-ba33-4085-9de8-8ab1c1eb820c","system_id":"levelo_inurba_marseille","lat":43.295279,"lon":5.375048,"is_reserved":false,"is_disabled":false,"rental_uris":{"android":"levelo://app?vid=cc50c958-ba33-4085-9de8-8ab1c1eb820c","ios":"levelo://app?vid=cc50c958-ba33-4085-9de8-8ab1c1eb820c"},"vehicle_type_id":"4","last_reported":1683968749,"current_range_meters":28000,"station_id":"ce4bgkp2rcd13ifvqbmg","pricing_plan_id":"free"},{"bike_id":"99c9f3e1-5f74-43fb-9f5c-36cd944e6dda","system_id":"levelo_inurba_marseille","lat":43.295279,"lon":5.375048,"is_reserved":false,"is_disabled":false,"rental_uris":{"android":"levelo://app?vid=99c9f3e1-5f74-43fb-9f5c-36cd944e6dda","ios":"levelo://app?vid=99c9f3e1-5f74-43fb-9f5c-36cd944e6dda"},"vehicle_type_id":"4","last_reported":1683968749,"current_range_meters":31200,"station_id":"ce4bgkp2rcd13ifvqbmg","pricing_plan_id":"free"},{"bike_id":"8c3c9a62-b69b-4755-8696-4d4ca2172d57","system_id":"levelo_inurba_marseille","lat":43.295279,"lon":5.375048,"is_reserved":false,"is_disabled":false,"rental_uris":{"android":"levelo://app?vid=8c3c9a62-b69b-4755-8696-4d4ca2172d57","ios":"levelo://app?vid=8c3c9a62-b69b-4755-8696-4d4ca2172d57"},"vehicle_type_id":"4","last_reported":1683968749,"current_range_meters":25200,"station_id":"ce4bgkp2rcd13ifvqbmg","pricing_plan_id":"free"},{"bike_id":"7a529c66-c97f-4d77-93c8-72d10d1fb089","system_id":"levelo_inurba_marseille","lat":43.295279,"lon":5.375048,"is_reserved":false,"is_disabled":false,"rental_uris":{"android":"levelo://app?vid=7a529c66-c97f-4d77-93c8-72d10d1fb089","ios":"levelo://app?vid=7a529c66-c97f-4d77-93c8-72d10d1fb089"},"vehicle_type_id":"4","last_reported":1683968749,"current_range_meters":22000,"station_id":"ce4bgkp2rcd13ifvqbmg","pricing_plan_id":"free"},{"bike_id":"773e813f-a004-44c0-87b7-b0e9f9496ac5","system_id":"levelo_inurba_marseille","lat":43.295279,"lon":5.375048,"is_reserved":false,"is_disabled":false,"rental_uris":{"android":"levelo://app?vid=773e813f-a004-44c0-87b7-b0e9f9496ac5","ios":"levelo://app?vid=773e813f-a004-44c0-87b7-b0e9f9496ac5"},"vehicle_type_id":"4","last_reported":1683968749,"current_range_meters":23200,"station_id":"ce4bgkp2rcd13ifvqbmg","pricing_plan_id":"free"},{"bike_id":"6bac3cf8-a60d-4902-b089-3bf2e5f01c40","system_id":"levelo_inurba_marseille","lat":43.295279,"lon":5.375048,"is_reserved":false,"is_disabled":false,"rental_uris":{"android":"levelo://app?vid=6bac3cf8-a60d-4902-b089-3bf2e5f01c40","ios":"levelo://app?vid=6bac3cf8-a60d-4902-b089-3bf2e5f01c40"},"vehicle_type_id":"4","last_reported":1683968749,"current_range_meters":28800,"station_id":"ce4bgkp2rcd13ifvqbmg","pricing_plan_id":"free"},{"bike_id":"98d43089-ff1e-40ee-a123-f18e174ce1c4","system_id":"levelo_inurba_marseille","lat":43.31455,"lon":5.39272,"is_reserved":false,"is_disabled":false,"rental_uris":{"android":"levelo://app?vid=98d43089-ff1e-40ee-a123-f18e174ce1c4","ios":"levelo://app?vid=98d43089-ff1e-40ee-a123-f18e174ce1c4"},"vehicle_type_id":"4","last_reported":1683968749,"current_range_meters":4400,"station_id":"","pricing_plan_id":"free"},{"bike_id":"2201ded1-870b-49bc-a577-b63e9a01e3b9","system_id":"levelo_inurba_marseille","lat":43.29465,"lon":5.37441,"is_reserved":false,"is_disabled":false,"rental_uris":{"android":"levelo://app?vid=2201ded1-870b-49bc-a577-b63e9a01e3b9","ios":"levelo://app?vid=2201ded1-870b-49bc-a577-b63e9a01e3b9"},"vehicle_type_id":"4","last_reported":1683968749,"current_range_meters":28400,"station_id":"","pricing_plan_id":"free"},{"bike_id":"6f6b02ce-a50b-443a-a31d-aed834771e7b","system_id":"levelo_inurba_marseille","lat":43.31444,"lon":5.39293,"is_reserved":false,"is_disabled":false,"rental_uris":{"android":"levelo://app?vid=6f6b02ce-a50b-443a-a31d-aed834771e7b","ios":"levelo://app?vid=6f6b02ce-a50b-443a-a31d-aed834771e7b"},"vehicle_type_id":"4","last_reported":1683968749,"current_range_meters":6800,"station_id":"","pricing_plan_id":"free"},{"bike_id":"a9f9000d-480c-444a-b016-677383623825","system_id":"levelo_inurba_marseille","lat":43.2968,"lon":5.38113,"is_reserved":false,"is_disabled":false,"rental_uris":{"android":"levelo://app?vid=a9f9000d-480c-444a-b016-677383623825","ios":"levelo://app?vid=a9f9000d-480c-444a-b016-677383623825"},"vehicle_type_id":"4","last_reported":1683968749,"current_range_meters":14800,"station_id":"","pricing_plan_id":"free"},{"bike_id":"255d23e2-6607-47f9-ae02-1fececf67c6c","system_id":"levelo_inurba_marseille","lat":43.32901,"lon":5.38201,"is_reserved":false,"is_disabled":false,"rental_uris":{"android":"levelo://app?vid=255d23e2-6607-47f9-ae02-1fececf67c6c","ios":"levelo://app?vid=255d23e2-6607-47f9-ae02-1fececf67c6c"},"vehicle_type_id":"4","last_reported":1683968749,"current_range_meters":13600,"station_id":"","pricing_plan_id":"free"},{"bike_id":"c233bf92-8844-41d2-a083-73b071586129","system_id":"levelo_inurba_marseille","lat":43.29601,"lon":5.381084,"is_reserved":false,"is_disabled":false,"rental_uris":{"android":"levelo://app?vid=c233bf92-8844-41d2-a083-73b071586129","ios":"levelo://app?vid=c233bf92-8844-41d2-a083-73b071586129"},"vehicle_type_id":"4","last_reported":1683968749,"current_range_meters":18000,"station_id":"ce4bgl12rcd13ifvqbo0","pricing_plan_id":"free"},{"bike_id":"dfb407e7-feb7-441c-bd6c-e80e667161e8","system_id":"levelo_inurba_marseille","lat":43.29602,"lon":5.381084,"is_reserved":false,"is_disabled":false,"rental_uris":{"android":"levelo://app?vid=dfb407e7-feb7-441c-bd6c-e80e667161e8","ios":"levelo://app?vid=dfb407e7-feb7-441c-bd6c-e80e667161e8"},"vehicle_type_id":"4","last_reported":1683968749,"current_range_meters":25200,"station_id":"ce4bgl12rcd13ifvqbo0","pricing_plan_id":"free"},{"bike_id":"bbb6f8a4-596b-4d31-aebf-494694fa847d","system_id":"levelo_inurba_marseille","lat":43.29602,"lon":5.381084,"is_reserved":false,"is_disabled":false,"rental_uris":{"android":"levelo://app?vid=bbb6f8a4-596b-4d31-aebf-494694fa847d","ios":"levelo://app?vid=bbb6f8a4-596b-4d31-aebf-494694fa847d"},"vehicle_type_id":"4","last_reported":1683968749,"current_range_meters":11200,"station_id":"ce4bgl12rcd13ifvqbo0","pricing_plan_id":"free"},{"bike_id":"df7647b1-99a9-4742-b9f2-9d2bc408c020","system_id":"levelo_inurba_marseille","lat":43.29481,"lon":5.37861,"is_reserved":false,"is_disabled":false,"rental_uris":{"android":"levelo://app?vid=df7647b1-99a9-4742-b9f2-9d2bc408c020","ios":"levelo://app?vid=df7647b1-99a9-4742-b9f2-9d2bc408c020"},"vehicle_type_id":"4","last_reported":1683968749,"current_range_meters":25600,"station_id":"","pricing_plan_id":"free"},{"bike_id":"fd3d3ee7-80a8-4dd3-8811-37883d2aa36a","system_id":"levelo_inurba_marseille","lat":43.293249,"lon":5.371578,"is_reserved":false,"is_disabled":false,"rental_uris":{"android":"levelo://app?vid=fd3d3ee7-80a8-4dd3-8811-37883d2aa36a","ios":"levelo://app?vid=fd3d3ee7-80a8-4dd3-8811-37883d2aa36a"},"vehicle_type_id":"4","last_reported":1683968749,"current_range_meters":19200,"station_id":"ce4bgh92rcd13ifvqb40","pricing_plan_id":"free"},{"bike_id":"0131734a-b31f-4386-97ab-ea2b65fd6220","system_id":"levelo_inurba_marseille","lat":43.293249,"lon":5.371578,"is_reserved":false,"is_disabled":false,"rental_uris":{"android":"levelo://app?vid=0131734a-b31f-4386-97ab-ea2b65fd6220","ios":"levelo://app?vid=0131734a-b31f-4386-97ab-ea2b65fd6220"},"vehicle_type_id":"4","last_reported":1683968749,"current_range_meters":30400,"station_id":"ce4bgh92rcd13ifvqb40","pricing_plan_id":"free"},{"bike_id":"80cc713d-7489-4a91-a0fe-2fa09e9793ca","system_id":"levelo_inurba_marseille","lat":43.293249,"lon":5.371578,"is_reserved":false,"is_disabled":false,"rental_uris":{"android":"levelo://app?vid=80cc713d-7489-4a91-a0fe-2fa09e9793ca","ios":"levelo://app?vid=80cc713d-7489-4a91-a0fe-2fa09e9793ca"},"vehicle_type_id":"4","last_reported":1683968749,"current_range_meters":25600,"station_id":"ce4bgh92rcd13ifvqb40","pricing_plan_id":"free"},{"bike_id":"e4e1d961-5af8-4241-ab28-aa7b61af63a8","system_id":"levelo_inurba_marseille","lat":43.293249,"lon":5.371578,"is_reserved":false,"is_disabled":false,"rental_uris":{"android":"levelo://app?vid=e4e1d961-5af8-4241-ab28-aa7b61af63a8","ios":"levelo://app?vid=e4e1d961-5af8-4241-ab28-aa7b61af63a8"},"vehicle_type_id":"4","last_reported":1683968749,"current_range_meters":28800,"station_id":"ce4bgh92rcd13ifvqb40","pricing_plan_id":"free"},{"bike_id":"88593624-c250-4a46-8a73-077423d799d6","system_id":"levelo_inurba_marseille","lat":43.29308,"lon":5.37188,"is_reserved":false,"is_disabled":false,"rental_uris":{"android":"levelo://app?vid=88593624-c250-4a46-8a73-077423d799d6","ios":"levelo://app?vid=88593624-c250-4a46-8a73-077423d799d6"},"vehicle_type_id":"4","last_reported":1683968749,"current_range_meters":3200,"station_id":"","pricing_plan_id":"free"},{"bike_id":"2627662c-ba0e-46c2-9c4d-a7e0305650bc","system_id":"levelo_inurba_marseille","lat":43.293249,"lon":5.371578,"is_reserved":false,"is_disabled":false,"rental_uris":{"android":"levelo://app?vid=2627662c-ba0e-46c2-9c4d-a7e0305650bc","ios":"levelo://app?vid=2627662c-ba0e-46c2-9c4d-a7e0305650bc"},"vehicle_type_id":"4","last_reported":1683968749,"current_range_meters":0,"station_id":"ce4bgh92rcd13ifvqb40","pricing_plan_id":"free"},{"bike_id":"7c4a727e-d4b4-497b-a5ee-73dae1f87a43","system_id":"levelo_inurba_marseille","lat":43.292749,"lon":5.368402,"is_reserved":false,"is_disabled":false,"rental_uris":{"android":"levelo://app?vid=7c4a727e-d4b4-497b-a5ee-73dae1f87a43","ios":"levelo://app?vid=7c4a727e-d4b4-497b-a5ee-73dae1f87a43"},"vehicle_type_id":"4","last_reported":1683968749,"current_range_meters":23600,"station_id":"ce4bhbp2rcd13ifvqesg","pricing_plan_id":"free"},{"bike_id":"8672169b-a2ea-4d9a-b6d2-d5522345e5a9","system_id":"levelo_inurba_marseille","lat":43.293009,"lon":5.374584,"is_reserved":false,"is_disabled":false,"rental_uris":{"android":"levelo://app?vid=8672169b-a2ea-4d9a-b6d2-d5522345e5a9","ios":"levelo://app?vid=8672169b-a2ea-4d9a-b6d2-d5522345e5a9"},"vehicle_type_id":"4","last_reported":1683968749,"current_range_meters":17600,"station_id":"ce4bgi12rcd13ifvqb70","pricing_plan_id":"free"},{"bike_id":"4b1616c3-b7ce-43cc-905e-51cb7ae59914","system_id":"levelo_inurba_marseille","lat":43.293009,"lon":5.374584,"is_reserved":false,"is_disabled":false,"rental_uris":{"android":"levelo://app?vid=4b1616c3-b7ce-43cc-905e-51cb7ae59914","ios":"levelo://app?vid=4b1616c3-b7ce-43cc-905e-51cb7ae59914"},"vehicle_type_id":"4","last_reported":1683968749,"current_range_meters":28400,"station_id":"ce4bgi12rcd13ifvqb70","pricing_plan_id":"free"},{"bike_id":"b5872e5d-e724-4f27-9950-14032af06d02","system_id":"levelo_inurba_marseille","lat":43.293009,"lon":5.374584,"is_reserved":false,"is_disabled":false,"rental_uris":{"android":"levelo://app?vid=b5872e5d-e724-4f27-9950-14032af06d02","ios":"levelo://app?vid=b5872e5d-e724-4f27-9950-14032af06d02"},"vehicle_type_id":"4","last_reported":1683968749,"current_range_meters":27600,"station_id":"ce4bgi12rcd13ifvqb70","pricing_plan_id":"free"},{"bike_id":"56e09569-ea2d-4ec2-a622-170c6938b9f8","system_id":"levelo_inurba_marseille","lat":43.293009,"lon":5.374584,"is_reserved":false,"is_disabled":false,"rental_uris":{"android":"levelo://app?vid=56e09569-ea2d-4ec2-a622-170c6938b9f8","ios":"levelo://app?vid=56e09569-ea2d-4ec2-a622-170c6938b9f8"},"vehicle_type_id":"4","last_reported":1683968749,"current_range_meters":14400,"station_id":"ce4bgi12rcd13ifvqb70","pricing_plan_id":"free"},{"bike_id":"18b46cce-0b8b-4f3b-99cb-7e9a6fc4c685","system_id":"levelo_inurba_marseille","lat":43.293009,"lon":5.374584,"is_reserved":false,"is_disabled":false,"rental_uris":{"android":"levelo://app?vid=18b46cce-0b8b-4f3b-99cb-7e9a6fc4c685","ios":"levelo://app?vid=18b46cce-0b8b-4f3b-99cb-7e9a6fc4c685"},"vehicle_type_id":"4","last_reported":1683968749,"current_range_meters":30800,"station_id":"ce4bgi12rcd13ifvqb70","pricing_plan_id":"free"},{"bike_id":"d36c8cb0-7f45-451f-8e99-bdb3c9922987","system_id":"levelo_inurba_marseille","lat":43.293009,"lon":5.374584,"is_reserved":false,"is_disabled":false,"rental_uris":{"android":"levelo://app?vid=d36c8cb0-7f45-451f-8e99-bdb3c9922987","ios":"levelo://app?vid=d36c8cb0-7f45-451f-8e99-bdb3c9922987"},"vehicle_type_id":"4","last_reported":1683968749,"current_range_meters":28400,"station_id":"ce4bgi12rcd13ifvqb70","pricing_plan_id":"free"},{"bike_id":"4bb46b1d-bf52-4548-8547-5b2a7e7e8aa0","system_id":"levelo_inurba_marseille","lat":43.293009,"lon":5.374584,"is_reserved":false,"is_disabled":false,"rental_uris":{"android":"levelo://app?vid=4bb46b1d-bf52-4548-8547-5b2a7e7e8aa0","ios":"levelo://app?vid=4bb46b1d-bf52-4548-8547-5b2a7e7e8aa0"},"vehicle_type_id":"4","last_reported":1683968749,"current_range_meters":30000,"station_id":"ce4bgi12rcd13ifvqb70","pricing_plan_id":"free"},{"bike_id":"d1bbf04a-efa8-47f5-839f-05cd1bde2eb2","system_id":"levelo_inurba_marseille","lat":43.293009,"lon":5.374584,"is_reserved":false,"is_disabled":false,"rental_uris":{"android":"levelo://app?vid=d1bbf04a-efa8-47f5-839f-05cd1bde2eb2","ios":"levelo://app?vid=d1bbf04a-efa8-47f5-839f-05cd1bde2eb2"},"vehicle_type_id":"4","last_reported":1683968749,"current_range_meters":31600,"station_id":"ce4bgi12rcd13ifvqb70","pricing_plan_id":"free"},{"bike_id":"5085a127-f600-4ef8-b960-817f0bf7cd7a","system_id":"levelo_inurba_marseille","lat":43.2936,"lon":5.37835,"is_reserved":false,"is_disabled":false,"rental_uris":{"android":"levelo://app?vid=5085a127-f600-4ef8-b960-817f0bf7cd7a","ios":"levelo://app?vid=5085a127-f600-4ef8-b960-817f0bf7cd7a"},"vehicle_type_id":"4","last_reported":1683968749,"current_range_meters":14400,"station_id":"ce4bgjh2rcd13ifvqbf0","pricing_plan_id":"free"},{"bike_id":"9046523d-c80c-41c7-be30-4db1dfdc604a","system_id":"levelo_inurba_marseille","lat":43.2936,"lon":5.37835,"is_reserved":false,"is_disabled":false,"rental_uris":{"android":"levelo://app?vid=9046523d-c80c-41c7-be30-4db1dfdc604a","ios":"levelo://app?vid=9046523d-c80c-41c7-be30-4db1dfdc604a"},"vehicle_type_id":"4","last_reported":1683968749,"current_range_meters":31200,"station_id":"ce4bgjh2rcd13ifvqbf0","pricing_plan_id":"free"},{"bike_id":"428bcfd4-c835-4057-9916-1b229b9a6840","system_id":"levelo_inurba_marseille","lat":43.2936,"lon":5.37835,"is_reserved":false,"is_disabled":false,"rental_uris":{"android":"levelo://app?vid=428bcfd4-c835-4057-9916-1b229b9a6840","ios":"levelo://app?vid=428bcfd4-c835-4057-9916-1b229b9a6840"},"vehicle_type_id":"4","last_reported":1683968749,"current_range_meters":22400,"station_id":"ce4bgjh2rcd13ifvqbf0","pricing_plan_id":"free"},{"bike_id":"b1dbe5d2-9911-4db5-b317-0332f405d3d1","system_id":"levelo_inurba_marseille","lat":43.29199,"lon":5.35812,"is_reserved":false,"is_disabled":false,"rental_uris":{"android":"levelo://app?vid=b1dbe5d2-9911-4db5-b317-0332f405d3d1","ios":"levelo://app?vid=b1dbe5d2-9911-4db5-b317-0332f405d3d1"},"vehicle_type_id":"4","last_reported":1683968749,"current_range_meters":6400,"station_id":"ce4bhb12rcd13ifvqel0","pricing_plan_id":"free"},{"bike_id":"94cfdd85-7708-4d18-8858-9edd985a492a","system_id":"levelo_inurba_marseille","lat":43.309038,"lon":5.396546,"is_reserved":false,"is_disabled":false,"rental_uris":{"android":"levelo://app?vid=94cfdd85-7708-4d18-8858-9edd985a492a","ios":"levelo://app?vid=94cfdd85-7708-4d18-8858-9edd985a492a"},"vehicle_type_id":"4","last_reported":1683968749,"current_range_meters":30400,"station_id":"ce4bh012rcd13ifvqcv0","pricing_plan_id":"free"},{"bike_id":"1fc2ebab-8602-40c6-ad3d-33e08383f9df","system_id":"levelo_inurba_marseille","lat":43.309038,"lon":5.396546,"is_reserved":false,"is_disabled":false,"rental_uris":{"android":"levelo://app?vid=1fc2ebab-8602-40c6-ad3d-33e08383f9df","ios":"levelo://app?vid=1fc2ebab-8602-40c6-ad3d-33e08383f9df"},"vehicle_type_id":"4","last_reported":1683968749,"current_range_meters":13600,"station_id":"ce4bh012rcd13ifvqcv0","pricing_plan_id":"free"},{"bike_id":"9eaf9e9c-c5d9-4bc0-93b0-d9afdb0afe79","system_id":"levelo_inurba_marseille","lat":43.29192,"lon":5.3581,"is_reserved":false,"is_disabled":false,"rental_uris":{"android":"levelo://app?vid=9eaf9e9c-c5d9-4bc0-93b0-d9afdb0afe79","ios":"levelo://app?vid=9eaf9e9c-c5d9-4bc0-93b0-d9afdb0afe79"},"vehicle_type_id":"4","last_reported":1683968749,"current_range_meters":18000,"station_id":"","pricing_plan_id":"free"},{"bike_id":"53227ca6-0425-4d55-aa20-ae2d700371fc","system_id":"levelo_inurba_marseille","lat":43.309038,"lon":5.396546,"is_reserved":false,"is_disabled":false,"rental_uris":{"android":"levelo://app?vid=53227ca6-0425-4d55-aa20-ae2d700371fc","ios":"levelo://app?vid=53227ca6-0425-4d55-aa20-ae2d700371fc"},"vehicle_type_id":"4","last_reported":1683968749,"current_range_meters":18000,"station_id":"ce4bh012rcd13ifvqcv0","pricing_plan_id":"free"},{"bike_id":"0d17488f-4cc0-4c1b-a45d-b7eabcae8585","system_id":"levelo_inurba_marseille","lat":43.2919,"lon":5.35811,"is_reserved":false,"is_disabled":false,"rental_uris":{"android":"levelo://app?vid=0d17488f-4cc0-4c1b-a45d-b7eabcae8585","ios":"levelo://app?vid=0d17488f-4cc0-4c1b-a45d-b7eabcae8585"},"vehicle_type_id":"4","last_reported":1683968749,"current_range_meters":4400,"station_id":"","pricing_plan_id":"free"},{"bike_id":"43ea94fb-f0bc-48af-bd2d-c866d6def370","system_id":"levelo_inurba_marseille","lat":43.29187,"lon":5.35799,"is_reserved":false,"is_disabled":false,"rental_uris":{"android":"levelo://app?vid=43ea94fb-f0bc-48af-bd2d-c866d6def370","ios":"levelo://app?vid=43ea94fb-f0bc-48af-bd2d-c866d6def370"},"vehicle_type_id":"4","last_reported":1683968749,"current_range_meters":21200,"station_id":"ce4bhb12rcd13ifvqel0","pricing_plan_id":"free"},{"bike_id":"1b4dc9f0-c01f-4537-a3cf-19135a5f610b","system_id":"levelo_inurba_marseille","lat":43.2908,"lon":5.37204,"is_reserved":false,"is_disabled":false,"rental_uris":{"android":"levelo://app?vid=1b4dc9f0-c01f-4537-a3cf-19135a5f610b","ios":"levelo://app?vid=1b4dc9f0-c01f-4537-a3cf-19135a5f610b"},"vehicle_type_id":"4","last_reported":1683968749,"current_range_meters":29600,"station_id":"ce4bh5p2rcd13ifvqe4g","pricing_plan_id":"free"},{"bike_id":"3dd0b3bc-f06e-40f4-be2b-e6dfd7420021","system_id":"levelo_inurba_marseille","lat":43.28948,"lon":5.36629,"is_reserved":false,"is_disabled":false,"rental_uris":{"android":"levelo://app?vid=3dd0b3bc-f06e-40f4-be2b-e6dfd7420021","ios":"levelo://app?vid=3dd0b3bc-f06e-40f4-be2b-e6dfd7420021"},"vehicle_type_id":"4","last_reported":1683968749,"current_range_meters":30400,"station_id":"ce4bhap2rcd13ifvqek0","pricing_plan_id":"free"},{"bike_id":"9f129774-36e1-42f1-8229-a7c2be11d89e","system_id":"levelo_inurba_marseille","lat":43.3049,"lon":5.39705,"is_reserved":false,"is_disabled":false,"rental_uris":{"android":"levelo://app?vid=9f129774-36e1-42f1-8229-a7c2be11d89e","ios":"levelo://app?vid=9f129774-36e1-42f1-8229-a7c2be11d89e"},"vehicle_type_id":"4","last_reported":1683968749,"current_range_meters":20400,"station_id":"","pricing_plan_id":"free"},{"bike_id":"bedee10e-5dfc-450e-8b51-ca83bf1109a6","system_id":"levelo_inurba_marseille","lat":43.30491,"lon":5.39711,"is_reserved":false,"is_disabled":false,"rental_uris":{"android":"levelo://app?vid=bedee10e-5dfc-450e-8b51-ca83bf1109a6","ios":"levelo://app?vid=bedee10e-5dfc-450e-8b51-ca83bf1109a6"},"vehicle_type_id":"4","last_reported":1683968749,"current_range_meters":4000,"station_id":"","pricing_plan_id":"free"},{"bike_id":"384b99c7-f92d-4b3c-8702-8a82e2fae1f6","system_id":"levelo_inurba_marseille","lat":43.292642,"lon":5.384254,"is_reserved":false,"is_disabled":false,"rental_uris":{"android":"levelo://app?vid=384b99c7-f92d-4b3c-8702-8a82e2fae1f6","ios":"levelo://app?vid=384b99c7-f92d-4b3c-8702-8a82e2fae1f6"},"vehicle_type_id":"4","last_reported":1683968749,"current_range_meters":30400,"station_id":"ce4bh692rcd13ifvqea0","pricing_plan_id":"free"},{"bike_id":"b5e5512d-2455-4a11-83fb-1c5770879a41","system_id":"levelo_inurba_marseille","lat":43.29304,"lon":5.3852,"is_reserved":false,"is_disabled":false,"rental_uris":{"android":"levelo://app?vid=b5e5512d-2455-4a11-83fb-1c5770879a41","ios":"levelo://app?vid=b5e5512d-2455-4a11-83fb-1c5770879a41"},"vehicle_type_id":"4","last_reported":1683968749,"current_range_meters":20800,"station_id":"","pricing_plan_id":"free"},{"bike_id":"6ee11e11-2aa0-4034-96db-77541afaf4ea","system_id":"levelo_inurba_marseille","lat":43.292642,"lon":5.384254,"is_reserved":false,"is_disabled":false,"rental_uris":{"android":"levelo://app?vid=6ee11e11-2aa0-4034-96db-77541afaf4ea","ios":"levelo://app?vid=6ee11e11-2aa0-4034-96db-77541afaf4ea"},"vehicle_type_id":"4","last_reported":1683968749,"current_range_meters":15200,"station_id":"ce4bh692rcd13ifvqea0","pricing_plan_id":"free"},{"bike_id":"3a7bdb0e-3052-4d68-8990-46c0d389875a","system_id":"levelo_inurba_marseille","lat":43.292642,"lon":5.384254,"is_reserved":false,"is_disabled":false,"rental_uris":{"android":"levelo://app?vid=3a7bdb0e-3052-4d68-8990-46c0d389875a","ios":"levelo://app?vid=3a7bdb0e-3052-4d68-8990-46c0d389875a"},"vehicle_type_id":"4","last_reported":1683968749,"current_range_meters":31200,"station_id":"ce4bh692rcd13ifvqea0","pricing_plan_id":"free"},{"bike_id":"7dfb63d7-3cea-4571-aa06-76c88bd9f321","system_id":"levelo_inurba_marseille","lat":43.33039,"lon":5.3892,"is_reserved":false,"is_disabled":false,"rental_uris":{"android":"levelo://app?vid=7dfb63d7-3cea-4571-aa06-76c88bd9f321","ios":"levelo://app?vid=7dfb63d7-3cea-4571-aa06-76c88bd9f321"},"vehicle_type_id":"4","last_reported":1683968749,"current_range_meters":28800,"station_id":"ce4bhr92rcd13ifvqhrg","pricing_plan_id":"free"},{"bike_id":"abdf6d7f-e8d8-4995-aaa6-c694dddcc24c","system_id":"levelo_inurba_marseille","lat":43.290104,"lon":5.356111,"is_reserved":false,"is_disabled":false,"rental_uris":{"android":"levelo://app?vid=abdf6d7f-e8d8-4995-aaa6-c694dddcc24c","ios":"levelo://app?vid=abdf6d7f-e8d8-4995-aaa6-c694dddcc24c"},"vehicle_type_id":"4","last_reported":1683968749,"current_range_meters":18800,"station_id":"ce4bhb92rcd13ifvqen0","pricing_plan_id":"free"},{"bike_id":"09104e79-c829-42a8-91e4-bb5e170ebbda","system_id":"levelo_inurba_marseille","lat":43.290103,"lon":5.356114,"is_reserved":false,"is_disabled":false,"rental_uris":{"android":"levelo://app?vid=09104e79-c829-42a8-91e4-bb5e170ebbda","ios":"levelo://app?vid=09104e79-c829-42a8-91e4-bb5e170ebbda"},"vehicle_type_id":"4","last_reported":1683968749,"current_range_meters":25600,"station_id":"ce4bhb92rcd13ifvqen0","pricing_plan_id":"free"},{"bike_id":"99d11ff8-cd4f-4243-907c-822c17bc769b","system_id":"levelo_inurba_marseille","lat":43.33043,"lon":5.38917,"is_reserved":false,"is_disabled":false,"rental_uris":{"android":"levelo://app?vid=99d11ff8-cd4f-4243-907c-822c17bc769b","ios":"levelo://app?vid=99d11ff8-cd4f-4243-907c-822c17bc769b"},"vehicle_type_id":"4","last_reported":1683968749,"current_range_meters":21200,"station_id":"ce4bhr92rcd13ifvqhrg","pricing_plan_id":"free"},{"bike_id":"b8d0a2d7-4443-405c-9e1e-71d351b2ac12","system_id":"levelo_inurba_marseille","lat":43.33039,"lon":5.38923,"is_reserved":false,"is_disabled":false,"rental_uris":{"android":"levelo://app?vid=b8d0a2d7-4443-405c-9e1e-71d351b2ac12","ios":"levelo://app?vid=b8d0a2d7-4443-405c-9e1e-71d351b2ac12"},"vehicle_type_id":"4","last_reported":1683968749,"current_range_meters":22400,"station_id":"ce4bhr92rcd13ifvqhrg","pricing_plan_id":"free"},{"bike_id":"a7d25894-5089-4fd8-b9bd-f4bbee681436","system_id":"levelo_inurba_marseille","lat":43.290103,"lon":5.356114,"is_reserved":false,"is_disabled":false,"rental_uris":{"android":"levelo://app?vid=a7d25894-5089-4fd8-b9bd-f4bbee681436","ios":"levelo://app?vid=a7d25894-5089-4fd8-b9bd-f4bbee681436"},"vehicle_type_id":"4","last_reported":1683968749,"current_range_meters":31200,"station_id":"ce4bhb92rcd13ifvqen0","pricing_plan_id":"free"},{"bike_id":"754ef565-0150-4f0d-8c0d-a8a5d6927613","system_id":"levelo_inurba_marseille","lat":43.3304,"lon":5.38923,"is_reserved":false,"is_disabled":false,"rental_uris":{"android":"levelo://app?vid=754ef565-0150-4f0d-8c0d-a8a5d6927613","ios":"levelo://app?vid=754ef565-0150-4f0d-8c0d-a8a5d6927613"},"vehicle_type_id":"4","last_reported":1683968749,"current_range_meters":20000,"station_id":"ce4bhr92rcd13ifvqhrg","pricing_plan_id":"free"},{"bike_id":"d9c65fb5-b538-43a6-8b06-cce8ee9f5b2a","system_id":"levelo_inurba_marseille","lat":43.3304,"lon":5.38924,"is_reserved":false,"is_disabled":false,"rental_uris":{"android":"levelo://app?vid=d9c65fb5-b538-43a6-8b06-cce8ee9f5b2a","ios":"levelo://app?vid=d9c65fb5-b538-43a6-8b06-cce8ee9f5b2a"},"vehicle_type_id":"4","last_reported":1683968749,"current_range_meters":30000,"station_id":"ce4bhr92rcd13ifvqhrg","pricing_plan_id":"free"},{"bike_id":"630531f2-7e5c-4872-8cb8-18bcfecaef38","system_id":"levelo_inurba_marseille","lat":43.290104,"lon":5.356111,"is_reserved":false,"is_disabled":false,"rental_uris":{"android":"levelo://app?vid=630531f2-7e5c-4872-8cb8-18bcfecaef38","ios":"levelo://app?vid=630531f2-7e5c-4872-8cb8-18bcfecaef38"},