{"last_updated":1743005603,"ttl":60,"version":"2.2","data":{"bikes":[{"bike_id":"1bd5cacf-11a0-46fa-a51a-7b71355d601e","system_id":"levelo_inurba_marseille","lat":43.26493,"lon":5.39539,"is_reserved":false,"is_disabled":false,"rental_uris":{"android":"levelo://app?vid=1bd5cacf-11a0-46fa-a51a-7b71355d601e","ios":"levelo://app?vid=1bd5cacf-11a0-46fa-a51a-7b71355d601e"},"vehicle_type_id":"4","last_reported":1743005603,"current_range_meters":2800,"station_id":"ce4bhi12rcd13ifvqfq0","pricing_plan_id":"cebpf4jnsgd1na2vs0mg"},{"bike_id":"02c642d0-bab7-4205-b1fb-4419adeb4af1","system_id":"levelo_inurba_marseille","lat":43.29042,"lon":5.356,"is_reserved":false,"is_disabled":true,"rental_uris":{"android":"levelo://app?vid=02c642d0-bab7-4205-b1fb-4419adeb4af1","ios":"levelo://app?vid=02c642d0-bab7-4205-b1fb-4419adeb4af1"},"vehicle_type_id":"4","last_reported":1743005603,"current_range_meters":2800,"station_id":"","pricing_plan_id":"cebpf4jnsgd1na2vs0mg"},{"bike_id":"49a77b57-0e61-4a5d-bd8d-3f7e3a8cf2fb","system_id":"levelo_inurba_marseille","lat":43.27436,"lon":5.39418,"is_reserved":false,"is_disabled":true,"rental_uris":{"android":"levelo://app?vid=49a77b57-0e61-4a5d-bd8d-3f7e3a8cf2fb","ios":"levelo://app?vid=49a77b57-0e61-4a5d-bd8d-3f7e3a8cf2fb"},"vehicle_type_id":"4","last_reported":1743005603,"current_range_meters":3200,"station_id":"ce4bhdp2rcd13ifvqf20","pricing_plan_id":"cebpf4jnsgd1na2vs0mg"},{"bike_id":"bab9d22a-0cff-405a-b6e7-e98639fd34a5","system_id":"levelo_inurba_marseille","lat":43.29896,"lon":5.43666,"is_reserved":false,"is_disabled":false,"rental_uris":{"android":"levelo://app?vid=bab9d22a-0cff-405a-b6e7-e98639fd34a5","ios":"levelo://app?vid=bab9d22a-0cff-405a-b6e7-e98639fd34a5"},"vehicle_type_id":"4","last_reported":1743005603,"current_range_meters":3200,"station_id":"ce4bhpp2rcd13ifvqhfg","pricing_plan_id":"cebpf4jnsgd1na2vs0mg"},{"bike_id":"fd7a2af8-9457-4025-b973-dfee612c3338","system_id":"levelo_inurba_marseille","lat":43.3039,"lon":5.3971,"is_reserved":false,"is_disabled":true,"rental_uris":{"android":"levelo://app?vid=fd7a2af8-9457-4025-b973-dfee612c3338","ios":"levelo://app?vid=fd7a2af8-9457-4025-b973-dfee612c3338"},"vehicle_type_id":"4","last_reported":1743005603,"current_range_meters":3200,"station_id":"","pricing_plan_id":"cebpf4jnsgd1na2vs0mg"},{"bike_id":"0391fa84-18ad-4057-9205-10dc38aed36b","system_id":"levelo_inurba_marseille","lat":43.29296,"lon":5.3717,"is_reserved":false,"is_disabled":false,"rental_uris":{"android":"levelo://app?vid=0391fa84-18ad-4057-9205-10dc38aed36b","ios":"levelo://app?vid=0391fa84-18ad-4057-9205-10dc38aed36b"},"vehicle_type_id":"4","last_reported":1743005603,"current_range_meters":3200,"station_id":"ce4bgh92rcd13ifvqb40","pricing_plan_id":"cebpf4jnsgd1na2vs0mg"},{"bike_id":"48fb31a8-b84c-4381-8d46-377e59e64c65","system_id":"levelo_inurba_marseille","lat":43.3135,"lon":5.37946,"is_reserved":false,"is_disabled":true,"rental_uris":{"android":"levelo://app?vid=48fb31a8-b84c-4381-8d46-377e59e64c65","ios":"levelo://app?vid=48fb31a8-b84c-4381-8d46-377e59e64c65"},"vehicle_type_id":"4","last_reported":1743005603,"current_range_meters":3200,"station_id":"","pricing_plan_id":"cebpf4jnsgd1na2vs0mg"},{"bike_id":"ee4d2b95-df22-4ace-930e-4a8eb18b933b","system_id":"levelo_inurba_marseille","lat":43.29973,"lon":5.38489,"is_reserved":false,"is_disabled":false,"rental_uris":{"android":"levelo://app?vid=ee4d2b95-df22-4ace-930e-4a8eb18b933b","ios":"levelo://app?vid=ee4d2b95-df22-4ace-930e-4a8eb18b933b"},"vehicle_type_id":"4","last_reported":1743005603,"current_range_meters":3600,"station_id":"ce4bgj92rcd13ifvqbd0","pricing_plan_id":"cebpf4jnsgd1na2vs0mg"},{"bike_id":"704f1f39-f2ab-43b4-8a39-862a600c6d60","system_id":"levelo_inurba_marseille","lat":43.29513,"lon":5.37502,"is_reserved":false,"is_disabled":false,"rental_uris":{"android":"levelo://app?vid=704f1f39-f2ab-43b4-8a39-862a600c6d60","ios":"levelo://app?vid=704f1f39-f2ab-43b4-8a39-862a600c6d60"},"vehicle_type_id":"4","last_reported":1743005603,"current_range_meters":3600,"station_id":"ce4bgkp2rcd13ifvqbmg","pricing_plan_id":"cebpf4jnsgd1na2vs0mg"},{"bike_id":"2a81ab01-651a-458c-a36b-dc32b0c11f9d","system_id":"levelo_inurba_marseille","lat":43.28609,"lon":5.35104,"is_reserved":false,"is_disabled":false,"rental_uris":{"android":"levelo://app?vid=2a81ab01-651a-458c-a36b-dc32b0c11f9d","ios":"levelo://app?vid=2a81ab01-651a-458c-a36b-dc32b0c11f9d"},"vehicle_type_id":"4","last_reported":1743005603,"current_range_meters":3600,"station_id":"ce4bhch2rcd13ifvqeug","pricing_plan_id":"cebpf4jnsgd1na2vs0mg"},{"bike_id":"2670f076-77bc-44d6-963e-1710a6b30c44","system_id":"levelo_inurba_marseille","lat":43.27967,"lon":5.38736,"is_reserved":false,"is_disabled":false,"rental_uris":{"android":"levelo://app?vid=2670f076-77bc-44d6-963e-1710a6b30c44","ios":"levelo://app?vid=2670f076-77bc-44d6-963e-1710a6b30c44"},"vehicle_type_id":"4","last_reported":1743005603,"current_range_meters":3600,"station_id":"ce4bhg12rcd13ifvqf80","pricing_plan_id":"cebpf4jnsgd1na2vs0mg"},{"bike_id":"cd20d16a-032a-4ea7-a430-255e9d8a59c5","system_id":"levelo_inurba_marseille","lat":43.28081,"lon":5.40447,"is_reserved":false,"is_disabled":false,"rental_uris":{"android":"levelo://app?vid=cd20d16a-032a-4ea7-a430-255e9d8a59c5","ios":"levelo://app?vid=cd20d16a-032a-4ea7-a430-255e9d8a59c5"},"vehicle_type_id":"4","last_reported":1743005603,"current_range_meters":3600,"station_id":"","pricing_plan_id":"cebpf4jnsgd1na2vs0mg"},{"bike_id":"0775d7c5-76d1-40c8-9c67-5a092add6dab","system_id":"levelo_inurba_marseille","lat":43.25868,"lon":5.39897,"is_reserved":false,"is_disabled":false,"rental_uris":{"android":"levelo://app?vid=0775d7c5-76d1-40c8-9c67-5a092add6dab","ios":"levelo://app?vid=0775d7c5-76d1-40c8-9c67-5a092add6dab"},"vehicle_type_id":"4","last_reported":1743005603,"current_range_meters":3600,"station_id":"ce4bhl92rcd13ifvqghg","pricing_plan_id":"cebpf4jnsgd1na2vs0mg"},{"bike_id":"e3162120-725a-4663-8148-e797ab7d76d4","system_id":"levelo_inurba_marseille","lat":43.30406,"lon":5.37004,"is_reserved":false,"is_disabled":false,"rental_uris":{"android":"levelo://app?vid=e3162120-725a-4663-8148-e797ab7d76d4","ios":"levelo://app?vid=e3162120-725a-4663-8148-e797ab7d76d4"},"vehicle_type_id":"4","last_reported":1743005603,"current_range_meters":4000,"station_id":"","pricing_plan_id":"cebpf4jnsgd1na2vs0mg"},{"bike_id":"682e17ed-d1d4-4b0f-9503-11f71648c49c","system_id":"levelo_inurba_marseille","lat":43.27809,"lon":5.40715,"is_reserved":false,"is_disabled":false,"rental_uris":{"android":"levelo://app?vid=682e17ed-d1d4-4b0f-9503-11f71648c49c","ios":"levelo://app?vid=682e17ed-d1d4-4b0f-9503-11f71648c49c"},"vehicle_type_id":"4","last_reported":1743005603,"current_range_meters":4000,"station_id":"ce4bhnh2rcd13ifvqgtg","pricing_plan_id":"cebpf4jnsgd1na2vs0mg"},{"bike_id":"3bf0f2be-2ba7-423f-8874-903fde622045","system_id":"levelo_inurba_marseille","lat":43.29885,"lon":5.389,"is_reserved":false,"is_disabled":false,"rental_uris":{"android":"levelo://app?vid=3bf0f2be-2ba7-423f-8874-903fde622045","ios":"levelo://app?vid=3bf0f2be-2ba7-423f-8874-903fde622045"},"vehicle_type_id":"4","last_reported":1743005603,"current_range_meters":3600,"station_id":"ce4bh392rcd13ifvqdl0","pricing_plan_id":"cebpf4jnsgd1na2vs0mg"},{"bike_id":"573087b6-76af-4403-a986-3833782f0927","system_id":"levelo_inurba_marseille","lat":43.23182,"lon":5.39987,"is_reserved":false,"is_disabled":false,"rental_uris":{"android":"levelo://app?vid=573087b6-76af-4403-a986-3833782f0927","ios":"levelo://app?vid=573087b6-76af-4403-a986-3833782f0927"},"vehicle_type_id":"4","last_reported":1743005603,"current_range_meters":4000,"station_id":"ce4bhn12rcd13ifvqgqg","pricing_plan_id":"cebpf4jnsgd1na2vs0mg"},{"bike_id":"bd664546-e3a4-40d0-b3cf-33ed0cd2dd5b","system_id":"levelo_inurba_marseille","lat":43.297028,"lon":5.376907,"is_reserved":false,"is_disabled":false,"rental_uris":{"android":"levelo://app?vid=bd664546-e3a4-40d0-b3cf-33ed0cd2dd5b","ios":"levelo://app?vid=bd664546-e3a4-40d0-b3cf-33ed0cd2dd5b"},"vehicle_type_id":"4","last_reported":1743005603,"current_range_meters":4400,"station_id":"ce4bgkh2rcd13ifvqbl0","pricing_plan_id":"cebpf4jnsgd1na2vs0mg"},{"bike_id":"77209149-1452-4825-8e4c-cae124fd3cd0","system_id":"levelo_inurba_marseille","lat":43.2963,"lon":5.406,"is_reserved":false,"is_disabled":false,"rental_uris":{"android":"levelo://app?vid=77209149-1452-4825-8e4c-cae124fd3cd0","ios":"levelo://app?vid=77209149-1452-4825-8e4c-cae124fd3cd0"},"vehicle_type_id":"4","last_reported":1743005603,"current_range_meters":4400,"station_id":"ce4bh0h2rcd13ifvqd60","pricing_plan_id":"cebpf4jnsgd1na2vs0mg"},{"bike_id":"0039f5dd-4a77-4f0b-93ef-6fa1903e4983","system_id":"levelo_inurba_marseille","lat":43.29629,"lon":5.40586,"is_reserved":false,"is_disabled":false,"rental_uris":{"android":"levelo://app?vid=0039f5dd-4a77-4f0b-93ef-6fa1903e4983","ios":"levelo://app?vid=0039f5dd-4a77-4f0b-93ef-6fa1903e4983"},"vehicle_type_id":"4","last_reported":1743005603,"current_range_meters":4400,"station_id":"ce4bh0h2rcd13ifvqd60","pricing_plan_id":"cebpf4jnsgd1na2vs0mg"},{"bike_id":"0c9cada4-2764-4013-a528-15089818cb84","system_id":"levelo_inurba_marseille","lat":43.27773,"lon":5.41162,"is_reserved":false,"is_disabled":false,"rental_uris":{"android":"levelo://app?vid=0c9cada4-2764-4013-a528-15089818cb84","ios":"levelo://app?vid=0c9cada4-2764-4013-a528-15089818cb84"},"vehicle_type_id":"4","last_reported":1743005603,"current_range_meters":4400,"station_id":"","pricing_plan_id":"cebpf4jnsgd1na2vs0mg"},{"bike_id":"e88119b7-a718-4321-b2dc-884b54d91595","system_id":"levelo_inurba_marseille","lat":43.30792,"lon":5.3765,"is_reserved":false,"is_disabled":false,"rental_uris":{"android":"levelo://app?vid=e88119b7-a718-4321-b2dc-884b54d91595","ios":"levelo://app?vid=e88119b7-a718-4321-b2dc-884b54d91595"},"vehicle_type_id":"4","last_reported":1743005603,"current_range_meters":4400,"station_id":"ce4bgv92rcd13ifvqcq0","pricing_plan_id":"cebpf4jnsgd1na2vs0mg"},{"bike_id":"85f740ce-b25c-4f01-a4d0-1cb1211ec32c","system_id":"levelo_inurba_marseille","lat":43.2719,"lon":5.40979,"is_reserved":false,"is_disabled":false,"rental_uris":{"android":"levelo://app?vid=85f740ce-b25c-4f01-a4d0-1cb1211ec32c","ios":"levelo://app?vid=85f740ce-b25c-4f01-a4d0-1cb1211ec32c"},"vehicle_type_id":"4","last_reported":1743005603,"current_range_meters":4400,"station_id":"ce4bhl12rcd13ifvqgf0","pricing_plan_id":"cebpf4jnsgd1na2vs0mg"},{"bike_id":"baf54f68-2ee3-4016-951c-6d2104656a49","system_id":"levelo_inurba_marseille","lat":43.26555,"lon":5.37283,"is_reserved":false,"is_disabled":false,"rental_uris":{"android":"levelo://app?vid=baf54f68-2ee3-4016-951c-6d2104656a49","ios":"levelo://app?vid=baf54f68-2ee3-4016-951c-6d2104656a49"},"vehicle_type_id":"4","last_reported":1743005603,"current_range_meters":4400,"station_id":"ce4bhg12rcd13ifvqf70","pricing_plan_id":"cebpf4jnsgd1na2vs0mg"},{"bike_id":"2ca0bb39-7bbc-4c51-af37-eb06c9250f93","system_id":"levelo_inurba_marseille","lat":43.24832,"lon":5.37452,"is_reserved":false,"is_disabled":false,"rental_uris":{"android":"levelo://app?vid=2ca0bb39-7bbc-4c51-af37-eb06c9250f93","ios":"levelo://app?vid=2ca0bb39-7bbc-4c51-af37-eb06c9250f93"},"vehicle_type_id":"4","last_reported":1743005603,"current_range_meters":4400,"station_id":"ce4bhgh2rcd13ifvqfb0","pricing_plan_id":"cebpf4jnsgd1na2vs0mg"},{"bike_id":"2a99ecb7-4bf0-4c00-89bb-11ff019b8a6d","system_id":"levelo_inurba_marseille","lat":43.22937,"lon":5.35374,"is_reserved":false,"is_disabled":false,"rental_uris":{"android":"levelo://app?vid=2a99ecb7-4bf0-4c00-89bb-11ff019b8a6d","ios":"levelo://app?vid=2a99ecb7-4bf0-4c00-89bb-11ff019b8a6d"},"vehicle_type_id":"4","last_reported":1743005603,"current_range_meters":4800,"station_id":"cpo3532slgdg3j2ikp40","pricing_plan_id":"cebpf4jnsgd1na2vs0mg"},{"bike_id":"cf460388-22c3-4898-9411-a3efeed62328","system_id":"levelo_inurba_marseille","lat":43.28354,"lon":5.3864,"is_reserved":false,"is_disabled":false,"rental_uris":{"android":"levelo://app?vid=cf460388-22c3-4898-9411-a3efeed62328","ios":"levelo://app?vid=cf460388-22c3-4898-9411-a3efeed62328"},"vehicle_type_id":"4","last_reported":1743005603,"current_range_meters":4800,"station_id":"ce4bh492rcd13ifvqdvg","pricing_plan_id":"cebpf4jnsgd1na2vs0mg"},{"bike_id":"d9513bf5-f255-462a-a7d5-c6e6b011af31","system_id":"levelo_inurba_marseille","lat":43.27809,"lon":5.40717,"is_reserved":false,"is_disabled":false,"rental_uris":{"android":"levelo://app?vid=d9513bf5-f255-462a-a7d5-c6e6b011af31","ios":"levelo://app?vid=d9513bf5-f255-462a-a7d5-c6e6b011af31"},"vehicle_type_id":"4","last_reported":1743005603,"current_range_meters":4800,"station_id":"ce4bhnh2rcd13ifvqgtg","pricing_plan_id":"cebpf4jnsgd1na2vs0mg"},{"bike_id":"3ea8b5de-afee-48ac-9903-9cf0400c70b5","system_id":"levelo_inurba_marseille","lat":43.28938,"lon":5.36632,"is_reserved":false,"is_disabled":false,"rental_uris":{"android":"levelo://app?vid=3ea8b5de-afee-48ac-9903-9cf0400c70b5","ios":"levelo://app?vid=3ea8b5de-afee-48ac-9903-9cf0400c70b5"},"vehicle_type_id":"4","last_reported":1743005603,"current_range_meters":4800,"station_id":"ce4bhap2rcd13ifvqek0","pricing_plan_id":"cebpf4jnsgd1na2vs0mg"},{"bike_id":"a36462df-89c7-4584-96b8-13b22db824e8","system_id":"levelo_inurba_marseille","lat":43.27495,"lon":5.42447,"is_reserved":false,"is_disabled":false,"rental_uris":{"android":"levelo://app?vid=a36462df-89c7-4584-96b8-13b22db824e8","ios":"levelo://app?vid=a36462df-89c7-4584-96b8-13b22db824e8"},"vehicle_type_id":"4","last_reported":1743005603,"current_range_meters":5600,"station_id":"ce4bhn92rcd13ifvqgrg","pricing_plan_id":"cebpf4jnsgd1na2vs0mg"},{"bike_id":"03908684-304c-46cb-8098-7d26df555d11","system_id":"levelo_inurba_marseille","lat":43.2926,"lon":5.39841,"is_reserved":false,"is_disabled":false,"rental_uris":{"android":"levelo://app?vid=03908684-304c-46cb-8098-7d26df555d11","ios":"levelo://app?vid=03908684-304c-46cb-8098-7d26df555d11"},"vehicle_type_id":"4","last_reported":1743005603,"current_range_meters":5600,"station_id":"","pricing_plan_id":"cebpf4jnsgd1na2vs0mg"},{"bike_id":"79fc9c01-ddf7-4936-a489-8cf80ec99e5d","system_id":"levelo_inurba_marseille","lat":43.29966,"lon":5.38496,"is_reserved":false,"is_disabled":false,"rental_uris":{"android":"levelo://app?vid=79fc9c01-ddf7-4936-a489-8cf80ec99e5d","ios":"levelo://app?vid=79fc9c01-ddf7-4936-a489-8cf80ec99e5d"},"vehicle_type_id":"4","last_reported":1743005603,"current_range_meters":5600,"station_id":"ce4bgj92rcd13ifvqbd0","pricing_plan_id":"cebpf4jnsgd1na2vs0mg"},{"bike_id":"382e9154-bcdc-4129-a758-dd6e127accee","system_id":"levelo_inurba_marseille","lat":43.29074,"lon":5.37166,"is_reserved":false,"is_disabled":false,"rental_uris":{"android":"levelo://app?vid=382e9154-bcdc-4129-a758-dd6e127accee","ios":"levelo://app?vid=382e9154-bcdc-4129-a758-dd6e127accee"},"vehicle_type_id":"4","last_reported":1743005603,"current_range_meters":5600,"station_id":"ce4bh5p2rcd13ifvqe4g","pricing_plan_id":"cebpf4jnsgd1na2vs0mg"},{"bike_id":"08545bac-f799-4e87-bea8-3729e5a0a156","system_id":"levelo_inurba_marseille","lat":43.251112,"lon":5.403227,"is_reserved":false,"is_disabled":false,"rental_uris":{"android":"levelo://app?vid=08545bac-f799-4e87-bea8-3729e5a0a156","ios":"levelo://app?vid=08545bac-f799-4e87-bea8-3729e5a0a156"},"vehicle_type_id":"4","last_reported":1743005603,"current_range_meters":5600,"station_id":"ce4bhl92rcd13ifvqghg","pricing_plan_id":"cebpf4jnsgd1na2vs0mg"},{"bike_id":"2f3e2a92-1301-4a27-8eaa-7b0ea525530e","system_id":"levelo_inurba_marseille","lat":43.31714,"lon":5.43707,"is_reserved":false,"is_disabled":false,"rental_uris":{"android":"levelo://app?vid=2f3e2a92-1301-4a27-8eaa-7b0ea525530e","ios":"levelo://app?vid=2f3e2a92-1301-4a27-8eaa-7b0ea525530e"},"vehicle_type_id":"4","last_reported":1743005603,"current_range_meters":6000,"station_id":"ce4bhp92rcd13ifvqhcg","pricing_plan_id":"cebpf4jnsgd1na2vs0mg"},{"bike_id":"ae64d049-3c54-4b63-a552-b1e07d06f548","system_id":"levelo_inurba_marseille","lat":43.25749,"lon":5.41094,"is_reserved":false,"is_disabled":false,"rental_uris":{"android":"levelo://app?vid=ae64d049-3c54-4b63-a552-b1e07d06f548","ios":"levelo://app?vid=ae64d049-3c54-4b63-a552-b1e07d06f548"},"vehicle_type_id":"4","last_reported":1743005603,"current_range_meters":6000,"station_id":"ce4bho12rcd13ifvqh1g","pricing_plan_id":"cebpf4jnsgd1na2vs0mg"},{"bike_id":"09d3bbe5-02a1-4e4f-83f0-fc3f1b28a84f","system_id":"levelo_inurba_marseille","lat":43.31117,"lon":5.37781,"is_reserved":false,"is_disabled":false,"rental_uris":{"android":"levelo://app?vid=09d3bbe5-02a1-4e4f-83f0-fc3f1b28a84f","ios":"levelo://app?vid=09d3bbe5-02a1-4e4f-83f0-fc3f1b28a84f"},"vehicle_type_id":"4","last_reported":1743005603,"current_range_meters":6000,"station_id":"ce4bgt92rcd13ifvqcg0","pricing_plan_id":"cebpf4jnsgd1na2vs0mg"},{"bike_id":"c2252fde-5b95-4a0f-af5a-07220bab49c2","system_id":"levelo_inurba_marseille","lat":43.29265,"lon":5.38434,"is_reserved":false,"is_disabled":false,"rental_uris":{"android":"levelo://app?vid=c2252fde-5b95-4a0f-af5a-07220bab49c2","ios":"levelo://app?vid=c2252fde-5b95-4a0f-af5a-07220bab49c2"},"vehicle_type_id":"4","last_reported":1743005603,"current_range_meters":6000,"station_id":"ce4bh692rcd13ifvqea0","pricing_plan_id":"cebpf4jnsgd1na2vs0mg"},{"bike_id":"b59daaff-2668-497e-8489-f011e59c3cf8","system_id":"levelo_inurba_marseille","lat":43.29043,"lon":5.37566,"is_reserved":false,"is_disabled":false,"rental_uris":{"android":"levelo://app?vid=b59daaff-2668-497e-8489-f011e59c3cf8","ios":"levelo://app?vid=b59daaff-2668-497e-8489-f011e59c3cf8"},"vehicle_type_id":"4","last_reported":1743005603,"current_range_meters":6000,"station_id":"ce4bh692rcd13ifvqe90","pricing_plan_id":"cebpf4jnsgd1na2vs0mg"},{"bike_id":"5475e2f7-6ae6-43c2-8a19-61edd2e081b7","system_id":"levelo_inurba_marseille","lat":43.27376,"lon":5.36261,"is_reserved":false,"is_disabled":false,"rental_uris":{"android":"levelo://app?vid=5475e2f7-6ae6-43c2-8a19-61edd2e081b7","ios":"levelo://app?vid=5475e2f7-6ae6-43c2-8a19-61edd2e081b7"},"vehicle_type_id":"4","last_reported":1743005603,"current_range_meters":6400,"station_id":"ce4bhbh2rcd13ifvqeo0","pricing_plan_id":"cebpf4jnsgd1na2vs0mg"},{"bike_id":"e8f45e15-bfda-431d-9e39-bb60be1e4e81","system_id":"levelo_inurba_marseille","lat":43.27569,"lon":5.38427,"is_reserved":false,"is_disabled":false,"rental_uris":{"android":"levelo://app?vid=e8f45e15-bfda-431d-9e39-bb60be1e4e81","ios":"levelo://app?vid=e8f45e15-bfda-431d-9e39-bb60be1e4e81"},"vehicle_type_id":"4","last_reported":1743005603,"current_range_meters":6400,"station_id":"ce4bhh92rcd13ifvqfi0","pricing_plan_id":"cebpf4jnsgd1na2vs0mg"},{"bike_id":"c987315b-c2f4-4cef-9907-a198f1f04f5a","system_id":"levelo_inurba_marseille","lat":43.27989,"lon":5.40026,"is_reserved":false,"is_disabled":false,"rental_uris":{"android":"levelo://app?vid=c987315b-c2f4-4cef-9907-a198f1f04f5a","ios":"levelo://app?vid=c987315b-c2f4-4cef-9907-a198f1f04f5a"},"vehicle_type_id":"4","last_reported":1743005603,"current_range_meters":6400,"station_id":"ce4bho92rcd13ifvqh4g","pricing_plan_id":"cebpf4jnsgd1na2vs0mg"},{"bike_id":"2be7cf22-8559-499c-97fc-dd0e4bb57a31","system_id":"levelo_inurba_marseille","lat":43.31176,"lon":5.38712,"is_reserved":false,"is_disabled":false,"rental_uris":{"android":"levelo://app?vid=2be7cf22-8559-499c-97fc-dd0e4bb57a31","ios":"levelo://app?vid=2be7cf22-8559-499c-97fc-dd0e4bb57a31"},"vehicle_type_id":"4","last_reported":1743005603,"current_range_meters":6400,"station_id":"ce4bgv12rcd13ifvqcp0","pricing_plan_id":"cebpf4jnsgd1na2vs0mg"},{"bike_id":"7d944d2b-bdbb-4dfe-b8d5-68d8eb03245d","system_id":"levelo_inurba_marseille","lat":43.24649,"lon":5.38895,"is_reserved":false,"is_disabled":false,"rental_uris":{"android":"levelo://app?vid=7d944d2b-bdbb-4dfe-b8d5-68d8eb03245d","ios":"levelo://app?vid=7d944d2b-bdbb-4dfe-b8d5-68d8eb03245d"},"vehicle_type_id":"4","last_reported":1743005603,"current_range_meters":6400,"station_id":"ce4bhg12rcd13ifvqf60","pricing_plan_id":"cebpf4jnsgd1na2vs0mg"},{"bike_id":"f24fec9a-e334-444d-b628-f61223752d19","system_id":"levelo_inurba_marseille","lat":43.24992,"lon":5.38934,"is_reserved":false,"is_disabled":false,"rental_uris":{"android":"levelo://app?vid=f24fec9a-e334-444d-b628-f61223752d19","ios":"levelo://app?vid=f24fec9a-e334-444d-b628-f61223752d19"},"vehicle_type_id":"4","last_reported":1743005603,"current_range_meters":6000,"station_id":"ce4bhgp2rcd13ifvqfd0","pricing_plan_id":"cebpf4jnsgd1na2vs0mg"},{"bike_id":"b5250a55-5be0-4dd6-befe-f6aa8e960d4e","system_id":"levelo_inurba_marseille","lat":43.27423,"lon":5.39423,"is_reserved":false,"is_disabled":false,"rental_uris":{"android":"levelo://app?vid=b5250a55-5be0-4dd6-befe-f6aa8e960d4e","ios":"levelo://app?vid=b5250a55-5be0-4dd6-befe-f6aa8e960d4e"},"vehicle_type_id":"4","last_reported":1743005603,"current_range_meters":6000,"station_id":"ce4bhdp2rcd13ifvqf20","pricing_plan_id":"cebpf4jnsgd1na2vs0mg"},{"bike_id":"77823725-c761-49bc-902c-64c32b686ae7","system_id":"levelo_inurba_marseille","lat":43.230639,"lon":5.354939,"is_reserved":false,"is_disabled":false,"rental_uris":{"android":"levelo://app?vid=77823725-c761-49bc-902c-64c32b686ae7","ios":"levelo://app?vid=77823725-c761-49bc-902c-64c32b686ae7"},"vehicle_type_id":"4","last_reported":1743005603,"current_range_meters":6400,"station_id":"cpo3342slgdg3j2ifvpg","pricing_plan_id":"cebpf4jnsgd1na2vs0mg"},{"bike_id":"9bcaa738-1c13-4d6b-adc8-d57cbe903dd0","system_id":"levelo_inurba_marseille","lat":43.31163,"lon":5.38712,"is_reserved":false,"is_disabled":false,"rental_uris":{"android":"levelo://app?vid=9bcaa738-1c13-4d6b-adc8-d57cbe903dd0","ios":"levelo://app?vid=9bcaa738-1c13-4d6b-adc8-d57cbe903dd0"},"vehicle_type_id":"4","last_reported":1743005603,"current_range_meters":6400,"station_id":"ce4bgv12rcd13ifvqcp0","pricing_plan_id":"cebpf4jnsgd1na2vs0mg"},{"bike_id":"7e628bd8-f74d-4310-8492-8512d6f315fe","system_id":"levelo_inurba_marseille","lat":43.23191,"lon":5.399945,"is_reserved":false,"is_disabled":false,"rental_uris":{"android":"levelo://app?vid=7e628bd8-f74d-4310-8492-8512d6f315fe","ios":"levelo://app?vid=7e628bd8-f74d-4310-8492-8512d6f315fe"},"vehicle_type_id":"4","last_reported":1743005603,"current_range_meters":6400,"station_id":"ce4bhn12rcd13ifvqgqg","pricing_plan_id":"cebpf4jnsgd1na2vs0mg"},{"bike_id":"6633349b-54ae-41b8-88d5-61ec5d012302","system_id":"levelo_inurba_marseille","lat":43.32101,"lon":5.36779,"is_reserved":false,"is_disabled":false,"rental_uris":{"android":"levelo://app?vid=6633349b-54ae-41b8-88d5-61ec5d012302","ios":"levelo://app?vid=6633349b-54ae-41b8-88d5-61ec5d012302"},"vehicle_type_id":"4","last_reported":1743005603,"current_range_meters":6800,"station_id":"ce4bhrh2rcd13ifvqhug","pricing_plan_id":"cebpf4jnsgd1na2vs0mg"},{"bike_id":"ba514c16-180b-4665-976e-3f1f27c9c0d0","system_id":"levelo_inurba_marseille","lat":43.27814,"lon":5.40716,"is_reserved":false,"is_disabled":false,"rental_uris":{"android":"levelo://app?vid=ba514c16-180b-4665-976e-3f1f27c9c0d0","ios":"levelo://app?vid=ba514c16-180b-4665-976e-3f1f27c9c0d0"},"vehicle_type_id":"4","last_reported":1743005603,"current_range_meters":6800,"station_id":"ce4bhnh2rcd13ifvqgtg","pricing_plan_id":"cebpf4jnsgd1na2vs0mg"},{"bike_id":"02f216f6-5365-4a64-8ac6-6badd4e8814e","system_id":"levelo_inurba_marseille","lat":43.2397,"lon":5.3665,"is_reserved":false,"is_disabled":false,"rental_uris":{"android":"levelo://app?vid=02f216f6-5365-4a64-8ac6-6badd4e8814e","ios":"levelo://app?vid=02f216f6-5365-4a64-8ac6-6badd4e8814e"},"vehicle_type_id":"4","last_reported":1743005603,"current_range_meters":6800,"station_id":"ce4bhi12rcd13ifvqfp0","pricing_plan_id":"cebpf4jnsgd1na2vs0mg"},{"bike_id":"5fa6a743-c734-49e8-8ac1-3349909d8f57","system_id":"levelo_inurba_marseille","lat":43.28274,"lon":5.35075,"is_reserved":false,"is_disabled":false,"rental_uris":{"android":"levelo://app?vid=5fa6a743-c734-49e8-8ac1-3349909d8f57","ios":"levelo://app?vid=5fa6a743-c734-49e8-8ac1-3349909d8f57"},"vehicle_type_id":"4","last_reported":1743005603,"current_range_meters":6400,"station_id":"ce4bhbp2rcd13ifvqerg","pricing_plan_id":"cebpf4jnsgd1na2vs0mg"},{"bike_id":"724ed8e8-2918-4d83-96a9-866364fdcf75","system_id":"levelo_inurba_marseille","lat":43.27383,"lon":5.36275,"is_reserved":false,"is_disabled":false,"rental_uris":{"android":"levelo://app?vid=724ed8e8-2918-4d83-96a9-866364fdcf75","ios":"levelo://app?vid=724ed8e8-2918-4d83-96a9-866364fdcf75"},"vehicle_type_id":"4","last_reported":1743005603,"current_range_meters":6800,"station_id":"ce4bhbh2rcd13ifvqeo0","pricing_plan_id":"cebpf4jnsgd1na2vs0mg"},{"bike_id":"1deecb50-2c19-4759-996f-504db272d305","system_id":"levelo_inurba_marseille","lat":43.28624,"lon":5.35091,"is_reserved":false,"is_disabled":false,"rental_uris":{"android":"levelo://app?vid=1deecb50-2c19-4759-996f-504db272d305","ios":"levelo://app?vid=1deecb50-2c19-4759-996f-504db272d305"},"vehicle_type_id":"4","last_reported":1743005603,"current_range_meters":6800,"station_id":"ce4bhch2rcd13ifvqeug","pricing_plan_id":"cebpf4jnsgd1na2vs0mg"},{"bike_id":"b9d27fdb-d529-4ab9-b70d-0768b571bda1","system_id":"levelo_inurba_marseille","lat":43.29034,"lon":5.39967,"is_reserved":false,"is_disabled":false,"rental_uris":{"android":"levelo://app?vid=b9d27fdb-d529-4ab9-b70d-0768b571bda1","ios":"levelo://app?vid=b9d27fdb-d529-4ab9-b70d-0768b571bda1"},"vehicle_type_id":"4","last_reported":1743005603,"current_range_meters":6800,"station_id":"ce4bh392rcd13ifvqdm0","pricing_plan_id":"cebpf4jnsgd1na2vs0mg"},{"bike_id":"0f140473-519a-448a-a4e5-1768f81b790e","system_id":"levelo_inurba_marseille","lat":43.26195,"lon":5.37448,"is_reserved":false,"is_disabled":false,"rental_uris":{"android":"levelo://app?vid=0f140473-519a-448a-a4e5-1768f81b790e","ios":"levelo://app?vid=0f140473-519a-448a-a4e5-1768f81b790e"},"vehicle_type_id":"4","last_reported":1743005603,"current_range_meters":6800,"station_id":"ce4bhgp2rcd13ifvqfc0","pricing_plan_id":"cebpf4jnsgd1na2vs0mg"},{"bike_id":"9faf1828-9705-407c-9c49-9fb243df4bfc","system_id":"levelo_inurba_marseille","lat":43.29899,"lon":5.39727,"is_reserved":false,"is_disabled":false,"rental_uris":{"android":"levelo://app?vid=9faf1828-9705-407c-9c49-9fb243df4bfc","ios":"levelo://app?vid=9faf1828-9705-407c-9c49-9fb243df4bfc"},"vehicle_type_id":"4","last_reported":1743005603,"current_range_meters":7200,"station_id":"ce4bh0h2rcd13ifvqd50","pricing_plan_id":"cebpf4jnsgd1na2vs0mg"},{"bike_id":"bfe410d0-31e2-48d6-9829-0ac353334df1","system_id":"levelo_inurba_marseille","lat":43.29418,"lon":5.38619,"is_reserved":false,"is_disabled":false,"rental_uris":{"android":"levelo://app?vid=bfe410d0-31e2-48d6-9829-0ac353334df1","ios":"levelo://app?vid=bfe410d0-31e2-48d6-9829-0ac353334df1"},"vehicle_type_id":"4","last_reported":1743005603,"current_range_meters":7200,"station_id":"ce4bh292rcd13ifvqdg0","pricing_plan_id":"cebpf4jnsgd1na2vs0mg"},{"bike_id":"1cc22df2-fffe-4fde-9634-268475adf9c2","system_id":"levelo_inurba_marseille","lat":43.2747,"lon":5.36262,"is_reserved":false,"is_disabled":false,"rental_uris":{"android":"levelo://app?vid=1cc22df2-fffe-4fde-9634-268475adf9c2","ios":"levelo://app?vid=1cc22df2-fffe-4fde-9634-268475adf9c2"},"vehicle_type_id":"4","last_reported":1743005603,"current_range_meters":7200,"station_id":"","pricing_plan_id":"cebpf4jnsgd1na2vs0mg"},{"bike_id":"570b9bb5-507c-4b1b-8e55-246e43b83806","system_id":"levelo_inurba_marseille","lat":43.26546,"lon":5.37279,"is_reserved":false,"is_disabled":false,"rental_uris":{"android":"levelo://app?vid=570b9bb5-507c-4b1b-8e55-246e43b83806","ios":"levelo://app?vid=570b9bb5-507c-4b1b-8e55-246e43b83806"},"vehicle_type_id":"4","last_reported":1743005603,"current_range_meters":7200,"station_id":"ce4bhg12rcd13ifvqf70","pricing_plan_id":"cebpf4jnsgd1na2vs0mg"},{"bike_id":"2cd38659-3007-4a70-a3c0-4dbdf8d620d5","system_id":"levelo_inurba_marseille","lat":43.3151,"lon":5.37294,"is_reserved":false,"is_disabled":true,"rental_uris":{"android":"levelo://app?vid=2cd38659-3007-4a70-a3c0-4dbdf8d620d5","ios":"levelo://app?vid=2cd38659-3007-4a70-a3c0-4dbdf8d620d5"},"vehicle_type_id":"4","last_reported":1743005603,"current_range_meters":7200,"station_id":"ce4bgt12rcd13ifvqcd0","pricing_plan_id":"cebpf4jnsgd1na2vs0mg"},{"bike_id":"a5d34973-36fd-4369-b767-e430397149c3","system_id":"levelo_inurba_marseille","lat":43.258631,"lon":5.398957,"is_reserved":false,"is_disabled":false,"rental_uris":{"android":"levelo://app?vid=a5d34973-36fd-4369-b767-e430397149c3","ios":"levelo://app?vid=a5d34973-36fd-4369-b767-e430397149c3"},"vehicle_type_id":"4","last_reported":1743005603,"current_range_meters":8400,"station_id":"ce4bhl92rcd13ifvqghg","pricing_plan_id":"cebpf4jnsgd1na2vs0mg"},{"bike_id":"3f7c0961-f4f1-4685-ad29-7c4be6364201","system_id":"levelo_inurba_marseille","lat":43.29167,"lon":5.37161,"is_reserved":false,"is_disabled":false,"rental_uris":{"android":"levelo://app?vid=3f7c0961-f4f1-4685-ad29-7c4be6364201","ios":"levelo://app?vid=3f7c0961-f4f1-4685-ad29-7c4be6364201"},"vehicle_type_id":"4","last_reported":1743005603,"current_range_meters":7200,"station_id":"ce4bha92rcd13ifvqeh0","pricing_plan_id":"cebpf4jnsgd1na2vs0mg"},{"bike_id":"98c7ca61-6b4e-4129-ad44-4943fd2074d6","system_id":"levelo_inurba_marseille","lat":43.22928,"lon":5.35383,"is_reserved":false,"is_disabled":false,"rental_uris":{"android":"levelo://app?vid=98c7ca61-6b4e-4129-ad44-4943fd2074d6","ios":"levelo://app?vid=98c7ca61-6b4e-4129-ad44-4943fd2074d6"},"vehicle_type_id":"4","last_reported":1743005603,"current_range_meters":8000,"station_id":"cpo3532slgdg3j2ikp40","pricing_plan_id":"cebpf4jnsgd1na2vs0mg"},{"bike_id":"6c565aa4-82a9-41b4-833b-ae75d9a678cd","system_id":"levelo_inurba_marseille","lat":43.31479,"lon":5.37306,"is_reserved":false,"is_disabled":false,"rental_uris":{"android":"levelo://app?vid=6c565aa4-82a9-41b4-833b-ae75d9a678cd","ios":"levelo://app?vid=6c565aa4-82a9-41b4-833b-ae75d9a678cd"},"vehicle_type_id":"4","last_reported":1743005603,"current_range_meters":8000,"station_id":"ce4bgt12rcd13ifvqcd0","pricing_plan_id":"cebpf4jnsgd1na2vs0mg"},{"bike_id":"81f50a21-41b3-4c6e-8ae8-af1cd9166642","system_id":"levelo_inurba_marseille","lat":43.2906,"lon":5.37155,"is_reserved":false,"is_disabled":false,"rental_uris":{"android":"levelo://app?vid=81f50a21-41b3-4c6e-8ae8-af1cd9166642","ios":"levelo://app?vid=81f50a21-41b3-4c6e-8ae8-af1cd9166642"},"vehicle_type_id":"4","last_reported":1743005603,"current_range_meters":8000,"station_id":"ce4bh5p2rcd13ifvqe4g","pricing_plan_id":"cebpf4jnsgd1na2vs0mg"},{"bike_id":"84dc4f7e-50b6-4dda-8c76-4ba70061e643","system_id":"levelo_inurba_marseille","lat":43.29257,"lon":5.37616,"is_reserved":false,"is_disabled":false,"rental_uris":{"android":"levelo://app?vid=84dc4f7e-50b6-4dda-8c76-4ba70061e643","ios":"levelo://app?vid=84dc4f7e-50b6-4dda-8c76-4ba70061e643"},"vehicle_type_id":"4","last_reported":1743005603,"current_range_meters":8000,"station_id":"ce4bgi12rcd13ifvqb80","pricing_plan_id":"cebpf4jnsgd1na2vs0mg"},{"bike_id":"d038ffeb-340d-43ed-b7c0-2f3c3486d3ab","system_id":"levelo_inurba_marseille","lat":43.2708,"lon":5.40369,"is_reserved":false,"is_disabled":false,"rental_uris":{"android":"levelo://app?vid=d038ffeb-340d-43ed-b7c0-2f3c3486d3ab","ios":"levelo://app?vid=d038ffeb-340d-43ed-b7c0-2f3c3486d3ab"},"vehicle_type_id":"4","last_reported":1743005603,"current_range_meters":8000,"station_id":"","pricing_plan_id":"cebpf4jnsgd1na2vs0mg"},{"bike_id":"be8a4c12-59fb-40c8-b582-1cb7b8e1f4db","system_id":"levelo_inurba_marseille","lat":43.26938,"lon":5.3892,"is_reserved":false,"is_disabled":false,"rental_uris":{"android":"levelo://app?vid=be8a4c12-59fb-40c8-b582-1cb7b8e1f4db","ios":"levelo://app?vid=be8a4c12-59fb-40c8-b582-1cb7b8e1f4db"},"vehicle_type_id":"4","last_reported":1743005603,"current_range_meters":8000,"station_id":"ce4bhhh2rcd13ifvqfl0","pricing_plan_id":"cebpf4jnsgd1na2vs0mg"},{"bike_id":"d2d4a013-da47-429f-9400-c6da6763f452","system_id":"levelo_inurba_marseille","lat":43.27811,"lon":5.40729,"is_reserved":false,"is_disabled":false,"rental_uris":{"android":"levelo://app?vid=d2d4a013-da47-429f-9400-c6da6763f452","ios":"levelo://app?vid=d2d4a013-da47-429f-9400-c6da6763f452"},"vehicle_type_id":"4","last_reported":1743005603,"current_range_meters":8000,"station_id":"ce4bhnh2rcd13ifvqgtg","pricing_plan_id":"cebpf4jnsgd1na2vs0mg"},{"bike_id":"05490114-9ddd-4448-9f6d-befc69f1743e","system_id":"levelo_inurba_marseille","lat":43.30117,"lon":5.39883,"is_reserved":false,"is_disabled":false,"rental_uris":{"android":"levelo://app?vid=05490114-9ddd-4448-9f6d-befc69f1743e","ios":"levelo://app?vid=05490114-9ddd-4448-9f6d-befc69f1743e"},"vehicle_type_id":"4","last_reported":1743005603,"current_range_meters":8000,"station_id":"ce4bh0h2rcd13ifvqd40","pricing_plan_id":"cebpf4jnsgd1na2vs0mg"},{"bike_id":"34f9114a-5fea-45cc-ac77-851e0e916817","system_id":"levelo_inurba_marseille","lat":43.28411,"lon":5.34993,"is_reserved":false,"is_disabled":false,"rental_uris":{"android":"levelo://app?vid=34f9114a-5fea-45cc-ac77-851e0e916817","ios":"levelo://app?vid=34f9114a-5fea-45cc-ac77-851e0e916817"},"vehicle_type_id":"4","last_reported":1743005603,"current_range_meters":8000,"station_id":"ce4bhbh2rcd13ifvqepg","pricing_plan_id":"cebpf4jnsgd1na2vs0mg"},{"bike_id":"921f59b8-8311-4353-8da0-104b4cb08313","system_id":"levelo_inurba_marseille","lat":43.30201,"lon":5.39463,"is_reserved":false,"is_disabled":false,"rental_uris":{"android":"levelo://app?vid=921f59b8-8311-4353-8da0-104b4cb08313","ios":"levelo://app?vid=921f59b8-8311-4353-8da0-104b4cb08313"},"vehicle_type_id":"4","last_reported":1743005603,"current_range_meters":8000,"station_id":"ce4bh0p2rcd13ifvqd70","pricing_plan_id":"cebpf4jnsgd1na2vs0mg"},{"bike_id":"83156d1c-3be2-4d0c-9185-61f17458b4aa","system_id":"levelo_inurba_marseille","lat":43.30382,"lon":5.42488,"is_reserved":false,"is_disabled":false,"rental_uris":{"android":"levelo://app?vid=83156d1c-3be2-4d0c-9185-61f17458b4aa","ios":"levelo://app?vid=83156d1c-3be2-4d0c-9185-61f17458b4aa"},"vehicle_type_id":"4","last_reported":1743005603,"current_range_meters":9200,"station_id":"ce4bhoh2rcd13ifvqh6g","pricing_plan_id":"cebpf4jnsgd1na2vs0mg"},{"bike_id":"4c31deff-3545-4051-a934-85f0bcc77a2a","system_id":"levelo_inurba_marseille","lat":43.30143,"lon":5.39872,"is_reserved":false,"is_disabled":false,"rental_uris":{"android":"levelo://app?vid=4c31deff-3545-4051-a934-85f0bcc77a2a","ios":"levelo://app?vid=4c31deff-3545-4051-a934-85f0bcc77a2a"},"vehicle_type_id":"4","last_reported":1743005603,"current_range_meters":8400,"station_id":"ce4bh0h2rcd13ifvqd40","pricing_plan_id":"cebpf4jnsgd1na2vs0mg"},{"bike_id":"9e414f59-5d13-4847-984b-695d5e36104b","system_id":"levelo_inurba_marseille","lat":43.27901,"lon":5.41215,"is_reserved":false,"is_disabled":false,"rental_uris":{"android":"levelo://app?vid=9e414f59-5d13-4847-984b-695d5e36104b","ios":"levelo://app?vid=9e414f59-5d13-4847-984b-695d5e36104b"},"vehicle_type_id":"4","last_reported":1743005603,"current_range_meters":8400,"station_id":"","pricing_plan_id":"cebpf4jnsgd1na2vs0mg"},{"bike_id":"c200861a-db82-4f91-a103-a920947147ab","system_id":"levelo_inurba_marseille","lat":43.25596,"lon":5.41182,"is_reserved":false,"is_disabled":false,"rental_uris":{"android":"levelo://app?vid=c200861a-db82-4f91-a103-a920947147ab","ios":"levelo://app?vid=c200861a-db82-4f91-a103-a920947147ab"},"vehicle_type_id":"4","last_reported":1743005603,"current_range_meters":8400,"station_id":"","pricing_plan_id":"cebpf4jnsgd1na2vs0mg"},{"bike_id":"487fa3db-284c-4409-a534-75bb8c1eeb02","system_id":"levelo_inurba_marseille","lat":43.28462,"lon":5.35875,"is_reserved":false,"is_disabled":false,"rental_uris":{"android":"levelo://app?vid=487fa3db-284c-4409-a534-75bb8c1eeb02","ios":"levelo://app?vid=487fa3db-284c-4409-a534-75bb8c1eeb02"},"vehicle_type_id":"4","last_reported":1743005603,"current_range_meters":11600,"station_id":"ce4bhah2rcd13ifvqei0","pricing_plan_id":"cebpf4jnsgd1na2vs0mg"},{"bike_id":"e7f6adda-5e1c-4de1-9551-6cb302dd96e0","system_id":"levelo_inurba_marseille","lat":43.26206,"lon":5.3793,"is_reserved":false,"is_disabled":false,"rental_uris":{"android":"levelo://app?vid=e7f6adda-5e1c-4de1-9551-6cb302dd96e0","ios":"levelo://app?vid=e7f6adda-5e1c-4de1-9551-6cb302dd96e0"},"vehicle_type_id":"4","last_reported":1743005603,"current_range_meters":8400,"station_id":"ce4bhjp2rcd13ifvqg90","pricing_plan_id":"cebpf4jnsgd1na2vs0mg"},{"bike_id":"869b29b5-f0fc-4e01-a2d8-583c403be3b0","system_id":"levelo_inurba_marseille","lat":43.29006,"lon":5.35606,"is_reserved":false,"is_disabled":false,"rental_uris":{"android":"levelo://app?vid=869b29b5-f0fc-4e01-a2d8-583c403be3b0","ios":"levelo://app?vid=869b29b5-f0fc-4e01-a2d8-583c403be3b0"},"vehicle_type_id":"4","last_reported":1743005603,"current_range_meters":8000,"station_id":"ce4bhb92rcd13ifvqen0","pricing_plan_id":"cebpf4jnsgd1na2vs0mg"},{"bike_id":"e5a8f5c1-cfcf-402b-9991-c2915b376869","system_id":"levelo_inurba_marseille","lat":43.29632,"lon":5.37161,"is_reserved":false,"is_disabled":false,"rental_uris":{"android":"levelo://app?vid=e5a8f5c1-cfcf-402b-9991-c2915b376869","ios":"levelo://app?vid=e5a8f5c1-cfcf-402b-9991-c2915b376869"},"vehicle_type_id":"4","last_reported":1743005603,"current_range_meters":8400,"station_id":"ce4bgnh2rcd13ifvqc0g","pricing_plan_id":"cebpf4jnsgd1na2vs0mg"},{"bike_id":"681ec03c-5fcc-472b-a4f7-a3ac540e8e2a","system_id":"levelo_inurba_marseille","lat":43.30798,"lon":5.37063,"is_reserved":false,"is_disabled":false,"rental_uris":{"android":"levelo://app?vid=681ec03c-5fcc-472b-a4f7-a3ac540e8e2a","ios":"levelo://app?vid=681ec03c-5fcc-472b-a4f7-a3ac540e8e2a"},"vehicle_type_id":"4","last_reported":1743005603,"current_range_meters":8400,"station_id":"","pricing_plan_id":"cebpf4jnsgd1na2vs0mg"},{"bike_id":"ee28380f-2566-499f-8ab8-5a75cb1ed72f","system_id":"levelo_inurba_marseille","lat":43.288329,"lon":5.393258,"is_reserved":false,"is_disabled":true,"rental_uris":{"android":"levelo://app?vid=ee28380f-2566-499f-8ab8-5a75cb1ed72f","ios":"levelo://app?vid=ee28380f-2566-499f-8ab8-5a75cb1ed72f"},"vehicle_type_id":"4","last_reported":1743005603,"current_range_meters":8400,"station_id":"","pricing_plan_id":"cebpf4jnsgd1na2vs0mg"},{"bike_id":"494edb5c-8886-472a-b4b2-0033adc0ccbd","system_id":"levelo_inurba_marseille","lat":43.2319,"lon":5.39997,"is_reserved":false,"is_disabled":false,"rental_uris":{"android":"levelo://app?vid=494edb5c-8886-472a-b4b2-0033adc0ccbd","ios":"levelo://app?vid=494edb5c-8886-472a-b4b2-0033adc0ccbd"},"vehicle_type_id":"4","last_reported":1743005603,"current_range_meters":8400,"station_id":"ce4bhn12rcd13ifvqgqg","pricing_plan_id":"cebpf4jnsgd1na2vs0mg"},{"bike_id":"22465ece-8108-4408-be70-456e850721f0","system_id":"levelo_inurba_marseille","lat":43.2929,"lon":5.37629,"is_reserved":false,"is_disabled":false,"rental_uris":{"android":"levelo://app?vid=22465ece-8108-4408-be70-456e850721f0","ios":"levelo://app?vid=22465ece-8108-4408-be70-456e850721f0"},"vehicle_type_id":"4","last_reported":1743005603,"current_range_meters":8400,"station_id":"ce4bgi12rcd13ifvqb80","pricing_plan_id":"cebpf4jnsgd1na2vs0mg"},{"bike_id":"7123f1f1-94e4-4ade-bb77-e2eb68f3c7fc","system_id":"levelo_inurba_marseille","lat":43.27994,"lon":5.4002,"is_reserved":false,"is_disabled":false,"rental_uris":{"android":"levelo://app?vid=7123f1f1-94e4-4ade-bb77-e2eb68f3c7fc","ios":"levelo://app?vid=7123f1f1-94e4-4ade-bb77-e2eb68f3c7fc"},"vehicle_type_id":"4","last_reported":1743005603,"current_range_meters":8400,"station_id":"ce4bho92rcd13ifvqh4g","pricing_plan_id":"cebpf4jnsgd1na2vs0mg"},{"bike_id":"2040cf21-31e8-419a-b147-0345aa0d912d","system_id":"levelo_inurba_marseille","lat":43.29558,"lon":5.37511,"is_reserved":false,"is_disabled":false,"rental_uris":{"android":"levelo://app?vid=2040cf21-31e8-419a-b147-0345aa0d912d","ios":"levelo://app?vid=2040cf21-31e8-419a-b147-0345aa0d912d"},"vehicle_type_id":"4","last_reported":1743005603,"current_range_meters":8400,"station_id":"ce4bgh92rcd13ifvqb50","pricing_plan_id":"cebpf4jnsgd1na2vs0mg"},{"bike_id":"ac67a7bf-8767-47e6-9ba3-065e2417bb10","system_id":"levelo_inurba_marseille","lat":43.29064,"lon":5.4,"is_reserved":false,"is_disabled":false,"rental_uris":{"android":"levelo://app?vid=ac67a7bf-8767-47e6-9ba3-065e2417bb10","ios":"levelo://app?vid=ac67a7bf-8767-47e6-9ba3-065e2417bb10"},"vehicle_type_id":"4","last_reported":1743005603,"current_range_meters":8400,"station_id":"ce4bh392rcd13ifvqdm0","pricing_plan_id":"cebpf4jnsgd1na2vs0mg"},{"bike_id":"d8d9d9c8-a34f-417f-b9b8-d3aa779d5ffa","system_id":"levelo_inurba_marseille","lat":43.2826,"lon":5.35077,"is_reserved":false,"is_disabled":false,"rental_uris":{"android":"levelo://app?vid=d8d9d9c8-a34f-417f-b9b8-d3aa779d5ffa","ios":"levelo://app?vid=d8d9d9c8-a34f-417f-b9b8-d3aa779d5ffa"},"vehicle_type_id":"4","last_reported":1743005603,"current_range_meters":8800,"station_id":"ce4bhbp2rcd13ifvqerg","pricing_plan_id":"cebpf4jnsgd1na2vs0mg"},{"bike_id":"4d6d8a3e-5cdb-4d7b-bbad-abcfee7897a7","system_id":"levelo_inurba_marseille","lat":43.280252,"lon":5.369414,"is_reserved":false,"is_disabled":false,"rental_uris":{"android":"levelo://app?vid=4d6d8a3e-5cdb-4d7b-bbad-abcfee7897a7","ios":"levelo://app?vid=4d6d8a3e-5cdb-4d7b-bbad-abcfee7897a7"},"vehicle_type_id":"4","last_reported":1743005603,"current_range_meters":8800,"station_id":"ce4bha12rcd13ifvqef0","pricing_plan_id":"cebpf4jnsgd1na2vs0mg"},{"bike_id":"36c1ca57-38fc-4715-a7b3-708182aeacb6","system_id":"levelo_inurba_marseille","lat":43.27375,"lon":5.36252,"is_reserved":false,"is_disabled":false,"rental_uris":{"android":"levelo://app?vid=36c1ca57-38fc-4715-a7b3-708182aeacb6","ios":"levelo://app?vid=36c1ca57-38fc-4715-a7b3-708182aeacb6"},"vehicle_type_id":"4","last_reported":1743005603,"current_range_meters":8800,"station_id":"ce4bhbh2rcd13ifvqeo0","pricing_plan_id":"cebpf4jnsgd1na2vs0mg"},{"bike_id":"d4d52cd6-8435-4a9e-9781-97d3c6217ee5","system_id":"levelo_inurba_marseille","lat":43.29371,"lon":5.37842,"is_reserved":false,"is_disabled":false,"rental_uris":{"android":"levelo://app?vid=d4d52cd6-8435-4a9e-9781-97d3c6217ee5","ios":"levelo://app?vid=d4d52cd6-8435-4a9e-9781-97d3c6217ee5"},"vehicle_type_id":"4","last_reported":1743005603,"current_range_meters":8800,"station_id":"ce4bgjh2rcd13ifvqbf0","pricing_plan_id":"cebpf4jnsgd1na2vs0mg"},{"bike_id":"24a6317b-a0c7-4dde-a9a2-d0aa5be258e2","system_id":"levelo_inurba_marseille","lat":43.25584,"lon":5.3823,"is_reserved":false,"is_disabled":false,"rental_uris":{"android":"levelo://app?vid=24a6317b-a0c7-4dde-a9a2-d0aa5be258e2","ios":"levelo://app?vid=24a6317b-a0c7-4dde-a9a2-d0aa5be258e2"},"vehicle_type_id":"4","last_reported":1743005603,"current_range_meters":8800,"station_id":"ce4bhih2rcd13ifvqfs0","pricing_plan_id":"cebpf4jnsgd1na2vs0mg"},{"bike_id":"f5eba3ce-1f07-4e08-918f-dc60901b422b","system_id":"levelo_inurba_marseille","lat":43.27614,"lon":5.3611,"is_reserved":false,"is_disabled":false,"rental_uris":{"android":"levelo://app?vid=f5eba3ce-1f07-4e08-918f-dc60901b422b","ios":"levelo://app?vid=f5eba3ce-1f07-4e08-918f-dc60901b422b"},"vehicle_type_id":"4","last_reported":1743005603,"current_range_meters":8800,"station_id":"ce4bgj92rcd13ifvqbe0","pricing_plan_id":"cebpf4jnsgd1na2vs0mg"},{"bike_id":"589f1146-20bc-4a88-9ab7-60ee275b3000","system_id":"levelo_inurba_marseille","lat":43.29695,"lon":5.38008,"is_reserved":false,"is_disabled":false,"rental_uris":{"android":"levelo://app?vid=589f1146-20bc-4a88-9ab7-60ee275b3000","ios":"levelo://app?vid=589f1146-20bc-4a88-9ab7-60ee275b3000"},"vehicle_type_id":"4","last_reported":1743005603,"current_range_meters":9200,"station_id":"","pricing_plan_id":"cebpf4jnsgd1na2vs0mg"},{"bike_id":"14530247-db36-4f4a-b10a-3c62683faa89","system_id":"levelo_inurba_marseille","lat":43.31997,"lon":5.38154,"is_reserved":false,"is_disabled":false,"rental_uris":{"android":"levelo://app?vid=14530247-db36-4f4a-b10a-3c62683faa89","ios":"levelo://app?vid=14530247-db36-4f4a-b10a-3c62683faa89"},"vehicle_type_id":"4","last_reported":1743005603,"current_range_meters":9200,"station_id":"ce4bhr12rcd13ifvqhpg","pricing_plan_id":"cebpf4jnsgd1na2vs0mg"},{"bike_id":"f331f4a0-921f-47e2-bc64-3b6ed88b17e3","system_id":"levelo_inurba_marseille","lat":43.27184,"lon":5.41,"is_reserved":false,"is_disabled":false,"rental_uris":{"android":"levelo://app?vid=f331f4a0-921f-47e2-bc64-3b6ed88b17e3","ios":"levelo://app?vid=f331f4a0-921f-47e2-bc64-3b6ed88b17e3"},"vehicle_type_id":"4","last_reported":1743005603,"current_range_meters":9200,"station_id":"ce4bhl12rcd13ifvqgf0","pricing_plan_id":"cebpf4jnsgd1na2vs0mg"},{"bike_id":"8a9602e7-e6f2-4dac-845f-cea224e49dd5","system_id":"levelo_inurba_marseille","lat":43.23065,"lon":5.35492,"is_reserved":false,"is_disabled":false,"rental_uris":{"android":"levelo://app?vid=8a9602e7-e6f2-4dac-845f-cea224e49dd5","ios":"levelo://app?vid=8a9602e7-e6f2-4dac-845f-cea224e49dd5"},"vehicle_type_id":"4","last_reported":1743005603,"current_range_meters":9200,"station_id":"cpo3342slgdg3j2ifvpg","pricing_plan_id":"cebpf4jnsgd1na2vs0mg"},{"bike_id":"2b504b8b-e537-4673-8f47-e4386508a406","system_id":"levelo_inurba_marseille","lat":43.2293,"lon":5.35378,"is_reserved":false,"is_disabled":false,"rental_uris":{"android":"levelo://app?vid=2b504b8b-e537-4673-8f47-e4386508a406","ios":"levelo://app?vid=2b504b8b-e537-4673-8f47-e4386508a406"},"vehicle_type_id":"4","last_reported":1743005603,"current_range_meters":9200,"station_id":"cpo3532slgdg3j2ikp40","pricing_plan_id":"cebpf4jnsgd1na2vs0mg"},{"bike_id":"ef426988-4621-4f53-9107-6ed22de9c590","system_id":"levelo_inurba_marseille","lat":43.28,"lon":5.40022,"is_reserved":false,"is_disabled":false,"rental_uris":{"android":"levelo://app?vid=ef426988-4621-4f53-9107-6ed22de9c590","ios":"levelo://app?vid=ef426988-4621-4f53-9107-6ed22de9c590"},"vehicle_type_id":"4","last_reported":1743005603,"current_range_meters":8400,"station_id":"ce4bho92rcd13ifvqh4g","pricing_plan_id":"cebpf4jnsgd1na2vs0mg"},{"bike_id":"45c1372f-e21b-43ec-821e-1bd022cd3bd4","system_id":"levelo_inurba_marseille","lat":43.30381,"lon":5.42488,"is_reserved":false,"is_disabled":false,"rental_uris":{"android":"levelo://app?vid=45c1372f-e21b-43ec-821e-1bd022cd3bd4","ios":"levelo://app?vid=45c1372f-e21b-43ec-821e-1bd022cd3bd4"},"vehicle_type_id":"4","last_reported":1743005603,"current_range_meters":9200,"station_id":"ce4bhoh2rcd13ifvqh6g","pricing_plan_id":"cebpf4jnsgd1na2vs0mg"},{"bike_id":"efbcaaa6-b11f-400a-9240-cc4b1a3b098a","system_id":"levelo_inurba_marseille","lat":43.306005,"lon":5.393595,"is_reserved":false,"is_disabled":true,"rental_uris":{"android":"levelo://app?vid=efbcaaa6-b11f-400a-9240-cc4b1a3b098a","ios":"levelo://app?vid=efbcaaa6-b11f-400a-9240-cc4b1a3b098a"},"vehicle_type_id":"4","last_reported":1743005603,"current_range_meters":9200,"station_id":"ce4bh0p2rcd13ifvqd80","pricing_plan_id":"cebpf4jnsgd1na2vs0mg"},{"bike_id":"8de7059d-00de-4eed-a842-00ac61b0e1a8","system_id":"levelo_inurba_marseille","lat":43.2962,"lon":5.38115,"is_reserved":false,"is_disabled":true,"rental_uris":{"android":"levelo://app?vid=8de7059d-00de-4eed-a842-00ac61b0e1a8","ios":"levelo://app?vid=8de7059d-00de-4eed-a842-00ac61b0e1a8"},"vehicle_type_id":"4","last_reported":1743005603,"current_range_meters":9600,"station_id":"ce4bgl12rcd13ifvqbo0","pricing_plan_id":"cebpf4jnsgd1na2vs0mg"},{"bike_id":"8e1b69fe-38a9-404e-9145-427fd10d244c","system_id":"levelo_inurba_marseille","lat":43.28424,"lon":5.34983,"is_reserved":false,"is_disabled":false,"rental_uris":{"android":"levelo://app?vid=8e1b69fe-38a9-404e-9145-427fd10d244c","ios":"levelo://app?vid=8e1b69fe-38a9-404e-9145-427fd10d244c"},"vehicle_type_id":"4","last_reported":1743005603,"current_range_meters":9600,"station_id":"ce4bhbh2rcd13ifvqepg","pricing_plan_id":"cebpf4jnsgd1na2vs0mg"},{"bike_id":"0bf42c0a-21ee-4b19-9580-faf82b01e354","system_id":"levelo_inurba_marseille","lat":43.30555,"lon":5.36538,"is_reserved":false,"is_disabled":false,"rental_uris":{"android":"levelo://app?vid=0bf42c0a-21ee-4b19-9580-faf82b01e354","ios":"levelo://app?vid=0bf42c0a-21ee-4b19-9580-faf82b01e354"},"vehicle_type_id":"4","last_reported":1743005603,"current_range_meters":9600,"station_id":"ce4bgs12rcd13ifvqcag","pricing_plan_id":"cebpf4jnsgd1na2vs0mg"},{"bike_id":"3113e899-9f91-49de-90fe-fbd7a5add133","system_id":"levelo_inurba_marseille","lat":43.284058,"lon":5.349754,"is_reserved":false,"is_disabled":false,"rental_uris":{"android":"levelo://app?vid=3113e899-9f91-49de-90fe-fbd7a5add133","ios":"levelo://app?vid=3113e899-9f91-49de-90fe-fbd7a5add133"},"vehicle_type_id":"4","last_reported":1743005603,"current_range_meters":9600,"station_id":"ce4bhbh2rcd13ifvqepg","pricing_plan_id":"cebpf4jnsgd1na2vs0mg"},{"bike_id":"01cbffb0-3fb0-4769-96f8-4c2dd20b8277","system_id":"levelo_inurba_marseille","lat":43.28501,"lon":5.40557,"is_reserved":false,"is_disabled":false,"rental_uris":{"android":"levelo://app?vid=01cbffb0-3fb0-4769-96f8-4c2dd20b8277","ios":"levelo://app?vid=01cbffb0-3fb0-4769-96f8-4c2dd20b8277"},"vehicle_type_id":"4","last_reported":1743005603,"current_range_meters":9600,"station_id":"","pricing_plan_id":"cebpf4jnsgd1na2vs0mg"},{"bike_id":"23599f67-13cc-44b8-9d94-344eec1e74e0","system_id":"levelo_inurba_marseille","lat":43.28353,"lon":5.38858,"is_reserved":false,"is_disabled":false,"rental_uris":{"android":"levelo://app?vid=23599f67-13cc-44b8-9d94-344eec1e74e0","ios":"levelo://app?vid=23599f67-13cc-44b8-9d94-344eec1e74e0"},"vehicle_type_id":"4","last_reported":1743005603,"current_range_meters":9600,"station_id":"ce4bh492rcd13ifvqdvg","pricing_plan_id":"cebpf4jnsgd1na2vs0mg"},{"bike_id":"974f5876-effd-44d0-911c-76ea7a107a8c","system_id":"levelo_inurba_marseille","lat":43.33345,"lon":5.35985,"is_reserved":false,"is_disabled":false,"rental_uris":{"android":"levelo://app?vid=974f5876-effd-44d0-911c-76ea7a107a8c","ios":"levelo://app?vid=974f5876-effd-44d0-911c-76ea7a107a8c"},"vehicle_type_id":"4","last_reported":1743005603,"current_range_meters":9600,"station_id":"","pricing_plan_id":"cebpf4jnsgd1na2vs0mg"},{"bike_id":"b418d168-f2ad-4db0-9a6f-e88743ba94c8","system_id":"levelo_inurba_marseille","lat":43.2927,"lon":5.37617,"is_reserved":false,"is_disabled":true,"rental_uris":{"android":"levelo://app?vid=b418d168-f2ad-4db0-9a6f-e88743ba94c8","ios":"levelo://app?vid=b418d168-f2ad-4db0-9a6f-e88743ba94c8"},"vehicle_type_id":"4","last_reported":1743005603,"current_range_meters":10000,"station_id":"ce4bgi12rcd13ifvqb80","pricing_plan_id":"cebpf4jnsgd1na2vs0mg"},{"bike_id":"ffaf6716-09fd-4ee2-be14-fe7fd975c6bd","system_id":"levelo_inurba_marseille","lat":43.27394,"lon":5.36275,"is_reserved":false,"is_disabled":false,"rental_uris":{"android":"levelo://app?vid=ffaf6716-09fd-4ee2-be14-fe7fd975c6bd","ios":"levelo://app?vid=ffaf6716-09fd-4ee2-be14-fe7fd975c6bd"},"vehicle_type_id":"4","last_reported":1743005603,"current_range_meters":10800,"station_id":"ce4bhbh2rcd13ifvqeo0","pricing_plan_id":"cebpf4jnsgd1na2vs0mg"},{"bike_id":"ad3a09d6-8194-4bae-a5b1-51b443e279f8","system_id":"levelo_inurba_marseille","lat":43.22928,"lon":5.35374,"is_reserved":false,"is_disabled":false,"rental_uris":{"android":"levelo://app?vid=ad3a09d6-8194-4bae-a5b1-51b443e279f8","ios":"levelo://app?vid=ad3a09d6-8194-4bae-a5b1-51b443e279f8"},"vehicle_type_id":"4","last_reported":1743005603,"current_range_meters":10000,"station_id":"cpo3532slgdg3j2ikp40","pricing_plan_id":"cebpf4jnsgd1na2vs0mg"},{"bike_id":"abb2d20a-f947-4e76-b682-e008153a6571","system_id":"levelo_inurba_marseille","lat":43.30376,"lon":5.42486,"is_reserved":false,"is_disabled":false,"rental_uris":{"android":"levelo://app?vid=abb2d20a-f947-4e76-b682-e008153a6571","ios":"levelo://app?vid=abb2d20a-f947-4e76-b682-e008153a6571"},"vehicle_type_id":"4","last_reported":1743005603,"current_range_meters":10000,"station_id":"ce4bhoh2rcd13ifvqh6g","pricing_plan_id":"cebpf4jnsgd1na2vs0mg"},{"bike_id":"84a7a785-5392-42bc-8088-fb903bcc7f5c","system_id":"levelo_inurba_marseille","lat":43.23068,"lon":5.35492,"is_reserved":false,"is_disabled":false,"rental_uris":{"android":"levelo://app?vid=84a7a785-5392-42bc-8088-fb903bcc7f5c","ios":"levelo://app?vid=84a7a785-5392-42bc-8088-fb903bcc7f5c"},"vehicle_type_id":"4","last_reported":1743005603,"current_range_meters":10000,"station_id":"cpo3342slgdg3j2ifvpg","pricing_plan_id":"cebpf4jnsgd1na2vs0mg"},{"bike_id":"33e3c434-4b5d-4c4b-856d-c4b4544af5a0","system_id":"levelo_inurba_marseille","lat":43.287081,"lon":5.399926,"is_reserved":false,"is_disabled":false,"rental_uris":{"android":"levelo://app?vid=33e3c434-4b5d-4c4b-856d-c4b4544af5a0","ios":"levelo://app?vid=33e3c434-4b5d-4c4b-856d-c4b4544af5a0"},"vehicle_type_id":"4","last_reported":1743005603,"current_range_meters":10000,"station_id":"ce4bho92rcd13ifvqh3g","pricing_plan_id":"cebpf4jnsgd1na2vs0mg"},{"bike_id":"6c2b5315-da40-46b8-840a-64a20376c3d4","system_id":"levelo_inurba_marseille","lat":43.29621,"lon":5.3717,"is_reserved":false,"is_disabled":false,"rental_uris":{"android":"levelo://app?vid=6c2b5315-da40-46b8-840a-64a20376c3d4","ios":"levelo://app?vid=6c2b5315-da40-46b8-840a-64a20376c3d4"},"vehicle_type_id":"4","last_reported":1743005603,"current_range_meters":10000,"station_id":"ce4bgnh2rcd13ifvqc0g","pricing_plan_id":"cebpf4jnsgd1na2vs0mg"},{"bike_id":"e126e5db-8bce-4aaf-9956-3bc7c371bd61","system_id":"levelo_inurba_marseille","lat":43.24791,"lon":5.37456,"is_reserved":false,"is_disabled":false,"rental_uris":{"android":"levelo://app?vid=e126e5db-8bce-4aaf-9956-3bc7c371bd61","ios":"levelo://app?vid=e126e5db-8bce-4aaf-9956-3bc7c371bd61"},"vehicle_type_id":"4","last_reported":1743005603,"current_range_meters":10000,"station_id":"ce4bhgh2rcd13ifvqfb0","pricing_plan_id":"cebpf4jnsgd1na2vs0mg"},{"bike_id":"f43b14c0-d9a7-4b3b-8063-cc0b6173a86b","system_id":"levelo_inurba_marseille","lat":43.27831,"lon":5.39211,"is_reserved":false,"is_disabled":false,"rental_uris":{"android":"levelo://app?vid=f43b14c0-d9a7-4b3b-8063-cc0b6173a86b","ios":"levelo://app?vid=f43b14c0-d9a7-4b3b-8063-cc0b6173a86b"},"vehicle_type_id":"4","last_reported":1743005603,"current_range_meters":10000,"station_id":"ce4bhjp2rcd13ifvqga0","pricing_plan_id":"cebpf4jnsgd1na2vs0mg"},{"bike_id":"dd3c2c21-8058-4ad2-bb2d-1b89c01c402f","system_id":"levelo_inurba_marseille","lat":43.30536,"lon":5.36555,"is_reserved":false,"is_disabled":false,"rental_uris":{"android":"levelo://app?vid=dd3c2c21-8058-4ad2-bb2d-1b89c01c402f","ios":"levelo://app?vid=dd3c2c21-8058-4ad2-bb2d-1b89c01c402f"},"vehicle_type_id":"4","last_reported":1743005603,"current_range_meters":10000,"station_id":"ce4bgs12rcd13ifvqcag","pricing_plan_id":"cebpf4jnsgd1na2vs0mg"},{"bike_id":"4ec8ec21-b73d-45a9-9a3f-c3e071b1eed2","system_id":"levelo_inurba_marseille","lat":43.29881,"lon":5.39731,"is_reserved":false,"is_disabled":false,"rental_uris":{"android":"levelo://app?vid=4ec8ec21-b73d-45a9-9a3f-c3e071b1eed2","ios":"levelo://app?vid=4ec8ec21-b73d-45a9-9a3f-c3e071b1eed2"},"vehicle_type_id":"4","last_reported":1743005603,"current_range_meters":10000,"station_id":"ce4bh0h2rcd13ifvqd50","pricing_plan_id":"cebpf4jnsgd1na2vs0mg"},{"bike_id":"a3581d99-7175-4d7f-ae46-7197148d1b7a","system_id":"levelo_inurba_marseille","lat":43.28411,"lon":5.34976,"is_reserved":false,"is_disabled":false,"rental_uris":{"android":"levelo://app?vid=a3581d99-7175-4d7f-ae46-7197148d1b7a","ios":"levelo://app?vid=a3581d99-7175-4d7f-ae46-7197148d1b7a"},"vehicle_type_id":"4","last_reported":1743005603,"current_range_meters":10000,"station_id":"ce4bhbh2rcd13ifvqepg","pricing_plan_id":"cebpf4jnsgd1na2vs0mg"},{"bike_id":"41a3dd54-69c8-4a8c-8cb4-82f3648e8acc","system_id":"levelo_inurba_marseille","lat":43.273673,"lon":5.362494,"is_reserved":false,"is_disabled":false,"rental_uris":{"android":"levelo://app?vid=41a3dd54-69c8-4a8c-8cb4-82f3648e8acc","ios":"levelo://app?vid=41a3dd54-69c8-4a8c-8cb4-82f3648e8acc"},"vehicle_type_id":"4","last_reported":1743005603,"current_range_meters":10000,"station_id":"ce4bhbh2rcd13ifvqeo0","pricing_plan_id":"cebpf4jnsgd1na2vs0mg"},{"bike_id":"89f87f71-f0e8-4eeb-b322-47435ff216ef","system_id":"levelo_inurba_marseille","lat":43.28445,"lon":5.39203,"is_reserved":false,"is_disabled":false,"rental_uris":{"android":"levelo://app?vid=89f87f71-f0e8-4eeb-b322-47435ff216ef","ios":"levelo://app?vid=89f87f71-f0e8-4eeb-b322-47435ff216ef"},"vehicle_type_id":"4","last_reported":1743005603,"current_range_meters":10800,"station_id":"ce4bhoh2rcd13ifvqh5g","pricing_plan_id":"cebpf4jnsgd1na2vs0mg"},{"bike_id":"f4b578bd-b351-4731-977c-ab15ff493142","system_id":"levelo_inurba_marseille","lat":43.24807,"lon":5.37447,"is_reserved":false,"is_disabled":false,"rental_uris":{"android":"levelo://app?vid=f4b578bd-b351-4731-977c-ab15ff493142","ios":"levelo://app?vid=f4b578bd-b351-4731-977c-ab15ff493142"},"vehicle_type_id":"4","last_reported":1743005603,"current_range_meters":10800,"station_id":"ce4bhgh2rcd13ifvqfb0","pricing_plan_id":"cebpf4jnsgd1na2vs0mg"},{"bike_id":"11005a38-a0a4-4190-a7c5-2587b58e9f3e","system_id":"levelo_inurba_marseille","lat":43.28936,"lon":5.39617,"is_reserved":false,"is_disabled":false,"rental_uris":{"android":"levelo://app?vid=11005a38-a0a4-4190-a7c5-2587b58e9f3e","ios":"levelo://app?vid=11005a38-a0a4-4190-a7c5-2587b58e9f3e"},"vehicle_type_id":"4","last_reported":1743005603,"current_range_meters":11200,"station_id":"ce4bh3h2rcd13ifvqdn0","pricing_plan_id":"cebpf4jnsgd1na2vs0mg"},{"bike_id":"8776e27b-0f90-41ea-ba59-3697a608b87b","system_id":"levelo_inurba_marseille","lat":43.29266,"lon":5.38442,"is_reserved":false,"is_disabled":false,"rental_uris":{"android":"levelo://app?vid=8776e27b-0f90-41ea-ba59-3697a608b87b","ios":"levelo://app?vid=8776e27b-0f90-41ea-ba59-3697a608b87b"},"vehicle_type_id":"4","last_reported":1743005603,"current_range_meters":10800,"station_id":"ce4bh692rcd13ifvqea0","pricing_plan_id":"cebpf4jnsgd1na2vs0mg"},{"bike_id":"1ffe7db3-026c-49e2-9097-d01cbf4dca57","system_id":"levelo_inurba_marseille","lat":43.27064,"lon":5.40262,"is_reserved":false,"is_disabled":false,"rental_uris":{"android":"levelo://app?vid=1ffe7db3-026c-49e2-9097-d01cbf4dca57","ios":"levelo://app?vid=1ffe7db3-026c-49e2-9097-d01cbf4dca57"},"vehicle_type_id":"4","last_reported":1743005603,"current_range_meters":10800,"station_id":"ce4bhk92rcd13ifvqgc0","pricing_plan_id":"cebpf4jnsgd1na2vs0mg"},{"bike_id":"c80e4f1d-2081-49e9-a339-50721340bcda","system_id":"levelo_inurba_marseille","lat":43.29254,"lon":5.40915,"is_reserved":false,"is_disabled":false,"rental_uris":{"android":"levelo://app?vid=c80e4f1d-2081-49e9-a339-50721340bcda","ios":"levelo://app?vid=c80e4f1d-2081-49e9-a339-50721340bcda"},"vehicle_type_id":"4","last_reported":1743005603,"current_range_meters":10000,"station_id":"ce4bh192rcd13ifvqdc0","pricing_plan_id":"cebpf4jnsgd1na2vs0mg"},{"bike_id":"bb96378c-3fb5-4844-a658-80f9f7098e9f","system_id":"levelo_inurba_marseille","lat":43.27385,"lon":5.36256,"is_reserved":false,"is_disabled":false,"rental_uris":{"android":"levelo://app?vid=bb96378c-3fb5-4844-a658-80f9f7098e9f","ios":"levelo://app?vid=bb96378c-3fb5-4844-a658-80f9f7098e9f"},"vehicle_type_id":"4","last_reported":1743005603,"current_range_meters":10800,"station_id":"ce4bhbh2rcd13ifvqeo0","pricing_plan_id":"cebpf4jnsgd1na2vs0mg"},{"bike_id":"d45a2f6c-957b-46cd-bd89-ee8e58d1536e","system_id":"levelo_inurba_marseille","lat":43.27726,"lon":5.40781,"is_reserved":false,"is_disabled":false,"rental_uris":{"android":"levelo://app?vid=d45a2f6c-957b-46cd-bd89-ee8e58d1536e","ios":"levelo://app?vid=d45a2f6c-957b-46cd-bd89-ee8e58d1536e"},"vehicle_type_id":"4","last_reported":1743005603,"current_range_meters":11200,"station_id":"","pricing_plan_id":"cebpf4jnsgd1na2vs0mg"},{"bike_id":"0cf9cbe1-5b7d-4189-9c98-8542c0b153cb","system_id":"levelo_inurba_marseille","lat":43.26793,"lon":5.39409,"is_reserved":false,"is_disabled":false,"rental_uris":{"android":"levelo://app?vid=0cf9cbe1-5b7d-4189-9c98-8542c0b153cb","ios":"levelo://app?vid=0cf9cbe1-5b7d-4189-9c98-8542c0b153cb"},"vehicle_type_id":"4","last_reported":1743005603,"current_range_meters":10800,"station_id":"ce4bhh12rcd13ifvqfg0","pricing_plan_id":"cebpf4jnsgd1na2vs0mg"},{"bike_id":"2c372bf8-8297-4dec-877e-0593a47327e3","system_id":"levelo_inurba_marseille","lat":43.30156,"lon":5.38081,"is_reserved":false,"is_disabled":false,"rental_uris":{"android":"levelo://app?vid=2c372bf8-8297-4dec-877e-0593a47327e3","ios":"levelo://app?vid=2c372bf8-8297-4dec-877e-0593a47327e3"},"vehicle_type_id":"4","last_reported":1743005603,"current_range_meters":11200,"station_id":"ce4bgjp2rcd13ifvqbh0","pricing_plan_id":"cebpf4jnsgd1na2vs0mg"},{"bike_id":"682f1ee0-a752-4cd6-b82c-89df077e39e9","system_id":"levelo_inurba_marseille","lat":43.26561,"lon":5.37282,"is_reserved":false,"is_disabled":false,"rental_uris":{"android":"levelo://app?vid=682f1ee0-a752-4cd6-b82c-89df077e39e9","ios":"levelo://app?vid=682f1ee0-a752-4cd6-b82c-89df077e39e9"},"vehicle_type_id":"4","last_reported":1743005603,"current_range_meters":11200,"station_id":"ce4bhg12rcd13ifvqf70","pricing_plan_id":"cebpf4jnsgd1na2vs0mg"},{"bike_id":"d434f275-fad3-45d7-b98b-a1b011577be6","system_id":"levelo_inurba_marseille","lat":43.31357,"lon":5.38499,"is_reserved":false,"is_disabled":false,"rental_uris":{"android":"levelo://app?vid=d434f275-fad3-45d7-b98b-a1b011577be6","ios":"levelo://app?vid=d434f275-fad3-45d7-b98b-a1b011577be6"},"vehicle_type_id":"4","last_reported":1743005603,"current_range_meters":11200,"station_id":"ce4bgt92rcd13ifvqcf0","pricing_plan_id":"cebpf4jnsgd1na2vs0mg"},{"bike_id":"89ec07aa-7907-474c-a520-4cb5009eaba8","system_id":"levelo_inurba_marseille","lat":43.28411,"lon":5.34988,"is_reserved":false,"is_disabled":false,"rental_uris":{"android":"levelo://app?vid=89ec07aa-7907-474c-a520-4cb5009eaba8","ios":"levelo://app?vid=89ec07aa-7907-474c-a520-4cb5009eaba8"},"vehicle_type_id":"4","last_reported":1743005603,"current_range_meters":11200,"station_id":"ce4bhbh2rcd13ifvqepg","pricing_plan_id":"cebpf4jnsgd1na2vs0mg"},{"bike_id":"23472799-ee27-4710-aeea-8a7a1c431709","system_id":"levelo_inurba_marseille","lat":43.272147,"lon":5.391862,"is_reserved":false,"is_disabled":false,"rental_uris":{"android":"levelo://app?vid=23472799-ee27-4710-aeea-8a7a1c431709","ios":"levelo://app?vid=23472799-ee27-4710-aeea-8a7a1c431709"},"vehicle_type_id":"4","last_reported":1743005603,"current_range_meters":11600,"station_id":"ce4bhkp2rcd13ifvqgd0","pricing_plan_id":"cebpf4jnsgd1na2vs0mg"},{"bike_id":"ecdf5b0a-9b7b-45a0-a795-e0bad2b95d30","system_id":"levelo_inurba_marseille","lat":43.24806,"lon":5.37459,"is_reserved":false,"is_disabled":false,"rental_uris":{"android":"levelo://app?vid=ecdf5b0a-9b7b-45a0-a795-e0bad2b95d30","ios":"levelo://app?vid=ecdf5b0a-9b7b-45a0-a795-e0bad2b95d30"},"vehicle_type_id":"4","last_reported":1743005603,"current_range_meters":10800,"station_id":"ce4bhgh2rcd13ifvqfb0","pricing_plan_id":"cebpf4jnsgd1na2vs0mg"},{"bike_id":"ccdfac36-22da-4f2d-bd50-7bf147cc0fff","system_id":"levelo_inurba_marseille","lat":43.29914,"lon":5.43682,"is_reserved":false,"is_disabled":false,"rental_uris":{"android":"levelo://app?vid=ccdfac36-22da-4f2d-bd50-7bf147cc0fff","ios":"levelo://app?vid=ccdfac36-22da-4f2d-bd50-7bf147cc0fff"},"vehicle_type_id":"4","last_reported":1743005603,"current_range_meters":11600,"station_id":"ce4bhpp2rcd13ifvqhfg","pricing_plan_id":"cebpf4jnsgd1na2vs0mg"},{"bike_id":"3438569c-1902-46aa-8c9d-f1e41df53646","system_id":"levelo_inurba_marseille","lat":43.312268,"lon":5.368573,"is_reserved":false,"is_disabled":false,"rental_uris":{"android":"levelo://app?vid=3438569c-1902-46aa-8c9d-f1e41df53646","ios":"levelo://app?vid=3438569c-1902-46aa-8c9d-f1e41df53646"},"vehicle_type_id":"4","last_reported":1743005603,"current_range_meters":11600,"station_id":"ce4bgl92rcd13ifvqbq0","pricing_plan_id":"cebpf4jnsgd1na2vs0mg"},{"bike_id":"5d97e6db-29aa-4dc3-a913-dd5ff76e3f8c","system_id":"levelo_inurba_marseille","lat":43.29423,"lon":5.38614,"is_reserved":false,"is_disabled":true,"rental_uris":{"android":"levelo://app?vid=5d97e6db-29aa-4dc3-a913-dd5ff76e3f8c","ios":"levelo://app?vid=5d97e6db-29aa-4dc3-a913-dd5ff76e3f8c"},"vehicle_type_id":"4","last_reported":1743005603,"current_range_meters":11600,"station_id":"ce4bh2h2rcd13ifvqdh0","pricing_plan_id":"cebpf4jnsgd1na2vs0mg"},{"bike_id":"f52760de-4fd9-4430-94e8-12dd0f4bb98e","system_id":"levelo_inurba_marseille","lat":43.276693,"lon":5.388865,"is_reserved":false,"is_disabled":false,"rental_uris":{"android":"levelo://app?vid=f52760de-4fd9-4430-94e8-12dd0f4bb98e","ios":"levelo://app?vid=f52760de-4fd9-4430-94e8-12dd0f4bb98e"},"vehicle_type_id":"4","last_reported":1743005603,"current_range_meters":11600,"station_id":"ce4bhi12rcd13ifvqfo0","pricing_plan_id":"cebpf4jnsgd1na2vs0mg"},{"bike_id":"372662fc-477b-4fa6-a911-ca545806153d","system_id":"levelo_inurba_marseille","lat":43.29215,"lon":5.36068,"is_reserved":false,"is_disabled":false,"rental_uris":{"android":"levelo://app?vid=372662fc-477b-4fa6-a911-ca545806153d","ios":"levelo://app?vid=372662fc-477b-4fa6-a911-ca545806153d"},"vehicle_type_id":"4","last_reported":1743005603,"current_range_meters":11600,"station_id":"ce4bhbh2rcd13ifvqeqg","pricing_plan_id":"cebpf4jnsgd1na2vs0mg"},{"bike_id":"9c650378-c00b-4b5c-90bd-220167c770b5","system_id":"levelo_inurba_marseille","lat":43.30401,"lon":5.41279,"is_reserved":false,"is_disabled":false,"rental_uris":{"android":"levelo://app?vid=9c650378-c00b-4b5c-90bd-220167c770b5","ios":"levelo://app?vid=9c650378-c00b-4b5c-90bd-220167c770b5"},"vehicle_type_id":"4","last_reported":1743005603,"current_range_meters":11600,"station_id":"ce4bhop2rcd13ifvqh8g","pricing_plan_id":"cebpf4jnsgd1na2vs0mg"},{"bike_id":"ed1a9252-8e36-4795-9e04-064168f610f9","system_id":"levelo_inurba_marseille","lat":43.27623,"lon":5.36111,"is_reserved":false,"is_disabled":false,"rental_uris":{"android":"levelo://app?vid=ed1a9252-8e36-4795-9e04-064168f610f9","ios":"levelo://app?vid=ed1a9252-8e36-4795-9e04-064168f610f9"},"vehicle_type_id":"4","last_reported":1743005603,"current_range_meters":11600,"station_id":"ce4bgj92rcd13ifvqbe0","pricing_plan_id":"cebpf4jnsgd1na2vs0mg"},{"bike_id":"2623a753-dcde-4ffa-9bf1-3275e6037e7a","system_id":"levelo_inurba_marseille","lat":43.32479,"lon":5.36573,"is_reserved":false,"is_disabled":false,"rental_uris":{"android":"levelo://app?vid=2623a753-dcde-4ffa-9bf1-3275e6037e7a","ios":"levelo://app?vid=2623a753-dcde-4ffa-9bf1-3275e6037e7a"},"vehicle_type_id":"4","last_reported":1743005603,"current_range_meters":11600,"station_id":"ce4bhs12rcd13ifvqhvg","pricing_plan_id":"cebpf4jnsgd1na2vs0mg"},{"bike_id":"30fb7409-637b-442a-84b0-f23cad9a2a74","system_id":"levelo_inurba_marseille","lat":43.27377,"lon":5.36248,"is_reserved":false,"is_disabled":false,"rental_uris":{"android":"levelo://app?vid=30fb7409-637b-442a-84b0-f23cad9a2a74","ios":"levelo://app?vid=30fb7409-637b-442a-84b0-f23cad9a2a74"},"vehicle_type_id":"4","last_reported":1743005603,"current_range_meters":11600,"station_id":"ce4bhbh2rcd13ifvqeo0","pricing_plan_id":"cebpf4jnsgd1na2vs0mg"},{"bike_id":"60a4c96a-77f7-4104-8541-8dd07156aaf4","system_id":"levelo_inurba_marseille","lat":43.3015,"lon":5.38091,"is_reserved":false,"is_disabled":false,"rental_uris":{"android":"levelo://app?vid=60a4c96a-77f7-4104-8541-8dd07156aaf4","ios":"levelo://app?vid=60a4c96a-77f7-4104-8541-8dd07156aaf4"},"vehicle_type_id":"4","last_reported":1743005603,"current_range_meters":12000,"station_id":"ce4bgjp2rcd13ifvqbh0","pricing_plan_id":"cebpf4jnsgd1na2vs0mg"},{"bike_id":"466e2e46-838c-4f9d-b2cf-0f4bacfcd6ac","system_id":"levelo_inurba_marseille","lat":43.28417,"lon":5.34982,"is_reserved":false,"is_disabled":false,"rental_uris":{"android":"levelo://app?vid=466e2e46-838c-4f9d-b2cf-0f4bacfcd6ac","ios":"levelo://app?vid=466e2e46-838c-4f9d-b2cf-0f4bacfcd6ac"},"vehicle_type_id":"4","last_reported":1743005603,"current_range_meters":12000,"station_id":"ce4bhbh2rcd13ifvqepg","pricing_plan_id":"cebpf4jnsgd1na2vs0mg"},{"bike_id":"374856a8-04e2-4b9e-908e-bad09a0ed22f","system_id":"levelo_inurba_marseille","lat":43.29166,"lon":5.37158,"is_reserved":false,"is_disabled":false,"rental_uris":{"android":"levelo://app?vid=374856a8-04e2-4b9e-908e-bad09a0ed22f","ios":"levelo://app?vid=374856a8-04e2-4b9e-908e-bad09a0ed22f"},"vehicle_type_id":"4","last_reported":1743005603,"current_range_meters":12000,"station_id":"ce4bha92rcd13ifvqeh0","pricing_plan_id":"cebpf4jnsgd1na2vs0mg"},{"bike_id":"feb02021-c91c-4994-8c83-a0f717e424da","system_id":"levelo_inurba_marseille","lat":43.25019,"lon":5.38916,"is_reserved":false,"is_disabled":false,"rental_uris":{"android":"levelo://app?vid=feb02021-c91c-4994-8c83-a0f717e424da","ios":"levelo://app?vid=feb02021-c91c-4994-8c83-a0f717e424da"},"vehicle_type_id":"4","last_reported":1743005603,"current_range_meters":12000,"station_id":"ce4bhgp2rcd13ifvqfd0","pricing_plan_id":"cebpf4jnsgd1na2vs0mg"},{"bike_id":"da02046a-e8be-4732-a814-bea47c0457a4","system_id":"levelo_inurba_marseille","lat":43.31065,"lon":5.38342,"is_reserved":false,"is_disabled":true,"rental_uris":{"android":"levelo://app?vid=da02046a-e8be-4732-a814-bea47c0457a4","ios":"levelo://app?vid=da02046a-e8be-4732-a814-bea47c0457a4"},"vehicle_type_id":"4","last_reported":1743005603,"current_range_meters":12000,"station_id":"ce4bgv92rcd13ifvqcr0","pricing_plan_id":"cebpf4jnsgd1na2vs0mg"},{"bike_id":"50e7554c-414e-4ad3-bf70-396b8abc8272","system_id":"levelo_inurba_marseille","lat":43.30376,"lon":5.42488,"is_reserved":false,"is_disabled":false,"rental_uris":{"android":"levelo://app?vid=50e7554c-414e-4ad3-bf70-396b8abc8272","ios":"levelo://app?vid=50e7554c-414e-4ad3-bf70-396b8abc8272"},"vehicle_type_id":"4","last_reported":1743005603,"current_range_meters":12400,"station_id":"ce4bhoh2rcd13ifvqh6g","pricing_plan_id":"cebpf4jnsgd1na2vs0mg"},{"bike_id":"42c44b1b-46b7-4c55-a3c2-9af930fd6f2f","system_id":"levelo_inurba_marseille","lat":43.29901,"lon":5.43666,"is_reserved":false,"is_disabled":false,"rental_uris":{"android":"levelo://app?vid=42c44b1b-46b7-4c55-a3c2-9af930fd6f2f","ios":"levelo://app?vid=42c44b1b-46b7-4c55-a3c2-9af930fd6f2f"},"vehicle_type_id":"4","last_reported":1743005603,"current_range_meters":12400,"station_id":"ce4bhpp2rcd13ifvqhfg","pricing_plan_id":"cebpf4jnsgd1na2vs0mg"},{"bike_id":"f0553958-fcfa-4dab-814f-03d240c25b5c","system_id":"levelo_inurba_marseille","lat":43.25091,"lon":5.39514,"is_reserved":false,"is_disabled":false,"rental_uris":{"android":"levelo://app?vid=f0553958-fcfa-4dab-814f-03d240c25b5c","ios":"levelo://app?vid=f0553958-fcfa-4dab-814f-03d240c25b5c"},"vehicle_type_id":"4","last_reported":1743005603,"current_range_meters":12400,"station_id":"ce4bhm12rcd13ifvqgkg","pricing_plan_id":"cebpf4jnsgd1na2vs0mg"},{"bike_id":"9490ab3f-b563-4312-b2ed-009944c7886e","system_id":"levelo_inurba_marseille","lat":43.32476,"lon":5.36566,"is_reserved":false,"is_disabled":false,"rental_uris":{"android":"levelo://app?vid=9490ab3f-b563-4312-b2ed-009944c7886e","ios":"levelo://app?vid=9490ab3f-b563-4312-b2ed-009944c7886e"},"vehicle_type_id":"4","last_reported":1743005603,"current_range_meters":12400,"station_id":"ce4bhs12rcd13ifvqhvg","pricing_plan_id":"cebpf4jnsgd1na2vs0mg"},{"bike_id":"0f9443e3-33eb-4c08-9852-439b28315704","system_id":"levelo_inurba_marseille","lat":43.30773,"lon":5.37665,"is_reserved":false,"is_disabled":false,"rental_uris":{"android":"levelo://app?vid=0f9443e3-33eb-4c08-9852-439b28315704","ios":"levelo://app?vid=0f9443e3-33eb-4c08-9852-439b28315704"},"vehicle_type_id":"4","last_reported":1743005603,"current_range_meters":12800,"station_id":"ce4bgv92rcd13ifvqcq0","pricing_plan_id":"cebpf4jnsgd1na2vs0mg"},{"bike_id":"dd2bbb1d-18c2-48d6-bab2-f9255726f296","system_id":"levelo_inurba_marseille","lat":43.28855,"lon":5.35845,"is_reserved":false,"is_disabled":false,"rental_uris":{"android":"levelo://app?vid=dd2bbb1d-18c2-48d6-bab2-f9255726f296","ios":"levelo://app?vid=dd2bbb1d-18c2-48d6-bab2-f9255726f296"},"vehicle_type_id":"4","last_reported":1743005603,"current_range_meters":12400,"station_id":"ce4bhb12rcd13ifvqem0","pricing_plan_id":"cebpf4jnsgd1na2vs0mg"},{"bike_id":"84e0c06e-996b-433f-80b3-28ccac4f6a31","system_id":"levelo_inurba_marseille","lat":43.279083,"lon":5.382827,"is_reserved":false,"is_disabled":false,"rental_uris":{"android":"levelo://app?vid=84e0c06e-996b-433f-80b3-28ccac4f6a31","ios":"levelo://app?vid=84e0c06e-996b-433f-80b3-28ccac4f6a31"},"vehicle_type_id":"4","last_reported":1743005603,"current_range_meters":12000,"station_id":"ce4bhf92rcd13ifvqf50","pricing_plan_id":"cebpf4jnsgd1na2vs0mg"},{"bike_id":"e2cb0ae7-3532-4c3c-acef-52ab6bda0635","system_id":"levelo_inurba_marseille","lat":43.23194,"lon":5.35544,"is_reserved":false,"is_disabled":false,"rental_uris":{"android":"levelo://app?vid=e2cb0ae7-3532-4c3c-acef-52ab6bda0635","ios":"levelo://app?vid=e2cb0ae7-3532-4c3c-acef-52ab6bda0635"},"vehicle_type_id":"4","last_reported":1743005603,"current_range_meters":12400,"station_id":"ce4bhu92rcd13ifvqi70","pricing_plan_id":"cebpf4jnsgd1na2vs0mg"},{"bike_id":"85d0fa0c-b5b9-41cd-ba43-951901672dab","system_id":"levelo_inurba_marseille","lat":43.2561,"lon":5.38989,"is_reserved":false,"is_disabled":false,"rental_uris":{"android":"levelo://app?vid=85d0fa0c-b5b9-41cd-ba43-951901672dab","ios":"levelo://app?vid=85d0fa0c-b5b9-41cd-ba43-951901672dab"},"vehicle_type_id":"4","last_reported":1743005603,"current_range_meters":12400,"station_id":"","pricing_plan_id":"cebpf4jnsgd1na2vs0mg"},{"bike_id":"ecf79439-46bf-4871-beb5-3a81ad3d2bdb","system_id":"levelo_inurba_marseille","lat":43.28077,"lon":5.39637,"is_reserved":false,"is_disabled":false,"rental_uris":{"android":"levelo://app?vid=ecf79439-46bf-4871-beb5-3a81ad3d2bdb","ios":"levelo://app?vid=ecf79439-46bf-4871-beb5-3a81ad3d2bdb"},"vehicle_type_id":"4","last_reported":1743005603,"current_range_meters":12400,"station_id":"ce4bho12rcd13ifvqh2g","pricing_plan_id":"cebpf4jnsgd1na2vs0mg"},{"bike_id":"ce6fb305-2ce9-42a2-a222-e7a3d9e1b14e","system_id":"levelo_inurba_marseille","lat":43.33035,"lon":5.39046,"is_reserved":false,"is_disabled":false,"rental_uris":{"android":"levelo://app?vid=ce6fb305-2ce9-42a2-a222-e7a3d9e1b14e","ios":"levelo://app?vid=ce6fb305-2ce9-42a2-a222-e7a3d9e1b14e"},"vehicle_type_id":"4","last_reported":1743005603,"current_range_meters":12800,"station_id":"ce4bhr92rcd13ifvqhrg","pricing_plan_id":"cebpf4jnsgd1na2vs0mg"},{"bike_id":"46bc7627-5963-437b-83ed-b3f9497370e8","system_id":"levelo_inurba_marseille","lat":43.29905,"lon":5.43574,"is_reserved":false,"is_disabled":false,"rental_uris":{"android":"levelo://app?vid=46bc7627-5963-437b-83ed-b3f9497370e8","ios":"levelo://app?vid=46bc7627-5963-437b-83ed-b3f9497370e8"},"vehicle_type_id":"4","last_reported":1743005603,"current_range_meters":12800,"station_id":"ce4bhpp2rcd13ifvqhfg","pricing_plan_id":"cebpf4jnsgd1na2vs0mg"},{"bike_id":"2f69c259-678f-4dc6-9847-fd43204ee42a","system_id":"levelo_inurba_marseille","lat":43.25082,"lon":5.3952,"is_reserved":false,"is_disabled":false,"rental_uris":{"android":"levelo://app?vid=2f69c259-678f-4dc6-9847-fd43204ee42a","ios":"levelo://app?vid=2f69c259-678f-4dc6-9847-fd43204ee42a"},"vehicle_type_id":"4","last_reported":1743005603,"current_range_meters":12800,"station_id":"ce4bhm12rcd13ifvqgkg","pricing_plan_id":"cebpf4jnsgd1na2vs0mg"},{"bike_id":"d72b2321-ec34-48cf-868e-8c5e65afe96e","system_id":"levelo_inurba_marseille","lat":43.27918,"lon":5.39578,"is_reserved":false,"is_disabled":false,"rental_uris":{"android":"levelo://app?vid=d72b2321-ec34-48cf-868e-8c5e65afe96e","ios":"levelo://app?vid=d72b2321-ec34-48cf-868e-8c5e65afe96e"},"vehicle_type_id":"4","last_reported":1743005603,"current_range_meters":13600,"station_id":"ce4bhf92rcd13ifvqf40","pricing_plan_id":"cebpf4jnsgd1na2vs0mg"},{"bike_id":"00a6566c-9629-4dce-b6c6-f9a859b388e2","system_id":"levelo_inurba_marseille","lat":43.28999,"lon":5.3562,"is_reserved":false,"is_disabled":false,"rental_uris":{"android":"levelo://app?vid=00a6566c-9629-4dce-b6c6-f9a859b388e2","ios":"levelo://app?vid=00a6566c-9629-4dce-b6c6-f9a859b388e2"},"vehicle_type_id":"4","last_reported":1743005603,"current_range_meters":13600,"station_id":"ce4bhb92rcd13ifvqen0","pricing_plan_id":"cebpf4jnsgd1na2vs0mg"},{"bike_id":"d22eb261-e0f2-482f-b572-53d1a4ab5e5c","system_id":"levelo_inurba_marseille","lat":43.27377,"lon":5.3626,"is_reserved":false,"is_disabled":false,"rental_uris":{"android":"levelo://app?vid=d22eb261-e0f2-482f-b572-53d1a4ab5e5c","ios":"levelo://app?vid=d22eb261-e0f2-482f-b572-53d1a4ab5e5c"},"vehicle_type_id":"4","last_reported":1743005603,"current_range_meters":13600,"station_id":"ce4bhbh2rcd13ifvqeo0","pricing_plan_id":"cebpf4jnsgd1na2vs0mg"},{"bike_id":"88d6965b-35b9-4a77-bbe7-48f3936aa54f","system_id":"levelo_inurba_marseille","lat":43.27184,"lon":5.409877,"is_reserved":false,"is_disabled":false,"rental_uris":{"android":"levelo://app?vid=88d6965b-35b9-4a77-bbe7-48f3936aa54f","ios":"levelo://app?vid=88d6965b-35b9-4a77-bbe7-48f3936aa54f"},"vehicle_type_id":"4","last_reported":1743005603,"current_range_meters":13600,"station_id":"ce4bhl12rcd13ifvqgf0","pricing_plan_id":"cebpf4jnsgd1na2vs0mg"},{"bike_id":"a446a54f-4fbf-40df-b247-11c1431d2281","system_id":"levelo_inurba_marseille","lat":43.31226,"lon":5.36853,"is_reserved":false,"is_disabled":false,"rental_uris":{"android":"levelo://app?vid=a446a54f-4fbf-40df-b247-11c1431d2281","ios":"levelo://app?vid=a446a54f-4fbf-40df-b247-11c1431d2281"},"vehicle_type_id":"4","last_reported":1743005603,"current_range_meters":13600,"station_id":"ce4bgl92rcd13ifvqbq0","pricing_plan_id":"cebpf4jnsgd1na2vs0mg"},{"bike_id":"5a6dc6b6-6ec6-42d1-ac54-20233320938b","system_id":"levelo_inurba_marseille","lat":43.31219,"lon":5.36849,"is_reserved":false,"is_disabled":false,"rental_uris":{"android":"levelo://app?vid=5a6dc6b6-6ec6-42d1-ac54-20233320938b","ios":"levelo://app?vid=5a6dc6b6-6ec6-42d1-ac54-20233320938b"},"vehicle_type_id":"4","last_reported":1743005603,"current_range_meters":13600,"station_id":"ce4bgl92rcd13ifvqbq0","pricing_plan_id":"cebpf4jnsgd1na2vs0mg"},{"bike_id":"08b6acdf-13aa-4ed3-8e27-bc46aa3e1de5","system_id":"levelo_inurba_marseille","lat":43.27965,"lon":5.38738,"is_reserved":false,"is_disabled":false,"rental_uris":{"android":"levelo://app?vid=08b6acdf-13aa-4ed3-8e27-bc46aa3e1de5","ios":"levelo://app?vid=08b6acdf-13aa-4ed3-8e27-bc46aa3e1de5"},"vehicle_type_id":"4","last_reported":1743005603,"current_range_meters":13600,"station_id":"ce4bhg12rcd13ifvqf80","pricing_plan_id":"cebpf4jnsgd1na2vs0mg"},{"bike_id":"5a86a0ff-a812-42dc-84dd-dff8f4cf06da","system_id":"levelo_inurba_marseille","lat":43.28117,"lon":5.37842,"is_reserved":false,"is_disabled":false,"rental_uris":{"android":"levelo://app?vid=5a86a0ff-a812-42dc-84dd-dff8f4cf06da","ios":"levelo://app?vid=5a86a0ff-a812-42dc-84dd-dff8f4cf06da"},"vehicle_type_id":"4","last_reported":1743005603,"current_range_meters":13600,"station_id":"ce4bha12rcd13ifvqee0","pricing_plan_id":"cebpf4jnsgd1na2vs0mg"},{"bike_id":"b3fa2471-2f6f-4b30-9eeb-f7fdd0f22272","system_id":"levelo_inurba_marseille","lat":43.3128,"lon":5.4017,"is_reserved":false,"is_disabled":false,"rental_uris":{"android":"levelo://app?vid=b3fa2471-2f6f-4b30-9eeb-f7fdd0f22272","ios":"levelo://app?vid=b3fa2471-2f6f-4b30-9eeb-f7fdd0f22272"},"vehicle_type_id":"4","last_reported":1743005603,"current_range_meters":14000,"station_id":"ce4bh092rcd13ifvqd30","pricing_plan_id":"cebpf4jnsgd1na2vs0mg"},{"bike_id":"420855dc-5216-49e5-a210-9455fa659b8b","system_id":"levelo_inurba_marseille","lat":43.2417,"lon":5.36392,"is_reserved":false,"is_disabled":false,"rental_uris":{"android":"levelo://app?vid=420855dc-5216-49e5-a210-9455fa659b8b","ios":"levelo://app?vid=420855dc-5216-49e5-a210-9455fa659b8b"},"vehicle_type_id":"4","last_reported":1743005603,"current_range_meters":14000,"station_id":"cpo36qri1sfpv3e86is0","pricing_plan_id":"cebpf4jnsgd1na2vs0mg"},{"bike_id":"64668be6-518c-452f-b749-7a9d93f5a6dc","system_id":"levelo_inurba_marseille","lat":43.32368,"lon":5.38886,"is_reserved":false,"is_disabled":false,"rental_uris":{"android":"levelo://app?vid=64668be6-518c-452f-b749-7a9d93f5a6dc","ios":"levelo://app?vid=64668be6-518c-452f-b749-7a9d93f5a6dc"},"vehicle_type_id":"4","last_reported":1743005603,"current_range_meters":14000,"station_id":"ce4bhqp2rcd13ifvqhog","pricing_plan_id":"cebpf4jnsgd1na2vs0mg"},{"bike_id":"94e79fc7-9367-4952-8689-794a28fc3d39","system_id":"levelo_inurba_marseille","lat":43.29898,"lon":5.43655,"is_reserved":false,"is_disabled":false,"rental_uris":{"android":"levelo://app?vid=94e79fc7-9367-4952-8689-794a28fc3d39","ios":"levelo://app?vid=94e79fc7-9367-4952-8689-794a28fc3d39"},"vehicle_type_id":"4","last_reported":1743005603,"current_range_meters":14000,"station_id":"ce4bhpp2rcd13ifvqhfg","pricing_plan_id":"cebpf4jnsgd1na2vs0mg"},{"bike_id":"fab57837-7da4-4568-a7cb-80f90de4e601","system_id":"levelo_inurba_marseille","lat":43.30248,"lon":5.40071,"is_reserved":false,"is_disabled":false,"rental_uris":{"android":"levelo://app?vid=fab57837-7da4-4568-a7cb-80f90de4e601","ios":"levelo://app?vid=fab57837-7da4-4568-a7cb-80f90de4e601"},"vehicle_type_id":"4","last_reported":1743005603,"current_range_meters":14000,"station_id":"ce4bgvh2rcd13ifvqcs0","pricing_plan_id":"cebpf4jnsgd1na2vs0mg"},{"bike_id":"a4e9e3fd-ebc7-468f-aaef-a21894efe6ce","system_id":"levelo_inurba_marseille","lat":43.28431,"lon":5.39189,"is_reserved":false,"is_disabled":false,"rental_uris":{"android":"levelo://app?vid=a4e9e3fd-ebc7-468f-aaef-a21894efe6ce","ios":"levelo://app?vid=a4e9e3fd-ebc7-468f-aaef-a21894efe6ce"},"vehicle_type_id":"4","last_reported":1743005603,"current_range_meters":14000,"station_id":"ce4bhoh2rcd13ifvqh5g","pricing_plan_id":"cebpf4jnsgd1na2vs0mg"},{"bike_id":"c5d4a181-fa6b-4a1d-b90f-9dca50ca2403","system_id":"levelo_inurba_marseille","lat":43.28363,"lon":5.38639,"is_reserved":false,"is_disabled":false,"rental_uris":{"android":"levelo://app?vid=c5d4a181-fa6b-4a1d-b90f-9dca50ca2403","ios":"levelo://app?vid=c5d4a181-fa6b-4a1d-b90f-9dca50ca2403"},"vehicle_type_id":"4","last_reported":1743005603,"current_range_meters":14400,"station_id":"ce4bh492rcd13ifvqdvg","pricing_plan_id":"cebpf4jnsgd1na2vs0mg"},{"bike_id":"0dc215fb-f3ec-4a33-9ee0-1a802204e406","system_id":"levelo_inurba_marseille","lat":43.29872,"lon":5.39735,"is_reserved":false,"is_disabled":false,"rental_uris":{"android":"levelo://app?vid=0dc215fb-f3ec-4a33-9ee0-1a802204e406","ios":"levelo://app?vid=0dc215fb-f3ec-4a33-9ee0-1a802204e406"},"vehicle_type_id":"4","last_reported":1743005603,"current_range_meters":14000,"station_id":"ce4bh0h2rcd13ifvqd50","pricing_plan_id":"cebpf4jnsgd1na2vs0mg"},{"bike_id":"0a4a36bf-847a-4136-9ce8-19ca855d9705","system_id":"levelo_inurba_marseille","lat":43.284174,"lon":5.34983,"is_reserved":false,"is_disabled":false,"rental_uris":{"android":"levelo://app?vid=0a4a36bf-847a-4136-9ce8-19ca855d9705","ios":"levelo://app?vid=0a4a36bf-847a-4136-9ce8-19ca855d9705"},"vehicle_type_id":"4","last_reported":1743005603,"current_range_meters":14400,"station_id":"ce4bhbh2rcd13ifvqepg","pricing_plan_id":"cebpf4jnsgd1na2vs0mg"},{"bike_id":"891b2a38-29b2-4f2c-bca6-bc5b0b44c3e3","system_id":"levelo_inurba_marseille","lat":43.29167,"lon":5.37156,"is_reserved":false,"is_disabled":false,"rental_uris":{"android":"levelo://app?vid=891b2a38-29b2-4f2c-bca6-bc5b0b44c3e3","ios":"levelo://app?vid=891b2a38-29b2-4f2c-bca6-bc5b0b44c3e3"},"vehicle_type_id":"4","last_reported":1743005603,"current_range_meters":14000,"station_id":"ce4bha92rcd13ifvqeh0","pricing_plan_id":"cebpf4jnsgd1na2vs0mg"},{"bike_id":"13dd02f6-17f6-4388-9997-92bca2ed11d2","system_id":"levelo_inurba_marseille","lat":43.28103,"lon":5.37838,"is_reserved":false,"is_disabled":false,"rental_uris":{"android":"levelo://app?vid=13dd02f6-17f6-4388-9997-92bca2ed11d2","ios":"levelo://app?vid=13dd02f6-17f6-4388-9997-92bca2ed11d2"},"vehicle_type_id":"4","last_reported":1743005603,"current_range_meters":14400,"station_id":"ce4bha12rcd13ifvqee0","pricing_plan_id":"cebpf4jnsgd1na2vs0mg"},{"bike_id":"86824271-6f6f-4c3c-a377-2f3c40c869a5","system_id":"levelo_inurba_marseille","lat":43.273723,"lon":5.362593,"is_reserved":false,"is_disabled":false,"rental_uris":{"android":"levelo://app?vid=86824271-6f6f-4c3c-a377-2f3c40c869a5","ios":"levelo://app?vid=86824271-6f6f-4c3c-a377-2f3c40c869a5"},"vehicle_type_id":"4","last_reported":1743005603,"current_range_meters":14400,"station_id":"ce4bhbh2rcd13ifvqeo0","pricing_plan_id":"cebpf4jnsgd1na2vs0mg"},{"bike_id":"75c7187b-7cb5-4136-b180-795a32bcbe1d","system_id":"levelo_inurba_marseille","lat":43.27974,"lon":5.38589,"is_reserved":false,"is_disabled":true,"rental_uris":{"android":"levelo://app?vid=75c7187b-7cb5-4136-b180-795a32bcbe1d","ios":"levelo://app?vid=75c7187b-7cb5-4136-b180-795a32bcbe1d"},"vehicle_type_id":"4","last_reported":1743005603,"current_range_meters":14400,"station_id":"","pricing_plan_id":"cebpf4jnsgd1na2vs0mg"},{"bike_id":"39ccec1f-5b11-4333-8c8a-e8a693ed917d","system_id":"levelo_inurba_marseille","lat":43.26563,"lon":5.37285,"is_reserved":false,"is_disabled":false,"rental_uris":{"android":"levelo://app?vid=39ccec1f-5b11-4333-8c8a-e8a693ed917d","ios":"levelo://app?vid=39ccec1f-5b11-4333-8c8a-e8a693ed917d"},"vehicle_type_id":"4","last_reported":1743005603,"current_range_meters":14400,"station_id":"ce4bhg12rcd13ifvqf70","pricing_plan_id":"cebpf4jnsgd1na2vs0mg"},{"bike_id":"35978ea2-6316-48dc-ab06-4bfb0ab2ffba","system_id":"levelo_inurba_marseille","lat":43.30138,"lon":5.38781,"is_reserved":false,"is_disabled":false,"rental_uris":{"android":"levelo://app?vid=35978ea2-6316-48dc-ab06-4bfb0ab2ffba","ios":"levelo://app?vid=35978ea2-6316-48dc-ab06-4bfb0ab2ffba"},"vehicle_type_id":"4","last_reported":1743005603,"current_range_meters":14000,"station_id":"ce4bghh2rcd13ifvqb60","pricing_plan_id":"cebpf4jnsgd1na2vs0mg"},{"bike_id":"90aaa001-7f34-4317-9d54-699b5a065478","system_id":"levelo_inurba_marseille","lat":43.29422,"lon":5.386238,"is_reserved":false,"is_disabled":false,"rental_uris":{"android":"levelo://app?vid=90aaa001-7f34-4317-9d54-699b5a065478","ios":"levelo://app?vid=90aaa001-7f34-4317-9d54-699b5a065478"},"vehicle_type_id":"4","last_reported":1743005603,"current_range_meters":14800,"station_id":"ce4bh2h2rcd13ifvqdh0","pricing_plan_id":"cebpf4jnsgd1na2vs0mg"},{"bike_id":"f0adf491-aed7-428c-b327-f8b8935b870f","system_id":"levelo_inurba_marseille","lat":43.271418,"lon":5.403162,"is_reserved":false,"is_disabled":false,"rental_uris":{"android":"levelo://app?vid=f0adf491-aed7-428c-b327-f8b8935b870f","ios":"levelo://app?vid=f0adf491-aed7-428c-b327-f8b8935b870f"},"vehicle_type_id":"4","last_reported":1743005603,"current_range_meters":14800,"station_id":"ce4bhk92rcd13ifvqgc0","pricing_plan_id":"cebpf4jnsgd1na2vs0mg"},{"bike_id":"b6b99860-349d-484b-9293-b5458aeece2d","system_id":"levelo_inurba_marseille","lat":43.27378,"lon":5.36265,"is_reserved":false,"is_disabled":false,"rental_uris":{"android":"levelo://app?vid=b6b99860-349d-484b-9293-b5458aeece2d","ios":"levelo://app?vid=b6b99860-349d-484b-9293-b5458aeece2d"},"vehicle_type_id":"4","last_reported":1743005603,"current_range_meters":14800,"station_id":"ce4bhbh2rcd13ifvqeo0","pricing_plan_id":"cebpf4jnsgd1na2vs0mg"},{"bike_id":"0ac88cdf-dd3a-494f-aaa5-2b24d1ce393f","system_id":"levelo_inurba_marseille","lat":43.23189,"lon":5.35553,"is_reserved":false,"is_disabled":false,"rental_uris":{"android":"levelo://app?vid=0ac88cdf-dd3a-494f-aaa5-2b24d1ce393f","ios":"levelo://app?vid=0ac88cdf-dd3a-494f-aaa5-2b24d1ce393f"},"vehicle_type_id":"4","last_reported":1743005603,"current_range_meters":14800,"station_id":"ce4bhu92rcd13ifvqi70","pricing_plan_id":"cebpf4jnsgd1na2vs0mg"},{"bike_id":"5ca9ac81-53c9-444a-ab66-71f3af25a779","system_id":"levelo_inurba_marseille","lat":43.27997,"lon":5.40043,"is_reserved":false,"is_disabled":false,"rental_uris":{"android":"levelo://app?vid=5ca9ac81-53c9-444a-ab66-71f3af25a779","ios":"levelo://app?vid=5ca9ac81-53c9-444a-ab66-71f3af25a779"},"vehicle_type_id":"4","last_reported":1743005603,"current_range_meters":14800,"station_id":"ce4bho92rcd13ifvqh4g","pricing_plan_id":"cebpf4jnsgd1na2vs0mg"},{"bike_id":"aa848aae-3911-4305-b59d-7a26513a807a","system_id":"levelo_inurba_marseille","lat":43.29074,"lon":5.37162,"is_reserved":false,"is_disabled":false,"rental_uris":{"android":"levelo://app?vid=aa848aae-3911-4305-b59d-7a26513a807a","ios":"levelo://app?vid=aa848aae-3911-4305-b59d-7a26513a807a"},"vehicle_type_id":"4","last_reported":1743005603,"current_range_meters":14800,"station_id":"ce4bh5p2rcd13ifvqe4g","pricing_plan_id":"cebpf4jnsgd1na2vs0mg"},{"bike_id":"fc8e8371-f4e9-4721-bc19-563801e389dc","system_id":"levelo_inurba_marseille","lat":43.337444,"lon":5.374475,"is_reserved":false,"is_disabled":false,"rental_uris":{"android":"levelo://app?vid=fc8e8371-f4e9-4721-bc19-563801e389dc","ios":"levelo://app?vid=fc8e8371-f4e9-4721-bc19-563801e389dc"},"vehicle_type_id":"4","last_reported":1743005603,"current_range_meters":15200,"station_id":"","pricing_plan_id":"cebpf4jnsgd1na2vs0mg"},{"bike_id":"b41bf5bb-09a7-47dc-8f6a-3dd8dc8ab569","system_id":"levelo_inurba_marseille","lat":43.28412,"lon":5.3751,"is_reserved":false,"is_disabled":false,"rental_uris":{"android":"levelo://app?vid=b41bf5bb-09a7-47dc-8f6a-3dd8dc8ab569","ios":"levelo://app?vid=b41bf5bb-09a7-47dc-8f6a-3dd8dc8ab569"},"vehicle_type_id":"4","last_reported":1743005603,"current_range_meters":15200,"station_id":"","pricing_plan_id":"cebpf4jnsgd1na2vs0mg"},{"bike_id":"402ced98-5f02-4fb6-a0ae-930a58d862d7","system_id":"levelo_inurba_marseille","lat":43.28037,"lon":5.3694,"is_reserved":false,"is_disabled":false,"rental_uris":{"android":"levelo://app?vid=402ced98-5f02-4fb6-a0ae-930a58d862d7","ios":"levelo://app?vid=402ced98-5f02-4fb6-a0ae-930a58d862d7"},"vehicle_type_id":"4","last_reported":1743005603,"current_range_meters":15200,"station_id":"ce4bha12rcd13ifvqef0","pricing_plan_id":"cebpf4jnsgd1na2vs0mg"},{"bike_id":"b95904f4-9cde-4842-9a02-2ef55c5eb4ac","system_id":"levelo_inurba_marseille","lat":43.28413,"lon":5.34972,"is_reserved":false,"is_disabled":false,"rental_uris":{"android":"levelo://app?vid=b95904f4-9cde-4842-9a02-2ef55c5eb4ac","ios":"levelo://app?vid=b95904f4-9cde-4842-9a02-2ef55c5eb4ac"},"vehicle_type_id":"4","last_reported":1743005603,"current_range_meters":15200,"station_id":"ce4bhbh2rcd13ifvqepg","pricing_plan_id":"cebpf4jnsgd1na2vs0mg"},{"bike_id":"43858066-da18-4dcf-9fbf-88db408f5dd5","system_id":"levelo_inurba_marseille","lat":43.29629,"lon":5.37166,"is_reserved":false,"is_disabled":false,"rental_uris":{"android":"levelo://app?vid=43858066-da18-4dcf-9fbf-88db408f5dd5","ios":"levelo://app?vid=43858066-da18-4dcf-9fbf-88db408f5dd5"},"vehicle_type_id":"4","last_reported":1743005603,"current_range_meters":15200,"station_id":"ce4bgnh2rcd13ifvqc0g","pricing_plan_id":"cebpf4jnsgd1na2vs0mg"},{"bike_id":"0a92bafe-dcb6-416c-ae3c-939e3e8da39f","system_id":"levelo_inurba_marseille","lat":43.29276,"lon":5.40114,"is_reserved":false,"is_disabled":false,"rental_uris":{"android":"levelo://app?vid=0a92bafe-dcb6-416c-ae3c-939e3e8da39f","ios":"levelo://app?vid=0a92bafe-dcb6-416c-ae3c-939e3e8da39f"},"vehicle_type_id":"4","last_reported":1743005603,"current_range_meters":15200,"station_id":"ce4bh312rcd13ifvqdk0","pricing_plan_id":"cebpf4jnsgd1na2vs0mg"},{"bike_id":"d4adc572-1c38-406d-815d-17ea2446834e","system_id":"levelo_inurba_marseille","lat":43.29266,"lon":5.3844,"is_reserved":false,"is_disabled":false,"rental_uris":{"android":"levelo://app?vid=d4adc572-1c38-406d-815d-17ea2446834e","ios":"levelo://app?vid=d4adc572-1c38-406d-815d-17ea2446834e"},"vehicle_type_id":"4","last_reported":1743005603,"current_range_meters":15200,"station_id":"ce4bh692rcd13ifvqea0","pricing_plan_id":"cebpf4jnsgd1na2vs0mg"},{"bike_id":"c18155db-65c7-4d5a-8c5b-923eb75c675d","system_id":"levelo_inurba_marseille","lat":43.32092,"lon":5.36779,"is_reserved":false,"is_disabled":false,"rental_uris":{"android":"levelo://app?vid=c18155db-65c7-4d5a-8c5b-923eb75c675d","ios":"levelo://app?vid=c18155db-65c7-4d5a-8c5b-923eb75c675d"},"vehicle_type_id":"4","last_reported":1743005603,"current_range_meters":15200,"station_id":"ce4bhrh2rcd13ifvqhug","pricing_plan_id":"cebpf4jnsgd1na2vs0mg"},{"bike_id":"3a1e57e4-0c34-4d53-b199-cd6a5a06bad2","system_id":"levelo_inurba_marseille","lat":43.284204,"lon":5.349893,"is_reserved":false,"is_disabled":false,"rental_uris":{"android":"levelo://app?vid=3a1e57e4-0c34-4d53-b199-cd6a5a06bad2","ios":"levelo://app?vid=3a1e57e4-0c34-4d53-b199-cd6a5a06bad2"},"vehicle_type_id":"4","last_reported":1743005603,"current_range_meters":15200,"station_id":"ce4bhbh2rcd13ifvqepg","pricing_plan_id":"cebpf4jnsgd1na2vs0mg"},{"bike_id":"29166761-56b9-461d-bd4b-9a58c2513e09","system_id":"levelo_inurba_marseille","lat":43.28921,"lon":5.38396,"is_reserved":false,"is_disabled":false,"rental_uris":{"android":"levelo://app?vid=29166761-56b9-461d-bd4b-9a58c2513e09","ios":"levelo://app?vid=29166761-56b9-461d-bd4b-9a58c2513e09"},"vehicle_type_id":"4","last_reported":1743005603,"current_range_meters":15200,"station_id":"ce4bh612rcd13ifvqe6g","pricing_plan_id":"cebpf4jnsgd1na2vs0mg"},{"bike_id":"ccd867e0-8137-4788-99da-64de736e854b","system_id":"levelo_inurba_marseille","lat":43.30152,"lon":5.38076,"is_reserved":false,"is_disabled":false,"rental_uris":{"android":"levelo://app?vid=ccd867e0-8137-4788-99da-64de736e854b","ios":"levelo://app?vid=ccd867e0-8137-4788-99da-64de736e854b"},"vehicle_type_id":"4","last_reported":1743005603,"current_range_meters":16000,"station_id":"ce4bgjp2rcd13ifvqbh0","pricing_plan_id":"cebpf4jnsgd1na2vs0mg"},{"bike_id":"3d7b48bc-7785-435d-8806-7d3d947427d8","system_id":"levelo_inurba_marseille","lat":43.28633,"lon":5.3511,"is_reserved":false,"is_disabled":false,"rental_uris":{"android":"levelo://app?vid=3d7b48bc-7785-435d-8806-7d3d947427d8","ios":"levelo://app?vid=3d7b48bc-7785-435d-8806-7d3d947427d8"},"vehicle_type_id":"4","last_reported":1743005603,"current_range_meters":16000,"station_id":"ce4bhch2rcd13ifvqeug","pricing_plan_id":"cebpf4jnsgd1na2vs0mg"},{"bike_id":"ed6c471e-ec6e-4614-87fd-7c89663a773b","system_id":"levelo_inurba_marseille","lat":43.273745,"lon":5.36256,"is_reserved":false,"is_disabled":false,"rental_uris":{"android":"levelo://app?vid=ed6c471e-ec6e-4614-87fd-7c89663a773b","ios":"levelo://app?vid=ed6c471e-ec6e-4614-87fd-7c89663a773b"},"vehicle_type_id":"4","last_reported":1743005603,"current_range_meters":16000,"station_id":"ce4bhbh2rcd13ifvqeo0","pricing_plan_id":"cebpf4jnsgd1na2vs0mg"},{"bike_id":"53f09d97-4dfc-4157-8783-54063e155d1d","system_id":"levelo_inurba_marseille","lat":43.305405,"lon":5.367018,"is_reserved":false,"is_disabled":false,"rental_uris":{"android":"levelo://app?vid=53f09d97-4dfc-4157-8783-54063e155d1d","ios":"levelo://app?vid=53f09d97-4dfc-4157-8783-54063e155d1d"},"vehicle_type_id":"4","last_reported":1743005603,"current_range_meters":16000,"station_id":"ce4bgrp2rcd13ifvqc9g","pricing_plan_id":"cebpf4jnsgd1na2vs0mg"},{"bike_id":"71db2595-61b5-4599-a8f0-a8050d98c56b","system_id":"levelo_inurba_marseille","lat":43.28484,"lon":5.38545,"is_reserved":false,"is_disabled":false,"rental_uris":{"android":"levelo://app?vid=71db2595-61b5-4599-a8f0-a8050d98c56b","ios":"levelo://app?vid=71db2595-61b5-4599-a8f0-a8050d98c56b"},"vehicle_type_id":"4","last_reported":1743005603,"current_range_meters":16000,"station_id":"ce4bh8p2rcd13ifvqeb0","pricing_plan_id":"cebpf4jnsgd1na2vs0mg"},{"bike_id":"379879bf-1f7f-45f5-9cac-b09d574b3620","system_id":"levelo_inurba_marseille","lat":43.27837,"lon":5.40704,"is_reserved":false,"is_disabled":false,"rental_uris":{"android":"levelo://app?vid=379879bf-1f7f-45f5-9cac-b09d574b3620","ios":"levelo://app?vid=379879bf-1f7f-45f5-9cac-b09d574b3620"},"vehicle_type_id":"4","last_reported":1743005603,"current_range_meters":16000,"station_id":"ce4bhnh2rcd13ifvqgtg","pricing_plan_id":"cebpf4jnsgd1na2vs0mg"},{"bike_id":"820cd48e-0387-4b73-ade0-77cdebe9e2bc","system_id":"levelo_inurba_marseille","lat":43.28418,"lon":5.34995,"is_reserved":false,"is_disabled":false,"rental_uris":{"android":"levelo://app?vid=820cd48e-0387-4b73-ade0-77cdebe9e2bc","ios":"levelo://app?vid=820cd48e-0387-4b73-ade0-77cdebe9e2bc"},"vehicle_type_id":"4","last_reported":1743005603,"current_range_meters":16000,"station_id":"ce4bhbh2rcd13ifvqepg","pricing_plan_id":"cebpf4jnsgd1na2vs0mg"},{"bike_id":"64f0ea86-1180-4755-95e1-3cbc9c8d4cf5","system_id":"levelo_inurba_marseille","lat":43.330111,"lon":5.438565,"is_reserved":false,"is_disabled":true,"rental_uris":{"android":"levelo://app?vid=64f0ea86-1180-4755-95e1-3cbc9c8d4cf5","ios":"levelo://app?vid=64f0ea86-1180-4755-95e1-3cbc9c8d4cf5"},"vehicle_type_id":"4","last_reported":1743005603,"current_range_meters":16000,"station_id":"","pricing_plan_id":"cebpf4jnsgd1na2vs0mg"},{"bike_id":"f3d02f2a-9446-47be-ba4a-e0e89078600b","system_id":"levelo_inurba_marseille","lat":43.29263,"lon":5.37624,"is_reserved":false,"is_disabled":false,"rental_uris":{"android":"levelo://app?vid=f3d02f2a-9446-47be-ba4a-e0e89078600b","ios":"levelo://app?vid=f3d02f2a-9446-47be-ba4a-e0e89078600b"},"vehicle_type_id":"4","last_reported":1743005603,"current_range_meters":16000,"station_id":"ce4bgi12rcd13ifvqb80","pricing_plan_id":"cebpf4jnsgd1na2vs0mg"},{"bike_id":"5018a59b-b386-4e99-b26c-192a8f1ed783","system_id":"levelo_inurba_marseille","lat":43.33323,"lon":5.35919,"is_reserved":false,"is_disabled":false,"rental_uris":{"android":"levelo://app?vid=5018a59b-b386-4e99-b26c-192a8f1ed783","ios":"levelo://app?vid=5018a59b-b386-4e99-b26c-192a8f1ed783"},"vehicle_type_id":"4","last_reported":1743005603,"current_range_meters":16000,"station_id":"","pricing_plan_id":"cebpf4jnsgd1na2vs0mg"},{"bike_id":"e2343b1a-43fc-4376-95eb-62c5c60ecc12","system_id":"levelo_inurba_marseille","lat":43.29163,"lon":5.37153,"is_reserved":false,"is_disabled":false,"rental_uris":{"android":"levelo://app?vid=e2343b1a-43fc-4376-95eb-62c5c60ecc12","ios":"levelo://app?vid=e2343b1a-43fc-4376-95eb-62c5c60ecc12"},"vehicle_type_id":"4","last_reported":1743005603,"current_range_meters":16000,"station_id":"ce4bha92rcd13ifvqeh0","pricing_plan_id":"cebpf4jnsgd1na2vs0mg"},{"bike_id":"b77756bb-50b9-48bd-a70a-6aa92d597abb","system_id":"levelo_inurba_marseille","lat":43.28941,"lon":5.36641,"is_reserved":false,"is_disabled":false,"rental_uris":{"android":"levelo://app?vid=b77756bb-50b9-48bd-a70a-6aa92d597abb","ios":"levelo://app?vid=b77756bb-50b9-48bd-a70a-6aa92d597abb"},"vehicle_type_id":"4","last_reported":1743005603,"current_range_meters":16000,"station_id":"ce4bhap2rcd13ifvqek0","pricing_plan_id":"cebpf4jnsgd1na2vs0mg"},{"bike_id":"0cde21f7-3bfa-4431-8114-0b121f87b2ac","system_id":"levelo_inurba_marseille","lat":43.26546,"lon":5.38968,"is_reserved":false,"is_disabled":false,"rental_uris":{"android":"levelo://app?vid=0cde21f7-3bfa-4431-8114-0b121f87b2ac","ios":"levelo://app?vid=0cde21f7-3bfa-4431-8114-0b121f87b2ac"},"vehicle_type_id":"4","last_reported":1743005603,"current_range_meters":16400,"station_id":"ce4bhe12rcd13ifvqf30","pricing_plan_id":"cebpf4jnsgd1na2vs0mg"},{"bike_id":"0d847f0d-8c29-40f4-beb4-59d6beb89e6f","system_id":"levelo_inurba_marseille","lat":43.30451,"lon":5.39908,"is_reserved":false,"is_disabled":false,"rental_uris":{"android":"levelo://app?vid=0d847f0d-8c29-40f4-beb4-59d6beb89e6f","ios":"levelo://app?vid=0d847f0d-8c29-40f4-beb4-59d6beb89e6f"},"vehicle_type_id":"4","last_reported":1743005603,"current_range_meters":16400,"station_id":"ce4bh112rcd13ifvqda0","pricing_plan_id":"cebpf4jnsgd1na2vs0mg"},{"bike_id":"fea6e068-9c9d-4bda-8c6b-2a616e415ac1","system_id":"levelo_inurba_marseille","lat":43.28491,"lon":5.3856,"is_reserved":false,"is_disabled":false,"rental_uris":{"android":"levelo://app?vid=fea6e068-9c9d-4bda-8c6b-2a616e415ac1","ios":"levelo://app?vid=fea6e068-9c9d-4bda-8c6b-2a616e415ac1"},"vehicle_type_id":"4","last_reported":1743005603,"current_range_meters":16400,"station_id":"ce4bh8p2rcd13ifvqeb0","pricing_plan_id":"cebpf4jnsgd1na2vs0mg"},{"bike_id":"4db74782-c8e2-4d70-aeb4-9613dcc0805a","system_id":"levelo_inurba_marseille","lat":43.27315,"lon":5.39079,"is_reserved":false,"is_disabled":false,"rental_uris":{"android":"levelo://app?vid=4db74782-c8e2-4d70-aeb4-9613dcc0805a","ios":"levelo://app?vid=4db74782-c8e2-4d70-aeb4-9613dcc0805a"},