{"last_updated":1775158830,"ttl":60,"version":"2.2","data":{"bikes":[{"bike_id":"1b5e6abf-37a9-40cd-aa39-7cca1fdfc2fc","system_id":"levelo_inurba_marseille","lat":43.337926,"lon":5.374278,"is_reserved":false,"is_disabled":false,"rental_uris":{"android":"levelo://app?vid=1b5e6abf-37a9-40cd-aa39-7cca1fdfc2fc","ios":"levelo://app?vid=1b5e6abf-37a9-40cd-aa39-7cca1fdfc2fc"},"vehicle_type_id":"4","last_reported":1775158831,"current_range_meters":0,"station_id":"","pricing_plan_id":"cebpf4jnsgd1na2vs0mg"},{"bike_id":"0638887d-e8db-4b9d-9b82-ec1211d8e6af","system_id":"levelo_inurba_marseille","lat":43.28933,"lon":5.36621,"is_reserved":false,"is_disabled":false,"rental_uris":{"android":"levelo://app?vid=0638887d-e8db-4b9d-9b82-ec1211d8e6af","ios":"levelo://app?vid=0638887d-e8db-4b9d-9b82-ec1211d8e6af"},"vehicle_type_id":"4","last_reported":1775158831,"current_range_meters":2800,"station_id":"ce4bhap2rcd13ifvqek0","pricing_plan_id":"cebpf4jnsgd1na2vs0mg"},{"bike_id":"b9a2dc0a-a78c-4ec1-b214-1ebc47ea2ab0","system_id":"levelo_inurba_marseille","lat":43.22548,"lon":5.41646,"is_reserved":false,"is_disabled":false,"rental_uris":{"android":"levelo://app?vid=b9a2dc0a-a78c-4ec1-b214-1ebc47ea2ab0","ios":"levelo://app?vid=b9a2dc0a-a78c-4ec1-b214-1ebc47ea2ab0"},"vehicle_type_id":"4","last_reported":1775158831,"current_range_meters":2800,"station_id":"st_d2o4gvlbi1j2169b742g","pricing_plan_id":"cebpf4jnsgd1na2vs0mg"},{"bike_id":"7b9afc77-0e17-48ba-b360-a407675726ad","system_id":"levelo_inurba_marseille","lat":43.28883,"lon":5.42501,"is_reserved":false,"is_disabled":false,"rental_uris":{"android":"levelo://app?vid=7b9afc77-0e17-48ba-b360-a407675726ad","ios":"levelo://app?vid=7b9afc77-0e17-48ba-b360-a407675726ad"},"vehicle_type_id":"4","last_reported":1775158831,"current_range_meters":2800,"station_id":"st_d3b462108ojc7389ooeg","pricing_plan_id":"cebpf4jnsgd1na2vs0mg"},{"bike_id":"d41d5ff3-651c-4e70-8a12-e8a105b53c64","system_id":"levelo_inurba_marseille","lat":43.31577,"lon":5.4454,"is_reserved":false,"is_disabled":false,"rental_uris":{"android":"levelo://app?vid=d41d5ff3-651c-4e70-8a12-e8a105b53c64","ios":"levelo://app?vid=d41d5ff3-651c-4e70-8a12-e8a105b53c64"},"vehicle_type_id":"4","last_reported":1775158831,"current_range_meters":2800,"station_id":"","pricing_plan_id":"cebpf4jnsgd1na2vs0mg"},{"bike_id":"54c2b8bb-7259-470c-a906-fdbbea78bb9c","system_id":"levelo_inurba_marseille","lat":43.28533,"lon":5.44097,"is_reserved":false,"is_disabled":false,"rental_uris":{"android":"levelo://app?vid=54c2b8bb-7259-470c-a906-fdbbea78bb9c","ios":"levelo://app?vid=54c2b8bb-7259-470c-a906-fdbbea78bb9c"},"vehicle_type_id":"4","last_reported":1775158831,"current_range_meters":2800,"station_id":"st_d3j3df2ikq2c7380ej80","pricing_plan_id":"cebpf4jnsgd1na2vs0mg"},{"bike_id":"c3dd942b-ed47-4c44-b470-aae5bc4c42ff","system_id":"levelo_inurba_marseille","lat":43.30887,"lon":5.39654,"is_reserved":false,"is_disabled":false,"rental_uris":{"android":"levelo://app?vid=c3dd942b-ed47-4c44-b470-aae5bc4c42ff","ios":"levelo://app?vid=c3dd942b-ed47-4c44-b470-aae5bc4c42ff"},"vehicle_type_id":"4","last_reported":1775158831,"current_range_meters":2800,"station_id":"ce4bh012rcd13ifvqcv0","pricing_plan_id":"cebpf4jnsgd1na2vs0mg"},{"bike_id":"62980edf-9b28-4e02-920a-b1a6afb502db","system_id":"levelo_inurba_marseille","lat":43.29279,"lon":5.40112,"is_reserved":false,"is_disabled":false,"rental_uris":{"android":"levelo://app?vid=62980edf-9b28-4e02-920a-b1a6afb502db","ios":"levelo://app?vid=62980edf-9b28-4e02-920a-b1a6afb502db"},"vehicle_type_id":"4","last_reported":1775158831,"current_range_meters":2800,"station_id":"ce4bh312rcd13ifvqdk0","pricing_plan_id":"cebpf4jnsgd1na2vs0mg"},{"bike_id":"f9bf9c00-cd90-40af-b90c-8c9700fcf26a","system_id":"levelo_inurba_marseille","lat":43.30428,"lon":5.39748,"is_reserved":false,"is_disabled":false,"rental_uris":{"android":"levelo://app?vid=f9bf9c00-cd90-40af-b90c-8c9700fcf26a","ios":"levelo://app?vid=f9bf9c00-cd90-40af-b90c-8c9700fcf26a"},"vehicle_type_id":"4","last_reported":1775158831,"current_range_meters":2800,"station_id":"ce4bh092rcd13ifvqd20","pricing_plan_id":"cebpf4jnsgd1na2vs0mg"},{"bike_id":"bed085cd-e643-4cf8-a83c-4e3f37218df7","system_id":"levelo_inurba_marseille","lat":43.23144,"lon":5.40177,"is_reserved":false,"is_disabled":false,"rental_uris":{"android":"levelo://app?vid=bed085cd-e643-4cf8-a83c-4e3f37218df7","ios":"levelo://app?vid=bed085cd-e643-4cf8-a83c-4e3f37218df7"},"vehicle_type_id":"4","last_reported":1775158831,"current_range_meters":2800,"station_id":"","pricing_plan_id":"cebpf4jnsgd1na2vs0mg"},{"bike_id":"08c6d6f2-c02b-47d7-b543-50fc5356737e","system_id":"levelo_inurba_marseille","lat":43.29006,"lon":5.35613,"is_reserved":false,"is_disabled":false,"rental_uris":{"android":"levelo://app?vid=08c6d6f2-c02b-47d7-b543-50fc5356737e","ios":"levelo://app?vid=08c6d6f2-c02b-47d7-b543-50fc5356737e"},"vehicle_type_id":"4","last_reported":1775158831,"current_range_meters":3200,"station_id":"ce4bhb92rcd13ifvqen0","pricing_plan_id":"cebpf4jnsgd1na2vs0mg"},{"bike_id":"dbafccf7-0909-44bd-86f0-abe7aa0ed694","system_id":"levelo_inurba_marseille","lat":43.29396,"lon":5.43939,"is_reserved":false,"is_disabled":false,"rental_uris":{"android":"levelo://app?vid=dbafccf7-0909-44bd-86f0-abe7aa0ed694","ios":"levelo://app?vid=dbafccf7-0909-44bd-86f0-abe7aa0ed694"},"vehicle_type_id":"4","last_reported":1775158831,"current_range_meters":3200,"station_id":"","pricing_plan_id":"cebpf4jnsgd1na2vs0mg"},{"bike_id":"ffde6a95-5dec-426a-943f-3ce4b714e7dc","system_id":"levelo_inurba_marseille","lat":43.2171,"lon":5.34657,"is_reserved":false,"is_disabled":false,"rental_uris":{"android":"levelo://app?vid=ffde6a95-5dec-426a-943f-3ce4b714e7dc","ios":"levelo://app?vid=ffde6a95-5dec-426a-943f-3ce4b714e7dc"},"vehicle_type_id":"4","last_reported":1775158831,"current_range_meters":3200,"station_id":"","pricing_plan_id":"cebpf4jnsgd1na2vs0mg"},{"bike_id":"68945dd7-fcc7-4d4c-a459-6c84a8a17358","system_id":"levelo_inurba_marseille","lat":43.23966,"lon":5.36635,"is_reserved":false,"is_disabled":false,"rental_uris":{"android":"levelo://app?vid=68945dd7-fcc7-4d4c-a459-6c84a8a17358","ios":"levelo://app?vid=68945dd7-fcc7-4d4c-a459-6c84a8a17358"},"vehicle_type_id":"4","last_reported":1775158831,"current_range_meters":3200,"station_id":"ce4bhi12rcd13ifvqfp0","pricing_plan_id":"cebpf4jnsgd1na2vs0mg"},{"bike_id":"3c6113e1-5ee5-41e6-a46d-c61accc70ed9","system_id":"levelo_inurba_marseille","lat":43.3095,"lon":5.39036,"is_reserved":false,"is_disabled":false,"rental_uris":{"android":"levelo://app?vid=3c6113e1-5ee5-41e6-a46d-c61accc70ed9","ios":"levelo://app?vid=3c6113e1-5ee5-41e6-a46d-c61accc70ed9"},"vehicle_type_id":"4","last_reported":1775158831,"current_range_meters":3200,"station_id":"ce4bgup2rcd13ifvqco0","pricing_plan_id":"cebpf4jnsgd1na2vs0mg"},{"bike_id":"1bc8ec78-c0b0-4e54-b8a8-04c5bae29a14","system_id":"levelo_inurba_marseille","lat":43.29533,"lon":5.39023,"is_reserved":false,"is_disabled":false,"rental_uris":{"android":"levelo://app?vid=1bc8ec78-c0b0-4e54-b8a8-04c5bae29a14","ios":"levelo://app?vid=1bc8ec78-c0b0-4e54-b8a8-04c5bae29a14"},"vehicle_type_id":"4","last_reported":1775158831,"current_range_meters":3200,"station_id":"ce4bh3p2rcd13ifvqdp0","pricing_plan_id":"cebpf4jnsgd1na2vs0mg"},{"bike_id":"1d0a0d0a-bc82-4f6e-843d-3464a514a64f","system_id":"levelo_inurba_marseille","lat":43.3111,"lon":5.37763,"is_reserved":false,"is_disabled":false,"rental_uris":{"android":"levelo://app?vid=1d0a0d0a-bc82-4f6e-843d-3464a514a64f","ios":"levelo://app?vid=1d0a0d0a-bc82-4f6e-843d-3464a514a64f"},"vehicle_type_id":"4","last_reported":1775158831,"current_range_meters":3200,"station_id":"ce4bgt92rcd13ifvqcg0","pricing_plan_id":"cebpf4jnsgd1na2vs0mg"},{"bike_id":"a97bb5fc-a1de-4358-bea3-8b9d363fa9b3","system_id":"levelo_inurba_marseille","lat":43.23798,"lon":5.36625,"is_reserved":false,"is_disabled":false,"rental_uris":{"android":"levelo://app?vid=a97bb5fc-a1de-4358-bea3-8b9d363fa9b3","ios":"levelo://app?vid=a97bb5fc-a1de-4358-bea3-8b9d363fa9b3"},"vehicle_type_id":"4","last_reported":1775158831,"current_range_meters":3200,"station_id":"st_d3nk18o9ro0c73en2l3g","pricing_plan_id":"cebpf4jnsgd1na2vs0mg"},{"bike_id":"c267eaf3-200a-4a1c-8074-fa1f1a8154c6","system_id":"levelo_inurba_marseille","lat":43.21748,"lon":5.34599,"is_reserved":false,"is_disabled":false,"rental_uris":{"android":"levelo://app?vid=c267eaf3-200a-4a1c-8074-fa1f1a8154c6","ios":"levelo://app?vid=c267eaf3-200a-4a1c-8074-fa1f1a8154c6"},"vehicle_type_id":"4","last_reported":1775158831,"current_range_meters":3200,"station_id":"st_cvj6r9ubvosntc0bgbag","pricing_plan_id":"cebpf4jnsgd1na2vs0mg"},{"bike_id":"2c78b9d7-6797-4c09-ad87-2e1c14443b34","system_id":"levelo_inurba_marseille","lat":43.28582,"lon":5.4292,"is_reserved":false,"is_disabled":false,"rental_uris":{"android":"levelo://app?vid=2c78b9d7-6797-4c09-ad87-2e1c14443b34","ios":"levelo://app?vid=2c78b9d7-6797-4c09-ad87-2e1c14443b34"},"vehicle_type_id":"4","last_reported":1775158831,"current_range_meters":3200,"station_id":"","pricing_plan_id":"cebpf4jnsgd1na2vs0mg"},{"bike_id":"07335ade-7594-4ee2-9209-a83e30da8f74","system_id":"levelo_inurba_marseille","lat":43.30333,"lon":5.40408,"is_reserved":false,"is_disabled":false,"rental_uris":{"android":"levelo://app?vid=07335ade-7594-4ee2-9209-a83e30da8f74","ios":"levelo://app?vid=07335ade-7594-4ee2-9209-a83e30da8f74"},"vehicle_type_id":"4","last_reported":1775158831,"current_range_meters":3200,"station_id":"ce4bh012rcd13ifvqd10","pricing_plan_id":"cebpf4jnsgd1na2vs0mg"},{"bike_id":"0b6c6387-d8b6-4bb8-b04c-d84bf5bfe001","system_id":"levelo_inurba_marseille","lat":43.31362,"lon":5.38501,"is_reserved":false,"is_disabled":false,"rental_uris":{"android":"levelo://app?vid=0b6c6387-d8b6-4bb8-b04c-d84bf5bfe001","ios":"levelo://app?vid=0b6c6387-d8b6-4bb8-b04c-d84bf5bfe001"},"vehicle_type_id":"4","last_reported":1775158831,"current_range_meters":3600,"station_id":"ce4bgt92rcd13ifvqcf0","pricing_plan_id":"cebpf4jnsgd1na2vs0mg"},{"bike_id":"3ef493c7-edad-47f4-9624-316bb20ad697","system_id":"levelo_inurba_marseille","lat":43.29564,"lon":5.37521,"is_reserved":false,"is_disabled":false,"rental_uris":{"android":"levelo://app?vid=3ef493c7-edad-47f4-9624-316bb20ad697","ios":"levelo://app?vid=3ef493c7-edad-47f4-9624-316bb20ad697"},"vehicle_type_id":"4","last_reported":1775158831,"current_range_meters":3600,"station_id":"ce4bgh92rcd13ifvqb50","pricing_plan_id":"cebpf4jnsgd1na2vs0mg"},{"bike_id":"e4956c66-fba0-45d5-a7d2-90ca01f34637","system_id":"levelo_inurba_marseille","lat":43.21759,"lon":5.34614,"is_reserved":false,"is_disabled":false,"rental_uris":{"android":"levelo://app?vid=e4956c66-fba0-45d5-a7d2-90ca01f34637","ios":"levelo://app?vid=e4956c66-fba0-45d5-a7d2-90ca01f34637"},"vehicle_type_id":"4","last_reported":1775158831,"current_range_meters":3600,"station_id":"st_cvj6r9ubvosntc0bgbag","pricing_plan_id":"cebpf4jnsgd1na2vs0mg"},{"bike_id":"d17c948a-67bf-41a5-a679-93280cb2daee","system_id":"levelo_inurba_marseille","lat":43.212,"lon":5.35067,"is_reserved":false,"is_disabled":false,"rental_uris":{"android":"levelo://app?vid=d17c948a-67bf-41a5-a679-93280cb2daee","ios":"levelo://app?vid=d17c948a-67bf-41a5-a679-93280cb2daee"},"vehicle_type_id":"4","last_reported":1775158831,"current_range_meters":3600,"station_id":"st_cvj6sg6p6f1abm77japg","pricing_plan_id":"cebpf4jnsgd1na2vs0mg"},{"bike_id":"28902c85-2ce9-4ec9-adfe-51cf4064fa09","system_id":"levelo_inurba_marseille","lat":43.28457,"lon":5.39201,"is_reserved":false,"is_disabled":true,"rental_uris":{"android":"levelo://app?vid=28902c85-2ce9-4ec9-adfe-51cf4064fa09","ios":"levelo://app?vid=28902c85-2ce9-4ec9-adfe-51cf4064fa09"},"vehicle_type_id":"4","last_reported":1775158831,"current_range_meters":3600,"station_id":"ce4bhoh2rcd13ifvqh5g","pricing_plan_id":"cebpf4jnsgd1na2vs0mg"},{"bike_id":"a17dbbf9-2919-4aa7-a6bc-4d101b9dc30c","system_id":"levelo_inurba_marseille","lat":43.27512,"lon":5.40953,"is_reserved":false,"is_disabled":false,"rental_uris":{"android":"levelo://app?vid=a17dbbf9-2919-4aa7-a6bc-4d101b9dc30c","ios":"levelo://app?vid=a17dbbf9-2919-4aa7-a6bc-4d101b9dc30c"},"vehicle_type_id":"4","last_reported":1775158831,"current_range_meters":3600,"station_id":"","pricing_plan_id":"cebpf4jnsgd1na2vs0mg"},{"bike_id":"32bbc785-7878-457c-9b63-c753cac045af","system_id":"levelo_inurba_marseille","lat":43.21759,"lon":5.3456,"is_reserved":false,"is_disabled":false,"rental_uris":{"android":"levelo://app?vid=32bbc785-7878-457c-9b63-c753cac045af","ios":"levelo://app?vid=32bbc785-7878-457c-9b63-c753cac045af"},"vehicle_type_id":"4","last_reported":1775158831,"current_range_meters":3600,"station_id":"st_cvj6r9ubvosntc0bgbag","pricing_plan_id":"cebpf4jnsgd1na2vs0mg"},{"bike_id":"1bdbf982-d656-4173-91b1-d3055e78d6cd","system_id":"levelo_inurba_marseille","lat":43.22577,"lon":5.41587,"is_reserved":false,"is_disabled":false,"rental_uris":{"android":"levelo://app?vid=1bdbf982-d656-4173-91b1-d3055e78d6cd","ios":"levelo://app?vid=1bdbf982-d656-4173-91b1-d3055e78d6cd"},"vehicle_type_id":"4","last_reported":1775158831,"current_range_meters":3600,"station_id":"st_d2o4gvlbi1j2169b742g","pricing_plan_id":"cebpf4jnsgd1na2vs0mg"},{"bike_id":"bf896553-7816-4175-a368-2e0c27328919","system_id":"levelo_inurba_marseille","lat":43.292608,"lon":5.376355,"is_reserved":false,"is_disabled":false,"rental_uris":{"android":"levelo://app?vid=bf896553-7816-4175-a368-2e0c27328919","ios":"levelo://app?vid=bf896553-7816-4175-a368-2e0c27328919"},"vehicle_type_id":"4","last_reported":1775158831,"current_range_meters":3600,"station_id":"ce4bgi12rcd13ifvqb80","pricing_plan_id":"cebpf4jnsgd1na2vs0mg"},{"bike_id":"4a9a41a6-553c-42b4-9a76-1207b16dcd78","system_id":"levelo_inurba_marseille","lat":43.3355,"lon":5.37488,"is_reserved":false,"is_disabled":false,"rental_uris":{"android":"levelo://app?vid=4a9a41a6-553c-42b4-9a76-1207b16dcd78","ios":"levelo://app?vid=4a9a41a6-553c-42b4-9a76-1207b16dcd78"},"vehicle_type_id":"4","last_reported":1775158831,"current_range_meters":3600,"station_id":"st_d46tts09ee8s73dlu43g","pricing_plan_id":"cebpf4jnsgd1na2vs0mg"},{"bike_id":"ef8d4fc8-6bc3-4a9f-a476-2d23d9d29968","system_id":"levelo_inurba_marseille","lat":43.29268,"lon":5.4012,"is_reserved":false,"is_disabled":true,"rental_uris":{"android":"levelo://app?vid=ef8d4fc8-6bc3-4a9f-a476-2d23d9d29968","ios":"levelo://app?vid=ef8d4fc8-6bc3-4a9f-a476-2d23d9d29968"},"vehicle_type_id":"4","last_reported":1775158831,"current_range_meters":3600,"station_id":"ce4bh312rcd13ifvqdk0","pricing_plan_id":"cebpf4jnsgd1na2vs0mg"},{"bike_id":"f8cc0283-227c-489d-95d0-29344593718a","system_id":"levelo_inurba_marseille","lat":43.31167,"lon":5.38717,"is_reserved":false,"is_disabled":false,"rental_uris":{"android":"levelo://app?vid=f8cc0283-227c-489d-95d0-29344593718a","ios":"levelo://app?vid=f8cc0283-227c-489d-95d0-29344593718a"},"vehicle_type_id":"4","last_reported":1775158831,"current_range_meters":4000,"station_id":"ce4bgv12rcd13ifvqcp0","pricing_plan_id":"cebpf4jnsgd1na2vs0mg"},{"bike_id":"78151f0b-d096-4bc8-9d04-f28fec21246f","system_id":"levelo_inurba_marseille","lat":43.23184,"lon":5.39992,"is_reserved":false,"is_disabled":false,"rental_uris":{"android":"levelo://app?vid=78151f0b-d096-4bc8-9d04-f28fec21246f","ios":"levelo://app?vid=78151f0b-d096-4bc8-9d04-f28fec21246f"},"vehicle_type_id":"4","last_reported":1775158831,"current_range_meters":4000,"station_id":"ce4bhn12rcd13ifvqgqg","pricing_plan_id":"cebpf4jnsgd1na2vs0mg"},{"bike_id":"a877f7d8-cc46-418d-ad17-8c7c7864ae28","system_id":"levelo_inurba_marseille","lat":43.248918,"lon":5.386523,"is_reserved":false,"is_disabled":false,"rental_uris":{"android":"levelo://app?vid=a877f7d8-cc46-418d-ad17-8c7c7864ae28","ios":"levelo://app?vid=a877f7d8-cc46-418d-ad17-8c7c7864ae28"},"vehicle_type_id":"4","last_reported":1775158831,"current_range_meters":4000,"station_id":"ce4bhgp2rcd13ifvqfd0","pricing_plan_id":"cebpf4jnsgd1na2vs0mg"},{"bike_id":"1b89f2e1-0726-4a0a-ba7f-f4397fe41860","system_id":"levelo_inurba_marseille","lat":43.28587,"lon":5.38362,"is_reserved":false,"is_disabled":false,"rental_uris":{"android":"levelo://app?vid=1b89f2e1-0726-4a0a-ba7f-f4397fe41860","ios":"levelo://app?vid=1b89f2e1-0726-4a0a-ba7f-f4397fe41860"},"vehicle_type_id":"4","last_reported":1775158831,"current_range_meters":4000,"station_id":"","pricing_plan_id":"cebpf4jnsgd1na2vs0mg"},{"bike_id":"e7be8878-fee4-4379-a5ad-005d8dc7fdf1","system_id":"levelo_inurba_marseille","lat":43.30299,"lon":5.39229,"is_reserved":false,"is_disabled":false,"rental_uris":{"android":"levelo://app?vid=e7be8878-fee4-4379-a5ad-005d8dc7fdf1","ios":"levelo://app?vid=e7be8878-fee4-4379-a5ad-005d8dc7fdf1"},"vehicle_type_id":"4","last_reported":1775158831,"current_range_meters":4000,"station_id":"ce4bgkh2rcd13ifvqbk0","pricing_plan_id":"cebpf4jnsgd1na2vs0mg"},{"bike_id":"17b8fc26-3ba8-4cf9-a457-0b2cc0ec871e","system_id":"levelo_inurba_marseille","lat":43.27489,"lon":5.41674,"is_reserved":false,"is_disabled":false,"rental_uris":{"android":"levelo://app?vid=17b8fc26-3ba8-4cf9-a457-0b2cc0ec871e","ios":"levelo://app?vid=17b8fc26-3ba8-4cf9-a457-0b2cc0ec871e"},"vehicle_type_id":"4","last_reported":1775158831,"current_range_meters":4000,"station_id":"","pricing_plan_id":"cebpf4jnsgd1na2vs0mg"},{"bike_id":"b72f8ab9-87fc-44d4-b4c8-fb62b5b5c667","system_id":"levelo_inurba_marseille","lat":43.30067,"lon":5.37055,"is_reserved":false,"is_disabled":false,"rental_uris":{"android":"levelo://app?vid=b72f8ab9-87fc-44d4-b4c8-fb62b5b5c667","ios":"levelo://app?vid=b72f8ab9-87fc-44d4-b4c8-fb62b5b5c667"},"vehicle_type_id":"4","last_reported":1775158831,"current_range_meters":4000,"station_id":"","pricing_plan_id":"cebpf4jnsgd1na2vs0mg"},{"bike_id":"e9b3f906-3c96-41d2-bde3-70019147dd95","system_id":"levelo_inurba_marseille","lat":43.2255,"lon":5.41628,"is_reserved":false,"is_disabled":false,"rental_uris":{"android":"levelo://app?vid=e9b3f906-3c96-41d2-bde3-70019147dd95","ios":"levelo://app?vid=e9b3f906-3c96-41d2-bde3-70019147dd95"},"vehicle_type_id":"4","last_reported":1775158831,"current_range_meters":4000,"station_id":"st_d2o4gvlbi1j2169b742g","pricing_plan_id":"cebpf4jnsgd1na2vs0mg"},{"bike_id":"af924f2b-ce81-483d-9243-41f109897005","system_id":"levelo_inurba_marseille","lat":43.29018,"lon":5.35612,"is_reserved":false,"is_disabled":false,"rental_uris":{"android":"levelo://app?vid=af924f2b-ce81-483d-9243-41f109897005","ios":"levelo://app?vid=af924f2b-ce81-483d-9243-41f109897005"},"vehicle_type_id":"4","last_reported":1775158831,"current_range_meters":4000,"station_id":"ce4bhb92rcd13ifvqen0","pricing_plan_id":"cebpf4jnsgd1na2vs0mg"},{"bike_id":"2b176618-2114-4a94-bc43-fa6914887efb","system_id":"levelo_inurba_marseille","lat":43.33545,"lon":5.37475,"is_reserved":false,"is_disabled":false,"rental_uris":{"android":"levelo://app?vid=2b176618-2114-4a94-bc43-fa6914887efb","ios":"levelo://app?vid=2b176618-2114-4a94-bc43-fa6914887efb"},"vehicle_type_id":"4","last_reported":1775158831,"current_range_meters":4000,"station_id":"st_d46tts09ee8s73dlu43g","pricing_plan_id":"cebpf4jnsgd1na2vs0mg"},{"bike_id":"52f6aa0b-2330-4df3-8e4c-5b4169aba557","system_id":"levelo_inurba_marseille","lat":43.27819,"lon":5.40712,"is_reserved":false,"is_disabled":false,"rental_uris":{"android":"levelo://app?vid=52f6aa0b-2330-4df3-8e4c-5b4169aba557","ios":"levelo://app?vid=52f6aa0b-2330-4df3-8e4c-5b4169aba557"},"vehicle_type_id":"4","last_reported":1775158831,"current_range_meters":4000,"station_id":"ce4bhnh2rcd13ifvqgtg","pricing_plan_id":"cebpf4jnsgd1na2vs0mg"},{"bike_id":"0b9c2c71-8f53-401e-87bb-008235755a0a","system_id":"levelo_inurba_marseille","lat":43.30596,"lon":5.3935,"is_reserved":false,"is_disabled":false,"rental_uris":{"android":"levelo://app?vid=0b9c2c71-8f53-401e-87bb-008235755a0a","ios":"levelo://app?vid=0b9c2c71-8f53-401e-87bb-008235755a0a"},"vehicle_type_id":"4","last_reported":1775158831,"current_range_meters":4000,"station_id":"ce4bh0p2rcd13ifvqd80","pricing_plan_id":"cebpf4jnsgd1na2vs0mg"},{"bike_id":"4eda720f-73b7-443c-86cf-cc7068097a32","system_id":"levelo_inurba_marseille","lat":43.32292,"lon":5.38241,"is_reserved":false,"is_disabled":false,"rental_uris":{"android":"levelo://app?vid=4eda720f-73b7-443c-86cf-cc7068097a32","ios":"levelo://app?vid=4eda720f-73b7-443c-86cf-cc7068097a32"},"vehicle_type_id":"4","last_reported":1775158831,"current_range_meters":4000,"station_id":"ce4bhr12rcd13ifvqhqg","pricing_plan_id":"cebpf4jnsgd1na2vs0mg"},{"bike_id":"052f68eb-b3d2-4c29-a99d-37f9d3e34be6","system_id":"levelo_inurba_marseille","lat":43.24874,"lon":5.42668,"is_reserved":false,"is_disabled":false,"rental_uris":{"android":"levelo://app?vid=052f68eb-b3d2-4c29-a99d-37f9d3e34be6","ios":"levelo://app?vid=052f68eb-b3d2-4c29-a99d-37f9d3e34be6"},"vehicle_type_id":"4","last_reported":1775158831,"current_range_meters":4000,"station_id":"","pricing_plan_id":"cebpf4jnsgd1na2vs0mg"},{"bike_id":"751823b1-fecf-476f-a14d-b22ea92d3e4c","system_id":"levelo_inurba_marseille","lat":43.29174,"lon":5.42627,"is_reserved":false,"is_disabled":false,"rental_uris":{"android":"levelo://app?vid=751823b1-fecf-476f-a14d-b22ea92d3e4c","ios":"levelo://app?vid=751823b1-fecf-476f-a14d-b22ea92d3e4c"},"vehicle_type_id":"4","last_reported":1775158831,"current_range_meters":4000,"station_id":"","pricing_plan_id":"cebpf4jnsgd1na2vs0mg"},{"bike_id":"b0c7af6e-3d0b-4ab3-b18f-a89f14a0ad41","system_id":"levelo_inurba_marseille","lat":43.21194,"lon":5.35069,"is_reserved":false,"is_disabled":false,"rental_uris":{"android":"levelo://app?vid=b0c7af6e-3d0b-4ab3-b18f-a89f14a0ad41","ios":"levelo://app?vid=b0c7af6e-3d0b-4ab3-b18f-a89f14a0ad41"},"vehicle_type_id":"4","last_reported":1775158831,"current_range_meters":4400,"station_id":"st_cvj6sg6p6f1abm77japg","pricing_plan_id":"cebpf4jnsgd1na2vs0mg"},{"bike_id":"b97544d4-fc20-4746-a137-2d69f3584b87","system_id":"levelo_inurba_marseille","lat":43.22488,"lon":5.34839,"is_reserved":false,"is_disabled":false,"rental_uris":{"android":"levelo://app?vid=b97544d4-fc20-4746-a137-2d69f3584b87","ios":"levelo://app?vid=b97544d4-fc20-4746-a137-2d69f3584b87"},"vehicle_type_id":"4","last_reported":1775158831,"current_range_meters":4400,"station_id":"","pricing_plan_id":"cebpf4jnsgd1na2vs0mg"},{"bike_id":"8429f855-c4a0-4803-9ce7-0d1fb93dbfe8","system_id":"levelo_inurba_marseille","lat":43.28556,"lon":5.48336,"is_reserved":false,"is_disabled":false,"rental_uris":{"android":"levelo://app?vid=8429f855-c4a0-4803-9ce7-0d1fb93dbfe8","ios":"levelo://app?vid=8429f855-c4a0-4803-9ce7-0d1fb93dbfe8"},"vehicle_type_id":"4","last_reported":1775158831,"current_range_meters":4400,"station_id":"","pricing_plan_id":"cebpf4jnsgd1na2vs0mg"},{"bike_id":"300fe563-116a-41eb-9cf8-0ba984fc2c43","system_id":"levelo_inurba_marseille","lat":43.28479,"lon":5.38418,"is_reserved":false,"is_disabled":false,"rental_uris":{"android":"levelo://app?vid=300fe563-116a-41eb-9cf8-0ba984fc2c43","ios":"levelo://app?vid=300fe563-116a-41eb-9cf8-0ba984fc2c43"},"vehicle_type_id":"4","last_reported":1775158831,"current_range_meters":4400,"station_id":"ce4bh512rcd13ifvqe3g","pricing_plan_id":"cebpf4jnsgd1na2vs0mg"},{"bike_id":"c6f17a07-4b4b-4850-adfa-9b88faca672e","system_id":"levelo_inurba_marseille","lat":43.28943,"lon":5.36377,"is_reserved":false,"is_disabled":false,"rental_uris":{"android":"levelo://app?vid=c6f17a07-4b4b-4850-adfa-9b88faca672e","ios":"levelo://app?vid=c6f17a07-4b4b-4850-adfa-9b88faca672e"},"vehicle_type_id":"4","last_reported":1775158831,"current_range_meters":4400,"station_id":"ce4bhc92rcd13ifvqetg","pricing_plan_id":"cebpf4jnsgd1na2vs0mg"},{"bike_id":"4b3c825a-c5e6-42c6-af30-700063fa913d","system_id":"levelo_inurba_marseille","lat":43.25981,"lon":5.37596,"is_reserved":false,"is_disabled":true,"rental_uris":{"android":"levelo://app?vid=4b3c825a-c5e6-42c6-af30-700063fa913d","ios":"levelo://app?vid=4b3c825a-c5e6-42c6-af30-700063fa913d"},"vehicle_type_id":"4","last_reported":1775158831,"current_range_meters":4400,"station_id":"","pricing_plan_id":"cebpf4jnsgd1na2vs0mg"},{"bike_id":"2e1bb915-7cc1-480d-b6c9-2c6a093b50b8","system_id":"levelo_inurba_marseille","lat":43.25037,"lon":5.38945,"is_reserved":false,"is_disabled":false,"rental_uris":{"android":"levelo://app?vid=2e1bb915-7cc1-480d-b6c9-2c6a093b50b8","ios":"levelo://app?vid=2e1bb915-7cc1-480d-b6c9-2c6a093b50b8"},"vehicle_type_id":"4","last_reported":1775158831,"current_range_meters":4400,"station_id":"ce4bhgp2rcd13ifvqfd0","pricing_plan_id":"cebpf4jnsgd1na2vs0mg"},{"bike_id":"1e761a26-7e6f-4faa-97d2-c5b005898690","system_id":"levelo_inurba_marseille","lat":43.24175,"lon":5.39732,"is_reserved":false,"is_disabled":false,"rental_uris":{"android":"levelo://app?vid=1e761a26-7e6f-4faa-97d2-c5b005898690","ios":"levelo://app?vid=1e761a26-7e6f-4faa-97d2-c5b005898690"},"vehicle_type_id":"4","last_reported":1775158831,"current_range_meters":4400,"station_id":"ce4bhn12rcd13ifvqgpg","pricing_plan_id":"cebpf4jnsgd1na2vs0mg"},{"bike_id":"cac3c55f-dcf5-4706-9051-185e14264ce9","system_id":"levelo_inurba_marseille","lat":43.26034,"lon":5.37537,"is_reserved":false,"is_disabled":false,"rental_uris":{"android":"levelo://app?vid=cac3c55f-dcf5-4706-9051-185e14264ce9","ios":"levelo://app?vid=cac3c55f-dcf5-4706-9051-185e14264ce9"},"vehicle_type_id":"4","last_reported":1775158831,"current_range_meters":4400,"station_id":"ce4bhgh2rcd13ifvqfa0","pricing_plan_id":"cebpf4jnsgd1na2vs0mg"},{"bike_id":"149df63f-5deb-4b1c-bdc7-907aaa2e529a","system_id":"levelo_inurba_marseille","lat":43.31285,"lon":5.40161,"is_reserved":false,"is_disabled":false,"rental_uris":{"android":"levelo://app?vid=149df63f-5deb-4b1c-bdc7-907aaa2e529a","ios":"levelo://app?vid=149df63f-5deb-4b1c-bdc7-907aaa2e529a"},"vehicle_type_id":"4","last_reported":1775158831,"current_range_meters":4400,"station_id":"ce4bh092rcd13ifvqd30","pricing_plan_id":"cebpf4jnsgd1na2vs0mg"},{"bike_id":"8814ed1a-7ecd-4158-9d4e-e614d076aaff","system_id":"levelo_inurba_marseille","lat":43.27193,"lon":5.39155,"is_reserved":false,"is_disabled":false,"rental_uris":{"android":"levelo://app?vid=8814ed1a-7ecd-4158-9d4e-e614d076aaff","ios":"levelo://app?vid=8814ed1a-7ecd-4158-9d4e-e614d076aaff"},"vehicle_type_id":"4","last_reported":1775158831,"current_range_meters":4400,"station_id":"ce4bhhp2rcd13ifvqfm0","pricing_plan_id":"cebpf4jnsgd1na2vs0mg"},{"bike_id":"10bf1fbd-6b8b-4de7-a3e1-96d5db3cee91","system_id":"levelo_inurba_marseille","lat":43.2737,"lon":5.36243,"is_reserved":false,"is_disabled":false,"rental_uris":{"android":"levelo://app?vid=10bf1fbd-6b8b-4de7-a3e1-96d5db3cee91","ios":"levelo://app?vid=10bf1fbd-6b8b-4de7-a3e1-96d5db3cee91"},"vehicle_type_id":"4","last_reported":1775158831,"current_range_meters":4400,"station_id":"ce4bhbh2rcd13ifvqeo0","pricing_plan_id":"cebpf4jnsgd1na2vs0mg"},{"bike_id":"88f6086a-bc27-484d-a4f3-cd2450a5aab6","system_id":"levelo_inurba_marseille","lat":43.250744,"lon":5.3953,"is_reserved":false,"is_disabled":false,"rental_uris":{"android":"levelo://app?vid=88f6086a-bc27-484d-a4f3-cd2450a5aab6","ios":"levelo://app?vid=88f6086a-bc27-484d-a4f3-cd2450a5aab6"},"vehicle_type_id":"4","last_reported":1775158831,"current_range_meters":4400,"station_id":"ce4bhm12rcd13ifvqgkg","pricing_plan_id":"cebpf4jnsgd1na2vs0mg"},{"bike_id":"cce71867-af00-4efb-acca-1ad994ce58c1","system_id":"levelo_inurba_marseille","lat":43.33164,"lon":5.37696,"is_reserved":false,"is_disabled":false,"rental_uris":{"android":"levelo://app?vid=cce71867-af00-4efb-acca-1ad994ce58c1","ios":"levelo://app?vid=cce71867-af00-4efb-acca-1ad994ce58c1"},"vehicle_type_id":"4","last_reported":1775158831,"current_range_meters":4400,"station_id":"st_d46cu089ee8s73dldbu0","pricing_plan_id":"cebpf4jnsgd1na2vs0mg"},{"bike_id":"e9e10590-59bd-489b-bb9b-be2bfa468fef","system_id":"levelo_inurba_marseille","lat":43.30608,"lon":5.37197,"is_reserved":false,"is_disabled":false,"rental_uris":{"android":"levelo://app?vid=e9e10590-59bd-489b-bb9b-be2bfa468fef","ios":"levelo://app?vid=e9e10590-59bd-489b-bb9b-be2bfa468fef"},"vehicle_type_id":"4","last_reported":1775158831,"current_range_meters":4400,"station_id":"ce4bgqh2rcd13ifvqc4g","pricing_plan_id":"cebpf4jnsgd1na2vs0mg"},{"bike_id":"2e263689-cbf3-4035-a709-1cd24747d734","system_id":"levelo_inurba_marseille","lat":43.26566,"lon":5.40315,"is_reserved":false,"is_disabled":false,"rental_uris":{"android":"levelo://app?vid=2e263689-cbf3-4035-a709-1cd24747d734","ios":"levelo://app?vid=2e263689-cbf3-4035-a709-1cd24747d734"},"vehicle_type_id":"4","last_reported":1775158831,"current_range_meters":4800,"station_id":"ce4bhmp2rcd13ifvqgng","pricing_plan_id":"cebpf4jnsgd1na2vs0mg"},{"bike_id":"f836d7f4-a8e6-4e2b-927b-3078927b9500","system_id":"levelo_inurba_marseille","lat":43.30533,"lon":5.36711,"is_reserved":false,"is_disabled":false,"rental_uris":{"android":"levelo://app?vid=f836d7f4-a8e6-4e2b-927b-3078927b9500","ios":"levelo://app?vid=f836d7f4-a8e6-4e2b-927b-3078927b9500"},"vehicle_type_id":"4","last_reported":1775158831,"current_range_meters":4800,"station_id":"ce4bgrp2rcd13ifvqc9g","pricing_plan_id":"cebpf4jnsgd1na2vs0mg"},{"bike_id":"11d19dab-7798-472d-a3cd-c1ff1cf623a6","system_id":"levelo_inurba_marseille","lat":43.25038,"lon":5.38908,"is_reserved":false,"is_disabled":false,"rental_uris":{"android":"levelo://app?vid=11d19dab-7798-472d-a3cd-c1ff1cf623a6","ios":"levelo://app?vid=11d19dab-7798-472d-a3cd-c1ff1cf623a6"},"vehicle_type_id":"4","last_reported":1775158831,"current_range_meters":4800,"station_id":"ce4bhgp2rcd13ifvqfd0","pricing_plan_id":"cebpf4jnsgd1na2vs0mg"},{"bike_id":"98ad6f6b-9358-4faa-aee9-4d5ee6157628","system_id":"levelo_inurba_marseille","lat":43.27813,"lon":5.40706,"is_reserved":false,"is_disabled":false,"rental_uris":{"android":"levelo://app?vid=98ad6f6b-9358-4faa-aee9-4d5ee6157628","ios":"levelo://app?vid=98ad6f6b-9358-4faa-aee9-4d5ee6157628"},"vehicle_type_id":"4","last_reported":1775158831,"current_range_meters":4800,"station_id":"ce4bhnh2rcd13ifvqgtg","pricing_plan_id":"cebpf4jnsgd1na2vs0mg"},{"bike_id":"81a505ab-321e-420a-ad05-b3394aa588fa","system_id":"levelo_inurba_marseille","lat":43.29889,"lon":5.38921,"is_reserved":false,"is_disabled":false,"rental_uris":{"android":"levelo://app?vid=81a505ab-321e-420a-ad05-b3394aa588fa","ios":"levelo://app?vid=81a505ab-321e-420a-ad05-b3394aa588fa"},"vehicle_type_id":"4","last_reported":1775158831,"current_range_meters":4800,"station_id":"ce4bh392rcd13ifvqdl0","pricing_plan_id":"cebpf4jnsgd1na2vs0mg"},{"bike_id":"87e1bf50-e432-4940-b9d8-3c0a254d9927","system_id":"levelo_inurba_marseille","lat":43.29269,"lon":5.38427,"is_reserved":false,"is_disabled":false,"rental_uris":{"android":"levelo://app?vid=87e1bf50-e432-4940-b9d8-3c0a254d9927","ios":"levelo://app?vid=87e1bf50-e432-4940-b9d8-3c0a254d9927"},"vehicle_type_id":"4","last_reported":1775158831,"current_range_meters":4800,"station_id":"ce4bh692rcd13ifvqea0","pricing_plan_id":"cebpf4jnsgd1na2vs0mg"},{"bike_id":"44f83876-1d65-4eba-8262-e52ce6b90a69","system_id":"levelo_inurba_marseille","lat":43.28335,"lon":5.38109,"is_reserved":false,"is_disabled":false,"rental_uris":{"android":"levelo://app?vid=44f83876-1d65-4eba-8262-e52ce6b90a69","ios":"levelo://app?vid=44f83876-1d65-4eba-8262-e52ce6b90a69"},"vehicle_type_id":"4","last_reported":1775158831,"current_range_meters":4800,"station_id":"ce4bh412rcd13ifvqdr0","pricing_plan_id":"cebpf4jnsgd1na2vs0mg"},{"bike_id":"62210ce0-a99a-4686-acce-34a5c68d8cfd","system_id":"levelo_inurba_marseille","lat":43.2402,"lon":5.3778,"is_reserved":false,"is_disabled":false,"rental_uris":{"android":"levelo://app?vid=62210ce0-a99a-4686-acce-34a5c68d8cfd","ios":"levelo://app?vid=62210ce0-a99a-4686-acce-34a5c68d8cfd"},"vehicle_type_id":"4","last_reported":1775158831,"current_range_meters":4800,"station_id":"","pricing_plan_id":"cebpf4jnsgd1na2vs0mg"},{"bike_id":"2be64f19-432b-4d07-98a7-6e9bfd23e981","system_id":"levelo_inurba_marseille","lat":43.2975,"lon":5.42809,"is_reserved":false,"is_disabled":false,"rental_uris":{"android":"levelo://app?vid=2be64f19-432b-4d07-98a7-6e9bfd23e981","ios":"levelo://app?vid=2be64f19-432b-4d07-98a7-6e9bfd23e981"},"vehicle_type_id":"4","last_reported":1775158831,"current_range_meters":4800,"station_id":"st_d3md5207bmas73dh9klg","pricing_plan_id":"cebpf4jnsgd1na2vs0mg"},{"bike_id":"d79043de-c8e5-4bdb-aecd-cc4044485d69","system_id":"levelo_inurba_marseille","lat":43.33144,"lon":5.3769,"is_reserved":false,"is_disabled":false,"rental_uris":{"android":"levelo://app?vid=d79043de-c8e5-4bdb-aecd-cc4044485d69","ios":"levelo://app?vid=d79043de-c8e5-4bdb-aecd-cc4044485d69"},"vehicle_type_id":"4","last_reported":1775158831,"current_range_meters":4800,"station_id":"st_d46cu089ee8s73dldbu0","pricing_plan_id":"cebpf4jnsgd1na2vs0mg"},{"bike_id":"bddf8fd1-7331-43a1-ac28-cb0a5768857b","system_id":"levelo_inurba_marseille","lat":43.25826,"lon":5.39434,"is_reserved":false,"is_disabled":false,"rental_uris":{"android":"levelo://app?vid=bddf8fd1-7331-43a1-ac28-cb0a5768857b","ios":"levelo://app?vid=bddf8fd1-7331-43a1-ac28-cb0a5768857b"},"vehicle_type_id":"4","last_reported":1775158831,"current_range_meters":4800,"station_id":"ce4bhip2rcd13ifvqft0","pricing_plan_id":"cebpf4jnsgd1na2vs0mg"},{"bike_id":"71042f49-d219-44d7-a465-1b2708d0b08f","system_id":"levelo_inurba_marseille","lat":43.2582,"lon":5.39431,"is_reserved":false,"is_disabled":false,"rental_uris":{"android":"levelo://app?vid=71042f49-d219-44d7-a465-1b2708d0b08f","ios":"levelo://app?vid=71042f49-d219-44d7-a465-1b2708d0b08f"},"vehicle_type_id":"4","last_reported":1775158831,"current_range_meters":4800,"station_id":"ce4bhip2rcd13ifvqft0","pricing_plan_id":"cebpf4jnsgd1na2vs0mg"},{"bike_id":"4e0580ab-1d3f-4351-9d1f-882eef6e77e3","system_id":"levelo_inurba_marseille","lat":43.30944,"lon":5.39022,"is_reserved":false,"is_disabled":false,"rental_uris":{"android":"levelo://app?vid=4e0580ab-1d3f-4351-9d1f-882eef6e77e3","ios":"levelo://app?vid=4e0580ab-1d3f-4351-9d1f-882eef6e77e3"},"vehicle_type_id":"4","last_reported":1775158831,"current_range_meters":4800,"station_id":"ce4bgup2rcd13ifvqco0","pricing_plan_id":"cebpf4jnsgd1na2vs0mg"},{"bike_id":"fbbe1406-91df-4405-a07e-79c0426db1c8","system_id":"levelo_inurba_marseille","lat":43.29043,"lon":5.35913,"is_reserved":false,"is_disabled":false,"rental_uris":{"android":"levelo://app?vid=fbbe1406-91df-4405-a07e-79c0426db1c8","ios":"levelo://app?vid=fbbe1406-91df-4405-a07e-79c0426db1c8"},"vehicle_type_id":"4","last_reported":1775158831,"current_range_meters":4800,"station_id":"ce4bha92rcd13ifvqeg0","pricing_plan_id":"cebpf4jnsgd1na2vs0mg"},{"bike_id":"efc353f2-0dfe-4f54-a392-e763623d90f1","system_id":"levelo_inurba_marseille","lat":43.28224,"lon":5.39072,"is_reserved":false,"is_disabled":false,"rental_uris":{"android":"levelo://app?vid=efc353f2-0dfe-4f54-a392-e763623d90f1","ios":"levelo://app?vid=efc353f2-0dfe-4f54-a392-e763623d90f1"},"vehicle_type_id":"4","last_reported":1775158831,"current_range_meters":4800,"station_id":"ce4bhn92rcd13ifvqgsg","pricing_plan_id":"cebpf4jnsgd1na2vs0mg"},{"bike_id":"8a56d2ba-4803-4885-8b9b-b1fb5938eef2","system_id":"levelo_inurba_marseille","lat":43.28371,"lon":5.38123,"is_reserved":false,"is_disabled":false,"rental_uris":{"android":"levelo://app?vid=8a56d2ba-4803-4885-8b9b-b1fb5938eef2","ios":"levelo://app?vid=8a56d2ba-4803-4885-8b9b-b1fb5938eef2"},"vehicle_type_id":"4","last_reported":1775158831,"current_range_meters":4800,"station_id":"ce4bh412rcd13ifvqdr0","pricing_plan_id":"cebpf4jnsgd1na2vs0mg"},{"bike_id":"af3b7885-9564-4817-8ba8-d64aa1f65bbe","system_id":"levelo_inurba_marseille","lat":43.29535,"lon":5.38537,"is_reserved":false,"is_disabled":false,"rental_uris":{"android":"levelo://app?vid=af3b7885-9564-4817-8ba8-d64aa1f65bbe","ios":"levelo://app?vid=af3b7885-9564-4817-8ba8-d64aa1f65bbe"},"vehicle_type_id":"4","last_reported":1775158831,"current_range_meters":4800,"station_id":"ce4bgih2rcd13ifvqba0","pricing_plan_id":"cebpf4jnsgd1na2vs0mg"},{"bike_id":"1ddada69-e90e-42d5-84c6-ca6acdb9f7a2","system_id":"levelo_inurba_marseille","lat":43.30055,"lon":5.43892,"is_reserved":false,"is_disabled":false,"rental_uris":{"android":"levelo://app?vid=1ddada69-e90e-42d5-84c6-ca6acdb9f7a2","ios":"levelo://app?vid=1ddada69-e90e-42d5-84c6-ca6acdb9f7a2"},"vehicle_type_id":"4","last_reported":1775158831,"current_range_meters":5600,"station_id":"","pricing_plan_id":"cebpf4jnsgd1na2vs0mg"},{"bike_id":"3232e747-f464-4ffd-b2da-a4c994c5d251","system_id":"levelo_inurba_marseille","lat":43.31755,"lon":5.39018,"is_reserved":false,"is_disabled":false,"rental_uris":{"android":"levelo://app?vid=3232e747-f464-4ffd-b2da-a4c994c5d251","ios":"levelo://app?vid=3232e747-f464-4ffd-b2da-a4c994c5d251"},"vehicle_type_id":"4","last_reported":1775158831,"current_range_meters":5600,"station_id":"ce4bhqp2rcd13ifvqhng","pricing_plan_id":"cebpf4jnsgd1na2vs0mg"},{"bike_id":"b3c5d317-006e-4edb-82b5-4864bde26e42","system_id":"levelo_inurba_marseille","lat":43.2783,"lon":5.42525,"is_reserved":false,"is_disabled":false,"rental_uris":{"android":"levelo://app?vid=b3c5d317-006e-4edb-82b5-4864bde26e42","ios":"levelo://app?vid=b3c5d317-006e-4edb-82b5-4864bde26e42"},"vehicle_type_id":"4","last_reported":1775158831,"current_range_meters":5600,"station_id":"","pricing_plan_id":"cebpf4jnsgd1na2vs0mg"},{"bike_id":"bd0ac768-7c9c-45a3-a37e-3f8f101dd4fa","system_id":"levelo_inurba_marseille","lat":43.22535,"lon":5.34808,"is_reserved":false,"is_disabled":false,"rental_uris":{"android":"levelo://app?vid=bd0ac768-7c9c-45a3-a37e-3f8f101dd4fa","ios":"levelo://app?vid=bd0ac768-7c9c-45a3-a37e-3f8f101dd4fa"},"vehicle_type_id":"4","last_reported":1775158831,"current_range_meters":5600,"station_id":"st_cvj5dfep6f1abm77gieg","pricing_plan_id":"cebpf4jnsgd1na2vs0mg"},{"bike_id":"58d91ae1-8063-4e7d-870c-f6392dad8fd9","system_id":"levelo_inurba_marseille","lat":43.2847,"lon":5.48404,"is_reserved":false,"is_disabled":false,"rental_uris":{"android":"levelo://app?vid=58d91ae1-8063-4e7d-870c-f6392dad8fd9","ios":"levelo://app?vid=58d91ae1-8063-4e7d-870c-f6392dad8fd9"},"vehicle_type_id":"4","last_reported":1775158831,"current_range_meters":5600,"station_id":"","pricing_plan_id":"cebpf4jnsgd1na2vs0mg"},{"bike_id":"11a3575c-a967-4750-a89c-f077d62c5247","system_id":"levelo_inurba_marseille","lat":43.24677,"lon":5.38145,"is_reserved":false,"is_disabled":false,"rental_uris":{"android":"levelo://app?vid=11a3575c-a967-4750-a89c-f077d62c5247","ios":"levelo://app?vid=11a3575c-a967-4750-a89c-f077d62c5247"},"vehicle_type_id":"4","last_reported":1775158831,"current_range_meters":5600,"station_id":"ce4bhih2rcd13ifvqfr0","pricing_plan_id":"cebpf4jnsgd1na2vs0mg"},{"bike_id":"92fa3c32-ee06-463c-985d-26510959feed","system_id":"levelo_inurba_marseille","lat":43.31689,"lon":5.40467,"is_reserved":false,"is_disabled":false,"rental_uris":{"android":"levelo://app?vid=92fa3c32-ee06-463c-985d-26510959feed","ios":"levelo://app?vid=92fa3c32-ee06-463c-985d-26510959feed"},"vehicle_type_id":"4","last_reported":1775158831,"current_range_meters":5600,"station_id":"ce4bh012rcd13ifvqd00","pricing_plan_id":"cebpf4jnsgd1na2vs0mg"},{"bike_id":"1b7b7219-183c-499c-8a6c-4c48d6910aaa","system_id":"levelo_inurba_marseille","lat":43.29543,"lon":5.42281,"is_reserved":false,"is_disabled":false,"rental_uris":{"android":"levelo://app?vid=1b7b7219-183c-499c-8a6c-4c48d6910aaa","ios":"levelo://app?vid=1b7b7219-183c-499c-8a6c-4c48d6910aaa"},"vehicle_type_id":"4","last_reported":1775158831,"current_range_meters":5600,"station_id":"ce4bhph2rcd13ifvqhdg","pricing_plan_id":"cebpf4jnsgd1na2vs0mg"},{"bike_id":"7c511cba-63ca-44c2-a025-a150c084e6c7","system_id":"levelo_inurba_marseille","lat":43.29595,"lon":5.38082,"is_reserved":false,"is_disabled":false,"rental_uris":{"android":"levelo://app?vid=7c511cba-63ca-44c2-a025-a150c084e6c7","ios":"levelo://app?vid=7c511cba-63ca-44c2-a025-a150c084e6c7"},"vehicle_type_id":"4","last_reported":1775158831,"current_range_meters":5600,"station_id":"ce4bgl12rcd13ifvqbo0","pricing_plan_id":"cebpf4jnsgd1na2vs0mg"},{"bike_id":"b149b05d-17dc-4174-91fd-6a2d9bb13c8f","system_id":"levelo_inurba_marseille","lat":43.31674,"lon":5.38152,"is_reserved":false,"is_disabled":false,"rental_uris":{"android":"levelo://app?vid=b149b05d-17dc-4174-91fd-6a2d9bb13c8f","ios":"levelo://app?vid=b149b05d-17dc-4174-91fd-6a2d9bb13c8f"},"vehicle_type_id":"4","last_reported":1775158831,"current_range_meters":5600,"station_id":"","pricing_plan_id":"cebpf4jnsgd1na2vs0mg"},{"bike_id":"a8f75692-c463-4670-b554-83ce1570c43a","system_id":"levelo_inurba_marseille","lat":43.29244,"lon":5.38431,"is_reserved":false,"is_disabled":false,"rental_uris":{"android":"levelo://app?vid=a8f75692-c463-4670-b554-83ce1570c43a","ios":"levelo://app?vid=a8f75692-c463-4670-b554-83ce1570c43a"},"vehicle_type_id":"4","last_reported":1775158831,"current_range_meters":5600,"station_id":"ce4bh692rcd13ifvqea0","pricing_plan_id":"cebpf4jnsgd1na2vs0mg"},{"bike_id":"0bccd438-ccc6-4db5-a746-92db398465e4","system_id":"levelo_inurba_marseille","lat":43.31441,"lon":5.36983,"is_reserved":false,"is_disabled":false,"rental_uris":{"android":"levelo://app?vid=0bccd438-ccc6-4db5-a746-92db398465e4","ios":"levelo://app?vid=0bccd438-ccc6-4db5-a746-92db398465e4"},"vehicle_type_id":"4","last_reported":1775158831,"current_range_meters":5600,"station_id":"","pricing_plan_id":"cebpf4jnsgd1na2vs0mg"},{"bike_id":"4d5384d3-8484-4fd4-ab3e-42cf8d8ddb2b","system_id":"levelo_inurba_marseille","lat":43.28873,"lon":5.42508,"is_reserved":false,"is_disabled":false,"rental_uris":{"android":"levelo://app?vid=4d5384d3-8484-4fd4-ab3e-42cf8d8ddb2b","ios":"levelo://app?vid=4d5384d3-8484-4fd4-ab3e-42cf8d8ddb2b"},"vehicle_type_id":"4","last_reported":1775158831,"current_range_meters":5600,"station_id":"st_d3b462108ojc7389ooeg","pricing_plan_id":"cebpf4jnsgd1na2vs0mg"},{"bike_id":"ae4544aa-6de5-42f9-80b6-e03ee7a08a7b","system_id":"levelo_inurba_marseille","lat":43.297073,"lon":5.377027,"is_reserved":false,"is_disabled":false,"rental_uris":{"android":"levelo://app?vid=ae4544aa-6de5-42f9-80b6-e03ee7a08a7b","ios":"levelo://app?vid=ae4544aa-6de5-42f9-80b6-e03ee7a08a7b"},"vehicle_type_id":"4","last_reported":1775158831,"current_range_meters":5600,"station_id":"ce4bgkh2rcd13ifvqbl0","pricing_plan_id":"cebpf4jnsgd1na2vs0mg"},{"bike_id":"da8c104f-af21-4b1d-9047-b79ca483b672","system_id":"levelo_inurba_marseille","lat":43.29848,"lon":5.42048,"is_reserved":false,"is_disabled":false,"rental_uris":{"android":"levelo://app?vid=da8c104f-af21-4b1d-9047-b79ca483b672","ios":"levelo://app?vid=da8c104f-af21-4b1d-9047-b79ca483b672"},"vehicle_type_id":"4","last_reported":1775158831,"current_range_meters":5600,"station_id":"","pricing_plan_id":"cebpf4jnsgd1na2vs0mg"},{"bike_id":"01aecd18-45d4-4eef-b486-94b6abd0cca9","system_id":"levelo_inurba_marseille","lat":43.25572,"lon":5.38214,"is_reserved":false,"is_disabled":false,"rental_uris":{"android":"levelo://app?vid=01aecd18-45d4-4eef-b486-94b6abd0cca9","ios":"levelo://app?vid=01aecd18-45d4-4eef-b486-94b6abd0cca9"},"vehicle_type_id":"4","last_reported":1775158831,"current_range_meters":5600,"station_id":"ce4bhih2rcd13ifvqfs0","pricing_plan_id":"cebpf4jnsgd1na2vs0mg"},{"bike_id":"93b54f12-6027-40ee-aaaf-52c4a5342eb2","system_id":"levelo_inurba_marseille","lat":43.2118,"lon":5.35072,"is_reserved":false,"is_disabled":false,"rental_uris":{"android":"levelo://app?vid=93b54f12-6027-40ee-aaaf-52c4a5342eb2","ios":"levelo://app?vid=93b54f12-6027-40ee-aaaf-52c4a5342eb2"},"vehicle_type_id":"4","last_reported":1775158831,"current_range_meters":5600,"station_id":"st_cvj6sg6p6f1abm77japg","pricing_plan_id":"cebpf4jnsgd1na2vs0mg"},{"bike_id":"b520c44c-d570-4b15-a101-7d26cad68f15","system_id":"levelo_inurba_marseille","lat":43.29272,"lon":5.38421,"is_reserved":false,"is_disabled":false,"rental_uris":{"android":"levelo://app?vid=b520c44c-d570-4b15-a101-7d26cad68f15","ios":"levelo://app?vid=b520c44c-d570-4b15-a101-7d26cad68f15"},"vehicle_type_id":"4","last_reported":1775158831,"current_range_meters":5600,"station_id":"ce4bh692rcd13ifvqea0","pricing_plan_id":"cebpf4jnsgd1na2vs0mg"},{"bike_id":"0f3b1995-0310-4503-89c8-21fb7770b31d","system_id":"levelo_inurba_marseille","lat":43.29316,"lon":5.37196,"is_reserved":false,"is_disabled":false,"rental_uris":{"android":"levelo://app?vid=0f3b1995-0310-4503-89c8-21fb7770b31d","ios":"levelo://app?vid=0f3b1995-0310-4503-89c8-21fb7770b31d"},"vehicle_type_id":"4","last_reported":1775158831,"current_range_meters":5600,"station_id":"ce4bgh92rcd13ifvqb40","pricing_plan_id":"cebpf4jnsgd1na2vs0mg"},{"bike_id":"f2d33032-3e8d-47d0-a931-5a7ef951c908","system_id":"levelo_inurba_marseille","lat":43.24811,"lon":5.37448,"is_reserved":false,"is_disabled":false,"rental_uris":{"android":"levelo://app?vid=f2d33032-3e8d-47d0-a931-5a7ef951c908","ios":"levelo://app?vid=f2d33032-3e8d-47d0-a931-5a7ef951c908"},"vehicle_type_id":"4","last_reported":1775158831,"current_range_meters":5600,"station_id":"ce4bhgh2rcd13ifvqfb0","pricing_plan_id":"cebpf4jnsgd1na2vs0mg"},{"bike_id":"2063ff31-6478-4b83-92f8-bef66829973e","system_id":"levelo_inurba_marseille","lat":43.2851,"lon":5.44164,"is_reserved":false,"is_disabled":false,"rental_uris":{"android":"levelo://app?vid=2063ff31-6478-4b83-92f8-bef66829973e","ios":"levelo://app?vid=2063ff31-6478-4b83-92f8-bef66829973e"},"vehicle_type_id":"4","last_reported":1775158831,"current_range_meters":5600,"station_id":"st_d3j3df2ikq2c7380ej80","pricing_plan_id":"cebpf4jnsgd1na2vs0mg"},{"bike_id":"3fcae008-22ed-4534-abce-e4659fa4cdd2","system_id":"levelo_inurba_marseille","lat":43.29626,"lon":5.37714,"is_reserved":false,"is_disabled":false,"rental_uris":{"android":"levelo://app?vid=3fcae008-22ed-4534-abce-e4659fa4cdd2","ios":"levelo://app?vid=3fcae008-22ed-4534-abce-e4659fa4cdd2"},"vehicle_type_id":"4","last_reported":1775158831,"current_range_meters":6000,"station_id":"ce4bgi92rcd13ifvqb90","pricing_plan_id":"cebpf4jnsgd1na2vs0mg"},{"bike_id":"33d8fe3b-51df-4371-9ad9-0047c21810bc","system_id":"levelo_inurba_marseille","lat":43.2927,"lon":5.3844,"is_reserved":false,"is_disabled":false,"rental_uris":{"android":"levelo://app?vid=33d8fe3b-51df-4371-9ad9-0047c21810bc","ios":"levelo://app?vid=33d8fe3b-51df-4371-9ad9-0047c21810bc"},"vehicle_type_id":"4","last_reported":1775158831,"current_range_meters":6000,"station_id":"ce4bh692rcd13ifvqea0","pricing_plan_id":"cebpf4jnsgd1na2vs0mg"},{"bike_id":"6535518c-804f-447b-a494-407b4e1dbc8e","system_id":"levelo_inurba_marseille","lat":43.31195,"lon":5.36881,"is_reserved":false,"is_disabled":false,"rental_uris":{"android":"levelo://app?vid=6535518c-804f-447b-a494-407b4e1dbc8e","ios":"levelo://app?vid=6535518c-804f-447b-a494-407b4e1dbc8e"},"vehicle_type_id":"4","last_reported":1775158831,"current_range_meters":6000,"station_id":"ce4bgl92rcd13ifvqbq0","pricing_plan_id":"cebpf4jnsgd1na2vs0mg"},{"bike_id":"b07c7a9a-56e4-4d8b-9a49-a3a95cb13083","system_id":"levelo_inurba_marseille","lat":43.29536,"lon":5.39029,"is_reserved":false,"is_disabled":false,"rental_uris":{"android":"levelo://app?vid=b07c7a9a-56e4-4d8b-9a49-a3a95cb13083","ios":"levelo://app?vid=b07c7a9a-56e4-4d8b-9a49-a3a95cb13083"},"vehicle_type_id":"4","last_reported":1775158831,"current_range_meters":6000,"station_id":"ce4bh3p2rcd13ifvqdp0","pricing_plan_id":"cebpf4jnsgd1na2vs0mg"},{"bike_id":"75811b58-5c75-4b23-82a7-1134428b9eb5","system_id":"levelo_inurba_marseille","lat":43.29904,"lon":5.39736,"is_reserved":false,"is_disabled":false,"rental_uris":{"android":"levelo://app?vid=75811b58-5c75-4b23-82a7-1134428b9eb5","ios":"levelo://app?vid=75811b58-5c75-4b23-82a7-1134428b9eb5"},"vehicle_type_id":"4","last_reported":1775158831,"current_range_meters":6000,"station_id":"ce4bh0h2rcd13ifvqd50","pricing_plan_id":"cebpf4jnsgd1na2vs0mg"},{"bike_id":"b1cb2378-66e2-4e73-a135-28bf0dec66f1","system_id":"levelo_inurba_marseille","lat":43.31289,"lon":5.44079,"is_reserved":false,"is_disabled":false,"rental_uris":{"android":"levelo://app?vid=b1cb2378-66e2-4e73-a135-28bf0dec66f1","ios":"levelo://app?vid=b1cb2378-66e2-4e73-a135-28bf0dec66f1"},"vehicle_type_id":"4","last_reported":1775158831,"current_range_meters":6000,"station_id":"","pricing_plan_id":"cebpf4jnsgd1na2vs0mg"},{"bike_id":"b3fdb3c6-13b8-4611-957c-1ad249219f8c","system_id":"levelo_inurba_marseille","lat":43.24455,"lon":5.42541,"is_reserved":false,"is_disabled":false,"rental_uris":{"android":"levelo://app?vid=b3fdb3c6-13b8-4611-957c-1ad249219f8c","ios":"levelo://app?vid=b3fdb3c6-13b8-4611-957c-1ad249219f8c"},"vehicle_type_id":"4","last_reported":1775158831,"current_range_meters":6000,"station_id":"st_d4a3vfp97mjs738cd8kg","pricing_plan_id":"cebpf4jnsgd1na2vs0mg"},{"bike_id":"59af559a-c64a-4a65-8006-da8e36a6f86b","system_id":"levelo_inurba_marseille","lat":43.33526,"lon":5.37455,"is_reserved":false,"is_disabled":false,"rental_uris":{"android":"levelo://app?vid=59af559a-c64a-4a65-8006-da8e36a6f86b","ios":"levelo://app?vid=59af559a-c64a-4a65-8006-da8e36a6f86b"},"vehicle_type_id":"4","last_reported":1775158831,"current_range_meters":6000,"station_id":"st_d46tts09ee8s73dlu43g","pricing_plan_id":"cebpf4jnsgd1na2vs0mg"},{"bike_id":"d94c2bb2-1d89-45b8-99c6-0d101ddce72a","system_id":"levelo_inurba_marseille","lat":43.29237,"lon":5.36868,"is_reserved":false,"is_disabled":false,"rental_uris":{"android":"levelo://app?vid=d94c2bb2-1d89-45b8-99c6-0d101ddce72a","ios":"levelo://app?vid=d94c2bb2-1d89-45b8-99c6-0d101ddce72a"},"vehicle_type_id":"4","last_reported":1775158831,"current_range_meters":6000,"station_id":"ce4bhbp2rcd13ifvqesg","pricing_plan_id":"cebpf4jnsgd1na2vs0mg"},{"bike_id":"ed9b602d-a3d1-47fc-a04c-bc64c1d5ed1f","system_id":"levelo_inurba_marseille","lat":43.28646,"lon":5.35085,"is_reserved":false,"is_disabled":false,"rental_uris":{"android":"levelo://app?vid=ed9b602d-a3d1-47fc-a04c-bc64c1d5ed1f","ios":"levelo://app?vid=ed9b602d-a3d1-47fc-a04c-bc64c1d5ed1f"},"vehicle_type_id":"4","last_reported":1775158831,"current_range_meters":6000,"station_id":"ce4bhch2rcd13ifvqeug","pricing_plan_id":"cebpf4jnsgd1na2vs0mg"},{"bike_id":"ab06f0c1-dd3c-4093-aae2-11693a90ca5c","system_id":"levelo_inurba_marseille","lat":43.23959,"lon":5.36632,"is_reserved":false,"is_disabled":false,"rental_uris":{"android":"levelo://app?vid=ab06f0c1-dd3c-4093-aae2-11693a90ca5c","ios":"levelo://app?vid=ab06f0c1-dd3c-4093-aae2-11693a90ca5c"},"vehicle_type_id":"4","last_reported":1775158831,"current_range_meters":6000,"station_id":"ce4bhi12rcd13ifvqfp0","pricing_plan_id":"cebpf4jnsgd1na2vs0mg"},{"bike_id":"d6349826-5510-4834-ae61-5f416883040f","system_id":"levelo_inurba_marseille","lat":43.21754,"lon":5.346,"is_reserved":false,"is_disabled":false,"rental_uris":{"android":"levelo://app?vid=d6349826-5510-4834-ae61-5f416883040f","ios":"levelo://app?vid=d6349826-5510-4834-ae61-5f416883040f"},"vehicle_type_id":"4","last_reported":1775158831,"current_range_meters":6000,"station_id":"st_cvj6r9ubvosntc0bgbag","pricing_plan_id":"cebpf4jnsgd1na2vs0mg"},{"bike_id":"590e4195-ce2d-458c-a615-c8573ca8a5a9","system_id":"levelo_inurba_marseille","lat":43.24383,"lon":5.37055,"is_reserved":false,"is_disabled":false,"rental_uris":{"android":"levelo://app?vid=590e4195-ce2d-458c-a615-c8573ca8a5a9","ios":"levelo://app?vid=590e4195-ce2d-458c-a615-c8573ca8a5a9"},"vehicle_type_id":"4","last_reported":1775158831,"current_range_meters":6000,"station_id":"ce4bhhh2rcd13ifvqfk0","pricing_plan_id":"cebpf4jnsgd1na2vs0mg"},{"bike_id":"d0111825-3017-4e03-aba5-c350420e66fe","system_id":"levelo_inurba_marseille","lat":43.21191,"lon":5.35061,"is_reserved":false,"is_disabled":false,"rental_uris":{"android":"levelo://app?vid=d0111825-3017-4e03-aba5-c350420e66fe","ios":"levelo://app?vid=d0111825-3017-4e03-aba5-c350420e66fe"},"vehicle_type_id":"4","last_reported":1775158831,"current_range_meters":6400,"station_id":"st_cvj6sg6p6f1abm77japg","pricing_plan_id":"cebpf4jnsgd1na2vs0mg"},{"bike_id":"4662ce83-961a-43fe-b5d2-6ce767222e0c","system_id":"levelo_inurba_marseille","lat":43.28609,"lon":5.35108,"is_reserved":false,"is_disabled":false,"rental_uris":{"android":"levelo://app?vid=4662ce83-961a-43fe-b5d2-6ce767222e0c","ios":"levelo://app?vid=4662ce83-961a-43fe-b5d2-6ce767222e0c"},"vehicle_type_id":"4","last_reported":1775158831,"current_range_meters":6400,"station_id":"ce4bhch2rcd13ifvqeug","pricing_plan_id":"cebpf4jnsgd1na2vs0mg"},{"bike_id":"e2d4538e-989f-404e-b5fb-58cfe29ddc03","system_id":"levelo_inurba_marseille","lat":43.24458,"lon":5.42545,"is_reserved":false,"is_disabled":false,"rental_uris":{"android":"levelo://app?vid=e2d4538e-989f-404e-b5fb-58cfe29ddc03","ios":"levelo://app?vid=e2d4538e-989f-404e-b5fb-58cfe29ddc03"},"vehicle_type_id":"4","last_reported":1775158831,"current_range_meters":6400,"station_id":"st_d4a3vfp97mjs738cd8kg","pricing_plan_id":"cebpf4jnsgd1na2vs0mg"},{"bike_id":"7d8f3bc3-46ff-4802-82b9-2bf86ded1c15","system_id":"levelo_inurba_marseille","lat":43.3374,"lon":5.37465,"is_reserved":false,"is_disabled":true,"rental_uris":{"android":"levelo://app?vid=7d8f3bc3-46ff-4802-82b9-2bf86ded1c15","ios":"levelo://app?vid=7d8f3bc3-46ff-4802-82b9-2bf86ded1c15"},"vehicle_type_id":"4","last_reported":1775158831,"current_range_meters":6400,"station_id":"","pricing_plan_id":"cebpf4jnsgd1na2vs0mg"},{"bike_id":"63c9ae9e-1a6f-4afd-86a7-28ad8e02e6d9","system_id":"levelo_inurba_marseille","lat":43.28847,"lon":5.35823,"is_reserved":false,"is_disabled":false,"rental_uris":{"android":"levelo://app?vid=63c9ae9e-1a6f-4afd-86a7-28ad8e02e6d9","ios":"levelo://app?vid=63c9ae9e-1a6f-4afd-86a7-28ad8e02e6d9"},"vehicle_type_id":"4","last_reported":1775158831,"current_range_meters":6400,"station_id":"ce4bhb12rcd13ifvqem0","pricing_plan_id":"cebpf4jnsgd1na2vs0mg"},{"bike_id":"55891376-4c43-4740-8f98-909bb9d7bc3e","system_id":"levelo_inurba_marseille","lat":43.29433,"lon":5.39748,"is_reserved":false,"is_disabled":false,"rental_uris":{"android":"levelo://app?vid=55891376-4c43-4740-8f98-909bb9d7bc3e","ios":"levelo://app?vid=55891376-4c43-4740-8f98-909bb9d7bc3e"},"vehicle_type_id":"4","last_reported":1775158831,"current_range_meters":6400,"station_id":"ce4bh3h2rcd13ifvqdo0","pricing_plan_id":"cebpf4jnsgd1na2vs0mg"},{"bike_id":"bf89aef2-d648-4271-8dd2-5cd38cc116f7","system_id":"levelo_inurba_marseille","lat":43.29893,"lon":5.397,"is_reserved":false,"is_disabled":false,"rental_uris":{"android":"levelo://app?vid=bf89aef2-d648-4271-8dd2-5cd38cc116f7","ios":"levelo://app?vid=bf89aef2-d648-4271-8dd2-5cd38cc116f7"},"vehicle_type_id":"4","last_reported":1775158831,"current_range_meters":6400,"station_id":"ce4bh0h2rcd13ifvqd50","pricing_plan_id":"cebpf4jnsgd1na2vs0mg"},{"bike_id":"a3e023e2-d4d4-4709-b2ae-04a06b5ecc63","system_id":"levelo_inurba_marseille","lat":43.22554,"lon":5.41626,"is_reserved":false,"is_disabled":false,"rental_uris":{"android":"levelo://app?vid=a3e023e2-d4d4-4709-b2ae-04a06b5ecc63","ios":"levelo://app?vid=a3e023e2-d4d4-4709-b2ae-04a06b5ecc63"},"vehicle_type_id":"4","last_reported":1775158831,"current_range_meters":6400,"station_id":"st_d2o4gvlbi1j2169b742g","pricing_plan_id":"cebpf4jnsgd1na2vs0mg"},{"bike_id":"f62ff8d5-3d47-4bb4-906e-344e9b5207aa","system_id":"levelo_inurba_marseille","lat":43.21185,"lon":5.35079,"is_reserved":false,"is_disabled":false,"rental_uris":{"android":"levelo://app?vid=f62ff8d5-3d47-4bb4-906e-344e9b5207aa","ios":"levelo://app?vid=f62ff8d5-3d47-4bb4-906e-344e9b5207aa"},"vehicle_type_id":"4","last_reported":1775158831,"current_range_meters":6400,"station_id":"st_cvj6sg6p6f1abm77japg","pricing_plan_id":"cebpf4jnsgd1na2vs0mg"},{"bike_id":"a0a1c86e-5fa0-4e0f-a8f2-d2edfc092585","system_id":"levelo_inurba_marseille","lat":43.28092,"lon":5.37825,"is_reserved":false,"is_disabled":false,"rental_uris":{"android":"levelo://app?vid=a0a1c86e-5fa0-4e0f-a8f2-d2edfc092585","ios":"levelo://app?vid=a0a1c86e-5fa0-4e0f-a8f2-d2edfc092585"},"vehicle_type_id":"4","last_reported":1775158831,"current_range_meters":6400,"station_id":"ce4bha12rcd13ifvqee0","pricing_plan_id":"cebpf4jnsgd1na2vs0mg"},{"bike_id":"3775e783-3ba6-424d-9be0-4487ee9501fa","system_id":"levelo_inurba_marseille","lat":43.29526,"lon":5.38538,"is_reserved":false,"is_disabled":false,"rental_uris":{"android":"levelo://app?vid=3775e783-3ba6-424d-9be0-4487ee9501fa","ios":"levelo://app?vid=3775e783-3ba6-424d-9be0-4487ee9501fa"},"vehicle_type_id":"4","last_reported":1775158831,"current_range_meters":6400,"station_id":"ce4bgih2rcd13ifvqba0","pricing_plan_id":"cebpf4jnsgd1na2vs0mg"},{"bike_id":"c6906259-9dba-4faa-8962-1326b130a8c0","system_id":"levelo_inurba_marseille","lat":43.23175,"lon":5.39986,"is_reserved":false,"is_disabled":false,"rental_uris":{"android":"levelo://app?vid=c6906259-9dba-4faa-8962-1326b130a8c0","ios":"levelo://app?vid=c6906259-9dba-4faa-8962-1326b130a8c0"},"vehicle_type_id":"4","last_reported":1775158831,"current_range_meters":6400,"station_id":"ce4bhn12rcd13ifvqgqg","pricing_plan_id":"cebpf4jnsgd1na2vs0mg"},{"bike_id":"bb435da3-856a-4144-9704-d052e66aeded","system_id":"levelo_inurba_marseille","lat":43.33153,"lon":5.37705,"is_reserved":false,"is_disabled":false,"rental_uris":{"android":"levelo://app?vid=bb435da3-856a-4144-9704-d052e66aeded","ios":"levelo://app?vid=bb435da3-856a-4144-9704-d052e66aeded"},"vehicle_type_id":"4","last_reported":1775158831,"current_range_meters":6400,"station_id":"st_d46cu089ee8s73dldbu0","pricing_plan_id":"cebpf4jnsgd1na2vs0mg"},{"bike_id":"63e9c27e-df35-4221-a72b-372775ab28af","system_id":"levelo_inurba_marseille","lat":43.24655,"lon":5.3889,"is_reserved":false,"is_disabled":false,"rental_uris":{"android":"levelo://app?vid=63e9c27e-df35-4221-a72b-372775ab28af","ios":"levelo://app?vid=63e9c27e-df35-4221-a72b-372775ab28af"},"vehicle_type_id":"4","last_reported":1775158831,"current_range_meters":6400,"station_id":"ce4bhg12rcd13ifvqf60","pricing_plan_id":"cebpf4jnsgd1na2vs0mg"},{"bike_id":"1c557fce-b4bd-4d94-a79d-595dd1a02dc7","system_id":"levelo_inurba_marseille","lat":43.31337,"lon":5.39713,"is_reserved":false,"is_disabled":false,"rental_uris":{"android":"levelo://app?vid=1c557fce-b4bd-4d94-a79d-595dd1a02dc7","ios":"levelo://app?vid=1c557fce-b4bd-4d94-a79d-595dd1a02dc7"},"vehicle_type_id":"4","last_reported":1775158831,"current_range_meters":6400,"station_id":"ce4bgvp2rcd13ifvqcu0","pricing_plan_id":"cebpf4jnsgd1na2vs0mg"},{"bike_id":"53f1d28b-559d-4aa7-a3f8-4e3935f7c03a","system_id":"levelo_inurba_marseille","lat":43.3063,"lon":5.42935,"is_reserved":false,"is_disabled":false,"rental_uris":{"android":"levelo://app?vid=53f1d28b-559d-4aa7-a3f8-4e3935f7c03a","ios":"levelo://app?vid=53f1d28b-559d-4aa7-a3f8-4e3935f7c03a"},"vehicle_type_id":"4","last_reported":1775158831,"current_range_meters":6400,"station_id":"","pricing_plan_id":"cebpf4jnsgd1na2vs0mg"},{"bike_id":"094d9b13-1962-4687-a19b-a28fbe36c836","system_id":"levelo_inurba_marseille","lat":43.30291,"lon":5.36863,"is_reserved":false,"is_disabled":false,"rental_uris":{"android":"levelo://app?vid=094d9b13-1962-4687-a19b-a28fbe36c836","ios":"levelo://app?vid=094d9b13-1962-4687-a19b-a28fbe36c836"},"vehicle_type_id":"4","last_reported":1775158831,"current_range_meters":6800,"station_id":"ce4bgqh2rcd13ifvqc5g","pricing_plan_id":"cebpf4jnsgd1na2vs0mg"},{"bike_id":"5967d9f0-a052-4ec4-a69f-dcb372f196c0","system_id":"levelo_inurba_marseille","lat":43.26577,"lon":5.37308,"is_reserved":false,"is_disabled":false,"rental_uris":{"android":"levelo://app?vid=5967d9f0-a052-4ec4-a69f-dcb372f196c0","ios":"levelo://app?vid=5967d9f0-a052-4ec4-a69f-dcb372f196c0"},"vehicle_type_id":"4","last_reported":1775158831,"current_range_meters":6800,"station_id":"ce4bhg12rcd13ifvqf70","pricing_plan_id":"cebpf4jnsgd1na2vs0mg"},{"bike_id":"905289e5-7113-4e8f-9100-1778260d107a","system_id":"levelo_inurba_marseille","lat":43.24398,"lon":5.37063,"is_reserved":false,"is_disabled":false,"rental_uris":{"android":"levelo://app?vid=905289e5-7113-4e8f-9100-1778260d107a","ios":"levelo://app?vid=905289e5-7113-4e8f-9100-1778260d107a"},"vehicle_type_id":"4","last_reported":1775158831,"current_range_meters":6800,"station_id":"ce4bhhh2rcd13ifvqfk0","pricing_plan_id":"cebpf4jnsgd1na2vs0mg"},{"bike_id":"fc2e91ed-7416-4ad4-908c-4d6cf0d24d2b","system_id":"levelo_inurba_marseille","lat":43.28123,"lon":5.38294,"is_reserved":false,"is_disabled":false,"rental_uris":{"android":"levelo://app?vid=fc2e91ed-7416-4ad4-908c-4d6cf0d24d2b","ios":"levelo://app?vid=fc2e91ed-7416-4ad4-908c-4d6cf0d24d2b"},"vehicle_type_id":"4","last_reported":1775158831,"current_range_meters":6800,"station_id":"","pricing_plan_id":"cebpf4jnsgd1na2vs0mg"},{"bike_id":"f215354e-1abf-42cb-8f71-ac68f6fa8fa7","system_id":"levelo_inurba_marseille","lat":43.24477,"lon":5.42527,"is_reserved":false,"is_disabled":false,"rental_uris":{"android":"levelo://app?vid=f215354e-1abf-42cb-8f71-ac68f6fa8fa7","ios":"levelo://app?vid=f215354e-1abf-42cb-8f71-ac68f6fa8fa7"},"vehicle_type_id":"4","last_reported":1775158831,"current_range_meters":6800,"station_id":"st_d4a3vfp97mjs738cd8kg","pricing_plan_id":"cebpf4jnsgd1na2vs0mg"},{"bike_id":"baaa819f-f621-4bbc-b8f6-009cbb2eb24c","system_id":"levelo_inurba_marseille","lat":43.23193,"lon":5.35543,"is_reserved":false,"is_disabled":false,"rental_uris":{"android":"levelo://app?vid=baaa819f-f621-4bbc-b8f6-009cbb2eb24c","ios":"levelo://app?vid=baaa819f-f621-4bbc-b8f6-009cbb2eb24c"},"vehicle_type_id":"4","last_reported":1775158831,"current_range_meters":6800,"station_id":"ce4bhu92rcd13ifvqi70","pricing_plan_id":"cebpf4jnsgd1na2vs0mg"},{"bike_id":"993554b6-0de0-483c-81a8-74355d0900be","system_id":"levelo_inurba_marseille","lat":43.29632,"lon":5.38095,"is_reserved":false,"is_disabled":false,"rental_uris":{"android":"levelo://app?vid=993554b6-0de0-483c-81a8-74355d0900be","ios":"levelo://app?vid=993554b6-0de0-483c-81a8-74355d0900be"},"vehicle_type_id":"4","last_reported":1775158831,"current_range_meters":6800,"station_id":"ce4bgl12rcd13ifvqbo0","pricing_plan_id":"cebpf4jnsgd1na2vs0mg"},{"bike_id":"9437351f-0f98-41d5-8a9c-17f887c42bca","system_id":"levelo_inurba_marseille","lat":43.24174,"lon":5.36386,"is_reserved":false,"is_disabled":false,"rental_uris":{"android":"levelo://app?vid=9437351f-0f98-41d5-8a9c-17f887c42bca","ios":"levelo://app?vid=9437351f-0f98-41d5-8a9c-17f887c42bca"},"vehicle_type_id":"4","last_reported":1775158831,"current_range_meters":6800,"station_id":"cpo36qri1sfpv3e86is0","pricing_plan_id":"cebpf4jnsgd1na2vs0mg"},{"bike_id":"24b4a632-ea81-4571-8d62-df7eccd1465c","system_id":"levelo_inurba_marseille","lat":43.31533,"lon":5.38046,"is_reserved":false,"is_disabled":false,"rental_uris":{"android":"levelo://app?vid=24b4a632-ea81-4571-8d62-df7eccd1465c","ios":"levelo://app?vid=24b4a632-ea81-4571-8d62-df7eccd1465c"},"vehicle_type_id":"4","last_reported":1775158831,"current_range_meters":6800,"station_id":"ce4bhsp2rcd13ifvqi50","pricing_plan_id":"cebpf4jnsgd1na2vs0mg"},{"bike_id":"19fba8ba-0d93-4b29-9007-4236625390df","system_id":"levelo_inurba_marseille","lat":43.22523,"lon":5.34836,"is_reserved":false,"is_disabled":false,"rental_uris":{"android":"levelo://app?vid=19fba8ba-0d93-4b29-9007-4236625390df","ios":"levelo://app?vid=19fba8ba-0d93-4b29-9007-4236625390df"},"vehicle_type_id":"4","last_reported":1775158831,"current_range_meters":6800,"station_id":"st_cvj5dfep6f1abm77gieg","pricing_plan_id":"cebpf4jnsgd1na2vs0mg"},{"bike_id":"ab186915-48fd-45cf-91ed-212c916c6cea","system_id":"levelo_inurba_marseille","lat":43.29873,"lon":5.39722,"is_reserved":false,"is_disabled":false,"rental_uris":{"android":"levelo://app?vid=ab186915-48fd-45cf-91ed-212c916c6cea","ios":"levelo://app?vid=ab186915-48fd-45cf-91ed-212c916c6cea"},"vehicle_type_id":"4","last_reported":1775158831,"current_range_meters":6800,"station_id":"ce4bh0h2rcd13ifvqd50","pricing_plan_id":"cebpf4jnsgd1na2vs0mg"},{"bike_id":"ea0e9256-ea94-4ada-ae35-6834a56de5c4","system_id":"levelo_inurba_marseille","lat":43.29553,"lon":5.38525,"is_reserved":false,"is_disabled":false,"rental_uris":{"android":"levelo://app?vid=ea0e9256-ea94-4ada-ae35-6834a56de5c4","ios":"levelo://app?vid=ea0e9256-ea94-4ada-ae35-6834a56de5c4"},"vehicle_type_id":"4","last_reported":1775158831,"current_range_meters":6800,"station_id":"ce4bgih2rcd13ifvqba0","pricing_plan_id":"cebpf4jnsgd1na2vs0mg"},{"bike_id":"b871d952-66ad-4808-9f40-091399c741cc","system_id":"levelo_inurba_marseille","lat":43.29258,"lon":5.38431,"is_reserved":false,"is_disabled":false,"rental_uris":{"android":"levelo://app?vid=b871d952-66ad-4808-9f40-091399c741cc","ios":"levelo://app?vid=b871d952-66ad-4808-9f40-091399c741cc"},"vehicle_type_id":"4","last_reported":1775158831,"current_range_meters":6800,"station_id":"ce4bh692rcd13ifvqea0","pricing_plan_id":"cebpf4jnsgd1na2vs0mg"},{"bike_id":"13713002-484d-442d-8d88-c09ee25b68e4","system_id":"levelo_inurba_marseille","lat":43.27794,"lon":5.42368,"is_reserved":false,"is_disabled":false,"rental_uris":{"android":"levelo://app?vid=13713002-484d-442d-8d88-c09ee25b68e4","ios":"levelo://app?vid=13713002-484d-442d-8d88-c09ee25b68e4"},"vehicle_type_id":"4","last_reported":1775158831,"current_range_meters":6800,"station_id":"","pricing_plan_id":"cebpf4jnsgd1na2vs0mg"},{"bike_id":"bf8f4db2-85c0-4c86-a91b-a407ee325b81","system_id":"levelo_inurba_marseille","lat":43.26261,"lon":5.37895,"is_reserved":false,"is_disabled":false,"rental_uris":{"android":"levelo://app?vid=bf8f4db2-85c0-4c86-a91b-a407ee325b81","ios":"levelo://app?vid=bf8f4db2-85c0-4c86-a91b-a407ee325b81"},"vehicle_type_id":"4","last_reported":1775158831,"current_range_meters":6800,"station_id":"ce4bhjp2rcd13ifvqg90","pricing_plan_id":"cebpf4jnsgd1na2vs0mg"},{"bike_id":"0e3f868e-89ca-42b9-95dc-5f74491a2e36","system_id":"levelo_inurba_marseille","lat":43.32077,"lon":5.41519,"is_reserved":false,"is_disabled":false,"rental_uris":{"android":"levelo://app?vid=0e3f868e-89ca-42b9-95dc-5f74491a2e36","ios":"levelo://app?vid=0e3f868e-89ca-42b9-95dc-5f74491a2e36"},"vehicle_type_id":"4","last_reported":1775158831,"current_range_meters":6800,"station_id":"ce4bhq92rcd13ifvqhkg","pricing_plan_id":"cebpf4jnsgd1na2vs0mg"},{"bike_id":"522fc102-4edd-43cc-a67c-66222ad82f02","system_id":"levelo_inurba_marseille","lat":43.31346,"lon":5.40322,"is_reserved":false,"is_disabled":false,"rental_uris":{"android":"levelo://app?vid=522fc102-4edd-43cc-a67c-66222ad82f02","ios":"levelo://app?vid=522fc102-4edd-43cc-a67c-66222ad82f02"},"vehicle_type_id":"4","last_reported":1775158831,"current_range_meters":6800,"station_id":"","pricing_plan_id":"cebpf4jnsgd1na2vs0mg"},{"bike_id":"1d92dec5-88a1-4f6e-bd5f-0d081647078c","system_id":"levelo_inurba_marseille","lat":43.24677,"lon":5.38153,"is_reserved":false,"is_disabled":false,"rental_uris":{"android":"levelo://app?vid=1d92dec5-88a1-4f6e-bd5f-0d081647078c","ios":"levelo://app?vid=1d92dec5-88a1-4f6e-bd5f-0d081647078c"},"vehicle_type_id":"4","last_reported":1775158831,"current_range_meters":6800,"station_id":"ce4bhih2rcd13ifvqfr0","pricing_plan_id":"cebpf4jnsgd1na2vs0mg"},{"bike_id":"40772bc7-bdb3-4c62-82d1-940942c9d733","system_id":"levelo_inurba_marseille","lat":43.28473,"lon":5.38408,"is_reserved":false,"is_disabled":false,"rental_uris":{"android":"levelo://app?vid=40772bc7-bdb3-4c62-82d1-940942c9d733","ios":"levelo://app?vid=40772bc7-bdb3-4c62-82d1-940942c9d733"},"vehicle_type_id":"4","last_reported":1775158831,"current_range_meters":6800,"station_id":"ce4bh512rcd13ifvqe3g","pricing_plan_id":"cebpf4jnsgd1na2vs0mg"},{"bike_id":"922a8619-df87-4e6f-a3d8-5984f3e4353f","system_id":"levelo_inurba_marseille","lat":43.244,"lon":5.37049,"is_reserved":false,"is_disabled":false,"rental_uris":{"android":"levelo://app?vid=922a8619-df87-4e6f-a3d8-5984f3e4353f","ios":"levelo://app?vid=922a8619-df87-4e6f-a3d8-5984f3e4353f"},"vehicle_type_id":"4","last_reported":1775158831,"current_range_meters":6800,"station_id":"ce4bhhh2rcd13ifvqfk0","pricing_plan_id":"cebpf4jnsgd1na2vs0mg"},{"bike_id":"ba33614c-a307-4e62-b0d9-643b797f7d62","system_id":"levelo_inurba_marseille","lat":43.30206,"lon":5.38528,"is_reserved":false,"is_disabled":false,"rental_uris":{"android":"levelo://app?vid=ba33614c-a307-4e62-b0d9-643b797f7d62","ios":"levelo://app?vid=ba33614c-a307-4e62-b0d9-643b797f7d62"},"vehicle_type_id":"4","last_reported":1775158831,"current_range_meters":6800,"station_id":"","pricing_plan_id":"cebpf4jnsgd1na2vs0mg"},{"bike_id":"7a5a210d-61fc-4d03-a557-eb846b17279b","system_id":"levelo_inurba_marseille","lat":43.28605,"lon":5.44605,"is_reserved":false,"is_disabled":false,"rental_uris":{"android":"levelo://app?vid=7a5a210d-61fc-4d03-a557-eb846b17279b","ios":"levelo://app?vid=7a5a210d-61fc-4d03-a557-eb846b17279b"},"vehicle_type_id":"4","last_reported":1775158831,"current_range_meters":6800,"station_id":"","pricing_plan_id":"cebpf4jnsgd1na2vs0mg"},{"bike_id":"5a04ac0a-e794-433d-845f-7f49f3fdb206","system_id":"levelo_inurba_marseille","lat":43.25339,"lon":5.42171,"is_reserved":false,"is_disabled":false,"rental_uris":{"android":"levelo://app?vid=5a04ac0a-e794-433d-845f-7f49f3fdb206","ios":"levelo://app?vid=5a04ac0a-e794-433d-845f-7f49f3fdb206"},"vehicle_type_id":"4","last_reported":1775158831,"current_range_meters":6800,"station_id":"st_d2m65c5bi1j21697t3ng","pricing_plan_id":"cebpf4jnsgd1na2vs0mg"},{"bike_id":"1884c59e-a99f-4d5c-aef9-79f137f6ca4e","system_id":"levelo_inurba_marseille","lat":43.29304,"lon":5.37459,"is_reserved":false,"is_disabled":false,"rental_uris":{"android":"levelo://app?vid=1884c59e-a99f-4d5c-aef9-79f137f6ca4e","ios":"levelo://app?vid=1884c59e-a99f-4d5c-aef9-79f137f6ca4e"},"vehicle_type_id":"4","last_reported":1775158831,"current_range_meters":6800,"station_id":"ce4bgi12rcd13ifvqb70","pricing_plan_id":"cebpf4jnsgd1na2vs0mg"},{"bike_id":"b17c4f99-f264-4929-869c-2e7e7176ce13","system_id":"levelo_inurba_marseille","lat":43.28694,"lon":5.38657,"is_reserved":false,"is_disabled":true,"rental_uris":{"android":"levelo://app?vid=b17c4f99-f264-4929-869c-2e7e7176ce13","ios":"levelo://app?vid=b17c4f99-f264-4929-869c-2e7e7176ce13"},"vehicle_type_id":"4","last_reported":1775158831,"current_range_meters":6800,"station_id":"ce4bh492rcd13ifvqdug","pricing_plan_id":"cebpf4jnsgd1na2vs0mg"},{"bike_id":"caa77e4c-841d-4bc9-8e83-2a6554a5f68e","system_id":"levelo_inurba_marseille","lat":43.31615,"lon":5.37857,"is_reserved":false,"is_disabled":false,"rental_uris":{"android":"levelo://app?vid=caa77e4c-841d-4bc9-8e83-2a6554a5f68e","ios":"levelo://app?vid=caa77e4c-841d-4bc9-8e83-2a6554a5f68e"},"vehicle_type_id":"4","last_reported":1775158831,"current_range_meters":6800,"station_id":"","pricing_plan_id":"cebpf4jnsgd1na2vs0mg"},{"bike_id":"2df0a506-ccdd-4065-b1ed-a07d5431b76f","system_id":"levelo_inurba_marseille","lat":43.29614,"lon":5.37713,"is_reserved":false,"is_disabled":false,"rental_uris":{"android":"levelo://app?vid=2df0a506-ccdd-4065-b1ed-a07d5431b76f","ios":"levelo://app?vid=2df0a506-ccdd-4065-b1ed-a07d5431b76f"},"vehicle_type_id":"4","last_reported":1775158831,"current_range_meters":7200,"station_id":"ce4bgi92rcd13ifvqb90","pricing_plan_id":"cebpf4jnsgd1na2vs0mg"},{"bike_id":"a26e0612-5996-4080-8567-451a7c6785da","system_id":"levelo_inurba_marseille","lat":43.28492,"lon":5.48397,"is_reserved":false,"is_disabled":false,"rental_uris":{"android":"levelo://app?vid=a26e0612-5996-4080-8567-451a7c6785da","ios":"levelo://app?vid=a26e0612-5996-4080-8567-451a7c6785da"},"vehicle_type_id":"4","last_reported":1775158831,"current_range_meters":7200,"station_id":"","pricing_plan_id":"cebpf4jnsgd1na2vs0mg"},{"bike_id":"8e104806-29a7-4af0-a9c9-edf81a012abc","system_id":"levelo_inurba_marseille","lat":43.29265,"lon":5.38412,"is_reserved":false,"is_disabled":false,"rental_uris":{"android":"levelo://app?vid=8e104806-29a7-4af0-a9c9-edf81a012abc","ios":"levelo://app?vid=8e104806-29a7-4af0-a9c9-edf81a012abc"},"vehicle_type_id":"4","last_reported":1775158831,"current_range_meters":7200,"station_id":"ce4bh692rcd13ifvqea0","pricing_plan_id":"cebpf4jnsgd1na2vs0mg"},{"bike_id":"ebf8d41b-af9e-48cd-b4ac-c559138fc501","system_id":"levelo_inurba_marseille","lat":43.24179,"lon":5.3639,"is_reserved":false,"is_disabled":false,"rental_uris":{"android":"levelo://app?vid=ebf8d41b-af9e-48cd-b4ac-c559138fc501","ios":"levelo://app?vid=ebf8d41b-af9e-48cd-b4ac-c559138fc501"},"vehicle_type_id":"4","last_reported":1775158831,"current_range_meters":7200,"station_id":"cpo36qri1sfpv3e86is0","pricing_plan_id":"cebpf4jnsgd1na2vs0mg"},{"bike_id":"8ad91a42-b4c8-4044-99d3-7cbe628645b3","system_id":"levelo_inurba_marseille","lat":43.22551,"lon":5.41665,"is_reserved":false,"is_disabled":false,"rental_uris":{"android":"levelo://app?vid=8ad91a42-b4c8-4044-99d3-7cbe628645b3","ios":"levelo://app?vid=8ad91a42-b4c8-4044-99d3-7cbe628645b3"},"vehicle_type_id":"4","last_reported":1775158831,"current_range_meters":7200,"station_id":"st_d2o4gvlbi1j2169b742g","pricing_plan_id":"cebpf4jnsgd1na2vs0mg"},{"bike_id":"2abcb767-9ebe-435e-a819-a1751dc21f03","system_id":"levelo_inurba_marseille","lat":43.31356,"lon":5.39707,"is_reserved":false,"is_disabled":false,"rental_uris":{"android":"levelo://app?vid=2abcb767-9ebe-435e-a819-a1751dc21f03","ios":"levelo://app?vid=2abcb767-9ebe-435e-a819-a1751dc21f03"},"vehicle_type_id":"4","last_reported":1775158831,"current_range_meters":7200,"station_id":"ce4bgvp2rcd13ifvqcu0","pricing_plan_id":"cebpf4jnsgd1na2vs0mg"},{"bike_id":"240fdd76-b302-4366-927f-c046ecd6469b","system_id":"levelo_inurba_marseille","lat":43.287,"lon":5.46674,"is_reserved":false,"is_disabled":false,"rental_uris":{"android":"levelo://app?vid=240fdd76-b302-4366-927f-c046ecd6469b","ios":"levelo://app?vid=240fdd76-b302-4366-927f-c046ecd6469b"},"vehicle_type_id":"4","last_reported":1775158831,"current_range_meters":7200,"station_id":"st_d6tc3vkotcvc738tfjhg","pricing_plan_id":"cebpf4jnsgd1na2vs0mg"},{"bike_id":"229f0e67-0671-4c17-8f2a-9394f3ccb1c5","system_id":"levelo_inurba_marseille","lat":43.24386,"lon":5.37039,"is_reserved":false,"is_disabled":false,"rental_uris":{"android":"levelo://app?vid=229f0e67-0671-4c17-8f2a-9394f3ccb1c5","ios":"levelo://app?vid=229f0e67-0671-4c17-8f2a-9394f3ccb1c5"},"vehicle_type_id":"4","last_reported":1775158831,"current_range_meters":7200,"station_id":"ce4bhhh2rcd13ifvqfk0","pricing_plan_id":"cebpf4jnsgd1na2vs0mg"},{"bike_id":"e13a907f-aa7a-4e1c-87b8-2a67461d84c1","system_id":"levelo_inurba_marseille","lat":43.29983,"lon":5.38509,"is_reserved":false,"is_disabled":false,"rental_uris":{"android":"levelo://app?vid=e13a907f-aa7a-4e1c-87b8-2a67461d84c1","ios":"levelo://app?vid=e13a907f-aa7a-4e1c-87b8-2a67461d84c1"},"vehicle_type_id":"4","last_reported":1775158831,"current_range_meters":7200,"station_id":"ce4bgj92rcd13ifvqbd0","pricing_plan_id":"cebpf4jnsgd1na2vs0mg"},{"bike_id":"4806d180-f360-4add-becf-82d18feb28c6","system_id":"levelo_inurba_marseille","lat":43.32672,"lon":5.38711,"is_reserved":false,"is_disabled":false,"rental_uris":{"android":"levelo://app?vid=4806d180-f360-4add-becf-82d18feb28c6","ios":"levelo://app?vid=4806d180-f360-4add-becf-82d18feb28c6"},"vehicle_type_id":"4","last_reported":1775158831,"current_range_meters":7200,"station_id":"","pricing_plan_id":"cebpf4jnsgd1na2vs0mg"},{"bike_id":"3d752b28-34d2-4eb7-b5bc-b46156d69f8b","system_id":"levelo_inurba_marseille","lat":43.29703,"lon":5.37697,"is_reserved":false,"is_disabled":false,"rental_uris":{"android":"levelo://app?vid=3d752b28-34d2-4eb7-b5bc-b46156d69f8b","ios":"levelo://app?vid=3d752b28-34d2-4eb7-b5bc-b46156d69f8b"},"vehicle_type_id":"4","last_reported":1775158831,"current_range_meters":7200,"station_id":"ce4bgkh2rcd13ifvqbl0","pricing_plan_id":"cebpf4jnsgd1na2vs0mg"},{"bike_id":"0cfb8b93-62d3-455d-8ddc-2a098cd03197","system_id":"levelo_inurba_marseille","lat":43.3235,"lon":5.36735,"is_reserved":false,"is_disabled":false,"rental_uris":{"android":"levelo://app?vid=0cfb8b93-62d3-455d-8ddc-2a098cd03197","ios":"levelo://app?vid=0cfb8b93-62d3-455d-8ddc-2a098cd03197"},"vehicle_type_id":"4","last_reported":1775158831,"current_range_meters":7200,"station_id":"ce4bhsh2rcd13ifvqi2g","pricing_plan_id":"cebpf4jnsgd1na2vs0mg"},{"bike_id":"81b4d892-487b-450d-bab6-1da02e3d4485","system_id":"levelo_inurba_marseille","lat":43.28415,"lon":5.35003,"is_reserved":false,"is_disabled":false,"rental_uris":{"android":"levelo://app?vid=81b4d892-487b-450d-bab6-1da02e3d4485","ios":"levelo://app?vid=81b4d892-487b-450d-bab6-1da02e3d4485"},"vehicle_type_id":"4","last_reported":1775158831,"current_range_meters":7200,"station_id":"ce4bhbh2rcd13ifvqepg","pricing_plan_id":"cebpf4jnsgd1na2vs0mg"},{"bike_id":"ff259b83-c24b-48cf-bb19-caebf228d015","system_id":"levelo_inurba_marseille","lat":43.24377,"lon":5.37058,"is_reserved":false,"is_disabled":false,"rental_uris":{"android":"levelo://app?vid=ff259b83-c24b-48cf-bb19-caebf228d015","ios":"levelo://app?vid=ff259b83-c24b-48cf-bb19-caebf228d015"},"vehicle_type_id":"4","last_reported":1775158831,"current_range_meters":7200,"station_id":"ce4bhhh2rcd13ifvqfk0","pricing_plan_id":"cebpf4jnsgd1na2vs0mg"},{"bike_id":"5048113e-5dbe-46f9-b11e-5d5b61e20190","system_id":"levelo_inurba_marseille","lat":43.29733,"lon":5.3651,"is_reserved":false,"is_disabled":false,"rental_uris":{"android":"levelo://app?vid=5048113e-5dbe-46f9-b11e-5d5b61e20190","ios":"levelo://app?vid=5048113e-5dbe-46f9-b11e-5d5b61e20190"},"vehicle_type_id":"4","last_reported":1775158831,"current_range_meters":7200,"station_id":"","pricing_plan_id":"cebpf4jnsgd1na2vs0mg"},{"bike_id":"f98e4f88-8b4b-4518-8d83-cba82e19aac5","system_id":"levelo_inurba_marseille","lat":43.2953,"lon":5.3867,"is_reserved":false,"is_disabled":false,"rental_uris":{"android":"levelo://app?vid=f98e4f88-8b4b-4518-8d83-cba82e19aac5","ios":"levelo://app?vid=f98e4f88-8b4b-4518-8d83-cba82e19aac5"},"vehicle_type_id":"4","last_reported":1775158831,"current_range_meters":7200,"station_id":"","pricing_plan_id":"cebpf4jnsgd1na2vs0mg"},{"bike_id":"1c615c50-a111-4896-bdb0-c3d4ebdac721","system_id":"levelo_inurba_marseille","lat":43.23964,"lon":5.36625,"is_reserved":false,"is_disabled":false,"rental_uris":{"android":"levelo://app?vid=1c615c50-a111-4896-bdb0-c3d4ebdac721","ios":"levelo://app?vid=1c615c50-a111-4896-bdb0-c3d4ebdac721"},"vehicle_type_id":"4","last_reported":1775158831,"current_range_meters":7200,"station_id":"ce4bhi12rcd13ifvqfp0","pricing_plan_id":"cebpf4jnsgd1na2vs0mg"},{"bike_id":"a0bbc992-87da-4583-a529-59d0980f5448","system_id":"levelo_inurba_marseille","lat":43.29784,"lon":5.44081,"is_reserved":false,"is_disabled":false,"rental_uris":{"android":"levelo://app?vid=a0bbc992-87da-4583-a529-59d0980f5448","ios":"levelo://app?vid=a0bbc992-87da-4583-a529-59d0980f5448"},"vehicle_type_id":"4","last_reported":1775158831,"current_range_meters":7200,"station_id":"st_d3jp68qikq2c7381ktn0","pricing_plan_id":"cebpf4jnsgd1na2vs0mg"},{"bike_id":"b276c3c2-7b5b-4cdf-a8b7-da86be0ddfc7","system_id":"levelo_inurba_marseille","lat":43.23789,"lon":5.36632,"is_reserved":false,"is_disabled":false,"rental_uris":{"android":"levelo://app?vid=b276c3c2-7b5b-4cdf-a8b7-da86be0ddfc7","ios":"levelo://app?vid=b276c3c2-7b5b-4cdf-a8b7-da86be0ddfc7"},"vehicle_type_id":"4","last_reported":1775158831,"current_range_meters":7200,"station_id":"st_d3nk18o9ro0c73en2l3g","pricing_plan_id":"cebpf4jnsgd1na2vs0mg"},{"bike_id":"2f08a6c5-6645-4a02-a4f0-df2a64dec208","system_id":"levelo_inurba_marseille","lat":43.26212,"lon":5.37449,"is_reserved":false,"is_disabled":false,"rental_uris":{"android":"levelo://app?vid=2f08a6c5-6645-4a02-a4f0-df2a64dec208","ios":"levelo://app?vid=2f08a6c5-6645-4a02-a4f0-df2a64dec208"},"vehicle_type_id":"4","last_reported":1775158831,"current_range_meters":7200,"station_id":"ce4bhgp2rcd13ifvqfc0","pricing_plan_id":"cebpf4jnsgd1na2vs0mg"},{"bike_id":"2f334084-a6dd-41a9-8dae-c4cd9332a456","system_id":"levelo_inurba_marseille","lat":43.30594,"lon":5.37225,"is_reserved":false,"is_disabled":false,"rental_uris":{"android":"levelo://app?vid=2f334084-a6dd-41a9-8dae-c4cd9332a456","ios":"levelo://app?vid=2f334084-a6dd-41a9-8dae-c4cd9332a456"},"vehicle_type_id":"4","last_reported":1775158831,"current_range_meters":7200,"station_id":"ce4bgqh2rcd13ifvqc4g","pricing_plan_id":"cebpf4jnsgd1na2vs0mg"},{"bike_id":"e2d1ce23-fac0-4bc3-8cdd-1623ba12336c","system_id":"levelo_inurba_marseille","lat":43.28792,"lon":5.43808,"is_reserved":false,"is_disabled":false,"rental_uris":{"android":"levelo://app?vid=e2d1ce23-fac0-4bc3-8cdd-1623ba12336c","ios":"levelo://app?vid=e2d1ce23-fac0-4bc3-8cdd-1623ba12336c"},"vehicle_type_id":"4","last_reported":1775158831,"current_range_meters":7200,"station_id":"","pricing_plan_id":"cebpf4jnsgd1na2vs0mg"},{"bike_id":"518e94f3-e49a-4f05-b8d3-dc6592ecbe3b","system_id":"levelo_inurba_marseille","lat":43.29555,"lon":5.39966,"is_reserved":false,"is_disabled":false,"rental_uris":{"android":"levelo://app?vid=518e94f3-e49a-4f05-b8d3-dc6592ecbe3b","ios":"levelo://app?vid=518e94f3-e49a-4f05-b8d3-dc6592ecbe3b"},"vehicle_type_id":"4","last_reported":1775158831,"current_range_meters":7200,"station_id":"ce4bh312rcd13ifvqdj0","pricing_plan_id":"cebpf4jnsgd1na2vs0mg"},{"bike_id":"6f69b38f-8716-46b5-bfcd-a0466aca1fdb","system_id":"levelo_inurba_marseille","lat":43.26592,"lon":5.39055,"is_reserved":false,"is_disabled":false,"rental_uris":{"android":"levelo://app?vid=6f69b38f-8716-46b5-bfcd-a0466aca1fdb","ios":"levelo://app?vid=6f69b38f-8716-46b5-bfcd-a0466aca1fdb"},"vehicle_type_id":"4","last_reported":1775158831,"current_range_meters":7200,"station_id":"","pricing_plan_id":"cebpf4jnsgd1na2vs0mg"},{"bike_id":"26538423-cad0-45fb-9a92-330fec3cadfb","system_id":"levelo_inurba_marseille","lat":43.21766,"lon":5.34585,"is_reserved":false,"is_disabled":false,"rental_uris":{"android":"levelo://app?vid=26538423-cad0-45fb-9a92-330fec3cadfb","ios":"levelo://app?vid=26538423-cad0-45fb-9a92-330fec3cadfb"},"vehicle_type_id":"4","last_reported":1775158831,"current_range_meters":7200,"station_id":"st_cvj6r9ubvosntc0bgbag","pricing_plan_id":"cebpf4jnsgd1na2vs0mg"},{"bike_id":"e190e9ca-b0f7-414e-b6ac-e6b81b957107","system_id":"levelo_inurba_marseille","lat":43.21738,"lon":5.34603,"is_reserved":false,"is_disabled":false,"rental_uris":{"android":"levelo://app?vid=e190e9ca-b0f7-414e-b6ac-e6b81b957107","ios":"levelo://app?vid=e190e9ca-b0f7-414e-b6ac-e6b81b957107"},"vehicle_type_id":"4","last_reported":1775158831,"current_range_meters":7200,"station_id":"st_cvj6r9ubvosntc0bgbag","pricing_plan_id":"cebpf4jnsgd1na2vs0mg"},{"bike_id":"bb66dfee-9802-4b21-b1f9-4fecb94052c1","system_id":"levelo_inurba_marseille","lat":43.28401,"lon":5.37528,"is_reserved":false,"is_disabled":false,"rental_uris":{"android":"levelo://app?vid=bb66dfee-9802-4b21-b1f9-4fecb94052c1","ios":"levelo://app?vid=bb66dfee-9802-4b21-b1f9-4fecb94052c1"},"vehicle_type_id":"4","last_reported":1775158831,"current_range_meters":7200,"station_id":"ce4bh412rcd13ifvqds0","pricing_plan_id":"cebpf4jnsgd1na2vs0mg"},{"bike_id":"e24b7a9e-5482-469c-bc5f-3944821156de","system_id":"levelo_inurba_marseille","lat":43.31064,"lon":5.44591,"is_reserved":false,"is_disabled":false,"rental_uris":{"android":"levelo://app?vid=e24b7a9e-5482-469c-bc5f-3944821156de","ios":"levelo://app?vid=e24b7a9e-5482-469c-bc5f-3944821156de"},"vehicle_type_id":"4","last_reported":1775158831,"current_range_meters":7200,"station_id":"","pricing_plan_id":"cebpf4jnsgd1na2vs0mg"},{"bike_id":"c0244268-1300-41a7-9a33-8160575e0bc7","system_id":"levelo_inurba_marseille","lat":43.23202,"lon":5.35543,"is_reserved":false,"is_disabled":false,"rental_uris":{"android":"levelo://app?vid=c0244268-1300-41a7-9a33-8160575e0bc7","ios":"levelo://app?vid=c0244268-1300-41a7-9a33-8160575e0bc7"},"vehicle_type_id":"4","last_reported":1775158831,"current_range_meters":7200,"station_id":"ce4bhu92rcd13ifvqi70","pricing_plan_id":"cebpf4jnsgd1na2vs0mg"},{"bike_id":"ec73d10f-d000-4d7d-ab9a-4a1d96a7ccc2","system_id":"levelo_inurba_marseille","lat":43.31215,"lon":5.36878,"is_reserved":false,"is_disabled":false,"rental_uris":{"android":"levelo://app?vid=ec73d10f-d000-4d7d-ab9a-4a1d96a7ccc2","ios":"levelo://app?vid=ec73d10f-d000-4d7d-ab9a-4a1d96a7ccc2"},"vehicle_type_id":"4","last_reported":1775158831,"current_range_meters":7200,"station_id":"ce4bgl92rcd13ifvqbq0","pricing_plan_id":"cebpf4jnsgd1na2vs0mg"},{"bike_id":"5f8618b1-168c-4ee0-84cd-96c480eeeea0","system_id":"levelo_inurba_marseille","lat":43.24409,"lon":5.37405,"is_reserved":false,"is_disabled":false,"rental_uris":{"android":"levelo://app?vid=5f8618b1-168c-4ee0-84cd-96c480eeeea0","ios":"levelo://app?vid=5f8618b1-168c-4ee0-84cd-96c480eeeea0"},"vehicle_type_id":"4","last_reported":1775158831,"current_range_meters":7200,"station_id":"","pricing_plan_id":"cebpf4jnsgd1na2vs0mg"},{"bike_id":"2e0545ad-d824-454e-b745-a6d9a8bc929b","system_id":"levelo_inurba_marseille","lat":43.32356,"lon":5.36735,"is_reserved":false,"is_disabled":false,"rental_uris":{"android":"levelo://app?vid=2e0545ad-d824-454e-b745-a6d9a8bc929b","ios":"levelo://app?vid=2e0545ad-d824-454e-b745-a6d9a8bc929b"},"vehicle_type_id":"4","last_reported":1775158831,"current_range_meters":8000,"station_id":"ce4bhsh2rcd13ifvqi2g","pricing_plan_id":"cebpf4jnsgd1na2vs0mg"},{"bike_id":"63f54104-1358-46d5-b04e-dbd776a1d3a2","system_id":"levelo_inurba_marseille","lat":43.21775,"lon":5.34621,"is_reserved":false,"is_disabled":false,"rental_uris":{"android":"levelo://app?vid=63f54104-1358-46d5-b04e-dbd776a1d3a2","ios":"levelo://app?vid=63f54104-1358-46d5-b04e-dbd776a1d3a2"},"vehicle_type_id":"4","last_reported":1775158831,"current_range_meters":8000,"station_id":"st_cvj6r9ubvosntc0bgbag","pricing_plan_id":"cebpf4jnsgd1na2vs0mg"},{"bike_id":"87e346fe-57ff-40e1-bc30-332765acdf33","system_id":"levelo_inurba_marseille","lat":43.2295,"lon":5.35364,"is_reserved":false,"is_disabled":false,"rental_uris":{"android":"levelo://app?vid=87e346fe-57ff-40e1-bc30-332765acdf33","ios":"levelo://app?vid=87e346fe-57ff-40e1-bc30-332765acdf33"},"vehicle_type_id":"4","last_reported":1775158831,"current_range_meters":8000,"station_id":"cpo3532slgdg3j2ikp40","pricing_plan_id":"cebpf4jnsgd1na2vs0mg"},{"bike_id":"864e4cc8-0cc1-43c8-a100-e4023bb2959e","system_id":"levelo_inurba_marseille","lat":43.29974,"lon":5.38494,"is_reserved":false,"is_disabled":true,"rental_uris":{"android":"levelo://app?vid=864e4cc8-0cc1-43c8-a100-e4023bb2959e","ios":"levelo://app?vid=864e4cc8-0cc1-43c8-a100-e4023bb2959e"},"vehicle_type_id":"4","last_reported":1775158831,"current_range_meters":8000,"station_id":"ce4bgj92rcd13ifvqbd0","pricing_plan_id":"cebpf4jnsgd1na2vs0mg"},{"bike_id":"acfb6f54-04fd-41b0-b2d5-fb9fa6024a9f","system_id":"levelo_inurba_marseille","lat":43.26583,"lon":5.39064,"is_reserved":false,"is_disabled":false,"rental_uris":{"android":"levelo://app?vid=acfb6f54-04fd-41b0-b2d5-fb9fa6024a9f","ios":"levelo://app?vid=acfb6f54-04fd-41b0-b2d5-fb9fa6024a9f"},"vehicle_type_id":"4","last_reported":1775158831,"current_range_meters":8000,"station_id":"","pricing_plan_id":"cebpf4jnsgd1na2vs0mg"},{"bike_id":"4759b894-95dc-4692-b7cc-b2347bd4372e","system_id":"levelo_inurba_marseille","lat":43.29959,"lon":5.38895,"is_reserved":false,"is_disabled":false,"rental_uris":{"android":"levelo://app?vid=4759b894-95dc-4692-b7cc-b2347bd4372e","ios":"levelo://app?vid=4759b894-95dc-4692-b7cc-b2347bd4372e"},"vehicle_type_id":"4","last_reported":1775158831,"current_range_meters":8000,"station_id":"","pricing_plan_id":"cebpf4jnsgd1na2vs0mg"},{"bike_id":"429ac067-1adf-448b-83c4-b3c074d84315","system_id":"levelo_inurba_marseille","lat":43.2119,"lon":5.3508,"is_reserved":false,"is_disabled":false,"rental_uris":{"android":"levelo://app?vid=429ac067-1adf-448b-83c4-b3c074d84315","ios":"levelo://app?vid=429ac067-1adf-448b-83c4-b3c074d84315"},"vehicle_type_id":"4","last_reported":1775158831,"current_range_meters":8000,"station_id":"st_cvj6sg6p6f1abm77japg","pricing_plan_id":"cebpf4jnsgd1na2vs0mg"},{"bike_id":"c69f7b18-98a2-454c-bac1-287f873aa573","system_id":"levelo_inurba_marseille","lat":43.28426,"lon":5.34984,"is_reserved":false,"is_disabled":true,"rental_uris":{"android":"levelo://app?vid=c69f7b18-98a2-454c-bac1-287f873aa573","ios":"levelo://app?vid=c69f7b18-98a2-454c-bac1-287f873aa573"},"vehicle_type_id":"4","last_reported":1775158831,"current_range_meters":8000,"station_id":"ce4bhbh2rcd13ifvqepg","pricing_plan_id":"cebpf4jnsgd1na2vs0mg"},{"bike_id":"e29e1953-b5e2-42ad-b863-e11d2fd568e7","system_id":"levelo_inurba_marseille","lat":43.33545,"lon":5.37466,"is_reserved":false,"is_disabled":false,"rental_uris":{"android":"levelo://app?vid=e29e1953-b5e2-42ad-b863-e11d2fd568e7","ios":"levelo://app?vid=e29e1953-b5e2-42ad-b863-e11d2fd568e7"},"vehicle_type_id":"4","last_reported":1775158831,"current_range_meters":8000,"station_id":"st_d46tts09ee8s73dlu43g","pricing_plan_id":"cebpf4jnsgd1na2vs0mg"},{"bike_id":"faeda510-7137-4a55-85c9-3b3828efdfc5","system_id":"levelo_inurba_marseille","lat":43.25564,"lon":5.38241,"is_reserved":false,"is_disabled":false,"rental_uris":{"android":"levelo://app?vid=faeda510-7137-4a55-85c9-3b3828efdfc5","ios":"levelo://app?vid=faeda510-7137-4a55-85c9-3b3828efdfc5"},"vehicle_type_id":"4","last_reported":1775158831,"current_range_meters":8000,"station_id":"ce4bhih2rcd13ifvqfs0","pricing_plan_id":"cebpf4jnsgd1na2vs0mg"},{"bike_id":"89456314-8124-45f0-baa8-54f33329152b","system_id":"levelo_inurba_marseille","lat":43.28351,"lon":5.38086,"is_reserved":false,"is_disabled":false,"rental_uris":{"android":"levelo://app?vid=89456314-8124-45f0-baa8-54f33329152b","ios":"levelo://app?vid=89456314-8124-45f0-baa8-54f33329152b"},"vehicle_type_id":"4","last_reported":1775158831,"current_range_meters":8000,"station_id":"ce4bh412rcd13ifvqdr0","pricing_plan_id":"cebpf4jnsgd1na2vs0mg"},{"bike_id":"1b21362e-6d44-4f27-8248-e311fc332d4a","system_id":"levelo_inurba_marseille","lat":43.29515,"lon":5.39406,"is_reserved":false,"is_disabled":true,"rental_uris":{"android":"levelo://app?vid=1b21362e-6d44-4f27-8248-e311fc332d4a","ios":"levelo://app?vid=1b21362e-6d44-4f27-8248-e311fc332d4a"},"vehicle_type_id":"4","last_reported":1775158831,"current_range_meters":8000,"station_id":"ce4bh292rcd13ifvqdf0","pricing_plan_id":"cebpf4jnsgd1na2vs0mg"},{"bike_id":"0f43f217-8aa1-4a00-93bf-e372375befb9","system_id":"levelo_inurba_marseille","lat":43.29301,"lon":5.37189,"is_reserved":false,"is_disabled":false,"rental_uris":{"android":"levelo://app?vid=0f43f217-8aa1-4a00-93bf-e372375befb9","ios":"levelo://app?vid=0f43f217-8aa1-4a00-93bf-e372375befb9"},"vehicle_type_id":"4","last_reported":1775158831,"current_range_meters":8000,"station_id":"ce4bgh92rcd13ifvqb40","pricing_plan_id":"cebpf4jnsgd1na2vs0mg"},{"bike_id":"49874b78-63b8-4ae0-a9d8-964c75265487","system_id":"levelo_inurba_marseille","lat":43.26679,"lon":5.38266,"is_reserved":false,"is_disabled":false,"rental_uris":{"android":"levelo://app?vid=49874b78-63b8-4ae0-a9d8-964c75265487","ios":"levelo://app?vid=49874b78-63b8-4ae0-a9d8-964c75265487"},"vehicle_type_id":"4","last_reported":1775158831,"current_range_meters":8000,"station_id":"ce4bhg92rcd13ifvqf90","pricing_plan_id":"cebpf4jnsgd1na2vs0mg"},{"bike_id":"53da873f-e6f8-4606-b48f-0cf820bdc3de","system_id":"levelo_inurba_marseille","lat":43.24673,"lon":5.38145,"is_reserved":false,"is_disabled":false,"rental_uris":{"android":"levelo://app?vid=53da873f-e6f8-4606-b48f-0cf820bdc3de","ios":"levelo://app?vid=53da873f-e6f8-4606-b48f-0cf820bdc3de"},"vehicle_type_id":"4","last_reported":1775158831,"current_range_meters":8000,"station_id":"ce4bhih2rcd13ifvqfr0","pricing_plan_id":"cebpf4jnsgd1na2vs0mg"},{"bike_id":"fad18366-6f99-431c-9051-e72a7b8ead82","system_id":"levelo_inurba_marseille","lat":43.28856,"lon":5.39306,"is_reserved":false,"is_disabled":false,"rental_uris":{"android":"levelo://app?vid=fad18366-6f99-431c-9051-e72a7b8ead82","ios":"levelo://app?vid=fad18366-6f99-431c-9051-e72a7b8ead82"},"vehicle_type_id":"4","last_reported":1775158831,"current_range_meters":8000,"station_id":"ce4bh2p2rcd13ifvqdi0","pricing_plan_id":"cebpf4jnsgd1na2vs0mg"},{"bike_id":"ae168475-5fdc-457c-a491-513d08192440","system_id":"levelo_inurba_marseille","lat":43.28076,"lon":5.39645,"is_reserved":false,"is_disabled":false,"rental_uris":{"android":"levelo://app?vid=ae168475-5fdc-457c-a491-513d08192440","ios":"levelo://app?vid=ae168475-5fdc-457c-a491-513d08192440"},"vehicle_type_id":"4","last_reported":1775158831,"current_range_meters":8000,"station_id":"ce4bho12rcd13ifvqh2g","pricing_plan_id":"cebpf4jnsgd1na2vs0mg"},{"bike_id":"ccccdd94-4e68-401f-ad9b-2b32fb050cf2","system_id":"levelo_inurba_marseille","lat":43.2962,"lon":5.3717,"is_reserved":false,"is_disabled":false,"rental_uris":{"android":"levelo://app?vid=ccccdd94-4e68-401f-ad9b-2b32fb050cf2","ios":"levelo://app?vid=ccccdd94-4e68-401f-ad9b-2b32fb050cf2"},"vehicle_type_id":"4","last_reported":1775158831,"current_range_meters":8000,"station_id":"ce4bgnh2rcd13ifvqc0g","pricing_plan_id":"cebpf4jnsgd1na2vs0mg"},{"bike_id":"778df578-6123-4128-bfc7-a9b6e8590d02","system_id":"levelo_inurba_marseille","lat":43.22953,"lon":5.35412,"is_reserved":false,"is_disabled":false,"rental_uris":{"android":"levelo://app?vid=778df578-6123-4128-bfc7-a9b6e8590d02","ios":"levelo://app?vid=778df578-6123-4128-bfc7-a9b6e8590d02"},"vehicle_type_id":"4","last_reported":1775158831,"current_range_meters":8000,"station_id":"cpo3532slgdg3j2ikp40","pricing_plan_id":"cebpf4jnsgd1na2vs0mg"},{"bike_id":"2568d28f-71d3-4df8-a7a0-a23f281b67c5","system_id":"levelo_inurba_marseille","lat":43.29269,"lon":5.38432,"is_reserved":false,"is_disabled":false,"rental_uris":{"android":"levelo://app?vid=2568d28f-71d3-4df8-a7a0-a23f281b67c5","ios":"levelo://app?vid=2568d28f-71d3-4df8-a7a0-a23f281b67c5"},"vehicle_type_id":"4","last_reported":1775158831,"current_range_meters":8000,"station_id":"ce4bh692rcd13ifvqea0","pricing_plan_id":"cebpf4jnsgd1na2vs0mg"},{"bike_id":"82482c20-e04a-4203-a8dc-9e55d0408daa","system_id":"levelo_inurba_marseille","lat":43.28701,"lon":5.37397,"is_reserved":false,"is_disabled":false,"rental_uris":{"android":"levelo://app?vid=82482c20-e04a-4203-a8dc-9e55d0408daa","ios":"levelo://app?vid=82482c20-e04a-4203-a8dc-9e55d0408daa"},"vehicle_type_id":"4","last_reported":1775158831,"current_range_meters":8000,"station_id":"ce4bh3p2rcd13ifvqdq0","pricing_plan_id":"cebpf4jnsgd1na2vs0mg"},{"bike_id":"85bd7590-dc00-4396-a5c7-552ad5f06944","system_id":"levelo_inurba_marseille","lat":43.24158,"lon":5.36395,"is_reserved":false,"is_disabled":false,"rental_uris":{"android":"levelo://app?vid=85bd7590-dc00-4396-a5c7-552ad5f06944","ios":"levelo://app?vid=85bd7590-dc00-4396-a5c7-552ad5f06944"},"vehicle_type_id":"4","last_reported":1775158831,"current_range_meters":8000,"station_id":"cpo36qri1sfpv3e86is0","pricing_plan_id":"cebpf4jnsgd1na2vs0mg"},{"bike_id":"6b01ec2a-e380-4de3-bd00-6b1c50159832","system_id":"levelo_inurba_marseille","lat":43.26368,"lon":5.41062,"is_reserved":false,"is_disabled":false,"rental_uris":{"android":"levelo://app?vid=6b01ec2a-e380-4de3-bd00-6b1c50159832","ios":"levelo://app?vid=6b01ec2a-e380-4de3-bd00-6b1c50159832"},"vehicle_type_id":"4","last_reported":1775158831,"current_range_meters":8000,"station_id":"st_d4e5ca6na9uc73bfl5fg","pricing_plan_id":"cebpf4jnsgd1na2vs0mg"},{"bike_id":"e700e3e5-d5ab-48f7-9278-55f1ea4ba0d8","system_id":"levelo_inurba_marseille","lat":43.24074,"lon":5.37754,"is_reserved":false,"is_disabled":false,"rental_uris":{"android":"levelo://app?vid=e700e3e5-d5ab-48f7-9278-55f1ea4ba0d8","ios":"levelo://app?vid=e700e3e5-d5ab-48f7-9278-55f1ea4ba0d8"},"vehicle_type_id":"4","last_reported":1775158831,"current_range_meters":8000,"station_id":"ce4bhnp2rcd13ifvqgvg","pricing_plan_id":"cebpf4jnsgd1na2vs0mg"},{"bike_id":"47328cdc-9a98-4d14-8c4c-c9f1dba788b5","system_id":"levelo_inurba_marseille","lat":43.24937,"lon":5.40505,"is_reserved":false,"is_disabled":false,"rental_uris":{"android":"levelo://app?vid=47328cdc-9a98-4d14-8c4c-c9f1dba788b5","ios":"levelo://app?vid=47328cdc-9a98-4d14-8c4c-c9f1dba788b5"},"vehicle_type_id":"4","last_reported":1775158831,"current_range_meters":8000,"station_id":"st_d2ngiaodas8pm72gd1h0","pricing_plan_id":"cebpf4jnsgd1na2vs0mg"},{"bike_id":"e39e497c-3dd5-45d2-91ed-0eedd7a5a54a","system_id":"levelo_inurba_marseille","lat":43.23391,"lon":5.41238,"is_reserved":false,"is_disabled":false,"rental_uris":{"android":"levelo://app?vid=e39e497c-3dd5-45d2-91ed-0eedd7a5a54a","ios":"levelo://app?vid=e39e497c-3dd5-45d2-91ed-0eedd7a5a54a"},"vehicle_type_id":"4","last_reported":1775158831,"current_range_meters":8000,"station_id":"st_d75pvndhf9lc73cqq3eg","pricing_plan_id":"cebpf4jnsgd1na2vs0mg"},{"bike_id":"a21a45a6-abae-43b9-899b-b57d2d768ee3","system_id":"levelo_inurba_marseille","lat":43.29985,"lon":5.44003,"is_reserved":false,"is_disabled":false,"rental_uris":{"android":"levelo://app?vid=a21a45a6-abae-43b9-899b-b57d2d768ee3","ios":"levelo://app?vid=a21a45a6-abae-43b9-899b-b57d2d768ee3"},"vehicle_type_id":"4","last_reported":1775158831,"current_range_meters":8000,"station_id":"","pricing_plan_id":"cebpf4jnsgd1na2vs0mg"},{"bike_id":"07e40cab-740c-4afb-acb9-f242765435fe","system_id":"levelo_inurba_marseille","lat":43.29883,"lon":5.39707,"is_reserved":false,"is_disabled":false,"rental_uris":{"android":"levelo://app?vid=07e40cab-740c-4afb-acb9-f242765435fe","ios":"levelo://app?vid=07e40cab-740c-4afb-acb9-f242765435fe"},"vehicle_type_id":"4","last_reported":1775158831,"current_range_meters":8000,"station_id":"ce4bh0h2rcd13ifvqd50","pricing_plan_id":"cebpf4jnsgd1na2vs0mg"},{"bike_id":"3ebd5e20-f9fc-4600-a9b3-8553be718bea","system_id":"levelo_inurba_marseille","lat":43.28096,"lon":5.37839,"is_reserved":false,"is_disabled":false,"rental_uris":{"android":"levelo://app?vid=3ebd5e20-f9fc-4600-a9b3-8553be718bea","ios":"levelo://app?vid=3ebd5e20-f9fc-4600-a9b3-8553be718bea"},"vehicle_type_id":"4","last_reported":1775158831,"current_range_meters":8000,"station_id":"ce4bha12rcd13ifvqee0","pricing_plan_id":"cebpf4jnsgd1na2vs0mg"},{"bike_id":"38e80db4-bc42-4997-b4ea-cbcf8cf47de9","system_id":"levelo_inurba_marseille","lat":43.29902,"lon":5.39758,"is_reserved":false,"is_disabled":false,"rental_uris":{"android":"levelo://app?vid=38e80db4-bc42-4997-b4ea-cbcf8cf47de9","ios":"levelo://app?vid=38e80db4-bc42-4997-b4ea-cbcf8cf47de9"},"vehicle_type_id":"4","last_reported":1775158831,"current_range_meters":8400,"station_id":"ce4bh0h2rcd13ifvqd50","pricing_plan_id":"cebpf4jnsgd1na2vs0mg"},{"bike_id":"3e475a89-1221-49b4-a074-1ac5451345cb","system_id":"levelo_inurba_marseille","lat":43.25569,"lon":5.38277,"is_reserved":false,"is_disabled":false,"rental_uris":{"android":"levelo://app?vid=3e475a89-1221-49b4-a074-1ac5451345cb","ios":"levelo://app?vid=3e475a89-1221-49b4-a074-1ac5451345cb"},"vehicle_type_id":"4","last_reported":1775158831,"current_range_meters":8400,"station_id":"ce4bhih2rcd13ifvqfs0","pricing_plan_id":"cebpf4jnsgd1na2vs0mg"},{"bike_id":"4889bd04-51ca-47ea-acb6-aa443ae65231","system_id":"levelo_inurba_marseille","lat":43.21196,"lon":5.35074,"is_reserved":false,"is_disabled":false,"rental_uris":{"android":"levelo://app?vid=4889bd04-51ca-47ea-acb6-aa443ae65231","ios":"levelo://app?vid=4889bd04-51ca-47ea-acb6-aa443ae65231"},"vehicle_type_id":"4","last_reported":1775158831,"current_range_meters":8400,"station_id":"st_cvj6sg6p6f1abm77japg","pricing_plan_id":"cebpf4jnsgd1na2vs0mg"},{"bike_id":"74eecdb1-ac3f-48d5-abfe-646ff4aabf4a","system_id":"levelo_inurba_marseille","lat":43.23978,"lon":5.36619,"is_reserved":false,"is_disabled":false,"rental_uris":{"android":"levelo://app?vid=74eecdb1-ac3f-48d5-abfe-646ff4aabf4a","ios":"levelo://app?vid=74eecdb1-ac3f-48d5-abfe-646ff4aabf4a"},"vehicle_type_id":"4","last_reported":1775158831,"current_range_meters":8400,"station_id":"ce4bhi12rcd13ifvqfp0","pricing_plan_id":"cebpf4jnsgd1na2vs0mg"},{"bike_id":"6c2e718c-9cd4-4781-bcf8-cc3f17ff5abd","system_id":"levelo_inurba_marseille","lat":43.23946,"lon":5.43643,"is_reserved":false,"is_disabled":false,"rental_uris":{"android":"levelo://app?vid=6c2e718c-9cd4-4781-bcf8-cc3f17ff5abd","ios":"levelo://app?vid=6c2e718c-9cd4-4781-bcf8-cc3f17ff5abd"},"vehicle_type_id":"4","last_reported":1775158831,"current_range_meters":8400,"station_id":"","pricing_plan_id":"cebpf4jnsgd1na2vs0mg"},{"bike_id":"832873a7-0d8c-4b94-98bd-0b0e93271fb8","system_id":"levelo_inurba_marseille","lat":43.29256,"lon":5.38437,"is_reserved":false,"is_disabled":true,"rental_uris":{"android":"levelo://app?vid=832873a7-0d8c-4b94-98bd-0b0e93271fb8","ios":"levelo://app?vid=832873a7-0d8c-4b94-98bd-0b0e93271fb8"},