{"last_updated":1701270468,"ttl":30,"version":"2.2","data":{"bikes":[{"bike_id":"2c841c49-17d0-4a7d-9443-e70dfffd7059","system_id":"levelo_inurba_marseille","lat":43.313391,"lon":5.36706,"is_reserved":false,"is_disabled":false,"rental_uris":{"android":"levelo://app?vid=2c841c49-17d0-4a7d-9443-e70dfffd7059","ios":"levelo://app?vid=2c841c49-17d0-4a7d-9443-e70dfffd7059"},"vehicle_type_id":"4","last_reported":1701270468,"current_range_meters":30800,"station_id":"ce4bgr92rcd13ifvqc6g","pricing_plan_id":"free"},{"bike_id":"6578e65e-ddbc-498a-86df-f8d77dd61f9a","system_id":"levelo_inurba_marseille","lat":43.313382,"lon":5.36714,"is_reserved":false,"is_disabled":false,"rental_uris":{"android":"levelo://app?vid=6578e65e-ddbc-498a-86df-f8d77dd61f9a","ios":"levelo://app?vid=6578e65e-ddbc-498a-86df-f8d77dd61f9a"},"vehicle_type_id":"4","last_reported":1701270468,"current_range_meters":30800,"station_id":"ce4bgr92rcd13ifvqc6g","pricing_plan_id":"free"},{"bike_id":"cca4571e-7d25-4f4c-ad3c-55e3a6c441ad","system_id":"levelo_inurba_marseille","lat":43.31341,"lon":5.367098,"is_reserved":false,"is_disabled":false,"rental_uris":{"android":"levelo://app?vid=cca4571e-7d25-4f4c-ad3c-55e3a6c441ad","ios":"levelo://app?vid=cca4571e-7d25-4f4c-ad3c-55e3a6c441ad"},"vehicle_type_id":"4","last_reported":1701270468,"current_range_meters":12400,"station_id":"ce4bgr92rcd13ifvqc6g","pricing_plan_id":"free"},{"bike_id":"9da95ed2-ede2-4159-b28b-f075cd64d316","system_id":"levelo_inurba_marseille","lat":43.31341,"lon":5.367098,"is_reserved":false,"is_disabled":false,"rental_uris":{"android":"levelo://app?vid=9da95ed2-ede2-4159-b28b-f075cd64d316","ios":"levelo://app?vid=9da95ed2-ede2-4159-b28b-f075cd64d316"},"vehicle_type_id":"4","last_reported":1701270468,"current_range_meters":22800,"station_id":"ce4bgr92rcd13ifvqc6g","pricing_plan_id":"free"},{"bike_id":"4ede3be8-ffbb-4fa7-8749-53300a12d77f","system_id":"levelo_inurba_marseille","lat":43.31341,"lon":5.367098,"is_reserved":false,"is_disabled":false,"rental_uris":{"android":"levelo://app?vid=4ede3be8-ffbb-4fa7-8749-53300a12d77f","ios":"levelo://app?vid=4ede3be8-ffbb-4fa7-8749-53300a12d77f"},"vehicle_type_id":"4","last_reported":1701270468,"current_range_meters":31200,"station_id":"ce4bgr92rcd13ifvqc6g","pricing_plan_id":"free"},{"bike_id":"53d2f5a1-cbc4-4ae7-bfe1-ed363bc6e9e3","system_id":"levelo_inurba_marseille","lat":43.313391,"lon":5.36706,"is_reserved":false,"is_disabled":false,"rental_uris":{"android":"levelo://app?vid=53d2f5a1-cbc4-4ae7-bfe1-ed363bc6e9e3","ios":"levelo://app?vid=53d2f5a1-cbc4-4ae7-bfe1-ed363bc6e9e3"},"vehicle_type_id":"4","last_reported":1701270468,"current_range_meters":31200,"station_id":"ce4bgr92rcd13ifvqc6g","pricing_plan_id":"free"},{"bike_id":"e48ea13c-dadc-4dee-9444-184958984748","system_id":"levelo_inurba_marseille","lat":43.31341,"lon":5.367098,"is_reserved":false,"is_disabled":false,"rental_uris":{"android":"levelo://app?vid=e48ea13c-dadc-4dee-9444-184958984748","ios":"levelo://app?vid=e48ea13c-dadc-4dee-9444-184958984748"},"vehicle_type_id":"4","last_reported":1701270468,"current_range_meters":26400,"station_id":"ce4bgr92rcd13ifvqc6g","pricing_plan_id":"free"},{"bike_id":"ff4330bf-66be-4f4e-8b98-3fa8bebd9118","system_id":"levelo_inurba_marseille","lat":43.31223,"lon":5.36845,"is_reserved":false,"is_disabled":false,"rental_uris":{"android":"levelo://app?vid=ff4330bf-66be-4f4e-8b98-3fa8bebd9118","ios":"levelo://app?vid=ff4330bf-66be-4f4e-8b98-3fa8bebd9118"},"vehicle_type_id":"4","last_reported":1701270468,"current_range_meters":31200,"station_id":"ce4bgl92rcd13ifvqbq0","pricing_plan_id":"free"},{"bike_id":"b5a28323-6c2d-42a0-98e1-5df26e35abc1","system_id":"levelo_inurba_marseille","lat":43.312239,"lon":5.368562,"is_reserved":false,"is_disabled":false,"rental_uris":{"android":"levelo://app?vid=b5a28323-6c2d-42a0-98e1-5df26e35abc1","ios":"levelo://app?vid=b5a28323-6c2d-42a0-98e1-5df26e35abc1"},"vehicle_type_id":"4","last_reported":1701270468,"current_range_meters":31200,"station_id":"ce4bgl92rcd13ifvqbq0","pricing_plan_id":"free"},{"bike_id":"c52d7143-1cdd-4957-b148-2341f54ecece","system_id":"levelo_inurba_marseille","lat":43.312238,"lon":5.368667,"is_reserved":false,"is_disabled":false,"rental_uris":{"android":"levelo://app?vid=c52d7143-1cdd-4957-b148-2341f54ecece","ios":"levelo://app?vid=c52d7143-1cdd-4957-b148-2341f54ecece"},"vehicle_type_id":"4","last_reported":1701270468,"current_range_meters":31200,"station_id":"ce4bgl92rcd13ifvqbq0","pricing_plan_id":"free"},{"bike_id":"ca7782f9-a34f-47fa-8644-4a73fe5e35b5","system_id":"levelo_inurba_marseille","lat":43.305714,"lon":5.365633,"is_reserved":false,"is_disabled":false,"rental_uris":{"android":"levelo://app?vid=ca7782f9-a34f-47fa-8644-4a73fe5e35b5","ios":"levelo://app?vid=ca7782f9-a34f-47fa-8644-4a73fe5e35b5"},"vehicle_type_id":"4","last_reported":1701270468,"current_range_meters":22000,"station_id":"ce4bgs12rcd13ifvqcag","pricing_plan_id":"free"},{"bike_id":"f7a9593b-3e74-4d18-a129-ec28fdac42f6","system_id":"levelo_inurba_marseille","lat":43.30543,"lon":5.36536,"is_reserved":false,"is_disabled":false,"rental_uris":{"android":"levelo://app?vid=f7a9593b-3e74-4d18-a129-ec28fdac42f6","ios":"levelo://app?vid=f7a9593b-3e74-4d18-a129-ec28fdac42f6"},"vehicle_type_id":"4","last_reported":1701270468,"current_range_meters":14800,"station_id":"ce4bgs12rcd13ifvqcag","pricing_plan_id":"free"},{"bike_id":"9cdf3a79-4d7c-410c-a1a8-f062861c8da0","system_id":"levelo_inurba_marseille","lat":43.305714,"lon":5.365633,"is_reserved":false,"is_disabled":false,"rental_uris":{"android":"levelo://app?vid=9cdf3a79-4d7c-410c-a1a8-f062861c8da0","ios":"levelo://app?vid=9cdf3a79-4d7c-410c-a1a8-f062861c8da0"},"vehicle_type_id":"4","last_reported":1701270468,"current_range_meters":29200,"station_id":"ce4bgs12rcd13ifvqcag","pricing_plan_id":"free"},{"bike_id":"a099af56-ae4c-4f5f-953f-765280059e59","system_id":"levelo_inurba_marseille","lat":43.305706,"lon":5.365654,"is_reserved":false,"is_disabled":false,"rental_uris":{"android":"levelo://app?vid=a099af56-ae4c-4f5f-953f-765280059e59","ios":"levelo://app?vid=a099af56-ae4c-4f5f-953f-765280059e59"},"vehicle_type_id":"4","last_reported":1701270468,"current_range_meters":18400,"station_id":"ce4bgs12rcd13ifvqcag","pricing_plan_id":"free"},{"bike_id":"b0b1fa4a-506a-4610-82e4-127ef00e1370","system_id":"levelo_inurba_marseille","lat":43.30529,"lon":5.36726,"is_reserved":false,"is_disabled":false,"rental_uris":{"android":"levelo://app?vid=b0b1fa4a-506a-4610-82e4-127ef00e1370","ios":"levelo://app?vid=b0b1fa4a-506a-4610-82e4-127ef00e1370"},"vehicle_type_id":"4","last_reported":1701270468,"current_range_meters":17600,"station_id":"ce4bgrp2rcd13ifvqc9g","pricing_plan_id":"free"},{"bike_id":"663f4afb-fccd-433c-a911-1877ce94de6b","system_id":"levelo_inurba_marseille","lat":43.31115,"lon":5.3777,"is_reserved":false,"is_disabled":false,"rental_uris":{"android":"levelo://app?vid=663f4afb-fccd-433c-a911-1877ce94de6b","ios":"levelo://app?vid=663f4afb-fccd-433c-a911-1877ce94de6b"},"vehicle_type_id":"4","last_reported":1701270468,"current_range_meters":0,"station_id":"ce4bgt92rcd13ifvqcg0","pricing_plan_id":"free"},{"bike_id":"b5129530-3639-47e5-92b6-d358b01a2cff","system_id":"levelo_inurba_marseille","lat":43.308204,"lon":5.376586,"is_reserved":false,"is_disabled":false,"rental_uris":{"android":"levelo://app?vid=b5129530-3639-47e5-92b6-d358b01a2cff","ios":"levelo://app?vid=b5129530-3639-47e5-92b6-d358b01a2cff"},"vehicle_type_id":"4","last_reported":1701270468,"current_range_meters":24800,"station_id":"ce4bgv92rcd13ifvqcq0","pricing_plan_id":"free"},{"bike_id":"f427a2c3-6e4a-446b-ae2f-9be8aa7f4122","system_id":"levelo_inurba_marseille","lat":43.31719,"lon":5.376813,"is_reserved":false,"is_disabled":false,"rental_uris":{"android":"levelo://app?vid=f427a2c3-6e4a-446b-ae2f-9be8aa7f4122","ios":"levelo://app?vid=f427a2c3-6e4a-446b-ae2f-9be8aa7f4122"},"vehicle_type_id":"4","last_reported":1701270468,"current_range_meters":9200,"station_id":"ce4bgth2rcd13ifvqch0","pricing_plan_id":"free"},{"bike_id":"e913f328-1e31-4c22-bd87-f809ea246de4","system_id":"levelo_inurba_marseille","lat":43.317168,"lon":5.376883,"is_reserved":false,"is_disabled":false,"rental_uris":{"android":"levelo://app?vid=e913f328-1e31-4c22-bd87-f809ea246de4","ios":"levelo://app?vid=e913f328-1e31-4c22-bd87-f809ea246de4"},"vehicle_type_id":"4","last_reported":1701270468,"current_range_meters":11600,"station_id":"ce4bgth2rcd13ifvqch0","pricing_plan_id":"free"},{"bike_id":"b2918adf-b82a-4e94-b917-962d3393c60f","system_id":"levelo_inurba_marseille","lat":43.317075,"lon":5.377367,"is_reserved":false,"is_disabled":false,"rental_uris":{"android":"levelo://app?vid=b2918adf-b82a-4e94-b917-962d3393c60f","ios":"levelo://app?vid=b2918adf-b82a-4e94-b917-962d3393c60f"},"vehicle_type_id":"4","last_reported":1701270468,"current_range_meters":16800,"station_id":"ce4bgth2rcd13ifvqch0","pricing_plan_id":"free"},{"bike_id":"77621d6b-8990-4544-be4b-ead551752d29","system_id":"levelo_inurba_marseille","lat":43.31698,"lon":5.37835,"is_reserved":false,"is_disabled":false,"rental_uris":{"android":"levelo://app?vid=77621d6b-8990-4544-be4b-ead551752d29","ios":"levelo://app?vid=77621d6b-8990-4544-be4b-ead551752d29"},"vehicle_type_id":"4","last_reported":1701270468,"current_range_meters":21600,"station_id":"","pricing_plan_id":"free"},{"bike_id":"9ce4f895-3ba2-4569-b5e7-c9a6a91ce9f9","system_id":"levelo_inurba_marseille","lat":43.303068,"lon":5.36899,"is_reserved":false,"is_disabled":false,"rental_uris":{"android":"levelo://app?vid=9ce4f895-3ba2-4569-b5e7-c9a6a91ce9f9","ios":"levelo://app?vid=9ce4f895-3ba2-4569-b5e7-c9a6a91ce9f9"},"vehicle_type_id":"4","last_reported":1701270468,"current_range_meters":6800,"station_id":"ce4bgqh2rcd13ifvqc5g","pricing_plan_id":"free"},{"bike_id":"3e09080e-9db5-4c48-951f-c5f672a60264","system_id":"levelo_inurba_marseille","lat":43.321443,"lon":5.374736,"is_reserved":false,"is_disabled":false,"rental_uris":{"android":"levelo://app?vid=3e09080e-9db5-4c48-951f-c5f672a60264","ios":"levelo://app?vid=3e09080e-9db5-4c48-951f-c5f672a60264"},"vehicle_type_id":"4","last_reported":1701270468,"current_range_meters":7600,"station_id":"","pricing_plan_id":"free"},{"bike_id":"df119bcb-e674-409e-b18a-f229e69dd87f","system_id":"levelo_inurba_marseille","lat":43.301939,"lon":5.366286,"is_reserved":false,"is_disabled":false,"rental_uris":{"android":"levelo://app?vid=df119bcb-e674-409e-b18a-f229e69dd87f","ios":"levelo://app?vid=df119bcb-e674-409e-b18a-f229e69dd87f"},"vehicle_type_id":"4","last_reported":1701270468,"current_range_meters":17600,"station_id":"ce4bgrh2rcd13ifvqc8g","pricing_plan_id":"free"},{"bike_id":"2bebcd92-7805-4c2f-89ba-6a6b1c98a0d8","system_id":"levelo_inurba_marseille","lat":43.301939,"lon":5.366286,"is_reserved":false,"is_disabled":false,"rental_uris":{"android":"levelo://app?vid=2bebcd92-7805-4c2f-89ba-6a6b1c98a0d8","ios":"levelo://app?vid=2bebcd92-7805-4c2f-89ba-6a6b1c98a0d8"},"vehicle_type_id":"4","last_reported":1701270468,"current_range_meters":27200,"station_id":"ce4bgrh2rcd13ifvqc8g","pricing_plan_id":"free"},{"bike_id":"c02489f3-dab2-4944-81d0-5ef8621ac3a4","system_id":"levelo_inurba_marseille","lat":43.301939,"lon":5.366286,"is_reserved":false,"is_disabled":false,"rental_uris":{"android":"levelo://app?vid=c02489f3-dab2-4944-81d0-5ef8621ac3a4","ios":"levelo://app?vid=c02489f3-dab2-4944-81d0-5ef8621ac3a4"},"vehicle_type_id":"4","last_reported":1701270468,"current_range_meters":26400,"station_id":"ce4bgrh2rcd13ifvqc8g","pricing_plan_id":"free"},{"bike_id":"a73ce958-8a13-465c-a986-f48ea343227d","system_id":"levelo_inurba_marseille","lat":43.301939,"lon":5.366286,"is_reserved":false,"is_disabled":false,"rental_uris":{"android":"levelo://app?vid=a73ce958-8a13-465c-a986-f48ea343227d","ios":"levelo://app?vid=a73ce958-8a13-465c-a986-f48ea343227d"},"vehicle_type_id":"4","last_reported":1701270468,"current_range_meters":32000,"station_id":"ce4bgrh2rcd13ifvqc8g","pricing_plan_id":"free"},{"bike_id":"9274419b-96db-4056-9c11-8ff89c5d69aa","system_id":"levelo_inurba_marseille","lat":43.30164,"lon":5.37043,"is_reserved":false,"is_disabled":false,"rental_uris":{"android":"levelo://app?vid=9274419b-96db-4056-9c11-8ff89c5d69aa","ios":"levelo://app?vid=9274419b-96db-4056-9c11-8ff89c5d69aa"},"vehicle_type_id":"4","last_reported":1701270468,"current_range_meters":3600,"station_id":"","pricing_plan_id":"free"},{"bike_id":"a702992a-7969-482a-abb2-e920fc5be561","system_id":"levelo_inurba_marseille","lat":43.32237,"lon":5.37548,"is_reserved":false,"is_disabled":false,"rental_uris":{"android":"levelo://app?vid=a702992a-7969-482a-abb2-e920fc5be561","ios":"levelo://app?vid=a702992a-7969-482a-abb2-e920fc5be561"},"vehicle_type_id":"4","last_reported":1701270468,"current_range_meters":22000,"station_id":"","pricing_plan_id":"free"},{"bike_id":"cca8464d-8c51-4f1c-b7f5-cc49e37b21d5","system_id":"levelo_inurba_marseille","lat":43.304606,"lon":5.379026,"is_reserved":false,"is_disabled":false,"rental_uris":{"android":"levelo://app?vid=cca8464d-8c51-4f1c-b7f5-cc49e37b21d5","ios":"levelo://app?vid=cca8464d-8c51-4f1c-b7f5-cc49e37b21d5"},"vehicle_type_id":"4","last_reported":1701270468,"current_range_meters":19200,"station_id":"ce4bgup2rcd13ifvqcn0","pricing_plan_id":"free"},{"bike_id":"f50ae52e-0b7a-42e5-a738-aa2e2da2faa3","system_id":"levelo_inurba_marseille","lat":43.324804,"lon":5.36592,"is_reserved":false,"is_disabled":false,"rental_uris":{"android":"levelo://app?vid=f50ae52e-0b7a-42e5-a738-aa2e2da2faa3","ios":"levelo://app?vid=f50ae52e-0b7a-42e5-a738-aa2e2da2faa3"},"vehicle_type_id":"4","last_reported":1701270468,"current_range_meters":14000,"station_id":"ce4bhs12rcd13ifvqhvg","pricing_plan_id":"free"},{"bike_id":"607c9e4b-6250-4182-9ed9-f74347c33d41","system_id":"levelo_inurba_marseille","lat":43.301429,"lon":5.37413,"is_reserved":false,"is_disabled":false,"rental_uris":{"android":"levelo://app?vid=607c9e4b-6250-4182-9ed9-f74347c33d41","ios":"levelo://app?vid=607c9e4b-6250-4182-9ed9-f74347c33d41"},"vehicle_type_id":"4","last_reported":1701270468,"current_range_meters":10800,"station_id":"ce4bgs92rcd13ifvqcc0","pricing_plan_id":"free"},{"bike_id":"2b2863d0-ac19-46cf-8ec8-acd5644cfb7f","system_id":"levelo_inurba_marseille","lat":43.30136,"lon":5.37412,"is_reserved":false,"is_disabled":false,"rental_uris":{"android":"levelo://app?vid=2b2863d0-ac19-46cf-8ec8-acd5644cfb7f","ios":"levelo://app?vid=2b2863d0-ac19-46cf-8ec8-acd5644cfb7f"},"vehicle_type_id":"4","last_reported":1701270468,"current_range_meters":20000,"station_id":"ce4bgs92rcd13ifvqcc0","pricing_plan_id":"free"},{"bike_id":"ddd9d225-e612-4957-a1b8-7b0a1362db98","system_id":"levelo_inurba_marseille","lat":43.31993,"lon":5.38156,"is_reserved":false,"is_disabled":false,"rental_uris":{"android":"levelo://app?vid=ddd9d225-e612-4957-a1b8-7b0a1362db98","ios":"levelo://app?vid=ddd9d225-e612-4957-a1b8-7b0a1362db98"},"vehicle_type_id":"4","last_reported":1701270468,"current_range_meters":21200,"station_id":"ce4bhr12rcd13ifvqhpg","pricing_plan_id":"free"},{"bike_id":"2275aca5-3158-4c2c-8022-ca5d2714bc86","system_id":"levelo_inurba_marseille","lat":43.319997,"lon":5.381594,"is_reserved":false,"is_disabled":false,"rental_uris":{"android":"levelo://app?vid=2275aca5-3158-4c2c-8022-ca5d2714bc86","ios":"levelo://app?vid=2275aca5-3158-4c2c-8022-ca5d2714bc86"},"vehicle_type_id":"4","last_reported":1701270468,"current_range_meters":26400,"station_id":"ce4bhr12rcd13ifvqhpg","pricing_plan_id":"free"},{"bike_id":"9389f636-c148-484e-a000-ba5b89b8a162","system_id":"levelo_inurba_marseille","lat":43.313571,"lon":5.384829,"is_reserved":false,"is_disabled":false,"rental_uris":{"android":"levelo://app?vid=9389f636-c148-484e-a000-ba5b89b8a162","ios":"levelo://app?vid=9389f636-c148-484e-a000-ba5b89b8a162"},"vehicle_type_id":"4","last_reported":1701270468,"current_range_meters":23600,"station_id":"ce4bgt92rcd13ifvqcf0","pricing_plan_id":"free"},{"bike_id":"bb33df88-eb5d-4293-8f89-0ddad8c039c9","system_id":"levelo_inurba_marseille","lat":43.313571,"lon":5.384829,"is_reserved":false,"is_disabled":false,"rental_uris":{"android":"levelo://app?vid=bb33df88-eb5d-4293-8f89-0ddad8c039c9","ios":"levelo://app?vid=bb33df88-eb5d-4293-8f89-0ddad8c039c9"},"vehicle_type_id":"4","last_reported":1701270468,"current_range_meters":18800,"station_id":"ce4bgt92rcd13ifvqcf0","pricing_plan_id":"free"},{"bike_id":"dfdb593b-5623-4cfb-b86f-d3de6eda4d8b","system_id":"levelo_inurba_marseille","lat":43.299322,"lon":5.365412,"is_reserved":false,"is_disabled":false,"rental_uris":{"android":"levelo://app?vid=dfdb593b-5623-4cfb-b86f-d3de6eda4d8b","ios":"levelo://app?vid=dfdb593b-5623-4cfb-b86f-d3de6eda4d8b"},"vehicle_type_id":"4","last_reported":1701270468,"current_range_meters":24400,"station_id":"ce4bgm92rcd13ifvqbr0","pricing_plan_id":"free"},{"bike_id":"53fcba09-8e56-4687-8950-2cda99432378","system_id":"levelo_inurba_marseille","lat":43.299724,"lon":5.371829,"is_reserved":false,"is_disabled":false,"rental_uris":{"android":"levelo://app?vid=53fcba09-8e56-4687-8950-2cda99432378","ios":"levelo://app?vid=53fcba09-8e56-4687-8950-2cda99432378"},"vehicle_type_id":"4","last_reported":1701270468,"current_range_meters":27200,"station_id":"ce4bgr92rcd13ifvqc7g","pricing_plan_id":"free"},{"bike_id":"042fc48b-f385-4f50-bb0d-a4712ed33aae","system_id":"levelo_inurba_marseille","lat":43.29968,"lon":5.37175,"is_reserved":false,"is_disabled":false,"rental_uris":{"android":"levelo://app?vid=042fc48b-f385-4f50-bb0d-a4712ed33aae","ios":"levelo://app?vid=042fc48b-f385-4f50-bb0d-a4712ed33aae"},"vehicle_type_id":"4","last_reported":1701270468,"current_range_meters":13200,"station_id":"ce4bgr92rcd13ifvqc7g","pricing_plan_id":"free"},{"bike_id":"0b29e40f-f073-4e20-b087-861599903337","system_id":"levelo_inurba_marseille","lat":43.298433,"lon":5.362774,"is_reserved":false,"is_disabled":false,"rental_uris":{"android":"levelo://app?vid=0b29e40f-f073-4e20-b087-861599903337","ios":"levelo://app?vid=0b29e40f-f073-4e20-b087-861599903337"},"vehicle_type_id":"4","last_reported":1701270468,"current_range_meters":26000,"station_id":"ce4bgpp2rcd13ifvqc3g","pricing_plan_id":"free"},{"bike_id":"261f5cab-340d-42b6-96fb-38b883086dff","system_id":"levelo_inurba_marseille","lat":43.298433,"lon":5.362774,"is_reserved":false,"is_disabled":false,"rental_uris":{"android":"levelo://app?vid=261f5cab-340d-42b6-96fb-38b883086dff","ios":"levelo://app?vid=261f5cab-340d-42b6-96fb-38b883086dff"},"vehicle_type_id":"4","last_reported":1701270468,"current_range_meters":29600,"station_id":"ce4bgpp2rcd13ifvqc3g","pricing_plan_id":"free"},{"bike_id":"247ca5e3-ce82-4fb8-8dbe-692a4261800c","system_id":"levelo_inurba_marseille","lat":43.305364,"lon":5.384119,"is_reserved":false,"is_disabled":false,"rental_uris":{"android":"levelo://app?vid=247ca5e3-ce82-4fb8-8dbe-692a4261800c","ios":"levelo://app?vid=247ca5e3-ce82-4fb8-8dbe-692a4261800c"},"vehicle_type_id":"4","last_reported":1701270468,"current_range_meters":29600,"station_id":"ce4bgg92rcd13ifvqb30","pricing_plan_id":"free"},{"bike_id":"9193290a-8859-4929-88d0-82dea59a2839","system_id":"levelo_inurba_marseille","lat":43.305364,"lon":5.384119,"is_reserved":false,"is_disabled":false,"rental_uris":{"android":"levelo://app?vid=9193290a-8859-4929-88d0-82dea59a2839","ios":"levelo://app?vid=9193290a-8859-4929-88d0-82dea59a2839"},"vehicle_type_id":"4","last_reported":1701270468,"current_range_meters":10000,"station_id":"ce4bgg92rcd13ifvqb30","pricing_plan_id":"free"},{"bike_id":"358558d7-7d60-44b1-858c-03d7c2203b4b","system_id":"levelo_inurba_marseille","lat":43.298433,"lon":5.362774,"is_reserved":false,"is_disabled":false,"rental_uris":{"android":"levelo://app?vid=358558d7-7d60-44b1-858c-03d7c2203b4b","ios":"levelo://app?vid=358558d7-7d60-44b1-858c-03d7c2203b4b"},"vehicle_type_id":"4","last_reported":1701270468,"current_range_meters":30400,"station_id":"ce4bgpp2rcd13ifvqc3g","pricing_plan_id":"free"},{"bike_id":"23509bd6-5224-4f08-99a9-4e53510eec07","system_id":"levelo_inurba_marseille","lat":43.29841,"lon":5.36262,"is_reserved":false,"is_disabled":false,"rental_uris":{"android":"levelo://app?vid=23509bd6-5224-4f08-99a9-4e53510eec07","ios":"levelo://app?vid=23509bd6-5224-4f08-99a9-4e53510eec07"},"vehicle_type_id":"4","last_reported":1701270468,"current_range_meters":30400,"station_id":"ce4bgpp2rcd13ifvqc3g","pricing_plan_id":"free"},{"bike_id":"aebb5f1f-3a1e-4323-a4f0-ae83e0b78d14","system_id":"levelo_inurba_marseille","lat":43.327603,"lon":5.36705,"is_reserved":false,"is_disabled":false,"rental_uris":{"android":"levelo://app?vid=aebb5f1f-3a1e-4323-a4f0-ae83e0b78d14","ios":"levelo://app?vid=aebb5f1f-3a1e-4323-a4f0-ae83e0b78d14"},"vehicle_type_id":"4","last_reported":1701270468,"current_range_meters":28000,"station_id":"","pricing_plan_id":"free"},{"bike_id":"16265717-c92d-4561-820d-25f2d7f164ee","system_id":"levelo_inurba_marseille","lat":43.297163,"lon":5.365866,"is_reserved":false,"is_disabled":false,"rental_uris":{"android":"levelo://app?vid=16265717-c92d-4561-820d-25f2d7f164ee","ios":"levelo://app?vid=16265717-c92d-4561-820d-25f2d7f164ee"},"vehicle_type_id":"4","last_reported":1701270468,"current_range_meters":19600,"station_id":"ce4bgn12rcd13ifvqbt0","pricing_plan_id":"free"},{"bike_id":"422ecd82-981c-48f7-acfe-44a96d10ea13","system_id":"levelo_inurba_marseille","lat":43.297163,"lon":5.365866,"is_reserved":false,"is_disabled":false,"rental_uris":{"android":"levelo://app?vid=422ecd82-981c-48f7-acfe-44a96d10ea13","ios":"levelo://app?vid=422ecd82-981c-48f7-acfe-44a96d10ea13"},"vehicle_type_id":"4","last_reported":1701270468,"current_range_meters":28400,"station_id":"ce4bgn12rcd13ifvqbt0","pricing_plan_id":"free"},{"bike_id":"49fd8ce7-4970-4f08-8414-768785507024","system_id":"levelo_inurba_marseille","lat":43.297163,"lon":5.365866,"is_reserved":false,"is_disabled":false,"rental_uris":{"android":"levelo://app?vid=49fd8ce7-4970-4f08-8414-768785507024","ios":"levelo://app?vid=49fd8ce7-4970-4f08-8414-768785507024"},"vehicle_type_id":"4","last_reported":1701270468,"current_range_meters":20800,"station_id":"ce4bgn12rcd13ifvqbt0","pricing_plan_id":"free"},{"bike_id":"22262d8b-73cf-4ef1-b566-1c113e9a759e","system_id":"levelo_inurba_marseille","lat":43.296131,"lon":5.370791,"is_reserved":false,"is_disabled":false,"rental_uris":{"android":"levelo://app?vid=22262d8b-73cf-4ef1-b566-1c113e9a759e","ios":"levelo://app?vid=22262d8b-73cf-4ef1-b566-1c113e9a759e"},"vehicle_type_id":"4","last_reported":1701270468,"current_range_meters":19600,"station_id":"ce4bgnh2rcd13ifvqc0g","pricing_plan_id":"free"},{"bike_id":"838561bc-c981-4f76-b663-a9e7c65f48fa","system_id":"levelo_inurba_marseille","lat":43.296131,"lon":5.370773,"is_reserved":false,"is_disabled":false,"rental_uris":{"android":"levelo://app?vid=838561bc-c981-4f76-b663-a9e7c65f48fa","ios":"levelo://app?vid=838561bc-c981-4f76-b663-a9e7c65f48fa"},"vehicle_type_id":"4","last_reported":1701270468,"current_range_meters":20400,"station_id":"ce4bgnh2rcd13ifvqc0g","pricing_plan_id":"free"},{"bike_id":"31b67432-db9c-4555-92a0-002895bbda52","system_id":"levelo_inurba_marseille","lat":43.29573,"lon":5.367355,"is_reserved":false,"is_disabled":false,"rental_uris":{"android":"levelo://app?vid=31b67432-db9c-4555-92a0-002895bbda52","ios":"levelo://app?vid=31b67432-db9c-4555-92a0-002895bbda52"},"vehicle_type_id":"4","last_reported":1701270468,"current_range_meters":30400,"station_id":"ce4bgph2rcd13ifvqc2g","pricing_plan_id":"free"},{"bike_id":"b6826001-a239-47f9-a2fa-23dbcaf02547","system_id":"levelo_inurba_marseille","lat":43.29573,"lon":5.367355,"is_reserved":false,"is_disabled":false,"rental_uris":{"android":"levelo://app?vid=b6826001-a239-47f9-a2fa-23dbcaf02547","ios":"levelo://app?vid=b6826001-a239-47f9-a2fa-23dbcaf02547"},"vehicle_type_id":"4","last_reported":1701270468,"current_range_meters":29600,"station_id":"ce4bgph2rcd13ifvqc2g","pricing_plan_id":"free"},{"bike_id":"858e91ae-82b7-4f4b-9022-daba8da335b7","system_id":"levelo_inurba_marseille","lat":43.29573,"lon":5.367355,"is_reserved":false,"is_disabled":false,"rental_uris":{"android":"levelo://app?vid=858e91ae-82b7-4f4b-9022-daba8da335b7","ios":"levelo://app?vid=858e91ae-82b7-4f4b-9022-daba8da335b7"},"vehicle_type_id":"4","last_reported":1701270468,"current_range_meters":30400,"station_id":"ce4bgph2rcd13ifvqc2g","pricing_plan_id":"free"},{"bike_id":"023e8aae-c5be-4f63-9eed-12793bd56ecd","system_id":"levelo_inurba_marseille","lat":43.296935,"lon":5.376544,"is_reserved":false,"is_disabled":false,"rental_uris":{"android":"levelo://app?vid=023e8aae-c5be-4f63-9eed-12793bd56ecd","ios":"levelo://app?vid=023e8aae-c5be-4f63-9eed-12793bd56ecd"},"vehicle_type_id":"4","last_reported":1701270468,"current_range_meters":24400,"station_id":"ce4bgkh2rcd13ifvqbl0","pricing_plan_id":"free"},{"bike_id":"16326e26-e172-4cf3-b05f-6c46fe50efd3","system_id":"levelo_inurba_marseille","lat":43.309589,"lon":5.390258,"is_reserved":false,"is_disabled":false,"rental_uris":{"android":"levelo://app?vid=16326e26-e172-4cf3-b05f-6c46fe50efd3","ios":"levelo://app?vid=16326e26-e172-4cf3-b05f-6c46fe50efd3"},"vehicle_type_id":"4","last_reported":1701270468,"current_range_meters":0,"station_id":"ce4bgup2rcd13ifvqco0","pricing_plan_id":"free"},{"bike_id":"d6789887-fde8-4b00-b237-cb155ad2765a","system_id":"levelo_inurba_marseille","lat":43.299028,"lon":5.381509,"is_reserved":false,"is_disabled":false,"rental_uris":{"android":"levelo://app?vid=d6789887-fde8-4b00-b237-cb155ad2765a","ios":"levelo://app?vid=d6789887-fde8-4b00-b237-cb155ad2765a"},"vehicle_type_id":"4","last_reported":1701270468,"current_range_meters":15200,"station_id":"ce4bgj12rcd13ifvqbc0","pricing_plan_id":"free"},{"bike_id":"48c7f61f-6ac6-4738-9871-67114a72183b","system_id":"levelo_inurba_marseille","lat":43.299028,"lon":5.381509,"is_reserved":false,"is_disabled":false,"rental_uris":{"android":"levelo://app?vid=48c7f61f-6ac6-4738-9871-67114a72183b","ios":"levelo://app?vid=48c7f61f-6ac6-4738-9871-67114a72183b"},"vehicle_type_id":"4","last_reported":1701270468,"current_range_meters":20800,"station_id":"ce4bgj12rcd13ifvqbc0","pricing_plan_id":"free"},{"bike_id":"6f4a9f2b-025e-4ce9-a9bf-f1e45e2362df","system_id":"levelo_inurba_marseille","lat":43.29574,"lon":5.37517,"is_reserved":false,"is_disabled":false,"rental_uris":{"android":"levelo://app?vid=6f4a9f2b-025e-4ce9-a9bf-f1e45e2362df","ios":"levelo://app?vid=6f4a9f2b-025e-4ce9-a9bf-f1e45e2362df"},"vehicle_type_id":"4","last_reported":1701270468,"current_range_meters":0,"station_id":"ce4bgh92rcd13ifvqb50","pricing_plan_id":"free"},{"bike_id":"721a612c-c50b-46a0-af20-004debbd58a7","system_id":"levelo_inurba_marseille","lat":43.2961,"lon":5.37709,"is_reserved":false,"is_disabled":false,"rental_uris":{"android":"levelo://app?vid=721a612c-c50b-46a0-af20-004debbd58a7","ios":"levelo://app?vid=721a612c-c50b-46a0-af20-004debbd58a7"},"vehicle_type_id":"4","last_reported":1701270468,"current_range_meters":2800,"station_id":"ce4bgi92rcd13ifvqb90","pricing_plan_id":"free"},{"bike_id":"accbf54f-e69a-4ea1-8db7-4770f50ad659","system_id":"levelo_inurba_marseille","lat":43.29782,"lon":5.38136,"is_reserved":false,"is_disabled":false,"rental_uris":{"android":"levelo://app?vid=accbf54f-e69a-4ea1-8db7-4770f50ad659","ios":"levelo://app?vid=accbf54f-e69a-4ea1-8db7-4770f50ad659"},"vehicle_type_id":"4","last_reported":1701270468,"current_range_meters":20800,"station_id":"ce4bgip2rcd13ifvqbb0","pricing_plan_id":"free"},{"bike_id":"0d6072df-624e-4d08-8348-c93dcf956718","system_id":"levelo_inurba_marseille","lat":43.299707,"lon":5.384859,"is_reserved":false,"is_disabled":false,"rental_uris":{"android":"levelo://app?vid=0d6072df-624e-4d08-8348-c93dcf956718","ios":"levelo://app?vid=0d6072df-624e-4d08-8348-c93dcf956718"},"vehicle_type_id":"4","last_reported":1701270468,"current_range_meters":4000,"station_id":"ce4bgj92rcd13ifvqbd0","pricing_plan_id":"free"},{"bike_id":"1a1de8a0-e41b-42bd-8a8f-81176c156e3f","system_id":"levelo_inurba_marseille","lat":43.299724,"lon":5.384848,"is_reserved":false,"is_disabled":false,"rental_uris":{"android":"levelo://app?vid=1a1de8a0-e41b-42bd-8a8f-81176c156e3f","ios":"levelo://app?vid=1a1de8a0-e41b-42bd-8a8f-81176c156e3f"},"vehicle_type_id":"4","last_reported":1701270468,"current_range_meters":400,"station_id":"ce4bgj92rcd13ifvqbd0","pricing_plan_id":"free"},{"bike_id":"bb23399e-524e-43ac-9bfa-d55c1864d6d3","system_id":"levelo_inurba_marseille","lat":43.32367,"lon":5.388836,"is_reserved":false,"is_disabled":false,"rental_uris":{"android":"levelo://app?vid=bb23399e-524e-43ac-9bfa-d55c1864d6d3","ios":"levelo://app?vid=bb23399e-524e-43ac-9bfa-d55c1864d6d3"},"vehicle_type_id":"4","last_reported":1701270468,"current_range_meters":24400,"station_id":"ce4bhqp2rcd13ifvqhog","pricing_plan_id":"free"},{"bike_id":"49ccc6f3-b459-4af2-ad55-4d5861e99844","system_id":"levelo_inurba_marseille","lat":43.2936,"lon":5.37835,"is_reserved":false,"is_disabled":false,"rental_uris":{"android":"levelo://app?vid=49ccc6f3-b459-4af2-ad55-4d5861e99844","ios":"levelo://app?vid=49ccc6f3-b459-4af2-ad55-4d5861e99844"},"vehicle_type_id":"4","last_reported":1701270468,"current_range_meters":14000,"station_id":"ce4bgjh2rcd13ifvqbf0","pricing_plan_id":"free"},{"bike_id":"e63656e8-271c-4857-884c-bfacfbb145db","system_id":"levelo_inurba_marseille","lat":43.2936,"lon":5.37835,"is_reserved":false,"is_disabled":false,"rental_uris":{"android":"levelo://app?vid=e63656e8-271c-4857-884c-bfacfbb145db","ios":"levelo://app?vid=e63656e8-271c-4857-884c-bfacfbb145db"},"vehicle_type_id":"4","last_reported":1701270468,"current_range_meters":16000,"station_id":"ce4bgjh2rcd13ifvqbf0","pricing_plan_id":"free"},{"bike_id":"25a9cb49-9e89-4472-a1a8-b31d436c4ba0","system_id":"levelo_inurba_marseille","lat":43.282744,"lon":5.350533,"is_reserved":false,"is_disabled":false,"rental_uris":{"android":"levelo://app?vid=25a9cb49-9e89-4472-a1a8-b31d436c4ba0","ios":"levelo://app?vid=25a9cb49-9e89-4472-a1a8-b31d436c4ba0"},"vehicle_type_id":"4","last_reported":1701270468,"current_range_meters":29600,"station_id":"ce4bhbp2rcd13ifvqerg","pricing_plan_id":"free"},{"bike_id":"28b1a365-07d4-4e07-858c-eba12e9ab1e6","system_id":"levelo_inurba_marseille","lat":43.292663,"lon":5.376394,"is_reserved":false,"is_disabled":false,"rental_uris":{"android":"levelo://app?vid=28b1a365-07d4-4e07-858c-eba12e9ab1e6","ios":"levelo://app?vid=28b1a365-07d4-4e07-858c-eba12e9ab1e6"},"vehicle_type_id":"4","last_reported":1701270468,"current_range_meters":12400,"station_id":"ce4bgi12rcd13ifvqb80","pricing_plan_id":"free"},{"bike_id":"35304c8f-4ebf-47df-ba83-8a429d8387d9","system_id":"levelo_inurba_marseille","lat":43.291675,"lon":5.371583,"is_reserved":false,"is_disabled":false,"rental_uris":{"android":"levelo://app?vid=35304c8f-4ebf-47df-ba83-8a429d8387d9","ios":"levelo://app?vid=35304c8f-4ebf-47df-ba83-8a429d8387d9"},"vehicle_type_id":"4","last_reported":1701270468,"current_range_meters":20000,"station_id":"ce4bha92rcd13ifvqeh0","pricing_plan_id":"free"},{"bike_id":"a2a982e3-6f43-45c5-9b17-6b10b42b5df9","system_id":"levelo_inurba_marseille","lat":43.313291,"lon":5.396838,"is_reserved":false,"is_disabled":false,"rental_uris":{"android":"levelo://app?vid=a2a982e3-6f43-45c5-9b17-6b10b42b5df9","ios":"levelo://app?vid=a2a982e3-6f43-45c5-9b17-6b10b42b5df9"},"vehicle_type_id":"4","last_reported":1701270468,"current_range_meters":6400,"station_id":"ce4bgvp2rcd13ifvqcu0","pricing_plan_id":"free"},{"bike_id":"6cc60730-0ca0-40b8-8077-717c0d663bda","system_id":"levelo_inurba_marseille","lat":43.313291,"lon":5.396838,"is_reserved":false,"is_disabled":false,"rental_uris":{"android":"levelo://app?vid=6cc60730-0ca0-40b8-8077-717c0d663bda","ios":"levelo://app?vid=6cc60730-0ca0-40b8-8077-717c0d663bda"},"vehicle_type_id":"4","last_reported":1701270468,"current_range_meters":12000,"station_id":"ce4bgvp2rcd13ifvqcu0","pricing_plan_id":"free"},{"bike_id":"b8bf8936-c076-4d07-a888-58b3e4fb4ea5","system_id":"levelo_inurba_marseille","lat":43.309038,"lon":5.396546,"is_reserved":false,"is_disabled":false,"rental_uris":{"android":"levelo://app?vid=b8bf8936-c076-4d07-a888-58b3e4fb4ea5","ios":"levelo://app?vid=b8bf8936-c076-4d07-a888-58b3e4fb4ea5"},"vehicle_type_id":"4","last_reported":1701270468,"current_range_meters":20000,"station_id":"ce4bh012rcd13ifvqcv0","pricing_plan_id":"free"},{"bike_id":"1b08de9e-e718-40ed-8bf0-7aeb73f06d43","system_id":"levelo_inurba_marseille","lat":43.31327,"lon":5.39703,"is_reserved":false,"is_disabled":false,"rental_uris":{"android":"levelo://app?vid=1b08de9e-e718-40ed-8bf0-7aeb73f06d43","ios":"levelo://app?vid=1b08de9e-e718-40ed-8bf0-7aeb73f06d43"},"vehicle_type_id":"4","last_reported":1701270468,"current_range_meters":4000,"station_id":"ce4bgvp2rcd13ifvqcu0","pricing_plan_id":"free"},{"bike_id":"b1d96bbe-e956-4648-af61-4b138a2acbc6","system_id":"levelo_inurba_marseille","lat":43.309047,"lon":5.396551,"is_reserved":false,"is_disabled":false,"rental_uris":{"android":"levelo://app?vid=b1d96bbe-e956-4648-af61-4b138a2acbc6","ios":"levelo://app?vid=b1d96bbe-e956-4648-af61-4b138a2acbc6"},"vehicle_type_id":"4","last_reported":1701270468,"current_range_meters":22000,"station_id":"ce4bh012rcd13ifvqcv0","pricing_plan_id":"free"},{"bike_id":"bee57f89-78e2-4de5-8ff6-13dba1df3ac6","system_id":"levelo_inurba_marseille","lat":43.29074,"lon":5.37169,"is_reserved":false,"is_disabled":false,"rental_uris":{"android":"levelo://app?vid=bee57f89-78e2-4de5-8ff6-13dba1df3ac6","ios":"levelo://app?vid=bee57f89-78e2-4de5-8ff6-13dba1df3ac6"},"vehicle_type_id":"4","last_reported":1701270468,"current_range_meters":0,"station_id":"ce4bh5p2rcd13ifvqe4g","pricing_plan_id":"free"},{"bike_id":"402b5b58-e7a0-41e4-adda-1b5a27caf8a4","system_id":"levelo_inurba_marseille","lat":43.29038,"lon":5.37559,"is_reserved":false,"is_disabled":false,"rental_uris":{"android":"levelo://app?vid=402b5b58-e7a0-41e4-adda-1b5a27caf8a4","ios":"levelo://app?vid=402b5b58-e7a0-41e4-adda-1b5a27caf8a4"},"vehicle_type_id":"4","last_reported":1701270468,"current_range_meters":19200,"station_id":"ce4bh692rcd13ifvqe90","pricing_plan_id":"free"},{"bike_id":"b5a250b3-4a33-44c6-b305-8a47af9e0ee5","system_id":"levelo_inurba_marseille","lat":43.29031,"lon":5.37571,"is_reserved":false,"is_disabled":false,"rental_uris":{"android":"levelo://app?vid=b5a250b3-4a33-44c6-b305-8a47af9e0ee5","ios":"levelo://app?vid=b5a250b3-4a33-44c6-b305-8a47af9e0ee5"},"vehicle_type_id":"4","last_reported":1701270468,"current_range_meters":3600,"station_id":"ce4bh692rcd13ifvqe90","pricing_plan_id":"free"},{"bike_id":"f7b5fee5-6f3b-48d4-bfe5-1bd2fc087384","system_id":"levelo_inurba_marseille","lat":43.28933,"lon":5.36388,"is_reserved":false,"is_disabled":false,"rental_uris":{"android":"levelo://app?vid=f7b5fee5-6f3b-48d4-bfe5-1bd2fc087384","ios":"levelo://app?vid=f7b5fee5-6f3b-48d4-bfe5-1bd2fc087384"},"vehicle_type_id":"4","last_reported":1701270468,"current_range_meters":16000,"station_id":"ce4bhc92rcd13ifvqetg","pricing_plan_id":"free"},{"bike_id":"1b83a221-6f76-47e8-8aab-84c2665d100e","system_id":"levelo_inurba_marseille","lat":43.290995,"lon":5.381361,"is_reserved":false,"is_disabled":false,"rental_uris":{"android":"levelo://app?vid=1b83a221-6f76-47e8-8aab-84c2665d100e","ios":"levelo://app?vid=1b83a221-6f76-47e8-8aab-84c2665d100e"},"vehicle_type_id":"4","last_reported":1701270468,"current_range_meters":20400,"station_id":"ce4bh512rcd13ifvqe2g","pricing_plan_id":"free"},{"bike_id":"12c30f4e-76e0-41ef-8a12-89b43f4a1d8c","system_id":"levelo_inurba_marseille","lat":43.289741,"lon":5.378306,"is_reserved":false,"is_disabled":false,"rental_uris":{"android":"levelo://app?vid=12c30f4e-76e0-41ef-8a12-89b43f4a1d8c","ios":"levelo://app?vid=12c30f4e-76e0-41ef-8a12-89b43f4a1d8c"},"vehicle_type_id":"4","last_reported":1701270468,"current_range_meters":12000,"station_id":"ce4bh9p2rcd13ifvqed0","pricing_plan_id":"free"},{"bike_id":"177ea122-75f0-4de7-bf32-50406745dc28","system_id":"levelo_inurba_marseille","lat":43.29789,"lon":5.39345,"is_reserved":false,"is_disabled":false,"rental_uris":{"android":"levelo://app?vid=177ea122-75f0-4de7-bf32-50406745dc28","ios":"levelo://app?vid=177ea122-75f0-4de7-bf32-50406745dc28"},"vehicle_type_id":"4","last_reported":1701270468,"current_range_meters":24400,"station_id":"chh1huq6cuj3fo74tm60","pricing_plan_id":"free"},{"bike_id":"2f8cf65e-2b4a-404a-9aa6-a3a9d6e71ac1","system_id":"levelo_inurba_marseille","lat":43.309,"lon":5.40154,"is_reserved":false,"is_disabled":false,"rental_uris":{"android":"levelo://app?vid=2f8cf65e-2b4a-404a-9aa6-a3a9d6e71ac1","ios":"levelo://app?vid=2f8cf65e-2b4a-404a-9aa6-a3a9d6e71ac1"},"vehicle_type_id":"4","last_reported":1701270468,"current_range_meters":11600,"station_id":"ce4bgvp2rcd13ifvqct0","pricing_plan_id":"free"},{"bike_id":"fb5f170d-2490-4436-87a6-bba2582b13d8","system_id":"levelo_inurba_marseille","lat":43.33758,"lon":5.37462,"is_reserved":false,"is_disabled":false,"rental_uris":{"android":"levelo://app?vid=fb5f170d-2490-4436-87a6-bba2582b13d8","ios":"levelo://app?vid=fb5f170d-2490-4436-87a6-bba2582b13d8"},"vehicle_type_id":"4","last_reported":1701270468,"current_range_meters":21600,"station_id":"","pricing_plan_id":"free"},{"bike_id":"4bffbf10-f179-4cb8-b846-e5019c71ca7d","system_id":"levelo_inurba_marseille","lat":43.30642,"lon":5.401031,"is_reserved":false,"is_disabled":false,"rental_uris":{"android":"levelo://app?vid=4bffbf10-f179-4cb8-b846-e5019c71ca7d","ios":"levelo://app?vid=4bffbf10-f179-4cb8-b846-e5019c71ca7d"},"vehicle_type_id":"4","last_reported":1701270468,"current_range_meters":24800,"station_id":"ce4bh112rcd13ifvqda0","pricing_plan_id":"free"},{"bike_id":"2a532b2a-06f9-4a72-9e68-61690939b759","system_id":"levelo_inurba_marseille","lat":43.30649,"lon":5.40104,"is_reserved":false,"is_disabled":false,"rental_uris":{"android":"levelo://app?vid=2a532b2a-06f9-4a72-9e68-61690939b759","ios":"levelo://app?vid=2a532b2a-06f9-4a72-9e68-61690939b759"},"vehicle_type_id":"4","last_reported":1701270468,"current_range_meters":6800,"station_id":"ce4bh112rcd13ifvqda0","pricing_plan_id":"free"},{"bike_id":"02f035a4-0752-4b2d-a4c2-150a2547c29d","system_id":"levelo_inurba_marseille","lat":43.306412,"lon":5.401035,"is_reserved":false,"is_disabled":false,"rental_uris":{"android":"levelo://app?vid=02f035a4-0752-4b2d-a4c2-150a2547c29d","ios":"levelo://app?vid=02f035a4-0752-4b2d-a4c2-150a2547c29d"},"vehicle_type_id":"4","last_reported":1701270468,"current_range_meters":6000,"station_id":"ce4bh112rcd13ifvqda0","pricing_plan_id":"free"},{"bike_id":"0e088404-39bb-4b0e-9c0b-db051b86b90d","system_id":"levelo_inurba_marseille","lat":43.30643,"lon":5.40178,"is_reserved":false,"is_disabled":false,"rental_uris":{"android":"levelo://app?vid=0e088404-39bb-4b0e-9c0b-db051b86b90d","ios":"levelo://app?vid=0e088404-39bb-4b0e-9c0b-db051b86b90d"},"vehicle_type_id":"4","last_reported":1701270468,"current_range_meters":17200,"station_id":"","pricing_plan_id":"free"},{"bike_id":"0afd1323-c9ec-45ae-a489-204969753d3d","system_id":"levelo_inurba_marseille","lat":43.298681,"lon":5.397225,"is_reserved":false,"is_disabled":false,"rental_uris":{"android":"levelo://app?vid=0afd1323-c9ec-45ae-a489-204969753d3d","ios":"levelo://app?vid=0afd1323-c9ec-45ae-a489-204969753d3d"},"vehicle_type_id":"4","last_reported":1701270468,"current_range_meters":5200,"station_id":"ce4bh0h2rcd13ifvqd50","pricing_plan_id":"free"},{"bike_id":"f7e8467e-ec60-46b1-9c4b-41461d13e3c6","system_id":"levelo_inurba_marseille","lat":43.298681,"lon":5.397225,"is_reserved":false,"is_disabled":false,"rental_uris":{"android":"levelo://app?vid=f7e8467e-ec60-46b1-9c4b-41461d13e3c6","ios":"levelo://app?vid=f7e8467e-ec60-46b1-9c4b-41461d13e3c6"},"vehicle_type_id":"4","last_reported":1701270468,"current_range_meters":4400,"station_id":"ce4bh0h2rcd13ifvqd50","pricing_plan_id":"free"},{"bike_id":"07a5dcaf-2827-43b1-81b5-a05bcf336278","system_id":"levelo_inurba_marseille","lat":43.298681,"lon":5.397225,"is_reserved":false,"is_disabled":false,"rental_uris":{"android":"levelo://app?vid=07a5dcaf-2827-43b1-81b5-a05bcf336278","ios":"levelo://app?vid=07a5dcaf-2827-43b1-81b5-a05bcf336278"},"vehicle_type_id":"4","last_reported":1701270468,"current_range_meters":17200,"station_id":"ce4bh0h2rcd13ifvqd50","pricing_plan_id":"free"},{"bike_id":"b61b699b-ee0e-44a0-b504-0c8dd98bc42d","system_id":"levelo_inurba_marseille","lat":43.286593,"lon":5.363346,"is_reserved":false,"is_disabled":false,"rental_uris":{"android":"levelo://app?vid=b61b699b-ee0e-44a0-b504-0c8dd98bc42d","ios":"levelo://app?vid=b61b699b-ee0e-44a0-b504-0c8dd98bc42d"},"vehicle_type_id":"4","last_reported":1701270468,"current_range_meters":29600,"station_id":"ce4bhah2rcd13ifvqej0","pricing_plan_id":"free"},{"bike_id":"9b4c07bb-e7c7-4555-b636-8f7f7e03eb36","system_id":"levelo_inurba_marseille","lat":43.29021,"lon":5.38647,"is_reserved":false,"is_disabled":false,"rental_uris":{"android":"levelo://app?vid=9b4c07bb-e7c7-4555-b636-8f7f7e03eb36","ios":"levelo://app?vid=9b4c07bb-e7c7-4555-b636-8f7f7e03eb36"},"vehicle_type_id":"4","last_reported":1701270468,"current_range_meters":0,"station_id":"","pricing_plan_id":"free"},{"bike_id":"def12208-bd8f-4dbf-8df8-7372f3d0c669","system_id":"levelo_inurba_marseille","lat":43.286039,"lon":5.370681,"is_reserved":false,"is_disabled":false,"rental_uris":{"android":"levelo://app?vid=def12208-bd8f-4dbf-8df8-7372f3d0c669","ios":"levelo://app?vid=def12208-bd8f-4dbf-8df8-7372f3d0c669"},"vehicle_type_id":"4","last_reported":1701270468,"current_range_meters":2000,"station_id":"ce4bht12rcd13ifvqi60","pricing_plan_id":"free"},{"bike_id":"df081536-75d3-4605-b138-fc66a8e5ce11","system_id":"levelo_inurba_marseille","lat":43.286039,"lon":5.370679,"is_reserved":false,"is_disabled":false,"rental_uris":{"android":"levelo://app?vid=df081536-75d3-4605-b138-fc66a8e5ce11","ios":"levelo://app?vid=df081536-75d3-4605-b138-fc66a8e5ce11"},"vehicle_type_id":"4","last_reported":1701270468,"current_range_meters":25600,"station_id":"ce4bht12rcd13ifvqi60","pricing_plan_id":"free"},{"bike_id":"b1e7ad00-a32e-4b83-b0b1-920ce5d7933b","system_id":"levelo_inurba_marseille","lat":43.31646,"lon":5.40438,"is_reserved":false,"is_disabled":false,"rental_uris":{"android":"levelo://app?vid=b1e7ad00-a32e-4b83-b0b1-920ce5d7933b","ios":"levelo://app?vid=b1e7ad00-a32e-4b83-b0b1-920ce5d7933b"},"vehicle_type_id":"4","last_reported":1701270468,"current_range_meters":16800,"station_id":"ce4bh012rcd13ifvqd00","pricing_plan_id":"free"},{"bike_id":"fc889240-8464-4342-915b-09eb37bbaa3e","system_id":"levelo_inurba_marseille","lat":43.303837,"lon":5.418724,"is_reserved":false,"is_disabled":false,"rental_uris":{"android":"levelo://app?vid=fc889240-8464-4342-915b-09eb37bbaa3e","ios":"levelo://app?vid=fc889240-8464-4342-915b-09eb37bbaa3e"},"vehicle_type_id":"4","last_reported":1701270468,"current_range_meters":25600,"station_id":"ce4bhop2rcd13ifvqh7g","pricing_plan_id":"free"},{"bike_id":"a6362d52-6052-4900-8cf3-c43110ab7b40","system_id":"levelo_inurba_marseille","lat":43.2919,"lon":5.39328,"is_reserved":false,"is_disabled":false,"rental_uris":{"android":"levelo://app?vid=a6362d52-6052-4900-8cf3-c43110ab7b40","ios":"levelo://app?vid=a6362d52-6052-4900-8cf3-c43110ab7b40"},"vehicle_type_id":"4","last_reported":1701270468,"current_range_meters":0,"station_id":"ce4bh192rcd13ifvqdd0","pricing_plan_id":"free"},{"bike_id":"313ab1ef-7065-4a4c-997a-2178e3fbad49","system_id":"levelo_inurba_marseille","lat":43.284538,"lon":5.358657,"is_reserved":false,"is_disabled":false,"rental_uris":{"android":"levelo://app?vid=313ab1ef-7065-4a4c-997a-2178e3fbad49","ios":"levelo://app?vid=313ab1ef-7065-4a4c-997a-2178e3fbad49"},"vehicle_type_id":"4","last_reported":1701270468,"current_range_meters":17600,"station_id":"ce4bhah2rcd13ifvqei0","pricing_plan_id":"free"},{"bike_id":"3a844e0e-3e75-4d91-89a2-2fadd847157a","system_id":"levelo_inurba_marseille","lat":43.286595,"lon":5.386795,"is_reserved":false,"is_disabled":false,"rental_uris":{"android":"levelo://app?vid=3a844e0e-3e75-4d91-89a2-2fadd847157a","ios":"levelo://app?vid=3a844e0e-3e75-4d91-89a2-2fadd847157a"},"vehicle_type_id":"4","last_reported":1701270468,"current_range_meters":30000,"station_id":"ce4bh492rcd13ifvqdug","pricing_plan_id":"free"},{"bike_id":"6ff5d115-f28a-483a-aec5-b27119424507","system_id":"levelo_inurba_marseille","lat":43.32332,"lon":5.40615,"is_reserved":false,"is_disabled":false,"rental_uris":{"android":"levelo://app?vid=6ff5d115-f28a-483a-aec5-b27119424507","ios":"levelo://app?vid=6ff5d115-f28a-483a-aec5-b27119424507"},"vehicle_type_id":"4","last_reported":1701270468,"current_range_meters":20800,"station_id":"ce4bhq92rcd13ifvqhjg","pricing_plan_id":"free"},{"bike_id":"f794c415-2bea-4b9f-8b8f-9bf67c7f0f06","system_id":"levelo_inurba_marseille","lat":43.28479,"lon":5.38407,"is_reserved":false,"is_disabled":false,"rental_uris":{"android":"levelo://app?vid=f794c415-2bea-4b9f-8b8f-9bf67c7f0f06","ios":"levelo://app?vid=f794c415-2bea-4b9f-8b8f-9bf67c7f0f06"},"vehicle_type_id":"4","last_reported":1701270468,"current_range_meters":0,"station_id":"ce4bh512rcd13ifvqe3g","pricing_plan_id":"free"},{"bike_id":"d504cad5-5d08-420a-9f8e-d6b5a86fb6ac","system_id":"levelo_inurba_marseille","lat":43.28475,"lon":5.38417,"is_reserved":false,"is_disabled":false,"rental_uris":{"android":"levelo://app?vid=d504cad5-5d08-420a-9f8e-d6b5a86fb6ac","ios":"levelo://app?vid=d504cad5-5d08-420a-9f8e-d6b5a86fb6ac"},"vehicle_type_id":"4","last_reported":1701270468,"current_range_meters":0,"station_id":"ce4bh512rcd13ifvqe3g","pricing_plan_id":"free"},{"bike_id":"178cb586-1448-428b-8f1d-7fd4d696740d","system_id":"levelo_inurba_marseille","lat":43.283494,"lon":5.380945,"is_reserved":false,"is_disabled":false,"rental_uris":{"android":"levelo://app?vid=178cb586-1448-428b-8f1d-7fd4d696740d","ios":"levelo://app?vid=178cb586-1448-428b-8f1d-7fd4d696740d"},"vehicle_type_id":"4","last_reported":1701270468,"current_range_meters":23200,"station_id":"ce4bh412rcd13ifvqdr0","pricing_plan_id":"free"},{"bike_id":"923eaf73-0458-4ed7-a6eb-0ca5ad72cc62","system_id":"levelo_inurba_marseille","lat":43.297973,"lon":5.404094,"is_reserved":false,"is_disabled":false,"rental_uris":{"android":"levelo://app?vid=923eaf73-0458-4ed7-a6eb-0ca5ad72cc62","ios":"levelo://app?vid=923eaf73-0458-4ed7-a6eb-0ca5ad72cc62"},"vehicle_type_id":"4","last_reported":1701270468,"current_range_meters":0,"station_id":"","pricing_plan_id":"free"},{"bike_id":"575814a9-a561-4d6e-9e12-2dd7529a82d1","system_id":"levelo_inurba_marseille","lat":43.288501,"lon":5.393087,"is_reserved":false,"is_disabled":false,"rental_uris":{"android":"levelo://app?vid=575814a9-a561-4d6e-9e12-2dd7529a82d1","ios":"levelo://app?vid=575814a9-a561-4d6e-9e12-2dd7529a82d1"},"vehicle_type_id":"4","last_reported":1701270468,"current_range_meters":30000,"station_id":"ce4bh2p2rcd13ifvqdi0","pricing_plan_id":"free"},{"bike_id":"0706184a-40a6-4476-af1f-681e8e621ca6","system_id":"levelo_inurba_marseille","lat":43.292724,"lon":5.401131,"is_reserved":false,"is_disabled":false,"rental_uris":{"android":"levelo://app?vid=0706184a-40a6-4476-af1f-681e8e621ca6","ios":"levelo://app?vid=0706184a-40a6-4476-af1f-681e8e621ca6"},"vehicle_type_id":"4","last_reported":1701270468,"current_range_meters":22800,"station_id":"ce4bh312rcd13ifvqdk0","pricing_plan_id":"free"},{"bike_id":"3fede8bf-fe95-4e51-9c26-08758dedb44f","system_id":"levelo_inurba_marseille","lat":43.292724,"lon":5.401131,"is_reserved":false,"is_disabled":false,"rental_uris":{"android":"levelo://app?vid=3fede8bf-fe95-4e51-9c26-08758dedb44f","ios":"levelo://app?vid=3fede8bf-fe95-4e51-9c26-08758dedb44f"},"vehicle_type_id":"4","last_reported":1701270468,"current_range_meters":16000,"station_id":"ce4bh312rcd13ifvqdk0","pricing_plan_id":"free"},{"bike_id":"5604f83a-fe34-401a-8f5e-94bcce79e817","system_id":"levelo_inurba_marseille","lat":43.282744,"lon":5.350533,"is_reserved":false,"is_disabled":false,"rental_uris":{"android":"levelo://app?vid=5604f83a-fe34-401a-8f5e-94bcce79e817","ios":"levelo://app?vid=5604f83a-fe34-401a-8f5e-94bcce79e817"},"vehicle_type_id":"4","last_reported":1701270468,"current_range_meters":3600,"station_id":"ce4bhbp2rcd13ifvqerg","pricing_plan_id":"free"},{"bike_id":"90745877-0a2c-4c68-bc89-152bc1545f15","system_id":"levelo_inurba_marseille","lat":43.28038,"lon":5.36942,"is_reserved":false,"is_disabled":false,"rental_uris":{"android":"levelo://app?vid=90745877-0a2c-4c68-bc89-152bc1545f15","ios":"levelo://app?vid=90745877-0a2c-4c68-bc89-152bc1545f15"},"vehicle_type_id":"4","last_reported":1701270468,"current_range_meters":20400,"station_id":"ce4bha12rcd13ifvqef0","pricing_plan_id":"free"},{"bike_id":"30d4c66d-a740-48e9-8548-7a4d55ad1abf","system_id":"levelo_inurba_marseille","lat":43.280221,"lon":5.369348,"is_reserved":false,"is_disabled":false,"rental_uris":{"android":"levelo://app?vid=30d4c66d-a740-48e9-8548-7a4d55ad1abf","ios":"levelo://app?vid=30d4c66d-a740-48e9-8548-7a4d55ad1abf"},"vehicle_type_id":"4","last_reported":1701270468,"current_range_meters":4400,"station_id":"ce4bha12rcd13ifvqef0","pricing_plan_id":"free"},{"bike_id":"aa1848cd-bf55-4924-9882-c73cfcc81009","system_id":"levelo_inurba_marseille","lat":43.290392,"lon":5.399686,"is_reserved":false,"is_disabled":false,"rental_uris":{"android":"levelo://app?vid=aa1848cd-bf55-4924-9882-c73cfcc81009","ios":"levelo://app?vid=aa1848cd-bf55-4924-9882-c73cfcc81009"},"vehicle_type_id":"4","last_reported":1701270468,"current_range_meters":21200,"station_id":"ce4bh392rcd13ifvqdm0","pricing_plan_id":"free"},{"bike_id":"98d78070-eec9-4a1b-ab75-52e6b8aeb6f1","system_id":"levelo_inurba_marseille","lat":43.281044,"lon":5.378308,"is_reserved":false,"is_disabled":false,"rental_uris":{"android":"levelo://app?vid=98d78070-eec9-4a1b-ab75-52e6b8aeb6f1","ios":"levelo://app?vid=98d78070-eec9-4a1b-ab75-52e6b8aeb6f1"},"vehicle_type_id":"4","last_reported":1701270468,"current_range_meters":24400,"station_id":"ce4bha12rcd13ifvqee0","pricing_plan_id":"free"},{"bike_id":"f9e2ee3d-aa92-4d0b-8be7-27ace7d0f2a1","system_id":"levelo_inurba_marseille","lat":43.284462,"lon":5.392121,"is_reserved":false,"is_disabled":false,"rental_uris":{"android":"levelo://app?vid=f9e2ee3d-aa92-4d0b-8be7-27ace7d0f2a1","ios":"levelo://app?vid=f9e2ee3d-aa92-4d0b-8be7-27ace7d0f2a1"},"vehicle_type_id":"4","last_reported":1701270468,"current_range_meters":18400,"station_id":"ce4bhoh2rcd13ifvqh5g","pricing_plan_id":"free"},{"bike_id":"507943f2-d1d0-4193-868f-d41537182ef9","system_id":"levelo_inurba_marseille","lat":43.2843,"lon":5.39185,"is_reserved":false,"is_disabled":false,"rental_uris":{"android":"levelo://app?vid=507943f2-d1d0-4193-868f-d41537182ef9","ios":"levelo://app?vid=507943f2-d1d0-4193-868f-d41537182ef9"},"vehicle_type_id":"4","last_reported":1701270468,"current_range_meters":4000,"station_id":"ce4bhoh2rcd13ifvqh5g","pricing_plan_id":"free"},{"bike_id":"13afb955-de94-4d1f-928a-bb0026a463d0","system_id":"levelo_inurba_marseille","lat":43.28434,"lon":5.39194,"is_reserved":false,"is_disabled":false,"rental_uris":{"android":"levelo://app?vid=13afb955-de94-4d1f-928a-bb0026a463d0","ios":"levelo://app?vid=13afb955-de94-4d1f-928a-bb0026a463d0"},"vehicle_type_id":"4","last_reported":1701270468,"current_range_meters":8000,"station_id":"ce4bhoh2rcd13ifvqh5g","pricing_plan_id":"free"},{"bike_id":"85c108be-aa76-4229-b495-ebd132e31c4a","system_id":"levelo_inurba_marseille","lat":43.284462,"lon":5.392121,"is_reserved":false,"is_disabled":false,"rental_uris":{"android":"levelo://app?vid=85c108be-aa76-4229-b495-ebd132e31c4a","ios":"levelo://app?vid=85c108be-aa76-4229-b495-ebd132e31c4a"},"vehicle_type_id":"4","last_reported":1701270468,"current_range_meters":11600,"station_id":"ce4bhoh2rcd13ifvqh5g","pricing_plan_id":"free"},{"bike_id":"d585796f-96df-4163-8aa9-1affcc75a643","system_id":"levelo_inurba_marseille","lat":43.284462,"lon":5.392121,"is_reserved":false,"is_disabled":false,"rental_uris":{"android":"levelo://app?vid=d585796f-96df-4163-8aa9-1affcc75a643","ios":"levelo://app?vid=d585796f-96df-4163-8aa9-1affcc75a643"},"vehicle_type_id":"4","last_reported":1701270468,"current_range_meters":28000,"station_id":"ce4bhoh2rcd13ifvqh5g","pricing_plan_id":"free"},{"bike_id":"0c8bf0e8-5969-49b6-a1e9-803affa2ac5d","system_id":"levelo_inurba_marseille","lat":43.304188,"lon":5.412904,"is_reserved":false,"is_disabled":false,"rental_uris":{"android":"levelo://app?vid=0c8bf0e8-5969-49b6-a1e9-803affa2ac5d","ios":"levelo://app?vid=0c8bf0e8-5969-49b6-a1e9-803affa2ac5d"},"vehicle_type_id":"4","last_reported":1701270468,"current_range_meters":14800,"station_id":"ce4bhop2rcd13ifvqh8g","pricing_plan_id":"free"},{"bike_id":"451e8531-d940-47f5-adb2-4a3e2d57638f","system_id":"levelo_inurba_marseille","lat":43.304188,"lon":5.412904,"is_reserved":false,"is_disabled":false,"rental_uris":{"android":"levelo://app?vid=451e8531-d940-47f5-adb2-4a3e2d57638f","ios":"levelo://app?vid=451e8531-d940-47f5-adb2-4a3e2d57638f"},"vehicle_type_id":"4","last_reported":1701270468,"current_range_meters":14000,"station_id":"ce4bhop2rcd13ifvqh8g","pricing_plan_id":"free"},{"bike_id":"5b80a59c-2e99-4966-8888-4029d7a8bf02","system_id":"levelo_inurba_marseille","lat":43.30417,"lon":5.41286,"is_reserved":false,"is_disabled":false,"rental_uris":{"android":"levelo://app?vid=5b80a59c-2e99-4966-8888-4029d7a8bf02","ios":"levelo://app?vid=5b80a59c-2e99-4966-8888-4029d7a8bf02"},"vehicle_type_id":"4","last_reported":1701270468,"current_range_meters":27200,"station_id":"ce4bhop2rcd13ifvqh8g","pricing_plan_id":"free"},{"bike_id":"6abda9b2-0fc0-45ec-a95b-ec0e138623f7","system_id":"levelo_inurba_marseille","lat":43.304188,"lon":5.412904,"is_reserved":false,"is_disabled":false,"rental_uris":{"android":"levelo://app?vid=6abda9b2-0fc0-45ec-a95b-ec0e138623f7","ios":"levelo://app?vid=6abda9b2-0fc0-45ec-a95b-ec0e138623f7"},"vehicle_type_id":"4","last_reported":1701270468,"current_range_meters":10800,"station_id":"ce4bhop2rcd13ifvqh8g","pricing_plan_id":"free"},{"bike_id":"6c65be7c-a6a5-49fd-8c2e-f07df462c3d4","system_id":"levelo_inurba_marseille","lat":43.279087,"lon":5.380114,"is_reserved":false,"is_disabled":false,"rental_uris":{"android":"levelo://app?vid=6c65be7c-a6a5-49fd-8c2e-f07df462c3d4","ios":"levelo://app?vid=6c65be7c-a6a5-49fd-8c2e-f07df462c3d4"},"vehicle_type_id":"4","last_reported":1701270468,"current_range_meters":20400,"station_id":"ce4bhf92rcd13ifvqf50","pricing_plan_id":"free"},{"bike_id":"934c6425-ed07-4b9c-9a12-7c8ad664da40","system_id":"levelo_inurba_marseille","lat":43.292571,"lon":5.409107,"is_reserved":false,"is_disabled":false,"rental_uris":{"android":"levelo://app?vid=934c6425-ed07-4b9c-9a12-7c8ad664da40","ios":"levelo://app?vid=934c6425-ed07-4b9c-9a12-7c8ad664da40"},"vehicle_type_id":"4","last_reported":1701270468,"current_range_meters":3600,"station_id":"ce4bh192rcd13ifvqdc0","pricing_plan_id":"free"},{"bike_id":"beebb394-2e9c-4057-baef-3b0211b92c5c","system_id":"levelo_inurba_marseille","lat":43.29258,"lon":5.40906,"is_reserved":false,"is_disabled":false,"rental_uris":{"android":"levelo://app?vid=beebb394-2e9c-4057-baef-3b0211b92c5c","ios":"levelo://app?vid=beebb394-2e9c-4057-baef-3b0211b92c5c"},"vehicle_type_id":"4","last_reported":1701270468,"current_range_meters":22800,"station_id":"ce4bh192rcd13ifvqdc0","pricing_plan_id":"free"},{"bike_id":"e92581a5-4ab2-4871-b960-fcf6d25c8cd1","system_id":"levelo_inurba_marseille","lat":43.325233,"lon":5.414318,"is_reserved":false,"is_disabled":false,"rental_uris":{"android":"levelo://app?vid=e92581a5-4ab2-4871-b960-fcf6d25c8cd1","ios":"levelo://app?vid=e92581a5-4ab2-4871-b960-fcf6d25c8cd1"},"vehicle_type_id":"4","last_reported":1701270468,"current_range_meters":25600,"station_id":"ce4bhq12rcd13ifvqhhg","pricing_plan_id":"free"},{"bike_id":"8c2f9c39-7af6-4d3a-bc5b-6bf20a4dd047","system_id":"levelo_inurba_marseille","lat":43.292569,"lon":5.409107,"is_reserved":false,"is_disabled":false,"rental_uris":{"android":"levelo://app?vid=8c2f9c39-7af6-4d3a-bc5b-6bf20a4dd047","ios":"levelo://app?vid=8c2f9c39-7af6-4d3a-bc5b-6bf20a4dd047"},"vehicle_type_id":"4","last_reported":1701270468,"current_range_meters":17200,"station_id":"ce4bh192rcd13ifvqdc0","pricing_plan_id":"free"},{"bike_id":"cb956553-82cd-4b14-8c86-6a41ff7b1143","system_id":"levelo_inurba_marseille","lat":43.275625,"lon":5.384392,"is_reserved":false,"is_disabled":false,"rental_uris":{"android":"levelo://app?vid=cb956553-82cd-4b14-8c86-6a41ff7b1143","ios":"levelo://app?vid=cb956553-82cd-4b14-8c86-6a41ff7b1143"},"vehicle_type_id":"4","last_reported":1701270468,"current_range_meters":24000,"station_id":"ce4bhh92rcd13ifvqfi0","pricing_plan_id":"free"},{"bike_id":"4c23699f-c155-4113-a498-cb3f9edab158","system_id":"levelo_inurba_marseille","lat":43.275625,"lon":5.384392,"is_reserved":false,"is_disabled":false,"rental_uris":{"android":"levelo://app?vid=4c23699f-c155-4113-a498-cb3f9edab158","ios":"levelo://app?vid=4c23699f-c155-4113-a498-cb3f9edab158"},"vehicle_type_id":"4","last_reported":1701270468,"current_range_meters":23600,"station_id":"ce4bhh92rcd13ifvqfi0","pricing_plan_id":"free"},{"bike_id":"c0b28f05-0ad9-43e5-a9a1-8839855826d1","system_id":"levelo_inurba_marseille","lat":43.273609,"lon":5.362708,"is_reserved":false,"is_disabled":false,"rental_uris":{"android":"levelo://app?vid=c0b28f05-0ad9-43e5-a9a1-8839855826d1","ios":"levelo://app?vid=c0b28f05-0ad9-43e5-a9a1-8839855826d1"},"vehicle_type_id":"4","last_reported":1701270468,"current_range_meters":12800,"station_id":"ce4bhbh2rcd13ifvqeo0","pricing_plan_id":"free"},{"bike_id":"6ecd0055-a513-4dea-a0fd-cf4b6716dca9","system_id":"levelo_inurba_marseille","lat":43.273609,"lon":5.362708,"is_reserved":false,"is_disabled":false,"rental_uris":{"android":"levelo://app?vid=6ecd0055-a513-4dea-a0fd-cf4b6716dca9","ios":"levelo://app?vid=6ecd0055-a513-4dea-a0fd-cf4b6716dca9"},"vehicle_type_id":"4","last_reported":1701270468,"current_range_meters":10000,"station_id":"ce4bhbh2rcd13ifvqeo0","pricing_plan_id":"free"},{"bike_id":"e919b20f-5d14-4db1-a6be-bcb90622b930","system_id":"levelo_inurba_marseille","lat":43.273609,"lon":5.362708,"is_reserved":false,"is_disabled":false,"rental_uris":{"android":"levelo://app?vid=e919b20f-5d14-4db1-a6be-bcb90622b930","ios":"levelo://app?vid=e919b20f-5d14-4db1-a6be-bcb90622b930"},"vehicle_type_id":"4","last_reported":1701270468,"current_range_meters":14800,"station_id":"ce4bhbh2rcd13ifvqeo0","pricing_plan_id":"free"},{"bike_id":"c5f0e9da-4516-4960-81d7-5af17f05893a","system_id":"levelo_inurba_marseille","lat":43.275625,"lon":5.384392,"is_reserved":false,"is_disabled":false,"rental_uris":{"android":"levelo://app?vid=c5f0e9da-4516-4960-81d7-5af17f05893a","ios":"levelo://app?vid=c5f0e9da-4516-4960-81d7-5af17f05893a"},"vehicle_type_id":"4","last_reported":1701270468,"current_range_meters":25200,"station_id":"ce4bhh92rcd13ifvqfi0","pricing_plan_id":"free"},{"bike_id":"ddbc4b0b-3ceb-4de3-80d3-b8b95007212f","system_id":"levelo_inurba_marseille","lat":43.275625,"lon":5.384392,"is_reserved":false,"is_disabled":false,"rental_uris":{"android":"levelo://app?vid=ddbc4b0b-3ceb-4de3-80d3-b8b95007212f","ios":"levelo://app?vid=ddbc4b0b-3ceb-4de3-80d3-b8b95007212f"},"vehicle_type_id":"4","last_reported":1701270468,"current_range_meters":5600,"station_id":"ce4bhh92rcd13ifvqfi0","pricing_plan_id":"free"},{"bike_id":"ba974d52-c838-40a1-903f-03f283d43de3","system_id":"levelo_inurba_marseille","lat":43.276771,"lon":5.388799,"is_reserved":false,"is_disabled":false,"rental_uris":{"android":"levelo://app?vid=ba974d52-c838-40a1-903f-03f283d43de3","ios":"levelo://app?vid=ba974d52-c838-40a1-903f-03f283d43de3"},"vehicle_type_id":"4","last_reported":1701270468,"current_range_meters":27200,"station_id":"ce4bhi12rcd13ifvqfo0","pricing_plan_id":"free"},{"bike_id":"70658e6e-38af-40b9-aed2-066c2d60e5bb","system_id":"levelo_inurba_marseille","lat":43.274916,"lon":5.389944,"is_reserved":false,"is_disabled":false,"rental_uris":{"android":"levelo://app?vid=70658e6e-38af-40b9-aed2-066c2d60e5bb","ios":"levelo://app?vid=70658e6e-38af-40b9-aed2-066c2d60e5bb"},"vehicle_type_id":"4","last_reported":1701270468,"current_range_meters":0,"station_id":"","pricing_plan_id":"free"},{"bike_id":"ef7ba327-e43f-42e0-a02d-cb83e9268f27","system_id":"levelo_inurba_marseille","lat":43.31082,"lon":5.42431,"is_reserved":false,"is_disabled":false,"rental_uris":{"android":"levelo://app?vid=ef7ba327-e43f-42e0-a02d-cb83e9268f27","ios":"levelo://app?vid=ef7ba327-e43f-42e0-a02d-cb83e9268f27"},"vehicle_type_id":"4","last_reported":1701270468,"current_range_meters":20400,"station_id":"ce4bhp92rcd13ifvqhag","pricing_plan_id":"free"},{"bike_id":"6d957f99-609f-451b-8805-3957057e0a7b","system_id":"levelo_inurba_marseille","lat":43.274103,"lon":5.394016,"is_reserved":false,"is_disabled":false,"rental_uris":{"android":"levelo://app?vid=6d957f99-609f-451b-8805-3957057e0a7b","ios":"levelo://app?vid=6d957f99-609f-451b-8805-3957057e0a7b"},"vehicle_type_id":"4","last_reported":1701270468,"current_range_meters":20400,"station_id":"ce4bhdp2rcd13ifvqf20","pricing_plan_id":"free"},{"bike_id":"4629788e-4f7a-4103-b95e-583d0b30f54b","system_id":"levelo_inurba_marseille","lat":43.27287,"lon":5.39094,"is_reserved":false,"is_disabled":false,"rental_uris":{"android":"levelo://app?vid=4629788e-4f7a-4103-b95e-583d0b30f54b","ios":"levelo://app?vid=4629788e-4f7a-4103-b95e-583d0b30f54b"},"vehicle_type_id":"4","last_reported":1701270468,"current_range_meters":0,"station_id":"ce4bhgp2rcd13ifvqfe0","pricing_plan_id":"free"},{"bike_id":"0120dbbf-4353-4df3-96d2-747d00c5e0f6","system_id":"levelo_inurba_marseille","lat":43.2952,"lon":5.42276,"is_reserved":false,"is_disabled":false,"rental_uris":{"android":"levelo://app?vid=0120dbbf-4353-4df3-96d2-747d00c5e0f6","ios":"levelo://app?vid=0120dbbf-4353-4df3-96d2-747d00c5e0f6"},"vehicle_type_id":"4","last_reported":1701270468,"current_range_meters":24400,"station_id":"ce4bhph2rcd13ifvqhdg","pricing_plan_id":"free"},{"bike_id":"a6dbb68b-5a6f-4772-b60c-6976dd6631b6","system_id":"levelo_inurba_marseille","lat":43.295511,"lon":5.422926,"is_reserved":false,"is_disabled":false,"rental_uris":{"android":"levelo://app?vid=a6dbb68b-5a6f-4772-b60c-6976dd6631b6","ios":"levelo://app?vid=a6dbb68b-5a6f-4772-b60c-6976dd6631b6"},"vehicle_type_id":"4","last_reported":1701270468,"current_range_meters":22800,"station_id":"ce4bhph2rcd13ifvqhdg","pricing_plan_id":"free"},{"bike_id":"1d1727f4-230d-4945-b92f-0c95f84949dc","system_id":"levelo_inurba_marseille","lat":43.29518,"lon":5.42281,"is_reserved":false,"is_disabled":false,"rental_uris":{"android":"levelo://app?vid=1d1727f4-230d-4945-b92f-0c95f84949dc","ios":"levelo://app?vid=1d1727f4-230d-4945-b92f-0c95f84949dc"},"vehicle_type_id":"4","last_reported":1701270468,"current_range_meters":29200,"station_id":"ce4bhph2rcd13ifvqhdg","pricing_plan_id":"free"},{"bike_id":"68654825-d82a-4178-b682-4fd343b41a62","system_id":"levelo_inurba_marseille","lat":43.272,"lon":5.39282,"is_reserved":false,"is_disabled":false,"rental_uris":{"android":"levelo://app?vid=68654825-d82a-4178-b682-4fd343b41a62","ios":"levelo://app?vid=68654825-d82a-4178-b682-4fd343b41a62"},"vehicle_type_id":"4","last_reported":1701270468,"current_range_meters":22400,"station_id":"","pricing_plan_id":"free"},{"bike_id":"46d5c169-3deb-4718-be1c-f5e03c1c6c7f","system_id":"levelo_inurba_marseille","lat":43.278128,"lon":5.407195,"is_reserved":false,"is_disabled":false,"rental_uris":{"android":"levelo://app?vid=46d5c169-3deb-4718-be1c-f5e03c1c6c7f","ios":"levelo://app?vid=46d5c169-3deb-4718-be1c-f5e03c1c6c7f"},"vehicle_type_id":"4","last_reported":1701270468,"current_range_meters":27200,"station_id":"ce4bhnh2rcd13ifvqgtg","pricing_plan_id":"free"},{"bike_id":"2fde610a-b1fd-4bc6-8de0-5e56d20e550d","system_id":"levelo_inurba_marseille","lat":43.278128,"lon":5.407195,"is_reserved":false,"is_disabled":false,"rental_uris":{"android":"levelo://app?vid=2fde610a-b1fd-4bc6-8de0-5e56d20e550d","ios":"levelo://app?vid=2fde610a-b1fd-4bc6-8de0-5e56d20e550d"},"vehicle_type_id":"4","last_reported":1701270468,"current_range_meters":23200,"station_id":"ce4bhnh2rcd13ifvqgtg","pricing_plan_id":"free"},{"bike_id":"99d62d91-8c99-41f2-989e-87c3d2b27cab","system_id":"levelo_inurba_marseille","lat":43.269467,"lon":5.386439,"is_reserved":false,"is_disabled":false,"rental_uris":{"android":"levelo://app?vid=99d62d91-8c99-41f2-989e-87c3d2b27cab","ios":"levelo://app?vid=99d62d91-8c99-41f2-989e-87c3d2b27cab"},"vehicle_type_id":"4","last_reported":1701270468,"current_range_meters":10000,"station_id":"ce4bhh92rcd13ifvqfh0","pricing_plan_id":"free"},{"bike_id":"c5c82934-016b-4c01-b7e5-4b5a2f547bf5","system_id":"levelo_inurba_marseille","lat":43.279465,"lon":5.410561,"is_reserved":false,"is_disabled":false,"rental_uris":{"android":"levelo://app?vid=c5c82934-016b-4c01-b7e5-4b5a2f547bf5","ios":"levelo://app?vid=c5c82934-016b-4c01-b7e5-4b5a2f547bf5"},"vehicle_type_id":"4","last_reported":1701270468,"current_range_meters":5600,"station_id":"ce4bhnp2rcd13ifvqh0g","pricing_plan_id":"free"},{"bike_id":"c8afd45f-ea3e-4ce8-8779-3e2410d1c6b6","system_id":"levelo_inurba_marseille","lat":43.269319,"lon":5.389397,"is_reserved":false,"is_disabled":false,"rental_uris":{"android":"levelo://app?vid=c8afd45f-ea3e-4ce8-8779-3e2410d1c6b6","ios":"levelo://app?vid=c8afd45f-ea3e-4ce8-8779-3e2410d1c6b6"},"vehicle_type_id":"4","last_reported":1701270468,"current_range_meters":12800,"station_id":"ce4bhhh2rcd13ifvqfl0","pricing_plan_id":"free"},{"bike_id":"678707f0-f18b-4526-938d-cbb54df77004","system_id":"levelo_inurba_marseille","lat":43.2689,"lon":5.38933,"is_reserved":false,"is_disabled":false,"rental_uris":{"android":"levelo://app?vid=678707f0-f18b-4526-938d-cbb54df77004","ios":"levelo://app?vid=678707f0-f18b-4526-938d-cbb54df77004"},"vehicle_type_id":"4","last_reported":1701270468,"current_range_meters":30800,"station_id":"ce4bhhh2rcd13ifvqfl0","pricing_plan_id":"free"},{"bike_id":"761285f2-7fae-4b1b-a8e5-bc1ea913acc7","system_id":"levelo_inurba_marseille","lat":43.26681,"lon":5.382694,"is_reserved":false,"is_disabled":false,"rental_uris":{"android":"levelo://app?vid=761285f2-7fae-4b1b-a8e5-bc1ea913acc7","ios":"levelo://app?vid=761285f2-7fae-4b1b-a8e5-bc1ea913acc7"},"vehicle_type_id":"4","last_reported":1701270468,"current_range_meters":27600,"station_id":"ce4bhg92rcd13ifvqf90","pricing_plan_id":"free"},{"bike_id":"992672d3-f5bb-4cbd-bfda-a4e88fd5e59e","system_id":"levelo_inurba_marseille","lat":43.26553,"lon":5.37287,"is_reserved":false,"is_disabled":false,"rental_uris":{"android":"levelo://app?vid=992672d3-f5bb-4cbd-bfda-a4e88fd5e59e","ios":"levelo://app?vid=992672d3-f5bb-4cbd-bfda-a4e88fd5e59e"},"vehicle_type_id":"4","last_reported":1701270468,"current_range_meters":0,"station_id":"ce4bhg12rcd13ifvqf70","pricing_plan_id":"free"},{"bike_id":"5f490033-f4be-4a79-aac0-e0b728febf01","system_id":"levelo_inurba_marseille","lat":43.27996,"lon":5.416624,"is_reserved":false,"is_disabled":false,"rental_uris":{"android":"levelo://app?vid=5f490033-f4be-4a79-aac0-e0b728febf01","ios":"levelo://app?vid=5f490033-f4be-4a79-aac0-e0b728febf01"},"vehicle_type_id":"4","last_reported":1701270468,"current_range_meters":7600,"station_id":"ce4bho12rcd13ifvqh1g","pricing_plan_id":"free"},{"bike_id":"77c9a3c7-ec31-4d0b-b06e-b4c7dd1ae7db","system_id":"levelo_inurba_marseille","lat":43.27996,"lon":5.416624,"is_reserved":false,"is_disabled":false,"rental_uris":{"android":"levelo://app?vid=77c9a3c7-ec31-4d0b-b06e-b4c7dd1ae7db","ios":"levelo://app?vid=77c9a3c7-ec31-4d0b-b06e-b4c7dd1ae7db"},"vehicle_type_id":"4","last_reported":1701270468,"current_range_meters":13600,"station_id":"ce4bho12rcd13ifvqh1g","pricing_plan_id":"free"},{"bike_id":"4f89be52-6fa5-47ae-acd2-6819a8585b47","system_id":"levelo_inurba_marseille","lat":43.308051,"lon":5.43527,"is_reserved":false,"is_disabled":false,"rental_uris":{"android":"levelo://app?vid=4f89be52-6fa5-47ae-acd2-6819a8585b47","ios":"levelo://app?vid=4f89be52-6fa5-47ae-acd2-6819a8585b47"},"vehicle_type_id":"4","last_reported":1701270468,"current_range_meters":12800,"station_id":"ce4bhph2rcd13ifvqheg","pricing_plan_id":"free"},{"bike_id":"f8861fa3-c0b2-458c-a6dd-4e296c7b0930","system_id":"levelo_inurba_marseille","lat":43.308051,"lon":5.43527,"is_reserved":false,"is_disabled":false,"rental_uris":{"android":"levelo://app?vid=f8861fa3-c0b2-458c-a6dd-4e296c7b0930","ios":"levelo://app?vid=f8861fa3-c0b2-458c-a6dd-4e296c7b0930"},"vehicle_type_id":"4","last_reported":1701270468,"current_range_meters":24000,"station_id":"ce4bhph2rcd13ifvqheg","pricing_plan_id":"free"},{"bike_id":"c6379d7f-c0c5-44e8-ad09-9ea54b728abb","system_id":"levelo_inurba_marseille","lat":43.308051,"lon":5.43527,"is_reserved":false,"is_disabled":false,"rental_uris":{"android":"levelo://app?vid=c6379d7f-c0c5-44e8-ad09-9ea54b728abb","ios":"levelo://app?vid=c6379d7f-c0c5-44e8-ad09-9ea54b728abb"},"vehicle_type_id":"4","last_reported":1701270468,"current_range_meters":24800,"station_id":"ce4bhph2rcd13ifvqheg","pricing_plan_id":"free"},{"bike_id":"57fcef2b-3737-43fc-8bb2-c755178ef47e","system_id":"levelo_inurba_marseille","lat":43.26949,"lon":5.40262,"is_reserved":false,"is_disabled":false,"rental_uris":{"android":"levelo://app?vid=57fcef2b-3737-43fc-8bb2-c755178ef47e","ios":"levelo://app?vid=57fcef2b-3737-43fc-8bb2-c755178ef47e"},"vehicle_type_id":"4","last_reported":1701270468,"current_range_meters":20800,"station_id":"cjm6bp8fraef2m0cb0m0","pricing_plan_id":"free"},{"bike_id":"abd9a31e-7c4f-49e6-b545-b4ba1b911ef9","system_id":"levelo_inurba_marseille","lat":43.269406,"lon":5.402523,"is_reserved":false,"is_disabled":false,"rental_uris":{"android":"levelo://app?vid=abd9a31e-7c4f-49e6-b545-b4ba1b911ef9","ios":"levelo://app?vid=abd9a31e-7c4f-49e6-b545-b4ba1b911ef9"},"vehicle_type_id":"4","last_reported":1701270468,"current_range_meters":30000,"station_id":"","pricing_plan_id":"free"},{"bike_id":"d182ba29-ae25-4cd5-831e-833d603d50dd","system_id":"levelo_inurba_marseille","lat":43.26939,"lon":5.40251,"is_reserved":false,"is_disabled":false,"rental_uris":{"android":"levelo://app?vid=d182ba29-ae25-4cd5-831e-833d603d50dd","ios":"levelo://app?vid=d182ba29-ae25-4cd5-831e-833d603d50dd"},"vehicle_type_id":"4","last_reported":1701270468,"current_range_meters":400,"station_id":"cjm6bp8fraef2m0cb0m0","pricing_plan_id":"free"},{"bike_id":"786e138e-9d6d-4e6e-811d-eecbce29b9d9","system_id":"levelo_inurba_marseille","lat":43.26935,"lon":5.40253,"is_reserved":false,"is_disabled":false,"rental_uris":{"android":"levelo://app?vid=786e138e-9d6d-4e6e-811d-eecbce29b9d9","ios":"levelo://app?vid=786e138e-9d6d-4e6e-811d-eecbce29b9d9"},"vehicle_type_id":"4","last_reported":1701270468,"current_range_meters":7600,"station_id":"cjm6bp8fraef2m0cb0m0","pricing_plan_id":"free"},{"bike_id":"431e2a2c-51b2-4e4f-b787-1c14060caba7","system_id":"levelo_inurba_marseille","lat":43.269055,"lon":5.40299,"is_reserved":false,"is_disabled":false,"rental_uris":{"android":"levelo://app?vid=431e2a2c-51b2-4e4f-b787-1c14060caba7","ios":"levelo://app?vid=431e2a2c-51b2-4e4f-b787-1c14060caba7"},"vehicle_type_id":"4","last_reported":1701270468,"current_range_meters":21600,"station_id":"","pricing_plan_id":"free"},{"bike_id":"974c7fbb-d7fe-4272-ae1b-b2d7e7c1c1f6","system_id":"levelo_inurba_marseille","lat":43.317104,"lon":5.436818,"is_reserved":false,"is_disabled":false,"rental_uris":{"android":"levelo://app?vid=974c7fbb-d7fe-4272-ae1b-b2d7e7c1c1f6","ios":"levelo://app?vid=974c7fbb-d7fe-4272-ae1b-b2d7e7c1c1f6"},"vehicle_type_id":"4","last_reported":1701270468,"current_range_meters":25600,"station_id":"ce4bhp92rcd13ifvqhcg","pricing_plan_id":"free"},{"bike_id":"1c859d8c-6823-4772-9abb-da577a635321","system_id":"levelo_inurba_marseille","lat":43.317104,"lon":5.436818,"is_reserved":false,"is_disabled":false,"rental_uris":{"android":"levelo://app?vid=1c859d8c-6823-4772-9abb-da577a635321","ios":"levelo://app?vid=1c859d8c-6823-4772-9abb-da577a635321"},"vehicle_type_id":"4","last_reported":1701270468,"current_range_meters":21200,"station_id":"ce4bhp92rcd13ifvqhcg","pricing_plan_id":"free"},{"bike_id":"5dd00fc2-584d-4cba-a238-bae6fef3392a","system_id":"levelo_inurba_marseille","lat":43.262012,"lon":5.379307,"is_reserved":false,"is_disabled":false,"rental_uris":{"android":"levelo://app?vid=5dd00fc2-584d-4cba-a238-bae6fef3392a","ios":"levelo://app?vid=5dd00fc2-584d-4cba-a238-bae6fef3392a"},"vehicle_type_id":"4","last_reported":1701270468,"current_range_meters":24800,"station_id":"ce4bhjp2rcd13ifvqg90","pricing_plan_id":"free"},{"bike_id":"d7b5870c-f69e-4c66-8b4e-1cf722b37833","system_id":"levelo_inurba_marseille","lat":43.26202,"lon":5.379299,"is_reserved":false,"is_disabled":false,"rental_uris":{"android":"levelo://app?vid=d7b5870c-f69e-4c66-8b4e-1cf722b37833","ios":"levelo://app?vid=d7b5870c-f69e-4c66-8b4e-1cf722b37833"},"vehicle_type_id":"4","last_reported":1701270468,"current_range_meters":6400,"station_id":"ce4bhjp2rcd13ifvqg90","pricing_plan_id":"free"},{"bike_id":"56ccab7b-0522-4845-b2f3-40742b7f1789","system_id":"levelo_inurba_marseille","lat":43.271368,"lon":5.40928,"is_reserved":false,"is_disabled":false,"rental_uris":{"android":"levelo://app?vid=56ccab7b-0522-4845-b2f3-40742b7f1789","ios":"levelo://app?vid=56ccab7b-0522-4845-b2f3-40742b7f1789"},"vehicle_type_id":"4","last_reported":1701270468,"current_range_meters":19600,"station_id":"ce4bhl12rcd13ifvqgf0","pricing_plan_id":"free"},{"bike_id":"17ae7726-a36a-412d-bd62-872f690b5104","system_id":"levelo_inurba_marseille","lat":43.271388,"lon":5.409269,"is_reserved":false,"is_disabled":false,"rental_uris":{"android":"levelo://app?vid=17ae7726-a36a-412d-bd62-872f690b5104","ios":"levelo://app?vid=17ae7726-a36a-412d-bd62-872f690b5104"},"vehicle_type_id":"4","last_reported":1701270468,"current_range_meters":30000,"station_id":"ce4bhl12rcd13ifvqgf0","pricing_plan_id":"free"},{"bike_id":"f25b8b8d-f48a-47e9-8c2a-1b937221d0a4","system_id":"levelo_inurba_marseille","lat":43.267959,"lon":5.402687,"is_reserved":false,"is_disabled":false,"rental_uris":{"android":"levelo://app?vid=f25b8b8d-f48a-47e9-8c2a-1b937221d0a4","ios":"levelo://app?vid=f25b8b8d-f48a-47e9-8c2a-1b937221d0a4"},"vehicle_type_id":"4","last_reported":1701270468,"current_range_meters":24000,"station_id":"ce501612rcd8frsf0b60","pricing_plan_id":"free"},{"bike_id":"11066294-5560-481c-84ae-9fd085c01452","system_id":"levelo_inurba_marseille","lat":43.2607,"lon":5.393983,"is_reserved":false,"is_disabled":false,"rental_uris":{"android":"levelo://app?vid=11066294-5560-481c-84ae-9fd085c01452","ios":"levelo://app?vid=11066294-5560-481c-84ae-9fd085c01452"},"vehicle_type_id":"4","last_reported":1701270468,"current_range_meters":19200,"station_id":"ce4bhh92rcd13ifvqfj0","pricing_plan_id":"free"},{"bike_id":"25ffa048-ffc9-49fa-a096-d5d03326f2fb","system_id":"levelo_inurba_marseille","lat":43.26531,"lon":5.40895,"is_reserved":false,"is_disabled":false,"rental_uris":{"android":"levelo://app?vid=25ffa048-ffc9-49fa-a096-d5d03326f2fb","ios":"levelo://app?vid=25ffa048-ffc9-49fa-a096-d5d03326f2fb"},"vehicle_type_id":"4","last_reported":1701270468,"current_range_meters":9200,"station_id":"","pricing_plan_id":"free"},{"bike_id":"6bc55e2d-44a1-4800-8c9c-8dd124efcb03","system_id":"levelo_inurba_marseille","lat":43.25825,"lon":5.3943,"is_reserved":false,"is_disabled":false,"rental_uris":{"android":"levelo://app?vid=6bc55e2d-44a1-4800-8c9c-8dd124efcb03","ios":"levelo://app?vid=6bc55e2d-44a1-4800-8c9c-8dd124efcb03"},"vehicle_type_id":"4","last_reported":1701270468,"current_range_meters":9600,"station_id":"ce4bhip2rcd13ifvqft0","pricing_plan_id":"free"},{"bike_id":"9ff89288-7686-41cf-b08f-a01b7314e295","system_id":"levelo_inurba_marseille","lat":43.25581,"lon":5.38239,"is_reserved":false,"is_disabled":false,"rental_uris":{"android":"levelo://app?vid=9ff89288-7686-41cf-b08f-a01b7314e295","ios":"levelo://app?vid=9ff89288-7686-41cf-b08f-a01b7314e295"},"vehicle_type_id":"4","last_reported":1701270468,"current_range_meters":20000,"station_id":"ce4bhih2rcd13ifvqfs0","pricing_plan_id":"free"},{"bike_id":"7cdda053-6c47-46e5-af8c-5944bf0d382f","system_id":"levelo_inurba_marseille","lat":43.25576,"lon":5.38232,"is_reserved":false,"is_disabled":false,"rental_uris":{"android":"levelo://app?vid=7cdda053-6c47-46e5-af8c-5944bf0d382f","ios":"levelo://app?vid=7cdda053-6c47-46e5-af8c-5944bf0d382f"},"vehicle_type_id":"4","last_reported":1701270468,"current_range_meters":22400,"station_id":"ce4bhih2rcd13ifvqfs0","pricing_plan_id":"free"},{"bike_id":"6c9661fb-08b6-4b11-9860-d3fb3142a10a","system_id":"levelo_inurba_marseille","lat":43.258224,"lon":5.394369,"is_reserved":false,"is_disabled":false,"rental_uris":{"android":"levelo://app?vid=6c9661fb-08b6-4b11-9860-d3fb3142a10a","ios":"levelo://app?vid=6c9661fb-08b6-4b11-9860-d3fb3142a10a"},"vehicle_type_id":"4","last_reported":1701270468,"current_range_meters":21200,"station_id":"ce4bhip2rcd13ifvqft0","pricing_plan_id":"free"},{"bike_id":"b10ef6c6-9881-4411-955f-2c8e1fb15268","system_id":"levelo_inurba_marseille","lat":43.25573,"lon":5.38242,"is_reserved":false,"is_disabled":false,"rental_uris":{"android":"levelo://app?vid=b10ef6c6-9881-4411-955f-2c8e1fb15268","ios":"levelo://app?vid=b10ef6c6-9881-4411-955f-2c8e1fb15268"},"vehicle_type_id":"4","last_reported":1701270468,"current_range_meters":29600,"station_id":"ce4bhih2rcd13ifvqfs0","pricing_plan_id":"free"},{"bike_id":"838c43e0-789e-4eb4-8c40-c2b47e5549c6","system_id":"levelo_inurba_marseille","lat":43.254947,"lon":5.376454,"is_reserved":false,"is_disabled":false,"rental_uris":{"android":"levelo://app?vid=838c43e0-789e-4eb4-8c40-c2b47e5549c6","ios":"levelo://app?vid=838c43e0-789e-4eb4-8c40-c2b47e5549c6"},"vehicle_type_id":"4","last_reported":1701270468,"current_range_meters":22000,"station_id":"ce4bhh12rcd13ifvqff0","pricing_plan_id":"free"},{"bike_id":"19029ed7-bf97-4f4d-a8c2-7d27e70ef7f7","system_id":"levelo_inurba_marseille","lat":43.270721,"lon":5.422764,"is_reserved":false,"is_disabled":false,"rental_uris":{"android":"levelo://app?vid=19029ed7-bf97-4f4d-a8c2-7d27e70ef7f7","ios":"levelo://app?vid=19029ed7-bf97-4f4d-a8c2-7d27e70ef7f7"},"vehicle_type_id":"4","last_reported":1701270468,"current_range_meters":27600,"station_id":"ce4bhk92rcd13ifvqgb0","pricing_plan_id":"free"},{"bike_id":"0824cb64-c947-41e9-90d9-94d2d281b704","system_id":"levelo_inurba_marseille","lat":43.254947,"lon":5.376454,"is_reserved":false,"is_disabled":false,"rental_uris":{"android":"levelo://app?vid=0824cb64-c947-41e9-90d9-94d2d281b704","ios":"levelo://app?vid=0824cb64-c947-41e9-90d9-94d2d281b704"},"vehicle_type_id":"4","last_reported":1701270468,"current_range_meters":16400,"station_id":"ce4bhh12rcd13ifvqff0","pricing_plan_id":"free"},{"bike_id":"c7d78e9d-629e-4d09-8612-a76051bd8ebb","system_id":"levelo_inurba_marseille","lat":43.258637,"lon":5.399023,"is_reserved":false,"is_disabled":false,"rental_uris":{"android":"levelo://app?vid=c7d78e9d-629e-4d09-8612-a76051bd8ebb","ios":"levelo://app?vid=c7d78e9d-629e-4d09-8612-a76051bd8ebb"},"vehicle_type_id":"4","last_reported":1701270468,"current_range_meters":5600,"station_id":"ce4bhl92rcd13ifvqghg","pricing_plan_id":"free"},{"bike_id":"34fc62c2-0a64-4590-8e26-bc3fdd975329","system_id":"levelo_inurba_marseille","lat":43.258658,"lon":5.398935,"is_reserved":false,"is_disabled":false,"rental_uris":{"android":"levelo://app?vid=34fc62c2-0a64-4590-8e26-bc3fdd975329","ios":"levelo://app?vid=34fc62c2-0a64-4590-8e26-bc3fdd975329"},"vehicle_type_id":"4","last_reported":1701270468,"current_range_meters":21200,"station_id":"ce4bhl92rcd13ifvqghg","pricing_plan_id":"free"},{"bike_id":"29b178f7-93b2-404b-a1f0-27431ee035b4","system_id":"levelo_inurba_marseille","lat":43.25669,"lon":5.39419,"is_reserved":false,"is_disabled":false,"rental_uris":{"android":"levelo://app?vid=29b178f7-93b2-404b-a1f0-27431ee035b4","ios":"levelo://app?vid=29b178f7-93b2-404b-a1f0-27431ee035b4"},"vehicle_type_id":"4","last_reported":1701270468,"current_range_meters":400,"station_id":"","pricing_plan_id":"free"},{"bike_id":"580ec205-a045-4f4c-adda-b01ee6963b28","system_id":"levelo_inurba_marseille","lat":43.259363,"lon":5.409146,"is_reserved":false,"is_disabled":false,"rental_uris":{"android":"levelo://app?vid=580ec205-a045-4f4c-adda-b01ee6963b28","ios":"levelo://app?vid=580ec205-a045-4f4c-adda-b01ee6963b28"},"vehicle_type_id":"4","last_reported":1701270468,"current_range_meters":6800,"station_id":"ce4bhm92rcd13ifvqglg","pricing_plan_id":"free"},{"bike_id":"e4eaa37b-5b2d-4481-8e72-ec16467bfebd","system_id":"levelo_inurba_marseille","lat":43.259013,"lon":5.409301,"is_reserved":false,"is_disabled":false,"rental_uris":{"android":"levelo://app?vid=e4eaa37b-5b2d-4481-8e72-ec16467bfebd","ios":"levelo://app?vid=e4eaa37b-5b2d-4481-8e72-ec16467bfebd"},"vehicle_type_id":"4","last_reported":1701270468,"current_range_meters":14800,"station_id":"ce4bhm92rcd13ifvqglg","pricing_plan_id":"free"},{"bike_id":"d555e29f-1161-475c-9c68-0a440bd7139a","system_id":"levelo_inurba_marseille","lat":43.259013,"lon":5.409301,"is_reserved":false,"is_disabled":false,"rental_uris":{"android":"levelo://app?vid=d555e29f-1161-475c-9c68-0a440bd7139a","ios":"levelo://app?vid=d555e29f-1161-475c-9c68-0a440bd7139a"},"vehicle_type_id":"4","last_reported":1701270468,"current_range_meters":20000,"station_id":"ce4bhm92rcd13ifvqglg","pricing_plan_id":"free"},{"bike_id":"ec3ae71a-7855-4733-9a16-722c539f39c2","system_id":"levelo_inurba_marseille","lat":43.257079,"lon":5.411051,"is_reserved":false,"is_disabled":false,"rental_uris":{"android":"levelo://app?vid=ec3ae71a-7855-4733-9a16-722c539f39c2","ios":"levelo://app?vid=ec3ae71a-7855-4733-9a16-722c539f39c2"},"vehicle_type_id":"4","last_reported":1701270468,"current_range_meters":31600,"station_id":"ce4bhkp2rcd13ifvqgd0","pricing_plan_id":"free"},{"bike_id":"3425c27a-87b6-4e67-a435-62244cd51f1d","system_id":"levelo_inurba_marseille","lat":43.257079,"lon":5.411051,"is_reserved":false,"is_disabled":false,"rental_uris":{"android":"levelo://app?vid=3425c27a-87b6-4e67-a435-62244cd51f1d","ios":"levelo://app?vid=3425c27a-87b6-4e67-a435-62244cd51f1d"},"vehicle_type_id":"4","last_reported":1701270468,"current_range_meters":16000,"station_id":"ce4bhkp2rcd13ifvqgd0","pricing_plan_id":"free"},{"bike_id":"ffe2bff8-0c0f-4aa0-86b7-d8e097e1b63b","system_id":"levelo_inurba_marseille","lat":43.25011,"lon":5.38923,"is_reserved":false,"is_disabled":false,"rental_uris":{"android":"levelo://app?vid=ffe2bff8-0c0f-4aa0-86b7-d8e097e1b63b","ios":"levelo://app?vid=ffe2bff8-0c0f-4aa0-86b7-d8e097e1b63b"},"vehicle_type_id":"4","last_reported":1701270468,"current_range_meters":29200,"station_id":"ce4bhgp2rcd13ifvqfd0","pricing_plan_id":"free"},{"bike_id":"0ee9eb18-0dc4-40ee-922d-1752a6111910","system_id":"levelo_inurba_marseille","lat":43.254947,"lon":5.376454,"is_reserved":false,"is_disabled":false,"rental_uris":{"android":"levelo://app?vid=0ee9eb18-0dc4-40ee-922d-1752a6111910","ios":"levelo://app?vid=0ee9eb18-0dc4-40ee-922d-1752a6111910"},"vehicle_type_id":"4","last_reported":1701270468,"current_range_meters":27600,"station_id":"ce4bhh12rcd13ifvqff0","pricing_plan_id":"free"},{"bike_id":"4c0c3118-7eaa-4ebd-8d87-d449bea3e021","system_id":"levelo_inurba_marseille","lat":43.250897,"lon":5.395161,"is_reserved":false,"is_disabled":false,"rental_uris":{"android":"levelo://app?vid=4c0c3118-7eaa-4ebd-8d87-d449bea3e021","ios":"levelo://app?vid=4c0c3118-7eaa-4ebd-8d87-d449bea3e021"},"vehicle_type_id":"4","last_reported":1701270468,"current_range_meters":12400,"station_id":"ce4bhm12rcd13ifvqgkg","pricing_plan_id":"free"},{"bike_id":"e8e298b2-9bc0-42bf-af71-f5598fc676f8","system_id":"levelo_inurba_marseille","lat":43.250966,"lon":5.395186,"is_reserved":false,"is_disabled":false,"rental_uris":{"android":"levelo://app?vid=e8e298b2-9bc0-42bf-af71-f5598fc676f8","ios":"levelo://app?vid=e8e298b2-9bc0-42bf-af71-f5598fc676f8"},"vehicle_type_id":"4","last_reported":1701270468,"current_range_meters":25600,"station_id":"ce4bhm12rcd13ifvqgkg","pricing_plan_id":"free"},{"bike_id":"505eb678-293a-4cfa-ad14-fe2b8c41c653","system_id":"levelo_inurba_marseille","lat":43.24693,"lon":5.382096,"is_reserved":false,"is_disabled":false,"rental_uris":{"android":"levelo://app?vid=505eb678-293a-4cfa-ad14-fe2b8c41c653","ios":"levelo://app?vid=505eb678-293a-4cfa-ad14-fe2b8c41c653"},"vehicle_type_id":"4","last_reported":1701270468,"current_range_meters":0,"station_id":"ce4bhih2rcd13ifvqfr0","pricing_plan_id":"free"},{"bike_id":"6ee35053-160c-4232-8164-50054166b355","system_id":"levelo_inurba_marseille","lat":43.2465,"lon":5.389027,"is_reserved":false,"is_disabled":false,"rental_uris":{"android":"levelo://app?vid=6ee35053-160c-4232-8164-50054166b355","ios":"levelo://app?vid=6ee35053-160c-4232-8164-50054166b355"},"vehicle_type_id":"4","last_reported":1701270468,"current_range_meters":25600,"station_id":"ce4bhg12rcd13ifvqf60","pricing_plan_id":"free"},{"bike_id":"327a8c79-406a-4e25-acf8-62cf39ea6337","system_id":"levelo_inurba_marseille","lat":43.24076,"lon":5.37753,"is_reserved":false,"is_disabled":false,"rental_uris":{"android":"levelo://app?vid=327a8c79-406a-4e25-acf8-62cf39ea6337","ios":"levelo://app?vid=327a8c79-406a-4e25-acf8-62cf39ea6337"},"vehicle_type_id":"4","last_reported":1701270468,"current_range_meters":30000,"station_id":"ce4bhnp2rcd13ifvqgvg","pricing_plan_id":"free"},{"bike_id":"976e36fa-42a1-49de-99da-394bf2bed3b7","system_id":"levelo_inurba_marseille","lat":43.241782,"lon":5.397261,"is_reserved":false,"is_disabled":false,"rental_uris":{"android":"levelo://app?vid=976e36fa-42a1-49de-99da-394bf2bed3b7","ios":"levelo://app?vid=976e36fa-42a1-49de-99da-394bf2bed3b7"},"vehicle_type_id":"4","last_reported":1701270468,"current_range_meters":30000,"station_id":"ce4bhn12rcd13ifvqgpg","pricing_plan_id":"free"},{"bike_id":"bea567f7-6fcb-41d7-a96f-2bc90daff196","system_id":"levelo_inurba_marseille","lat":43.241782,"lon":5.397261,"is_reserved":false,"is_disabled":false,"rental_uris":{"android":"levelo://app?vid=bea567f7-6fcb-41d7-a96f-2bc90daff196","ios":"levelo://app?vid=bea567f7-6fcb-41d7-a96f-2bc90daff196"},"vehicle_type_id":"4","last_reported":1701270468,"current_range_meters":0,"station_id":"ce4bhn12rcd13ifvqgpg","pricing_plan_id":"free"},{"bike_id":"3bbe1fd5-b7d2-484c-969b-f57a381950c3","system_id":"levelo_inurba_marseille","lat":43.231923,"lon":5.355545,"is_reserved":false,"is_disabled":false,"rental_uris":{"android":"levelo://app?vid=3bbe1fd5-b7d2-484c-969b-f57a381950c3","ios":"levelo://app?vid=3bbe1fd5-b7d2-484c-969b-f57a381950c3"},"vehicle_type_id":"4","last_reported":1701270468,"current_range_meters":14800,"station_id":"ce4bhu92rcd13ifvqi70","pricing_plan_id":"free"},{"bike_id":"b37cf8bc-ef87-4960-b38c-3279b894369f","system_id":"levelo_inurba_marseille","lat":43.231923,"lon":5.355545,"is_reserved":false,"is_disabled":false,"rental_uris":{"android":"levelo://app?vid=b37cf8bc-ef87-4960-b38c-3279b894369f","ios":"levelo://app?vid=b37cf8bc-ef87-4960-b38c-3279b894369f"},"vehicle_type_id":"4","last_reported":1701270468,"current_range_meters":31200,"station_id":"ce4bhu92rcd13ifvqi70","pricing_plan_id":"free"},{"bike_id":"6a15bd61-65f5-44c0-9706-42eeb78c349c","system_id":"levelo_inurba_marseille","lat":43.231919,"lon":5.355532,"is_reserved":false,"is_disabled":false,"rental_uris":{"android":"levelo://app?vid=6a15bd61-65f5-44c0-9706-42eeb78c349c","ios":"levelo://app?vid=6a15bd61-65f5-44c0-9706-42eeb78c349c"},"vehicle_type_id":"4","last_reported":1701270468,"current_range_meters":30400,"station_id":"ce4bhu92rcd13ifvqi70","pricing_plan_id":"free"},{"bike_id":"d1703505-b125-4a98-a807-11024241bc04","system_id":"levelo_inurba_marseille","lat":43.231923,"lon":5.355545,"is_reserved":false,"is_disabled":false,"rental_uris":{"android":"levelo://app?vid=d1703505-b125-4a98-a807-11024241bc04","ios":"levelo://app?vid=d1703505-b125-4a98-a807-11024241bc04"},"vehicle_type_id":"4","last_reported":1701270468,"current_range_meters":31200,"station_id":"ce4bhu92rcd13ifvqi70","pricing_plan_id":"free"},{"bike_id":"c0c7fee1-5737-446f-a765-fa607e9e3e85","system_id":"levelo_inurba_marseille","lat":43.231793,"lon":5.400044,"is_reserved":false,"is_disabled":false,"rental_uris":{"android":"levelo://app?vid=c0c7fee1-5737-446f-a765-fa607e9e3e85","ios":"levelo://app?vid=c0c7fee1-5737-446f-a765-fa607e9e3e85"},"vehicle_type_id":"4","last_reported":1701270468,"current_range_meters":20800,"station_id":"ce4bhn12rcd13ifvqgqg","pricing_plan_id":"free"},{"bike_id":"017c7298-0a0b-4b52-accd-1cfa244cac68","system_id":"levelo_inurba_marseille","lat":43.231793,"lon":5.400044,"is_reserved":false,"is_disabled":false,"rental_uris":{"android":"levelo://app?vid=017c7298-0a0b-4b52-accd-1cfa244cac68","ios":"levelo://app?vid=017c7298-0a0b-4b52-accd-1cfa244cac68"},"vehicle_type_id":"4","last_reported":1701270468,"current_range_meters":31200,"station_id":"ce4bhn12rcd13ifvqgqg","pricing_plan_id":"free"},{"bike_id":"aa92b96d-64d8-4c3b-a126-5fd9d905cd28","system_id":"levelo_inurba_marseille","lat":43.231793,"lon":5.400044,"is_reserved":false,"is_disabled":false,"rental_uris":{"android":"levelo://app?vid=aa92b96d-64d8-4c3b-a126-5fd9d905cd28","ios":"levelo://app?vid=aa92b96d-64d8-4c3b-a126-5fd9d905cd28"},"vehicle_type_id":"4","last_reported":1701270468,"current_range_meters":31200,"station_id":"ce4bhn12rcd13ifvqgqg","pricing_plan_id":"free"},{"bike_id":"bf302e61-4f67-454e-a18b-ae01c9d54d0c","system_id":"levelo_inurba_marseille","lat":43.231793,"lon":5.400044,"is_reserved":false,"is_disabled":false,"rental_uris":{"android":"levelo://app?vid=bf302e61-4f67-454e-a18b-ae01c9d54d0c","ios":"levelo://app?vid=bf302e61-4f67-454e-a18b-ae01c9d54d0c"},"vehicle_type_id":"4","last_reported":1701270468,"current_range_meters":20400,"station_id":"ce4bhn12rcd13ifvqgqg","pricing_plan_id":"free"},{"bike_id":"5c24af45-4ee2-4093-93e4-b4426fd403c2","system_id":"levelo_inurba_marseille","lat":43.231794,"lon":5.400052,"is_reserved":false,"is_disabled":false,"rental_uris":{"android":"levelo://app?vid=5c24af45-4ee2-4093-93e4-b4426fd403c2","ios":"levelo://app?vid=5c24af45-4ee2-4093-93e4-b4426fd403c2"},"vehicle_type_id":"4","last_reported":1701270468,"current_range_meters":28800,"station_id":"ce4bhn12rcd13ifvqgqg","pricing_plan_id":"free"},{"bike_id":"10d1ae25-34b7-4b8a-8b80-b7dc1b15235b","system_id":"levelo_inurba_marseille","lat":43.231793,"lon":5.400044,"is_reserved":false,"is_disabled":false,"rental_uris":{"android":"levelo://app?vid=10d1ae25-34b7-4b8a-8b80-b7dc1b15235b","ios":"levelo://app?vid=10d1ae25-34b7-4b8a-8b80-b7dc1b15235b"},"vehicle_type_id":"4","last_reported":1701270468,"current_range_meters":28000,"station_id":"ce4bhn12rcd13ifvqgqg","pricing_plan_id":"free"},{"bike_id":"06853db6-aa55-4d29-9d8f-a856bd2de594","system_id":"levelo_inurba_marseille","lat":43.231793,"lon":5.400044,"is_reserved":false,"is_disabled":false,"rental_uris":{"android":"levelo://app?vid=06853db6-aa55-4d29-9d8f-a856bd2de594","ios":"levelo://app?vid=06853db6-aa55-4d29-9d8f-a856bd2de594"},"vehicle_type_id":"4","last_reported":1701270468,"current_range_meters":25600,"station_id":"ce4bhn12rcd13ifvqgqg","pricing_plan_id":"free"},{"bike_id":"4c237336-21e8-4e0a-9616-9e2641a26769","system_id":"levelo_inurba_marseille","lat":43.231793,"lon":5.400044,"is_reserved":false,"is_disabled":false,"rental_uris":{"android":"levelo://app?vid=4c237336-21e8-4e0a-9616-9e2641a26769","ios":"levelo://app?vid=4c237336-21e8-4e0a-9616-9e2641a26769"},"vehicle_type_id":"4","last_reported":1701270468,"current_range_meters":30800,"station_id":"ce4bhn12rcd13ifvqgqg","pricing_plan_id":"free"},{"bike_id":"5ff68776-d431-4895-866c-f190f6faec3c","system_id":"levelo_inurba_marseille","lat":43.231793,"lon":5.400044,"is_reserved":false,"is_disabled":false,"rental_uris":{"android":"levelo://app?vid=5ff68776-d431-4895-866c-f190f6faec3c","ios":"levelo://app?vid=5ff68776-d431-4895-866c-f190f6faec3c"},"vehicle_type_id":"4","last_reported":1701270468,"current_range_meters":31200,"station_id":"ce4bhn12rcd13ifvqgqg","pricing_plan_id":"free"},{"bike_id":"a123f917-d4fa-4f0d-b55f-93bf63847c0d","system_id":"levelo_inurba_marseille","lat":43.231793,"lon":5.400044,"is_reserved":false,"is_disabled":false,"rental_uris":{"android":"levelo://app?vid=a123f917-d4fa-4f0d-b55f-93bf63847c0d","ios":"levelo://app?vid=a123f917-d4fa-4f0d-b55f-93bf63847c0d"},"vehicle_type_id":"4","last_reported":1701270468,"current_range_meters":23200,"station_id":"ce4bhn12rcd13ifvqgqg","pricing_plan_id":"free"},{"bike_id":"bf960234-cffc-43d1-ad60-fe105776c7f7","system_id":"levelo_inurba_marseille","lat":43.23184,"lon":5.39996,"is_reserved":false,"is_disabled":false,"rental_uris":{"android":"levelo://app?vid=bf960234-cffc-43d1-ad60-fe105776c7f7","ios":"levelo://app?vid=bf960234-cffc-43d1-ad60-fe105776c7f7"},"vehicle_type_id":"4","last_reported":1701270468,"current_range_meters":0,"station_id":"ce4bhn12rcd13ifvqgqg","pricing_plan_id":"free"},{"bike_id":"5aaac2be-844c-4cf3-8da3-46c7e8da8247","system_id":"levelo_inurba_marseille","lat":43.231793,"lon":5.400044,"is_reserved":false,"is_disabled":false,"rental_uris":{"android":"levelo://app?vid=5aaac2be-844c-4cf3-8da3-46c7e8da8247","ios":"levelo://app?vid=5aaac2be-844c-4cf3-8da3-46c7e8da8247"},"vehicle_type_id":"4","last_reported":1701270468,"current_range_meters":10800,"station_id":"ce4bhn12rcd13ifvqgqg","pricing_plan_id":"free"},{"bike_id":"3c7c6124-c3d7-4e31-b15d-7bec1037d550","system_id":"levelo_inurba_marseille","lat":43.23152,"lon":5.43701,"is_reserved":false,"is_disabled":false,"rental_uris":{"android":"levelo://app?vid=3c7c6124-c3d7-4e31-b15d-7bec1037d550","ios":"levelo://app?vid=3c7c6124-c3d7-4e31-b15d-7bec1037d550"},"vehicle_type_id":"4","last_reported":1701270468,"current_range_meters":26400,"station_id":"","pricing_plan_id":"free"},{"bike_id":"1c89e0d1-c339-488e-8882-97a4328b9767","system_id":"levelo_inurba_marseille","lat":43.231562,"lon":5.436933,"is_reserved":false,"is_disabled":false,"rental_uris":{"android":"levelo://app?vid=1c89e0d1-c339-488e-8882-97a4328b9767","ios":"levelo://app?vid=1c89e0d1-c339-488e-8882-97a4328b9767"},"vehicle_type_id":"4","last_reported":1701270468,"current_range_meters":30400,"station_id":"ce4bhmp2rcd13ifvqgog","pricing_plan_id":"free"},{"bike_id":"e408d225-a0bd-46cb-be67-22371a18bc41","system_id":"levelo_inurba_marseille","lat":43.23147,"lon":5.43709,"is_reserved":false,"is_disabled":false,"rental_uris":{"android":"levelo://app?vid=e408d225-a0bd-46cb-be67-22371a18bc41","ios":"levelo://app?vid=e408d225-a0bd-46cb-be67-22371a18bc41"},"vehicle_type_id":"4","last_reported":1701270468,"current_range_meters":4800,"station_id":"ce4bhmp2rcd13ifvqgog","pricing_plan_id":"free"},{"bike_id":"a09d5d01-5d52-4241-964a-7b452f6dc161","system_id":"levelo_inurba_marseille","lat":43.231562,"lon":5.436933,"is_reserved":false,"is_disabled":false,"rental_uris":{"android":"levelo://app?vid=a09d5d01-5d52-4241-964a-7b452f6dc161","ios":"levelo://app?vid=a09d5d01-5d52-4241-964a-7b452f6dc161"},"vehicle_type_id":"4","last_reported":1701270468,"current_range_meters":31600,"station_id":"ce4bhmp2rcd13ifvqgog","pricing_plan_id":"free"},{"bike_id":"c71e9c84-909c-44fa-8e6b-7e688a706780","system_id":"levelo_inurba_marseille","lat":43.2315,"lon":5.43725,"is_reserved":false,"is_disabled":false,"rental_uris":{"android":"levelo://app?vid=c71e9c84-909c-44fa-8e6b-7e688a706780","ios":"levelo://app?vid=c71e9c84-909c-44fa-8e6b-7e688a706780"},"vehicle_type_id":"4","last_reported":1701270468,"current_range_meters":28400,"station_id":"ce4bhmp2rcd13ifvqgog","pricing_plan_id":"free"}]}}