{"last_updated":1741075939,"ttl":60,"version":"2.2","data":{"bikes":[{"bike_id":"e87b6b33-4961-4eff-ae17-20e2dda88f53","system_id":"levelo_inurba_marseille","lat":43.27868,"lon":5.39205,"is_reserved":false,"is_disabled":false,"rental_uris":{"android":"levelo://app?vid=e87b6b33-4961-4eff-ae17-20e2dda88f53","ios":"levelo://app?vid=e87b6b33-4961-4eff-ae17-20e2dda88f53"},"vehicle_type_id":"4","last_reported":1741075939,"current_range_meters":2800,"station_id":"","pricing_plan_id":"cebpf4jnsgd1na2vs0mg"},{"bike_id":"785f65cf-1424-422b-aa1e-c33d7d9ad805","system_id":"levelo_inurba_marseille","lat":43.33607,"lon":5.41033,"is_reserved":false,"is_disabled":false,"rental_uris":{"android":"levelo://app?vid=785f65cf-1424-422b-aa1e-c33d7d9ad805","ios":"levelo://app?vid=785f65cf-1424-422b-aa1e-c33d7d9ad805"},"vehicle_type_id":"4","last_reported":1741075939,"current_range_meters":2800,"station_id":"ce4bhqh2rcd13ifvqhmg","pricing_plan_id":"cebpf4jnsgd1na2vs0mg"},{"bike_id":"7f96e152-09e8-4b92-9319-deebeb6465a6","system_id":"levelo_inurba_marseille","lat":43.30145,"lon":5.37419,"is_reserved":false,"is_disabled":false,"rental_uris":{"android":"levelo://app?vid=7f96e152-09e8-4b92-9319-deebeb6465a6","ios":"levelo://app?vid=7f96e152-09e8-4b92-9319-deebeb6465a6"},"vehicle_type_id":"4","last_reported":1741075939,"current_range_meters":2800,"station_id":"ce4bgs92rcd13ifvqcc0","pricing_plan_id":"cebpf4jnsgd1na2vs0mg"},{"bike_id":"8ba73b31-f8d1-4ca1-8b54-85a30660ad7b","system_id":"levelo_inurba_marseille","lat":43.30901,"lon":5.36851,"is_reserved":false,"is_disabled":false,"rental_uris":{"android":"levelo://app?vid=8ba73b31-f8d1-4ca1-8b54-85a30660ad7b","ios":"levelo://app?vid=8ba73b31-f8d1-4ca1-8b54-85a30660ad7b"},"vehicle_type_id":"4","last_reported":1741075939,"current_range_meters":2800,"station_id":"ce4bgn92rcd13ifvqbvg","pricing_plan_id":"cebpf4jnsgd1na2vs0mg"},{"bike_id":"35a73379-fc4e-41b0-a5e8-e705941515d1","system_id":"levelo_inurba_marseille","lat":43.31684,"lon":5.40472,"is_reserved":false,"is_disabled":false,"rental_uris":{"android":"levelo://app?vid=35a73379-fc4e-41b0-a5e8-e705941515d1","ios":"levelo://app?vid=35a73379-fc4e-41b0-a5e8-e705941515d1"},"vehicle_type_id":"4","last_reported":1741075939,"current_range_meters":3200,"station_id":"ce4bh012rcd13ifvqd00","pricing_plan_id":"cebpf4jnsgd1na2vs0mg"},{"bike_id":"e6378c6c-dbce-4ead-9d7c-bc823458c722","system_id":"levelo_inurba_marseille","lat":43.2953,"lon":5.37483,"is_reserved":false,"is_disabled":false,"rental_uris":{"android":"levelo://app?vid=e6378c6c-dbce-4ead-9d7c-bc823458c722","ios":"levelo://app?vid=e6378c6c-dbce-4ead-9d7c-bc823458c722"},"vehicle_type_id":"4","last_reported":1741075939,"current_range_meters":3200,"station_id":"ce4bgkp2rcd13ifvqbmg","pricing_plan_id":"cebpf4jnsgd1na2vs0mg"},{"bike_id":"b85acf45-7aae-4921-a9fa-195d02561332","system_id":"levelo_inurba_marseille","lat":43.30085,"lon":5.39082,"is_reserved":false,"is_disabled":false,"rental_uris":{"android":"levelo://app?vid=b85acf45-7aae-4921-a9fa-195d02561332","ios":"levelo://app?vid=b85acf45-7aae-4921-a9fa-195d02561332"},"vehicle_type_id":"4","last_reported":1741075939,"current_range_meters":3200,"station_id":"ce4bh192rcd13ifvqdb0","pricing_plan_id":"cebpf4jnsgd1na2vs0mg"},{"bike_id":"43fc3799-af81-481c-9ed4-0b716916493d","system_id":"levelo_inurba_marseille","lat":43.33612,"lon":5.40967,"is_reserved":false,"is_disabled":false,"rental_uris":{"android":"levelo://app?vid=43fc3799-af81-481c-9ed4-0b716916493d","ios":"levelo://app?vid=43fc3799-af81-481c-9ed4-0b716916493d"},"vehicle_type_id":"4","last_reported":1741075939,"current_range_meters":3200,"station_id":"","pricing_plan_id":"cebpf4jnsgd1na2vs0mg"},{"bike_id":"fd55ec61-ea03-4691-8f74-530e74ea7311","system_id":"levelo_inurba_marseille","lat":43.24999,"lon":5.38932,"is_reserved":false,"is_disabled":false,"rental_uris":{"android":"levelo://app?vid=fd55ec61-ea03-4691-8f74-530e74ea7311","ios":"levelo://app?vid=fd55ec61-ea03-4691-8f74-530e74ea7311"},"vehicle_type_id":"4","last_reported":1741075939,"current_range_meters":3600,"station_id":"ce4bhgp2rcd13ifvqfd0","pricing_plan_id":"cebpf4jnsgd1na2vs0mg"},{"bike_id":"e7bf9aa4-ebab-4733-bd2d-62b9efb9b294","system_id":"levelo_inurba_marseille","lat":43.274916,"lon":5.424564,"is_reserved":false,"is_disabled":true,"rental_uris":{"android":"levelo://app?vid=e7bf9aa4-ebab-4733-bd2d-62b9efb9b294","ios":"levelo://app?vid=e7bf9aa4-ebab-4733-bd2d-62b9efb9b294"},"vehicle_type_id":"4","last_reported":1741075939,"current_range_meters":3600,"station_id":"ce4bhn92rcd13ifvqgrg","pricing_plan_id":"cebpf4jnsgd1na2vs0mg"},{"bike_id":"959b0f4f-1354-49f8-8fd4-68f8d93f25e1","system_id":"levelo_inurba_marseille","lat":43.31252,"lon":5.36848,"is_reserved":false,"is_disabled":false,"rental_uris":{"android":"levelo://app?vid=959b0f4f-1354-49f8-8fd4-68f8d93f25e1","ios":"levelo://app?vid=959b0f4f-1354-49f8-8fd4-68f8d93f25e1"},"vehicle_type_id":"4","last_reported":1741075939,"current_range_meters":3600,"station_id":"ce4bgl92rcd13ifvqbq0","pricing_plan_id":"cebpf4jnsgd1na2vs0mg"},{"bike_id":"23c20c41-e8a4-4dc6-b7b9-05b6d6793f3e","system_id":"levelo_inurba_marseille","lat":43.2779,"lon":5.40702,"is_reserved":false,"is_disabled":false,"rental_uris":{"android":"levelo://app?vid=23c20c41-e8a4-4dc6-b7b9-05b6d6793f3e","ios":"levelo://app?vid=23c20c41-e8a4-4dc6-b7b9-05b6d6793f3e"},"vehicle_type_id":"4","last_reported":1741075939,"current_range_meters":4000,"station_id":"ce4bhnh2rcd13ifvqgtg","pricing_plan_id":"cebpf4jnsgd1na2vs0mg"},{"bike_id":"c5583964-9f7e-4eb8-b922-277b104e7a99","system_id":"levelo_inurba_marseille","lat":43.3052,"lon":5.36671,"is_reserved":false,"is_disabled":false,"rental_uris":{"android":"levelo://app?vid=c5583964-9f7e-4eb8-b922-277b104e7a99","ios":"levelo://app?vid=c5583964-9f7e-4eb8-b922-277b104e7a99"},"vehicle_type_id":"4","last_reported":1741075939,"current_range_meters":4000,"station_id":"","pricing_plan_id":"cebpf4jnsgd1na2vs0mg"},{"bike_id":"df43c2e1-33c6-49e8-bc50-fb989edea4ec","system_id":"levelo_inurba_marseille","lat":43.23137,"lon":5.43727,"is_reserved":false,"is_disabled":false,"rental_uris":{"android":"levelo://app?vid=df43c2e1-33c6-49e8-bc50-fb989edea4ec","ios":"levelo://app?vid=df43c2e1-33c6-49e8-bc50-fb989edea4ec"},"vehicle_type_id":"4","last_reported":1741075939,"current_range_meters":4000,"station_id":"ce4bhmp2rcd13ifvqgog","pricing_plan_id":"cebpf4jnsgd1na2vs0mg"},{"bike_id":"dbcd4e4e-daf9-4a73-b496-7a26eadb6e41","system_id":"levelo_inurba_marseille","lat":43.262,"lon":5.37934,"is_reserved":false,"is_disabled":false,"rental_uris":{"android":"levelo://app?vid=dbcd4e4e-daf9-4a73-b496-7a26eadb6e41","ios":"levelo://app?vid=dbcd4e4e-daf9-4a73-b496-7a26eadb6e41"},"vehicle_type_id":"4","last_reported":1741075939,"current_range_meters":4000,"station_id":"ce4bhjp2rcd13ifvqg90","pricing_plan_id":"cebpf4jnsgd1na2vs0mg"},{"bike_id":"aa2fe4c6-787c-4ac5-80d5-077943b61763","system_id":"levelo_inurba_marseille","lat":43.3046,"lon":5.37914,"is_reserved":false,"is_disabled":false,"rental_uris":{"android":"levelo://app?vid=aa2fe4c6-787c-4ac5-80d5-077943b61763","ios":"levelo://app?vid=aa2fe4c6-787c-4ac5-80d5-077943b61763"},"vehicle_type_id":"4","last_reported":1741075939,"current_range_meters":4000,"station_id":"ce4bgup2rcd13ifvqcn0","pricing_plan_id":"cebpf4jnsgd1na2vs0mg"},{"bike_id":"04f94e51-a3fa-484a-889c-224ac7e5fccf","system_id":"levelo_inurba_marseille","lat":43.23181,"lon":5.39993,"is_reserved":false,"is_disabled":false,"rental_uris":{"android":"levelo://app?vid=04f94e51-a3fa-484a-889c-224ac7e5fccf","ios":"levelo://app?vid=04f94e51-a3fa-484a-889c-224ac7e5fccf"},"vehicle_type_id":"4","last_reported":1741075939,"current_range_meters":4400,"station_id":"ce4bhn12rcd13ifvqgqg","pricing_plan_id":"cebpf4jnsgd1na2vs0mg"},{"bike_id":"2f9e49ee-4ff7-44f7-9c11-156da7dcdd6c","system_id":"levelo_inurba_marseille","lat":43.31355,"lon":5.36711,"is_reserved":false,"is_disabled":false,"rental_uris":{"android":"levelo://app?vid=2f9e49ee-4ff7-44f7-9c11-156da7dcdd6c","ios":"levelo://app?vid=2f9e49ee-4ff7-44f7-9c11-156da7dcdd6c"},"vehicle_type_id":"4","last_reported":1741075939,"current_range_meters":4800,"station_id":"ce4bgr92rcd13ifvqc6g","pricing_plan_id":"cebpf4jnsgd1na2vs0mg"},{"bike_id":"b4881eb2-5326-4779-b955-e4fe653f1f9b","system_id":"levelo_inurba_marseille","lat":43.26686,"lon":5.38271,"is_reserved":false,"is_disabled":false,"rental_uris":{"android":"levelo://app?vid=b4881eb2-5326-4779-b955-e4fe653f1f9b","ios":"levelo://app?vid=b4881eb2-5326-4779-b955-e4fe653f1f9b"},"vehicle_type_id":"4","last_reported":1741075939,"current_range_meters":4800,"station_id":"ce4bhg92rcd13ifvqf90","pricing_plan_id":"cebpf4jnsgd1na2vs0mg"},{"bike_id":"1621e0c3-0194-4d15-8a8b-87beecb39238","system_id":"levelo_inurba_marseille","lat":43.319926,"lon":5.381423,"is_reserved":false,"is_disabled":true,"rental_uris":{"android":"levelo://app?vid=1621e0c3-0194-4d15-8a8b-87beecb39238","ios":"levelo://app?vid=1621e0c3-0194-4d15-8a8b-87beecb39238"},"vehicle_type_id":"4","last_reported":1741075939,"current_range_meters":5600,"station_id":"ce4bhr12rcd13ifvqhpg","pricing_plan_id":"cebpf4jnsgd1na2vs0mg"},{"bike_id":"39417ca2-2175-48b1-b974-d12a550664e9","system_id":"levelo_inurba_marseille","lat":43.26952,"lon":5.38625,"is_reserved":false,"is_disabled":false,"rental_uris":{"android":"levelo://app?vid=39417ca2-2175-48b1-b974-d12a550664e9","ios":"levelo://app?vid=39417ca2-2175-48b1-b974-d12a550664e9"},"vehicle_type_id":"4","last_reported":1741075939,"current_range_meters":5600,"station_id":"ce4bhh92rcd13ifvqfh0","pricing_plan_id":"cebpf4jnsgd1na2vs0mg"},{"bike_id":"3e39d744-1841-4f92-9d5c-19db8223e821","system_id":"levelo_inurba_marseille","lat":43.30125,"lon":5.39856,"is_reserved":false,"is_disabled":false,"rental_uris":{"android":"levelo://app?vid=3e39d744-1841-4f92-9d5c-19db8223e821","ios":"levelo://app?vid=3e39d744-1841-4f92-9d5c-19db8223e821"},"vehicle_type_id":"4","last_reported":1741075939,"current_range_meters":4400,"station_id":"ce4bh0h2rcd13ifvqd40","pricing_plan_id":"cebpf4jnsgd1na2vs0mg"},{"bike_id":"9ee3d017-a864-4e85-a47f-e27d4c7b327f","system_id":"levelo_inurba_marseille","lat":43.27795,"lon":5.40747,"is_reserved":false,"is_disabled":false,"rental_uris":{"android":"levelo://app?vid=9ee3d017-a864-4e85-a47f-e27d4c7b327f","ios":"levelo://app?vid=9ee3d017-a864-4e85-a47f-e27d4c7b327f"},"vehicle_type_id":"4","last_reported":1741075939,"current_range_meters":5600,"station_id":"ce4bhnh2rcd13ifvqgtg","pricing_plan_id":"cebpf4jnsgd1na2vs0mg"},{"bike_id":"37b9ef76-6552-4980-9870-f60f6671e101","system_id":"levelo_inurba_marseille","lat":43.2396,"lon":5.36631,"is_reserved":false,"is_disabled":false,"rental_uris":{"android":"levelo://app?vid=37b9ef76-6552-4980-9870-f60f6671e101","ios":"levelo://app?vid=37b9ef76-6552-4980-9870-f60f6671e101"},"vehicle_type_id":"4","last_reported":1741075939,"current_range_meters":5600,"station_id":"ce4bhi12rcd13ifvqfp0","pricing_plan_id":"cebpf4jnsgd1na2vs0mg"},{"bike_id":"cda70655-214d-492a-ba6a-2c7a21b5e300","system_id":"levelo_inurba_marseille","lat":43.25938,"lon":5.40901,"is_reserved":false,"is_disabled":false,"rental_uris":{"android":"levelo://app?vid=cda70655-214d-492a-ba6a-2c7a21b5e300","ios":"levelo://app?vid=cda70655-214d-492a-ba6a-2c7a21b5e300"},"vehicle_type_id":"4","last_reported":1741075939,"current_range_meters":5600,"station_id":"ce4bhm92rcd13ifvqglg","pricing_plan_id":"cebpf4jnsgd1na2vs0mg"},{"bike_id":"73681137-6538-4684-87ec-aa9b29720d1e","system_id":"levelo_inurba_marseille","lat":43.23226,"lon":5.35504,"is_reserved":false,"is_disabled":false,"rental_uris":{"android":"levelo://app?vid=73681137-6538-4684-87ec-aa9b29720d1e","ios":"levelo://app?vid=73681137-6538-4684-87ec-aa9b29720d1e"},"vehicle_type_id":"4","last_reported":1741075939,"current_range_meters":5600,"station_id":"","pricing_plan_id":"cebpf4jnsgd1na2vs0mg"},{"bike_id":"2c2f9e56-3ae9-4cdc-ab26-00084f6dff63","system_id":"levelo_inurba_marseille","lat":43.2315,"lon":5.43722,"is_reserved":false,"is_disabled":false,"rental_uris":{"android":"levelo://app?vid=2c2f9e56-3ae9-4cdc-ab26-00084f6dff63","ios":"levelo://app?vid=2c2f9e56-3ae9-4cdc-ab26-00084f6dff63"},"vehicle_type_id":"4","last_reported":1741075939,"current_range_meters":5600,"station_id":"ce4bhmp2rcd13ifvqgog","pricing_plan_id":"cebpf4jnsgd1na2vs0mg"},{"bike_id":"7ca68fdf-fbd5-4520-81be-1af77938482b","system_id":"levelo_inurba_marseille","lat":43.30138,"lon":5.38768,"is_reserved":false,"is_disabled":false,"rental_uris":{"android":"levelo://app?vid=7ca68fdf-fbd5-4520-81be-1af77938482b","ios":"levelo://app?vid=7ca68fdf-fbd5-4520-81be-1af77938482b"},"vehicle_type_id":"4","last_reported":1741075939,"current_range_meters":6000,"station_id":"ce4bgi12rcd13ifvqb70","pricing_plan_id":"cebpf4jnsgd1na2vs0mg"},{"bike_id":"e33c13e9-2819-4f9f-a321-3021596a4181","system_id":"levelo_inurba_marseille","lat":43.23152,"lon":5.43715,"is_reserved":false,"is_disabled":false,"rental_uris":{"android":"levelo://app?vid=e33c13e9-2819-4f9f-a321-3021596a4181","ios":"levelo://app?vid=e33c13e9-2819-4f9f-a321-3021596a4181"},"vehicle_type_id":"4","last_reported":1741075939,"current_range_meters":5600,"station_id":"ce4bhmp2rcd13ifvqgog","pricing_plan_id":"cebpf4jnsgd1na2vs0mg"},{"bike_id":"9db49163-1bcf-4cb4-975b-b1e9ddf4e6d9","system_id":"levelo_inurba_marseille","lat":43.27176,"lon":5.409896,"is_reserved":false,"is_disabled":false,"rental_uris":{"android":"levelo://app?vid=9db49163-1bcf-4cb4-975b-b1e9ddf4e6d9","ios":"levelo://app?vid=9db49163-1bcf-4cb4-975b-b1e9ddf4e6d9"},"vehicle_type_id":"4","last_reported":1741075939,"current_range_meters":5600,"station_id":"ce4bhl12rcd13ifvqgf0","pricing_plan_id":"cebpf4jnsgd1na2vs0mg"},{"bike_id":"2c1176d3-64ac-423b-9b12-ba862866fce4","system_id":"levelo_inurba_marseille","lat":43.27494,"lon":5.42452,"is_reserved":false,"is_disabled":false,"rental_uris":{"android":"levelo://app?vid=2c1176d3-64ac-423b-9b12-ba862866fce4","ios":"levelo://app?vid=2c1176d3-64ac-423b-9b12-ba862866fce4"},"vehicle_type_id":"4","last_reported":1741075939,"current_range_meters":6000,"station_id":"ce4bhn92rcd13ifvqgrg","pricing_plan_id":"cebpf4jnsgd1na2vs0mg"},{"bike_id":"3e1ac172-9282-4252-b215-188b30bc674b","system_id":"levelo_inurba_marseille","lat":43.29851,"lon":5.36284,"is_reserved":false,"is_disabled":false,"rental_uris":{"android":"levelo://app?vid=3e1ac172-9282-4252-b215-188b30bc674b","ios":"levelo://app?vid=3e1ac172-9282-4252-b215-188b30bc674b"},"vehicle_type_id":"4","last_reported":1741075939,"current_range_meters":6000,"station_id":"ce4bgpp2rcd13ifvqc3g","pricing_plan_id":"cebpf4jnsgd1na2vs0mg"},{"bike_id":"cebb016f-d559-4dd5-bb5b-c13fbd8a539c","system_id":"levelo_inurba_marseille","lat":43.29845,"lon":5.36277,"is_reserved":false,"is_disabled":false,"rental_uris":{"android":"levelo://app?vid=cebb016f-d559-4dd5-bb5b-c13fbd8a539c","ios":"levelo://app?vid=cebb016f-d559-4dd5-bb5b-c13fbd8a539c"},"vehicle_type_id":"4","last_reported":1741075939,"current_range_meters":6000,"station_id":"ce4bgpp2rcd13ifvqc3g","pricing_plan_id":"cebpf4jnsgd1na2vs0mg"},{"bike_id":"339ea272-f25a-456c-877c-feadbff46552","system_id":"levelo_inurba_marseille","lat":43.273858,"lon":5.393456,"is_reserved":false,"is_disabled":false,"rental_uris":{"android":"levelo://app?vid=339ea272-f25a-456c-877c-feadbff46552","ios":"levelo://app?vid=339ea272-f25a-456c-877c-feadbff46552"},"vehicle_type_id":"4","last_reported":1741075939,"current_range_meters":6000,"station_id":"","pricing_plan_id":"cebpf4jnsgd1na2vs0mg"},{"bike_id":"2d4e1c3e-7392-4616-b3cf-646345a17bd5","system_id":"levelo_inurba_marseille","lat":43.29545,"lon":5.4229,"is_reserved":false,"is_disabled":true,"rental_uris":{"android":"levelo://app?vid=2d4e1c3e-7392-4616-b3cf-646345a17bd5","ios":"levelo://app?vid=2d4e1c3e-7392-4616-b3cf-646345a17bd5"},"vehicle_type_id":"4","last_reported":1741075939,"current_range_meters":6000,"station_id":"ce4bhph2rcd13ifvqhdg","pricing_plan_id":"cebpf4jnsgd1na2vs0mg"},{"bike_id":"97a36015-2afb-4ca1-9fa9-f40fbe3dd7a7","system_id":"levelo_inurba_marseille","lat":43.244498,"lon":5.371247,"is_reserved":false,"is_disabled":false,"rental_uris":{"android":"levelo://app?vid=97a36015-2afb-4ca1-9fa9-f40fbe3dd7a7","ios":"levelo://app?vid=97a36015-2afb-4ca1-9fa9-f40fbe3dd7a7"},"vehicle_type_id":"4","last_reported":1741075939,"current_range_meters":6000,"station_id":"ce4bguh2rcd13ifvqckg","pricing_plan_id":"cebpf4jnsgd1na2vs0mg"},{"bike_id":"ae32c428-8878-4011-9b36-3835e76dc85c","system_id":"levelo_inurba_marseille","lat":43.251826,"lon":5.378385,"is_reserved":false,"is_disabled":false,"rental_uris":{"android":"levelo://app?vid=ae32c428-8878-4011-9b36-3835e76dc85c","ios":"levelo://app?vid=ae32c428-8878-4011-9b36-3835e76dc85c"},"vehicle_type_id":"4","last_reported":1741075939,"current_range_meters":6000,"station_id":"","pricing_plan_id":"cebpf4jnsgd1na2vs0mg"},{"bike_id":"2a3fe11a-a321-4cc5-8c51-02be428ddfb1","system_id":"levelo_inurba_marseille","lat":43.30271,"lon":5.37719,"is_reserved":false,"is_disabled":false,"rental_uris":{"android":"levelo://app?vid=2a3fe11a-a321-4cc5-8c51-02be428ddfb1","ios":"levelo://app?vid=2a3fe11a-a321-4cc5-8c51-02be428ddfb1"},"vehicle_type_id":"4","last_reported":1741075939,"current_range_meters":6000,"station_id":"ce4bguh2rcd13ifvqcj0","pricing_plan_id":"cebpf4jnsgd1na2vs0mg"},{"bike_id":"f381c9bd-14fa-41ab-b589-3ecebd6dfe48","system_id":"levelo_inurba_marseille","lat":43.32346,"lon":5.36742,"is_reserved":false,"is_disabled":false,"rental_uris":{"android":"levelo://app?vid=f381c9bd-14fa-41ab-b589-3ecebd6dfe48","ios":"levelo://app?vid=f381c9bd-14fa-41ab-b589-3ecebd6dfe48"},"vehicle_type_id":"4","last_reported":1741075939,"current_range_meters":6000,"station_id":"ce4bhsh2rcd13ifvqi2g","pricing_plan_id":"cebpf4jnsgd1na2vs0mg"},{"bike_id":"47b17e94-73e4-42c1-ab70-acb88d857fc5","system_id":"levelo_inurba_marseille","lat":43.24547,"lon":5.39519,"is_reserved":false,"is_disabled":false,"rental_uris":{"android":"levelo://app?vid=47b17e94-73e4-42c1-ab70-acb88d857fc5","ios":"levelo://app?vid=47b17e94-73e4-42c1-ab70-acb88d857fc5"},"vehicle_type_id":"4","last_reported":1741075939,"current_range_meters":5600,"station_id":"ce4bhlp2rcd13ifvqgjg","pricing_plan_id":"cebpf4jnsgd1na2vs0mg"},{"bike_id":"40323d2b-7fa4-44fa-8afd-3105efa74518","system_id":"levelo_inurba_marseille","lat":43.24174,"lon":5.39728,"is_reserved":false,"is_disabled":false,"rental_uris":{"android":"levelo://app?vid=40323d2b-7fa4-44fa-8afd-3105efa74518","ios":"levelo://app?vid=40323d2b-7fa4-44fa-8afd-3105efa74518"},"vehicle_type_id":"4","last_reported":1741075939,"current_range_meters":6400,"station_id":"ce4bhn12rcd13ifvqgpg","pricing_plan_id":"cebpf4jnsgd1na2vs0mg"},{"bike_id":"351a78a5-52e0-4fcc-968c-d2f55f5b2d81","system_id":"levelo_inurba_marseille","lat":43.25913,"lon":5.40893,"is_reserved":false,"is_disabled":false,"rental_uris":{"android":"levelo://app?vid=351a78a5-52e0-4fcc-968c-d2f55f5b2d81","ios":"levelo://app?vid=351a78a5-52e0-4fcc-968c-d2f55f5b2d81"},"vehicle_type_id":"4","last_reported":1741075939,"current_range_meters":6400,"station_id":"ce4bhm92rcd13ifvqglg","pricing_plan_id":"cebpf4jnsgd1na2vs0mg"},{"bike_id":"89c8c354-abdd-470d-87be-8e6fe400208b","system_id":"levelo_inurba_marseille","lat":43.26543,"lon":5.39043,"is_reserved":false,"is_disabled":false,"rental_uris":{"android":"levelo://app?vid=89c8c354-abdd-470d-87be-8e6fe400208b","ios":"levelo://app?vid=89c8c354-abdd-470d-87be-8e6fe400208b"},"vehicle_type_id":"4","last_reported":1741075939,"current_range_meters":6400,"station_id":"ce4bhe12rcd13ifvqf30","pricing_plan_id":"cebpf4jnsgd1na2vs0mg"},{"bike_id":"e88f130a-25d5-4cff-9ad8-682e47b758b8","system_id":"levelo_inurba_marseille","lat":43.30076,"lon":5.3909,"is_reserved":false,"is_disabled":false,"rental_uris":{"android":"levelo://app?vid=e88f130a-25d5-4cff-9ad8-682e47b758b8","ios":"levelo://app?vid=e88f130a-25d5-4cff-9ad8-682e47b758b8"},"vehicle_type_id":"4","last_reported":1741075939,"current_range_meters":6400,"station_id":"ce4bh192rcd13ifvqdb0","pricing_plan_id":"cebpf4jnsgd1na2vs0mg"},{"bike_id":"437946ce-f17b-4110-a70c-678f97bea776","system_id":"levelo_inurba_marseille","lat":43.30484,"lon":5.38079,"is_reserved":false,"is_disabled":false,"rental_uris":{"android":"levelo://app?vid=437946ce-f17b-4110-a70c-678f97bea776","ios":"levelo://app?vid=437946ce-f17b-4110-a70c-678f97bea776"},"vehicle_type_id":"4","last_reported":1741075939,"current_range_meters":6400,"station_id":"","pricing_plan_id":"cebpf4jnsgd1na2vs0mg"},{"bike_id":"f103fcaa-13de-4ed2-a24d-a93a6a3263dd","system_id":"levelo_inurba_marseille","lat":43.30135,"lon":5.37425,"is_reserved":false,"is_disabled":false,"rental_uris":{"android":"levelo://app?vid=f103fcaa-13de-4ed2-a24d-a93a6a3263dd","ios":"levelo://app?vid=f103fcaa-13de-4ed2-a24d-a93a6a3263dd"},"vehicle_type_id":"4","last_reported":1741075939,"current_range_meters":6400,"station_id":"ce4bgs92rcd13ifvqcc0","pricing_plan_id":"cebpf4jnsgd1na2vs0mg"},{"bike_id":"29c5a535-224e-4e40-bada-aa34ce1fe3ef","system_id":"levelo_inurba_marseille","lat":43.30898,"lon":5.3685,"is_reserved":false,"is_disabled":false,"rental_uris":{"android":"levelo://app?vid=29c5a535-224e-4e40-bada-aa34ce1fe3ef","ios":"levelo://app?vid=29c5a535-224e-4e40-bada-aa34ce1fe3ef"},"vehicle_type_id":"4","last_reported":1741075939,"current_range_meters":6400,"station_id":"ce4bgn92rcd13ifvqbvg","pricing_plan_id":"cebpf4jnsgd1na2vs0mg"},{"bike_id":"084a16ea-cba1-4699-9cdb-bee52bb96bbe","system_id":"levelo_inurba_marseille","lat":43.25819,"lon":5.39441,"is_reserved":false,"is_disabled":false,"rental_uris":{"android":"levelo://app?vid=084a16ea-cba1-4699-9cdb-bee52bb96bbe","ios":"levelo://app?vid=084a16ea-cba1-4699-9cdb-bee52bb96bbe"},"vehicle_type_id":"4","last_reported":1741075939,"current_range_meters":6800,"station_id":"ce4bhip2rcd13ifvqft0","pricing_plan_id":"cebpf4jnsgd1na2vs0mg"},{"bike_id":"3ade0124-d0ce-494f-9573-035428e9b3c2","system_id":"levelo_inurba_marseille","lat":43.30954,"lon":5.39042,"is_reserved":false,"is_disabled":false,"rental_uris":{"android":"levelo://app?vid=3ade0124-d0ce-494f-9573-035428e9b3c2","ios":"levelo://app?vid=3ade0124-d0ce-494f-9573-035428e9b3c2"},"vehicle_type_id":"4","last_reported":1741075939,"current_range_meters":6800,"station_id":"ce4bgup2rcd13ifvqco0","pricing_plan_id":"cebpf4jnsgd1na2vs0mg"},{"bike_id":"c412a8a2-1940-4ef3-8705-4897be5ead55","system_id":"levelo_inurba_marseille","lat":43.274903,"lon":5.424538,"is_reserved":false,"is_disabled":false,"rental_uris":{"android":"levelo://app?vid=c412a8a2-1940-4ef3-8705-4897be5ead55","ios":"levelo://app?vid=c412a8a2-1940-4ef3-8705-4897be5ead55"},"vehicle_type_id":"4","last_reported":1741075939,"current_range_meters":6800,"station_id":"ce4bhn92rcd13ifvqgrg","pricing_plan_id":"cebpf4jnsgd1na2vs0mg"},{"bike_id":"2dc751b0-8636-4c07-a9e7-6cd697bb0b08","system_id":"levelo_inurba_marseille","lat":43.26205,"lon":5.37444,"is_reserved":false,"is_disabled":false,"rental_uris":{"android":"levelo://app?vid=2dc751b0-8636-4c07-a9e7-6cd697bb0b08","ios":"levelo://app?vid=2dc751b0-8636-4c07-a9e7-6cd697bb0b08"},"vehicle_type_id":"4","last_reported":1741075939,"current_range_meters":6800,"station_id":"ce4bhgp2rcd13ifvqfc0","pricing_plan_id":"cebpf4jnsgd1na2vs0mg"},{"bike_id":"7bea709c-85af-4216-a8e5-19de784dd721","system_id":"levelo_inurba_marseille","lat":43.2781,"lon":5.40714,"is_reserved":false,"is_disabled":false,"rental_uris":{"android":"levelo://app?vid=7bea709c-85af-4216-a8e5-19de784dd721","ios":"levelo://app?vid=7bea709c-85af-4216-a8e5-19de784dd721"},"vehicle_type_id":"4","last_reported":1741075939,"current_range_meters":6800,"station_id":"ce4bhnh2rcd13ifvqgtg","pricing_plan_id":"cebpf4jnsgd1na2vs0mg"},{"bike_id":"a4a22621-bf3a-4221-b996-6d0b026eb673","system_id":"levelo_inurba_marseille","lat":43.25011,"lon":5.3893,"is_reserved":false,"is_disabled":false,"rental_uris":{"android":"levelo://app?vid=a4a22621-bf3a-4221-b996-6d0b026eb673","ios":"levelo://app?vid=a4a22621-bf3a-4221-b996-6d0b026eb673"},"vehicle_type_id":"4","last_reported":1741075939,"current_range_meters":7200,"station_id":"ce4bhgp2rcd13ifvqfd0","pricing_plan_id":"cebpf4jnsgd1na2vs0mg"},{"bike_id":"76d154d9-de45-47c4-aa4e-ebc4dd631146","system_id":"levelo_inurba_marseille","lat":43.29259,"lon":5.37619,"is_reserved":false,"is_disabled":false,"rental_uris":{"android":"levelo://app?vid=76d154d9-de45-47c4-aa4e-ebc4dd631146","ios":"levelo://app?vid=76d154d9-de45-47c4-aa4e-ebc4dd631146"},"vehicle_type_id":"4","last_reported":1741075939,"current_range_meters":6800,"station_id":"ce4bgi12rcd13ifvqb80","pricing_plan_id":"cebpf4jnsgd1na2vs0mg"},{"bike_id":"7e54e7ff-38f2-44b2-b9d5-2b0043f50759","system_id":"levelo_inurba_marseille","lat":43.26683,"lon":5.38275,"is_reserved":false,"is_disabled":false,"rental_uris":{"android":"levelo://app?vid=7e54e7ff-38f2-44b2-b9d5-2b0043f50759","ios":"levelo://app?vid=7e54e7ff-38f2-44b2-b9d5-2b0043f50759"},"vehicle_type_id":"4","last_reported":1741075939,"current_range_meters":6800,"station_id":"ce4bhg92rcd13ifvqf90","pricing_plan_id":"cebpf4jnsgd1na2vs0mg"},{"bike_id":"f17ea63a-db17-447a-a811-21a7bc82155d","system_id":"levelo_inurba_marseille","lat":43.29257,"lon":5.37618,"is_reserved":false,"is_disabled":false,"rental_uris":{"android":"levelo://app?vid=f17ea63a-db17-447a-a811-21a7bc82155d","ios":"levelo://app?vid=f17ea63a-db17-447a-a811-21a7bc82155d"},"vehicle_type_id":"4","last_reported":1741075939,"current_range_meters":6800,"station_id":"ce4bgi12rcd13ifvqb80","pricing_plan_id":"cebpf4jnsgd1na2vs0mg"},{"bike_id":"f7fd406c-0196-4a4e-b8dd-d3d0d0fc9dd4","system_id":"levelo_inurba_marseille","lat":43.30321,"lon":5.40448,"is_reserved":false,"is_disabled":false,"rental_uris":{"android":"levelo://app?vid=f7fd406c-0196-4a4e-b8dd-d3d0d0fc9dd4","ios":"levelo://app?vid=f7fd406c-0196-4a4e-b8dd-d3d0d0fc9dd4"},"vehicle_type_id":"4","last_reported":1741075939,"current_range_meters":6800,"station_id":"ce4bh012rcd13ifvqd10","pricing_plan_id":"cebpf4jnsgd1na2vs0mg"},{"bike_id":"aaa26834-d252-4d3f-b80d-a4135d9f9269","system_id":"levelo_inurba_marseille","lat":43.27677,"lon":5.38892,"is_reserved":false,"is_disabled":false,"rental_uris":{"android":"levelo://app?vid=aaa26834-d252-4d3f-b80d-a4135d9f9269","ios":"levelo://app?vid=aaa26834-d252-4d3f-b80d-a4135d9f9269"},"vehicle_type_id":"4","last_reported":1741075939,"current_range_meters":6800,"station_id":"ce4bhi12rcd13ifvqfo0","pricing_plan_id":"cebpf4jnsgd1na2vs0mg"},{"bike_id":"f5824151-45a8-40ad-a0e6-e80ea5e5887d","system_id":"levelo_inurba_marseille","lat":43.30535,"lon":5.36544,"is_reserved":false,"is_disabled":false,"rental_uris":{"android":"levelo://app?vid=f5824151-45a8-40ad-a0e6-e80ea5e5887d","ios":"levelo://app?vid=f5824151-45a8-40ad-a0e6-e80ea5e5887d"},"vehicle_type_id":"4","last_reported":1741075939,"current_range_meters":6800,"station_id":"ce4bgs12rcd13ifvqcag","pricing_plan_id":"cebpf4jnsgd1na2vs0mg"},{"bike_id":"8ade5181-cd88-4ece-8534-46a6372826ef","system_id":"levelo_inurba_marseille","lat":43.27695,"lon":5.41551,"is_reserved":false,"is_disabled":false,"rental_uris":{"android":"levelo://app?vid=8ade5181-cd88-4ece-8534-46a6372826ef","ios":"levelo://app?vid=8ade5181-cd88-4ece-8534-46a6372826ef"},"vehicle_type_id":"4","last_reported":1741075939,"current_range_meters":7200,"station_id":"","pricing_plan_id":"cebpf4jnsgd1na2vs0mg"},{"bike_id":"c19d77a8-5520-45f7-9712-a3f89cb69d9f","system_id":"levelo_inurba_marseille","lat":43.2834,"lon":5.38922,"is_reserved":false,"is_disabled":false,"rental_uris":{"android":"levelo://app?vid=c19d77a8-5520-45f7-9712-a3f89cb69d9f","ios":"levelo://app?vid=c19d77a8-5520-45f7-9712-a3f89cb69d9f"},"vehicle_type_id":"4","last_reported":1741075939,"current_range_meters":7200,"station_id":"","pricing_plan_id":"cebpf4jnsgd1na2vs0mg"},{"bike_id":"4e9114a6-9327-4619-b114-00e483817824","system_id":"levelo_inurba_marseille","lat":43.2394,"lon":5.36646,"is_reserved":false,"is_disabled":false,"rental_uris":{"android":"levelo://app?vid=4e9114a6-9327-4619-b114-00e483817824","ios":"levelo://app?vid=4e9114a6-9327-4619-b114-00e483817824"},"vehicle_type_id":"4","last_reported":1741075939,"current_range_meters":7200,"station_id":"ce4bhi12rcd13ifvqfp0","pricing_plan_id":"cebpf4jnsgd1na2vs0mg"},{"bike_id":"2fdf1761-0ecd-4fdc-b385-370456910523","system_id":"levelo_inurba_marseille","lat":43.30316,"lon":5.36902,"is_reserved":false,"is_disabled":false,"rental_uris":{"android":"levelo://app?vid=2fdf1761-0ecd-4fdc-b385-370456910523","ios":"levelo://app?vid=2fdf1761-0ecd-4fdc-b385-370456910523"},"vehicle_type_id":"4","last_reported":1741075939,"current_range_meters":7200,"station_id":"ce4bgqh2rcd13ifvqc5g","pricing_plan_id":"cebpf4jnsgd1na2vs0mg"},{"bike_id":"90a47c55-7d0c-4b6b-94e5-81e21155469e","system_id":"levelo_inurba_marseille","lat":43.2314,"lon":5.43739,"is_reserved":false,"is_disabled":false,"rental_uris":{"android":"levelo://app?vid=90a47c55-7d0c-4b6b-94e5-81e21155469e","ios":"levelo://app?vid=90a47c55-7d0c-4b6b-94e5-81e21155469e"},"vehicle_type_id":"4","last_reported":1741075939,"current_range_meters":7200,"station_id":"ce4bhmp2rcd13ifvqgog","pricing_plan_id":"cebpf4jnsgd1na2vs0mg"},{"bike_id":"84e3ec97-0043-452d-80d7-39e2bcaaf420","system_id":"levelo_inurba_marseille","lat":43.30279,"lon":5.37699,"is_reserved":false,"is_disabled":false,"rental_uris":{"android":"levelo://app?vid=84e3ec97-0043-452d-80d7-39e2bcaaf420","ios":"levelo://app?vid=84e3ec97-0043-452d-80d7-39e2bcaaf420"},"vehicle_type_id":"4","last_reported":1741075939,"current_range_meters":7200,"station_id":"ce4bguh2rcd13ifvqcj0","pricing_plan_id":"cebpf4jnsgd1na2vs0mg"},{"bike_id":"e41e0bb8-6c1c-4ce2-b18d-069e130ca183","system_id":"levelo_inurba_marseille","lat":43.230634,"lon":5.354932,"is_reserved":false,"is_disabled":false,"rental_uris":{"android":"levelo://app?vid=e41e0bb8-6c1c-4ce2-b18d-069e130ca183","ios":"levelo://app?vid=e41e0bb8-6c1c-4ce2-b18d-069e130ca183"},"vehicle_type_id":"4","last_reported":1741075939,"current_range_meters":7200,"station_id":"cpo3342slgdg3j2ifvpg","pricing_plan_id":"cebpf4jnsgd1na2vs0mg"},{"bike_id":"69539ccb-ca63-4555-bd43-968ddad5c3c6","system_id":"levelo_inurba_marseille","lat":43.25004,"lon":5.38919,"is_reserved":false,"is_disabled":false,"rental_uris":{"android":"levelo://app?vid=69539ccb-ca63-4555-bd43-968ddad5c3c6","ios":"levelo://app?vid=69539ccb-ca63-4555-bd43-968ddad5c3c6"},"vehicle_type_id":"4","last_reported":1741075939,"current_range_meters":7200,"station_id":"ce4bhgp2rcd13ifvqfd0","pricing_plan_id":"cebpf4jnsgd1na2vs0mg"},{"bike_id":"c8c30254-af6a-4a88-b0b6-9a3a52022bea","system_id":"levelo_inurba_marseille","lat":43.32397,"lon":5.42705,"is_reserved":false,"is_disabled":false,"rental_uris":{"android":"levelo://app?vid=c8c30254-af6a-4a88-b0b6-9a3a52022bea","ios":"levelo://app?vid=c8c30254-af6a-4a88-b0b6-9a3a52022bea"},"vehicle_type_id":"4","last_reported":1741075939,"current_range_meters":8000,"station_id":"","pricing_plan_id":"cebpf4jnsgd1na2vs0mg"},{"bike_id":"ce8ef3d2-07e3-4512-8813-bcde53a01429","system_id":"levelo_inurba_marseille","lat":43.24167,"lon":5.36394,"is_reserved":false,"is_disabled":false,"rental_uris":{"android":"levelo://app?vid=ce8ef3d2-07e3-4512-8813-bcde53a01429","ios":"levelo://app?vid=ce8ef3d2-07e3-4512-8813-bcde53a01429"},"vehicle_type_id":"4","last_reported":1741075939,"current_range_meters":8000,"station_id":"cpo36qri1sfpv3e86is0","pricing_plan_id":"cebpf4jnsgd1na2vs0mg"},{"bike_id":"8853f3b9-20a3-4480-9c1d-81721e27d9f9","system_id":"levelo_inurba_marseille","lat":43.26059,"lon":5.39416,"is_reserved":false,"is_disabled":false,"rental_uris":{"android":"levelo://app?vid=8853f3b9-20a3-4480-9c1d-81721e27d9f9","ios":"levelo://app?vid=8853f3b9-20a3-4480-9c1d-81721e27d9f9"},"vehicle_type_id":"4","last_reported":1741075939,"current_range_meters":8000,"station_id":"ce4bhh92rcd13ifvqfj0","pricing_plan_id":"cebpf4jnsgd1na2vs0mg"},{"bike_id":"f71f9016-cd7a-4d2f-a244-6b67297b159e","system_id":"levelo_inurba_marseille","lat":43.27895,"lon":5.41674,"is_reserved":false,"is_disabled":false,"rental_uris":{"android":"levelo://app?vid=f71f9016-cd7a-4d2f-a244-6b67297b159e","ios":"levelo://app?vid=f71f9016-cd7a-4d2f-a244-6b67297b159e"},"vehicle_type_id":"4","last_reported":1741075939,"current_range_meters":8000,"station_id":"","pricing_plan_id":"cebpf4jnsgd1na2vs0mg"},{"bike_id":"108038a1-0485-4d5f-8a48-347108655d51","system_id":"levelo_inurba_marseille","lat":43.26586,"lon":5.39028,"is_reserved":false,"is_disabled":false,"rental_uris":{"android":"levelo://app?vid=108038a1-0485-4d5f-8a48-347108655d51","ios":"levelo://app?vid=108038a1-0485-4d5f-8a48-347108655d51"},"vehicle_type_id":"4","last_reported":1741075939,"current_range_meters":8000,"station_id":"ce4bhe12rcd13ifvqf30","pricing_plan_id":"cebpf4jnsgd1na2vs0mg"},{"bike_id":"e599aac0-c825-4643-aeb1-c2d8b1ae00e8","system_id":"levelo_inurba_marseille","lat":43.2418,"lon":5.39724,"is_reserved":false,"is_disabled":false,"rental_uris":{"android":"levelo://app?vid=e599aac0-c825-4643-aeb1-c2d8b1ae00e8","ios":"levelo://app?vid=e599aac0-c825-4643-aeb1-c2d8b1ae00e8"},"vehicle_type_id":"4","last_reported":1741075939,"current_range_meters":8000,"station_id":"ce4bhn12rcd13ifvqgpg","pricing_plan_id":"cebpf4jnsgd1na2vs0mg"},{"bike_id":"d9cbadbd-d719-46f4-b398-2283cd0d427f","system_id":"levelo_inurba_marseille","lat":43.25117,"lon":5.40315,"is_reserved":false,"is_disabled":false,"rental_uris":{"android":"levelo://app?vid=d9cbadbd-d719-46f4-b398-2283cd0d427f","ios":"levelo://app?vid=d9cbadbd-d719-46f4-b398-2283cd0d427f"},"vehicle_type_id":"4","last_reported":1741075939,"current_range_meters":8000,"station_id":"ce4bhlh2rcd13ifvqgig","pricing_plan_id":"cebpf4jnsgd1na2vs0mg"},{"bike_id":"d20d4ac0-3e72-4d7c-b740-440a0b15f885","system_id":"levelo_inurba_marseille","lat":43.24217,"lon":5.39745,"is_reserved":false,"is_disabled":false,"rental_uris":{"android":"levelo://app?vid=d20d4ac0-3e72-4d7c-b740-440a0b15f885","ios":"levelo://app?vid=d20d4ac0-3e72-4d7c-b740-440a0b15f885"},"vehicle_type_id":"4","last_reported":1741075939,"current_range_meters":8000,"station_id":"ce4bhn12rcd13ifvqgpg","pricing_plan_id":"cebpf4jnsgd1na2vs0mg"},{"bike_id":"15d1809a-97c8-428d-a2c6-9d8c5a972121","system_id":"levelo_inurba_marseille","lat":43.23161,"lon":5.4371,"is_reserved":false,"is_disabled":false,"rental_uris":{"android":"levelo://app?vid=15d1809a-97c8-428d-a2c6-9d8c5a972121","ios":"levelo://app?vid=15d1809a-97c8-428d-a2c6-9d8c5a972121"},"vehicle_type_id":"4","last_reported":1741075939,"current_range_meters":8000,"station_id":"ce4bhmp2rcd13ifvqgog","pricing_plan_id":"cebpf4jnsgd1na2vs0mg"},{"bike_id":"5f6058f8-17d6-41f9-bf21-73aab62a2071","system_id":"levelo_inurba_marseille","lat":43.25812,"lon":5.39444,"is_reserved":false,"is_disabled":false,"rental_uris":{"android":"levelo://app?vid=5f6058f8-17d6-41f9-bf21-73aab62a2071","ios":"levelo://app?vid=5f6058f8-17d6-41f9-bf21-73aab62a2071"},"vehicle_type_id":"4","last_reported":1741075939,"current_range_meters":8400,"station_id":"ce4bhip2rcd13ifvqft0","pricing_plan_id":"cebpf4jnsgd1na2vs0mg"},{"bike_id":"3567ab03-e36d-4630-b99b-e0b5f2f0d56f","system_id":"levelo_inurba_marseille","lat":43.30191,"lon":5.36631,"is_reserved":false,"is_disabled":false,"rental_uris":{"android":"levelo://app?vid=3567ab03-e36d-4630-b99b-e0b5f2f0d56f","ios":"levelo://app?vid=3567ab03-e36d-4630-b99b-e0b5f2f0d56f"},"vehicle_type_id":"4","last_reported":1741075939,"current_range_meters":8400,"station_id":"ce4bgrh2rcd13ifvqc8g","pricing_plan_id":"cebpf4jnsgd1na2vs0mg"},{"bike_id":"db28362d-bb10-4055-a1dc-1a7a5cea0cd1","system_id":"levelo_inurba_marseille","lat":43.30136,"lon":5.37417,"is_reserved":false,"is_disabled":false,"rental_uris":{"android":"levelo://app?vid=db28362d-bb10-4055-a1dc-1a7a5cea0cd1","ios":"levelo://app?vid=db28362d-bb10-4055-a1dc-1a7a5cea0cd1"},"vehicle_type_id":"4","last_reported":1741075939,"current_range_meters":8400,"station_id":"ce4bgs92rcd13ifvqcc0","pricing_plan_id":"cebpf4jnsgd1na2vs0mg"},{"bike_id":"71cd5d9d-c4a9-4d7f-b25c-bd7ceef0b27e","system_id":"levelo_inurba_marseille","lat":43.31278,"lon":5.37762,"is_reserved":false,"is_disabled":false,"rental_uris":{"android":"levelo://app?vid=71cd5d9d-c4a9-4d7f-b25c-bd7ceef0b27e","ios":"levelo://app?vid=71cd5d9d-c4a9-4d7f-b25c-bd7ceef0b27e"},"vehicle_type_id":"4","last_reported":1741075939,"current_range_meters":8400,"station_id":"","pricing_plan_id":"cebpf4jnsgd1na2vs0mg"},{"bike_id":"ffd5fa35-92ec-4cc7-9a87-e8633ad3e1d2","system_id":"levelo_inurba_marseille","lat":43.27818,"lon":5.40711,"is_reserved":false,"is_disabled":false,"rental_uris":{"android":"levelo://app?vid=ffd5fa35-92ec-4cc7-9a87-e8633ad3e1d2","ios":"levelo://app?vid=ffd5fa35-92ec-4cc7-9a87-e8633ad3e1d2"},"vehicle_type_id":"4","last_reported":1741075939,"current_range_meters":8400,"station_id":"ce4bhnh2rcd13ifvqgtg","pricing_plan_id":"cebpf4jnsgd1na2vs0mg"},{"bike_id":"c19a15c9-dc92-4f76-999f-70a9a6709dca","system_id":"levelo_inurba_marseille","lat":43.24043,"lon":5.37751,"is_reserved":false,"is_disabled":false,"rental_uris":{"android":"levelo://app?vid=c19a15c9-dc92-4f76-999f-70a9a6709dca","ios":"levelo://app?vid=c19a15c9-dc92-4f76-999f-70a9a6709dca"},"vehicle_type_id":"4","last_reported":1741075939,"current_range_meters":8400,"station_id":"ce4bhnp2rcd13ifvqgvg","pricing_plan_id":"cebpf4jnsgd1na2vs0mg"},{"bike_id":"69cd3787-0277-4a5c-be2d-c41c86958702","system_id":"levelo_inurba_marseille","lat":43.24187,"lon":5.39725,"is_reserved":false,"is_disabled":false,"rental_uris":{"android":"levelo://app?vid=69cd3787-0277-4a5c-be2d-c41c86958702","ios":"levelo://app?vid=69cd3787-0277-4a5c-be2d-c41c86958702"},"vehicle_type_id":"4","last_reported":1741075939,"current_range_meters":8400,"station_id":"ce4bhn12rcd13ifvqgpg","pricing_plan_id":"cebpf4jnsgd1na2vs0mg"},{"bike_id":"09e2ddab-ccd7-4fd2-acff-18020ffff92a","system_id":"levelo_inurba_marseille","lat":43.32363,"lon":5.38892,"is_reserved":false,"is_disabled":false,"rental_uris":{"android":"levelo://app?vid=09e2ddab-ccd7-4fd2-acff-18020ffff92a","ios":"levelo://app?vid=09e2ddab-ccd7-4fd2-acff-18020ffff92a"},"vehicle_type_id":"4","last_reported":1741075939,"current_range_meters":8400,"station_id":"ce4bhqp2rcd13ifvqhog","pricing_plan_id":"cebpf4jnsgd1na2vs0mg"},{"bike_id":"07f56688-c23f-4b0c-8af0-19bac8f9d72c","system_id":"levelo_inurba_marseille","lat":43.2619,"lon":5.37937,"is_reserved":false,"is_disabled":false,"rental_uris":{"android":"levelo://app?vid=07f56688-c23f-4b0c-8af0-19bac8f9d72c","ios":"levelo://app?vid=07f56688-c23f-4b0c-8af0-19bac8f9d72c"},"vehicle_type_id":"4","last_reported":1741075939,"current_range_meters":8400,"station_id":"ce4bhjp2rcd13ifvqg90","pricing_plan_id":"cebpf4jnsgd1na2vs0mg"},{"bike_id":"32039365-9da2-4297-ba07-b74f03c3001e","system_id":"levelo_inurba_marseille","lat":43.31402,"lon":5.36747,"is_reserved":false,"is_disabled":false,"rental_uris":{"android":"levelo://app?vid=32039365-9da2-4297-ba07-b74f03c3001e","ios":"levelo://app?vid=32039365-9da2-4297-ba07-b74f03c3001e"},"vehicle_type_id":"4","last_reported":1741075939,"current_range_meters":8400,"station_id":"ce4bgr92rcd13ifvqc6g","pricing_plan_id":"cebpf4jnsgd1na2vs0mg"},{"bike_id":"6061a373-2501-450f-ae0e-48b80429b9e9","system_id":"levelo_inurba_marseille","lat":43.2783,"lon":5.40699,"is_reserved":false,"is_disabled":false,"rental_uris":{"android":"levelo://app?vid=6061a373-2501-450f-ae0e-48b80429b9e9","ios":"levelo://app?vid=6061a373-2501-450f-ae0e-48b80429b9e9"},"vehicle_type_id":"4","last_reported":1741075939,"current_range_meters":8400,"station_id":"ce4bhnh2rcd13ifvqgtg","pricing_plan_id":"cebpf4jnsgd1na2vs0mg"},{"bike_id":"f1eaf0aa-ede0-4383-b38b-806d6bd60895","system_id":"levelo_inurba_marseille","lat":43.30466,"lon":5.37914,"is_reserved":false,"is_disabled":false,"rental_uris":{"android":"levelo://app?vid=f1eaf0aa-ede0-4383-b38b-806d6bd60895","ios":"levelo://app?vid=f1eaf0aa-ede0-4383-b38b-806d6bd60895"},"vehicle_type_id":"4","last_reported":1741075939,"current_range_meters":8400,"station_id":"ce4bgup2rcd13ifvqcn0","pricing_plan_id":"cebpf4jnsgd1na2vs0mg"},{"bike_id":"20f28f92-adf9-48e3-a33b-83ded65127c5","system_id":"levelo_inurba_marseille","lat":43.23107,"lon":5.35464,"is_reserved":false,"is_disabled":false,"rental_uris":{"android":"levelo://app?vid=20f28f92-adf9-48e3-a33b-83ded65127c5","ios":"levelo://app?vid=20f28f92-adf9-48e3-a33b-83ded65127c5"},"vehicle_type_id":"4","last_reported":1741075939,"current_range_meters":8400,"station_id":"cpo3342slgdg3j2ifvpg","pricing_plan_id":"cebpf4jnsgd1na2vs0mg"},{"bike_id":"a7964cb7-ac1d-45d0-bc64-64c291e1679f","system_id":"levelo_inurba_marseille","lat":43.26181,"lon":5.37945,"is_reserved":false,"is_disabled":false,"rental_uris":{"android":"levelo://app?vid=a7964cb7-ac1d-45d0-bc64-64c291e1679f","ios":"levelo://app?vid=a7964cb7-ac1d-45d0-bc64-64c291e1679f"},"vehicle_type_id":"4","last_reported":1741075939,"current_range_meters":8400,"station_id":"ce4bhjp2rcd13ifvqg90","pricing_plan_id":"cebpf4jnsgd1na2vs0mg"},{"bike_id":"d65670b6-fadb-4776-92a4-00f2428ddaa0","system_id":"levelo_inurba_marseille","lat":43.32537,"lon":5.41443,"is_reserved":false,"is_disabled":false,"rental_uris":{"android":"levelo://app?vid=d65670b6-fadb-4776-92a4-00f2428ddaa0","ios":"levelo://app?vid=d65670b6-fadb-4776-92a4-00f2428ddaa0"},"vehicle_type_id":"4","last_reported":1741075939,"current_range_meters":8800,"station_id":"ce4bhq12rcd13ifvqhhg","pricing_plan_id":"cebpf4jnsgd1na2vs0mg"},{"bike_id":"853e9f93-6f18-4242-b269-d87025e7bb93","system_id":"levelo_inurba_marseille","lat":43.30725,"lon":5.37117,"is_reserved":false,"is_disabled":false,"rental_uris":{"android":"levelo://app?vid=853e9f93-6f18-4242-b269-d87025e7bb93","ios":"levelo://app?vid=853e9f93-6f18-4242-b269-d87025e7bb93"},"vehicle_type_id":"4","last_reported":1741075939,"current_range_meters":8800,"station_id":"","pricing_plan_id":"cebpf4jnsgd1na2vs0mg"},{"bike_id":"caedf473-9313-4874-87c8-230b4a1efdb8","system_id":"levelo_inurba_marseille","lat":43.32455,"lon":5.36601,"is_reserved":false,"is_disabled":false,"rental_uris":{"android":"levelo://app?vid=caedf473-9313-4874-87c8-230b4a1efdb8","ios":"levelo://app?vid=caedf473-9313-4874-87c8-230b4a1efdb8"},"vehicle_type_id":"4","last_reported":1741075939,"current_range_meters":8800,"station_id":"ce4bhs12rcd13ifvqhvg","pricing_plan_id":"cebpf4jnsgd1na2vs0mg"},{"bike_id":"db4fc20d-ab97-4929-95e5-f6242e1f0965","system_id":"levelo_inurba_marseille","lat":43.25578,"lon":5.38263,"is_reserved":false,"is_disabled":false,"rental_uris":{"android":"levelo://app?vid=db4fc20d-ab97-4929-95e5-f6242e1f0965","ios":"levelo://app?vid=db4fc20d-ab97-4929-95e5-f6242e1f0965"},"vehicle_type_id":"4","last_reported":1741075939,"current_range_meters":9200,"station_id":"ce4bhih2rcd13ifvqfs0","pricing_plan_id":"cebpf4jnsgd1na2vs0mg"},{"bike_id":"64953142-7637-42b4-b0d1-c449e63f1db7","system_id":"levelo_inurba_marseille","lat":43.296259,"lon":5.360311,"is_reserved":false,"is_disabled":false,"rental_uris":{"android":"levelo://app?vid=64953142-7637-42b4-b0d1-c449e63f1db7","ios":"levelo://app?vid=64953142-7637-42b4-b0d1-c449e63f1db7"},"vehicle_type_id":"4","last_reported":1741075939,"current_range_meters":8800,"station_id":"","pricing_plan_id":"cebpf4jnsgd1na2vs0mg"},{"bike_id":"50cede7c-5990-4db1-8bbb-fded22e012cf","system_id":"levelo_inurba_marseille","lat":43.28077,"lon":5.39664,"is_reserved":false,"is_disabled":false,"rental_uris":{"android":"levelo://app?vid=50cede7c-5990-4db1-8bbb-fded22e012cf","ios":"levelo://app?vid=50cede7c-5990-4db1-8bbb-fded22e012cf"},"vehicle_type_id":"4","last_reported":1741075939,"current_range_meters":8400,"station_id":"ce4bho12rcd13ifvqh2g","pricing_plan_id":"cebpf4jnsgd1na2vs0mg"},{"bike_id":"6b5f9d56-8163-4220-bc1e-4b1faff21dea","system_id":"levelo_inurba_marseille","lat":43.26684,"lon":5.38274,"is_reserved":false,"is_disabled":false,"rental_uris":{"android":"levelo://app?vid=6b5f9d56-8163-4220-bc1e-4b1faff21dea","ios":"levelo://app?vid=6b5f9d56-8163-4220-bc1e-4b1faff21dea"},"vehicle_type_id":"4","last_reported":1741075939,"current_range_meters":8800,"station_id":"ce4bhg92rcd13ifvqf90","pricing_plan_id":"cebpf4jnsgd1na2vs0mg"},{"bike_id":"d4da5d57-f714-44d9-b816-24d5683dd901","system_id":"levelo_inurba_marseille","lat":43.30954,"lon":5.39027,"is_reserved":false,"is_disabled":false,"rental_uris":{"android":"levelo://app?vid=d4da5d57-f714-44d9-b816-24d5683dd901","ios":"levelo://app?vid=d4da5d57-f714-44d9-b816-24d5683dd901"},"vehicle_type_id":"4","last_reported":1741075939,"current_range_meters":9200,"station_id":"ce4bgup2rcd13ifvqco0","pricing_plan_id":"cebpf4jnsgd1na2vs0mg"},{"bike_id":"1901130a-ffd5-42a0-b994-e2aa42548e35","system_id":"levelo_inurba_marseille","lat":43.2609,"lon":5.41533,"is_reserved":false,"is_disabled":false,"rental_uris":{"android":"levelo://app?vid=1901130a-ffd5-42a0-b994-e2aa42548e35","ios":"levelo://app?vid=1901130a-ffd5-42a0-b994-e2aa42548e35"},"vehicle_type_id":"4","last_reported":1741075939,"current_range_meters":9200,"station_id":"","pricing_plan_id":"cebpf4jnsgd1na2vs0mg"},{"bike_id":"0b818497-4d97-451b-b637-cef3d02b5c9d","system_id":"levelo_inurba_marseille","lat":43.31705,"lon":5.437,"is_reserved":false,"is_disabled":true,"rental_uris":{"android":"levelo://app?vid=0b818497-4d97-451b-b637-cef3d02b5c9d","ios":"levelo://app?vid=0b818497-4d97-451b-b637-cef3d02b5c9d"},"vehicle_type_id":"4","last_reported":1741075939,"current_range_meters":9200,"station_id":"ce4bhp92rcd13ifvqhcg","pricing_plan_id":"cebpf4jnsgd1na2vs0mg"},{"bike_id":"a18fece4-236b-4528-b0b9-389d2006a2ed","system_id":"levelo_inurba_marseille","lat":43.29433,"lon":5.40292,"is_reserved":false,"is_disabled":false,"rental_uris":{"android":"levelo://app?vid=a18fece4-236b-4528-b0b9-389d2006a2ed","ios":"levelo://app?vid=a18fece4-236b-4528-b0b9-389d2006a2ed"},"vehicle_type_id":"4","last_reported":1741075939,"current_range_meters":9200,"station_id":"","pricing_plan_id":"cebpf4jnsgd1na2vs0mg"},{"bike_id":"65735f47-37c2-4d07-834c-4085f857e911","system_id":"levelo_inurba_marseille","lat":43.28967,"lon":5.37839,"is_reserved":false,"is_disabled":false,"rental_uris":{"android":"levelo://app?vid=65735f47-37c2-4d07-834c-4085f857e911","ios":"levelo://app?vid=65735f47-37c2-4d07-834c-4085f857e911"},"vehicle_type_id":"4","last_reported":1741075939,"current_range_meters":8800,"station_id":"ce4bh9p2rcd13ifvqed0","pricing_plan_id":"cebpf4jnsgd1na2vs0mg"},{"bike_id":"41ed89d3-77cd-4311-8513-748a0ca63c4f","system_id":"levelo_inurba_marseille","lat":43.21257,"lon":5.35337,"is_reserved":false,"is_disabled":false,"rental_uris":{"android":"levelo://app?vid=41ed89d3-77cd-4311-8513-748a0ca63c4f","ios":"levelo://app?vid=41ed89d3-77cd-4311-8513-748a0ca63c4f"},"vehicle_type_id":"4","last_reported":1741075939,"current_range_meters":9200,"station_id":"","pricing_plan_id":"cebpf4jnsgd1na2vs0mg"},{"bike_id":"4ac02a66-da50-4129-b13c-39bc5c01eb98","system_id":"levelo_inurba_marseille","lat":43.30122,"lon":5.37442,"is_reserved":false,"is_disabled":false,"rental_uris":{"android":"levelo://app?vid=4ac02a66-da50-4129-b13c-39bc5c01eb98","ios":"levelo://app?vid=4ac02a66-da50-4129-b13c-39bc5c01eb98"},"vehicle_type_id":"4","last_reported":1741075939,"current_range_meters":9200,"station_id":"ce4bgs92rcd13ifvqcc0","pricing_plan_id":"cebpf4jnsgd1na2vs0mg"},{"bike_id":"9de42f25-f760-4086-9a08-2934eee1b520","system_id":"levelo_inurba_marseille","lat":43.21217,"lon":5.35333,"is_reserved":false,"is_disabled":false,"rental_uris":{"android":"levelo://app?vid=9de42f25-f760-4086-9a08-2934eee1b520","ios":"levelo://app?vid=9de42f25-f760-4086-9a08-2934eee1b520"},"vehicle_type_id":"4","last_reported":1741075939,"current_range_meters":9600,"station_id":"","pricing_plan_id":"cebpf4jnsgd1na2vs0mg"},{"bike_id":"a1da4d30-d392-45b1-be77-17d8a3df6794","system_id":"levelo_inurba_marseille","lat":43.29573,"lon":5.37517,"is_reserved":false,"is_disabled":false,"rental_uris":{"android":"levelo://app?vid=a1da4d30-d392-45b1-be77-17d8a3df6794","ios":"levelo://app?vid=a1da4d30-d392-45b1-be77-17d8a3df6794"},"vehicle_type_id":"4","last_reported":1741075939,"current_range_meters":9600,"station_id":"ce4bgh92rcd13ifvqb50","pricing_plan_id":"cebpf4jnsgd1na2vs0mg"},{"bike_id":"dd638b91-b00c-4399-811f-3c0fe08f99a6","system_id":"levelo_inurba_marseille","lat":43.25101,"lon":5.40321,"is_reserved":false,"is_disabled":false,"rental_uris":{"android":"levelo://app?vid=dd638b91-b00c-4399-811f-3c0fe08f99a6","ios":"levelo://app?vid=dd638b91-b00c-4399-811f-3c0fe08f99a6"},"vehicle_type_id":"4","last_reported":1741075939,"current_range_meters":10000,"station_id":"ce4bhlh2rcd13ifvqgig","pricing_plan_id":"cebpf4jnsgd1na2vs0mg"},{"bike_id":"86248c9f-db35-4ea6-a8e4-c9e67f099ebc","system_id":"levelo_inurba_marseille","lat":43.27332,"lon":5.39067,"is_reserved":false,"is_disabled":false,"rental_uris":{"android":"levelo://app?vid=86248c9f-db35-4ea6-a8e4-c9e67f099ebc","ios":"levelo://app?vid=86248c9f-db35-4ea6-a8e4-c9e67f099ebc"},"vehicle_type_id":"4","last_reported":1741075939,"current_range_meters":9600,"station_id":"ce4bhgp2rcd13ifvqfe0","pricing_plan_id":"cebpf4jnsgd1na2vs0mg"},{"bike_id":"e4e91370-e554-4387-b1fb-5ffddc6d4231","system_id":"levelo_inurba_marseille","lat":43.25808,"lon":5.3945,"is_reserved":false,"is_disabled":false,"rental_uris":{"android":"levelo://app?vid=e4e91370-e554-4387-b1fb-5ffddc6d4231","ios":"levelo://app?vid=e4e91370-e554-4387-b1fb-5ffddc6d4231"},"vehicle_type_id":"4","last_reported":1741075939,"current_range_meters":10000,"station_id":"ce4bhip2rcd13ifvqft0","pricing_plan_id":"cebpf4jnsgd1na2vs0mg"},{"bike_id":"ac0f8e6f-c226-4b3b-8588-a97909c682ba","system_id":"levelo_inurba_marseille","lat":43.29599,"lon":5.37729,"is_reserved":false,"is_disabled":false,"rental_uris":{"android":"levelo://app?vid=ac0f8e6f-c226-4b3b-8588-a97909c682ba","ios":"levelo://app?vid=ac0f8e6f-c226-4b3b-8588-a97909c682ba"},"vehicle_type_id":"4","last_reported":1741075939,"current_range_meters":10000,"station_id":"ce4bgi92rcd13ifvqb90","pricing_plan_id":"cebpf4jnsgd1na2vs0mg"},{"bike_id":"7b19da56-5310-4b75-abb7-e4205c13bbbf","system_id":"levelo_inurba_marseille","lat":43.26948,"lon":5.38625,"is_reserved":false,"is_disabled":false,"rental_uris":{"android":"levelo://app?vid=7b19da56-5310-4b75-abb7-e4205c13bbbf","ios":"levelo://app?vid=7b19da56-5310-4b75-abb7-e4205c13bbbf"},"vehicle_type_id":"4","last_reported":1741075939,"current_range_meters":10000,"station_id":"ce4bhh92rcd13ifvqfh0","pricing_plan_id":"cebpf4jnsgd1na2vs0mg"},{"bike_id":"311d39a9-a2f9-4b74-9175-da928b9918aa","system_id":"levelo_inurba_marseille","lat":43.30955,"lon":5.39035,"is_reserved":false,"is_disabled":true,"rental_uris":{"android":"levelo://app?vid=311d39a9-a2f9-4b74-9175-da928b9918aa","ios":"levelo://app?vid=311d39a9-a2f9-4b74-9175-da928b9918aa"},"vehicle_type_id":"4","last_reported":1741075939,"current_range_meters":10000,"station_id":"ce4bgup2rcd13ifvqco0","pricing_plan_id":"cebpf4jnsgd1na2vs0mg"},{"bike_id":"b2c17c63-898b-4bf8-bd07-f7d1f9c58cb9","system_id":"levelo_inurba_marseille","lat":43.33632,"lon":5.41022,"is_reserved":false,"is_disabled":false,"rental_uris":{"android":"levelo://app?vid=b2c17c63-898b-4bf8-bd07-f7d1f9c58cb9","ios":"levelo://app?vid=b2c17c63-898b-4bf8-bd07-f7d1f9c58cb9"},"vehicle_type_id":"4","last_reported":1741075939,"current_range_meters":10000,"station_id":"ce4bhqh2rcd13ifvqhmg","pricing_plan_id":"cebpf4jnsgd1na2vs0mg"},{"bike_id":"7cd9901c-70ca-4048-9c3a-bcc77bae4a12","system_id":"levelo_inurba_marseille","lat":43.24071,"lon":5.37762,"is_reserved":false,"is_disabled":false,"rental_uris":{"android":"levelo://app?vid=7cd9901c-70ca-4048-9c3a-bcc77bae4a12","ios":"levelo://app?vid=7cd9901c-70ca-4048-9c3a-bcc77bae4a12"},"vehicle_type_id":"4","last_reported":1741075939,"current_range_meters":10800,"station_id":"ce4bhnp2rcd13ifvqgvg","pricing_plan_id":"cebpf4jnsgd1na2vs0mg"},{"bike_id":"be84915a-99dd-4ee7-9d90-1df1f97b7f23","system_id":"levelo_inurba_marseille","lat":43.2919,"lon":5.39335,"is_reserved":false,"is_disabled":false,"rental_uris":{"android":"levelo://app?vid=be84915a-99dd-4ee7-9d90-1df1f97b7f23","ios":"levelo://app?vid=be84915a-99dd-4ee7-9d90-1df1f97b7f23"},"vehicle_type_id":"4","last_reported":1741075939,"current_range_meters":10800,"station_id":"ce4bh192rcd13ifvqdd0","pricing_plan_id":"cebpf4jnsgd1na2vs0mg"},{"bike_id":"9b968628-87b3-407c-818a-bf2730491bf3","system_id":"levelo_inurba_marseille","lat":43.31382,"lon":5.36726,"is_reserved":false,"is_disabled":false,"rental_uris":{"android":"levelo://app?vid=9b968628-87b3-407c-818a-bf2730491bf3","ios":"levelo://app?vid=9b968628-87b3-407c-818a-bf2730491bf3"},"vehicle_type_id":"4","last_reported":1741075939,"current_range_meters":10800,"station_id":"","pricing_plan_id":"cebpf4jnsgd1na2vs0mg"},{"bike_id":"373d78c5-16bc-4095-9a66-2b440c99b361","system_id":"levelo_inurba_marseille","lat":43.27794,"lon":5.40739,"is_reserved":false,"is_disabled":false,"rental_uris":{"android":"levelo://app?vid=373d78c5-16bc-4095-9a66-2b440c99b361","ios":"levelo://app?vid=373d78c5-16bc-4095-9a66-2b440c99b361"},"vehicle_type_id":"4","last_reported":1741075939,"current_range_meters":10800,"station_id":"ce4bhnh2rcd13ifvqgtg","pricing_plan_id":"cebpf4jnsgd1na2vs0mg"},{"bike_id":"d9209cce-b798-443c-8925-393059b1ad00","system_id":"levelo_inurba_marseille","lat":43.30525,"lon":5.36734,"is_reserved":false,"is_disabled":false,"rental_uris":{"android":"levelo://app?vid=d9209cce-b798-443c-8925-393059b1ad00","ios":"levelo://app?vid=d9209cce-b798-443c-8925-393059b1ad00"},"vehicle_type_id":"4","last_reported":1741075939,"current_range_meters":10800,"station_id":"ce4bgrp2rcd13ifvqc9g","pricing_plan_id":"cebpf4jnsgd1na2vs0mg"},{"bike_id":"e7ec1ac1-2323-47bd-a2b5-7cd3afb282cf","system_id":"levelo_inurba_marseille","lat":43.26692,"lon":5.37225,"is_reserved":false,"is_disabled":false,"rental_uris":{"android":"levelo://app?vid=e7ec1ac1-2323-47bd-a2b5-7cd3afb282cf","ios":"levelo://app?vid=e7ec1ac1-2323-47bd-a2b5-7cd3afb282cf"},"vehicle_type_id":"4","last_reported":1741075939,"current_range_meters":10800,"station_id":"ce4bhg12rcd13ifvqf70","pricing_plan_id":"cebpf4jnsgd1na2vs0mg"},{"bike_id":"a5193847-231c-4c8c-b335-8579028b0ddd","system_id":"levelo_inurba_marseille","lat":43.27809,"lon":5.4071,"is_reserved":false,"is_disabled":false,"rental_uris":{"android":"levelo://app?vid=a5193847-231c-4c8c-b335-8579028b0ddd","ios":"levelo://app?vid=a5193847-231c-4c8c-b335-8579028b0ddd"},"vehicle_type_id":"4","last_reported":1741075939,"current_range_meters":10800,"station_id":"ce4bhnh2rcd13ifvqgtg","pricing_plan_id":"cebpf4jnsgd1na2vs0mg"},{"bike_id":"dd08d469-0e07-4995-a332-b3086215ce48","system_id":"levelo_inurba_marseille","lat":43.30966,"lon":5.39054,"is_reserved":false,"is_disabled":true,"rental_uris":{"android":"levelo://app?vid=dd08d469-0e07-4995-a332-b3086215ce48","ios":"levelo://app?vid=dd08d469-0e07-4995-a332-b3086215ce48"},"vehicle_type_id":"4","last_reported":1741075939,"current_range_meters":10800,"station_id":"ce4bgup2rcd13ifvqco0","pricing_plan_id":"cebpf4jnsgd1na2vs0mg"},{"bike_id":"cb014a6b-6553-43cb-90ee-c6d22cf5883f","system_id":"levelo_inurba_marseille","lat":43.26057,"lon":5.39446,"is_reserved":false,"is_disabled":false,"rental_uris":{"android":"levelo://app?vid=cb014a6b-6553-43cb-90ee-c6d22cf5883f","ios":"levelo://app?vid=cb014a6b-6553-43cb-90ee-c6d22cf5883f"},"vehicle_type_id":"4","last_reported":1741075939,"current_range_meters":10800,"station_id":"ce4bhh92rcd13ifvqfj0","pricing_plan_id":"cebpf4jnsgd1na2vs0mg"},{"bike_id":"34361887-fdf5-449f-9f03-1aece50c838f","system_id":"levelo_inurba_marseille","lat":43.27496,"lon":5.42453,"is_reserved":false,"is_disabled":false,"rental_uris":{"android":"levelo://app?vid=34361887-fdf5-449f-9f03-1aece50c838f","ios":"levelo://app?vid=34361887-fdf5-449f-9f03-1aece50c838f"},"vehicle_type_id":"4","last_reported":1741075939,"current_range_meters":11200,"station_id":"ce4bhn92rcd13ifvqgrg","pricing_plan_id":"cebpf4jnsgd1na2vs0mg"},{"bike_id":"a4c3698b-40cd-4d33-a9d9-689474fbe572","system_id":"levelo_inurba_marseille","lat":43.30956,"lon":5.39057,"is_reserved":false,"is_disabled":false,"rental_uris":{"android":"levelo://app?vid=a4c3698b-40cd-4d33-a9d9-689474fbe572","ios":"levelo://app?vid=a4c3698b-40cd-4d33-a9d9-689474fbe572"},"vehicle_type_id":"4","last_reported":1741075939,"current_range_meters":11200,"station_id":"ce4bgup2rcd13ifvqco0","pricing_plan_id":"cebpf4jnsgd1na2vs0mg"},{"bike_id":"d16155a6-7121-4629-8569-d10912314395","system_id":"levelo_inurba_marseille","lat":43.30267,"lon":5.37713,"is_reserved":false,"is_disabled":false,"rental_uris":{"android":"levelo://app?vid=d16155a6-7121-4629-8569-d10912314395","ios":"levelo://app?vid=d16155a6-7121-4629-8569-d10912314395"},"vehicle_type_id":"4","last_reported":1741075939,"current_range_meters":11200,"station_id":"ce4bguh2rcd13ifvqcj0","pricing_plan_id":"cebpf4jnsgd1na2vs0mg"},{"bike_id":"df980b79-f4a2-495b-a2a5-be6c63b4140c","system_id":"levelo_inurba_marseille","lat":43.25718,"lon":5.41112,"is_reserved":false,"is_disabled":false,"rental_uris":{"android":"levelo://app?vid=df980b79-f4a2-495b-a2a5-be6c63b4140c","ios":"levelo://app?vid=df980b79-f4a2-495b-a2a5-be6c63b4140c"},"vehicle_type_id":"4","last_reported":1741075939,"current_range_meters":12000,"station_id":"ce4bhkp2rcd13ifvqgd0","pricing_plan_id":"cebpf4jnsgd1na2vs0mg"},{"bike_id":"44a7153b-0fd7-4509-836b-676bbf84fb06","system_id":"levelo_inurba_marseille","lat":43.23178,"lon":5.35571,"is_reserved":false,"is_disabled":false,"rental_uris":{"android":"levelo://app?vid=44a7153b-0fd7-4509-836b-676bbf84fb06","ios":"levelo://app?vid=44a7153b-0fd7-4509-836b-676bbf84fb06"},"vehicle_type_id":"4","last_reported":1741075939,"current_range_meters":11200,"station_id":"ce4bhu92rcd13ifvqi70","pricing_plan_id":"cebpf4jnsgd1na2vs0mg"},{"bike_id":"cb813df4-3836-4634-974a-d02d99a32d8a","system_id":"levelo_inurba_marseille","lat":43.32705,"lon":5.39232,"is_reserved":false,"is_disabled":true,"rental_uris":{"android":"levelo://app?vid=cb813df4-3836-4634-974a-d02d99a32d8a","ios":"levelo://app?vid=cb813df4-3836-4634-974a-d02d99a32d8a"},"vehicle_type_id":"4","last_reported":1741075939,"current_range_meters":11600,"station_id":"","pricing_plan_id":"cebpf4jnsgd1na2vs0mg"},{"bike_id":"442bfba6-bd18-40c4-a34b-7d774854ee17","system_id":"levelo_inurba_marseille","lat":43.29239,"lon":5.37635,"is_reserved":false,"is_disabled":false,"rental_uris":{"android":"levelo://app?vid=442bfba6-bd18-40c4-a34b-7d774854ee17","ios":"levelo://app?vid=442bfba6-bd18-40c4-a34b-7d774854ee17"},"vehicle_type_id":"4","last_reported":1741075939,"current_range_meters":11600,"station_id":"ce4bgi12rcd13ifvqb80","pricing_plan_id":"cebpf4jnsgd1na2vs0mg"},{"bike_id":"ee1d2ad1-36ca-49dd-a328-f2a9a9994ecb","system_id":"levelo_inurba_marseille","lat":43.310864,"lon":5.381425,"is_reserved":false,"is_disabled":false,"rental_uris":{"android":"levelo://app?vid=ee1d2ad1-36ca-49dd-a328-f2a9a9994ecb","ios":"levelo://app?vid=ee1d2ad1-36ca-49dd-a328-f2a9a9994ecb"},"vehicle_type_id":"4","last_reported":1741075939,"current_range_meters":11600,"station_id":"","pricing_plan_id":"cebpf4jnsgd1na2vs0mg"},{"bike_id":"7cea7b38-f7a0-4e92-8d25-24dec4d43a08","system_id":"levelo_inurba_marseille","lat":43.266954,"lon":5.382789,"is_reserved":false,"is_disabled":true,"rental_uris":{"android":"levelo://app?vid=7cea7b38-f7a0-4e92-8d25-24dec4d43a08","ios":"levelo://app?vid=7cea7b38-f7a0-4e92-8d25-24dec4d43a08"},"vehicle_type_id":"4","last_reported":1741075939,"current_range_meters":11600,"station_id":"ce4bhg92rcd13ifvqf90","pricing_plan_id":"cebpf4jnsgd1na2vs0mg"},{"bike_id":"8c939673-acee-4493-a59f-9cec13cec966","system_id":"levelo_inurba_marseille","lat":43.24082,"lon":5.37735,"is_reserved":false,"is_disabled":false,"rental_uris":{"android":"levelo://app?vid=8c939673-acee-4493-a59f-9cec13cec966","ios":"levelo://app?vid=8c939673-acee-4493-a59f-9cec13cec966"},"vehicle_type_id":"4","last_reported":1741075939,"current_range_meters":11600,"station_id":"ce4bhnp2rcd13ifvqgvg","pricing_plan_id":"cebpf4jnsgd1na2vs0mg"},{"bike_id":"252d89a0-be07-46c5-b8cd-db4fe201b15c","system_id":"levelo_inurba_marseille","lat":43.24073,"lon":5.3776,"is_reserved":false,"is_disabled":false,"rental_uris":{"android":"levelo://app?vid=252d89a0-be07-46c5-b8cd-db4fe201b15c","ios":"levelo://app?vid=252d89a0-be07-46c5-b8cd-db4fe201b15c"},"vehicle_type_id":"4","last_reported":1741075939,"current_range_meters":11600,"station_id":"ce4bhnp2rcd13ifvqgvg","pricing_plan_id":"cebpf4jnsgd1na2vs0mg"},{"bike_id":"ab481c0f-66e7-42e7-8405-2774b77fd164","system_id":"levelo_inurba_marseille","lat":43.26955,"lon":5.38622,"is_reserved":false,"is_disabled":false,"rental_uris":{"android":"levelo://app?vid=ab481c0f-66e7-42e7-8405-2774b77fd164","ios":"levelo://app?vid=ab481c0f-66e7-42e7-8405-2774b77fd164"},"vehicle_type_id":"4","last_reported":1741075939,"current_range_meters":12000,"station_id":"ce4bhh92rcd13ifvqfh0","pricing_plan_id":"cebpf4jnsgd1na2vs0mg"},{"bike_id":"a9e4db3f-a424-4a70-bbb1-9ffa5bd94433","system_id":"levelo_inurba_marseille","lat":43.32255,"lon":5.39063,"is_reserved":false,"is_disabled":false,"rental_uris":{"android":"levelo://app?vid=a9e4db3f-a424-4a70-bbb1-9ffa5bd94433","ios":"levelo://app?vid=a9e4db3f-a424-4a70-bbb1-9ffa5bd94433"},"vehicle_type_id":"4","last_reported":1741075939,"current_range_meters":12000,"station_id":"","pricing_plan_id":"cebpf4jnsgd1na2vs0mg"},{"bike_id":"aa8243bc-86bc-4ffd-ae1e-6bb7734445ff","system_id":"levelo_inurba_marseille","lat":43.25109,"lon":5.40322,"is_reserved":false,"is_disabled":false,"rental_uris":{"android":"levelo://app?vid=aa8243bc-86bc-4ffd-ae1e-6bb7734445ff","ios":"levelo://app?vid=aa8243bc-86bc-4ffd-ae1e-6bb7734445ff"},"vehicle_type_id":"4","last_reported":1741075939,"current_range_meters":12400,"station_id":"ce4bhlh2rcd13ifvqgig","pricing_plan_id":"cebpf4jnsgd1na2vs0mg"},{"bike_id":"ea22bc3d-7c2f-470f-8337-087f26ab5dcb","system_id":"levelo_inurba_marseille","lat":43.24082,"lon":5.37749,"is_reserved":false,"is_disabled":false,"rental_uris":{"android":"levelo://app?vid=ea22bc3d-7c2f-470f-8337-087f26ab5dcb","ios":"levelo://app?vid=ea22bc3d-7c2f-470f-8337-087f26ab5dcb"},"vehicle_type_id":"4","last_reported":1741075939,"current_range_meters":12000,"station_id":"ce4bhnp2rcd13ifvqgvg","pricing_plan_id":"cebpf4jnsgd1na2vs0mg"},{"bike_id":"bb49af78-83c2-438f-8c5a-ff90eef60b5d","system_id":"levelo_inurba_marseille","lat":43.30334,"lon":5.36886,"is_reserved":false,"is_disabled":false,"rental_uris":{"android":"levelo://app?vid=bb49af78-83c2-438f-8c5a-ff90eef60b5d","ios":"levelo://app?vid=bb49af78-83c2-438f-8c5a-ff90eef60b5d"},"vehicle_type_id":"4","last_reported":1741075939,"current_range_meters":12400,"station_id":"ce4bgqh2rcd13ifvqc5g","pricing_plan_id":"cebpf4jnsgd1na2vs0mg"},{"bike_id":"9e4f53fe-e434-44c9-a146-29f149bf6c3f","system_id":"levelo_inurba_marseille","lat":43.241736,"lon":5.397489,"is_reserved":false,"is_disabled":false,"rental_uris":{"android":"levelo://app?vid=9e4f53fe-e434-44c9-a146-29f149bf6c3f","ios":"levelo://app?vid=9e4f53fe-e434-44c9-a146-29f149bf6c3f"},"vehicle_type_id":"4","last_reported":1741075939,"current_range_meters":12400,"station_id":"ce4bhn12rcd13ifvqgpg","pricing_plan_id":"cebpf4jnsgd1na2vs0mg"},{"bike_id":"868f08c9-e291-46cf-a55a-44b770eec56c","system_id":"levelo_inurba_marseille","lat":43.25,"lon":5.38925,"is_reserved":false,"is_disabled":false,"rental_uris":{"android":"levelo://app?vid=868f08c9-e291-46cf-a55a-44b770eec56c","ios":"levelo://app?vid=868f08c9-e291-46cf-a55a-44b770eec56c"},"vehicle_type_id":"4","last_reported":1741075939,"current_range_meters":12800,"station_id":"ce4bhgp2rcd13ifvqfd0","pricing_plan_id":"cebpf4jnsgd1na2vs0mg"},{"bike_id":"a2e9312b-d692-42a0-9823-fe0aab56075b","system_id":"levelo_inurba_marseille","lat":43.23146,"lon":5.43747,"is_reserved":false,"is_disabled":true,"rental_uris":{"android":"levelo://app?vid=a2e9312b-d692-42a0-9823-fe0aab56075b","ios":"levelo://app?vid=a2e9312b-d692-42a0-9823-fe0aab56075b"},"vehicle_type_id":"4","last_reported":1741075939,"current_range_meters":12400,"station_id":"ce4bhmp2rcd13ifvqgog","pricing_plan_id":"cebpf4jnsgd1na2vs0mg"},{"bike_id":"4f6a53e2-adc0-4f21-a484-100d8eb7192f","system_id":"levelo_inurba_marseille","lat":43.27807,"lon":5.40721,"is_reserved":false,"is_disabled":false,"rental_uris":{"android":"levelo://app?vid=4f6a53e2-adc0-4f21-a484-100d8eb7192f","ios":"levelo://app?vid=4f6a53e2-adc0-4f21-a484-100d8eb7192f"},"vehicle_type_id":"4","last_reported":1741075939,"current_range_meters":12400,"station_id":"ce4bhnh2rcd13ifvqgtg","pricing_plan_id":"cebpf4jnsgd1na2vs0mg"},{"bike_id":"19667290-215f-4a58-a4c7-34144ccd56e0","system_id":"levelo_inurba_marseille","lat":43.29974,"lon":5.38489,"is_reserved":false,"is_disabled":false,"rental_uris":{"android":"levelo://app?vid=19667290-215f-4a58-a4c7-34144ccd56e0","ios":"levelo://app?vid=19667290-215f-4a58-a4c7-34144ccd56e0"},"vehicle_type_id":"4","last_reported":1741075939,"current_range_meters":16800,"station_id":"ce4bgj92rcd13ifvqbd0","pricing_plan_id":"cebpf4jnsgd1na2vs0mg"},{"bike_id":"331b5527-9b05-4a68-bd52-9102e57e4c8b","system_id":"levelo_inurba_marseille","lat":43.25938,"lon":5.40904,"is_reserved":false,"is_disabled":false,"rental_uris":{"android":"levelo://app?vid=331b5527-9b05-4a68-bd52-9102e57e4c8b","ios":"levelo://app?vid=331b5527-9b05-4a68-bd52-9102e57e4c8b"},"vehicle_type_id":"4","last_reported":1741075939,"current_range_meters":12800,"station_id":"ce4bhm92rcd13ifvqglg","pricing_plan_id":"cebpf4jnsgd1na2vs0mg"},{"bike_id":"fd0f76c0-1ba3-4dcf-831c-506ea264ca38","system_id":"levelo_inurba_marseille","lat":43.25813,"lon":5.39433,"is_reserved":false,"is_disabled":false,"rental_uris":{"android":"levelo://app?vid=fd0f76c0-1ba3-4dcf-831c-506ea264ca38","ios":"levelo://app?vid=fd0f76c0-1ba3-4dcf-831c-506ea264ca38"},"vehicle_type_id":"4","last_reported":1741075939,"current_range_meters":12800,"station_id":"ce4bhip2rcd13ifvqft0","pricing_plan_id":"cebpf4jnsgd1na2vs0mg"},{"bike_id":"33c85d12-6acc-4d39-9930-20e32d4ced63","system_id":"levelo_inurba_marseille","lat":43.30462,"lon":5.37912,"is_reserved":false,"is_disabled":false,"rental_uris":{"android":"levelo://app?vid=33c85d12-6acc-4d39-9930-20e32d4ced63","ios":"levelo://app?vid=33c85d12-6acc-4d39-9930-20e32d4ced63"},"vehicle_type_id":"4","last_reported":1741075939,"current_range_meters":12800,"station_id":"ce4bgup2rcd13ifvqcn0","pricing_plan_id":"cebpf4jnsgd1na2vs0mg"},{"bike_id":"cfd37df0-b1c6-4f94-a627-4f20422c897a","system_id":"levelo_inurba_marseille","lat":43.276974,"lon":5.415419,"is_reserved":false,"is_disabled":false,"rental_uris":{"android":"levelo://app?vid=cfd37df0-b1c6-4f94-a627-4f20422c897a","ios":"levelo://app?vid=cfd37df0-b1c6-4f94-a627-4f20422c897a"},"vehicle_type_id":"4","last_reported":1741075939,"current_range_meters":12800,"station_id":"","pricing_plan_id":"cebpf4jnsgd1na2vs0mg"},{"bike_id":"a3532a1c-67eb-4df4-89db-1242ede86b44","system_id":"levelo_inurba_marseille","lat":43.29526,"lon":5.37509,"is_reserved":false,"is_disabled":false,"rental_uris":{"android":"levelo://app?vid=a3532a1c-67eb-4df4-89db-1242ede86b44","ios":"levelo://app?vid=a3532a1c-67eb-4df4-89db-1242ede86b44"},"vehicle_type_id":"4","last_reported":1741075939,"current_range_meters":12800,"station_id":"ce4bgkp2rcd13ifvqbmg","pricing_plan_id":"cebpf4jnsgd1na2vs0mg"},{"bike_id":"f8ec3ca8-a21e-40ee-a04c-58eb528ed219","system_id":"levelo_inurba_marseille","lat":43.27325,"lon":5.39109,"is_reserved":false,"is_disabled":false,"rental_uris":{"android":"levelo://app?vid=f8ec3ca8-a21e-40ee-a04c-58eb528ed219","ios":"levelo://app?vid=f8ec3ca8-a21e-40ee-a04c-58eb528ed219"},"vehicle_type_id":"4","last_reported":1741075939,"current_range_meters":13600,"station_id":"ce4bhgp2rcd13ifvqfe0","pricing_plan_id":"cebpf4jnsgd1na2vs0mg"},{"bike_id":"fe65d165-e4f8-45e4-b0cc-6ba4a385c0db","system_id":"levelo_inurba_marseille","lat":43.29259,"lon":5.37617,"is_reserved":false,"is_disabled":false,"rental_uris":{"android":"levelo://app?vid=fe65d165-e4f8-45e4-b0cc-6ba4a385c0db","ios":"levelo://app?vid=fe65d165-e4f8-45e4-b0cc-6ba4a385c0db"},"vehicle_type_id":"4","last_reported":1741075939,"current_range_meters":13600,"station_id":"ce4bgi12rcd13ifvqb80","pricing_plan_id":"cebpf4jnsgd1na2vs0mg"},{"bike_id":"83906805-b088-4b1c-ad3e-277ab6f5b063","system_id":"levelo_inurba_marseille","lat":43.26069,"lon":5.39382,"is_reserved":false,"is_disabled":false,"rental_uris":{"android":"levelo://app?vid=83906805-b088-4b1c-ad3e-277ab6f5b063","ios":"levelo://app?vid=83906805-b088-4b1c-ad3e-277ab6f5b063"},"vehicle_type_id":"4","last_reported":1741075939,"current_range_meters":13600,"station_id":"ce4bhh92rcd13ifvqfj0","pricing_plan_id":"cebpf4jnsgd1na2vs0mg"},{"bike_id":"d7ef5145-0bca-4f45-a0cf-6b1d49f6690d","system_id":"levelo_inurba_marseille","lat":43.31417,"lon":5.39201,"is_reserved":false,"is_disabled":false,"rental_uris":{"android":"levelo://app?vid=d7ef5145-0bca-4f45-a0cf-6b1d49f6690d","ios":"levelo://app?vid=d7ef5145-0bca-4f45-a0cf-6b1d49f6690d"},"vehicle_type_id":"4","last_reported":1741075939,"current_range_meters":13600,"station_id":"","pricing_plan_id":"cebpf4jnsgd1na2vs0mg"},{"bike_id":"38f37a23-5169-4d18-ab25-4dff16ba5bae","system_id":"levelo_inurba_marseille","lat":43.286,"lon":5.37077,"is_reserved":false,"is_disabled":false,"rental_uris":{"android":"levelo://app?vid=38f37a23-5169-4d18-ab25-4dff16ba5bae","ios":"levelo://app?vid=38f37a23-5169-4d18-ab25-4dff16ba5bae"},"vehicle_type_id":"4","last_reported":1741075939,"current_range_meters":13600,"station_id":"ce4bht12rcd13ifvqi60","pricing_plan_id":"cebpf4jnsgd1na2vs0mg"},{"bike_id":"02bb390a-56ef-40ab-b697-e34194daba1a","system_id":"levelo_inurba_marseille","lat":43.29261,"lon":5.38442,"is_reserved":false,"is_disabled":false,"rental_uris":{"android":"levelo://app?vid=02bb390a-56ef-40ab-b697-e34194daba1a","ios":"levelo://app?vid=02bb390a-56ef-40ab-b697-e34194daba1a"},"vehicle_type_id":"4","last_reported":1741075939,"current_range_meters":14000,"station_id":"ce4bh692rcd13ifvqea0","pricing_plan_id":"cebpf4jnsgd1na2vs0mg"},{"bike_id":"81feccab-f4e0-464a-a8fb-d5d3cb5e3510","system_id":"levelo_inurba_marseille","lat":43.30419,"lon":5.39739,"is_reserved":false,"is_disabled":false,"rental_uris":{"android":"levelo://app?vid=81feccab-f4e0-464a-a8fb-d5d3cb5e3510","ios":"levelo://app?vid=81feccab-f4e0-464a-a8fb-d5d3cb5e3510"},"vehicle_type_id":"4","last_reported":1741075939,"current_range_meters":14000,"station_id":"ce4bh092rcd13ifvqd20","pricing_plan_id":"cebpf4jnsgd1na2vs0mg"},{"bike_id":"e95721f7-9dfe-4b3b-a811-1d2f2cf0d349","system_id":"levelo_inurba_marseille","lat":43.30144,"lon":5.37418,"is_reserved":false,"is_disabled":false,"rental_uris":{"android":"levelo://app?vid=e95721f7-9dfe-4b3b-a811-1d2f2cf0d349","ios":"levelo://app?vid=e95721f7-9dfe-4b3b-a811-1d2f2cf0d349"},"vehicle_type_id":"4","last_reported":1741075939,"current_range_meters":14000,"station_id":"ce4bgs92rcd13ifvqcc0","pricing_plan_id":"cebpf4jnsgd1na2vs0mg"},{"bike_id":"59821cb1-ad7c-4a16-a516-56154c08d58b","system_id":"levelo_inurba_marseille","lat":43.31079,"lon":5.42428,"is_reserved":false,"is_disabled":false,"rental_uris":{"android":"levelo://app?vid=59821cb1-ad7c-4a16-a516-56154c08d58b","ios":"levelo://app?vid=59821cb1-ad7c-4a16-a516-56154c08d58b"},"vehicle_type_id":"4","last_reported":1741075939,"current_range_meters":13600,"station_id":"ce4bhp92rcd13ifvqhag","pricing_plan_id":"cebpf4jnsgd1na2vs0mg"},{"bike_id":"597ec1e9-27d3-44df-8fd4-fe5beca67112","system_id":"levelo_inurba_marseille","lat":43.26197,"lon":5.37928,"is_reserved":false,"is_disabled":false,"rental_uris":{"android":"levelo://app?vid=597ec1e9-27d3-44df-8fd4-fe5beca67112","ios":"levelo://app?vid=597ec1e9-27d3-44df-8fd4-fe5beca67112"},"vehicle_type_id":"4","last_reported":1741075939,"current_range_meters":14000,"station_id":"ce4bhjp2rcd13ifvqg90","pricing_plan_id":"cebpf4jnsgd1na2vs0mg"},{"bike_id":"0c5a2253-b549-46d0-9927-d6fd0b4062c2","system_id":"levelo_inurba_marseille","lat":43.25923,"lon":5.40887,"is_reserved":false,"is_disabled":false,"rental_uris":{"android":"levelo://app?vid=0c5a2253-b549-46d0-9927-d6fd0b4062c2","ios":"levelo://app?vid=0c5a2253-b549-46d0-9927-d6fd0b4062c2"},"vehicle_type_id":"4","last_reported":1741075939,"current_range_meters":14000,"station_id":"ce4bhm92rcd13ifvqglg","pricing_plan_id":"cebpf4jnsgd1na2vs0mg"},{"bike_id":"f83a09a1-05e9-4f34-b3b0-a301d7d23141","system_id":"levelo_inurba_marseille","lat":43.29297,"lon":5.4272,"is_reserved":false,"is_disabled":false,"rental_uris":{"android":"levelo://app?vid=f83a09a1-05e9-4f34-b3b0-a301d7d23141","ios":"levelo://app?vid=f83a09a1-05e9-4f34-b3b0-a301d7d23141"},"vehicle_type_id":"4","last_reported":1741075939,"current_range_meters":14000,"station_id":"","pricing_plan_id":"cebpf4jnsgd1na2vs0mg"},{"bike_id":"03cd328d-a90e-4c67-9bff-c76c8a26cdee","system_id":"levelo_inurba_marseille","lat":43.28481,"lon":5.38548,"is_reserved":false,"is_disabled":false,"rental_uris":{"android":"levelo://app?vid=03cd328d-a90e-4c67-9bff-c76c8a26cdee","ios":"levelo://app?vid=03cd328d-a90e-4c67-9bff-c76c8a26cdee"},"vehicle_type_id":"4","last_reported":1741075939,"current_range_meters":14800,"station_id":"ce4bh8p2rcd13ifvqeb0","pricing_plan_id":"cebpf4jnsgd1na2vs0mg"},{"bike_id":"20c0e900-1732-456d-b343-1ca3a91dd21a","system_id":"levelo_inurba_marseille","lat":43.290313,"lon":5.39969,"is_reserved":false,"is_disabled":false,"rental_uris":{"android":"levelo://app?vid=20c0e900-1732-456d-b343-1ca3a91dd21a","ios":"levelo://app?vid=20c0e900-1732-456d-b343-1ca3a91dd21a"},"vehicle_type_id":"4","last_reported":1741075939,"current_range_meters":14000,"station_id":"ce4bh392rcd13ifvqdm0","pricing_plan_id":"cebpf4jnsgd1na2vs0mg"},{"bike_id":"9c27aec6-7567-43ab-8e30-5b17639d5e1c","system_id":"levelo_inurba_marseille","lat":43.30082,"lon":5.39076,"is_reserved":false,"is_disabled":false,"rental_uris":{"android":"levelo://app?vid=9c27aec6-7567-43ab-8e30-5b17639d5e1c","ios":"levelo://app?vid=9c27aec6-7567-43ab-8e30-5b17639d5e1c"},"vehicle_type_id":"4","last_reported":1741075939,"current_range_meters":14800,"station_id":"ce4bh192rcd13ifvqdb0","pricing_plan_id":"cebpf4jnsgd1na2vs0mg"},{"bike_id":"63617430-69b6-4ee8-ab9c-1231b392fc10","system_id":"levelo_inurba_marseille","lat":43.30452,"lon":5.37918,"is_reserved":false,"is_disabled":false,"rental_uris":{"android":"levelo://app?vid=63617430-69b6-4ee8-ab9c-1231b392fc10","ios":"levelo://app?vid=63617430-69b6-4ee8-ab9c-1231b392fc10"},"vehicle_type_id":"4","last_reported":1741075939,"current_range_meters":14400,"station_id":"ce4bgup2rcd13ifvqcn0","pricing_plan_id":"cebpf4jnsgd1na2vs0mg"},{"bike_id":"a6799ae4-fed2-4ee8-a527-ef2daaf1494f","system_id":"levelo_inurba_marseille","lat":43.26953,"lon":5.38633,"is_reserved":false,"is_disabled":false,"rental_uris":{"android":"levelo://app?vid=a6799ae4-fed2-4ee8-a527-ef2daaf1494f","ios":"levelo://app?vid=a6799ae4-fed2-4ee8-a527-ef2daaf1494f"},"vehicle_type_id":"4","last_reported":1741075939,"current_range_meters":14400,"station_id":"ce4bhh92rcd13ifvqfh0","pricing_plan_id":"cebpf4jnsgd1na2vs0mg"},{"bike_id":"94cfebf2-8cc6-4e26-88d0-adbf2991b502","system_id":"levelo_inurba_marseille","lat":43.24067,"lon":5.37765,"is_reserved":false,"is_disabled":false,"rental_uris":{"android":"levelo://app?vid=94cfebf2-8cc6-4e26-88d0-adbf2991b502","ios":"levelo://app?vid=94cfebf2-8cc6-4e26-88d0-adbf2991b502"},"vehicle_type_id":"4","last_reported":1741075939,"current_range_meters":14800,"station_id":"ce4bhnp2rcd13ifvqgvg","pricing_plan_id":"cebpf4jnsgd1na2vs0mg"},{"bike_id":"51f6f578-8898-487a-9da7-ff3d6d379d1b","system_id":"levelo_inurba_marseille","lat":43.32101,"lon":5.36795,"is_reserved":false,"is_disabled":false,"rental_uris":{"android":"levelo://app?vid=51f6f578-8898-487a-9da7-ff3d6d379d1b","ios":"levelo://app?vid=51f6f578-8898-487a-9da7-ff3d6d379d1b"},"vehicle_type_id":"4","last_reported":1741075939,"current_range_meters":14400,"station_id":"ce4bhrh2rcd13ifvqhug","pricing_plan_id":"cebpf4jnsgd1na2vs0mg"},{"bike_id":"e2d97c7f-cb64-4e0a-89b6-b644f73ea3a3","system_id":"levelo_inurba_marseille","lat":43.27506,"lon":5.42437,"is_reserved":false,"is_disabled":false,"rental_uris":{"android":"levelo://app?vid=e2d97c7f-cb64-4e0a-89b6-b644f73ea3a3","ios":"levelo://app?vid=e2d97c7f-cb64-4e0a-89b6-b644f73ea3a3"},"vehicle_type_id":"4","last_reported":1741075939,"current_range_meters":14400,"station_id":"ce4bhn92rcd13ifvqgrg","pricing_plan_id":"cebpf4jnsgd1na2vs0mg"},{"bike_id":"2c5a92f4-a231-41f0-933a-ac5f26be730a","system_id":"levelo_inurba_marseille","lat":43.30139,"lon":5.37411,"is_reserved":false,"is_disabled":false,"rental_uris":{"android":"levelo://app?vid=2c5a92f4-a231-41f0-933a-ac5f26be730a","ios":"levelo://app?vid=2c5a92f4-a231-41f0-933a-ac5f26be730a"},"vehicle_type_id":"4","last_reported":1741075939,"current_range_meters":14800,"station_id":"ce4bgs92rcd13ifvqcc0","pricing_plan_id":"cebpf4jnsgd1na2vs0mg"},{"bike_id":"698426ac-3fe7-41dd-a88b-a5bb98aebc76","system_id":"levelo_inurba_marseille","lat":43.278109,"lon":5.407031,"is_reserved":false,"is_disabled":false,"rental_uris":{"android":"levelo://app?vid=698426ac-3fe7-41dd-a88b-a5bb98aebc76","ios":"levelo://app?vid=698426ac-3fe7-41dd-a88b-a5bb98aebc76"},"vehicle_type_id":"4","last_reported":1741075939,"current_range_meters":14800,"station_id":"","pricing_plan_id":"cebpf4jnsgd1na2vs0mg"},{"bike_id":"7f7e1c62-8591-4bd5-b418-84accf5550de","system_id":"levelo_inurba_marseille","lat":43.29803,"lon":5.4027,"is_reserved":false,"is_disabled":false,"rental_uris":{"android":"levelo://app?vid=7f7e1c62-8591-4bd5-b418-84accf5550de","ios":"levelo://app?vid=7f7e1c62-8591-4bd5-b418-84accf5550de"},"vehicle_type_id":"4","last_reported":1741075939,"current_range_meters":14800,"station_id":"","pricing_plan_id":"cebpf4jnsgd1na2vs0mg"},{"bike_id":"c5b21a40-dac6-4b1d-8ccb-978d533d29ff","system_id":"levelo_inurba_marseille","lat":43.27996,"lon":5.40012,"is_reserved":false,"is_disabled":false,"rental_uris":{"android":"levelo://app?vid=c5b21a40-dac6-4b1d-8ccb-978d533d29ff","ios":"levelo://app?vid=c5b21a40-dac6-4b1d-8ccb-978d533d29ff"},"vehicle_type_id":"4","last_reported":1741075939,"current_range_meters":14800,"station_id":"ce4bho92rcd13ifvqh4g","pricing_plan_id":"cebpf4jnsgd1na2vs0mg"},{"bike_id":"95b3e919-4fbc-4512-83db-4e0e404f4f62","system_id":"levelo_inurba_marseille","lat":43.33014,"lon":5.39044,"is_reserved":false,"is_disabled":false,"rental_uris":{"android":"levelo://app?vid=95b3e919-4fbc-4512-83db-4e0e404f4f62","ios":"levelo://app?vid=95b3e919-4fbc-4512-83db-4e0e404f4f62"},"vehicle_type_id":"4","last_reported":1741075939,"current_range_meters":14800,"station_id":"ce4bhr92rcd13ifvqhrg","pricing_plan_id":"cebpf4jnsgd1na2vs0mg"},{"bike_id":"72eb316f-b406-4368-b692-99c81bec4002","system_id":"levelo_inurba_marseille","lat":43.30412,"lon":5.4128,"is_reserved":false,"is_disabled":true,"rental_uris":{"android":"levelo://app?vid=72eb316f-b406-4368-b692-99c81bec4002","ios":"levelo://app?vid=72eb316f-b406-4368-b692-99c81bec4002"},"vehicle_type_id":"4","last_reported":1741075939,"current_range_meters":15200,"station_id":"ce4bhop2rcd13ifvqh8g","pricing_plan_id":"cebpf4jnsgd1na2vs0mg"},{"bike_id":"e6ce3260-6e42-4334-a434-b7f25aa0a5bb","system_id":"levelo_inurba_marseille","lat":43.31859,"lon":5.37923,"is_reserved":false,"is_disabled":false,"rental_uris":{"android":"levelo://app?vid=e6ce3260-6e42-4334-a434-b7f25aa0a5bb","ios":"levelo://app?vid=e6ce3260-6e42-4334-a434-b7f25aa0a5bb"},"vehicle_type_id":"4","last_reported":1741075939,"current_range_meters":15200,"station_id":"","pricing_plan_id":"cebpf4jnsgd1na2vs0mg"},{"bike_id":"11eded11-73b3-4798-bf5c-eb87b6ca0ff3","system_id":"levelo_inurba_marseille","lat":43.26686,"lon":5.38282,"is_reserved":false,"is_disabled":false,"rental_uris":{"android":"levelo://app?vid=11eded11-73b3-4798-bf5c-eb87b6ca0ff3","ios":"levelo://app?vid=11eded11-73b3-4798-bf5c-eb87b6ca0ff3"},"vehicle_type_id":"4","last_reported":1741075939,"current_range_meters":16000,"station_id":"ce4bhg92rcd13ifvqf90","pricing_plan_id":"cebpf4jnsgd1na2vs0mg"},{"bike_id":"71e7e831-7788-449a-bf40-47f97d1d588c","system_id":"levelo_inurba_marseille","lat":43.3205,"lon":5.41028,"is_reserved":false,"is_disabled":false,"rental_uris":{"android":"levelo://app?vid=71e7e831-7788-449a-bf40-47f97d1d588c","ios":"levelo://app?vid=71e7e831-7788-449a-bf40-47f97d1d588c"},"vehicle_type_id":"4","last_reported":1741075939,"current_range_meters":15200,"station_id":"","pricing_plan_id":"cebpf4jnsgd1na2vs0mg"},{"bike_id":"21999ed3-7aa7-4715-bd44-5cf396060232","system_id":"levelo_inurba_marseille","lat":43.24387,"lon":5.3706,"is_reserved":false,"is_disabled":false,"rental_uris":{"android":"levelo://app?vid=21999ed3-7aa7-4715-bd44-5cf396060232","ios":"levelo://app?vid=21999ed3-7aa7-4715-bd44-5cf396060232"},"vehicle_type_id":"4","last_reported":1741075939,"current_range_meters":15200,"station_id":"ce4bhhh2rcd13ifvqfk0","pricing_plan_id":"cebpf4jnsgd1na2vs0mg"},{"bike_id":"a2b9d686-216a-4f50-ae4b-e7710a444cd6","system_id":"levelo_inurba_marseille","lat":43.25021,"lon":5.38911,"is_reserved":false,"is_disabled":false,"rental_uris":{"android":"levelo://app?vid=a2b9d686-216a-4f50-ae4b-e7710a444cd6","ios":"levelo://app?vid=a2b9d686-216a-4f50-ae4b-e7710a444cd6"},"vehicle_type_id":"4","last_reported":1741075939,"current_range_meters":15200,"station_id":"ce4bhgp2rcd13ifvqfd0","pricing_plan_id":"cebpf4jnsgd1na2vs0mg"},{"bike_id":"c8c444b5-2aa3-452f-bd41-47615481ca2c","system_id":"levelo_inurba_marseille","lat":43.23151,"lon":5.43777,"is_reserved":false,"is_disabled":false,"rental_uris":{"android":"levelo://app?vid=c8c444b5-2aa3-452f-bd41-47615481ca2c","ios":"levelo://app?vid=c8c444b5-2aa3-452f-bd41-47615481ca2c"},"vehicle_type_id":"4","last_reported":1741075939,"current_range_meters":15200,"station_id":"","pricing_plan_id":"cebpf4jnsgd1na2vs0mg"},{"bike_id":"11fd0c89-1775-45e9-b2c2-ae952390c56b","system_id":"levelo_inurba_marseille","lat":43.301728,"lon":5.387618,"is_reserved":false,"is_disabled":false,"rental_uris":{"android":"levelo://app?vid=11fd0c89-1775-45e9-b2c2-ae952390c56b","ios":"levelo://app?vid=11fd0c89-1775-45e9-b2c2-ae952390c56b"},"vehicle_type_id":"4","last_reported":1741075939,"current_range_meters":14800,"station_id":"ce4bgt92rcd13ifvqcg0","pricing_plan_id":"cebpf4jnsgd1na2vs0mg"},{"bike_id":"6a2f443b-bc7f-4630-b851-1b63f59abf78","system_id":"levelo_inurba_marseille","lat":43.26027,"lon":5.39411,"is_reserved":false,"is_disabled":false,"rental_uris":{"android":"levelo://app?vid=6a2f443b-bc7f-4630-b851-1b63f59abf78","ios":"levelo://app?vid=6a2f443b-bc7f-4630-b851-1b63f59abf78"},"vehicle_type_id":"4","last_reported":1741075939,"current_range_meters":16000,"station_id":"ce4bhh92rcd13ifvqfj0","pricing_plan_id":"cebpf4jnsgd1na2vs0mg"},{"bike_id":"47ca7176-dcba-4b9e-8dbb-e2bb239319ab","system_id":"levelo_inurba_marseille","lat":43.31461,"lon":5.38651,"is_reserved":false,"is_disabled":false,"rental_uris":{"android":"levelo://app?vid=47ca7176-dcba-4b9e-8dbb-e2bb239319ab","ios":"levelo://app?vid=47ca7176-dcba-4b9e-8dbb-e2bb239319ab"},"vehicle_type_id":"4","last_reported":1741075939,"current_range_meters":16000,"station_id":"","pricing_plan_id":"cebpf4jnsgd1na2vs0mg"},{"bike_id":"428ddc3d-05a8-4b76-b027-89ba3c31dbda","system_id":"levelo_inurba_marseille","lat":43.25569,"lon":5.38231,"is_reserved":false,"is_disabled":false,"rental_uris":{"android":"levelo://app?vid=428ddc3d-05a8-4b76-b027-89ba3c31dbda","ios":"levelo://app?vid=428ddc3d-05a8-4b76-b027-89ba3c31dbda"},"vehicle_type_id":"4","last_reported":1741075939,"current_range_meters":16000,"station_id":"ce4bhih2rcd13ifvqfs0","pricing_plan_id":"cebpf4jnsgd1na2vs0mg"},{"bike_id":"8ef12c96-4a02-4ab6-af53-ca8fd7864c6a","system_id":"levelo_inurba_marseille","lat":43.309516,"lon":5.390048,"is_reserved":false,"is_disabled":false,"rental_uris":{"android":"levelo://app?vid=8ef12c96-4a02-4ab6-af53-ca8fd7864c6a","ios":"levelo://app?vid=8ef12c96-4a02-4ab6-af53-ca8fd7864c6a"},"vehicle_type_id":"4","last_reported":1741075939,"current_range_meters":16000,"station_id":"ce4bgup2rcd13ifvqco0","pricing_plan_id":"cebpf4jnsgd1na2vs0mg"},{"bike_id":"985d2fa7-01f5-44f0-8aae-9e1fc7712f86","system_id":"levelo_inurba_marseille","lat":43.29255,"lon":5.37614,"is_reserved":false,"is_disabled":false,"rental_uris":{"android":"levelo://app?vid=985d2fa7-01f5-44f0-8aae-9e1fc7712f86","ios":"levelo://app?vid=985d2fa7-01f5-44f0-8aae-9e1fc7712f86"},"vehicle_type_id":"4","last_reported":1741075939,"current_range_meters":16000,"station_id":"ce4bgi12rcd13ifvqb80","pricing_plan_id":"cebpf4jnsgd1na2vs0mg"},{"bike_id":"73c79102-b9af-4b09-9d57-a3c76bf14359","system_id":"levelo_inurba_marseille","lat":43.27496,"lon":5.42446,"is_reserved":false,"is_disabled":false,"rental_uris":{"android":"levelo://app?vid=73c79102-b9af-4b09-9d57-a3c76bf14359","ios":"levelo://app?vid=73c79102-b9af-4b09-9d57-a3c76bf14359"},"vehicle_type_id":"4","last_reported":1741075939,"current_range_meters":16000,"station_id":"ce4bhn92rcd13ifvqgrg","pricing_plan_id":"cebpf4jnsgd1na2vs0mg"},{"bike_id":"6d738761-6542-4151-94dd-b27ac1c55724","system_id":"levelo_inurba_marseille","lat":43.24069,"lon":5.37745,"is_reserved":false,"is_disabled":false,"rental_uris":{"android":"levelo://app?vid=6d738761-6542-4151-94dd-b27ac1c55724","ios":"levelo://app?vid=6d738761-6542-4151-94dd-b27ac1c55724"},"vehicle_type_id":"4","last_reported":1741075939,"current_range_meters":16000,"station_id":"ce4bhnp2rcd13ifvqgvg","pricing_plan_id":"cebpf4jnsgd1na2vs0mg"},{"bike_id":"d571166c-77a4-4a91-b051-9cc34ad31336","system_id":"levelo_inurba_marseille","lat":43.30161,"lon":5.39397,"is_reserved":false,"is_disabled":false,"rental_uris":{"android":"levelo://app?vid=d571166c-77a4-4a91-b051-9cc34ad31336","ios":"levelo://app?vid=d571166c-77a4-4a91-b051-9cc34ad31336"},"vehicle_type_id":"4","last_reported":1741075939,"current_range_meters":16000,"station_id":"","pricing_plan_id":"cebpf4jnsgd1na2vs0mg"},{"bike_id":"ad86c954-3fb5-4ad8-be89-d3eb281859a7","system_id":"levelo_inurba_marseille","lat":43.29933,"lon":5.36545,"is_reserved":false,"is_disabled":false,"rental_uris":{"android":"levelo://app?vid=ad86c954-3fb5-4ad8-be89-d3eb281859a7","ios":"levelo://app?vid=ad86c954-3fb5-4ad8-be89-d3eb281859a7"},"vehicle_type_id":"4","last_reported":1741075939,"current_range_meters":16000,"station_id":"ce4bgm92rcd13ifvqbr0","pricing_plan_id":"cebpf4jnsgd1na2vs0mg"},{"bike_id":"0f4688e8-5b7c-4755-aa8c-07276f193a8b","system_id":"levelo_inurba_marseille","lat":43.26946,"lon":5.38631,"is_reserved":false,"is_disabled":false,"rental_uris":{"android":"levelo://app?vid=0f4688e8-5b7c-4755-aa8c-07276f193a8b","ios":"levelo://app?vid=0f4688e8-5b7c-4755-aa8c-07276f193a8b"},"vehicle_type_id":"4","last_reported":1741075939,"current_range_meters":16000,"station_id":"ce4bhh92rcd13ifvqfh0","pricing_plan_id":"cebpf4jnsgd1na2vs0mg"},{"bike_id":"4f22ed03-3f01-49f0-87ec-77cf8c324e7e","system_id":"levelo_inurba_marseille","lat":43.309961,"lon":5.384563,"is_reserved":false,"is_disabled":false,"rental_uris":{"android":"levelo://app?vid=4f22ed03-3f01-49f0-87ec-77cf8c324e7e","ios":"levelo://app?vid=4f22ed03-3f01-49f0-87ec-77cf8c324e7e"},"vehicle_type_id":"4","last_reported":1741075939,"current_range_meters":16400,"station_id":"","pricing_plan_id":"cebpf4jnsgd1na2vs0mg"},{"bike_id":"33c8f352-73dd-4200-b13b-8e97e672a1b5","system_id":"levelo_inurba_marseille","lat":43.30243,"lon":5.40046,"is_reserved":false,"is_disabled":false,"rental_uris":{"android":"levelo://app?vid=33c8f352-73dd-4200-b13b-8e97e672a1b5","ios":"levelo://app?vid=33c8f352-73dd-4200-b13b-8e97e672a1b5"},"vehicle_type_id":"4","last_reported":1741075939,"current_range_meters":16400,"station_id":"ce4bgvh2rcd13ifvqcs0","pricing_plan_id":"cebpf4jnsgd1na2vs0mg"},{"bike_id":"4ead3cf7-030a-48ef-8e3f-f442056c69b3","system_id":"levelo_inurba_marseille","lat":43.30471,"lon":5.37913,"is_reserved":false,"is_disabled":false,"rental_uris":{"android":"levelo://app?vid=4ead3cf7-030a-48ef-8e3f-f442056c69b3","ios":"levelo://app?vid=4ead3cf7-030a-48ef-8e3f-f442056c69b3"},"vehicle_type_id":"4","last_reported":1741075939,"current_range_meters":16400,"station_id":"ce4bgup2rcd13ifvqcn0","pricing_plan_id":"cebpf4jnsgd1na2vs0mg"},{"bike_id":"89cd06a7-18b0-444c-8b4d-e60210eb1756","system_id":"levelo_inurba_marseille","lat":43.32655,"lon":5.40994,"is_reserved":false,"is_disabled":false,"rental_uris":{"android":"levelo://app?vid=89cd06a7-18b0-444c-8b4d-e60210eb1756","ios":"levelo://app?vid=89cd06a7-18b0-444c-8b4d-e60210eb1756"},"vehicle_type_id":"4","last_reported":1741075939,"current_range_meters":16400,"station_id":"ce4bhpp2rcd13ifvqhgg","pricing_plan_id":"cebpf4jnsgd1na2vs0mg"},{"bike_id":"429eae8e-54ad-402e-a689-a49cf2df9ef1","system_id":"levelo_inurba_marseille","lat":43.283455,"lon":5.381077,"is_reserved":false,"is_disabled":false,"rental_uris":{"android":"levelo://app?vid=429eae8e-54ad-402e-a689-a49cf2df9ef1","ios":"levelo://app?vid=429eae8e-54ad-402e-a689-a49cf2df9ef1"},"vehicle_type_id":"4","last_reported":1741075939,"current_range_meters":16000,"station_id":"ce4bh692rcd13ifvqea0","pricing_plan_id":"cebpf4jnsgd1na2vs0mg"},{"bike_id":"7cd5e07c-ad2a-4af8-99d9-77c41335ce79","system_id":"levelo_inurba_marseille","lat":43.24169,"lon":5.36392,"is_reserved":false,"is_disabled":false,"rental_uris":{"android":"levelo://app?vid=7cd5e07c-ad2a-4af8-99d9-77c41335ce79","ios":"levelo://app?vid=7cd5e07c-ad2a-4af8-99d9-77c41335ce79"},"vehicle_type_id":"4","last_reported":1741075939,"current_range_meters":16400,"station_id":"cpo36qri1sfpv3e86is0","pricing_plan_id":"cebpf4jnsgd1na2vs0mg"},{"bike_id":"e2561f86-c403-4b29-a057-bfc8bac05a51","system_id":"levelo_inurba_marseille","lat":43.30134,"lon":5.37421,"is_reserved":false,"is_disabled":false,"rental_uris":{"android":"levelo://app?vid=e2561f86-c403-4b29-a057-bfc8bac05a51","ios":"levelo://app?vid=e2561f86-c403-4b29-a057-bfc8bac05a51"},"vehicle_type_id":"4","last_reported":1741075939,"current_range_meters":16400,"station_id":"ce4bgs92rcd13ifvqcc0","pricing_plan_id":"cebpf4jnsgd1na2vs0mg"},{"bike_id":"5fef17dc-a689-49c5-96b0-2b94b73dab00","system_id":"levelo_inurba_marseille","lat":43.3095,"lon":5.39048,"is_reserved":false,"is_disabled":false,"rental_uris":{"android":"levelo://app?vid=5fef17dc-a689-49c5-96b0-2b94b73dab00","ios":"levelo://app?vid=5fef17dc-a689-49c5-96b0-2b94b73dab00"},"vehicle_type_id":"4","last_reported":1741075939,"current_range_meters":16400,"station_id":"ce4bgup2rcd13ifvqco0","pricing_plan_id":"cebpf4jnsgd1na2vs0mg"},{"bike_id":"908554a7-2b41-46cd-b980-aaac4ed055dd","system_id":"levelo_inurba_marseille","lat":43.30539,"lon":5.36557,"is_reserved":false,"is_disabled":false,"rental_uris":{"android":"levelo://app?vid=908554a7-2b41-46cd-b980-aaac4ed055dd","ios":"levelo://app?vid=908554a7-2b41-46cd-b980-aaac4ed055dd"},"vehicle_type_id":"4","last_reported":1741075939,"current_range_meters":16800,"station_id":"ce4bgs12rcd13ifvqcag","pricing_plan_id":"cebpf4jnsgd1na2vs0mg"},{"bike_id":"03d5bd23-db2c-4a3d-9573-a1403447f741","system_id":"levelo_inurba_marseille","lat":43.27822,"lon":5.40719,"is_reserved":false,"is_disabled":false,"rental_uris":{"android":"levelo://app?vid=03d5bd23-db2c-4a3d-9573-a1403447f741","ios":"levelo://app?vid=03d5bd23-db2c-4a3d-9573-a1403447f741"},"vehicle_type_id":"4","last_reported":1741075939,"current_range_meters":16400,"station_id":"ce4bhnh2rcd13ifvqgtg","pricing_plan_id":"cebpf4jnsgd1na2vs0mg"},{"bike_id":"e9aa2ee4-42cb-4802-b601-201ce578789f","system_id":"levelo_inurba_marseille","lat":43.27747,"lon":5.38875,"is_reserved":false,"is_disabled":false,"rental_uris":{"android":"levelo://app?vid=e9aa2ee4-42cb-4802-b601-201ce578789f","ios":"levelo://app?vid=e9aa2ee4-42cb-4802-b601-201ce578789f"},"vehicle_type_id":"4","last_reported":1741075939,"current_range_meters":16400,"station_id":"ce4bhi12rcd13ifvqfo0","pricing_plan_id":"cebpf4jnsgd1na2vs0mg"},{"bike_id":"516e3747-bfb9-471b-a526-f97449b9bc6e","system_id":"levelo_inurba_marseille","lat":43.32553,"lon":5.41441,"is_reserved":false,"is_disabled":false,"rental_uris":{"android":"levelo://app?vid=516e3747-bfb9-471b-a526-f97449b9bc6e","ios":"levelo://app?vid=516e3747-bfb9-471b-a526-f97449b9bc6e"},"vehicle_type_id":"4","last_reported":1741075939,"current_range_meters":16400,"station_id":"ce4bhq12rcd13ifvqhhg","pricing_plan_id":"cebpf4jnsgd1na2vs0mg"},{"bike_id":"1fa29a2d-b199-47af-b6d0-e7d847d41d3b","system_id":"levelo_inurba_marseille","lat":43.24074,"lon":5.37751,"is_reserved":false,"is_disabled":false,"rental_uris":{"android":"levelo://app?vid=1fa29a2d-b199-47af-b6d0-e7d847d41d3b","ios":"levelo://app?vid=1fa29a2d-b199-47af-b6d0-e7d847d41d3b"},"vehicle_type_id":"4","last_reported":1741075939,"current_range_meters":16400,"station_id":"ce4bhnp2rcd13ifvqgvg","pricing_plan_id":"cebpf4jnsgd1na2vs0mg"},{"bike_id":"3eee0dc5-ae82-4a87-84bd-e56ec3329485","system_id":"levelo_inurba_marseille","lat":43.24664,"lon":5.38882,"is_reserved":false,"is_disabled":false,"rental_uris":{"android":"levelo://app?vid=3eee0dc5-ae82-4a87-84bd-e56ec3329485","ios":"levelo://app?vid=3eee0dc5-ae82-4a87-84bd-e56ec3329485"},"vehicle_type_id":"4","last_reported":1741075939,"current_range_meters":16800,"station_id":"ce4bhg12rcd13ifvqf60","pricing_plan_id":"cebpf4jnsgd1na2vs0mg"},{"bike_id":"4a131a6e-20ed-4f37-9325-fb0815961b00","system_id":"levelo_inurba_marseille","lat":43.23154,"lon":5.43712,"is_reserved":false,"is_disabled":false,"rental_uris":{"android":"levelo://app?vid=4a131a6e-20ed-4f37-9325-fb0815961b00","ios":"levelo://app?vid=4a131a6e-20ed-4f37-9325-fb0815961b00"},"vehicle_type_id":"4","last_reported":1741075939,"current_range_meters":16800,"station_id":"ce4bhmp2rcd13ifvqgog","pricing_plan_id":"cebpf4jnsgd1na2vs0mg"},{"bike_id":"3e8edee8-e61e-4222-ba14-7f0e4c41056d","system_id":"levelo_inurba_marseille","lat":43.33705,"lon":5.37413,"is_reserved":false,"is_disabled":false,"rental_uris":{"android":"levelo://app?vid=3e8edee8-e61e-4222-ba14-7f0e4c41056d","ios":"levelo://app?vid=3e8edee8-e61e-4222-ba14-7f0e4c41056d"},"vehicle_type_id":"4","last_reported":1741075939,"current_range_meters":16800,"station_id":"","pricing_plan_id":"cebpf4jnsgd1na2vs0mg"},{"bike_id":"9a6b1dcb-3594-4bb4-ab0b-6b30c24a905b","system_id":"levelo_inurba_marseille","lat":43.23149,"lon":5.43721,"is_reserved":false,"is_disabled":false,"rental_uris":{"android":"levelo://app?vid=9a6b1dcb-3594-4bb4-ab0b-6b30c24a905b","ios":"levelo://app?vid=9a6b1dcb-3594-4bb4-ab0b-6b30c24a905b"},"vehicle_type_id":"4","last_reported":1741075939,"current_range_meters":16800,"station_id":"ce4bhmp2rcd13ifvqgog","pricing_plan_id":"cebpf4jnsgd1na2vs0mg"},{"bike_id":"8b7b3e92-fc3d-4aa6-9b62-d67a99ca8207","system_id":"levelo_inurba_marseille","lat":43.27536,"lon":5.42374,"is_reserved":false,"is_disabled":false,"rental_uris":{"android":"levelo://app?vid=8b7b3e92-fc3d-4aa6-9b62-d67a99ca8207","ios":"levelo://app?vid=8b7b3e92-fc3d-4aa6-9b62-d67a99ca8207"},"vehicle_type_id":"4","last_reported":1741075939,"current_range_meters":16800,"station_id":"","pricing_plan_id":"cebpf4jnsgd1na2vs0mg"},{"bike_id":"803c0489-f1ba-4e46-ae70-685ff7070b07","system_id":"levelo_inurba_marseille","lat":43.30536,"lon":5.36555,"is_reserved":false,"is_disabled":false,"rental_uris":{"android":"levelo://app?vid=803c0489-f1ba-4e46-ae70-685ff7070b07","ios":"levelo://app?vid=803c0489-f1ba-4e46-ae70-685ff7070b07"},"vehicle_type_id":"4","last_reported":1741075939,"current_range_meters":16800,"station_id":"ce4bgs12rcd13ifvqcag","pricing_plan_id":"cebpf4jnsgd1na2vs0mg"},{"bike_id":"e96e0c5f-d0e5-478b-b4aa-43a39d7ff26e","system_id":"levelo_inurba_marseille","lat":43.32359,"lon":5.36766,"is_reserved":false,"is_disabled":false,"rental_uris":{"android":"levelo://app?vid=e96e0c5f-d0e5-478b-b4aa-43a39d7ff26e","ios":"levelo://app?vid=e96e0c5f-d0e5-478b-b4aa-43a39d7ff26e"},"vehicle_type_id":"4","last_reported":1741075939,"current_range_meters":16800,"station_id":"ce4bhsh2rcd13ifvqi2g","pricing_plan_id":"cebpf4jnsgd1na2vs0mg"},{"bike_id":"6af07c51-19ce-42bc-b1bf-abd664b5fc69","system_id":"levelo_inurba_marseille","lat":43.30902,"lon":5.36846,"is_reserved":false,"is_disabled":false,"rental_uris":{"android":"levelo://app?vid=6af07c51-19ce-42bc-b1bf-abd664b5fc69","ios":"levelo://app?vid=6af07c51-19ce-42bc-b1bf-abd664b5fc69"},"vehicle_type_id":"4","last_reported":1741075939,"current_range_meters":17200,"station_id":"ce4bgn92rcd13ifvqbvg","pricing_plan_id":"cebpf4jnsgd1na2vs0mg"},{"bike_id":"04c06027-db73-4dce-b5ff-2743de2cfa39","system_id":"levelo_inurba_marseille","lat":43.2407,"lon":5.37751,"is_reserved":false,"is_disabled":false,"rental_uris":{"android":"levelo://app?vid=04c06027-db73-4dce-b5ff-2743de2cfa39","ios":"levelo://app?vid=04c06027-db73-4dce-b5ff-2743de2cfa39"},"vehicle_type_id":"4","last_reported":1741075939,"current_range_meters":17600,"station_id":"ce4bhnp2rcd13ifvqgvg","pricing_plan_id":"cebpf4jnsgd1na2vs0mg"},{"bike_id":"206e4439-efc0-4a3e-b983-1ff5b86d71fc","system_id":"levelo_inurba_marseille","lat":43.23141,"lon":5.43704,"is_reserved":false,"is_disabled":false,"rental_uris":{"android":"levelo://app?vid=206e4439-efc0-4a3e-b983-1ff5b86d71fc","ios":"levelo://app?vid=206e4439-efc0-4a3e-b983-1ff5b86d71fc"},"vehicle_type_id":"4","last_reported":1741075939,"current_range_meters":17200,"station_id":"ce4bhmp2rcd13ifvqgog","pricing_plan_id":"cebpf4jnsgd1na2vs0mg"},{"bike_id":"56f807c6-3a2a-48f0-b6b7-8d1081332169","system_id":"levelo_inurba_marseille","lat":43.31387,"lon":5.36697,"is_reserved":false,"is_disabled":false,"rental_uris":{"android":"levelo://app?vid=56f807c6-3a2a-48f0-b6b7-8d1081332169","ios":"levelo://app?vid=56f807c6-3a2a-48f0-b6b7-8d1081332169"},"vehicle_type_id":"4","last_reported":1741075939,"current_range_meters":17200,"station_id":"ce4bgr92rcd13ifvqc6g","pricing_plan_id":"cebpf4jnsgd1na2vs0mg"},{"bike_id":"e8576a17-1177-473c-92da-4833cc171d19","system_id":"levelo_inurba_marseille","lat":43.29083,"lon":5.38165,"is_reserved":false,"is_disabled":false,"rental_uris":{"android":"levelo://app?vid=e8576a17-1177-473c-92da-4833cc171d19","ios":"levelo://app?vid=e8576a17-1177-473c-92da-4833cc171d19"},"vehicle_type_id":"4","last_reported":1741075939,"current_range_meters":16800,"station_id":"ce4bh512rcd13ifvqe2g","pricing_plan_id":"cebpf4jnsgd1na2vs0mg"},{"bike_id":"d0c1d623-11ab-4348-95de-20d490237449","system_id":"levelo_inurba_marseille","lat":43.30957,"lon":5.39048,"is_reserved":false,"is_disabled":false,"rental_uris":{"android":"levelo://app?vid=d0c1d623-11ab-4348-95de-20d490237449","ios":"levelo://app?vid=d0c1d623-11ab-4348-95de-20d490237449"},"vehicle_type_id":"4","last_reported":1741075939,"current_range_meters":17200,"station_id":"ce4bgup2rcd13ifvqco0","pricing_plan_id":"cebpf4jnsgd1na2vs0mg"},{"bike_id":"08ab1368-2a61-4059-a62d-1f0314c53d95","system_id":"levelo_inurba_marseille","lat":43.23181,"lon":5.39979,"is_reserved":false,"is_disabled":false,"rental_uris":{"android":"levelo://app?vid=08ab1368-2a61-4059-a62d-1f0314c53d95","ios":"levelo://app?vid=08ab1368-2a61-4059-a62d-1f0314c53d95"},"vehicle_type_id":"4","last_reported":1741075939,"current_range_meters":17200,"station_id":"ce4bhn12rcd13ifvqgqg","pricing_plan_id":"cebpf4jnsgd1na2vs0mg"},{"bike_id":"4431b2b5-f405-4303-bc94-47a48560838c","system_id":"levelo_inurba_marseille","lat":43.25932,"lon":5.40915,"is_reserved":false,"is_disabled":false,"rental_uris":{"android":"levelo://app?vid=4431b2b5-f405-4303-bc94-47a48560838c","ios":"levelo://app?vid=4431b2b5-f405-4303-bc94-47a48560838c"},"vehicle_type_id":"4","last_reported":1741075939,"current_range_meters":17200,"station_id":"ce4bhm92rcd13ifvqglg","pricing_plan_id":"cebpf4jnsgd1na2vs0mg"},{"bike_id":"7ad449bc-99c2-472f-b781-ad26766d1190","system_id":"levelo_inurba_marseille","lat":43.26049,"lon":5.39434,"is_reserved":false,"is_disabled":false,"rental_uris":{"android":"levelo://app?vid=7ad449bc-99c2-472f-b781-ad26766d1190","ios":"levelo://app?vid=7ad449bc-99c2-472f-b781-ad26766d1190"},"vehicle_type_id":"4","last_reported":1741075939,"current_range_meters":17200,"station_id":"ce4bhh92rcd13ifvqfj0","pricing_plan_id":"cebpf4jnsgd1na2vs0mg"},