{"last_updated":1700334274,"ttl":30,"version":"2.2","data":{"bikes":[{"bike_id":"b5c0afb5-a70f-4742-9b31-190fe406135c","system_id":"levelo_inurba_marseille","lat":43.312201,"lon":5.36844,"is_reserved":false,"is_disabled":false,"rental_uris":{"android":"levelo://app?vid=b5c0afb5-a70f-4742-9b31-190fe406135c","ios":"levelo://app?vid=b5c0afb5-a70f-4742-9b31-190fe406135c"},"vehicle_type_id":"4","last_reported":1700334274,"current_range_meters":15600,"station_id":"","pricing_plan_id":"free"},{"bike_id":"943dfc2f-eec4-44b8-ae3a-bf8f278b58c3","system_id":"levelo_inurba_marseille","lat":43.311508,"lon":5.368928,"is_reserved":false,"is_disabled":false,"rental_uris":{"android":"levelo://app?vid=943dfc2f-eec4-44b8-ae3a-bf8f278b58c3","ios":"levelo://app?vid=943dfc2f-eec4-44b8-ae3a-bf8f278b58c3"},"vehicle_type_id":"4","last_reported":1700334274,"current_range_meters":0,"station_id":"","pricing_plan_id":"free"},{"bike_id":"190a5b5e-8050-42dd-a1a0-fbe7546edf25","system_id":"levelo_inurba_marseille","lat":43.314811,"lon":5.373104,"is_reserved":false,"is_disabled":false,"rental_uris":{"android":"levelo://app?vid=190a5b5e-8050-42dd-a1a0-fbe7546edf25","ios":"levelo://app?vid=190a5b5e-8050-42dd-a1a0-fbe7546edf25"},"vehicle_type_id":"4","last_reported":1700334274,"current_range_meters":16000,"station_id":"ce4bgt12rcd13ifvqcd0","pricing_plan_id":"free"},{"bike_id":"3475d204-43b6-43d9-b615-ca1d0d58200e","system_id":"levelo_inurba_marseille","lat":43.30679,"lon":5.3679,"is_reserved":false,"is_disabled":false,"rental_uris":{"android":"levelo://app?vid=3475d204-43b6-43d9-b615-ca1d0d58200e","ios":"levelo://app?vid=3475d204-43b6-43d9-b615-ca1d0d58200e"},"vehicle_type_id":"4","last_reported":1700334274,"current_range_meters":13600,"station_id":"","pricing_plan_id":"free"},{"bike_id":"c89b6022-0b04-44f0-bb8d-00b8bddaa14f","system_id":"levelo_inurba_marseille","lat":43.319496,"lon":5.371029,"is_reserved":false,"is_disabled":false,"rental_uris":{"android":"levelo://app?vid=c89b6022-0b04-44f0-bb8d-00b8bddaa14f","ios":"levelo://app?vid=c89b6022-0b04-44f0-bb8d-00b8bddaa14f"},"vehicle_type_id":"4","last_reported":1700334274,"current_range_meters":4000,"station_id":"","pricing_plan_id":"free"},{"bike_id":"2e51fb59-6a17-45f9-b0d4-5c880cb0f83f","system_id":"levelo_inurba_marseille","lat":43.305989,"lon":5.37225,"is_reserved":false,"is_disabled":false,"rental_uris":{"android":"levelo://app?vid=2e51fb59-6a17-45f9-b0d4-5c880cb0f83f","ios":"levelo://app?vid=2e51fb59-6a17-45f9-b0d4-5c880cb0f83f"},"vehicle_type_id":"4","last_reported":1700334274,"current_range_meters":0,"station_id":"ce4bgqh2rcd13ifvqc4g","pricing_plan_id":"free"},{"bike_id":"dcbf9c93-0758-41cf-8699-4ede01d69428","system_id":"levelo_inurba_marseille","lat":43.308177,"lon":5.376571,"is_reserved":false,"is_disabled":false,"rental_uris":{"android":"levelo://app?vid=dcbf9c93-0758-41cf-8699-4ede01d69428","ios":"levelo://app?vid=dcbf9c93-0758-41cf-8699-4ede01d69428"},"vehicle_type_id":"4","last_reported":1700334274,"current_range_meters":14800,"station_id":"ce4bgv92rcd13ifvqcq0","pricing_plan_id":"free"},{"bike_id":"a4ec6625-0003-480e-bb35-d84a5ae02479","system_id":"levelo_inurba_marseille","lat":43.303046,"lon":5.368981,"is_reserved":false,"is_disabled":false,"rental_uris":{"android":"levelo://app?vid=a4ec6625-0003-480e-bb35-d84a5ae02479","ios":"levelo://app?vid=a4ec6625-0003-480e-bb35-d84a5ae02479"},"vehicle_type_id":"4","last_reported":1700334274,"current_range_meters":400,"station_id":"ce4bgqh2rcd13ifvqc5g","pricing_plan_id":"free"},{"bike_id":"78a5ab60-bf10-4369-bd08-dc7693fdae55","system_id":"levelo_inurba_marseille","lat":43.308012,"lon":5.381511,"is_reserved":false,"is_disabled":false,"rental_uris":{"android":"levelo://app?vid=78a5ab60-bf10-4369-bd08-dc7693fdae55","ios":"levelo://app?vid=78a5ab60-bf10-4369-bd08-dc7693fdae55"},"vehicle_type_id":"4","last_reported":1700334274,"current_range_meters":14400,"station_id":"ce4bgt12rcd13ifvqce0","pricing_plan_id":"free"},{"bike_id":"664de4c4-77a8-40af-bbed-0884967ddec4","system_id":"levelo_inurba_marseille","lat":43.304606,"lon":5.379026,"is_reserved":false,"is_disabled":false,"rental_uris":{"android":"levelo://app?vid=664de4c4-77a8-40af-bbed-0884967ddec4","ios":"levelo://app?vid=664de4c4-77a8-40af-bbed-0884967ddec4"},"vehicle_type_id":"4","last_reported":1700334274,"current_range_meters":12800,"station_id":"ce4bgup2rcd13ifvqcn0","pricing_plan_id":"free"},{"bike_id":"bc226498-8db4-43dc-8b39-afbf34e2210d","system_id":"levelo_inurba_marseille","lat":43.30457,"lon":5.37901,"is_reserved":false,"is_disabled":false,"rental_uris":{"android":"levelo://app?vid=bc226498-8db4-43dc-8b39-afbf34e2210d","ios":"levelo://app?vid=bc226498-8db4-43dc-8b39-afbf34e2210d"},"vehicle_type_id":"4","last_reported":1700334274,"current_range_meters":0,"station_id":"ce4bgup2rcd13ifvqcn0","pricing_plan_id":"free"},{"bike_id":"8582e63c-68af-4a5e-a41b-a2e2d4df8807","system_id":"levelo_inurba_marseille","lat":43.324771,"lon":5.36557,"is_reserved":false,"is_disabled":false,"rental_uris":{"android":"levelo://app?vid=8582e63c-68af-4a5e-a41b-a2e2d4df8807","ios":"levelo://app?vid=8582e63c-68af-4a5e-a41b-a2e2d4df8807"},"vehicle_type_id":"4","last_reported":1700334274,"current_range_meters":8000,"station_id":"ce4bhs12rcd13ifvqhvg","pricing_plan_id":"free"},{"bike_id":"5a6db0fc-cfe2-47a7-ae76-d4e0529428ab","system_id":"levelo_inurba_marseille","lat":43.319835,"lon":5.381043,"is_reserved":false,"is_disabled":false,"rental_uris":{"android":"levelo://app?vid=5a6db0fc-cfe2-47a7-ae76-d4e0529428ab","ios":"levelo://app?vid=5a6db0fc-cfe2-47a7-ae76-d4e0529428ab"},"vehicle_type_id":"4","last_reported":1700334274,"current_range_meters":17200,"station_id":"","pricing_plan_id":"free"},{"bike_id":"42e516e5-5d5c-4705-8275-c379b23cd6da","system_id":"levelo_inurba_marseille","lat":43.302784,"lon":5.377158,"is_reserved":false,"is_disabled":false,"rental_uris":{"android":"levelo://app?vid=42e516e5-5d5c-4705-8275-c379b23cd6da","ios":"levelo://app?vid=42e516e5-5d5c-4705-8275-c379b23cd6da"},"vehicle_type_id":"4","last_reported":1700334274,"current_range_meters":1200,"station_id":"ce4bguh2rcd13ifvqcj0","pricing_plan_id":"free"},{"bike_id":"b07df4dc-5dee-47d2-9384-cdf7d13ef59f","system_id":"levelo_inurba_marseille","lat":43.31756,"lon":5.38328,"is_reserved":false,"is_disabled":false,"rental_uris":{"android":"levelo://app?vid=b07df4dc-5dee-47d2-9384-cdf7d13ef59f","ios":"levelo://app?vid=b07df4dc-5dee-47d2-9384-cdf7d13ef59f"},"vehicle_type_id":"4","last_reported":1700334274,"current_range_meters":22400,"station_id":"","pricing_plan_id":"free"},{"bike_id":"524a41a6-b7c8-4b22-835f-28d4f2267099","system_id":"levelo_inurba_marseille","lat":43.2994,"lon":5.36541,"is_reserved":false,"is_disabled":false,"rental_uris":{"android":"levelo://app?vid=524a41a6-b7c8-4b22-835f-28d4f2267099","ios":"levelo://app?vid=524a41a6-b7c8-4b22-835f-28d4f2267099"},"vehicle_type_id":"4","last_reported":1700334274,"current_range_meters":12800,"station_id":"ce4bgm92rcd13ifvqbr0","pricing_plan_id":"free"},{"bike_id":"5da9dea2-bd9f-4746-b637-56e44ea9e587","system_id":"levelo_inurba_marseille","lat":43.298489,"lon":5.362942,"is_reserved":false,"is_disabled":false,"rental_uris":{"android":"levelo://app?vid=5da9dea2-bd9f-4746-b637-56e44ea9e587","ios":"levelo://app?vid=5da9dea2-bd9f-4746-b637-56e44ea9e587"},"vehicle_type_id":"4","last_reported":1700334274,"current_range_meters":0,"station_id":"","pricing_plan_id":"free"},{"bike_id":"67b7b9ec-436a-4d23-8b2c-e6620194026a","system_id":"levelo_inurba_marseille","lat":43.31176,"lon":5.38717,"is_reserved":false,"is_disabled":false,"rental_uris":{"android":"levelo://app?vid=67b7b9ec-436a-4d23-8b2c-e6620194026a","ios":"levelo://app?vid=67b7b9ec-436a-4d23-8b2c-e6620194026a"},"vehicle_type_id":"4","last_reported":1700334274,"current_range_meters":0,"station_id":"ce4bgv12rcd13ifvqcp0","pricing_plan_id":"free"},{"bike_id":"dadade26-8d95-44b2-86a8-a68427fdc33d","system_id":"levelo_inurba_marseille","lat":43.3229,"lon":5.38263,"is_reserved":false,"is_disabled":false,"rental_uris":{"android":"levelo://app?vid=dadade26-8d95-44b2-86a8-a68427fdc33d","ios":"levelo://app?vid=dadade26-8d95-44b2-86a8-a68427fdc33d"},"vehicle_type_id":"4","last_reported":1700334274,"current_range_meters":9200,"station_id":"ce4bhr12rcd13ifvqhqg","pricing_plan_id":"free"},{"bike_id":"b0bc5a2b-ee52-4745-9049-5d157e365412","system_id":"levelo_inurba_marseille","lat":43.32825,"lon":5.36678,"is_reserved":false,"is_disabled":false,"rental_uris":{"android":"levelo://app?vid=b0bc5a2b-ee52-4745-9049-5d157e365412","ios":"levelo://app?vid=b0bc5a2b-ee52-4745-9049-5d157e365412"},"vehicle_type_id":"4","last_reported":1700334274,"current_range_meters":11200,"station_id":"ce4bhs92rcd13ifvqi0g","pricing_plan_id":"free"},{"bike_id":"08a48045-858b-4fd7-98d3-b1c1102a6977","system_id":"levelo_inurba_marseille","lat":43.3285,"lon":5.36675,"is_reserved":false,"is_disabled":false,"rental_uris":{"android":"levelo://app?vid=08a48045-858b-4fd7-98d3-b1c1102a6977","ios":"levelo://app?vid=08a48045-858b-4fd7-98d3-b1c1102a6977"},"vehicle_type_id":"4","last_reported":1700334274,"current_range_meters":6000,"station_id":"ce4bhs92rcd13ifvqi0g","pricing_plan_id":"free"},{"bike_id":"bab6e1e8-0726-4f51-8b18-d54941f080d7","system_id":"levelo_inurba_marseille","lat":43.29726,"lon":5.37141,"is_reserved":false,"is_disabled":false,"rental_uris":{"android":"levelo://app?vid=bab6e1e8-0726-4f51-8b18-d54941f080d7","ios":"levelo://app?vid=bab6e1e8-0726-4f51-8b18-d54941f080d7"},"vehicle_type_id":"4","last_reported":1700334274,"current_range_meters":0,"station_id":"","pricing_plan_id":"free"},{"bike_id":"b57c238e-73fd-4036-bf11-d937f87144db","system_id":"levelo_inurba_marseille","lat":43.297794,"lon":5.370888,"is_reserved":false,"is_disabled":false,"rental_uris":{"android":"levelo://app?vid=b57c238e-73fd-4036-bf11-d937f87144db","ios":"levelo://app?vid=b57c238e-73fd-4036-bf11-d937f87144db"},"vehicle_type_id":"4","last_reported":1700334274,"current_range_meters":4400,"station_id":"ce4bgop2rcd13ifvqc1g","pricing_plan_id":"free"},{"bike_id":"d447991a-59b4-4778-a190-7d2b0920a414","system_id":"levelo_inurba_marseille","lat":43.32215,"lon":5.38613,"is_reserved":false,"is_disabled":false,"rental_uris":{"android":"levelo://app?vid=d447991a-59b4-4778-a190-7d2b0920a414","ios":"levelo://app?vid=d447991a-59b4-4778-a190-7d2b0920a414"},"vehicle_type_id":"4","last_reported":1700334274,"current_range_meters":0,"station_id":"","pricing_plan_id":"free"},{"bike_id":"416d9943-f07e-495b-8f28-05ae82c1f6a3","system_id":"levelo_inurba_marseille","lat":43.31757,"lon":5.3902,"is_reserved":false,"is_disabled":false,"rental_uris":{"android":"levelo://app?vid=416d9943-f07e-495b-8f28-05ae82c1f6a3","ios":"levelo://app?vid=416d9943-f07e-495b-8f28-05ae82c1f6a3"},"vehicle_type_id":"4","last_reported":1700334274,"current_range_meters":0,"station_id":"ce4bhqp2rcd13ifvqhng","pricing_plan_id":"free"},{"bike_id":"eec7b089-7c2f-498e-b88d-9fc953a39380","system_id":"levelo_inurba_marseille","lat":43.317532,"lon":5.39028,"is_reserved":false,"is_disabled":false,"rental_uris":{"android":"levelo://app?vid=eec7b089-7c2f-498e-b88d-9fc953a39380","ios":"levelo://app?vid=eec7b089-7c2f-498e-b88d-9fc953a39380"},"vehicle_type_id":"4","last_reported":1700334274,"current_range_meters":0,"station_id":"ce4bhqp2rcd13ifvqhng","pricing_plan_id":"free"},{"bike_id":"79953164-0d76-4fd7-862d-4a43dcb440ff","system_id":"levelo_inurba_marseille","lat":43.298037,"lon":5.381066,"is_reserved":false,"is_disabled":false,"rental_uris":{"android":"levelo://app?vid=79953164-0d76-4fd7-862d-4a43dcb440ff","ios":"levelo://app?vid=79953164-0d76-4fd7-862d-4a43dcb440ff"},"vehicle_type_id":"4","last_reported":1700334274,"current_range_meters":0,"station_id":"ce4bgip2rcd13ifvqbb0","pricing_plan_id":"free"},{"bike_id":"d2dced52-b7fb-4d11-ad33-56be009e3364","system_id":"levelo_inurba_marseille","lat":43.321847,"lon":5.388263,"is_reserved":false,"is_disabled":false,"rental_uris":{"android":"levelo://app?vid=d2dced52-b7fb-4d11-ad33-56be009e3364","ios":"levelo://app?vid=d2dced52-b7fb-4d11-ad33-56be009e3364"},"vehicle_type_id":"4","last_reported":1700334274,"current_range_meters":18000,"station_id":"","pricing_plan_id":"free"},{"bike_id":"3e3e92fe-39b7-4933-99ff-3747b28b5d69","system_id":"levelo_inurba_marseille","lat":43.328154,"lon":5.380034,"is_reserved":false,"is_disabled":false,"rental_uris":{"android":"levelo://app?vid=3e3e92fe-39b7-4933-99ff-3747b28b5d69","ios":"levelo://app?vid=3e3e92fe-39b7-4933-99ff-3747b28b5d69"},"vehicle_type_id":"4","last_reported":1700334274,"current_range_meters":8800,"station_id":"","pricing_plan_id":"free"},{"bike_id":"67ffd28a-0325-489b-a10f-d90500122751","system_id":"levelo_inurba_marseille","lat":43.295748,"lon":5.37522,"is_reserved":false,"is_disabled":false,"rental_uris":{"android":"levelo://app?vid=67ffd28a-0325-489b-a10f-d90500122751","ios":"levelo://app?vid=67ffd28a-0325-489b-a10f-d90500122751"},"vehicle_type_id":"4","last_reported":1700334274,"current_range_meters":30400,"station_id":"ce4bgh92rcd13ifvqb50","pricing_plan_id":"free"},{"bike_id":"04092612-b1b1-4253-ad1c-d08ef8a0d4f2","system_id":"levelo_inurba_marseille","lat":43.32363,"lon":5.38697,"is_reserved":false,"is_disabled":false,"rental_uris":{"android":"levelo://app?vid=04092612-b1b1-4253-ad1c-d08ef8a0d4f2","ios":"levelo://app?vid=04092612-b1b1-4253-ad1c-d08ef8a0d4f2"},"vehicle_type_id":"4","last_reported":1700334274,"current_range_meters":6400,"station_id":"ce4bhs92rcd13ifvqi0g","pricing_plan_id":"free"},{"bike_id":"7581af35-a9d6-4fe2-bd7c-a5553f49d374","system_id":"levelo_inurba_marseille","lat":43.299717,"lon":5.384845,"is_reserved":false,"is_disabled":false,"rental_uris":{"android":"levelo://app?vid=7581af35-a9d6-4fe2-bd7c-a5553f49d374","ios":"levelo://app?vid=7581af35-a9d6-4fe2-bd7c-a5553f49d374"},"vehicle_type_id":"4","last_reported":1700334274,"current_range_meters":1200,"station_id":"ce4bgj92rcd13ifvqbd0","pricing_plan_id":"free"},{"bike_id":"2bab9a9b-8431-4c51-864d-3be772699667","system_id":"levelo_inurba_marseille","lat":43.29905,"lon":5.38513,"is_reserved":false,"is_disabled":false,"rental_uris":{"android":"levelo://app?vid=2bab9a9b-8431-4c51-864d-3be772699667","ios":"levelo://app?vid=2bab9a9b-8431-4c51-864d-3be772699667"},"vehicle_type_id":"4","last_reported":1700334274,"current_range_meters":0,"station_id":"","pricing_plan_id":"free"},{"bike_id":"e145a3f7-00ac-4f8f-bfe5-435bc38ccaf7","system_id":"levelo_inurba_marseille","lat":43.293801,"lon":5.363066,"is_reserved":false,"is_disabled":false,"rental_uris":{"android":"levelo://app?vid=e145a3f7-00ac-4f8f-bfe5-435bc38ccaf7","ios":"levelo://app?vid=e145a3f7-00ac-4f8f-bfe5-435bc38ccaf7"},"vehicle_type_id":"4","last_reported":1700334274,"current_range_meters":26800,"station_id":"","pricing_plan_id":"free"},{"bike_id":"64b59db5-cdcd-46ea-9a57-71b3ae4ca4e2","system_id":"levelo_inurba_marseille","lat":43.293259,"lon":5.371586,"is_reserved":false,"is_disabled":false,"rental_uris":{"android":"levelo://app?vid=64b59db5-cdcd-46ea-9a57-71b3ae4ca4e2","ios":"levelo://app?vid=64b59db5-cdcd-46ea-9a57-71b3ae4ca4e2"},"vehicle_type_id":"4","last_reported":1700334274,"current_range_meters":22400,"station_id":"ce4bgh92rcd13ifvqb40","pricing_plan_id":"free"},{"bike_id":"ff298a7a-e3c0-4980-b30f-ec7407e51e4e","system_id":"levelo_inurba_marseille","lat":43.29306,"lon":5.3717,"is_reserved":false,"is_disabled":false,"rental_uris":{"android":"levelo://app?vid=ff298a7a-e3c0-4980-b30f-ec7407e51e4e","ios":"levelo://app?vid=ff298a7a-e3c0-4980-b30f-ec7407e51e4e"},"vehicle_type_id":"4","last_reported":1700334274,"current_range_meters":7600,"station_id":"ce4bgh92rcd13ifvqb40","pricing_plan_id":"free"},{"bike_id":"504068ee-c27b-490f-a344-4416bd7707ef","system_id":"levelo_inurba_marseille","lat":43.302992,"lon":5.392136,"is_reserved":false,"is_disabled":false,"rental_uris":{"android":"levelo://app?vid=504068ee-c27b-490f-a344-4416bd7707ef","ios":"levelo://app?vid=504068ee-c27b-490f-a344-4416bd7707ef"},"vehicle_type_id":"4","last_reported":1700334274,"current_range_meters":0,"station_id":"ce4bgkh2rcd13ifvqbk0","pricing_plan_id":"free"},{"bike_id":"3460c1fe-3b5a-4862-aeff-644bbe57f993","system_id":"levelo_inurba_marseille","lat":43.2936,"lon":5.37835,"is_reserved":false,"is_disabled":false,"rental_uris":{"android":"levelo://app?vid=3460c1fe-3b5a-4862-aeff-644bbe57f993","ios":"levelo://app?vid=3460c1fe-3b5a-4862-aeff-644bbe57f993"},"vehicle_type_id":"4","last_reported":1700334274,"current_range_meters":0,"station_id":"ce4bgjh2rcd13ifvqbf0","pricing_plan_id":"free"},{"bike_id":"dafa8b1e-fa43-4873-83d7-7eaa0a8b8e58","system_id":"levelo_inurba_marseille","lat":43.29178,"lon":5.37135,"is_reserved":false,"is_disabled":false,"rental_uris":{"android":"levelo://app?vid=dafa8b1e-fa43-4873-83d7-7eaa0a8b8e58","ios":"levelo://app?vid=dafa8b1e-fa43-4873-83d7-7eaa0a8b8e58"},"vehicle_type_id":"4","last_reported":1700334274,"current_range_meters":0,"station_id":"ce4bha92rcd13ifvqeh0","pricing_plan_id":"free"},{"bike_id":"786afbe7-ae1c-4641-93b3-eee911fd07e4","system_id":"levelo_inurba_marseille","lat":43.292845,"lon":5.377055,"is_reserved":false,"is_disabled":false,"rental_uris":{"android":"levelo://app?vid=786afbe7-ae1c-4641-93b3-eee911fd07e4","ios":"levelo://app?vid=786afbe7-ae1c-4641-93b3-eee911fd07e4"},"vehicle_type_id":"4","last_reported":1700334274,"current_range_meters":0,"station_id":"","pricing_plan_id":"free"},{"bike_id":"4eef38cc-64cf-4f4d-8d5b-99bd9d3b1b37","system_id":"levelo_inurba_marseille","lat":43.291675,"lon":5.371583,"is_reserved":false,"is_disabled":false,"rental_uris":{"android":"levelo://app?vid=4eef38cc-64cf-4f4d-8d5b-99bd9d3b1b37","ios":"levelo://app?vid=4eef38cc-64cf-4f4d-8d5b-99bd9d3b1b37"},"vehicle_type_id":"4","last_reported":1700334274,"current_range_meters":27600,"station_id":"ce4bha92rcd13ifvqeh0","pricing_plan_id":"free"},{"bike_id":"1045079f-fe33-4948-938b-51dceba28122","system_id":"levelo_inurba_marseille","lat":43.291645,"lon":5.371529,"is_reserved":false,"is_disabled":false,"rental_uris":{"android":"levelo://app?vid=1045079f-fe33-4948-938b-51dceba28122","ios":"levelo://app?vid=1045079f-fe33-4948-938b-51dceba28122"},"vehicle_type_id":"4","last_reported":1700334274,"current_range_meters":0,"station_id":"ce4bha92rcd13ifvqeh0","pricing_plan_id":"free"},{"bike_id":"e8dd0ecd-21e9-4a5d-b28f-e57aac3c719b","system_id":"levelo_inurba_marseille","lat":43.313291,"lon":5.396838,"is_reserved":false,"is_disabled":false,"rental_uris":{"android":"levelo://app?vid=e8dd0ecd-21e9-4a5d-b28f-e57aac3c719b","ios":"levelo://app?vid=e8dd0ecd-21e9-4a5d-b28f-e57aac3c719b"},"vehicle_type_id":"4","last_reported":1700334274,"current_range_meters":5200,"station_id":"ce4bgvp2rcd13ifvqcu0","pricing_plan_id":"free"},{"bike_id":"4440cff5-70c2-4359-83d0-f27200974e5f","system_id":"levelo_inurba_marseille","lat":43.313291,"lon":5.396838,"is_reserved":false,"is_disabled":false,"rental_uris":{"android":"levelo://app?vid=4440cff5-70c2-4359-83d0-f27200974e5f","ios":"levelo://app?vid=4440cff5-70c2-4359-83d0-f27200974e5f"},"vehicle_type_id":"4","last_reported":1700334274,"current_range_meters":2800,"station_id":"ce4bgvp2rcd13ifvqcu0","pricing_plan_id":"free"},{"bike_id":"403395d0-135e-433a-a26b-b1787f4ce7f3","system_id":"levelo_inurba_marseille","lat":43.313291,"lon":5.396838,"is_reserved":false,"is_disabled":false,"rental_uris":{"android":"levelo://app?vid=403395d0-135e-433a-a26b-b1787f4ce7f3","ios":"levelo://app?vid=403395d0-135e-433a-a26b-b1787f4ce7f3"},"vehicle_type_id":"4","last_reported":1700334274,"current_range_meters":1600,"station_id":"ce4bgvp2rcd13ifvqcu0","pricing_plan_id":"free"},{"bike_id":"9ebf2f5b-ce23-4a29-83a7-64d920e203d1","system_id":"levelo_inurba_marseille","lat":43.31328,"lon":5.39692,"is_reserved":false,"is_disabled":false,"rental_uris":{"android":"levelo://app?vid=9ebf2f5b-ce23-4a29-83a7-64d920e203d1","ios":"levelo://app?vid=9ebf2f5b-ce23-4a29-83a7-64d920e203d1"},"vehicle_type_id":"4","last_reported":1700334274,"current_range_meters":0,"station_id":"ce4bgvp2rcd13ifvqcu0","pricing_plan_id":"free"},{"bike_id":"b4d71117-9819-41d5-81b5-34d71b83ca1d","system_id":"levelo_inurba_marseille","lat":43.313291,"lon":5.396838,"is_reserved":false,"is_disabled":false,"rental_uris":{"android":"levelo://app?vid=b4d71117-9819-41d5-81b5-34d71b83ca1d","ios":"levelo://app?vid=b4d71117-9819-41d5-81b5-34d71b83ca1d"},"vehicle_type_id":"4","last_reported":1700334274,"current_range_meters":0,"station_id":"ce4bgvp2rcd13ifvqcu0","pricing_plan_id":"free"},{"bike_id":"34cf7547-73f0-4a19-b46e-4e27b142ddc2","system_id":"levelo_inurba_marseille","lat":43.29529,"lon":5.385581,"is_reserved":false,"is_disabled":false,"rental_uris":{"android":"levelo://app?vid=34cf7547-73f0-4a19-b46e-4e27b142ddc2","ios":"levelo://app?vid=34cf7547-73f0-4a19-b46e-4e27b142ddc2"},"vehicle_type_id":"4","last_reported":1700334274,"current_range_meters":1200,"station_id":"ce4bgih2rcd13ifvqba0","pricing_plan_id":"free"},{"bike_id":"1f92b481-ac07-487c-9d33-7a1b0a953112","system_id":"levelo_inurba_marseille","lat":43.289184,"lon":5.366408,"is_reserved":false,"is_disabled":false,"rental_uris":{"android":"levelo://app?vid=1f92b481-ac07-487c-9d33-7a1b0a953112","ios":"levelo://app?vid=1f92b481-ac07-487c-9d33-7a1b0a953112"},"vehicle_type_id":"4","last_reported":1700334274,"current_range_meters":1600,"station_id":"ce4bhap2rcd13ifvqek0","pricing_plan_id":"free"},{"bike_id":"8f95c88c-3e67-411b-ba95-bf837912adfb","system_id":"levelo_inurba_marseille","lat":43.289184,"lon":5.366408,"is_reserved":false,"is_disabled":false,"rental_uris":{"android":"levelo://app?vid=8f95c88c-3e67-411b-ba95-bf837912adfb","ios":"levelo://app?vid=8f95c88c-3e67-411b-ba95-bf837912adfb"},"vehicle_type_id":"4","last_reported":1700334274,"current_range_meters":21600,"station_id":"ce4bhap2rcd13ifvqek0","pricing_plan_id":"free"},{"bike_id":"129e6857-aea9-44de-b686-a55ec108e0e7","system_id":"levelo_inurba_marseille","lat":43.2927,"lon":5.38368,"is_reserved":false,"is_disabled":false,"rental_uris":{"android":"levelo://app?vid=129e6857-aea9-44de-b686-a55ec108e0e7","ios":"levelo://app?vid=129e6857-aea9-44de-b686-a55ec108e0e7"},"vehicle_type_id":"4","last_reported":1700334274,"current_range_meters":0,"station_id":"ce4bh692rcd13ifvqea0","pricing_plan_id":"free"},{"bike_id":"1f91cf78-6c83-4c10-990b-1062b37d12cf","system_id":"levelo_inurba_marseille","lat":43.304296,"lon":5.397513,"is_reserved":false,"is_disabled":false,"rental_uris":{"android":"levelo://app?vid=1f91cf78-6c83-4c10-990b-1062b37d12cf","ios":"levelo://app?vid=1f91cf78-6c83-4c10-990b-1062b37d12cf"},"vehicle_type_id":"4","last_reported":1700334274,"current_range_meters":2400,"station_id":"ce4bh092rcd13ifvqd20","pricing_plan_id":"free"},{"bike_id":"b27ee421-ce40-434f-992f-8338cd8328d2","system_id":"levelo_inurba_marseille","lat":43.292642,"lon":5.384254,"is_reserved":false,"is_disabled":false,"rental_uris":{"android":"levelo://app?vid=b27ee421-ce40-434f-992f-8338cd8328d2","ios":"levelo://app?vid=b27ee421-ce40-434f-992f-8338cd8328d2"},"vehicle_type_id":"4","last_reported":1700334274,"current_range_meters":800,"station_id":"ce4bh692rcd13ifvqea0","pricing_plan_id":"free"},{"bike_id":"a1c9f5ec-306f-4db8-b9f5-26ded705d57b","system_id":"levelo_inurba_marseille","lat":43.292605,"lon":5.384535,"is_reserved":false,"is_disabled":false,"rental_uris":{"android":"levelo://app?vid=a1c9f5ec-306f-4db8-b9f5-26ded705d57b","ios":"levelo://app?vid=a1c9f5ec-306f-4db8-b9f5-26ded705d57b"},"vehicle_type_id":"4","last_reported":1700334274,"current_range_meters":14800,"station_id":"ce4bh692rcd13ifvqea0","pricing_plan_id":"free"},{"bike_id":"d51c3668-08f8-4141-aee2-18d50ba64d8a","system_id":"levelo_inurba_marseille","lat":43.292644,"lon":5.384257,"is_reserved":false,"is_disabled":false,"rental_uris":{"android":"levelo://app?vid=d51c3668-08f8-4141-aee2-18d50ba64d8a","ios":"levelo://app?vid=d51c3668-08f8-4141-aee2-18d50ba64d8a"},"vehicle_type_id":"4","last_reported":1700334274,"current_range_meters":13200,"station_id":"ce4bh692rcd13ifvqea0","pricing_plan_id":"free"},{"bike_id":"778f6edd-0bab-4cd6-9a3c-103189680359","system_id":"levelo_inurba_marseille","lat":43.292644,"lon":5.384257,"is_reserved":false,"is_disabled":false,"rental_uris":{"android":"levelo://app?vid=778f6edd-0bab-4cd6-9a3c-103189680359","ios":"levelo://app?vid=778f6edd-0bab-4cd6-9a3c-103189680359"},"vehicle_type_id":"4","last_reported":1700334274,"current_range_meters":19200,"station_id":"ce4bh692rcd13ifvqea0","pricing_plan_id":"free"},{"bike_id":"a9cdf437-c542-433e-8008-b17d38b01f3d","system_id":"levelo_inurba_marseille","lat":43.292644,"lon":5.384257,"is_reserved":false,"is_disabled":false,"rental_uris":{"android":"levelo://app?vid=a9cdf437-c542-433e-8008-b17d38b01f3d","ios":"levelo://app?vid=a9cdf437-c542-433e-8008-b17d38b01f3d"},"vehicle_type_id":"4","last_reported":1700334274,"current_range_meters":13200,"station_id":"ce4bh692rcd13ifvqea0","pricing_plan_id":"free"},{"bike_id":"f0fe8afc-75e5-4f07-a56e-68d61769a386","system_id":"levelo_inurba_marseille","lat":43.330442,"lon":5.389148,"is_reserved":false,"is_disabled":false,"rental_uris":{"android":"levelo://app?vid=f0fe8afc-75e5-4f07-a56e-68d61769a386","ios":"levelo://app?vid=f0fe8afc-75e5-4f07-a56e-68d61769a386"},"vehicle_type_id":"4","last_reported":1700334274,"current_range_meters":18800,"station_id":"ce4bhr92rcd13ifvqhrg","pricing_plan_id":"free"},{"bike_id":"0e307cd0-4ba9-4a37-8bce-b4d5ea6ea795","system_id":"levelo_inurba_marseille","lat":43.29006,"lon":5.35623,"is_reserved":false,"is_disabled":false,"rental_uris":{"android":"levelo://app?vid=0e307cd0-4ba9-4a37-8bce-b4d5ea6ea795","ios":"levelo://app?vid=0e307cd0-4ba9-4a37-8bce-b4d5ea6ea795"},"vehicle_type_id":"4","last_reported":1700334274,"current_range_meters":0,"station_id":"ce4bhb92rcd13ifvqen0","pricing_plan_id":"free"},{"bike_id":"bdee8e56-0b6f-4643-8dd3-be4581f3b1ca","system_id":"levelo_inurba_marseille","lat":43.290995,"lon":5.381361,"is_reserved":false,"is_disabled":false,"rental_uris":{"android":"levelo://app?vid=bdee8e56-0b6f-4643-8dd3-be4581f3b1ca","ios":"levelo://app?vid=bdee8e56-0b6f-4643-8dd3-be4581f3b1ca"},"vehicle_type_id":"4","last_reported":1700334274,"current_range_meters":16400,"station_id":"ce4bh512rcd13ifvqe2g","pricing_plan_id":"free"},{"bike_id":"1ff79a42-86b4-42c8-9dbd-01c25144044a","system_id":"levelo_inurba_marseille","lat":43.29774,"lon":5.39358,"is_reserved":false,"is_disabled":false,"rental_uris":{"android":"levelo://app?vid=1ff79a42-86b4-42c8-9dbd-01c25144044a","ios":"levelo://app?vid=1ff79a42-86b4-42c8-9dbd-01c25144044a"},"vehicle_type_id":"4","last_reported":1700334274,"current_range_meters":13600,"station_id":"chh1huq6cuj3fo74tm60","pricing_plan_id":"free"},{"bike_id":"ca6152f5-8d97-40f1-8bec-8263fbd122e6","system_id":"levelo_inurba_marseille","lat":43.2901,"lon":5.381269,"is_reserved":false,"is_disabled":false,"rental_uris":{"android":"levelo://app?vid=ca6152f5-8d97-40f1-8bec-8263fbd122e6","ios":"levelo://app?vid=ca6152f5-8d97-40f1-8bec-8263fbd122e6"},"vehicle_type_id":"4","last_reported":1700334274,"current_range_meters":5600,"station_id":"ce4bh4p2rcd13ifvqe1g","pricing_plan_id":"free"},{"bike_id":"d080f360-afc1-4313-8004-ef474e52851b","system_id":"levelo_inurba_marseille","lat":43.28856,"lon":5.358371,"is_reserved":false,"is_disabled":false,"rental_uris":{"android":"levelo://app?vid=d080f360-afc1-4313-8004-ef474e52851b","ios":"levelo://app?vid=d080f360-afc1-4313-8004-ef474e52851b"},"vehicle_type_id":"4","last_reported":1700334274,"current_range_meters":18000,"station_id":"ce4bhb12rcd13ifvqem0","pricing_plan_id":"free"},{"bike_id":"07202f70-50d7-46f0-a5bd-59712659d6a0","system_id":"levelo_inurba_marseille","lat":43.31251,"lon":5.40162,"is_reserved":false,"is_disabled":false,"rental_uris":{"android":"levelo://app?vid=07202f70-50d7-46f0-a5bd-59712659d6a0","ios":"levelo://app?vid=07202f70-50d7-46f0-a5bd-59712659d6a0"},"vehicle_type_id":"4","last_reported":1700334274,"current_range_meters":14000,"station_id":"","pricing_plan_id":"free"},{"bike_id":"ca6c4e2c-5e89-496e-955a-b2aa6e9f4a4c","system_id":"levelo_inurba_marseille","lat":43.29163,"lon":5.38607,"is_reserved":false,"is_disabled":false,"rental_uris":{"android":"levelo://app?vid=ca6c4e2c-5e89-496e-955a-b2aa6e9f4a4c","ios":"levelo://app?vid=ca6c4e2c-5e89-496e-955a-b2aa6e9f4a4c"},"vehicle_type_id":"4","last_reported":1700334274,"current_range_meters":28000,"station_id":"","pricing_plan_id":"free"},{"bike_id":"56636252-cdec-4ec3-8d69-90866c7cdb8c","system_id":"levelo_inurba_marseille","lat":43.3127,"lon":5.401722,"is_reserved":false,"is_disabled":false,"rental_uris":{"android":"levelo://app?vid=56636252-cdec-4ec3-8d69-90866c7cdb8c","ios":"levelo://app?vid=56636252-cdec-4ec3-8d69-90866c7cdb8c"},"vehicle_type_id":"4","last_reported":1700334274,"current_range_meters":2400,"station_id":"","pricing_plan_id":"free"},{"bike_id":"6b9befe1-52d4-46ac-b47e-5e9e1f600595","system_id":"levelo_inurba_marseille","lat":43.306412,"lon":5.401035,"is_reserved":false,"is_disabled":false,"rental_uris":{"android":"levelo://app?vid=6b9befe1-52d4-46ac-b47e-5e9e1f600595","ios":"levelo://app?vid=6b9befe1-52d4-46ac-b47e-5e9e1f600595"},"vehicle_type_id":"4","last_reported":1700334274,"current_range_meters":10400,"station_id":"ce4bh112rcd13ifvqda0","pricing_plan_id":"free"},{"bike_id":"01415aa6-4d5e-4406-a413-0fd7c809c541","system_id":"levelo_inurba_marseille","lat":43.28727,"lon":5.36078,"is_reserved":false,"is_disabled":false,"rental_uris":{"android":"levelo://app?vid=01415aa6-4d5e-4406-a413-0fd7c809c541","ios":"levelo://app?vid=01415aa6-4d5e-4406-a413-0fd7c809c541"},"vehicle_type_id":"4","last_reported":1700334274,"current_range_meters":4800,"station_id":"cki0cbj6b192h4jlfktg","pricing_plan_id":"free"},{"bike_id":"b3b31a9c-2b06-4731-a6fe-886992b25751","system_id":"levelo_inurba_marseille","lat":43.28722,"lon":5.360853,"is_reserved":false,"is_disabled":false,"rental_uris":{"android":"levelo://app?vid=b3b31a9c-2b06-4731-a6fe-886992b25751","ios":"levelo://app?vid=b3b31a9c-2b06-4731-a6fe-886992b25751"},"vehicle_type_id":"4","last_reported":1700334274,"current_range_meters":31200,"station_id":"cki0cbj6b192h4jlfktg","pricing_plan_id":"free"},{"bike_id":"fdc002b3-f895-405c-bba7-f7a5be5f3d94","system_id":"levelo_inurba_marseille","lat":43.286591,"lon":5.363346,"is_reserved":false,"is_disabled":false,"rental_uris":{"android":"levelo://app?vid=fdc002b3-f895-405c-bba7-f7a5be5f3d94","ios":"levelo://app?vid=fdc002b3-f895-405c-bba7-f7a5be5f3d94"},"vehicle_type_id":"4","last_reported":1700334274,"current_range_meters":6400,"station_id":"ce4bhah2rcd13ifvqej0","pricing_plan_id":"free"},{"bike_id":"baf0a8f3-d0be-4542-a7fd-1eac95332f75","system_id":"levelo_inurba_marseille","lat":43.298681,"lon":5.397225,"is_reserved":false,"is_disabled":false,"rental_uris":{"android":"levelo://app?vid=baf0a8f3-d0be-4542-a7fd-1eac95332f75","ios":"levelo://app?vid=baf0a8f3-d0be-4542-a7fd-1eac95332f75"},"vehicle_type_id":"4","last_reported":1700334274,"current_range_meters":0,"station_id":"ce4bh0h2rcd13ifvqd50","pricing_plan_id":"free"},{"bike_id":"a73bdced-64d8-43ca-a3b6-ea3e35d6d68b","system_id":"levelo_inurba_marseille","lat":43.298681,"lon":5.397225,"is_reserved":false,"is_disabled":false,"rental_uris":{"android":"levelo://app?vid=a73bdced-64d8-43ca-a3b6-ea3e35d6d68b","ios":"levelo://app?vid=a73bdced-64d8-43ca-a3b6-ea3e35d6d68b"},"vehicle_type_id":"4","last_reported":1700334274,"current_range_meters":0,"station_id":"ce4bh0h2rcd13ifvqd50","pricing_plan_id":"free"},{"bike_id":"b080d147-b309-4867-aadb-604704f504d9","system_id":"levelo_inurba_marseille","lat":43.298681,"lon":5.397225,"is_reserved":false,"is_disabled":false,"rental_uris":{"android":"levelo://app?vid=b080d147-b309-4867-aadb-604704f504d9","ios":"levelo://app?vid=b080d147-b309-4867-aadb-604704f504d9"},"vehicle_type_id":"4","last_reported":1700334274,"current_range_meters":14000,"station_id":"ce4bh0h2rcd13ifvqd50","pricing_plan_id":"free"},{"bike_id":"6fb1fd72-fe7f-4971-81e3-57e08d78144f","system_id":"levelo_inurba_marseille","lat":43.286591,"lon":5.363346,"is_reserved":false,"is_disabled":false,"rental_uris":{"android":"levelo://app?vid=6fb1fd72-fe7f-4971-81e3-57e08d78144f","ios":"levelo://app?vid=6fb1fd72-fe7f-4971-81e3-57e08d78144f"},"vehicle_type_id":"4","last_reported":1700334274,"current_range_meters":4800,"station_id":"ce4bhah2rcd13ifvqej0","pricing_plan_id":"free"},{"bike_id":"1e2d9713-0cc0-486c-b1f6-a6f7a2c3f226","system_id":"levelo_inurba_marseille","lat":43.295196,"lon":5.39397,"is_reserved":false,"is_disabled":false,"rental_uris":{"android":"levelo://app?vid=1e2d9713-0cc0-486c-b1f6-a6f7a2c3f226","ios":"levelo://app?vid=1e2d9713-0cc0-486c-b1f6-a6f7a2c3f226"},"vehicle_type_id":"4","last_reported":1700334274,"current_range_meters":6400,"station_id":"ce4bh292rcd13ifvqdf0","pricing_plan_id":"free"},{"bike_id":"51d8888b-dc73-4048-a0bd-fefc07b24eb1","system_id":"levelo_inurba_marseille","lat":43.295196,"lon":5.39397,"is_reserved":false,"is_disabled":false,"rental_uris":{"android":"levelo://app?vid=51d8888b-dc73-4048-a0bd-fefc07b24eb1","ios":"levelo://app?vid=51d8888b-dc73-4048-a0bd-fefc07b24eb1"},"vehicle_type_id":"4","last_reported":1700334274,"current_range_meters":4400,"station_id":"ce4bh292rcd13ifvqdf0","pricing_plan_id":"free"},{"bike_id":"1076b402-a798-4432-9626-88c2d8c024fb","system_id":"levelo_inurba_marseille","lat":43.29045,"lon":5.38645,"is_reserved":false,"is_disabled":false,"rental_uris":{"android":"levelo://app?vid=1076b402-a798-4432-9626-88c2d8c024fb","ios":"levelo://app?vid=1076b402-a798-4432-9626-88c2d8c024fb"},"vehicle_type_id":"4","last_reported":1700334274,"current_range_meters":9200,"station_id":"ce4bh4p2rcd13ifvqe0g","pricing_plan_id":"free"},{"bike_id":"e172977f-6c2f-4f90-911c-8442b51b4347","system_id":"levelo_inurba_marseille","lat":43.29041,"lon":5.38647,"is_reserved":false,"is_disabled":false,"rental_uris":{"android":"levelo://app?vid=e172977f-6c2f-4f90-911c-8442b51b4347","ios":"levelo://app?vid=e172977f-6c2f-4f90-911c-8442b51b4347"},"vehicle_type_id":"4","last_reported":1700334274,"current_range_meters":21600,"station_id":"ce4bh4p2rcd13ifvqe0g","pricing_plan_id":"free"},{"bike_id":"df78068f-e8e3-43c9-b567-b5dee64dfe92","system_id":"levelo_inurba_marseille","lat":43.29033,"lon":5.38642,"is_reserved":false,"is_disabled":false,"rental_uris":{"android":"levelo://app?vid=df78068f-e8e3-43c9-b567-b5dee64dfe92","ios":"levelo://app?vid=df78068f-e8e3-43c9-b567-b5dee64dfe92"},"vehicle_type_id":"4","last_reported":1700334274,"current_range_meters":14800,"station_id":"ce4bh4p2rcd13ifvqe0g","pricing_plan_id":"free"},{"bike_id":"29e56e8c-0496-4278-bdc0-d25824e51f79","system_id":"levelo_inurba_marseille","lat":43.290303,"lon":5.3864,"is_reserved":false,"is_disabled":false,"rental_uris":{"android":"levelo://app?vid=29e56e8c-0496-4278-bdc0-d25824e51f79","ios":"levelo://app?vid=29e56e8c-0496-4278-bdc0-d25824e51f79"},"vehicle_type_id":"4","last_reported":1700334274,"current_range_meters":16800,"station_id":"ce4bh4p2rcd13ifvqe0g","pricing_plan_id":"free"},{"bike_id":"93609875-81b4-4c37-8660-ab42aaa5c278","system_id":"levelo_inurba_marseille","lat":43.302759,"lon":5.400793,"is_reserved":false,"is_disabled":false,"rental_uris":{"android":"levelo://app?vid=93609875-81b4-4c37-8660-ab42aaa5c278","ios":"levelo://app?vid=93609875-81b4-4c37-8660-ab42aaa5c278"},"vehicle_type_id":"4","last_reported":1700334274,"current_range_meters":0,"station_id":"ce4bgvh2rcd13ifvqcs0","pricing_plan_id":"free"},{"bike_id":"f4d84116-d5ac-43fc-b73e-b25f7431ab6e","system_id":"levelo_inurba_marseille","lat":43.286039,"lon":5.370679,"is_reserved":false,"is_disabled":false,"rental_uris":{"android":"levelo://app?vid=f4d84116-d5ac-43fc-b73e-b25f7431ab6e","ios":"levelo://app?vid=f4d84116-d5ac-43fc-b73e-b25f7431ab6e"},"vehicle_type_id":"4","last_reported":1700334274,"current_range_meters":23200,"station_id":"ce4bht12rcd13ifvqi60","pricing_plan_id":"free"},{"bike_id":"c481e3ed-bd70-4aa7-a2e1-bd468838a7f2","system_id":"levelo_inurba_marseille","lat":43.28765,"lon":5.37977,"is_reserved":false,"is_disabled":false,"rental_uris":{"android":"levelo://app?vid=c481e3ed-bd70-4aa7-a2e1-bd468838a7f2","ios":"levelo://app?vid=c481e3ed-bd70-4aa7-a2e1-bd468838a7f2"},"vehicle_type_id":"4","last_reported":1700334274,"current_range_meters":1200,"station_id":"","pricing_plan_id":"free"},{"bike_id":"ceef56d8-2172-4c9e-b5a0-525b6b25e56c","system_id":"levelo_inurba_marseille","lat":43.286039,"lon":5.370681,"is_reserved":false,"is_disabled":false,"rental_uris":{"android":"levelo://app?vid=ceef56d8-2172-4c9e-b5a0-525b6b25e56c","ios":"levelo://app?vid=ceef56d8-2172-4c9e-b5a0-525b6b25e56c"},"vehicle_type_id":"4","last_reported":1700334274,"current_range_meters":2800,"station_id":"ce4bht12rcd13ifvqi60","pricing_plan_id":"free"},{"bike_id":"3a10a09f-53ef-40ce-8b99-221792831c4b","system_id":"levelo_inurba_marseille","lat":43.286039,"lon":5.370681,"is_reserved":false,"is_disabled":false,"rental_uris":{"android":"levelo://app?vid=3a10a09f-53ef-40ce-8b99-221792831c4b","ios":"levelo://app?vid=3a10a09f-53ef-40ce-8b99-221792831c4b"},"vehicle_type_id":"4","last_reported":1700334274,"current_range_meters":10000,"station_id":"ce4bht12rcd13ifvqi60","pricing_plan_id":"free"},{"bike_id":"5ec32a94-8377-411f-a171-34717c7f12ad","system_id":"levelo_inurba_marseille","lat":43.287185,"lon":5.379373,"is_reserved":false,"is_disabled":false,"rental_uris":{"android":"levelo://app?vid=5ec32a94-8377-411f-a171-34717c7f12ad","ios":"levelo://app?vid=5ec32a94-8377-411f-a171-34717c7f12ad"},"vehicle_type_id":"4","last_reported":1700334274,"current_range_meters":19600,"station_id":"ce4bh9p2rcd13ifvqec0","pricing_plan_id":"free"},{"bike_id":"f4c84996-9796-435a-829c-bc45a6d3684b","system_id":"levelo_inurba_marseille","lat":43.287184,"lon":5.37937,"is_reserved":false,"is_disabled":false,"rental_uris":{"android":"levelo://app?vid=f4c84996-9796-435a-829c-bc45a6d3684b","ios":"levelo://app?vid=f4c84996-9796-435a-829c-bc45a6d3684b"},"vehicle_type_id":"4","last_reported":1700334274,"current_range_meters":5200,"station_id":"ce4bh9p2rcd13ifvqec0","pricing_plan_id":"free"},{"bike_id":"6bed2bda-9df5-4bf4-a3c2-96acf0df3abe","system_id":"levelo_inurba_marseille","lat":43.291994,"lon":5.392907,"is_reserved":false,"is_disabled":false,"rental_uris":{"android":"levelo://app?vid=6bed2bda-9df5-4bf4-a3c2-96acf0df3abe","ios":"levelo://app?vid=6bed2bda-9df5-4bf4-a3c2-96acf0df3abe"},"vehicle_type_id":"4","last_reported":1700334274,"current_range_meters":15200,"station_id":"ce4bh192rcd13ifvqdd0","pricing_plan_id":"free"},{"bike_id":"0a12431e-fe41-4c97-aca8-58b575d6bdbe","system_id":"levelo_inurba_marseille","lat":43.291994,"lon":5.392907,"is_reserved":false,"is_disabled":false,"rental_uris":{"android":"levelo://app?vid=0a12431e-fe41-4c97-aca8-58b575d6bdbe","ios":"levelo://app?vid=0a12431e-fe41-4c97-aca8-58b575d6bdbe"},"vehicle_type_id":"4","last_reported":1700334274,"current_range_meters":24400,"station_id":"ce4bh192rcd13ifvqdd0","pricing_plan_id":"free"},{"bike_id":"f978776c-5598-4584-a1de-919c9b5f5030","system_id":"levelo_inurba_marseille","lat":43.291994,"lon":5.392907,"is_reserved":false,"is_disabled":false,"rental_uris":{"android":"levelo://app?vid=f978776c-5598-4584-a1de-919c9b5f5030","ios":"levelo://app?vid=f978776c-5598-4584-a1de-919c9b5f5030"},"vehicle_type_id":"4","last_reported":1700334274,"current_range_meters":12400,"station_id":"ce4bh192rcd13ifvqdd0","pricing_plan_id":"free"},{"bike_id":"0b46b1b4-f42b-4e67-9aef-2797da64a2b5","system_id":"levelo_inurba_marseille","lat":43.331167,"lon":5.39681,"is_reserved":false,"is_disabled":false,"rental_uris":{"android":"levelo://app?vid=0b46b1b4-f42b-4e67-9aef-2797da64a2b5","ios":"levelo://app?vid=0b46b1b4-f42b-4e67-9aef-2797da64a2b5"},"vehicle_type_id":"4","last_reported":1700334274,"current_range_meters":17600,"station_id":"","pricing_plan_id":"free"},{"bike_id":"5ad3762e-98c7-4713-b667-13446714c1da","system_id":"levelo_inurba_marseille","lat":43.28622,"lon":5.35111,"is_reserved":false,"is_disabled":false,"rental_uris":{"android":"levelo://app?vid=5ad3762e-98c7-4713-b667-13446714c1da","ios":"levelo://app?vid=5ad3762e-98c7-4713-b667-13446714c1da"},"vehicle_type_id":"4","last_reported":1700334274,"current_range_meters":25200,"station_id":"ce4bhch2rcd13ifvqeug","pricing_plan_id":"free"},{"bike_id":"d94dfb15-e572-4e59-af3c-ee7cbd62cef5","system_id":"levelo_inurba_marseille","lat":43.295717,"lon":5.399697,"is_reserved":false,"is_disabled":false,"rental_uris":{"android":"levelo://app?vid=d94dfb15-e572-4e59-af3c-ee7cbd62cef5","ios":"levelo://app?vid=d94dfb15-e572-4e59-af3c-ee7cbd62cef5"},"vehicle_type_id":"4","last_reported":1700334274,"current_range_meters":12800,"station_id":"","pricing_plan_id":"free"},{"bike_id":"ca464a22-0025-4eb3-a693-ac47455ad253","system_id":"levelo_inurba_marseille","lat":43.295713,"lon":5.399639,"is_reserved":false,"is_disabled":false,"rental_uris":{"android":"levelo://app?vid=ca464a22-0025-4eb3-a693-ac47455ad253","ios":"levelo://app?vid=ca464a22-0025-4eb3-a693-ac47455ad253"},"vehicle_type_id":"4","last_reported":1700334274,"current_range_meters":2400,"station_id":"ce4bh312rcd13ifvqdj0","pricing_plan_id":"free"},{"bike_id":"83817918-40fc-48a0-b4d2-4ca9f198594c","system_id":"levelo_inurba_marseille","lat":43.294538,"lon":5.39855,"is_reserved":false,"is_disabled":false,"rental_uris":{"android":"levelo://app?vid=83817918-40fc-48a0-b4d2-4ca9f198594c","ios":"levelo://app?vid=83817918-40fc-48a0-b4d2-4ca9f198594c"},"vehicle_type_id":"4","last_reported":1700334274,"current_range_meters":0,"station_id":"","pricing_plan_id":"free"},{"bike_id":"2ab4b9a4-92b6-47bb-acbd-d2803aba66a2","system_id":"levelo_inurba_marseille","lat":43.283998,"lon":5.375062,"is_reserved":false,"is_disabled":false,"rental_uris":{"android":"levelo://app?vid=2ab4b9a4-92b6-47bb-acbd-d2803aba66a2","ios":"levelo://app?vid=2ab4b9a4-92b6-47bb-acbd-d2803aba66a2"},"vehicle_type_id":"4","last_reported":1700334274,"current_range_meters":4000,"station_id":"ce4bh412rcd13ifvqds0","pricing_plan_id":"free"},{"bike_id":"5974ad3b-da81-42ca-a08b-1b3632a47afa","system_id":"levelo_inurba_marseille","lat":43.33237,"lon":5.3985,"is_reserved":false,"is_disabled":false,"rental_uris":{"android":"levelo://app?vid=5974ad3b-da81-42ca-a08b-1b3632a47afa","ios":"levelo://app?vid=5974ad3b-da81-42ca-a08b-1b3632a47afa"},"vehicle_type_id":"4","last_reported":1700334274,"current_range_meters":4400,"station_id":"","pricing_plan_id":"free"},{"bike_id":"3602b74d-bc5d-4276-85ce-c45681ab1737","system_id":"levelo_inurba_marseille","lat":43.33717,"lon":5.391857,"is_reserved":false,"is_disabled":false,"rental_uris":{"android":"levelo://app?vid=3602b74d-bc5d-4276-85ce-c45681ab1737","ios":"levelo://app?vid=3602b74d-bc5d-4276-85ce-c45681ab1737"},"vehicle_type_id":"4","last_reported":1700334274,"current_range_meters":20400,"station_id":"ce4bhr92rcd13ifvqhsg","pricing_plan_id":"free"},{"bike_id":"6364147f-5b0d-4e52-9491-e43b350f5c7a","system_id":"levelo_inurba_marseille","lat":43.33717,"lon":5.391857,"is_reserved":false,"is_disabled":false,"rental_uris":{"android":"levelo://app?vid=6364147f-5b0d-4e52-9491-e43b350f5c7a","ios":"levelo://app?vid=6364147f-5b0d-4e52-9491-e43b350f5c7a"},"vehicle_type_id":"4","last_reported":1700334274,"current_range_meters":14000,"station_id":"ce4bhr92rcd13ifvqhsg","pricing_plan_id":"free"},{"bike_id":"ea3b5648-f090-41e6-b2bb-8c8be19c5099","system_id":"levelo_inurba_marseille","lat":43.323464,"lon":5.406297,"is_reserved":false,"is_disabled":false,"rental_uris":{"android":"levelo://app?vid=ea3b5648-f090-41e6-b2bb-8c8be19c5099","ios":"levelo://app?vid=ea3b5648-f090-41e6-b2bb-8c8be19c5099"},"vehicle_type_id":"4","last_reported":1700334274,"current_range_meters":4400,"station_id":"ce4bhq92rcd13ifvqhjg","pricing_plan_id":"free"},{"bike_id":"fba4ddfc-6c40-4380-91ed-3312cbd519f9","system_id":"levelo_inurba_marseille","lat":43.284787,"lon":5.384116,"is_reserved":false,"is_disabled":false,"rental_uris":{"android":"levelo://app?vid=fba4ddfc-6c40-4380-91ed-3312cbd519f9","ios":"levelo://app?vid=fba4ddfc-6c40-4380-91ed-3312cbd519f9"},"vehicle_type_id":"4","last_reported":1700334274,"current_range_meters":0,"station_id":"ce4bh512rcd13ifvqe3g","pricing_plan_id":"free"},{"bike_id":"353e1403-fe5a-4945-a757-93684f01c485","system_id":"levelo_inurba_marseille","lat":43.284787,"lon":5.384116,"is_reserved":false,"is_disabled":false,"rental_uris":{"android":"levelo://app?vid=353e1403-fe5a-4945-a757-93684f01c485","ios":"levelo://app?vid=353e1403-fe5a-4945-a757-93684f01c485"},"vehicle_type_id":"4","last_reported":1700334274,"current_range_meters":12000,"station_id":"ce4bh512rcd13ifvqe3g","pricing_plan_id":"free"},{"bike_id":"93bf329f-a672-445c-a1d0-8a796358270a","system_id":"levelo_inurba_marseille","lat":43.284793,"lon":5.384119,"is_reserved":false,"is_disabled":false,"rental_uris":{"android":"levelo://app?vid=93bf329f-a672-445c-a1d0-8a796358270a","ios":"levelo://app?vid=93bf329f-a672-445c-a1d0-8a796358270a"},"vehicle_type_id":"4","last_reported":1700334274,"current_range_meters":0,"station_id":"ce4bh512rcd13ifvqe3g","pricing_plan_id":"free"},{"bike_id":"d7bf75f9-cb27-4740-93e9-91424690a0d3","system_id":"levelo_inurba_marseille","lat":43.29041,"lon":5.399634,"is_reserved":false,"is_disabled":false,"rental_uris":{"android":"levelo://app?vid=d7bf75f9-cb27-4740-93e9-91424690a0d3","ios":"levelo://app?vid=d7bf75f9-cb27-4740-93e9-91424690a0d3"},"vehicle_type_id":"4","last_reported":1700334274,"current_range_meters":18000,"station_id":"ce4bh392rcd13ifvqdm0","pricing_plan_id":"free"},{"bike_id":"d3dd3e3d-57b0-4c9e-949f-fddd56c2349c","system_id":"levelo_inurba_marseille","lat":43.32521,"lon":5.40575,"is_reserved":false,"is_disabled":false,"rental_uris":{"android":"levelo://app?vid=d3dd3e3d-57b0-4c9e-949f-fddd56c2349c","ios":"levelo://app?vid=d3dd3e3d-57b0-4c9e-949f-fddd56c2349c"},"vehicle_type_id":"4","last_reported":1700334274,"current_range_meters":1200,"station_id":"","pricing_plan_id":"free"},{"bike_id":"6d4f5787-1853-47a1-8545-237452c29ee8","system_id":"levelo_inurba_marseille","lat":43.283494,"lon":5.380945,"is_reserved":false,"is_disabled":false,"rental_uris":{"android":"levelo://app?vid=6d4f5787-1853-47a1-8545-237452c29ee8","ios":"levelo://app?vid=6d4f5787-1853-47a1-8545-237452c29ee8"},"vehicle_type_id":"4","last_reported":1700334274,"current_range_meters":1600,"station_id":"ce4bh412rcd13ifvqdr0","pricing_plan_id":"free"},{"bike_id":"b54a5be1-3206-463d-a51e-a2c085cd81c5","system_id":"levelo_inurba_marseille","lat":43.28271,"lon":5.35054,"is_reserved":false,"is_disabled":false,"rental_uris":{"android":"levelo://app?vid=b54a5be1-3206-463d-a51e-a2c085cd81c5","ios":"levelo://app?vid=b54a5be1-3206-463d-a51e-a2c085cd81c5"},"vehicle_type_id":"4","last_reported":1700334274,"current_range_meters":0,"station_id":"ce4bhbp2rcd13ifvqerg","pricing_plan_id":"free"},{"bike_id":"f3fee174-b6d3-4eee-82ac-2f61292388f8","system_id":"levelo_inurba_marseille","lat":43.282744,"lon":5.350533,"is_reserved":false,"is_disabled":false,"rental_uris":{"android":"levelo://app?vid=f3fee174-b6d3-4eee-82ac-2f61292388f8","ios":"levelo://app?vid=f3fee174-b6d3-4eee-82ac-2f61292388f8"},"vehicle_type_id":"4","last_reported":1700334274,"current_range_meters":800,"station_id":"ce4bhbp2rcd13ifvqerg","pricing_plan_id":"free"},{"bike_id":"3daffaab-ff1d-4009-b78b-7beae52cc7a4","system_id":"levelo_inurba_marseille","lat":43.280382,"lon":5.369291,"is_reserved":false,"is_disabled":false,"rental_uris":{"android":"levelo://app?vid=3daffaab-ff1d-4009-b78b-7beae52cc7a4","ios":"levelo://app?vid=3daffaab-ff1d-4009-b78b-7beae52cc7a4"},"vehicle_type_id":"4","last_reported":1700334274,"current_range_meters":20000,"station_id":"ce4bha12rcd13ifvqef0","pricing_plan_id":"free"},{"bike_id":"bd15f3fb-de4c-4658-bbc7-f1e42e1ace48","system_id":"levelo_inurba_marseille","lat":43.28039,"lon":5.369297,"is_reserved":false,"is_disabled":false,"rental_uris":{"android":"levelo://app?vid=bd15f3fb-de4c-4658-bbc7-f1e42e1ace48","ios":"levelo://app?vid=bd15f3fb-de4c-4658-bbc7-f1e42e1ace48"},"vehicle_type_id":"4","last_reported":1700334274,"current_range_meters":6400,"station_id":"ce4bha12rcd13ifvqef0","pricing_plan_id":"free"},{"bike_id":"b97592bd-7dda-471c-a26e-5f6f0314ae37","system_id":"levelo_inurba_marseille","lat":43.281044,"lon":5.378308,"is_reserved":false,"is_disabled":false,"rental_uris":{"android":"levelo://app?vid=b97592bd-7dda-471c-a26e-5f6f0314ae37","ios":"levelo://app?vid=b97592bd-7dda-471c-a26e-5f6f0314ae37"},"vehicle_type_id":"4","last_reported":1700334274,"current_range_meters":18000,"station_id":"ce4bha12rcd13ifvqee0","pricing_plan_id":"free"},{"bike_id":"b78260bb-fa4d-4763-af9a-9bcd2ed34ce6","system_id":"levelo_inurba_marseille","lat":43.290412,"lon":5.399633,"is_reserved":false,"is_disabled":false,"rental_uris":{"android":"levelo://app?vid=b78260bb-fa4d-4763-af9a-9bcd2ed34ce6","ios":"levelo://app?vid=b78260bb-fa4d-4763-af9a-9bcd2ed34ce6"},"vehicle_type_id":"4","last_reported":1700334274,"current_range_meters":7200,"station_id":"ce4bh392rcd13ifvqdm0","pricing_plan_id":"free"},{"bike_id":"228f7bec-55cc-48fb-a404-5af921f84eb2","system_id":"levelo_inurba_marseille","lat":43.290412,"lon":5.399633,"is_reserved":false,"is_disabled":false,"rental_uris":{"android":"levelo://app?vid=228f7bec-55cc-48fb-a404-5af921f84eb2","ios":"levelo://app?vid=228f7bec-55cc-48fb-a404-5af921f84eb2"},"vehicle_type_id":"4","last_reported":1700334274,"current_range_meters":1600,"station_id":"ce4bh392rcd13ifvqdm0","pricing_plan_id":"free"},{"bike_id":"a675bbe1-3da6-4d04-b1df-072fcb12b1d8","system_id":"levelo_inurba_marseille","lat":43.28106,"lon":5.37836,"is_reserved":false,"is_disabled":false,"rental_uris":{"android":"levelo://app?vid=a675bbe1-3da6-4d04-b1df-072fcb12b1d8","ios":"levelo://app?vid=a675bbe1-3da6-4d04-b1df-072fcb12b1d8"},"vehicle_type_id":"4","last_reported":1700334274,"current_range_meters":13600,"station_id":"ce4bha12rcd13ifvqee0","pricing_plan_id":"free"},{"bike_id":"c94377fa-c0c8-4c0e-a70f-ab0946402494","system_id":"levelo_inurba_marseille","lat":43.281044,"lon":5.378308,"is_reserved":false,"is_disabled":false,"rental_uris":{"android":"levelo://app?vid=c94377fa-c0c8-4c0e-a70f-ab0946402494","ios":"levelo://app?vid=c94377fa-c0c8-4c0e-a70f-ab0946402494"},"vehicle_type_id":"4","last_reported":1700334274,"current_range_meters":8400,"station_id":"ce4bha12rcd13ifvqee0","pricing_plan_id":"free"},{"bike_id":"ccf9b17e-2fb6-47d5-b5cb-73ea08fcb6e5","system_id":"levelo_inurba_marseille","lat":43.28575,"lon":5.39498,"is_reserved":false,"is_disabled":false,"rental_uris":{"android":"levelo://app?vid=ccf9b17e-2fb6-47d5-b5cb-73ea08fcb6e5","ios":"levelo://app?vid=ccf9b17e-2fb6-47d5-b5cb-73ea08fcb6e5"},"vehicle_type_id":"4","last_reported":1700334274,"current_range_meters":0,"station_id":"ce4bh292rcd13ifvqdg0","pricing_plan_id":"free"},{"bike_id":"8924b6c5-e243-470f-866d-456ff62dcf96","system_id":"levelo_inurba_marseille","lat":43.285742,"lon":5.395004,"is_reserved":false,"is_disabled":false,"rental_uris":{"android":"levelo://app?vid=8924b6c5-e243-470f-866d-456ff62dcf96","ios":"levelo://app?vid=8924b6c5-e243-470f-866d-456ff62dcf96"},"vehicle_type_id":"4","last_reported":1700334274,"current_range_meters":31600,"station_id":"ce4bh292rcd13ifvqdg0","pricing_plan_id":"free"},{"bike_id":"906bc2c5-34e6-4aca-8168-5f82c0420294","system_id":"levelo_inurba_marseille","lat":43.28573,"lon":5.394992,"is_reserved":false,"is_disabled":false,"rental_uris":{"android":"levelo://app?vid=906bc2c5-34e6-4aca-8168-5f82c0420294","ios":"levelo://app?vid=906bc2c5-34e6-4aca-8168-5f82c0420294"},"vehicle_type_id":"4","last_reported":1700334274,"current_range_meters":29600,"station_id":"ce4bh292rcd13ifvqdg0","pricing_plan_id":"free"},{"bike_id":"3e152af0-af5a-4a3e-b3ef-57051af26297","system_id":"levelo_inurba_marseille","lat":43.28573,"lon":5.394992,"is_reserved":false,"is_disabled":false,"rental_uris":{"android":"levelo://app?vid=3e152af0-af5a-4a3e-b3ef-57051af26297","ios":"levelo://app?vid=3e152af0-af5a-4a3e-b3ef-57051af26297"},"vehicle_type_id":"4","last_reported":1700334274,"current_range_meters":16400,"station_id":"ce4bh292rcd13ifvqdg0","pricing_plan_id":"free"},{"bike_id":"10bd8538-9872-4554-81be-236c9fdf5015","system_id":"levelo_inurba_marseille","lat":43.326605,"lon":5.409903,"is_reserved":false,"is_disabled":false,"rental_uris":{"android":"levelo://app?vid=10bd8538-9872-4554-81be-236c9fdf5015","ios":"levelo://app?vid=10bd8538-9872-4554-81be-236c9fdf5015"},"vehicle_type_id":"4","last_reported":1700334274,"current_range_meters":27200,"station_id":"ce4bhpp2rcd13ifvqhgg","pricing_plan_id":"free"},{"bike_id":"6ddee06c-65d4-4dcb-b174-d8b06c59dbff","system_id":"levelo_inurba_marseille","lat":43.273613,"lon":5.362705,"is_reserved":false,"is_disabled":false,"rental_uris":{"android":"levelo://app?vid=6ddee06c-65d4-4dcb-b174-d8b06c59dbff","ios":"levelo://app?vid=6ddee06c-65d4-4dcb-b174-d8b06c59dbff"},"vehicle_type_id":"4","last_reported":1700334274,"current_range_meters":0,"station_id":"ce4bhbh2rcd13ifvqeo0","pricing_plan_id":"free"},{"bike_id":"4b4916c8-1a28-4104-83bf-b760f2971d77","system_id":"levelo_inurba_marseille","lat":43.304188,"lon":5.412904,"is_reserved":false,"is_disabled":false,"rental_uris":{"android":"levelo://app?vid=4b4916c8-1a28-4104-83bf-b760f2971d77","ios":"levelo://app?vid=4b4916c8-1a28-4104-83bf-b760f2971d77"},"vehicle_type_id":"4","last_reported":1700334274,"current_range_meters":22800,"station_id":"ce4bhop2rcd13ifvqh8g","pricing_plan_id":"free"},{"bike_id":"c5be3c2d-b375-445b-81bd-0b1293e3d8ed","system_id":"levelo_inurba_marseille","lat":43.304188,"lon":5.412904,"is_reserved":false,"is_disabled":false,"rental_uris":{"android":"levelo://app?vid=c5be3c2d-b375-445b-81bd-0b1293e3d8ed","ios":"levelo://app?vid=c5be3c2d-b375-445b-81bd-0b1293e3d8ed"},"vehicle_type_id":"4","last_reported":1700334274,"current_range_meters":8000,"station_id":"ce4bhop2rcd13ifvqh8g","pricing_plan_id":"free"},{"bike_id":"dec2bb74-7d32-439d-bed3-6fbf3701a0e5","system_id":"levelo_inurba_marseille","lat":43.279087,"lon":5.380114,"is_reserved":false,"is_disabled":false,"rental_uris":{"android":"levelo://app?vid=dec2bb74-7d32-439d-bed3-6fbf3701a0e5","ios":"levelo://app?vid=dec2bb74-7d32-439d-bed3-6fbf3701a0e5"},"vehicle_type_id":"4","last_reported":1700334274,"current_range_meters":9200,"station_id":"ce4bhf92rcd13ifvqf50","pricing_plan_id":"free"},{"bike_id":"f4a126b7-ca1d-41e5-94fa-6e607fc0c77e","system_id":"levelo_inurba_marseille","lat":43.279087,"lon":5.380114,"is_reserved":false,"is_disabled":false,"rental_uris":{"android":"levelo://app?vid=f4a126b7-ca1d-41e5-94fa-6e607fc0c77e","ios":"levelo://app?vid=f4a126b7-ca1d-41e5-94fa-6e607fc0c77e"},"vehicle_type_id":"4","last_reported":1700334274,"current_range_meters":18000,"station_id":"ce4bhf92rcd13ifvqf50","pricing_plan_id":"free"},{"bike_id":"8e9cebcc-1987-4348-87cf-10365cf07425","system_id":"levelo_inurba_marseille","lat":43.280795,"lon":5.387035,"is_reserved":false,"is_disabled":false,"rental_uris":{"android":"levelo://app?vid=8e9cebcc-1987-4348-87cf-10365cf07425","ios":"levelo://app?vid=8e9cebcc-1987-4348-87cf-10365cf07425"},"vehicle_type_id":"4","last_reported":1700334274,"current_range_meters":2400,"station_id":"","pricing_plan_id":"free"},{"bike_id":"592614bb-c992-4712-b75f-99ee994c9eaa","system_id":"levelo_inurba_marseille","lat":43.287154,"lon":5.399979,"is_reserved":false,"is_disabled":false,"rental_uris":{"android":"levelo://app?vid=592614bb-c992-4712-b75f-99ee994c9eaa","ios":"levelo://app?vid=592614bb-c992-4712-b75f-99ee994c9eaa"},"vehicle_type_id":"4","last_reported":1700334274,"current_range_meters":26800,"station_id":"ce4bho92rcd13ifvqh3g","pricing_plan_id":"free"},{"bike_id":"a0c463ba-cbce-41b9-bad8-2985d3567c36","system_id":"levelo_inurba_marseille","lat":43.287154,"lon":5.399979,"is_reserved":false,"is_disabled":false,"rental_uris":{"android":"levelo://app?vid=a0c463ba-cbce-41b9-bad8-2985d3567c36","ios":"levelo://app?vid=a0c463ba-cbce-41b9-bad8-2985d3567c36"},"vehicle_type_id":"4","last_reported":1700334274,"current_range_meters":30000,"station_id":"ce4bho92rcd13ifvqh3g","pricing_plan_id":"free"},{"bike_id":"feca28d2-7019-4e39-96be-d7938cc29597","system_id":"levelo_inurba_marseille","lat":43.32435,"lon":5.4137,"is_reserved":false,"is_disabled":false,"rental_uris":{"android":"levelo://app?vid=feca28d2-7019-4e39-96be-d7938cc29597","ios":"levelo://app?vid=feca28d2-7019-4e39-96be-d7938cc29597"},"vehicle_type_id":"4","last_reported":1700334274,"current_range_meters":0,"station_id":"","pricing_plan_id":"free"},{"bike_id":"9043566a-f7df-487e-8013-9678e9b6c2b5","system_id":"levelo_inurba_marseille","lat":43.320045,"lon":5.415048,"is_reserved":false,"is_disabled":false,"rental_uris":{"android":"levelo://app?vid=9043566a-f7df-487e-8013-9678e9b6c2b5","ios":"levelo://app?vid=9043566a-f7df-487e-8013-9678e9b6c2b5"},"vehicle_type_id":"4","last_reported":1700334274,"current_range_meters":12800,"station_id":"ce4bhq92rcd13ifvqhkg","pricing_plan_id":"free"},{"bike_id":"395f5d9f-ec73-4007-b2d5-d57edf225770","system_id":"levelo_inurba_marseille","lat":43.320045,"lon":5.415046,"is_reserved":false,"is_disabled":false,"rental_uris":{"android":"levelo://app?vid=395f5d9f-ec73-4007-b2d5-d57edf225770","ios":"levelo://app?vid=395f5d9f-ec73-4007-b2d5-d57edf225770"},"vehicle_type_id":"4","last_reported":1700334274,"current_range_meters":9600,"station_id":"ce4bhq92rcd13ifvqhkg","pricing_plan_id":"free"},{"bike_id":"06e55444-8c7b-4286-8721-edc4e2df61d8","system_id":"levelo_inurba_marseille","lat":43.27969,"lon":5.38737,"is_reserved":false,"is_disabled":false,"rental_uris":{"android":"levelo://app?vid=06e55444-8c7b-4286-8721-edc4e2df61d8","ios":"levelo://app?vid=06e55444-8c7b-4286-8721-edc4e2df61d8"},"vehicle_type_id":"4","last_reported":1700334274,"current_range_meters":0,"station_id":"ce4bhg12rcd13ifvqf80","pricing_plan_id":"free"},{"bike_id":"e88c9348-2ee8-47cc-8491-1673b2632d1a","system_id":"levelo_inurba_marseille","lat":43.27957,"lon":5.38708,"is_reserved":false,"is_disabled":false,"rental_uris":{"android":"levelo://app?vid=e88c9348-2ee8-47cc-8491-1673b2632d1a","ios":"levelo://app?vid=e88c9348-2ee8-47cc-8491-1673b2632d1a"},"vehicle_type_id":"4","last_reported":1700334274,"current_range_meters":0,"station_id":"ce4bhg12rcd13ifvqf80","pricing_plan_id":"free"},{"bike_id":"9d813253-84b6-4a8e-9ccb-76b69888cab3","system_id":"levelo_inurba_marseille","lat":43.325233,"lon":5.414318,"is_reserved":false,"is_disabled":false,"rental_uris":{"android":"levelo://app?vid=9d813253-84b6-4a8e-9ccb-76b69888cab3","ios":"levelo://app?vid=9d813253-84b6-4a8e-9ccb-76b69888cab3"},"vehicle_type_id":"4","last_reported":1700334274,"current_range_meters":18000,"station_id":"ce4bhq12rcd13ifvqhhg","pricing_plan_id":"free"},{"bike_id":"55118acd-67a3-4650-a017-364909cf9c18","system_id":"levelo_inurba_marseille","lat":43.277433,"lon":5.383595,"is_reserved":false,"is_disabled":false,"rental_uris":{"android":"levelo://app?vid=55118acd-67a3-4650-a017-364909cf9c18","ios":"levelo://app?vid=55118acd-67a3-4650-a017-364909cf9c18"},"vehicle_type_id":"4","last_reported":1700334274,"current_range_meters":0,"station_id":"","pricing_plan_id":"free"},{"bike_id":"aba18ede-dbdc-467d-a9b0-d6bfc986572d","system_id":"levelo_inurba_marseille","lat":43.280784,"lon":5.396622,"is_reserved":false,"is_disabled":false,"rental_uris":{"android":"levelo://app?vid=aba18ede-dbdc-467d-a9b0-d6bfc986572d","ios":"levelo://app?vid=aba18ede-dbdc-467d-a9b0-d6bfc986572d"},"vehicle_type_id":"4","last_reported":1700334274,"current_range_meters":800,"station_id":"ce4bho12rcd13ifvqh2g","pricing_plan_id":"free"},{"bike_id":"8700d69a-0c38-4964-9e94-5f4f926772bc","system_id":"levelo_inurba_marseille","lat":43.273613,"lon":5.362705,"is_reserved":false,"is_disabled":false,"rental_uris":{"android":"levelo://app?vid=8700d69a-0c38-4964-9e94-5f4f926772bc","ios":"levelo://app?vid=8700d69a-0c38-4964-9e94-5f4f926772bc"},"vehicle_type_id":"4","last_reported":1700334274,"current_range_meters":1200,"station_id":"ce4bhbh2rcd13ifvqeo0","pricing_plan_id":"free"},{"bike_id":"518af2e3-7a9e-4da2-a127-2a22bf7fb736","system_id":"levelo_inurba_marseille","lat":43.275625,"lon":5.384392,"is_reserved":false,"is_disabled":false,"rental_uris":{"android":"levelo://app?vid=518af2e3-7a9e-4da2-a127-2a22bf7fb736","ios":"levelo://app?vid=518af2e3-7a9e-4da2-a127-2a22bf7fb736"},"vehicle_type_id":"4","last_reported":1700334274,"current_range_meters":7200,"station_id":"ce4bhh92rcd13ifvqfi0","pricing_plan_id":"free"},{"bike_id":"47ee4542-796a-4471-bbfd-8b08271e2540","system_id":"levelo_inurba_marseille","lat":43.273609,"lon":5.362708,"is_reserved":false,"is_disabled":false,"rental_uris":{"android":"levelo://app?vid=47ee4542-796a-4471-bbfd-8b08271e2540","ios":"levelo://app?vid=47ee4542-796a-4471-bbfd-8b08271e2540"},"vehicle_type_id":"4","last_reported":1700334274,"current_range_meters":28800,"station_id":"ce4bhbh2rcd13ifvqeo0","pricing_plan_id":"free"},{"bike_id":"1c489e8f-9c52-4563-a1a2-18535a1743aa","system_id":"levelo_inurba_marseille","lat":43.279966,"lon":5.40015,"is_reserved":false,"is_disabled":false,"rental_uris":{"android":"levelo://app?vid=1c489e8f-9c52-4563-a1a2-18535a1743aa","ios":"levelo://app?vid=1c489e8f-9c52-4563-a1a2-18535a1743aa"},"vehicle_type_id":"4","last_reported":1700334274,"current_range_meters":30000,"station_id":"ce4bho92rcd13ifvqh4g","pricing_plan_id":"free"},{"bike_id":"e6d4981d-66fd-40f8-9520-f7addfae3aee","system_id":"levelo_inurba_marseille","lat":43.27995,"lon":5.40016,"is_reserved":false,"is_disabled":false,"rental_uris":{"android":"levelo://app?vid=e6d4981d-66fd-40f8-9520-f7addfae3aee","ios":"levelo://app?vid=e6d4981d-66fd-40f8-9520-f7addfae3aee"},"vehicle_type_id":"4","last_reported":1700334274,"current_range_meters":4000,"station_id":"ce4bho92rcd13ifvqh4g","pricing_plan_id":"free"},{"bike_id":"18d269e8-2e40-4f1f-8cc3-732ff54d70ea","system_id":"levelo_inurba_marseille","lat":43.27992,"lon":5.40021,"is_reserved":false,"is_disabled":false,"rental_uris":{"android":"levelo://app?vid=18d269e8-2e40-4f1f-8cc3-732ff54d70ea","ios":"levelo://app?vid=18d269e8-2e40-4f1f-8cc3-732ff54d70ea"},"vehicle_type_id":"4","last_reported":1700334274,"current_range_meters":9600,"station_id":"ce4bho92rcd13ifvqh4g","pricing_plan_id":"free"},{"bike_id":"8cb3fbde-a7e5-41de-94f3-c33c37555f74","system_id":"levelo_inurba_marseille","lat":43.317121,"lon":5.423936,"is_reserved":false,"is_disabled":false,"rental_uris":{"android":"levelo://app?vid=8cb3fbde-a7e5-41de-94f3-c33c37555f74","ios":"levelo://app?vid=8cb3fbde-a7e5-41de-94f3-c33c37555f74"},"vehicle_type_id":"4","last_reported":1700334274,"current_range_meters":23600,"station_id":"ce4bhp92rcd13ifvqhbg","pricing_plan_id":"free"},{"bike_id":"1f675464-1fc9-4eb9-949d-be8a1f26b9d4","system_id":"levelo_inurba_marseille","lat":43.31082,"lon":5.42429,"is_reserved":false,"is_disabled":false,"rental_uris":{"android":"levelo://app?vid=1f675464-1fc9-4eb9-949d-be8a1f26b9d4","ios":"levelo://app?vid=1f675464-1fc9-4eb9-949d-be8a1f26b9d4"},"vehicle_type_id":"4","last_reported":1700334274,"current_range_meters":28800,"station_id":"ce4bhp92rcd13ifvqhag","pricing_plan_id":"free"},{"bike_id":"2eb9c8ea-eafc-4114-96e5-18995d764647","system_id":"levelo_inurba_marseille","lat":43.31081,"lon":5.42432,"is_reserved":false,"is_disabled":false,"rental_uris":{"android":"levelo://app?vid=2eb9c8ea-eafc-4114-96e5-18995d764647","ios":"levelo://app?vid=2eb9c8ea-eafc-4114-96e5-18995d764647"},"vehicle_type_id":"4","last_reported":1700334274,"current_range_meters":26800,"station_id":"ce4bhp92rcd13ifvqhag","pricing_plan_id":"free"},{"bike_id":"5babbd6c-65d2-4dae-8f03-3d5b8fede63a","system_id":"levelo_inurba_marseille","lat":43.274103,"lon":5.394016,"is_reserved":false,"is_disabled":false,"rental_uris":{"android":"levelo://app?vid=5babbd6c-65d2-4dae-8f03-3d5b8fede63a","ios":"levelo://app?vid=5babbd6c-65d2-4dae-8f03-3d5b8fede63a"},"vehicle_type_id":"4","last_reported":1700334274,"current_range_meters":12800,"station_id":"ce4bhdp2rcd13ifvqf20","pricing_plan_id":"free"},{"bike_id":"d2840ce7-777c-4c0a-8d16-8870e8cac5a8","system_id":"levelo_inurba_marseille","lat":43.304096,"lon":5.425385,"is_reserved":false,"is_disabled":false,"rental_uris":{"android":"levelo://app?vid=d2840ce7-777c-4c0a-8d16-8870e8cac5a8","ios":"levelo://app?vid=d2840ce7-777c-4c0a-8d16-8870e8cac5a8"},"vehicle_type_id":"4","last_reported":1700334274,"current_range_meters":0,"station_id":"ce4bhoh2rcd13ifvqh6g","pricing_plan_id":"free"},{"bike_id":"8eca73a7-bce3-4b86-a555-f300db5c54bb","system_id":"levelo_inurba_marseille","lat":43.295523,"lon":5.422926,"is_reserved":false,"is_disabled":false,"rental_uris":{"android":"levelo://app?vid=8eca73a7-bce3-4b86-a555-f300db5c54bb","ios":"levelo://app?vid=8eca73a7-bce3-4b86-a555-f300db5c54bb"},"vehicle_type_id":"4","last_reported":1700334274,"current_range_meters":28400,"station_id":"ce4bhph2rcd13ifvqhdg","pricing_plan_id":"free"},{"bike_id":"f8f5619a-a183-461d-b100-453fb972fcd4","system_id":"levelo_inurba_marseille","lat":43.272118,"lon":5.391758,"is_reserved":false,"is_disabled":false,"rental_uris":{"android":"levelo://app?vid=f8f5619a-a183-461d-b100-453fb972fcd4","ios":"levelo://app?vid=f8f5619a-a183-461d-b100-453fb972fcd4"},"vehicle_type_id":"4","last_reported":1700334274,"current_range_meters":25600,"station_id":"ce4bhhp2rcd13ifvqfm0","pricing_plan_id":"free"},{"bike_id":"2e760e49-8ff2-4435-bd4e-7f24feeeff50","system_id":"levelo_inurba_marseille","lat":43.272116,"lon":5.391747,"is_reserved":false,"is_disabled":false,"rental_uris":{"android":"levelo://app?vid=2e760e49-8ff2-4435-bd4e-7f24feeeff50","ios":"levelo://app?vid=2e760e49-8ff2-4435-bd4e-7f24feeeff50"},"vehicle_type_id":"4","last_reported":1700334274,"current_range_meters":1600,"station_id":"ce4bhhp2rcd13ifvqfm0","pricing_plan_id":"free"},{"bike_id":"139753b1-0b83-4c3a-80f1-5052bac15461","system_id":"levelo_inurba_marseille","lat":43.2721,"lon":5.39267,"is_reserved":false,"is_disabled":false,"rental_uris":{"android":"levelo://app?vid=139753b1-0b83-4c3a-80f1-5052bac15461","ios":"levelo://app?vid=139753b1-0b83-4c3a-80f1-5052bac15461"},"vehicle_type_id":"4","last_reported":1700334274,"current_range_meters":9600,"station_id":"","pricing_plan_id":"free"},{"bike_id":"fe139271-7817-4645-9ec4-f7eee743e805","system_id":"levelo_inurba_marseille","lat":43.271896,"lon":5.392307,"is_reserved":false,"is_disabled":false,"rental_uris":{"android":"levelo://app?vid=fe139271-7817-4645-9ec4-f7eee743e805","ios":"levelo://app?vid=fe139271-7817-4645-9ec4-f7eee743e805"},"vehicle_type_id":"4","last_reported":1700334274,"current_range_meters":0,"station_id":"ce4bhhp2rcd13ifvqfm0","pricing_plan_id":"free"},{"bike_id":"f0ed4531-078e-42fb-a007-3ed80505eb54","system_id":"levelo_inurba_marseille","lat":43.271891,"lon":5.392412,"is_reserved":false,"is_disabled":false,"rental_uris":{"android":"levelo://app?vid=f0ed4531-078e-42fb-a007-3ed80505eb54","ios":"levelo://app?vid=f0ed4531-078e-42fb-a007-3ed80505eb54"},"vehicle_type_id":"4","last_reported":1700334274,"current_range_meters":6000,"station_id":"","pricing_plan_id":"free"},{"bike_id":"ed4aafba-86d1-4a38-8176-30d8d7bb7295","system_id":"levelo_inurba_marseille","lat":43.278128,"lon":5.407195,"is_reserved":false,"is_disabled":false,"rental_uris":{"android":"levelo://app?vid=ed4aafba-86d1-4a38-8176-30d8d7bb7295","ios":"levelo://app?vid=ed4aafba-86d1-4a38-8176-30d8d7bb7295"},"vehicle_type_id":"4","last_reported":1700334274,"current_range_meters":31600,"station_id":"ce4bhnh2rcd13ifvqgtg","pricing_plan_id":"free"},{"bike_id":"d0fcbf42-c734-44ad-a139-efcfe9382c41","system_id":"levelo_inurba_marseille","lat":43.269467,"lon":5.386439,"is_reserved":false,"is_disabled":false,"rental_uris":{"android":"levelo://app?vid=d0fcbf42-c734-44ad-a139-efcfe9382c41","ios":"levelo://app?vid=d0fcbf42-c734-44ad-a139-efcfe9382c41"},"vehicle_type_id":"4","last_reported":1700334274,"current_range_meters":8000,"station_id":"ce4bhh92rcd13ifvqfh0","pricing_plan_id":"free"},{"bike_id":"462126be-b935-4202-aab0-db26edf447e2","system_id":"levelo_inurba_marseille","lat":43.326111,"lon":5.427105,"is_reserved":false,"is_disabled":false,"rental_uris":{"android":"levelo://app?vid=462126be-b935-4202-aab0-db26edf447e2","ios":"levelo://app?vid=462126be-b935-4202-aab0-db26edf447e2"},"vehicle_type_id":"4","last_reported":1700334274,"current_range_meters":10800,"station_id":"","pricing_plan_id":"free"},{"bike_id":"9d847358-e70a-4da0-aae7-58146fc4ee78","system_id":"levelo_inurba_marseille","lat":43.279465,"lon":5.410561,"is_reserved":false,"is_disabled":false,"rental_uris":{"android":"levelo://app?vid=9d847358-e70a-4da0-aae7-58146fc4ee78","ios":"levelo://app?vid=9d847358-e70a-4da0-aae7-58146fc4ee78"},"vehicle_type_id":"4","last_reported":1700334274,"current_range_meters":6800,"station_id":"ce4bhnp2rcd13ifvqh0g","pricing_plan_id":"free"},{"bike_id":"7b6ed7e8-c141-47d8-92cc-ef11479d8f3c","system_id":"levelo_inurba_marseille","lat":43.279465,"lon":5.410561,"is_reserved":false,"is_disabled":false,"rental_uris":{"android":"levelo://app?vid=7b6ed7e8-c141-47d8-92cc-ef11479d8f3c","ios":"levelo://app?vid=7b6ed7e8-c141-47d8-92cc-ef11479d8f3c"},"vehicle_type_id":"4","last_reported":1700334274,"current_range_meters":19200,"station_id":"ce4bhnp2rcd13ifvqh0g","pricing_plan_id":"free"},{"bike_id":"474f0885-4fc1-42fc-bc31-2d07f8c6b7dc","system_id":"levelo_inurba_marseille","lat":43.269319,"lon":5.389397,"is_reserved":false,"is_disabled":false,"rental_uris":{"android":"levelo://app?vid=474f0885-4fc1-42fc-bc31-2d07f8c6b7dc","ios":"levelo://app?vid=474f0885-4fc1-42fc-bc31-2d07f8c6b7dc"},"vehicle_type_id":"4","last_reported":1700334274,"current_range_meters":0,"station_id":"ce4bhhh2rcd13ifvqfl0","pricing_plan_id":"free"},{"bike_id":"5e9c6dd7-6870-4371-984b-4dd18f2dfef1","system_id":"levelo_inurba_marseille","lat":43.265714,"lon":5.372891,"is_reserved":false,"is_disabled":false,"rental_uris":{"android":"levelo://app?vid=5e9c6dd7-6870-4371-984b-4dd18f2dfef1","ios":"levelo://app?vid=5e9c6dd7-6870-4371-984b-4dd18f2dfef1"},"vehicle_type_id":"4","last_reported":1700334274,"current_range_meters":12000,"station_id":"ce4bhg12rcd13ifvqf70","pricing_plan_id":"free"},{"bike_id":"c7758cb2-2a45-4f89-aa5c-0e391d845c76","system_id":"levelo_inurba_marseille","lat":43.326053,"lon":5.429943,"is_reserved":false,"is_disabled":false,"rental_uris":{"android":"levelo://app?vid=c7758cb2-2a45-4f89-aa5c-0e391d845c76","ios":"levelo://app?vid=c7758cb2-2a45-4f89-aa5c-0e391d845c76"},"vehicle_type_id":"4","last_reported":1700334274,"current_range_meters":3200,"station_id":"","pricing_plan_id":"free"},{"bike_id":"42871d3b-8c03-490f-baf1-f4b57c44a331","system_id":"levelo_inurba_marseille","lat":43.326569,"lon":5.430586,"is_reserved":false,"is_disabled":false,"rental_uris":{"android":"levelo://app?vid=42871d3b-8c03-490f-baf1-f4b57c44a331","ios":"levelo://app?vid=42871d3b-8c03-490f-baf1-f4b57c44a331"},"vehicle_type_id":"4","last_reported":1700334274,"current_range_meters":17200,"station_id":"","pricing_plan_id":"free"},{"bike_id":"6db8fb69-0626-4574-bb1e-0b47b0dacfba","system_id":"levelo_inurba_marseille","lat":43.2695,"lon":5.4025,"is_reserved":false,"is_disabled":false,"rental_uris":{"android":"levelo://app?vid=6db8fb69-0626-4574-bb1e-0b47b0dacfba","ios":"levelo://app?vid=6db8fb69-0626-4574-bb1e-0b47b0dacfba"},"vehicle_type_id":"4","last_reported":1700334274,"current_range_meters":0,"station_id":"cjm6bp8fraef2m0cb0m0","pricing_plan_id":"free"},{"bike_id":"3964e1be-f999-4cd9-b56a-1f77a351e2ff","system_id":"levelo_inurba_marseille","lat":43.269397,"lon":5.402622,"is_reserved":false,"is_disabled":false,"rental_uris":{"android":"levelo://app?vid=3964e1be-f999-4cd9-b56a-1f77a351e2ff","ios":"levelo://app?vid=3964e1be-f999-4cd9-b56a-1f77a351e2ff"},"vehicle_type_id":"4","last_reported":1700334274,"current_range_meters":2000,"station_id":"cjm6bp8fraef2m0cb0m0","pricing_plan_id":"free"},{"bike_id":"ce64dd70-9e24-4e69-9d78-bc8ddb8db4f0","system_id":"levelo_inurba_marseille","lat":43.261782,"lon":5.374515,"is_reserved":false,"is_disabled":false,"rental_uris":{"android":"levelo://app?vid=ce64dd70-9e24-4e69-9d78-bc8ddb8db4f0","ios":"levelo://app?vid=ce64dd70-9e24-4e69-9d78-bc8ddb8db4f0"},"vehicle_type_id":"4","last_reported":1700334274,"current_range_meters":1200,"station_id":"ce4bhgp2rcd13ifvqfc0","pricing_plan_id":"free"},{"bike_id":"af459590-b5af-493c-a36f-0ca1fb5ce762","system_id":"levelo_inurba_marseille","lat":43.261782,"lon":5.374515,"is_reserved":false,"is_disabled":false,"rental_uris":{"android":"levelo://app?vid=af459590-b5af-493c-a36f-0ca1fb5ce762","ios":"levelo://app?vid=af459590-b5af-493c-a36f-0ca1fb5ce762"},"vehicle_type_id":"4","last_reported":1700334274,"current_range_meters":23200,"station_id":"ce4bhgp2rcd13ifvqfc0","pricing_plan_id":"free"},{"bike_id":"d077710c-062f-4bb5-bc07-f925193fbbe9","system_id":"levelo_inurba_marseille","lat":43.31711,"lon":5.43706,"is_reserved":false,"is_disabled":false,"rental_uris":{"android":"levelo://app?vid=d077710c-062f-4bb5-bc07-f925193fbbe9","ios":"levelo://app?vid=d077710c-062f-4bb5-bc07-f925193fbbe9"},"vehicle_type_id":"4","last_reported":1700334274,"current_range_meters":6000,"station_id":"ce4bhp92rcd13ifvqhcg","pricing_plan_id":"free"},{"bike_id":"584c5199-357e-4900-bd58-cb216b28e7ac","system_id":"levelo_inurba_marseille","lat":43.317104,"lon":5.436818,"is_reserved":false,"is_disabled":false,"rental_uris":{"android":"levelo://app?vid=584c5199-357e-4900-bd58-cb216b28e7ac","ios":"levelo://app?vid=584c5199-357e-4900-bd58-cb216b28e7ac"},"vehicle_type_id":"4","last_reported":1700334274,"current_range_meters":30400,"station_id":"ce4bhp92rcd13ifvqhcg","pricing_plan_id":"free"},{"bike_id":"555c7a59-3825-4d1d-aa0c-d8563490d9db","system_id":"levelo_inurba_marseille","lat":43.271388,"lon":5.409269,"is_reserved":false,"is_disabled":false,"rental_uris":{"android":"levelo://app?vid=555c7a59-3825-4d1d-aa0c-d8563490d9db","ios":"levelo://app?vid=555c7a59-3825-4d1d-aa0c-d8563490d9db"},"vehicle_type_id":"4","last_reported":1700334274,"current_range_meters":29200,"station_id":"ce4bhl12rcd13ifvqgf0","pricing_plan_id":"free"},{"bike_id":"e8766bd2-dbc5-4fac-9fd5-8196dc51357d","system_id":"levelo_inurba_marseille","lat":43.271368,"lon":5.40928,"is_reserved":false,"is_disabled":false,"rental_uris":{"android":"levelo://app?vid=e8766bd2-dbc5-4fac-9fd5-8196dc51357d","ios":"levelo://app?vid=e8766bd2-dbc5-4fac-9fd5-8196dc51357d"},"vehicle_type_id":"4","last_reported":1700334274,"current_range_meters":9200,"station_id":"ce4bhl12rcd13ifvqgf0","pricing_plan_id":"free"},{"bike_id":"6678d850-aeac-4b4e-99a0-10ec8de012c5","system_id":"levelo_inurba_marseille","lat":43.271368,"lon":5.40928,"is_reserved":false,"is_disabled":false,"rental_uris":{"android":"levelo://app?vid=6678d850-aeac-4b4e-99a0-10ec8de012c5","ios":"levelo://app?vid=6678d850-aeac-4b4e-99a0-10ec8de012c5"},"vehicle_type_id":"4","last_reported":1700334274,"current_range_meters":8800,"station_id":"ce4bhl12rcd13ifvqgf0","pricing_plan_id":"free"},{"bike_id":"4f1344f3-c25f-4614-96a5-4ae7bd08b281","system_id":"levelo_inurba_marseille","lat":43.271388,"lon":5.409269,"is_reserved":false,"is_disabled":false,"rental_uris":{"android":"levelo://app?vid=4f1344f3-c25f-4614-96a5-4ae7bd08b281","ios":"levelo://app?vid=4f1344f3-c25f-4614-96a5-4ae7bd08b281"},"vehicle_type_id":"4","last_reported":1700334274,"current_range_meters":28000,"station_id":"ce4bhl12rcd13ifvqgf0","pricing_plan_id":"free"},{"bike_id":"ddd519bf-bd82-488e-b06c-6b1fdaa2fd6f","system_id":"levelo_inurba_marseille","lat":43.267959,"lon":5.402687,"is_reserved":false,"is_disabled":false,"rental_uris":{"android":"levelo://app?vid=ddd519bf-bd82-488e-b06c-6b1fdaa2fd6f","ios":"levelo://app?vid=ddd519bf-bd82-488e-b06c-6b1fdaa2fd6f"},"vehicle_type_id":"4","last_reported":1700334274,"current_range_meters":800,"station_id":"ce501612rcd8frsf0b60","pricing_plan_id":"free"},{"bike_id":"3dfb92cb-3751-4af6-93e2-4e8b47a6bd3c","system_id":"levelo_inurba_marseille","lat":43.267959,"lon":5.402687,"is_reserved":false,"is_disabled":false,"rental_uris":{"android":"levelo://app?vid=3dfb92cb-3751-4af6-93e2-4e8b47a6bd3c","ios":"levelo://app?vid=3dfb92cb-3751-4af6-93e2-4e8b47a6bd3c"},"vehicle_type_id":"4","last_reported":1700334274,"current_range_meters":5200,"station_id":"ce501612rcd8frsf0b60","pricing_plan_id":"free"},{"bike_id":"74ce853b-0d8b-42c9-81c8-17a7564a4b34","system_id":"levelo_inurba_marseille","lat":43.31725,"lon":5.43786,"is_reserved":false,"is_disabled":false,"rental_uris":{"android":"levelo://app?vid=74ce853b-0d8b-42c9-81c8-17a7564a4b34","ios":"levelo://app?vid=74ce853b-0d8b-42c9-81c8-17a7564a4b34"},"vehicle_type_id":"4","last_reported":1700334274,"current_range_meters":17600,"station_id":"","pricing_plan_id":"free"},{"bike_id":"1046635b-c1e6-41f1-8dbc-d28bbd202581","system_id":"levelo_inurba_marseille","lat":43.298768,"lon":5.43643,"is_reserved":false,"is_disabled":false,"rental_uris":{"android":"levelo://app?vid=1046635b-c1e6-41f1-8dbc-d28bbd202581","ios":"levelo://app?vid=1046635b-c1e6-41f1-8dbc-d28bbd202581"},"vehicle_type_id":"4","last_reported":1700334274,"current_range_meters":28400,"station_id":"ce4bhpp2rcd13ifvqhfg","pricing_plan_id":"free"},{"bike_id":"e519433d-e174-46ac-866c-5aa69d990273","system_id":"levelo_inurba_marseille","lat":43.28152,"lon":5.42642,"is_reserved":false,"is_disabled":false,"rental_uris":{"android":"levelo://app?vid=e519433d-e174-46ac-866c-5aa69d990273","ios":"levelo://app?vid=e519433d-e174-46ac-866c-5aa69d990273"},"vehicle_type_id":"4","last_reported":1700334274,"current_range_meters":22400,"station_id":"ce4bhnh2rcd13ifvqgug","pricing_plan_id":"free"},{"bike_id":"52c2449e-ba19-42b2-a2b7-5e9532985598","system_id":"levelo_inurba_marseille","lat":43.32279,"lon":5.43926,"is_reserved":false,"is_disabled":false,"rental_uris":{"android":"levelo://app?vid=52c2449e-ba19-42b2-a2b7-5e9532985598","ios":"levelo://app?vid=52c2449e-ba19-42b2-a2b7-5e9532985598"},"vehicle_type_id":"4","last_reported":1700334274,"current_range_meters":15600,"station_id":"","pricing_plan_id":"free"},{"bike_id":"d88b6a73-531b-425a-9e55-b97c354f59a2","system_id":"levelo_inurba_marseille","lat":43.32279,"lon":5.43934,"is_reserved":false,"is_disabled":false,"rental_uris":{"android":"levelo://app?vid=d88b6a73-531b-425a-9e55-b97c354f59a2","ios":"levelo://app?vid=d88b6a73-531b-425a-9e55-b97c354f59a2"},"vehicle_type_id":"4","last_reported":1700334274,"current_range_meters":28800,"station_id":"","pricing_plan_id":"free"},{"bike_id":"94fddcbb-5369-4e68-a833-c6743763f226","system_id":"levelo_inurba_marseille","lat":43.2606,"lon":5.393977,"is_reserved":false,"is_disabled":false,"rental_uris":{"android":"levelo://app?vid=94fddcbb-5369-4e68-a833-c6743763f226","ios":"levelo://app?vid=94fddcbb-5369-4e68-a833-c6743763f226"},"vehicle_type_id":"4","last_reported":1700334274,"current_range_meters":0,"station_id":"ce4bhh92rcd13ifvqfj0","pricing_plan_id":"free"},{"bike_id":"b6d56c54-11bb-4b26-9bca-a114c2f5b4c8","system_id":"levelo_inurba_marseille","lat":43.26057,"lon":5.394,"is_reserved":false,"is_disabled":false,"rental_uris":{"android":"levelo://app?vid=b6d56c54-11bb-4b26-9bca-a114c2f5b4c8","ios":"levelo://app?vid=b6d56c54-11bb-4b26-9bca-a114c2f5b4c8"},"vehicle_type_id":"4","last_reported":1700334274,"current_range_meters":0,"station_id":"ce4bhh92rcd13ifvqfj0","pricing_plan_id":"free"},{"bike_id":"4ade93dc-328b-4e27-b4c4-ea2c9152f449","system_id":"levelo_inurba_marseille","lat":43.258224,"lon":5.394369,"is_reserved":false,"is_disabled":false,"rental_uris":{"android":"levelo://app?vid=4ade93dc-328b-4e27-b4c4-ea2c9152f449","ios":"levelo://app?vid=4ade93dc-328b-4e27-b4c4-ea2c9152f449"},"vehicle_type_id":"4","last_reported":1700334274,"current_range_meters":16800,"station_id":"ce4bhip2rcd13ifvqft0","pricing_plan_id":"free"},{"bike_id":"fdf3a119-3845-4a7f-8635-2d2e7c888f17","system_id":"levelo_inurba_marseille","lat":43.255756,"lon":5.382303,"is_reserved":false,"is_disabled":false,"rental_uris":{"android":"levelo://app?vid=fdf3a119-3845-4a7f-8635-2d2e7c888f17","ios":"levelo://app?vid=fdf3a119-3845-4a7f-8635-2d2e7c888f17"},"vehicle_type_id":"4","last_reported":1700334274,"current_range_meters":18400,"station_id":"ce4bhih2rcd13ifvqfs0","pricing_plan_id":"free"},{"bike_id":"1c2ac47e-7a15-456f-b47f-93ba3949c6ce","system_id":"levelo_inurba_marseille","lat":43.254947,"lon":5.376454,"is_reserved":false,"is_disabled":false,"rental_uris":{"android":"levelo://app?vid=1c2ac47e-7a15-456f-b47f-93ba3949c6ce","ios":"levelo://app?vid=1c2ac47e-7a15-456f-b47f-93ba3949c6ce"},"vehicle_type_id":"4","last_reported":1700334274,"current_range_meters":7600,"station_id":"ce4bhh12rcd13ifvqff0","pricing_plan_id":"free"},{"bike_id":"c99ee986-a9e0-4f5e-a29c-31a763fef3db","system_id":"levelo_inurba_marseille","lat":43.259327,"lon":5.40912,"is_reserved":false,"is_disabled":false,"rental_uris":{"android":"levelo://app?vid=c99ee986-a9e0-4f5e-a29c-31a763fef3db","ios":"levelo://app?vid=c99ee986-a9e0-4f5e-a29c-31a763fef3db"},"vehicle_type_id":"4","last_reported":1700334274,"current_range_meters":18800,"station_id":"ce4bhm92rcd13ifvqglg","pricing_plan_id":"free"},{"bike_id":"7ad27884-6005-4573-b788-863e7849e691","system_id":"levelo_inurba_marseille","lat":43.257079,"lon":5.411051,"is_reserved":false,"is_disabled":false,"rental_uris":{"android":"levelo://app?vid=7ad27884-6005-4573-b788-863e7849e691","ios":"levelo://app?vid=7ad27884-6005-4573-b788-863e7849e691"},"vehicle_type_id":"4","last_reported":1700334274,"current_range_meters":2000,"station_id":"ce4bhkp2rcd13ifvqgd0","pricing_plan_id":"free"},{"bike_id":"268e7890-750e-4202-904d-61f2525519c6","system_id":"levelo_inurba_marseille","lat":43.257079,"lon":5.411051,"is_reserved":false,"is_disabled":false,"rental_uris":{"android":"levelo://app?vid=268e7890-750e-4202-904d-61f2525519c6","ios":"levelo://app?vid=268e7890-750e-4202-904d-61f2525519c6"},"vehicle_type_id":"4","last_reported":1700334274,"current_range_meters":14000,"station_id":"ce4bhkp2rcd13ifvqgd0","pricing_plan_id":"free"},{"bike_id":"44f08415-9b06-48c1-9eeb-6c227f27cac1","system_id":"levelo_inurba_marseille","lat":43.257079,"lon":5.411051,"is_reserved":false,"is_disabled":false,"rental_uris":{"android":"levelo://app?vid=44f08415-9b06-48c1-9eeb-6c227f27cac1","ios":"levelo://app?vid=44f08415-9b06-48c1-9eeb-6c227f27cac1"},"vehicle_type_id":"4","last_reported":1700334274,"current_range_meters":8800,"station_id":"ce4bhkp2rcd13ifvqgd0","pricing_plan_id":"free"},{"bike_id":"c066fd2a-8fee-4202-8f47-33f36da84f5d","system_id":"levelo_inurba_marseille","lat":43.257079,"lon":5.411051,"is_reserved":false,"is_disabled":false,"rental_uris":{"android":"levelo://app?vid=c066fd2a-8fee-4202-8f47-33f36da84f5d","ios":"levelo://app?vid=c066fd2a-8fee-4202-8f47-33f36da84f5d"},"vehicle_type_id":"4","last_reported":1700334274,"current_range_meters":31200,"station_id":"ce4bhkp2rcd13ifvqgd0","pricing_plan_id":"free"},{"bike_id":"3af1e19d-d00f-48e8-8e9c-831155ca5867","system_id":"levelo_inurba_marseille","lat":43.250023,"lon":5.38919,"is_reserved":false,"is_disabled":false,"rental_uris":{"android":"levelo://app?vid=3af1e19d-d00f-48e8-8e9c-831155ca5867","ios":"levelo://app?vid=3af1e19d-d00f-48e8-8e9c-831155ca5867"},"vehicle_type_id":"4","last_reported":1700334274,"current_range_meters":18000,"station_id":"ce4bhgp2rcd13ifvqfd0","pricing_plan_id":"free"},{"bike_id":"18c4e2bb-6520-4b2f-bb62-71a1a5807c24","system_id":"levelo_inurba_marseille","lat":43.2479,"lon":5.374457,"is_reserved":false,"is_disabled":false,"rental_uris":{"android":"levelo://app?vid=18c4e2bb-6520-4b2f-bb62-71a1a5807c24","ios":"levelo://app?vid=18c4e2bb-6520-4b2f-bb62-71a1a5807c24"},"vehicle_type_id":"4","last_reported":1700334274,"current_range_meters":12800,"station_id":"ce4bhgh2rcd13ifvqfb0","pricing_plan_id":"free"},{"bike_id":"0f0be5a8-5910-4bae-81ae-1aa8dabcd003","system_id":"levelo_inurba_marseille","lat":43.2479,"lon":5.374457,"is_reserved":false,"is_disabled":false,"rental_uris":{"android":"levelo://app?vid=0f0be5a8-5910-4bae-81ae-1aa8dabcd003","ios":"levelo://app?vid=0f0be5a8-5910-4bae-81ae-1aa8dabcd003"},"vehicle_type_id":"4","last_reported":1700334274,"current_range_meters":3200,"station_id":"ce4bhgh2rcd13ifvqfb0","pricing_plan_id":"free"},{"bike_id":"2268705b-93ec-4a13-adbf-c30d757d97ba","system_id":"levelo_inurba_marseille","lat":43.2479,"lon":5.374457,"is_reserved":false,"is_disabled":false,"rental_uris":{"android":"levelo://app?vid=2268705b-93ec-4a13-adbf-c30d757d97ba","ios":"levelo://app?vid=2268705b-93ec-4a13-adbf-c30d757d97ba"},"vehicle_type_id":"4","last_reported":1700334274,"current_range_meters":1200,"station_id":"ce4bhgh2rcd13ifvqfb0","pricing_plan_id":"free"},{"bike_id":"a2be588a-df83-4a61-baa3-0aa5edbd7e51","system_id":"levelo_inurba_marseille","lat":43.25102,"lon":5.403214,"is_reserved":false,"is_disabled":false,"rental_uris":{"android":"levelo://app?vid=a2be588a-df83-4a61-baa3-0aa5edbd7e51","ios":"levelo://app?vid=a2be588a-df83-4a61-baa3-0aa5edbd7e51"},"vehicle_type_id":"4","last_reported":1700334274,"current_range_meters":400,"station_id":"ce4bhlh2rcd13ifvqgig","pricing_plan_id":"free"},{"bike_id":"6f47b00c-83e3-4af9-ab53-4a7c80ee46ec","system_id":"levelo_inurba_marseille","lat":43.25102,"lon":5.403214,"is_reserved":false,"is_disabled":false,"rental_uris":{"android":"levelo://app?vid=6f47b00c-83e3-4af9-ab53-4a7c80ee46ec","ios":"levelo://app?vid=6f47b00c-83e3-4af9-ab53-4a7c80ee46ec"},"vehicle_type_id":"4","last_reported":1700334274,"current_range_meters":8800,"station_id":"ce4bhlh2rcd13ifvqgig","pricing_plan_id":"free"},{"bike_id":"b6e75a84-2df2-4143-8805-996b4d3e10ba","system_id":"levelo_inurba_marseille","lat":43.2466,"lon":5.38158,"is_reserved":false,"is_disabled":false,"rental_uris":{"android":"levelo://app?vid=b6e75a84-2df2-4143-8805-996b4d3e10ba","ios":"levelo://app?vid=b6e75a84-2df2-4143-8805-996b4d3e10ba"},"vehicle_type_id":"4","last_reported":1700334274,"current_range_meters":18000,"station_id":"ce4bhih2rcd13ifvqfr0","pricing_plan_id":"free"},{"bike_id":"285da5ec-f321-42d9-8fae-09a7ecadfdd9","system_id":"levelo_inurba_marseille","lat":43.25102,"lon":5.403214,"is_reserved":false,"is_disabled":false,"rental_uris":{"android":"levelo://app?vid=285da5ec-f321-42d9-8fae-09a7ecadfdd9","ios":"levelo://app?vid=285da5ec-f321-42d9-8fae-09a7ecadfdd9"},"vehicle_type_id":"4","last_reported":1700334274,"current_range_meters":800,"station_id":"ce4bhlh2rcd13ifvqgig","pricing_plan_id":"free"},{"bike_id":"a0b548b2-f71c-4ce4-81f1-0508802aebba","system_id":"levelo_inurba_marseille","lat":43.25102,"lon":5.403214,"is_reserved":false,"is_disabled":false,"rental_uris":{"android":"levelo://app?vid=a0b548b2-f71c-4ce4-81f1-0508802aebba","ios":"levelo://app?vid=a0b548b2-f71c-4ce4-81f1-0508802aebba"},"vehicle_type_id":"4","last_reported":1700334274,"current_range_meters":31600,"station_id":"ce4bhlh2rcd13ifvqgig","pricing_plan_id":"free"},{"bike_id":"693cc2c5-7e95-40dc-b1ad-f57fddabf34b","system_id":"levelo_inurba_marseille","lat":43.245581,"lon":5.395069,"is_reserved":false,"is_disabled":false,"rental_uris":{"android":"levelo://app?vid=693cc2c5-7e95-40dc-b1ad-f57fddabf34b","ios":"levelo://app?vid=693cc2c5-7e95-40dc-b1ad-f57fddabf34b"},"vehicle_type_id":"4","last_reported":1700334274,"current_range_meters":31200,"station_id":"ce4bhlp2rcd13ifvqgjg","pricing_plan_id":"free"},{"bike_id":"08f996b4-c32d-4eea-b86e-7af65b7cc749","system_id":"levelo_inurba_marseille","lat":43.24546,"lon":5.39523,"is_reserved":false,"is_disabled":false,"rental_uris":{"android":"levelo://app?vid=08f996b4-c32d-4eea-b86e-7af65b7cc749","ios":"levelo://app?vid=08f996b4-c32d-4eea-b86e-7af65b7cc749"},"vehicle_type_id":"4","last_reported":1700334274,"current_range_meters":30000,"station_id":"ce4bhlp2rcd13ifvqgjg","pricing_plan_id":"free"},{"bike_id":"93dc94b0-b371-41cb-a3ad-83444bc01171","system_id":"levelo_inurba_marseille","lat":43.24546,"lon":5.39526,"is_reserved":false,"is_disabled":false,"rental_uris":{"android":"levelo://app?vid=93dc94b0-b371-41cb-a3ad-83444bc01171","ios":"levelo://app?vid=93dc94b0-b371-41cb-a3ad-83444bc01171"},"vehicle_type_id":"4","last_reported":1700334274,"current_range_meters":800,"station_id":"ce4bhlp2rcd13ifvqgjg","pricing_plan_id":"free"},{"bike_id":"86b6e247-7e52-44ce-a818-72baf98e7ef7","system_id":"levelo_inurba_marseille","lat":43.245581,"lon":5.395069,"is_reserved":false,"is_disabled":false,"rental_uris":{"android":"levelo://app?vid=86b6e247-7e52-44ce-a818-72baf98e7ef7","ios":"levelo://app?vid=86b6e247-7e52-44ce-a818-72baf98e7ef7"},"vehicle_type_id":"4","last_reported":1700334274,"current_range_meters":28000,"station_id":"ce4bhlp2rcd13ifvqgjg","pricing_plan_id":"free"},{"bike_id":"5a980be7-c7ae-42db-bd64-63cc5cf9e0f6","system_id":"levelo_inurba_marseille","lat":43.24075,"lon":5.37765,"is_reserved":false,"is_disabled":false,"rental_uris":{"android":"levelo://app?vid=5a980be7-c7ae-42db-bd64-63cc5cf9e0f6","ios":"levelo://app?vid=5a980be7-c7ae-42db-bd64-63cc5cf9e0f6"},"vehicle_type_id":"4","last_reported":1700334274,"current_range_meters":31200,"station_id":"ce4bhnp2rcd13ifvqgvg","pricing_plan_id":"free"},{"bike_id":"b7ad8b76-3a1b-4631-a1f8-cbd38dd30c19","system_id":"levelo_inurba_marseille","lat":43.24073,"lon":5.37762,"is_reserved":false,"is_disabled":false,"rental_uris":{"android":"levelo://app?vid=b7ad8b76-3a1b-4631-a1f8-cbd38dd30c19","ios":"levelo://app?vid=b7ad8b76-3a1b-4631-a1f8-cbd38dd30c19"},"vehicle_type_id":"4","last_reported":1700334274,"current_range_meters":23600,"station_id":"ce4bhnp2rcd13ifvqgvg","pricing_plan_id":"free"},{"bike_id":"ed419b13-266f-407c-bf9b-711a3ecbb865","system_id":"levelo_inurba_marseille","lat":43.240623,"lon":5.377642,"is_reserved":false,"is_disabled":false,"rental_uris":{"android":"levelo://app?vid=ed419b13-266f-407c-bf9b-711a3ecbb865","ios":"levelo://app?vid=ed419b13-266f-407c-bf9b-711a3ecbb865"},"vehicle_type_id":"4","last_reported":1700334274,"current_range_meters":23200,"station_id":"ce4bhnp2rcd13ifvqgvg","pricing_plan_id":"free"},{"bike_id":"b17abfb9-7775-45d9-aa1e-bf036e6fdf06","system_id":"levelo_inurba_marseille","lat":43.24071,"lon":5.37759,"is_reserved":false,"is_disabled":false,"rental_uris":{"android":"levelo://app?vid=b17abfb9-7775-45d9-aa1e-bf036e6fdf06","ios":"levelo://app?vid=b17abfb9-7775-45d9-aa1e-bf036e6fdf06"},"vehicle_type_id":"4","last_reported":1700334274,"current_range_meters":26800,"station_id":"ce4bhnp2rcd13ifvqgvg","pricing_plan_id":"free"},{"bike_id":"bcf96265-ad37-442a-958b-3f53e78050a1","system_id":"levelo_inurba_marseille","lat":43.240623,"lon":5.377642,"is_reserved":false,"is_disabled":false,"rental_uris":{"android":"levelo://app?vid=bcf96265-ad37-442a-958b-3f53e78050a1","ios":"levelo://app?vid=bcf96265-ad37-442a-958b-3f53e78050a1"},"vehicle_type_id":"4","last_reported":1700334274,"current_range_meters":28800,"station_id":"ce4bhnp2rcd13ifvqgvg","pricing_plan_id":"free"},{"bike_id":"8f3a5da5-e450-44c1-b7f2-7006197e8e0e","system_id":"levelo_inurba_marseille","lat":43.240623,"lon":5.377642,"is_reserved":false,"is_disabled":false,"rental_uris":{"android":"levelo://app?vid=8f3a5da5-e450-44c1-b7f2-7006197e8e0e","ios":"levelo://app?vid=8f3a5da5-e450-44c1-b7f2-7006197e8e0e"},"vehicle_type_id":"4","last_reported":1700334274,"current_range_meters":31600,"station_id":"ce4bhnp2rcd13ifvqgvg","pricing_plan_id":"free"},{"bike_id":"cb017f51-a091-4785-8843-e2b4f3968fd6","system_id":"levelo_inurba_marseille","lat":43.241782,"lon":5.397261,"is_reserved":false,"is_disabled":false,"rental_uris":{"android":"levelo://app?vid=cb017f51-a091-4785-8843-e2b4f3968fd6","ios":"levelo://app?vid=cb017f51-a091-4785-8843-e2b4f3968fd6"},"vehicle_type_id":"4","last_reported":1700334274,"current_range_meters":4000,"station_id":"ce4bhn12rcd13ifvqgpg","pricing_plan_id":"free"},{"bike_id":"07e8793f-b5c8-4815-95b2-cfd73adfc584","system_id":"levelo_inurba_marseille","lat":43.24179,"lon":5.39727,"is_reserved":false,"is_disabled":false,"rental_uris":{"android":"levelo://app?vid=07e8793f-b5c8-4815-95b2-cfd73adfc584","ios":"levelo://app?vid=07e8793f-b5c8-4815-95b2-cfd73adfc584"},"vehicle_type_id":"4","last_reported":1700334274,"current_range_meters":27200,"station_id":"ce4bhn12rcd13ifvqgpg","pricing_plan_id":"free"},{"bike_id":"4370869b-0c59-4e1b-b4c7-59bf3a7bc50e","system_id":"levelo_inurba_marseille","lat":43.241782,"lon":5.397261,"is_reserved":false,"is_disabled":false,"rental_uris":{"android":"levelo://app?vid=4370869b-0c59-4e1b-b4c7-59bf3a7bc50e","ios":"levelo://app?vid=4370869b-0c59-4e1b-b4c7-59bf3a7bc50e"},"vehicle_type_id":"4","last_reported":1700334274,"current_range_meters":17600,"station_id":"ce4bhn12rcd13ifvqgpg","pricing_plan_id":"free"},{"bike_id":"c16c660d-17b5-4dda-ab83-4414adbe0487","system_id":"levelo_inurba_marseille","lat":43.24179,"lon":5.3973,"is_reserved":false,"is_disabled":false,"rental_uris":{"android":"levelo://app?vid=c16c660d-17b5-4dda-ab83-4414adbe0487","ios":"levelo://app?vid=c16c660d-17b5-4dda-ab83-4414adbe0487"},"vehicle_type_id":"4","last_reported":1700334274,"current_range_meters":8000,"station_id":"ce4bhn12rcd13ifvqgpg","pricing_plan_id":"free"},{"bike_id":"7a968926-db99-4b95-ac83-d11f6fb36aeb","system_id":"levelo_inurba_marseille","lat":43.241782,"lon":5.397261,"is_reserved":false,"is_disabled":false,"rental_uris":{"android":"levelo://app?vid=7a968926-db99-4b95-ac83-d11f6fb36aeb","ios":"levelo://app?vid=7a968926-db99-4b95-ac83-d11f6fb36aeb"},"vehicle_type_id":"4","last_reported":1700334274,"current_range_meters":0,"station_id":"ce4bhn12rcd13ifvqgpg","pricing_plan_id":"free"},{"bike_id":"4f5534b5-aefd-49d1-810b-7263e1241940","system_id":"levelo_inurba_marseille","lat":43.241782,"lon":5.397261,"is_reserved":false,"is_disabled":false,"rental_uris":{"android":"levelo://app?vid=4f5534b5-aefd-49d1-810b-7263e1241940","ios":"levelo://app?vid=4f5534b5-aefd-49d1-810b-7263e1241940"},"vehicle_type_id":"4","last_reported":1700334274,"current_range_meters":31600,"station_id":"ce4bhn12rcd13ifvqgpg","pricing_plan_id":"free"},{"bike_id":"99cc6b38-3aad-4c65-a2a0-1c4ce9965de4","system_id":"levelo_inurba_marseille","lat":43.241782,"lon":5.397261,"is_reserved":false,"is_disabled":false,"rental_uris":{"android":"levelo://app?vid=99cc6b38-3aad-4c65-a2a0-1c4ce9965de4","ios":"levelo://app?vid=99cc6b38-3aad-4c65-a2a0-1c4ce9965de4"},"vehicle_type_id":"4","last_reported":1700334274,"current_range_meters":24800,"station_id":"ce4bhn12rcd13ifvqgpg","pricing_plan_id":"free"},{"bike_id":"fb647ab6-bdfe-4d43-8021-469b840e3f01","system_id":"levelo_inurba_marseille","lat":43.231794,"lon":5.400052,"is_reserved":false,"is_disabled":false,"rental_uris":{"android":"levelo://app?vid=fb647ab6-bdfe-4d43-8021-469b840e3f01","ios":"levelo://app?vid=fb647ab6-bdfe-4d43-8021-469b840e3f01"},"vehicle_type_id":"4","last_reported":1700334274,"current_range_meters":29200,"station_id":"ce4bhn12rcd13ifvqgqg","pricing_plan_id":"free"},{"bike_id":"21503f80-a737-42c9-80ac-41d5f021fc9e","system_id":"levelo_inurba_marseille","lat":43.231794,"lon":5.400052,"is_reserved":false,"is_disabled":false,"rental_uris":{"android":"levelo://app?vid=21503f80-a737-42c9-80ac-41d5f021fc9e","ios":"levelo://app?vid=21503f80-a737-42c9-80ac-41d5f021fc9e"},"vehicle_type_id":"4","last_reported":1700334274,"current_range_meters":12400,"station_id":"ce4bhn12rcd13ifvqgqg","pricing_plan_id":"free"},{"bike_id":"f4a8cd9e-70db-4af1-b4c0-7aa0a7fac3fa","system_id":"levelo_inurba_marseille","lat":43.231861,"lon":5.399883,"is_reserved":false,"is_disabled":false,"rental_uris":{"android":"levelo://app?vid=f4a8cd9e-70db-4af1-b4c0-7aa0a7fac3fa","ios":"levelo://app?vid=f4a8cd9e-70db-4af1-b4c0-7aa0a7fac3fa"},"vehicle_type_id":"4","last_reported":1700334274,"current_range_meters":30800,"station_id":"ce4bhn12rcd13ifvqgqg","pricing_plan_id":"free"},{"bike_id":"486fecf0-765d-4eee-9a85-898f8aa27175","system_id":"levelo_inurba_marseille","lat":43.231793,"lon":5.400044,"is_reserved":false,"is_disabled":false,"rental_uris":{"android":"levelo://app?vid=486fecf0-765d-4eee-9a85-898f8aa27175","ios":"levelo://app?vid=486fecf0-765d-4eee-9a85-898f8aa27175"},"vehicle_type_id":"4","last_reported":1700334274,"current_range_meters":31200,"station_id":"ce4bhn12rcd13ifvqgqg","pricing_plan_id":"free"},{"bike_id":"a77536b5-5a4a-4d26-b9d3-350ffe3416bd","system_id":"levelo_inurba_marseille","lat":43.231793,"lon":5.400044,"is_reserved":false,"is_disabled":false,"rental_uris":{"android":"levelo://app?vid=a77536b5-5a4a-4d26-b9d3-350ffe3416bd","ios":"levelo://app?vid=a77536b5-5a4a-4d26-b9d3-350ffe3416bd"},"vehicle_type_id":"4","last_reported":1700334274,"current_range_meters":11200,"station_id":"ce4bhn12rcd13ifvqgqg","pricing_plan_id":"free"},{"bike_id":"fa9cc91c-c78c-4cb3-ab2e-3cc3c66a937c","system_id":"levelo_inurba_marseille","lat":43.23184,"lon":5.39989,"is_reserved":false,"is_disabled":false,"rental_uris":{"android":"levelo://app?vid=fa9cc91c-c78c-4cb3-ab2e-3cc3c66a937c","ios":"levelo://app?vid=fa9cc91c-c78c-4cb3-ab2e-3cc3c66a937c"},"vehicle_type_id":"4","last_reported":1700334274,"current_range_meters":21600,"station_id":"ce4bhn12rcd13ifvqgqg","pricing_plan_id":"free"},{"bike_id":"efc139d5-8bb1-4a6b-b437-01d31830d455","system_id":"levelo_inurba_marseille","lat":43.231794,"lon":5.400052,"is_reserved":false,"is_disabled":false,"rental_uris":{"android":"levelo://app?vid=efc139d5-8bb1-4a6b-b437-01d31830d455","ios":"levelo://app?vid=efc139d5-8bb1-4a6b-b437-01d31830d455"},"vehicle_type_id":"4","last_reported":1700334274,"current_range_meters":32000,"station_id":"ce4bhn12rcd13ifvqgqg","pricing_plan_id":"free"},{"bike_id":"7bc95a0e-72f8-4232-b877-46fe8e7f9e0c","system_id":"levelo_inurba_marseille","lat":43.231794,"lon":5.400052,"is_reserved":false,"is_disabled":false,"rental_uris":{"android":"levelo://app?vid=7bc95a0e-72f8-4232-b877-46fe8e7f9e0c","ios":"levelo://app?vid=7bc95a0e-72f8-4232-b877-46fe8e7f9e0c"},"vehicle_type_id":"4","last_reported":1700334274,"current_range_meters":31600,"station_id":"ce4bhn12rcd13ifvqgqg","pricing_plan_id":"free"},{"bike_id":"ad9d26be-fd61-4954-b04a-614ee9d33f7d","system_id":"levelo_inurba_marseille","lat":43.231794,"lon":5.400052,"is_reserved":false,"is_disabled":false,"rental_uris":{"android":"levelo://app?vid=ad9d26be-fd61-4954-b04a-614ee9d33f7d","ios":"levelo://app?vid=ad9d26be-fd61-4954-b04a-614ee9d33f7d"},"vehicle_type_id":"4","last_reported":1700334274,"current_range_meters":32000,"station_id":"ce4bhn12rcd13ifvqgqg","pricing_plan_id":"free"},{"bike_id":"adac1971-5e73-41e6-9ade-b5ded0f026e7","system_id":"levelo_inurba_marseille","lat":43.231793,"lon":5.400044,"is_reserved":false,"is_disabled":false,"rental_uris":{"android":"levelo://app?vid=adac1971-5e73-41e6-9ade-b5ded0f026e7","ios":"levelo://app?vid=adac1971-5e73-41e6-9ade-b5ded0f026e7"},"vehicle_type_id":"4","last_reported":1700334274,"current_range_meters":31200,"station_id":"ce4bhn12rcd13ifvqgqg","pricing_plan_id":"free"},{"bike_id":"5d8316f4-9b3b-4f22-8b0a-d975b6faa1c0","system_id":"levelo_inurba_marseille","lat":43.231793,"lon":5.400044,"is_reserved":false,"is_disabled":false,"rental_uris":{"android":"levelo://app?vid=5d8316f4-9b3b-4f22-8b0a-d975b6faa1c0","ios":"levelo://app?vid=5d8316f4-9b3b-4f22-8b0a-d975b6faa1c0"},"vehicle_type_id":"4","last_reported":1700334274,"current_range_meters":19200,"station_id":"ce4bhn12rcd13ifvqgqg","pricing_plan_id":"free"}]}}