{"last_updated":1686996375,"ttl":30,"version":"2.2","data":{"bikes":[{"bike_id":"4dcd4dc4-d23c-4fdd-9f71-7ccdf3e6eeea","system_id":"levelo_inurba_marseille","lat":43.313391,"lon":5.36706,"is_reserved":false,"is_disabled":false,"rental_uris":{"android":"levelo://app?vid=4dcd4dc4-d23c-4fdd-9f71-7ccdf3e6eeea","ios":"levelo://app?vid=4dcd4dc4-d23c-4fdd-9f71-7ccdf3e6eeea"},"vehicle_type_id":"4","last_reported":1686996376,"current_range_meters":27600,"station_id":"ce4bgr92rcd13ifvqc6g","pricing_plan_id":"free"},{"bike_id":"79fdfe61-0813-45b9-9793-b6ee3a6420c8","system_id":"levelo_inurba_marseille","lat":43.3135,"lon":5.36704,"is_reserved":false,"is_disabled":false,"rental_uris":{"android":"levelo://app?vid=79fdfe61-0813-45b9-9793-b6ee3a6420c8","ios":"levelo://app?vid=79fdfe61-0813-45b9-9793-b6ee3a6420c8"},"vehicle_type_id":"4","last_reported":1686996376,"current_range_meters":27600,"station_id":"ce4bgr92rcd13ifvqc6g","pricing_plan_id":"free"},{"bike_id":"05186e57-2ee0-4402-8c11-23023adcddf9","system_id":"levelo_inurba_marseille","lat":43.312239,"lon":5.368562,"is_reserved":false,"is_disabled":false,"rental_uris":{"android":"levelo://app?vid=05186e57-2ee0-4402-8c11-23023adcddf9","ios":"levelo://app?vid=05186e57-2ee0-4402-8c11-23023adcddf9"},"vehicle_type_id":"4","last_reported":1686996376,"current_range_meters":24000,"station_id":"ce4bgl92rcd13ifvqbq0","pricing_plan_id":"free"},{"bike_id":"0837ae22-9590-403e-bde2-9f42950b3a0d","system_id":"levelo_inurba_marseille","lat":43.309076,"lon":5.368465,"is_reserved":false,"is_disabled":false,"rental_uris":{"android":"levelo://app?vid=0837ae22-9590-403e-bde2-9f42950b3a0d","ios":"levelo://app?vid=0837ae22-9590-403e-bde2-9f42950b3a0d"},"vehicle_type_id":"4","last_reported":1686996376,"current_range_meters":22800,"station_id":"ce4bgn92rcd13ifvqbvg","pricing_plan_id":"free"},{"bike_id":"da55bca5-b421-4a5f-a56a-8bfab879d461","system_id":"levelo_inurba_marseille","lat":43.314811,"lon":5.373103,"is_reserved":false,"is_disabled":false,"rental_uris":{"android":"levelo://app?vid=da55bca5-b421-4a5f-a56a-8bfab879d461","ios":"levelo://app?vid=da55bca5-b421-4a5f-a56a-8bfab879d461"},"vehicle_type_id":"4","last_reported":1686996376,"current_range_meters":30000,"station_id":"ce4bgt12rcd13ifvqcd0","pricing_plan_id":"free"},{"bike_id":"67445b6c-5925-4d4c-b0fb-46b18b085cae","system_id":"levelo_inurba_marseille","lat":43.308614,"lon":5.372098,"is_reserved":false,"is_disabled":false,"rental_uris":{"android":"levelo://app?vid=67445b6c-5925-4d4c-b0fb-46b18b085cae","ios":"levelo://app?vid=67445b6c-5925-4d4c-b0fb-46b18b085cae"},"vehicle_type_id":"4","last_reported":1686996376,"current_range_meters":28400,"station_id":"ce4bguh2rcd13ifvqckg","pricing_plan_id":"free"},{"bike_id":"92eeb820-8e83-4f5f-b97e-a8847d4d718f","system_id":"levelo_inurba_marseille","lat":43.30547,"lon":5.36531,"is_reserved":false,"is_disabled":false,"rental_uris":{"android":"levelo://app?vid=92eeb820-8e83-4f5f-b97e-a8847d4d718f","ios":"levelo://app?vid=92eeb820-8e83-4f5f-b97e-a8847d4d718f"},"vehicle_type_id":"4","last_reported":1686996376,"current_range_meters":30800,"station_id":"ce4bgs12rcd13ifvqcag","pricing_plan_id":"free"},{"bike_id":"80049f59-4adf-4d31-bd06-706f96dc58bd","system_id":"levelo_inurba_marseille","lat":43.30544,"lon":5.36541,"is_reserved":false,"is_disabled":false,"rental_uris":{"android":"levelo://app?vid=80049f59-4adf-4d31-bd06-706f96dc58bd","ios":"levelo://app?vid=80049f59-4adf-4d31-bd06-706f96dc58bd"},"vehicle_type_id":"4","last_reported":1686996376,"current_range_meters":30800,"station_id":"ce4bgs12rcd13ifvqcag","pricing_plan_id":"free"},{"bike_id":"61f222b0-9d31-4511-b14f-43d63f1847a3","system_id":"levelo_inurba_marseille","lat":43.305368,"lon":5.367343,"is_reserved":false,"is_disabled":false,"rental_uris":{"android":"levelo://app?vid=61f222b0-9d31-4511-b14f-43d63f1847a3","ios":"levelo://app?vid=61f222b0-9d31-4511-b14f-43d63f1847a3"},"vehicle_type_id":"4","last_reported":1686996376,"current_range_meters":21600,"station_id":"ce4bgrp2rcd13ifvqc9g","pricing_plan_id":"free"},{"bike_id":"4320b2f8-18bc-4284-88c6-30809eeb0313","system_id":"levelo_inurba_marseille","lat":43.30537,"lon":5.36541,"is_reserved":false,"is_disabled":false,"rental_uris":{"android":"levelo://app?vid=4320b2f8-18bc-4284-88c6-30809eeb0313","ios":"levelo://app?vid=4320b2f8-18bc-4284-88c6-30809eeb0313"},"vehicle_type_id":"4","last_reported":1686996376,"current_range_meters":22800,"station_id":"","pricing_plan_id":"free"},{"bike_id":"d6f7da51-d6a6-42bb-a5d2-36cfa802d839","system_id":"levelo_inurba_marseille","lat":43.30536,"lon":5.36547,"is_reserved":false,"is_disabled":false,"rental_uris":{"android":"levelo://app?vid=d6f7da51-d6a6-42bb-a5d2-36cfa802d839","ios":"levelo://app?vid=d6f7da51-d6a6-42bb-a5d2-36cfa802d839"},"vehicle_type_id":"4","last_reported":1686996376,"current_range_meters":13200,"station_id":"ce4bgs12rcd13ifvqcag","pricing_plan_id":"free"},{"bike_id":"f3c547f4-8ff4-4b32-90dc-870955f458e0","system_id":"levelo_inurba_marseille","lat":43.305714,"lon":5.365633,"is_reserved":false,"is_disabled":false,"rental_uris":{"android":"levelo://app?vid=f3c547f4-8ff4-4b32-90dc-870955f458e0","ios":"levelo://app?vid=f3c547f4-8ff4-4b32-90dc-870955f458e0"},"vehicle_type_id":"4","last_reported":1686996376,"current_range_meters":26000,"station_id":"ce4bgs12rcd13ifvqcag","pricing_plan_id":"free"},{"bike_id":"7865878b-f624-423e-b7d8-89f5820cedc6","system_id":"levelo_inurba_marseille","lat":43.305368,"lon":5.367343,"is_reserved":false,"is_disabled":false,"rental_uris":{"android":"levelo://app?vid=7865878b-f624-423e-b7d8-89f5820cedc6","ios":"levelo://app?vid=7865878b-f624-423e-b7d8-89f5820cedc6"},"vehicle_type_id":"4","last_reported":1686996376,"current_range_meters":13200,"station_id":"ce4bgrp2rcd13ifvqc9g","pricing_plan_id":"free"},{"bike_id":"2c2ced20-fd17-4efc-8285-6e16e1b21683","system_id":"levelo_inurba_marseille","lat":43.30532,"lon":5.36537,"is_reserved":false,"is_disabled":false,"rental_uris":{"android":"levelo://app?vid=2c2ced20-fd17-4efc-8285-6e16e1b21683","ios":"levelo://app?vid=2c2ced20-fd17-4efc-8285-6e16e1b21683"},"vehicle_type_id":"4","last_reported":1686996376,"current_range_meters":22000,"station_id":"","pricing_plan_id":"free"},{"bike_id":"2424216c-0462-4ad0-b127-d0366c91b61c","system_id":"levelo_inurba_marseille","lat":43.317075,"lon":5.377367,"is_reserved":false,"is_disabled":false,"rental_uris":{"android":"levelo://app?vid=2424216c-0462-4ad0-b127-d0366c91b61c","ios":"levelo://app?vid=2424216c-0462-4ad0-b127-d0366c91b61c"},"vehicle_type_id":"4","last_reported":1686996376,"current_range_meters":31600,"station_id":"ce4bgth2rcd13ifvqch0","pricing_plan_id":"free"},{"bike_id":"96062409-dd94-4761-a2c3-04689f2804b3","system_id":"levelo_inurba_marseille","lat":43.30309,"lon":5.36909,"is_reserved":false,"is_disabled":false,"rental_uris":{"android":"levelo://app?vid=96062409-dd94-4761-a2c3-04689f2804b3","ios":"levelo://app?vid=96062409-dd94-4761-a2c3-04689f2804b3"},"vehicle_type_id":"4","last_reported":1686996376,"current_range_meters":21200,"station_id":"ce4bgqh2rcd13ifvqc5g","pricing_plan_id":"free"},{"bike_id":"3a199225-ad29-419f-8b59-c5d0a4f04336","system_id":"levelo_inurba_marseille","lat":43.30305,"lon":5.36904,"is_reserved":false,"is_disabled":false,"rental_uris":{"android":"levelo://app?vid=3a199225-ad29-419f-8b59-c5d0a4f04336","ios":"levelo://app?vid=3a199225-ad29-419f-8b59-c5d0a4f04336"},"vehicle_type_id":"4","last_reported":1686996376,"current_range_meters":28000,"station_id":"ce4bgqh2rcd13ifvqc5g","pricing_plan_id":"free"},{"bike_id":"d57512e0-cd4d-41f0-9355-fba2ba1b3a27","system_id":"levelo_inurba_marseille","lat":43.301939,"lon":5.366286,"is_reserved":false,"is_disabled":false,"rental_uris":{"android":"levelo://app?vid=d57512e0-cd4d-41f0-9355-fba2ba1b3a27","ios":"levelo://app?vid=d57512e0-cd4d-41f0-9355-fba2ba1b3a27"},"vehicle_type_id":"4","last_reported":1686996376,"current_range_meters":800,"station_id":"ce4bgrh2rcd13ifvqc8g","pricing_plan_id":"free"},{"bike_id":"c9605af8-b749-477a-b1ac-3e9ac5a74abe","system_id":"levelo_inurba_marseille","lat":43.301939,"lon":5.366286,"is_reserved":false,"is_disabled":false,"rental_uris":{"android":"levelo://app?vid=c9605af8-b749-477a-b1ac-3e9ac5a74abe","ios":"levelo://app?vid=c9605af8-b749-477a-b1ac-3e9ac5a74abe"},"vehicle_type_id":"4","last_reported":1686996376,"current_range_meters":16400,"station_id":"ce4bgrh2rcd13ifvqc8g","pricing_plan_id":"free"},{"bike_id":"493f201b-219f-44ca-9c0b-c55da0bfa997","system_id":"levelo_inurba_marseille","lat":43.301939,"lon":5.366286,"is_reserved":false,"is_disabled":false,"rental_uris":{"android":"levelo://app?vid=493f201b-219f-44ca-9c0b-c55da0bfa997","ios":"levelo://app?vid=493f201b-219f-44ca-9c0b-c55da0bfa997"},"vehicle_type_id":"4","last_reported":1686996376,"current_range_meters":0,"station_id":"ce4bgrh2rcd13ifvqc8g","pricing_plan_id":"free"},{"bike_id":"ae33307b-fcd5-479b-9ae1-9002ed226c6e","system_id":"levelo_inurba_marseille","lat":43.308012,"lon":5.381511,"is_reserved":false,"is_disabled":false,"rental_uris":{"android":"levelo://app?vid=ae33307b-fcd5-479b-9ae1-9002ed226c6e","ios":"levelo://app?vid=ae33307b-fcd5-479b-9ae1-9002ed226c6e"},"vehicle_type_id":"4","last_reported":1686996376,"current_range_meters":10800,"station_id":"ce4bgt12rcd13ifvqce0","pricing_plan_id":"free"},{"bike_id":"43fc693e-f2a9-4aec-8fd9-d094bb02cb70","system_id":"levelo_inurba_marseille","lat":43.304606,"lon":5.379026,"is_reserved":false,"is_disabled":false,"rental_uris":{"android":"levelo://app?vid=43fc693e-f2a9-4aec-8fd9-d094bb02cb70","ios":"levelo://app?vid=43fc693e-f2a9-4aec-8fd9-d094bb02cb70"},"vehicle_type_id":"4","last_reported":1686996376,"current_range_meters":21600,"station_id":"ce4bgup2rcd13ifvqcn0","pricing_plan_id":"free"},{"bike_id":"7f8bb598-5691-46e8-bc73-6118a2742382","system_id":"levelo_inurba_marseille","lat":43.30163,"lon":5.3739,"is_reserved":false,"is_disabled":false,"rental_uris":{"android":"levelo://app?vid=7f8bb598-5691-46e8-bc73-6118a2742382","ios":"levelo://app?vid=7f8bb598-5691-46e8-bc73-6118a2742382"},"vehicle_type_id":"4","last_reported":1686996376,"current_range_meters":31200,"station_id":"ce4bgs92rcd13ifvqcc0","pricing_plan_id":"free"},{"bike_id":"1edd8442-42fc-4b67-b28a-15342acd743f","system_id":"levelo_inurba_marseille","lat":43.30267,"lon":5.37663,"is_reserved":false,"is_disabled":false,"rental_uris":{"android":"levelo://app?vid=1edd8442-42fc-4b67-b28a-15342acd743f","ios":"levelo://app?vid=1edd8442-42fc-4b67-b28a-15342acd743f"},"vehicle_type_id":"4","last_reported":1686996376,"current_range_meters":31200,"station_id":"ce4bguh2rcd13ifvqcj0","pricing_plan_id":"free"},{"bike_id":"d0505f39-e21c-4765-b1e6-2b52a49f12e1","system_id":"levelo_inurba_marseille","lat":43.301429,"lon":5.37413,"is_reserved":false,"is_disabled":false,"rental_uris":{"android":"levelo://app?vid=d0505f39-e21c-4765-b1e6-2b52a49f12e1","ios":"levelo://app?vid=d0505f39-e21c-4765-b1e6-2b52a49f12e1"},"vehicle_type_id":"4","last_reported":1686996376,"current_range_meters":26000,"station_id":"ce4bgs92rcd13ifvqcc0","pricing_plan_id":"free"},{"bike_id":"35c2b480-e69a-4543-9412-895f27c2a34e","system_id":"levelo_inurba_marseille","lat":43.31998,"lon":5.38149,"is_reserved":false,"is_disabled":false,"rental_uris":{"android":"levelo://app?vid=35c2b480-e69a-4543-9412-895f27c2a34e","ios":"levelo://app?vid=35c2b480-e69a-4543-9412-895f27c2a34e"},"vehicle_type_id":"4","last_reported":1686996376,"current_range_meters":30800,"station_id":"ce4bhr12rcd13ifvqhpg","pricing_plan_id":"free"},{"bike_id":"5003c2fa-8578-4b5b-aee0-bf9c6a52e3f5","system_id":"levelo_inurba_marseille","lat":43.31995,"lon":5.38152,"is_reserved":false,"is_disabled":false,"rental_uris":{"android":"levelo://app?vid=5003c2fa-8578-4b5b-aee0-bf9c6a52e3f5","ios":"levelo://app?vid=5003c2fa-8578-4b5b-aee0-bf9c6a52e3f5"},"vehicle_type_id":"4","last_reported":1686996376,"current_range_meters":0,"station_id":"ce4bhr12rcd13ifvqhpg","pricing_plan_id":"free"},{"bike_id":"8fce8128-d8b9-4e54-b948-117df1579464","system_id":"levelo_inurba_marseille","lat":43.32003,"lon":5.38155,"is_reserved":false,"is_disabled":false,"rental_uris":{"android":"levelo://app?vid=8fce8128-d8b9-4e54-b948-117df1579464","ios":"levelo://app?vid=8fce8128-d8b9-4e54-b948-117df1579464"},"vehicle_type_id":"4","last_reported":1686996376,"current_range_meters":29200,"station_id":"ce4bhr12rcd13ifvqhpg","pricing_plan_id":"free"},{"bike_id":"9800a2ef-ea0d-4633-b8ce-9675c2ef06b3","system_id":"levelo_inurba_marseille","lat":43.313571,"lon":5.384829,"is_reserved":false,"is_disabled":false,"rental_uris":{"android":"levelo://app?vid=9800a2ef-ea0d-4633-b8ce-9675c2ef06b3","ios":"levelo://app?vid=9800a2ef-ea0d-4633-b8ce-9675c2ef06b3"},"vehicle_type_id":"4","last_reported":1686996376,"current_range_meters":28400,"station_id":"ce4bgt92rcd13ifvqcf0","pricing_plan_id":"free"},{"bike_id":"1b8cda43-d7dd-4284-9b36-2ab93da960b4","system_id":"levelo_inurba_marseille","lat":43.299222,"lon":5.365554,"is_reserved":false,"is_disabled":false,"rental_uris":{"android":"levelo://app?vid=1b8cda43-d7dd-4284-9b36-2ab93da960b4","ios":"levelo://app?vid=1b8cda43-d7dd-4284-9b36-2ab93da960b4"},"vehicle_type_id":"4","last_reported":1686996376,"current_range_meters":29200,"station_id":"ce4bgm92rcd13ifvqbr0","pricing_plan_id":"free"},{"bike_id":"1ea6966d-43eb-43c5-9d3e-fe3ec65401bc","system_id":"levelo_inurba_marseille","lat":43.299222,"lon":5.365554,"is_reserved":false,"is_disabled":false,"rental_uris":{"android":"levelo://app?vid=1ea6966d-43eb-43c5-9d3e-fe3ec65401bc","ios":"levelo://app?vid=1ea6966d-43eb-43c5-9d3e-fe3ec65401bc"},"vehicle_type_id":"4","last_reported":1686996376,"current_range_meters":19600,"station_id":"ce4bgm92rcd13ifvqbr0","pricing_plan_id":"free"},{"bike_id":"d5a02239-0127-4095-8e24-e5820ac8c1e4","system_id":"levelo_inurba_marseille","lat":43.299222,"lon":5.365554,"is_reserved":false,"is_disabled":false,"rental_uris":{"android":"levelo://app?vid=d5a02239-0127-4095-8e24-e5820ac8c1e4","ios":"levelo://app?vid=d5a02239-0127-4095-8e24-e5820ac8c1e4"},"vehicle_type_id":"4","last_reported":1686996376,"current_range_meters":27600,"station_id":"ce4bgm92rcd13ifvqbr0","pricing_plan_id":"free"},{"bike_id":"330412da-b9eb-49fa-9ba0-9288ee9ddd31","system_id":"levelo_inurba_marseille","lat":43.3004,"lon":5.37523,"is_reserved":false,"is_disabled":false,"rental_uris":{"android":"levelo://app?vid=330412da-b9eb-49fa-9ba0-9288ee9ddd31","ios":"levelo://app?vid=330412da-b9eb-49fa-9ba0-9288ee9ddd31"},"vehicle_type_id":"4","last_reported":1686996376,"current_range_meters":19600,"station_id":"","pricing_plan_id":"free"},{"bike_id":"cdaf680a-0a95-4766-a407-a3d8078fce83","system_id":"levelo_inurba_marseille","lat":43.298433,"lon":5.362774,"is_reserved":false,"is_disabled":false,"rental_uris":{"android":"levelo://app?vid=cdaf680a-0a95-4766-a407-a3d8078fce83","ios":"levelo://app?vid=cdaf680a-0a95-4766-a407-a3d8078fce83"},"vehicle_type_id":"4","last_reported":1686996376,"current_range_meters":28000,"station_id":"ce4bgpp2rcd13ifvqc3g","pricing_plan_id":"free"},{"bike_id":"e8ac08f2-4492-4183-be60-bfac8e288a12","system_id":"levelo_inurba_marseille","lat":43.29854,"lon":5.36282,"is_reserved":false,"is_disabled":false,"rental_uris":{"android":"levelo://app?vid=e8ac08f2-4492-4183-be60-bfac8e288a12","ios":"levelo://app?vid=e8ac08f2-4492-4183-be60-bfac8e288a12"},"vehicle_type_id":"4","last_reported":1686996376,"current_range_meters":26800,"station_id":"ce4bgpp2rcd13ifvqc3g","pricing_plan_id":"free"},{"bike_id":"2170fbca-906a-400b-9f2d-8c51017126b5","system_id":"levelo_inurba_marseille","lat":43.29853,"lon":5.36288,"is_reserved":false,"is_disabled":false,"rental_uris":{"android":"levelo://app?vid=2170fbca-906a-400b-9f2d-8c51017126b5","ios":"levelo://app?vid=2170fbca-906a-400b-9f2d-8c51017126b5"},"vehicle_type_id":"4","last_reported":1686996376,"current_range_meters":28000,"station_id":"ce4bgpp2rcd13ifvqc3g","pricing_plan_id":"free"},{"bike_id":"9fe47141-4d99-452c-b205-e90a05f2dcee","system_id":"levelo_inurba_marseille","lat":43.29853,"lon":5.36287,"is_reserved":false,"is_disabled":false,"rental_uris":{"android":"levelo://app?vid=9fe47141-4d99-452c-b205-e90a05f2dcee","ios":"levelo://app?vid=9fe47141-4d99-452c-b205-e90a05f2dcee"},"vehicle_type_id":"4","last_reported":1686996376,"current_range_meters":21200,"station_id":"ce4bgpp2rcd13ifvqc3g","pricing_plan_id":"free"},{"bike_id":"2a742b94-5b27-4032-8d79-1a530007b32e","system_id":"levelo_inurba_marseille","lat":43.29852,"lon":5.36287,"is_reserved":false,"is_disabled":false,"rental_uris":{"android":"levelo://app?vid=2a742b94-5b27-4032-8d79-1a530007b32e","ios":"levelo://app?vid=2a742b94-5b27-4032-8d79-1a530007b32e"},"vehicle_type_id":"4","last_reported":1686996376,"current_range_meters":13600,"station_id":"ce4bgpp2rcd13ifvqc3g","pricing_plan_id":"free"},{"bike_id":"27614f03-d21d-4234-b70e-7f02107cecb6","system_id":"levelo_inurba_marseille","lat":43.29851,"lon":5.36289,"is_reserved":false,"is_disabled":false,"rental_uris":{"android":"levelo://app?vid=27614f03-d21d-4234-b70e-7f02107cecb6","ios":"levelo://app?vid=27614f03-d21d-4234-b70e-7f02107cecb6"},"vehicle_type_id":"4","last_reported":1686996376,"current_range_meters":22400,"station_id":"ce4bgpp2rcd13ifvqc3g","pricing_plan_id":"free"},{"bike_id":"7382cb91-b17b-4cd5-98f1-ef3434ff2361","system_id":"levelo_inurba_marseille","lat":43.29851,"lon":5.36284,"is_reserved":false,"is_disabled":false,"rental_uris":{"android":"levelo://app?vid=7382cb91-b17b-4cd5-98f1-ef3434ff2361","ios":"levelo://app?vid=7382cb91-b17b-4cd5-98f1-ef3434ff2361"},"vehicle_type_id":"4","last_reported":1686996376,"current_range_meters":19600,"station_id":"ce4bgpp2rcd13ifvqc3g","pricing_plan_id":"free"},{"bike_id":"ae6ec0b0-b3d5-443d-8f3f-258b257129e2","system_id":"levelo_inurba_marseille","lat":43.298433,"lon":5.362774,"is_reserved":false,"is_disabled":false,"rental_uris":{"android":"levelo://app?vid=ae6ec0b0-b3d5-443d-8f3f-258b257129e2","ios":"levelo://app?vid=ae6ec0b0-b3d5-443d-8f3f-258b257129e2"},"vehicle_type_id":"4","last_reported":1686996376,"current_range_meters":31200,"station_id":"ce4bgpp2rcd13ifvqc3g","pricing_plan_id":"free"},{"bike_id":"0e3f3765-d5d7-4fe4-afaf-831cfa71f510","system_id":"levelo_inurba_marseille","lat":43.298433,"lon":5.362774,"is_reserved":false,"is_disabled":false,"rental_uris":{"android":"levelo://app?vid=0e3f3765-d5d7-4fe4-afaf-831cfa71f510","ios":"levelo://app?vid=0e3f3765-d5d7-4fe4-afaf-831cfa71f510"},"vehicle_type_id":"4","last_reported":1686996376,"current_range_meters":31600,"station_id":"ce4bgpp2rcd13ifvqc3g","pricing_plan_id":"free"},{"bike_id":"16c94e06-62a4-4906-a682-7e24c34dfb0b","system_id":"levelo_inurba_marseille","lat":43.298433,"lon":5.362774,"is_reserved":false,"is_disabled":false,"rental_uris":{"android":"levelo://app?vid=16c94e06-62a4-4906-a682-7e24c34dfb0b","ios":"levelo://app?vid=16c94e06-62a4-4906-a682-7e24c34dfb0b"},"vehicle_type_id":"4","last_reported":1686996376,"current_range_meters":31600,"station_id":"ce4bgpp2rcd13ifvqc3g","pricing_plan_id":"free"},{"bike_id":"2922949d-5ec2-4a52-abe6-352f867c02d5","system_id":"levelo_inurba_marseille","lat":43.298433,"lon":5.362774,"is_reserved":false,"is_disabled":false,"rental_uris":{"android":"levelo://app?vid=2922949d-5ec2-4a52-abe6-352f867c02d5","ios":"levelo://app?vid=2922949d-5ec2-4a52-abe6-352f867c02d5"},"vehicle_type_id":"4","last_reported":1686996376,"current_range_meters":31600,"station_id":"ce4bgpp2rcd13ifvqc3g","pricing_plan_id":"free"},{"bike_id":"8060464c-5162-484a-84c7-51b7b1f9450e","system_id":"levelo_inurba_marseille","lat":43.298433,"lon":5.362774,"is_reserved":false,"is_disabled":false,"rental_uris":{"android":"levelo://app?vid=8060464c-5162-484a-84c7-51b7b1f9450e","ios":"levelo://app?vid=8060464c-5162-484a-84c7-51b7b1f9450e"},"vehicle_type_id":"4","last_reported":1686996376,"current_range_meters":31600,"station_id":"ce4bgpp2rcd13ifvqc3g","pricing_plan_id":"free"},{"bike_id":"507289dc-4d6b-497a-bdd5-c416f326a5a6","system_id":"levelo_inurba_marseille","lat":43.298433,"lon":5.362774,"is_reserved":false,"is_disabled":false,"rental_uris":{"android":"levelo://app?vid=507289dc-4d6b-497a-bdd5-c416f326a5a6","ios":"levelo://app?vid=507289dc-4d6b-497a-bdd5-c416f326a5a6"},"vehicle_type_id":"4","last_reported":1686996376,"current_range_meters":31200,"station_id":"ce4bgpp2rcd13ifvqc3g","pricing_plan_id":"free"},{"bike_id":"4b4b80b7-316b-4190-956f-0717d4a033dd","system_id":"levelo_inurba_marseille","lat":43.29843,"lon":5.36267,"is_reserved":false,"is_disabled":false,"rental_uris":{"android":"levelo://app?vid=4b4b80b7-316b-4190-956f-0717d4a033dd","ios":"levelo://app?vid=4b4b80b7-316b-4190-956f-0717d4a033dd"},"vehicle_type_id":"4","last_reported":1686996376,"current_range_meters":12000,"station_id":"ce4bgpp2rcd13ifvqc3g","pricing_plan_id":"free"},{"bike_id":"6df66912-2c10-473b-aaca-d83f6a7575fc","system_id":"levelo_inurba_marseille","lat":43.29841,"lon":5.36269,"is_reserved":false,"is_disabled":false,"rental_uris":{"android":"levelo://app?vid=6df66912-2c10-473b-aaca-d83f6a7575fc","ios":"levelo://app?vid=6df66912-2c10-473b-aaca-d83f6a7575fc"},"vehicle_type_id":"4","last_reported":1686996376,"current_range_meters":18400,"station_id":"ce4bgpp2rcd13ifvqc3g","pricing_plan_id":"free"},{"bike_id":"b10d6f7a-8a4b-4f85-b2d0-2baf1c242d4c","system_id":"levelo_inurba_marseille","lat":43.298433,"lon":5.362774,"is_reserved":false,"is_disabled":false,"rental_uris":{"android":"levelo://app?vid=b10d6f7a-8a4b-4f85-b2d0-2baf1c242d4c","ios":"levelo://app?vid=b10d6f7a-8a4b-4f85-b2d0-2baf1c242d4c"},"vehicle_type_id":"4","last_reported":1686996376,"current_range_meters":27200,"station_id":"ce4bgpp2rcd13ifvqc3g","pricing_plan_id":"free"},{"bike_id":"5ec42d38-18fb-402a-8f93-519b756addf8","system_id":"levelo_inurba_marseille","lat":43.29841,"lon":5.36264,"is_reserved":false,"is_disabled":false,"rental_uris":{"android":"levelo://app?vid=5ec42d38-18fb-402a-8f93-519b756addf8","ios":"levelo://app?vid=5ec42d38-18fb-402a-8f93-519b756addf8"},"vehicle_type_id":"4","last_reported":1686996376,"current_range_meters":18400,"station_id":"ce4bgpp2rcd13ifvqc3g","pricing_plan_id":"free"},{"bike_id":"5f89eee1-571a-440f-8f5b-d713c94b8460","system_id":"levelo_inurba_marseille","lat":43.299243,"lon":5.374807,"is_reserved":false,"is_disabled":false,"rental_uris":{"android":"levelo://app?vid=5f89eee1-571a-440f-8f5b-d713c94b8460","ios":"levelo://app?vid=5f89eee1-571a-440f-8f5b-d713c94b8460"},"vehicle_type_id":"4","last_reported":1686996376,"current_range_meters":3600,"station_id":"ce4bgjh2rcd13ifvqbg0","pricing_plan_id":"free"},{"bike_id":"925aa4df-c004-4516-9ecc-22f75b570ac2","system_id":"levelo_inurba_marseille","lat":43.298433,"lon":5.362774,"is_reserved":false,"is_disabled":false,"rental_uris":{"android":"levelo://app?vid=925aa4df-c004-4516-9ecc-22f75b570ac2","ios":"levelo://app?vid=925aa4df-c004-4516-9ecc-22f75b570ac2"},"vehicle_type_id":"4","last_reported":1686996376,"current_range_meters":26000,"station_id":"ce4bgpp2rcd13ifvqc3g","pricing_plan_id":"free"},{"bike_id":"3e45b850-4902-4f72-8b6b-2a71f63a4b9b","system_id":"levelo_inurba_marseille","lat":43.311722,"lon":5.387247,"is_reserved":false,"is_disabled":false,"rental_uris":{"android":"levelo://app?vid=3e45b850-4902-4f72-8b6b-2a71f63a4b9b","ios":"levelo://app?vid=3e45b850-4902-4f72-8b6b-2a71f63a4b9b"},"vehicle_type_id":"4","last_reported":1686996376,"current_range_meters":28400,"station_id":"ce4bgv12rcd13ifvqcp0","pricing_plan_id":"free"},{"bike_id":"5c4ebfc1-7bf1-4265-a301-3ca2e84fdecd","system_id":"levelo_inurba_marseille","lat":43.297794,"lon":5.370888,"is_reserved":false,"is_disabled":false,"rental_uris":{"android":"levelo://app?vid=5c4ebfc1-7bf1-4265-a301-3ca2e84fdecd","ios":"levelo://app?vid=5c4ebfc1-7bf1-4265-a301-3ca2e84fdecd"},"vehicle_type_id":"4","last_reported":1686996376,"current_range_meters":24000,"station_id":"ce4bgop2rcd13ifvqc1g","pricing_plan_id":"free"},{"bike_id":"f6b3208e-430f-4a3a-bb5c-15de656086a0","system_id":"levelo_inurba_marseille","lat":43.297794,"lon":5.370888,"is_reserved":false,"is_disabled":false,"rental_uris":{"android":"levelo://app?vid=f6b3208e-430f-4a3a-bb5c-15de656086a0","ios":"levelo://app?vid=f6b3208e-430f-4a3a-bb5c-15de656086a0"},"vehicle_type_id":"4","last_reported":1686996376,"current_range_meters":31200,"station_id":"ce4bgop2rcd13ifvqc1g","pricing_plan_id":"free"},{"bike_id":"4bf53da7-5b2e-4feb-ad64-d834c27b533d","system_id":"levelo_inurba_marseille","lat":43.328371,"lon":5.366912,"is_reserved":false,"is_disabled":false,"rental_uris":{"android":"levelo://app?vid=4bf53da7-5b2e-4feb-ad64-d834c27b533d","ios":"levelo://app?vid=4bf53da7-5b2e-4feb-ad64-d834c27b533d"},"vehicle_type_id":"4","last_reported":1686996376,"current_range_meters":26800,"station_id":"ce4bhs92rcd13ifvqi0g","pricing_plan_id":"free"},{"bike_id":"6d12bf08-ef93-4cae-ab6e-6233437e9a82","system_id":"levelo_inurba_marseille","lat":43.328371,"lon":5.366912,"is_reserved":false,"is_disabled":false,"rental_uris":{"android":"levelo://app?vid=6d12bf08-ef93-4cae-ab6e-6233437e9a82","ios":"levelo://app?vid=6d12bf08-ef93-4cae-ab6e-6233437e9a82"},"vehicle_type_id":"4","last_reported":1686996376,"current_range_meters":20000,"station_id":"ce4bhs92rcd13ifvqi0g","pricing_plan_id":"free"},{"bike_id":"4bb85f49-7f9a-477c-abaa-23a093d581e6","system_id":"levelo_inurba_marseille","lat":43.32822,"lon":5.36674,"is_reserved":false,"is_disabled":false,"rental_uris":{"android":"levelo://app?vid=4bb85f49-7f9a-477c-abaa-23a093d581e6","ios":"levelo://app?vid=4bb85f49-7f9a-477c-abaa-23a093d581e6"},"vehicle_type_id":"4","last_reported":1686996376,"current_range_meters":20800,"station_id":"ce4bhs92rcd13ifvqi0g","pricing_plan_id":"free"},{"bike_id":"519a9111-344b-437a-af19-0f2a8950b7bd","system_id":"levelo_inurba_marseille","lat":43.328371,"lon":5.366912,"is_reserved":false,"is_disabled":false,"rental_uris":{"android":"levelo://app?vid=519a9111-344b-437a-af19-0f2a8950b7bd","ios":"levelo://app?vid=519a9111-344b-437a-af19-0f2a8950b7bd"},"vehicle_type_id":"4","last_reported":1686996376,"current_range_meters":20800,"station_id":"ce4bhs92rcd13ifvqi0g","pricing_plan_id":"free"},{"bike_id":"5a5e3d8f-b983-46a7-9e9c-c922ae093802","system_id":"levelo_inurba_marseille","lat":43.328371,"lon":5.366912,"is_reserved":false,"is_disabled":false,"rental_uris":{"android":"levelo://app?vid=5a5e3d8f-b983-46a7-9e9c-c922ae093802","ios":"levelo://app?vid=5a5e3d8f-b983-46a7-9e9c-c922ae093802"},"vehicle_type_id":"4","last_reported":1686996376,"current_range_meters":31200,"station_id":"ce4bhs92rcd13ifvqi0g","pricing_plan_id":"free"},{"bike_id":"b332c37d-a2b6-4b97-8bc8-b9f716a8c2d6","system_id":"levelo_inurba_marseille","lat":43.328371,"lon":5.366912,"is_reserved":false,"is_disabled":false,"rental_uris":{"android":"levelo://app?vid=b332c37d-a2b6-4b97-8bc8-b9f716a8c2d6","ios":"levelo://app?vid=b332c37d-a2b6-4b97-8bc8-b9f716a8c2d6"},"vehicle_type_id":"4","last_reported":1686996376,"current_range_meters":27200,"station_id":"ce4bhs92rcd13ifvqi0g","pricing_plan_id":"free"},{"bike_id":"815c5fa8-0a8e-4539-a125-095f582ce681","system_id":"levelo_inurba_marseille","lat":43.328371,"lon":5.366912,"is_reserved":false,"is_disabled":false,"rental_uris":{"android":"levelo://app?vid=815c5fa8-0a8e-4539-a125-095f582ce681","ios":"levelo://app?vid=815c5fa8-0a8e-4539-a125-095f582ce681"},"vehicle_type_id":"4","last_reported":1686996376,"current_range_meters":15200,"station_id":"ce4bhs92rcd13ifvqi0g","pricing_plan_id":"free"},{"bike_id":"1516e766-27f3-4b1a-ad2e-ef9fdbdc2876","system_id":"levelo_inurba_marseille","lat":43.29717,"lon":5.36626,"is_reserved":false,"is_disabled":false,"rental_uris":{"android":"levelo://app?vid=1516e766-27f3-4b1a-ad2e-ef9fdbdc2876","ios":"levelo://app?vid=1516e766-27f3-4b1a-ad2e-ef9fdbdc2876"},"vehicle_type_id":"4","last_reported":1686996376,"current_range_meters":20400,"station_id":"","pricing_plan_id":"free"},{"bike_id":"d08d01f8-b41e-4869-a9c9-7a964b732766","system_id":"levelo_inurba_marseille","lat":43.29713,"lon":5.3661,"is_reserved":false,"is_disabled":false,"rental_uris":{"android":"levelo://app?vid=d08d01f8-b41e-4869-a9c9-7a964b732766","ios":"levelo://app?vid=d08d01f8-b41e-4869-a9c9-7a964b732766"},"vehicle_type_id":"4","last_reported":1686996376,"current_range_meters":31200,"station_id":"ce4bgn12rcd13ifvqbt0","pricing_plan_id":"free"},{"bike_id":"176f4894-d7fc-460e-aa5d-7c8c1e206dc3","system_id":"levelo_inurba_marseille","lat":43.29711,"lon":5.36605,"is_reserved":false,"is_disabled":false,"rental_uris":{"android":"levelo://app?vid=176f4894-d7fc-460e-aa5d-7c8c1e206dc3","ios":"levelo://app?vid=176f4894-d7fc-460e-aa5d-7c8c1e206dc3"},"vehicle_type_id":"4","last_reported":1686996376,"current_range_meters":16400,"station_id":"ce4bgn12rcd13ifvqbt0","pricing_plan_id":"free"},{"bike_id":"7b65511e-257b-437a-b21a-e4165983d3a3","system_id":"levelo_inurba_marseille","lat":43.2968,"lon":5.37291,"is_reserved":false,"is_disabled":false,"rental_uris":{"android":"levelo://app?vid=7b65511e-257b-437a-b21a-e4165983d3a3","ios":"levelo://app?vid=7b65511e-257b-437a-b21a-e4165983d3a3"},"vehicle_type_id":"4","last_reported":1686996376,"current_range_meters":15200,"station_id":"ce4bgk12rcd13ifvqbj0","pricing_plan_id":"free"},{"bike_id":"68e5c3db-049e-4dd8-add9-b55621952703","system_id":"levelo_inurba_marseille","lat":43.2968,"lon":5.37291,"is_reserved":false,"is_disabled":false,"rental_uris":{"android":"levelo://app?vid=68e5c3db-049e-4dd8-add9-b55621952703","ios":"levelo://app?vid=68e5c3db-049e-4dd8-add9-b55621952703"},"vehicle_type_id":"4","last_reported":1686996376,"current_range_meters":22000,"station_id":"ce4bgk12rcd13ifvqbj0","pricing_plan_id":"free"},{"bike_id":"88d0330c-5bb0-4a19-9b65-d4683b42e015","system_id":"levelo_inurba_marseille","lat":43.29683,"lon":5.36046,"is_reserved":false,"is_disabled":false,"rental_uris":{"android":"levelo://app?vid=88d0330c-5bb0-4a19-9b65-d4683b42e015","ios":"levelo://app?vid=88d0330c-5bb0-4a19-9b65-d4683b42e015"},"vehicle_type_id":"4","last_reported":1686996376,"current_range_meters":6800,"station_id":"ce4bgpp2rcd13ifvqc3g","pricing_plan_id":"free"},{"bike_id":"2bae4c3e-0cc0-464a-9e37-6782d39537cf","system_id":"levelo_inurba_marseille","lat":43.29573,"lon":5.367355,"is_reserved":false,"is_disabled":false,"rental_uris":{"android":"levelo://app?vid=2bae4c3e-0cc0-464a-9e37-6782d39537cf","ios":"levelo://app?vid=2bae4c3e-0cc0-464a-9e37-6782d39537cf"},"vehicle_type_id":"4","last_reported":1686996376,"current_range_meters":29600,"station_id":"ce4bgph2rcd13ifvqc2g","pricing_plan_id":"free"},{"bike_id":"d083a081-02a2-4850-8a95-4ebb1d45ae2c","system_id":"levelo_inurba_marseille","lat":43.29573,"lon":5.367355,"is_reserved":false,"is_disabled":false,"rental_uris":{"android":"levelo://app?vid=d083a081-02a2-4850-8a95-4ebb1d45ae2c","ios":"levelo://app?vid=d083a081-02a2-4850-8a95-4ebb1d45ae2c"},"vehicle_type_id":"4","last_reported":1686996376,"current_range_meters":28800,"station_id":"ce4bgph2rcd13ifvqc2g","pricing_plan_id":"free"},{"bike_id":"822b2942-d2a0-4427-85b3-94710916d81c","system_id":"levelo_inurba_marseille","lat":43.29573,"lon":5.367355,"is_reserved":false,"is_disabled":false,"rental_uris":{"android":"levelo://app?vid=822b2942-d2a0-4427-85b3-94710916d81c","ios":"levelo://app?vid=822b2942-d2a0-4427-85b3-94710916d81c"},"vehicle_type_id":"4","last_reported":1686996376,"current_range_meters":32000,"station_id":"ce4bgph2rcd13ifvqc2g","pricing_plan_id":"free"},{"bike_id":"bf8fea17-a4bc-47fb-af0e-201b3cb78e63","system_id":"levelo_inurba_marseille","lat":43.29573,"lon":5.367355,"is_reserved":false,"is_disabled":false,"rental_uris":{"android":"levelo://app?vid=bf8fea17-a4bc-47fb-af0e-201b3cb78e63","ios":"levelo://app?vid=bf8fea17-a4bc-47fb-af0e-201b3cb78e63"},"vehicle_type_id":"4","last_reported":1686996376,"current_range_meters":31600,"station_id":"ce4bgph2rcd13ifvqc2g","pricing_plan_id":"free"},{"bike_id":"853bd63c-d726-45e9-8b55-3fb1e1049d99","system_id":"levelo_inurba_marseille","lat":43.29573,"lon":5.367355,"is_reserved":false,"is_disabled":false,"rental_uris":{"android":"levelo://app?vid=853bd63c-d726-45e9-8b55-3fb1e1049d99","ios":"levelo://app?vid=853bd63c-d726-45e9-8b55-3fb1e1049d99"},"vehicle_type_id":"4","last_reported":1686996376,"current_range_meters":9600,"station_id":"ce4bgph2rcd13ifvqc2g","pricing_plan_id":"free"},{"bike_id":"ea9a72fe-5e4e-4e95-87b0-85ca045c8349","system_id":"levelo_inurba_marseille","lat":43.29573,"lon":5.367355,"is_reserved":false,"is_disabled":false,"rental_uris":{"android":"levelo://app?vid=ea9a72fe-5e4e-4e95-87b0-85ca045c8349","ios":"levelo://app?vid=ea9a72fe-5e4e-4e95-87b0-85ca045c8349"},"vehicle_type_id":"4","last_reported":1686996376,"current_range_meters":4800,"station_id":"ce4bgph2rcd13ifvqc2g","pricing_plan_id":"free"},{"bike_id":"68c25d70-fc05-4670-9de5-a5b50a51c4c7","system_id":"levelo_inurba_marseille","lat":43.296131,"lon":5.370773,"is_reserved":false,"is_disabled":false,"rental_uris":{"android":"levelo://app?vid=68c25d70-fc05-4670-9de5-a5b50a51c4c7","ios":"levelo://app?vid=68c25d70-fc05-4670-9de5-a5b50a51c4c7"},"vehicle_type_id":"4","last_reported":1686996376,"current_range_meters":27600,"station_id":"ce4bgnh2rcd13ifvqc0g","pricing_plan_id":"free"},{"bike_id":"cf599cb1-4d4e-40a3-a1f6-e3b8d8d3f3dd","system_id":"levelo_inurba_marseille","lat":43.29573,"lon":5.367355,"is_reserved":false,"is_disabled":false,"rental_uris":{"android":"levelo://app?vid=cf599cb1-4d4e-40a3-a1f6-e3b8d8d3f3dd","ios":"levelo://app?vid=cf599cb1-4d4e-40a3-a1f6-e3b8d8d3f3dd"},"vehicle_type_id":"4","last_reported":1686996376,"current_range_meters":7600,"station_id":"ce4bgph2rcd13ifvqc2g","pricing_plan_id":"free"},{"bike_id":"65105415-b4f5-44a9-9318-4b72b66d997e","system_id":"levelo_inurba_marseille","lat":43.29573,"lon":5.367355,"is_reserved":false,"is_disabled":false,"rental_uris":{"android":"levelo://app?vid=65105415-b4f5-44a9-9318-4b72b66d997e","ios":"levelo://app?vid=65105415-b4f5-44a9-9318-4b72b66d997e"},"vehicle_type_id":"4","last_reported":1686996376,"current_range_meters":15200,"station_id":"ce4bgph2rcd13ifvqc2g","pricing_plan_id":"free"},{"bike_id":"90a18276-b3ed-4444-8cb7-90e77c551742","system_id":"levelo_inurba_marseille","lat":43.29573,"lon":5.367355,"is_reserved":false,"is_disabled":false,"rental_uris":{"android":"levelo://app?vid=90a18276-b3ed-4444-8cb7-90e77c551742","ios":"levelo://app?vid=90a18276-b3ed-4444-8cb7-90e77c551742"},"vehicle_type_id":"4","last_reported":1686996376,"current_range_meters":20000,"station_id":"ce4bgph2rcd13ifvqc2g","pricing_plan_id":"free"},{"bike_id":"ad70fb7c-325d-4482-ad41-038c908d2b86","system_id":"levelo_inurba_marseille","lat":43.29573,"lon":5.367355,"is_reserved":false,"is_disabled":false,"rental_uris":{"android":"levelo://app?vid=ad70fb7c-325d-4482-ad41-038c908d2b86","ios":"levelo://app?vid=ad70fb7c-325d-4482-ad41-038c908d2b86"},"vehicle_type_id":"4","last_reported":1686996376,"current_range_meters":12000,"station_id":"ce4bgph2rcd13ifvqc2g","pricing_plan_id":"free"},{"bike_id":"610d8802-9596-4a36-8bec-6bf93414a029","system_id":"levelo_inurba_marseille","lat":43.29573,"lon":5.367355,"is_reserved":false,"is_disabled":false,"rental_uris":{"android":"levelo://app?vid=610d8802-9596-4a36-8bec-6bf93414a029","ios":"levelo://app?vid=610d8802-9596-4a36-8bec-6bf93414a029"},"vehicle_type_id":"4","last_reported":1686996376,"current_range_meters":27600,"station_id":"ce4bgph2rcd13ifvqc2g","pricing_plan_id":"free"},{"bike_id":"24f41ca5-b432-4feb-a0c8-a15026b97306","system_id":"levelo_inurba_marseille","lat":43.296131,"lon":5.370773,"is_reserved":false,"is_disabled":false,"rental_uris":{"android":"levelo://app?vid=24f41ca5-b432-4feb-a0c8-a15026b97306","ios":"levelo://app?vid=24f41ca5-b432-4feb-a0c8-a15026b97306"},"vehicle_type_id":"4","last_reported":1686996376,"current_range_meters":16400,"station_id":"ce4bgnh2rcd13ifvqc0g","pricing_plan_id":"free"},{"bike_id":"6d3b5592-0110-4d6e-977b-ad6f718eefdd","system_id":"levelo_inurba_marseille","lat":43.299028,"lon":5.381509,"is_reserved":false,"is_disabled":false,"rental_uris":{"android":"levelo://app?vid=6d3b5592-0110-4d6e-977b-ad6f718eefdd","ios":"levelo://app?vid=6d3b5592-0110-4d6e-977b-ad6f718eefdd"},"vehicle_type_id":"4","last_reported":1686996376,"current_range_meters":24000,"station_id":"ce4bgj12rcd13ifvqbc0","pricing_plan_id":"free"},{"bike_id":"d4a64061-e56f-49f7-9d4c-8f19c6ea6961","system_id":"levelo_inurba_marseille","lat":43.299028,"lon":5.381509,"is_reserved":false,"is_disabled":false,"rental_uris":{"android":"levelo://app?vid=d4a64061-e56f-49f7-9d4c-8f19c6ea6961","ios":"levelo://app?vid=d4a64061-e56f-49f7-9d4c-8f19c6ea6961"},"vehicle_type_id":"4","last_reported":1686996376,"current_range_meters":11600,"station_id":"ce4bgj12rcd13ifvqbc0","pricing_plan_id":"free"},{"bike_id":"3a522977-98a9-45ca-aafd-818f95868d4f","system_id":"levelo_inurba_marseille","lat":43.317557,"lon":5.390173,"is_reserved":false,"is_disabled":false,"rental_uris":{"android":"levelo://app?vid=3a522977-98a9-45ca-aafd-818f95868d4f","ios":"levelo://app?vid=3a522977-98a9-45ca-aafd-818f95868d4f"},"vehicle_type_id":"4","last_reported":1686996376,"current_range_meters":30000,"station_id":"ce4bhqp2rcd13ifvqhng","pricing_plan_id":"free"},{"bike_id":"1fc9cb56-2d04-43d0-99c1-dd8149e32db2","system_id":"levelo_inurba_marseille","lat":43.29572,"lon":5.3743,"is_reserved":false,"is_disabled":false,"rental_uris":{"android":"levelo://app?vid=1fc9cb56-2d04-43d0-99c1-dd8149e32db2","ios":"levelo://app?vid=1fc9cb56-2d04-43d0-99c1-dd8149e32db2"},"vehicle_type_id":"4","last_reported":1686996376,"current_range_meters":15200,"station_id":"","pricing_plan_id":"free"},{"bike_id":"03985397-6b2c-4c3c-9406-68fa9ccd02a9","system_id":"levelo_inurba_marseille","lat":43.298037,"lon":5.381066,"is_reserved":false,"is_disabled":false,"rental_uris":{"android":"levelo://app?vid=03985397-6b2c-4c3c-9406-68fa9ccd02a9","ios":"levelo://app?vid=03985397-6b2c-4c3c-9406-68fa9ccd02a9"},"vehicle_type_id":"4","last_reported":1686996376,"current_range_meters":11600,"station_id":"ce4bgip2rcd13ifvqbb0","pricing_plan_id":"free"},{"bike_id":"e04129ab-2a27-40df-8399-1f29cae6f707","system_id":"levelo_inurba_marseille","lat":43.29581,"lon":5.37506,"is_reserved":false,"is_disabled":false,"rental_uris":{"android":"levelo://app?vid=e04129ab-2a27-40df-8399-1f29cae6f707","ios":"levelo://app?vid=e04129ab-2a27-40df-8399-1f29cae6f707"},"vehicle_type_id":"4","last_reported":1686996376,"current_range_meters":30000,"station_id":"ce4bgh92rcd13ifvqb50","pricing_plan_id":"free"},{"bike_id":"bc62f634-aa6a-40ca-bd90-511c68032f02","system_id":"levelo_inurba_marseille","lat":43.298037,"lon":5.381066,"is_reserved":false,"is_disabled":false,"rental_uris":{"android":"levelo://app?vid=bc62f634-aa6a-40ca-bd90-511c68032f02","ios":"levelo://app?vid=bc62f634-aa6a-40ca-bd90-511c68032f02"},"vehicle_type_id":"4","last_reported":1686996376,"current_range_meters":0,"station_id":"ce4bgip2rcd13ifvqbb0","pricing_plan_id":"free"},{"bike_id":"a702ab67-d4b5-4632-b243-327b1eb044f1","system_id":"levelo_inurba_marseille","lat":43.29575,"lon":5.37506,"is_reserved":false,"is_disabled":false,"rental_uris":{"android":"levelo://app?vid=a702ab67-d4b5-4632-b243-327b1eb044f1","ios":"levelo://app?vid=a702ab67-d4b5-4632-b243-327b1eb044f1"},"vehicle_type_id":"4","last_reported":1686996376,"current_range_meters":30000,"station_id":"ce4bgh92rcd13ifvqb50","pricing_plan_id":"free"},{"bike_id":"1bcac620-6126-481e-899b-5c7b188e9791","system_id":"levelo_inurba_marseille","lat":43.298037,"lon":5.381066,"is_reserved":false,"is_disabled":false,"rental_uris":{"android":"levelo://app?vid=1bcac620-6126-481e-899b-5c7b188e9791","ios":"levelo://app?vid=1bcac620-6126-481e-899b-5c7b188e9791"},"vehicle_type_id":"4","last_reported":1686996376,"current_range_meters":26800,"station_id":"ce4bgip2rcd13ifvqbb0","pricing_plan_id":"free"},{"bike_id":"4735d309-dc5b-41a6-8673-ff2a9c8239b1","system_id":"levelo_inurba_marseille","lat":43.29571,"lon":5.37504,"is_reserved":false,"is_disabled":false,"rental_uris":{"android":"levelo://app?vid=4735d309-dc5b-41a6-8673-ff2a9c8239b1","ios":"levelo://app?vid=4735d309-dc5b-41a6-8673-ff2a9c8239b1"},"vehicle_type_id":"4","last_reported":1686996376,"current_range_meters":25200,"station_id":"ce4bgh92rcd13ifvqb50","pricing_plan_id":"free"},{"bike_id":"d0fe0b1f-f840-4688-b5be-a27fd1ffc88d","system_id":"levelo_inurba_marseille","lat":43.295748,"lon":5.37522,"is_reserved":false,"is_disabled":false,"rental_uris":{"android":"levelo://app?vid=d0fe0b1f-f840-4688-b5be-a27fd1ffc88d","ios":"levelo://app?vid=d0fe0b1f-f840-4688-b5be-a27fd1ffc88d"},"vehicle_type_id":"4","last_reported":1686996376,"current_range_meters":23200,"station_id":"ce4bgh92rcd13ifvqb50","pricing_plan_id":"free"},{"bike_id":"b9f0c2d1-81eb-4184-96fa-e91c7c7b4c7d","system_id":"levelo_inurba_marseille","lat":43.30426,"lon":5.38881,"is_reserved":false,"is_disabled":false,"rental_uris":{"android":"levelo://app?vid=b9f0c2d1-81eb-4184-96fa-e91c7c7b4c7d","ios":"levelo://app?vid=b9f0c2d1-81eb-4184-96fa-e91c7c7b4c7d"},"vehicle_type_id":"4","last_reported":1686996376,"current_range_meters":25200,"station_id":"ce4bgk12rcd13ifvqbi0","pricing_plan_id":"free"},{"bike_id":"250c8a96-8498-4211-b8f3-1b00a8d1fbaf","system_id":"levelo_inurba_marseille","lat":43.296477,"lon":5.37768,"is_reserved":false,"is_disabled":false,"rental_uris":{"android":"levelo://app?vid=250c8a96-8498-4211-b8f3-1b00a8d1fbaf","ios":"levelo://app?vid=250c8a96-8498-4211-b8f3-1b00a8d1fbaf"},"vehicle_type_id":"4","last_reported":1686996376,"current_range_meters":17200,"station_id":"","pricing_plan_id":"free"},{"bike_id":"7824de97-f8ae-434e-9cbf-e12b2924ccbe","system_id":"levelo_inurba_marseille","lat":43.296242,"lon":5.37707,"is_reserved":false,"is_disabled":false,"rental_uris":{"android":"levelo://app?vid=7824de97-f8ae-434e-9cbf-e12b2924ccbe","ios":"levelo://app?vid=7824de97-f8ae-434e-9cbf-e12b2924ccbe"},"vehicle_type_id":"4","last_reported":1686996376,"current_range_meters":31200,"station_id":"ce4bgi92rcd13ifvqb90","pricing_plan_id":"free"},{"bike_id":"36627e48-1431-4f9e-b2fe-ad3880388307","system_id":"levelo_inurba_marseille","lat":43.29622,"lon":5.3772,"is_reserved":false,"is_disabled":false,"rental_uris":{"android":"levelo://app?vid=36627e48-1431-4f9e-b2fe-ad3880388307","ios":"levelo://app?vid=36627e48-1431-4f9e-b2fe-ad3880388307"},"vehicle_type_id":"4","last_reported":1686996376,"current_range_meters":20000,"station_id":"ce4bgi92rcd13ifvqb90","pricing_plan_id":"free"},{"bike_id":"c14fa7b9-33dc-458e-96c8-e072ad3cb6f0","system_id":"levelo_inurba_marseille","lat":43.296277,"lon":5.377108,"is_reserved":false,"is_disabled":false,"rental_uris":{"android":"levelo://app?vid=c14fa7b9-33dc-458e-96c8-e072ad3cb6f0","ios":"levelo://app?vid=c14fa7b9-33dc-458e-96c8-e072ad3cb6f0"},"vehicle_type_id":"4","last_reported":1686996376,"current_range_meters":18400,"station_id":"ce4bgi92rcd13ifvqb90","pricing_plan_id":"free"},{"bike_id":"e75ed08c-9c80-42e8-a223-ac490628f79c","system_id":"levelo_inurba_marseille","lat":43.296277,"lon":5.377108,"is_reserved":false,"is_disabled":false,"rental_uris":{"android":"levelo://app?vid=e75ed08c-9c80-42e8-a223-ac490628f79c","ios":"levelo://app?vid=e75ed08c-9c80-42e8-a223-ac490628f79c"},"vehicle_type_id":"4","last_reported":1686996376,"current_range_meters":31200,"station_id":"ce4bgi92rcd13ifvqb90","pricing_plan_id":"free"},{"bike_id":"7abeebbc-c767-4cb4-910e-76274dccb749","system_id":"levelo_inurba_marseille","lat":43.296092,"lon":5.377052,"is_reserved":false,"is_disabled":false,"rental_uris":{"android":"levelo://app?vid=7abeebbc-c767-4cb4-910e-76274dccb749","ios":"levelo://app?vid=7abeebbc-c767-4cb4-910e-76274dccb749"},"vehicle_type_id":"4","last_reported":1686996376,"current_range_meters":31200,"station_id":"ce4bgi92rcd13ifvqb90","pricing_plan_id":"free"},{"bike_id":"c9949753-4530-4dbf-9d2c-c68afd9adcc8","system_id":"levelo_inurba_marseille","lat":43.29616,"lon":5.37727,"is_reserved":false,"is_disabled":false,"rental_uris":{"android":"levelo://app?vid=c9949753-4530-4dbf-9d2c-c68afd9adcc8","ios":"levelo://app?vid=c9949753-4530-4dbf-9d2c-c68afd9adcc8"},"vehicle_type_id":"4","last_reported":1686996376,"current_range_meters":22800,"station_id":"ce4bgi92rcd13ifvqb90","pricing_plan_id":"free"},{"bike_id":"aa8665a1-ee23-4bff-8099-ce97bb468566","system_id":"levelo_inurba_marseille","lat":43.304274,"lon":5.388873,"is_reserved":false,"is_disabled":false,"rental_uris":{"android":"levelo://app?vid=aa8665a1-ee23-4bff-8099-ce97bb468566","ios":"levelo://app?vid=aa8665a1-ee23-4bff-8099-ce97bb468566"},"vehicle_type_id":"4","last_reported":1686996376,"current_range_meters":18800,"station_id":"ce4bgk12rcd13ifvqbi0","pricing_plan_id":"free"},{"bike_id":"9c3b1990-0568-4a51-aac5-6dea9900d00d","system_id":"levelo_inurba_marseille","lat":43.295279,"lon":5.375048,"is_reserved":false,"is_disabled":false,"rental_uris":{"android":"levelo://app?vid=9c3b1990-0568-4a51-aac5-6dea9900d00d","ios":"levelo://app?vid=9c3b1990-0568-4a51-aac5-6dea9900d00d"},"vehicle_type_id":"4","last_reported":1686996376,"current_range_meters":17200,"station_id":"ce4bgkp2rcd13ifvqbmg","pricing_plan_id":"free"},{"bike_id":"14e63352-5deb-4789-b0e6-7cfddcd29ebd","system_id":"levelo_inurba_marseille","lat":43.29972,"lon":5.3849,"is_reserved":false,"is_disabled":false,"rental_uris":{"android":"levelo://app?vid=14e63352-5deb-4789-b0e6-7cfddcd29ebd","ios":"levelo://app?vid=14e63352-5deb-4789-b0e6-7cfddcd29ebd"},"vehicle_type_id":"4","last_reported":1686996376,"current_range_meters":13600,"station_id":"ce4bgj92rcd13ifvqbd0","pricing_plan_id":"free"},{"bike_id":"ace88735-dc00-4df3-a80c-95712f489b68","system_id":"levelo_inurba_marseille","lat":43.29972,"lon":5.38493,"is_reserved":false,"is_disabled":false,"rental_uris":{"android":"levelo://app?vid=ace88735-dc00-4df3-a80c-95712f489b68","ios":"levelo://app?vid=ace88735-dc00-4df3-a80c-95712f489b68"},"vehicle_type_id":"4","last_reported":1686996376,"current_range_meters":25600,"station_id":"ce4bgj92rcd13ifvqbd0","pricing_plan_id":"free"},{"bike_id":"d8e78749-35ad-4bbf-a216-69ad68dc3d70","system_id":"levelo_inurba_marseille","lat":43.299707,"lon":5.384859,"is_reserved":false,"is_disabled":false,"rental_uris":{"android":"levelo://app?vid=d8e78749-35ad-4bbf-a216-69ad68dc3d70","ios":"levelo://app?vid=d8e78749-35ad-4bbf-a216-69ad68dc3d70"},"vehicle_type_id":"4","last_reported":1686996376,"current_range_meters":16000,"station_id":"ce4bgj92rcd13ifvqbd0","pricing_plan_id":"free"},{"bike_id":"5e4117f9-fe7d-4c70-9e51-3e5e81381137","system_id":"levelo_inurba_marseille","lat":43.29525,"lon":5.37511,"is_reserved":false,"is_disabled":false,"rental_uris":{"android":"levelo://app?vid=5e4117f9-fe7d-4c70-9e51-3e5e81381137","ios":"levelo://app?vid=5e4117f9-fe7d-4c70-9e51-3e5e81381137"},"vehicle_type_id":"4","last_reported":1686996376,"current_range_meters":31200,"station_id":"ce4bgkp2rcd13ifvqbmg","pricing_plan_id":"free"},{"bike_id":"f4e970c7-8d49-47f7-b017-5db737a56a3f","system_id":"levelo_inurba_marseille","lat":43.29969,"lon":5.384918,"is_reserved":false,"is_disabled":false,"rental_uris":{"android":"levelo://app?vid=f4e970c7-8d49-47f7-b017-5db737a56a3f","ios":"levelo://app?vid=f4e970c7-8d49-47f7-b017-5db737a56a3f"},"vehicle_type_id":"4","last_reported":1686996376,"current_range_meters":31200,"station_id":"ce4bgj92rcd13ifvqbd0","pricing_plan_id":"free"},{"bike_id":"f66189ca-8f59-4f84-843e-4cf25dadcd59","system_id":"levelo_inurba_marseille","lat":43.299717,"lon":5.384845,"is_reserved":false,"is_disabled":false,"rental_uris":{"android":"levelo://app?vid=f66189ca-8f59-4f84-843e-4cf25dadcd59","ios":"levelo://app?vid=f66189ca-8f59-4f84-843e-4cf25dadcd59"},"vehicle_type_id":"4","last_reported":1686996376,"current_range_meters":28800,"station_id":"ce4bgj92rcd13ifvqbd0","pricing_plan_id":"free"},{"bike_id":"4f146a21-3ce3-45e8-9f89-63133df0d992","system_id":"levelo_inurba_marseille","lat":43.299659,"lon":5.384922,"is_reserved":false,"is_disabled":false,"rental_uris":{"android":"levelo://app?vid=4f146a21-3ce3-45e8-9f89-63133df0d992","ios":"levelo://app?vid=4f146a21-3ce3-45e8-9f89-63133df0d992"},"vehicle_type_id":"4","last_reported":1686996376,"current_range_meters":31200,"station_id":"ce4bgj92rcd13ifvqbd0","pricing_plan_id":"free"},{"bike_id":"99feac0c-bed4-43a1-ae89-dc66f9afeece","system_id":"levelo_inurba_marseille","lat":43.299659,"lon":5.384922,"is_reserved":false,"is_disabled":false,"rental_uris":{"android":"levelo://app?vid=99feac0c-bed4-43a1-ae89-dc66f9afeece","ios":"levelo://app?vid=99feac0c-bed4-43a1-ae89-dc66f9afeece"},"vehicle_type_id":"4","last_reported":1686996376,"current_range_meters":31200,"station_id":"ce4bgj92rcd13ifvqbd0","pricing_plan_id":"free"},{"bike_id":"eb56f040-d7e3-440c-9d05-82afe187dd21","system_id":"levelo_inurba_marseille","lat":43.299659,"lon":5.384922,"is_reserved":false,"is_disabled":false,"rental_uris":{"android":"levelo://app?vid=eb56f040-d7e3-440c-9d05-82afe187dd21","ios":"levelo://app?vid=eb56f040-d7e3-440c-9d05-82afe187dd21"},"vehicle_type_id":"4","last_reported":1686996376,"current_range_meters":31200,"station_id":"ce4bgj92rcd13ifvqbd0","pricing_plan_id":"free"},{"bike_id":"8e1f234f-5027-4f53-9b05-1b383ecd9681","system_id":"levelo_inurba_marseille","lat":43.299724,"lon":5.384848,"is_reserved":false,"is_disabled":false,"rental_uris":{"android":"levelo://app?vid=8e1f234f-5027-4f53-9b05-1b383ecd9681","ios":"levelo://app?vid=8e1f234f-5027-4f53-9b05-1b383ecd9681"},"vehicle_type_id":"4","last_reported":1686996376,"current_range_meters":22000,"station_id":"ce4bgj92rcd13ifvqbd0","pricing_plan_id":"free"},{"bike_id":"f12510f3-622a-4802-bd0b-0c207d0d18d7","system_id":"levelo_inurba_marseille","lat":43.299724,"lon":5.384848,"is_reserved":false,"is_disabled":false,"rental_uris":{"android":"levelo://app?vid=f12510f3-622a-4802-bd0b-0c207d0d18d7","ios":"levelo://app?vid=f12510f3-622a-4802-bd0b-0c207d0d18d7"},"vehicle_type_id":"4","last_reported":1686996376,"current_range_meters":29200,"station_id":"ce4bgj92rcd13ifvqbd0","pricing_plan_id":"free"},{"bike_id":"2b60c370-94fd-4eb7-b590-a776b75b80c8","system_id":"levelo_inurba_marseille","lat":43.299619,"lon":5.384948,"is_reserved":false,"is_disabled":false,"rental_uris":{"android":"levelo://app?vid=2b60c370-94fd-4eb7-b590-a776b75b80c8","ios":"levelo://app?vid=2b60c370-94fd-4eb7-b590-a776b75b80c8"},"vehicle_type_id":"4","last_reported":1686996376,"current_range_meters":24400,"station_id":"ce4bgj92rcd13ifvqbd0","pricing_plan_id":"free"},{"bike_id":"d6e305bc-5d76-4d9a-9d3b-c8ed3e174fd1","system_id":"levelo_inurba_marseille","lat":43.29645,"lon":5.381,"is_reserved":false,"is_disabled":false,"rental_uris":{"android":"levelo://app?vid=d6e305bc-5d76-4d9a-9d3b-c8ed3e174fd1","ios":"levelo://app?vid=d6e305bc-5d76-4d9a-9d3b-c8ed3e174fd1"},"vehicle_type_id":"4","last_reported":1686996376,"current_range_meters":13200,"station_id":"","pricing_plan_id":"free"},{"bike_id":"fe268e13-742c-4fe4-9737-283b7505cc45","system_id":"levelo_inurba_marseille","lat":43.32363,"lon":5.38881,"is_reserved":false,"is_disabled":false,"rental_uris":{"android":"levelo://app?vid=fe268e13-742c-4fe4-9737-283b7505cc45","ios":"levelo://app?vid=fe268e13-742c-4fe4-9737-283b7505cc45"},"vehicle_type_id":"4","last_reported":1686996376,"current_range_meters":31200,"station_id":"ce4bhqp2rcd13ifvqhog","pricing_plan_id":"free"},{"bike_id":"2c9ad911-25e0-4222-8751-d809dfadd582","system_id":"levelo_inurba_marseille","lat":43.32368,"lon":5.38878,"is_reserved":false,"is_disabled":false,"rental_uris":{"android":"levelo://app?vid=2c9ad911-25e0-4222-8751-d809dfadd582","ios":"levelo://app?vid=2c9ad911-25e0-4222-8751-d809dfadd582"},"vehicle_type_id":"4","last_reported":1686996376,"current_range_meters":26400,"station_id":"ce4bhqp2rcd13ifvqhog","pricing_plan_id":"free"},{"bike_id":"97f54d17-c97f-440f-89b4-ed27b9cb734f","system_id":"levelo_inurba_marseille","lat":43.32367,"lon":5.388836,"is_reserved":false,"is_disabled":false,"rental_uris":{"android":"levelo://app?vid=97f54d17-c97f-440f-89b4-ed27b9cb734f","ios":"levelo://app?vid=97f54d17-c97f-440f-89b4-ed27b9cb734f"},"vehicle_type_id":"4","last_reported":1686996376,"current_range_meters":30800,"station_id":"ce4bhqp2rcd13ifvqhog","pricing_plan_id":"free"},{"bike_id":"c032291f-c2c7-4c55-80bb-454a126ad712","system_id":"levelo_inurba_marseille","lat":43.29595,"lon":5.38074,"is_reserved":false,"is_disabled":false,"rental_uris":{"android":"levelo://app?vid=c032291f-c2c7-4c55-80bb-454a126ad712","ios":"levelo://app?vid=c032291f-c2c7-4c55-80bb-454a126ad712"},"vehicle_type_id":"4","last_reported":1686996376,"current_range_meters":31200,"station_id":"","pricing_plan_id":"free"},{"bike_id":"cd57df7f-2ef9-4523-92b3-29b9ce1f973d","system_id":"levelo_inurba_marseille","lat":43.29601,"lon":5.381084,"is_reserved":false,"is_disabled":false,"rental_uris":{"android":"levelo://app?vid=cd57df7f-2ef9-4523-92b3-29b9ce1f973d","ios":"levelo://app?vid=cd57df7f-2ef9-4523-92b3-29b9ce1f973d"},"vehicle_type_id":"4","last_reported":1686996376,"current_range_meters":29200,"station_id":"ce4bgl12rcd13ifvqbo0","pricing_plan_id":"free"},{"bike_id":"c81d70fa-2540-4b0d-adcc-27904ca908d3","system_id":"levelo_inurba_marseille","lat":43.29601,"lon":5.381084,"is_reserved":false,"is_disabled":false,"rental_uris":{"android":"levelo://app?vid=c81d70fa-2540-4b0d-adcc-27904ca908d3","ios":"levelo://app?vid=c81d70fa-2540-4b0d-adcc-27904ca908d3"},"vehicle_type_id":"4","last_reported":1686996376,"current_range_meters":23600,"station_id":"ce4bgl12rcd13ifvqbo0","pricing_plan_id":"free"},{"bike_id":"19830262-b022-4ec0-a4f2-bb3c52867a0b","system_id":"levelo_inurba_marseille","lat":43.33038,"lon":5.37883,"is_reserved":false,"is_disabled":false,"rental_uris":{"android":"levelo://app?vid=19830262-b022-4ec0-a4f2-bb3c52867a0b","ios":"levelo://app?vid=19830262-b022-4ec0-a4f2-bb3c52867a0b"},"vehicle_type_id":"4","last_reported":1686996376,"current_range_meters":24000,"station_id":"","pricing_plan_id":"free"},{"bike_id":"00dabc1d-2ee4-4af1-a89f-ea3432aafbd6","system_id":"levelo_inurba_marseille","lat":43.29588,"lon":5.38085,"is_reserved":false,"is_disabled":false,"rental_uris":{"android":"levelo://app?vid=00dabc1d-2ee4-4af1-a89f-ea3432aafbd6","ios":"levelo://app?vid=00dabc1d-2ee4-4af1-a89f-ea3432aafbd6"},"vehicle_type_id":"4","last_reported":1686996376,"current_range_meters":31200,"station_id":"ce4bgl12rcd13ifvqbo0","pricing_plan_id":"free"},{"bike_id":"edd27ecf-5e8a-44a0-82e6-021137b2b9de","system_id":"levelo_inurba_marseille","lat":43.2937,"lon":5.37441,"is_reserved":false,"is_disabled":false,"rental_uris":{"android":"levelo://app?vid=edd27ecf-5e8a-44a0-82e6-021137b2b9de","ios":"levelo://app?vid=edd27ecf-5e8a-44a0-82e6-021137b2b9de"},"vehicle_type_id":"4","last_reported":1686996376,"current_range_meters":0,"station_id":"","pricing_plan_id":"free"},{"bike_id":"e3434079-9ded-4aee-95da-a10b2a8fcdad","system_id":"levelo_inurba_marseille","lat":43.293249,"lon":5.371578,"is_reserved":false,"is_disabled":false,"rental_uris":{"android":"levelo://app?vid=e3434079-9ded-4aee-95da-a10b2a8fcdad","ios":"levelo://app?vid=e3434079-9ded-4aee-95da-a10b2a8fcdad"},"vehicle_type_id":"4","last_reported":1686996376,"current_range_meters":15600,"station_id":"ce4bgh92rcd13ifvqb40","pricing_plan_id":"free"},{"bike_id":"787974b7-f266-4d3e-824b-bfb46f52fdc3","system_id":"levelo_inurba_marseille","lat":43.293249,"lon":5.371578,"is_reserved":false,"is_disabled":false,"rental_uris":{"android":"levelo://app?vid=787974b7-f266-4d3e-824b-bfb46f52fdc3","ios":"levelo://app?vid=787974b7-f266-4d3e-824b-bfb46f52fdc3"},"vehicle_type_id":"4","last_reported":1686996376,"current_range_meters":29200,"station_id":"ce4bgh92rcd13ifvqb40","pricing_plan_id":"free"},{"bike_id":"4aa8f037-797c-499f-833c-72c9e273b1a6","system_id":"levelo_inurba_marseille","lat":43.29279,"lon":5.36837,"is_reserved":false,"is_disabled":false,"rental_uris":{"android":"levelo://app?vid=4aa8f037-797c-499f-833c-72c9e273b1a6","ios":"levelo://app?vid=4aa8f037-797c-499f-833c-72c9e273b1a6"},"vehicle_type_id":"4","last_reported":1686996376,"current_range_meters":26400,"station_id":"ce4bhbp2rcd13ifvqesg","pricing_plan_id":"free"},{"bike_id":"31cee9e8-beeb-4a95-9826-d1962141a51a","system_id":"levelo_inurba_marseille","lat":43.293009,"lon":5.374584,"is_reserved":false,"is_disabled":false,"rental_uris":{"android":"levelo://app?vid=31cee9e8-beeb-4a95-9826-d1962141a51a","ios":"levelo://app?vid=31cee9e8-beeb-4a95-9826-d1962141a51a"},"vehicle_type_id":"4","last_reported":1686996376,"current_range_meters":8000,"station_id":"ce4bgi12rcd13ifvqb70","pricing_plan_id":"free"},{"bike_id":"167f302b-77ac-4bfb-8ee4-8155ec91a612","system_id":"levelo_inurba_marseille","lat":43.293009,"lon":5.374584,"is_reserved":false,"is_disabled":false,"rental_uris":{"android":"levelo://app?vid=167f302b-77ac-4bfb-8ee4-8155ec91a612","ios":"levelo://app?vid=167f302b-77ac-4bfb-8ee4-8155ec91a612"},"vehicle_type_id":"4","last_reported":1686996376,"current_range_meters":24800,"station_id":"ce4bgi12rcd13ifvqb70","pricing_plan_id":"free"},{"bike_id":"b57eb8b4-199e-4bed-8f84-9737109c04da","system_id":"levelo_inurba_marseille","lat":43.2936,"lon":5.37835,"is_reserved":false,"is_disabled":false,"rental_uris":{"android":"levelo://app?vid=b57eb8b4-199e-4bed-8f84-9737109c04da","ios":"levelo://app?vid=b57eb8b4-199e-4bed-8f84-9737109c04da"},"vehicle_type_id":"4","last_reported":1686996376,"current_range_meters":1600,"station_id":"ce4bgjh2rcd13ifvqbf0","pricing_plan_id":"free"},{"bike_id":"81dda80c-b165-4df5-b693-bc8d1b35685c","system_id":"levelo_inurba_marseille","lat":43.2936,"lon":5.37835,"is_reserved":false,"is_disabled":false,"rental_uris":{"android":"levelo://app?vid=81dda80c-b165-4df5-b693-bc8d1b35685c","ios":"levelo://app?vid=81dda80c-b165-4df5-b693-bc8d1b35685c"},"vehicle_type_id":"4","last_reported":1686996376,"current_range_meters":19200,"station_id":"ce4bgjh2rcd13ifvqbf0","pricing_plan_id":"free"},{"bike_id":"f5d82062-bc39-48ea-a8af-7e026ae48a43","system_id":"levelo_inurba_marseille","lat":43.2936,"lon":5.37835,"is_reserved":false,"is_disabled":false,"rental_uris":{"android":"levelo://app?vid=f5d82062-bc39-48ea-a8af-7e026ae48a43","ios":"levelo://app?vid=f5d82062-bc39-48ea-a8af-7e026ae48a43"},"vehicle_type_id":"4","last_reported":1686996376,"current_range_meters":19200,"station_id":"ce4bgjh2rcd13ifvqbf0","pricing_plan_id":"free"},{"bike_id":"dd57467c-d912-48bd-a3a3-7a21c6d25790","system_id":"levelo_inurba_marseille","lat":43.2936,"lon":5.37835,"is_reserved":false,"is_disabled":false,"rental_uris":{"android":"levelo://app?vid=dd57467c-d912-48bd-a3a3-7a21c6d25790","ios":"levelo://app?vid=dd57467c-d912-48bd-a3a3-7a21c6d25790"},"vehicle_type_id":"4","last_reported":1686996376,"current_range_meters":13200,"station_id":"ce4bgjh2rcd13ifvqbf0","pricing_plan_id":"free"},{"bike_id":"73894ac2-14d8-4712-994c-4235dd6c25e8","system_id":"levelo_inurba_marseille","lat":43.2936,"lon":5.37835,"is_reserved":false,"is_disabled":false,"rental_uris":{"android":"levelo://app?vid=73894ac2-14d8-4712-994c-4235dd6c25e8","ios":"levelo://app?vid=73894ac2-14d8-4712-994c-4235dd6c25e8"},"vehicle_type_id":"4","last_reported":1686996376,"current_range_meters":22800,"station_id":"ce4bgjh2rcd13ifvqbf0","pricing_plan_id":"free"},{"bike_id":"825396fa-9c64-4cd9-b677-9eae96bce993","system_id":"levelo_inurba_marseille","lat":43.2936,"lon":5.37835,"is_reserved":false,"is_disabled":false,"rental_uris":{"android":"levelo://app?vid=825396fa-9c64-4cd9-b677-9eae96bce993","ios":"levelo://app?vid=825396fa-9c64-4cd9-b677-9eae96bce993"},"vehicle_type_id":"4","last_reported":1686996376,"current_range_meters":22800,"station_id":"ce4bgjh2rcd13ifvqbf0","pricing_plan_id":"free"},{"bike_id":"fa44dd2e-76c2-4b33-8c28-6c68470b2d20","system_id":"levelo_inurba_marseille","lat":43.2936,"lon":5.37835,"is_reserved":false,"is_disabled":false,"rental_uris":{"android":"levelo://app?vid=fa44dd2e-76c2-4b33-8c28-6c68470b2d20","ios":"levelo://app?vid=fa44dd2e-76c2-4b33-8c28-6c68470b2d20"},"vehicle_type_id":"4","last_reported":1686996376,"current_range_meters":22800,"station_id":"ce4bgjh2rcd13ifvqbf0","pricing_plan_id":"free"},{"bike_id":"833b810e-37f0-43cb-8468-70494d1ca4b1","system_id":"levelo_inurba_marseille","lat":43.29225,"lon":5.36083,"is_reserved":false,"is_disabled":false,"rental_uris":{"android":"levelo://app?vid=833b810e-37f0-43cb-8468-70494d1ca4b1","ios":"levelo://app?vid=833b810e-37f0-43cb-8468-70494d1ca4b1"},"vehicle_type_id":"4","last_reported":1686996376,"current_range_meters":31200,"station_id":"ce4bhbh2rcd13ifvqeqg","pricing_plan_id":"free"},{"bike_id":"6df8f41b-b526-4d32-bc41-3babcfee1bd8","system_id":"levelo_inurba_marseille","lat":43.29222,"lon":5.36067,"is_reserved":false,"is_disabled":false,"rental_uris":{"android":"levelo://app?vid=6df8f41b-b526-4d32-bc41-3babcfee1bd8","ios":"levelo://app?vid=6df8f41b-b526-4d32-bc41-3babcfee1bd8"},"vehicle_type_id":"4","last_reported":1686996376,"current_range_meters":21200,"station_id":"ce4bhbh2rcd13ifvqeqg","pricing_plan_id":"free"},{"bike_id":"6185aa85-701e-4b89-a795-982371ebffb2","system_id":"levelo_inurba_marseille","lat":43.29873,"lon":5.38902,"is_reserved":false,"is_disabled":false,"rental_uris":{"android":"levelo://app?vid=6185aa85-701e-4b89-a795-982371ebffb2","ios":"levelo://app?vid=6185aa85-701e-4b89-a795-982371ebffb2"},"vehicle_type_id":"4","last_reported":1686996376,"current_range_meters":30400,"station_id":"ce4bh392rcd13ifvqdl0","pricing_plan_id":"free"},{"bike_id":"216b39ef-d684-4a9c-b72b-e12ef4b061e9","system_id":"levelo_inurba_marseille","lat":43.309038,"lon":5.396546,"is_reserved":false,"is_disabled":false,"rental_uris":{"android":"levelo://app?vid=216b39ef-d684-4a9c-b72b-e12ef4b061e9","ios":"levelo://app?vid=216b39ef-d684-4a9c-b72b-e12ef4b061e9"},"vehicle_type_id":"4","last_reported":1686996376,"current_range_meters":28800,"station_id":"ce4bh012rcd13ifvqcv0","pricing_plan_id":"free"},{"bike_id":"1ccf7a61-a40e-48b1-84d1-fbd6919337d6","system_id":"levelo_inurba_marseille","lat":43.2936,"lon":5.37835,"is_reserved":false,"is_disabled":false,"rental_uris":{"android":"levelo://app?vid=1ccf7a61-a40e-48b1-84d1-fbd6919337d6","ios":"levelo://app?vid=1ccf7a61-a40e-48b1-84d1-fbd6919337d6"},"vehicle_type_id":"4","last_reported":1686996376,"current_range_meters":20000,"station_id":"ce4bgjh2rcd13ifvqbf0","pricing_plan_id":"free"},{"bike_id":"3884dab2-ff85-4618-b139-108080afc1c8","system_id":"levelo_inurba_marseille","lat":43.30102,"lon":5.39278,"is_reserved":false,"is_disabled":false,"rental_uris":{"android":"levelo://app?vid=3884dab2-ff85-4618-b139-108080afc1c8","ios":"levelo://app?vid=3884dab2-ff85-4618-b139-108080afc1c8"},"vehicle_type_id":"4","last_reported":1686996376,"current_range_meters":7600,"station_id":"","pricing_plan_id":"free"},{"bike_id":"76e43cb8-5cae-490e-aac6-ffe6129b3dd8","system_id":"levelo_inurba_marseille","lat":43.29079,"lon":5.3718,"is_reserved":false,"is_disabled":false,"rental_uris":{"android":"levelo://app?vid=76e43cb8-5cae-490e-aac6-ffe6129b3dd8","ios":"levelo://app?vid=76e43cb8-5cae-490e-aac6-ffe6129b3dd8"},"vehicle_type_id":"4","last_reported":1686996376,"current_range_meters":28000,"station_id":"","pricing_plan_id":"free"},{"bike_id":"1c24f709-e3a0-4217-a2e6-157b26f016c9","system_id":"levelo_inurba_marseille","lat":43.29038,"lon":5.37557,"is_reserved":false,"is_disabled":false,"rental_uris":{"android":"levelo://app?vid=1c24f709-e3a0-4217-a2e6-157b26f016c9","ios":"levelo://app?vid=1c24f709-e3a0-4217-a2e6-157b26f016c9"},"vehicle_type_id":"4","last_reported":1686996376,"current_range_meters":8400,"station_id":"ce4bh692rcd13ifvqe90","pricing_plan_id":"free"},{"bike_id":"3f451700-d89d-406b-8cbb-bbc7940bfb1f","system_id":"levelo_inurba_marseille","lat":43.29415,"lon":5.38619,"is_reserved":false,"is_disabled":false,"rental_uris":{"android":"levelo://app?vid=3f451700-d89d-406b-8cbb-bbc7940bfb1f","ios":"levelo://app?vid=3f451700-d89d-406b-8cbb-bbc7940bfb1f"},"vehicle_type_id":"4","last_reported":1686996376,"current_range_meters":31200,"station_id":"ce4bh2h2rcd13ifvqdh0","pricing_plan_id":"free"},{"bike_id":"b799a90f-ea2d-4bf4-bb3d-bf90b9daae79","system_id":"levelo_inurba_marseille","lat":43.290327,"lon":5.375711,"is_reserved":false,"is_disabled":false,"rental_uris":{"android":"levelo://app?vid=b799a90f-ea2d-4bf4-bb3d-bf90b9daae79","ios":"levelo://app?vid=b799a90f-ea2d-4bf4-bb3d-bf90b9daae79"},"vehicle_type_id":"4","last_reported":1686996376,"current_range_meters":21600,"station_id":"ce4bh692rcd13ifvqe90","pricing_plan_id":"free"},{"bike_id":"12716988-f57b-40b6-bd68-8952bad93e9f","system_id":"levelo_inurba_marseille","lat":43.289184,"lon":5.366408,"is_reserved":false,"is_disabled":false,"rental_uris":{"android":"levelo://app?vid=12716988-f57b-40b6-bd68-8952bad93e9f","ios":"levelo://app?vid=12716988-f57b-40b6-bd68-8952bad93e9f"},"vehicle_type_id":"4","last_reported":1686996376,"current_range_meters":23600,"station_id":"ce4bhap2rcd13ifvqek0","pricing_plan_id":"free"},{"bike_id":"38eb09af-7166-42b9-865e-84246929498f","system_id":"levelo_inurba_marseille","lat":43.29265,"lon":5.38432,"is_reserved":false,"is_disabled":false,"rental_uris":{"android":"levelo://app?vid=38eb09af-7166-42b9-865e-84246929498f","ios":"levelo://app?vid=38eb09af-7166-42b9-865e-84246929498f"},"vehicle_type_id":"4","last_reported":1686996376,"current_range_meters":30400,"station_id":"ce4bh692rcd13ifvqea0","pricing_plan_id":"free"},{"bike_id":"2547df54-5ef4-42a8-8e9b-615e26215014","system_id":"levelo_inurba_marseille","lat":43.304274,"lon":5.397513,"is_reserved":false,"is_disabled":false,"rental_uris":{"android":"levelo://app?vid=2547df54-5ef4-42a8-8e9b-615e26215014","ios":"levelo://app?vid=2547df54-5ef4-42a8-8e9b-615e26215014"},"vehicle_type_id":"4","last_reported":1686996376,"current_range_meters":31600,"station_id":"ce4bh092rcd13ifvqd20","pricing_plan_id":"free"},{"bike_id":"33efefb8-a7c6-41ca-b7ff-92539cefc65c","system_id":"levelo_inurba_marseille","lat":43.3304,"lon":5.38919,"is_reserved":false,"is_disabled":false,"rental_uris":{"android":"levelo://app?vid=33efefb8-a7c6-41ca-b7ff-92539cefc65c","ios":"levelo://app?vid=33efefb8-a7c6-41ca-b7ff-92539cefc65c"},"vehicle_type_id":"4","last_reported":1686996376,"current_range_meters":29600,"station_id":"ce4bhr92rcd13ifvqhrg","pricing_plan_id":"free"},{"bike_id":"a7529cc0-d699-4db6-8637-90faa95d38cf","system_id":"levelo_inurba_marseille","lat":43.330442,"lon":5.389148,"is_reserved":false,"is_disabled":false,"rental_uris":{"android":"levelo://app?vid=a7529cc0-d699-4db6-8637-90faa95d38cf","ios":"levelo://app?vid=a7529cc0-d699-4db6-8637-90faa95d38cf"},"vehicle_type_id":"4","last_reported":1686996376,"current_range_meters":10800,"station_id":"ce4bhr92rcd13ifvqhrg","pricing_plan_id":"free"},{"bike_id":"efd9ad73-20e4-48a8-9273-d79e81729f94","system_id":"levelo_inurba_marseille","lat":43.33044,"lon":5.3892,"is_reserved":false,"is_disabled":false,"rental_uris":{"android":"levelo://app?vid=efd9ad73-20e4-48a8-9273-d79e81729f94","ios":"levelo://app?vid=efd9ad73-20e4-48a8-9273-d79e81729f94"},"vehicle_type_id":"4","last_reported":1686996376,"current_range_meters":30800,"station_id":"ce4bhr92rcd13ifvqhrg","pricing_plan_id":"free"},{"bike_id":"ce62ce67-53fe-4409-ba16-e541e130052d","system_id":"levelo_inurba_marseille","lat":43.290104,"lon":5.356111,"is_reserved":false,"is_disabled":false,"rental_uris":{"android":"levelo://app?vid=ce62ce67-53fe-4409-ba16-e541e130052d","ios":"levelo://app?vid=ce62ce67-53fe-4409-ba16-e541e130052d"},"vehicle_type_id":"4","last_reported":1686996376,"current_range_meters":8800,"station_id":"ce4bhb92rcd13ifvqen0","pricing_plan_id":"free"},{"bike_id":"56068c52-c2d3-467c-b297-600ff6c70ef9","system_id":"levelo_inurba_marseille","lat":43.290104,"lon":5.356111,"is_reserved":false,"is_disabled":false,"rental_uris":{"android":"levelo://app?vid=56068c52-c2d3-467c-b297-600ff6c70ef9","ios":"levelo://app?vid=56068c52-c2d3-467c-b297-600ff6c70ef9"},"vehicle_type_id":"4","last_reported":1686996376,"current_range_meters":25600,"station_id":"ce4bhb92rcd13ifvqen0","pricing_plan_id":"free"},{"bike_id":"01877937-c797-42b4-a4ab-7dceb73a488d","system_id":"levelo_inurba_marseille","lat":43.29794,"lon":5.39344,"is_reserved":false,"is_disabled":false,"rental_uris":{"android":"levelo://app?vid=01877937-c797-42b4-a4ab-7dceb73a488d","ios":"levelo://app?vid=01877937-c797-42b4-a4ab-7dceb73a488d"},"vehicle_type_id":"4","last_reported":1686996376,"current_range_meters":20400,"station_id":"chh1huq6cuj3fo74tm60","pricing_plan_id":"free"},{"bike_id":"14f58fc3-64e1-42bd-8ded-075cba08fb96","system_id":"levelo_inurba_marseille","lat":43.29791,"lon":5.39356,"is_reserved":false,"is_disabled":false,"rental_uris":{"android":"levelo://app?vid=14f58fc3-64e1-42bd-8ded-075cba08fb96","ios":"levelo://app?vid=14f58fc3-64e1-42bd-8ded-075cba08fb96"},"vehicle_type_id":"4","last_reported":1686996376,"current_range_meters":19600,"station_id":"chh1huq6cuj3fo74tm60","pricing_plan_id":"free"},{"bike_id":"8be07d78-56e5-48bd-af5e-69e916b90008","system_id":"levelo_inurba_marseille","lat":43.29786,"lon":5.39352,"is_reserved":false,"is_disabled":false,"rental_uris":{"android":"levelo://app?vid=8be07d78-56e5-48bd-af5e-69e916b90008","ios":"levelo://app?vid=8be07d78-56e5-48bd-af5e-69e916b90008"},"vehicle_type_id":"4","last_reported":1686996376,"current_range_meters":14000,"station_id":"","pricing_plan_id":"free"},{"bike_id":"d7028774-2d07-4ef3-9e5d-4ab9ce34224d","system_id":"levelo_inurba_marseille","lat":43.289743,"lon":5.378304,"is_reserved":false,"is_disabled":false,"rental_uris":{"android":"levelo://app?vid=d7028774-2d07-4ef3-9e5d-4ab9ce34224d","ios":"levelo://app?vid=d7028774-2d07-4ef3-9e5d-4ab9ce34224d"},"vehicle_type_id":"4","last_reported":1686996376,"current_range_meters":11200,"station_id":"ce4bh9p2rcd13ifvqed0","pricing_plan_id":"free"},{"bike_id":"044ea2e4-5c27-46f4-98d6-de493c045c11","system_id":"levelo_inurba_marseille","lat":43.295169,"lon":5.390426,"is_reserved":false,"is_disabled":false,"rental_uris":{"android":"levelo://app?vid=044ea2e4-5c27-46f4-98d6-de493c045c11","ios":"levelo://app?vid=044ea2e4-5c27-46f4-98d6-de493c045c11"},"vehicle_type_id":"4","last_reported":1686996376,"current_range_meters":400,"station_id":"ce4bh3p2rcd13ifvqdp0","pricing_plan_id":"free"},{"bike_id":"56461809-1bf0-4c62-be7c-f8ee03dd38b9","system_id":"levelo_inurba_marseille","lat":43.295169,"lon":5.390426,"is_reserved":false,"is_disabled":false,"rental_uris":{"android":"levelo://app?vid=56461809-1bf0-4c62-be7c-f8ee03dd38b9","ios":"levelo://app?vid=56461809-1bf0-4c62-be7c-f8ee03dd38b9"},"vehicle_type_id":"4","last_reported":1686996376,"current_range_meters":14000,"station_id":"ce4bh3p2rcd13ifvqdp0","pricing_plan_id":"free"},{"bike_id":"ea8c2feb-5d6f-4408-8549-fee0a26ec17b","system_id":"levelo_inurba_marseille","lat":43.295166,"lon":5.390315,"is_reserved":false,"is_disabled":false,"rental_uris":{"android":"levelo://app?vid=ea8c2feb-5d6f-4408-8549-fee0a26ec17b","ios":"levelo://app?vid=ea8c2feb-5d6f-4408-8549-fee0a26ec17b"},"vehicle_type_id":"4","last_reported":1686996376,"current_range_meters":22000,"station_id":"ce4bh3p2rcd13ifvqdp0","pricing_plan_id":"free"},{"bike_id":"b9b44b37-7edf-4ab6-8685-17eb58a26dbc","system_id":"levelo_inurba_marseille","lat":43.295157,"lon":5.390361,"is_reserved":false,"is_disabled":false,"rental_uris":{"android":"levelo://app?vid=b9b44b37-7edf-4ab6-8685-17eb58a26dbc","ios":"levelo://app?vid=b9b44b37-7edf-4ab6-8685-17eb58a26dbc"},"vehicle_type_id":"4","last_reported":1686996376,"current_range_meters":28400,"station_id":"ce4bh3p2rcd13ifvqdp0","pricing_plan_id":"free"},{"bike_id":"c0fb8083-e02d-4dec-b1b9-fa095e6c5b75","system_id":"levelo_inurba_marseille","lat":43.337396,"lon":5.374526,"is_reserved":false,"is_disabled":false,"rental_uris":{"android":"levelo://app?vid=c0fb8083-e02d-4dec-b1b9-fa095e6c5b75","ios":"levelo://app?vid=c0fb8083-e02d-4dec-b1b9-fa095e6c5b75"},"vehicle_type_id":"4","last_reported":1686996376,"current_range_meters":0,"station_id":"ce4bhp92rcd13ifvqhag","pricing_plan_id":"free"},{"bike_id":"619f5c8e-4ed6-4ac9-b1ea-febf4585366a","system_id":"levelo_inurba_marseille","lat":43.309371,"lon":5.401449,"is_reserved":false,"is_disabled":false,"rental_uris":{"android":"levelo://app?vid=619f5c8e-4ed6-4ac9-b1ea-febf4585366a","ios":"levelo://app?vid=619f5c8e-4ed6-4ac9-b1ea-febf4585366a"},"vehicle_type_id":"4","last_reported":1686996376,"current_range_meters":15200,"station_id":"ce4bgvp2rcd13ifvqct0","pricing_plan_id":"free"},{"bike_id":"d5e6bd0f-c204-4df0-a839-e4ec2e2e56d8","system_id":"levelo_inurba_marseille","lat":43.309371,"lon":5.401449,"is_reserved":false,"is_disabled":false,"rental_uris":{"android":"levelo://app?vid=d5e6bd0f-c204-4df0-a839-e4ec2e2e56d8","ios":"levelo://app?vid=d5e6bd0f-c204-4df0-a839-e4ec2e2e56d8"},"vehicle_type_id":"4","last_reported":1686996376,"current_range_meters":22400,"station_id":"ce4bgvp2rcd13ifvqct0","pricing_plan_id":"free"},{"bike_id":"63285461-1ddd-497d-a475-880b12cf65f4","system_id":"levelo_inurba_marseille","lat":43.309371,"lon":5.401449,"is_reserved":false,"is_disabled":false,"rental_uris":{"android":"levelo://app?vid=63285461-1ddd-497d-a475-880b12cf65f4","ios":"levelo://app?vid=63285461-1ddd-497d-a475-880b12cf65f4"},"vehicle_type_id":"4","last_reported":1686996376,"current_range_meters":0,"station_id":"ce4bgvp2rcd13ifvqct0","pricing_plan_id":"free"},{"bike_id":"bccc6814-e18b-401d-b4d7-b512449f523f","system_id":"levelo_inurba_marseille","lat":43.309371,"lon":5.401449,"is_reserved":false,"is_disabled":false,"rental_uris":{"android":"levelo://app?vid=bccc6814-e18b-401d-b4d7-b512449f523f","ios":"levelo://app?vid=bccc6814-e18b-401d-b4d7-b512449f523f"},"vehicle_type_id":"4","last_reported":1686996376,"current_range_meters":31200,"station_id":"ce4bgvp2rcd13ifvqct0","pricing_plan_id":"free"},{"bike_id":"740b9160-4311-4479-a19d-66e7642db81c","system_id":"levelo_inurba_marseille","lat":43.309371,"lon":5.401449,"is_reserved":false,"is_disabled":false,"rental_uris":{"android":"levelo://app?vid=740b9160-4311-4479-a19d-66e7642db81c","ios":"levelo://app?vid=740b9160-4311-4479-a19d-66e7642db81c"},"vehicle_type_id":"4","last_reported":1686996376,"current_range_meters":26000,"station_id":"ce4bgvp2rcd13ifvqct0","pricing_plan_id":"free"},{"bike_id":"5dbe3a9a-5ac3-40d5-b0b5-b6a96f5b6ab9","system_id":"levelo_inurba_marseille","lat":43.309371,"lon":5.401449,"is_reserved":false,"is_disabled":false,"rental_uris":{"android":"levelo://app?vid=5dbe3a9a-5ac3-40d5-b0b5-b6a96f5b6ab9","ios":"levelo://app?vid=5dbe3a9a-5ac3-40d5-b0b5-b6a96f5b6ab9"},"vehicle_type_id":"4","last_reported":1686996376,"current_range_meters":30400,"station_id":"ce4bgvp2rcd13ifvqct0","pricing_plan_id":"free"},{"bike_id":"a3914528-27ba-4acc-bec1-258d2b2744ea","system_id":"levelo_inurba_marseille","lat":43.309371,"lon":5.401449,"is_reserved":false,"is_disabled":false,"rental_uris":{"android":"levelo://app?vid=a3914528-27ba-4acc-bec1-258d2b2744ea","ios":"levelo://app?vid=a3914528-27ba-4acc-bec1-258d2b2744ea"},"vehicle_type_id":"4","last_reported":1686996376,"current_range_meters":31200,"station_id":"ce4bgvp2rcd13ifvqct0","pricing_plan_id":"free"},{"bike_id":"0f3b0806-3d89-4b8f-b60b-0a49423355ab","system_id":"levelo_inurba_marseille","lat":43.33751,"lon":5.37451,"is_reserved":false,"is_disabled":false,"rental_uris":{"android":"levelo://app?vid=0f3b0806-3d89-4b8f-b60b-0a49423355ab","ios":"levelo://app?vid=0f3b0806-3d89-4b8f-b60b-0a49423355ab"},"vehicle_type_id":"4","last_reported":1686996376,"current_range_meters":24400,"station_id":"","pricing_plan_id":"free"},{"bike_id":"a9506e1f-f3eb-4a39-bc4f-33ee53327790","system_id":"levelo_inurba_marseille","lat":43.30642,"lon":5.40072,"is_reserved":false,"is_disabled":false,"rental_uris":{"android":"levelo://app?vid=a9506e1f-f3eb-4a39-bc4f-33ee53327790","ios":"levelo://app?vid=a9506e1f-f3eb-4a39-bc4f-33ee53327790"},"vehicle_type_id":"4","last_reported":1686996376,"current_range_meters":3200,"station_id":"","pricing_plan_id":"free"},{"bike_id":"41a8749b-6d93-4d1b-8e52-c5f60f65ae7c","system_id":"levelo_inurba_marseille","lat":43.33756,"lon":5.37446,"is_reserved":false,"is_disabled":false,"rental_uris":{"android":"levelo://app?vid=41a8749b-6d93-4d1b-8e52-c5f60f65ae7c","ios":"levelo://app?vid=41a8749b-6d93-4d1b-8e52-c5f60f65ae7c"},"vehicle_type_id":"4","last_reported":1686996376,"current_range_meters":31200,"station_id":"","pricing_plan_id":"free"},{"bike_id":"71c8a1a1-65ed-4f86-8d23-6b7596860cc3","system_id":"levelo_inurba_marseille","lat":43.33765,"lon":5.37429,"is_reserved":false,"is_disabled":false,"rental_uris":{"android":"levelo://app?vid=71c8a1a1-65ed-4f86-8d23-6b7596860cc3","ios":"levelo://app?vid=71c8a1a1-65ed-4f86-8d23-6b7596860cc3"},"vehicle_type_id":"4","last_reported":1686996376,"current_range_meters":31600,"station_id":"","pricing_plan_id":"free"},{"bike_id":"094fd23e-0c8e-4b83-9a6b-ccdb16a15ec6","system_id":"levelo_inurba_marseille","lat":43.30134,"lon":5.39844,"is_reserved":false,"is_disabled":false,"rental_uris":{"android":"levelo://app?vid=094fd23e-0c8e-4b83-9a6b-ccdb16a15ec6","ios":"levelo://app?vid=094fd23e-0c8e-4b83-9a6b-ccdb16a15ec6"},"vehicle_type_id":"4","last_reported":1686996376,"current_range_meters":18400,"station_id":"","pricing_plan_id":"free"},{"bike_id":"6ba9c326-20b7-42a4-bba4-cb427111e88e","system_id":"levelo_inurba_marseille","lat":43.286591,"lon":5.363346,"is_reserved":false,"is_disabled":false,"rental_uris":{"android":"levelo://app?vid=6ba9c326-20b7-42a4-bba4-cb427111e88e","ios":"levelo://app?vid=6ba9c326-20b7-42a4-bba4-cb427111e88e"},"vehicle_type_id":"4","last_reported":1686996376,"current_range_meters":2800,"station_id":"ce4bhah2rcd13ifvqej0","pricing_plan_id":"free"},{"bike_id":"bd0e66b2-948c-4505-b544-242942e48c7f","system_id":"levelo_inurba_marseille","lat":43.286961,"lon":5.373785,"is_reserved":false,"is_disabled":false,"rental_uris":{"android":"levelo://app?vid=bd0e66b2-948c-4505-b544-242942e48c7f","ios":"levelo://app?vid=bd0e66b2-948c-4505-b544-242942e48c7f"},"vehicle_type_id":"4","last_reported":1686996376,"current_range_meters":30400,"station_id":"ce4bh3p2rcd13ifvqdq0","pricing_plan_id":"free"},{"bike_id":"1dda7674-47cf-49a0-a8b2-b83e21efaf0c","system_id":"levelo_inurba_marseille","lat":43.302759,"lon":5.400793,"is_reserved":false,"is_disabled":false,"rental_uris":{"android":"levelo://app?vid=1dda7674-47cf-49a0-a8b2-b83e21efaf0c","ios":"levelo://app?vid=1dda7674-47cf-49a0-a8b2-b83e21efaf0c"},"vehicle_type_id":"4","last_reported":1686996376,"current_range_meters":29600,"station_id":"ce4bgvh2rcd13ifvqcs0","pricing_plan_id":"free"},{"bike_id":"4e0c3808-7037-4093-aa98-830324c60b9e","system_id":"levelo_inurba_marseille","lat":43.30258,"lon":5.40076,"is_reserved":false,"is_disabled":false,"rental_uris":{"android":"levelo://app?vid=4e0c3808-7037-4093-aa98-830324c60b9e","ios":"levelo://app?vid=4e0c3808-7037-4093-aa98-830324c60b9e"},"vehicle_type_id":"4","last_reported":1686996376,"current_range_meters":19600,"station_id":"ce4bgt92rcd13ifvqcf0","pricing_plan_id":"free"},{"bike_id":"0c05a8b6-9b61-48c4-b2c5-a41e3ad6b9d4","system_id":"levelo_inurba_marseille","lat":43.286039,"lon":5.370679,"is_reserved":false,"is_disabled":false,"rental_uris":{"android":"levelo://app?vid=0c05a8b6-9b61-48c4-b2c5-a41e3ad6b9d4","ios":"levelo://app?vid=0c05a8b6-9b61-48c4-b2c5-a41e3ad6b9d4"},"vehicle_type_id":"4","last_reported":1686996376,"current_range_meters":13600,"station_id":"ce4bht12rcd13ifvqi60","pricing_plan_id":"free"},{"bike_id":"40a1b78f-ed99-43be-a63c-30e85225865f","system_id":"levelo_inurba_marseille","lat":43.28606,"lon":5.37066,"is_reserved":false,"is_disabled":false,"rental_uris":{"android":"levelo://app?vid=40a1b78f-ed99-43be-a63c-30e85225865f","ios":"levelo://app?vid=40a1b78f-ed99-43be-a63c-30e85225865f"},"vehicle_type_id":"4","last_reported":1686996376,"current_range_meters":31200,"station_id":"ce4bht12rcd13ifvqi60","pricing_plan_id":"free"},{"bike_id":"1578a3ff-8119-48e9-8f99-f8e19442b608","system_id":"levelo_inurba_marseille","lat":43.287185,"lon":5.379373,"is_reserved":false,"is_disabled":false,"rental_uris":{"android":"levelo://app?vid=1578a3ff-8119-48e9-8f99-f8e19442b608","ios":"levelo://app?vid=1578a3ff-8119-48e9-8f99-f8e19442b608"},"vehicle_type_id":"4","last_reported":1686996376,"current_range_meters":31200,"station_id":"ce4bh9p2rcd13ifvqec0","pricing_plan_id":"free"},{"bike_id":"f30d9f88-2cf7-4343-bc53-297fc5d0ceb4","system_id":"levelo_inurba_marseille","lat":43.287185,"lon":5.379373,"is_reserved":false,"is_disabled":false,"rental_uris":{"android":"levelo://app?vid=f30d9f88-2cf7-4343-bc53-297fc5d0ceb4","ios":"levelo://app?vid=f30d9f88-2cf7-4343-bc53-297fc5d0ceb4"},"vehicle_type_id":"4","last_reported":1686996376,"current_range_meters":28000,"station_id":"ce4bh9p2rcd13ifvqec0","pricing_plan_id":"free"},{"bike_id":"0aa1a4dc-ff1d-459e-bac9-b81b2053f138","system_id":"levelo_inurba_marseille","lat":43.3164,"lon":5.40432,"is_reserved":false,"is_disabled":false,"rental_uris":{"android":"levelo://app?vid=0aa1a4dc-ff1d-459e-bac9-b81b2053f138","ios":"levelo://app?vid=0aa1a4dc-ff1d-459e-bac9-b81b2053f138"},"vehicle_type_id":"4","last_reported":1686996376,"current_range_meters":21600,"station_id":"ce4bh012rcd13ifvqd00","pricing_plan_id":"free"},{"bike_id":"1d38c710-535a-448f-b674-d5a3909aaa63","system_id":"levelo_inurba_marseille","lat":43.31644,"lon":5.40432,"is_reserved":false,"is_disabled":false,"rental_uris":{"android":"levelo://app?vid=1d38c710-535a-448f-b674-d5a3909aaa63","ios":"levelo://app?vid=1d38c710-535a-448f-b674-d5a3909aaa63"},"vehicle_type_id":"4","last_reported":1686996376,"current_range_meters":16400,"station_id":"ce4bh012rcd13ifvqd00","pricing_plan_id":"free"},{"bike_id":"d43dc855-7531-4724-a556-e72b91069e6b","system_id":"levelo_inurba_marseille","lat":43.31639,"lon":5.40434,"is_reserved":false,"is_disabled":false,"rental_uris":{"android":"levelo://app?vid=d43dc855-7531-4724-a556-e72b91069e6b","ios":"levelo://app?vid=d43dc855-7531-4724-a556-e72b91069e6b"},"vehicle_type_id":"4","last_reported":1686996376,"current_range_meters":31200,"station_id":"ce4bh012rcd13ifvqd00","pricing_plan_id":"free"},{"bike_id":"d6a3a840-55c7-42bf-9db8-773e1136df85","system_id":"levelo_inurba_marseille","lat":43.31642,"lon":5.40436,"is_reserved":false,"is_disabled":false,"rental_uris":{"android":"levelo://app?vid=d6a3a840-55c7-42bf-9db8-773e1136df85","ios":"levelo://app?vid=d6a3a840-55c7-42bf-9db8-773e1136df85"},"vehicle_type_id":"4","last_reported":1686996376,"current_range_meters":30400,"station_id":"ce4bh012rcd13ifvqd00","pricing_plan_id":"free"},{"bike_id":"f82cf2aa-4e66-4662-a087-aef04279b5af","system_id":"levelo_inurba_marseille","lat":43.31648,"lon":5.40435,"is_reserved":false,"is_disabled":false,"rental_uris":{"android":"levelo://app?vid=f82cf2aa-4e66-4662-a087-aef04279b5af","ios":"levelo://app?vid=f82cf2aa-4e66-4662-a087-aef04279b5af"},"vehicle_type_id":"4","last_reported":1686996376,"current_range_meters":28800,"station_id":"ce4bh012rcd13ifvqd00","pricing_plan_id":"free"},{"bike_id":"0a2d247c-a2eb-4fca-b656-03f297fd60e1","system_id":"levelo_inurba_marseille","lat":43.31646,"lon":5.40437,"is_reserved":false,"is_disabled":false,"rental_uris":{"android":"levelo://app?vid=0a2d247c-a2eb-4fca-b656-03f297fd60e1","ios":"levelo://app?vid=0a2d247c-a2eb-4fca-b656-03f297fd60e1"},"vehicle_type_id":"4","last_reported":1686996376,"current_range_meters":31200,"station_id":"ce4bh012rcd13ifvqd00","pricing_plan_id":"free"},{"bike_id":"f4f0b91d-9677-4a6a-ac18-58347852ed7c","system_id":"levelo_inurba_marseille","lat":43.316517,"lon":5.404375,"is_reserved":false,"is_disabled":false,"rental_uris":{"android":"levelo://app?vid=f4f0b91d-9677-4a6a-ac18-58347852ed7c","ios":"levelo://app?vid=f4f0b91d-9677-4a6a-ac18-58347852ed7c"},"vehicle_type_id":"4","last_reported":1686996376,"current_range_meters":31200,"station_id":"ce4bh012rcd13ifvqd00","pricing_plan_id":"free"},{"bike_id":"87d910ac-bb96-4066-a1c0-0f248798d193","system_id":"levelo_inurba_marseille","lat":43.316517,"lon":5.404375,"is_reserved":false,"is_disabled":false,"rental_uris":{"android":"levelo://app?vid=87d910ac-bb96-4066-a1c0-0f248798d193","ios":"levelo://app?vid=87d910ac-bb96-4066-a1c0-0f248798d193"},"vehicle_type_id":"4","last_reported":1686996376,"current_range_meters":31200,"station_id":"ce4bh012rcd13ifvqd00","pricing_plan_id":"free"},{"bike_id":"af74f7e9-5561-4062-a396-b081c4500996","system_id":"levelo_inurba_marseille","lat":43.291994,"lon":5.392907,"is_reserved":false,"is_disabled":false,"rental_uris":{"android":"levelo://app?vid=af74f7e9-5561-4062-a396-b081c4500996","ios":"levelo://app?vid=af74f7e9-5561-4062-a396-b081c4500996"},"vehicle_type_id":"4","last_reported":1686996376,"current_range_meters":0,"station_id":"ce4bh192rcd13ifvqdd0","pricing_plan_id":"free"},{"bike_id":"0b2c1e5b-a65c-40c2-a52f-2dd8530e8faa","system_id":"levelo_inurba_marseille","lat":43.284534,"lon":5.358662,"is_reserved":false,"is_disabled":false,"rental_uris":{"android":"levelo://app?vid=0b2c1e5b-a65c-40c2-a52f-2dd8530e8faa","ios":"levelo://app?vid=0b2c1e5b-a65c-40c2-a52f-2dd8530e8faa"},"vehicle_type_id":"4","last_reported":1686996376,"current_range_meters":15200,"station_id":"ce4bhah2rcd13ifvqei0","pricing_plan_id":"free"},{"bike_id":"e40fc4b8-af4e-470d-8c10-d261b6f276ef","system_id":"levelo_inurba_marseille","lat":43.284534,"lon":5.358662,"is_reserved":false,"is_disabled":false,"rental_uris":{"android":"levelo://app?vid=e40fc4b8-af4e-470d-8c10-d261b6f276ef","ios":"levelo://app?vid=e40fc4b8-af4e-470d-8c10-d261b6f276ef"},"vehicle_type_id":"4","last_reported":1686996376,"current_range_meters":5600,"station_id":"ce4bhah2rcd13ifvqei0","pricing_plan_id":"free"},{"bike_id":"8f96a361-5a6e-45fa-96d0-8a4b64d028cb","system_id":"levelo_inurba_marseille","lat":43.284534,"lon":5.358662,"is_reserved":false,"is_disabled":false,"rental_uris":{"android":"levelo://app?vid=8f96a361-5a6e-45fa-96d0-8a4b64d028cb","ios":"levelo://app?vid=8f96a361-5a6e-45fa-96d0-8a4b64d028cb"},"vehicle_type_id":"4","last_reported":1686996376,"current_range_meters":29200,"station_id":"ce4bhah2rcd13ifvqei0","pricing_plan_id":"free"},{"bike_id":"f35e693b-9bcb-44cb-8b98-8eefdeec9bd9","system_id":"levelo_inurba_marseille","lat":43.28614,"lon":5.35099,"is_reserved":false,"is_disabled":false,"rental_uris":{"android":"levelo://app?vid=f35e693b-9bcb-44cb-8b98-8eefdeec9bd9","ios":"levelo://app?vid=f35e693b-9bcb-44cb-8b98-8eefdeec9bd9"},"vehicle_type_id":"4","last_reported":1686996376,"current_range_meters":2800,"station_id":"ce4bhch2rcd13ifvqeug","pricing_plan_id":"free"},{"bike_id":"51091cb6-fef1-48b0-922a-376de9360c9e","system_id":"levelo_inurba_marseille","lat":43.28612,"lon":5.35103,"is_reserved":false,"is_disabled":false,"rental_uris":{"android":"levelo://app?vid=51091cb6-fef1-48b0-922a-376de9360c9e","ios":"levelo://app?vid=51091cb6-fef1-48b0-922a-376de9360c9e"},"vehicle_type_id":"4","last_reported":1686996376,"current_range_meters":22400,"station_id":"ce4bhch2rcd13ifvqeug","pricing_plan_id":"free"},{"bike_id":"ef80c01d-23ec-4974-9efa-220927071b4a","system_id":"levelo_inurba_marseille","lat":43.2843,"lon":5.3753,"is_reserved":false,"is_disabled":false,"rental_uris":{"android":"levelo://app?vid=ef80c01d-23ec-4974-9efa-220927071b4a","ios":"levelo://app?vid=ef80c01d-23ec-4974-9efa-220927071b4a"},"vehicle_type_id":"4","last_reported":1686996376,"current_range_meters":31200,"station_id":"","pricing_plan_id":"free"},{"bike_id":"d2755f58-4be3-4881-a152-edcd5204dfb4","system_id":"levelo_inurba_marseille","lat":43.28424,"lon":5.37517,"is_reserved":false,"is_disabled":false,"rental_uris":{"android":"levelo://app?vid=d2755f58-4be3-4881-a152-edcd5204dfb4","ios":"levelo://app?vid=d2755f58-4be3-4881-a152-edcd5204dfb4"},"vehicle_type_id":"4","last_reported":1686996376,"current_range_meters":29600,"station_id":"","pricing_plan_id":"free"},{"bike_id":"d3a2e25b-2ee2-4f69-ac8e-b0a72feb9b37","system_id":"levelo_inurba_marseille","lat":43.2841,"lon":5.37511,"is_reserved":false,"is_disabled":false,"rental_uris":{"android":"levelo://app?vid=d3a2e25b-2ee2-4f69-ac8e-b0a72feb9b37","ios":"levelo://app?vid=d3a2e25b-2ee2-4f69-ac8e-b0a72feb9b37"},"vehicle_type_id":"4","last_reported":1686996376,"current_range_meters":31200,"station_id":"ce4bh412rcd13ifvqds0","pricing_plan_id":"free"},{"bike_id":"828fcad5-4e1a-4b3b-b2ff-f6f8be3d9589","system_id":"levelo_inurba_marseille","lat":43.28407,"lon":5.3752,"is_reserved":false,"is_disabled":false,"rental_uris":{"android":"levelo://app?vid=828fcad5-4e1a-4b3b-b2ff-f6f8be3d9589","ios":"levelo://app?vid=828fcad5-4e1a-4b3b-b2ff-f6f8be3d9589"},"vehicle_type_id":"4","last_reported":1686996376,"current_range_meters":31200,"station_id":"","pricing_plan_id":"free"},{"bike_id":"43275ef6-770c-4f0e-926c-1c3aecd7abec","system_id":"levelo_inurba_marseille","lat":43.287909,"lon":5.390554,"is_reserved":false,"is_disabled":false,"rental_uris":{"android":"levelo://app?vid=43275ef6-770c-4f0e-926c-1c3aecd7abec","ios":"levelo://app?vid=43275ef6-770c-4f0e-926c-1c3aecd7abec"},"vehicle_type_id":"4","last_reported":1686996376,"current_range_meters":16800,"station_id":"","pricing_plan_id":"free"},{"bike_id":"1373957b-76f6-46ca-a56e-c1a9dfcdfcfa","system_id":"levelo_inurba_marseille","lat":43.323464,"lon":5.406297,"is_reserved":false,"is_disabled":false,"rental_uris":{"android":"levelo://app?vid=1373957b-76f6-46ca-a56e-c1a9dfcdfcfa","ios":"levelo://app?vid=1373957b-76f6-46ca-a56e-c1a9dfcdfcfa"},"vehicle_type_id":"4","last_reported":1686996376,"current_range_meters":29200,"station_id":"ce4bhq92rcd13ifvqhjg","pricing_plan_id":"free"},{"bike_id":"014d20b7-e462-4a0d-ba50-980b631f8f4e","system_id":"levelo_inurba_marseille","lat":43.323464,"lon":5.406297,"is_reserved":false,"is_disabled":false,"rental_uris":{"android":"levelo://app?vid=014d20b7-e462-4a0d-ba50-980b631f8f4e","ios":"levelo://app?vid=014d20b7-e462-4a0d-ba50-980b631f8f4e"},"vehicle_type_id":"4","last_reported":1686996376,"current_range_meters":25200,"station_id":"ce4bhq92rcd13ifvqhjg","pricing_plan_id":"free"},{"bike_id":"16e5fedd-6e86-436a-a0a2-72c7cd60a6ea","system_id":"levelo_inurba_marseille","lat":43.32344,"lon":5.40621,"is_reserved":false,"is_disabled":false,"rental_uris":{"android":"levelo://app?vid=16e5fedd-6e86-436a-a0a2-72c7cd60a6ea","ios":"levelo://app?vid=16e5fedd-6e86-436a-a0a2-72c7cd60a6ea"},"vehicle_type_id":"4","last_reported":1686996376,"current_range_meters":30000,"station_id":"ce4bhq92rcd13ifvqhjg","pricing_plan_id":"free"},{"bike_id":"a3e18934-ee50-4634-b329-546a025643cb","system_id":"levelo_inurba_marseille","lat":43.323464,"lon":5.406297,"is_reserved":false,"is_disabled":false,"rental_uris":{"android":"levelo://app?vid=a3e18934-ee50-4634-b329-546a025643cb","ios":"levelo://app?vid=a3e18934-ee50-4634-b329-546a025643cb"},"vehicle_type_id":"4","last_reported":1686996376,"current_range_meters":31200,"station_id":"ce4bhq92rcd13ifvqhjg","pricing_plan_id":"free"},{"bike_id":"7b0f454d-174c-458c-8c17-e27436cb6d60","system_id":"levelo_inurba_marseille","lat":43.323464,"lon":5.406297,"is_reserved":false,"is_disabled":false,"rental_uris":{"android":"levelo://app?vid=7b0f454d-174c-458c-8c17-e27436cb6d60","ios":"levelo://app?vid=7b0f454d-174c-458c-8c17-e27436cb6d60"},"vehicle_type_id":"4","last_reported":1686996376,"current_range_meters":31200,"station_id":"ce4bhq92rcd13ifvqhjg","pricing_plan_id":"free"},{"bike_id":"e72ef85a-c2ac-4dbc-a4c9-27f1af66f8d8","system_id":"levelo_inurba_marseille","lat":43.284787,"lon":5.384116,"is_reserved":false,"is_disabled":false,"rental_uris":{"android":"levelo://app?vid=e72ef85a-c2ac-4dbc-a4c9-27f1af66f8d8","ios":"levelo://app?vid=e72ef85a-c2ac-4dbc-a4c9-27f1af66f8d8"},"vehicle_type_id":"4","last_reported":1686996376,"current_range_meters":25200,"station_id":"ce4bh512rcd13ifvqe3g","pricing_plan_id":"free"},{"bike_id":"ce42850b-b778-4c16-8682-f80792f69ccd","system_id":"levelo_inurba_marseille","lat":43.28359,"lon":5.38088,"is_reserved":false,"is_disabled":false,"rental_uris":{"android":"levelo://app?vid=ce42850b-b778-4c16-8682-f80792f69ccd","ios":"levelo://app?vid=ce42850b-b778-4c16-8682-f80792f69ccd"},"vehicle_type_id":"4","last_reported":1686996376,"current_range_meters":27600,"station_id":"","pricing_plan_id":"free"},{"bike_id":"00b4d942-d645-4a17-a320-9c02b5ecca68","system_id":"levelo_inurba_marseille","lat":43.288501,"lon":5.393087,"is_reserved":false,"is_disabled":false,"rental_uris":{"android":"levelo://app?vid=00b4d942-d645-4a17-a320-9c02b5ecca68","ios":"levelo://app?vid=00b4d942-d645-4a17-a320-9c02b5ecca68"},"vehicle_type_id":"4","last_reported":1686996376,"current_range_meters":26400,"station_id":"ce4bh2p2rcd13ifvqdi0","pricing_plan_id":"free"},{"bike_id":"517a06bd-6a1d-47b9-b901-fcc72401338d","system_id":"levelo_inurba_marseille","lat":43.28429,"lon":5.34995,"is_reserved":false,"is_disabled":false,"rental_uris":{"android":"levelo://app?vid=517a06bd-6a1d-47b9-b901-fcc72401338d","ios":"levelo://app?vid=517a06bd-6a1d-47b9-b901-fcc72401338d"},"vehicle_type_id":"4","last_reported":1686996376,"current_range_meters":13600,"station_id":"ce4bhbh2rcd13ifvqepg","pricing_plan_id":"free"},{"bike_id":"8501090f-0616-4fbf-b834-4ef8e5317796","system_id":"levelo_inurba_marseille","lat":43.284217,"lon":5.349697,"is_reserved":false,"is_disabled":false,"rental_uris":{"android":"levelo://app?vid=8501090f-0616-4fbf-b834-4ef8e5317796","ios":"levelo://app?vid=8501090f-0616-4fbf-b834-4ef8e5317796"},"vehicle_type_id":"4","last_reported":1686996376,"current_range_meters":24800,"station_id":"ce4bhbh2rcd13ifvqepg","pricing_plan_id":"free"},{"bike_id":"fd34b3b0-e913-4905-aa01-a34fab4d64e4","system_id":"levelo_inurba_marseille","lat":43.28426,"lon":5.34992,"is_reserved":false,"is_disabled":false,"rental_uris":{"android":"levelo://app?vid=fd34b3b0-e913-4905-aa01-a34fab4d64e4","ios":"levelo://app?vid=fd34b3b0-e913-4905-aa01-a34fab4d64e4"},"vehicle_type_id":"4","last_reported":1686996376,"current_range_meters":24800,"station_id":"ce4bhbh2rcd13ifvqepg","pricing_plan_id":"free"},{"bike_id":"90a1384b-427d-4d40-9165-9a91cb9fc4c2","system_id":"levelo_inurba_marseille","lat":43.284217,"lon":5.349697,"is_reserved":false,"is_disabled":false,"rental_uris":{"android":"levelo://app?vid=90a1384b-427d-4d40-9165-9a91cb9fc4c2","ios":"levelo://app?vid=90a1384b-427d-4d40-9165-9a91cb9fc4c2"},"vehicle_type_id":"4","last_reported":1686996376,"current_range_meters":16000,"station_id":"ce4bhbh2rcd13ifvqepg","pricing_plan_id":"free"},{"bike_id":"3a2c3005-9f02-4f68-801f-822ce084562a","system_id":"levelo_inurba_marseille","lat":43.28427,"lon":5.34978,"is_reserved":false,"is_disabled":false,"rental_uris":{"android":"levelo://app?vid=3a2c3005-9f02-4f68-801f-822ce084562a","ios":"levelo://app?vid=3a2c3005-9f02-4f68-801f-822ce084562a"},"vehicle_type_id":"4","last_reported":1686996376,"current_range_meters":19600,"station_id":"ce4bhbh2rcd13ifvqepg","pricing_plan_id":"free"},{"bike_id":"8943697f-dfdc-4cd3-877b-d6105a1ecddc","system_id":"levelo_inurba_marseille","lat":43.28422,"lon":5.34988,"is_reserved":false,"is_disabled":false,"rental_uris":{"android":"levelo://app?vid=8943697f-dfdc-4cd3-877b-d6105a1ecddc","ios":"levelo://app?vid=8943697f-dfdc-4cd3-877b-d6105a1ecddc"},"vehicle_type_id":"4","last_reported":1686996376,"current_range_meters":21600,"station_id":"ce4bhbh2rcd13ifvqepg","pricing_plan_id":"free"},{"bike_id":"4e11039b-6368-4550-b169-a0884f530415","system_id":"levelo_inurba_marseille","lat":43.284217,"lon":5.349697,"is_reserved":false,"is_disabled":false,"rental_uris":{"android":"levelo://app?vid=4e11039b-6368-4550-b169-a0884f530415","ios":"levelo://app?vid=4e11039b-6368-4550-b169-a0884f530415"},"vehicle_type_id":"4","last_reported":1686996376,"current_range_meters":23200,"station_id":"ce4bhbh2rcd13ifvqepg","pricing_plan_id":"free"},{"bike_id":"e0b1dece-c6ba-46ee-818f-15a5df67ef54","system_id":"levelo_inurba_marseille","lat":43.28424,"lon":5.34977,"is_reserved":false,"is_disabled":false,"rental_uris":{"android":"levelo://app?vid=e0b1dece-c6ba-46ee-818f-15a5df67ef54","ios":"levelo://app?vid=e0b1dece-c6ba-46ee-818f-15a5df67ef54"},"vehicle_type_id":"4","last_reported":1686996376,"current_range_meters":26400,"station_id":"ce4bhbh2rcd13ifvqepg","pricing_plan_id":"free"},{"bike_id":"11e6f3e8-fb98-4942-b05b-d0860077cc2e","system_id":"levelo_inurba_marseille","lat":43.28424,"lon":5.34975,"is_reserved":false,"is_disabled":false,"rental_uris":{"android":"levelo://app?vid=11e6f3e8-fb98-4942-b05b-d0860077cc2e","ios":"levelo://app?vid=11e6f3e8-fb98-4942-b05b-d0860077cc2e"},"vehicle_type_id":"4","last_reported":1686996376,"current_range_meters":19200,"station_id":"ce4bhbh2rcd13ifvqepg","pricing_plan_id":"free"},{"bike_id":"e7f45ac9-c7a9-4c0a-b3cc-efe8401f7c65","system_id":"levelo_inurba_marseille","lat":43.28423,"lon":5.34977,"is_reserved":false,"is_disabled":false,"rental_uris":{"android":"levelo://app?vid=e7f45ac9-c7a9-4c0a-b3cc-efe8401f7c65","ios":"levelo://app?vid=e7f45ac9-c7a9-4c0a-b3cc-efe8401f7c65"},"vehicle_type_id":"4","last_reported":1686996376,"current_range_meters":4800,"station_id":"ce4bhbh2rcd13ifvqepg","pricing_plan_id":"free"},{"bike_id":"5b2c6572-d16b-49eb-a7d1-67c48bcd1f17","system_id":"levelo_inurba_marseille","lat":43.284217,"lon":5.349697,"is_reserved":false,"is_disabled":false,"rental_uris":{"android":"levelo://app?vid=5b2c6572-d16b-49eb-a7d1-67c48bcd1f17","ios":"levelo://app?vid=5b2c6572-d16b-49eb-a7d1-67c48bcd1f17"},"vehicle_type_id":"4","last_reported":1686996376,"current_range_meters":21200,"station_id":"ce4bhbh2rcd13ifvqepg","pricing_plan_id":"free"},{"bike_id":"11514617-1a40-4f97-b9d2-028f438ab4a5","system_id":"levelo_inurba_marseille","lat":43.284217,"lon":5.349697,"is_reserved":false,"is_disabled":false,"rental_uris":{"android":"levelo://app?vid=11514617-1a40-4f97-b9d2-028f438ab4a5","ios":"levelo://app?vid=11514617-1a40-4f97-b9d2-028f438ab4a5"},"vehicle_type_id":"4","last_reported":1686996376,"current_range_meters":26400,"station_id":"ce4bhbh2rcd13ifvqepg","pricing_plan_id":"free"},{"bike_id":"43cd3979-2768-4241-a943-19cc6e1b8fdf","system_id":"levelo_inurba_marseille","lat":43.284217,"lon":5.349697,"is_reserved":false,"is_disabled":false,"rental_uris":{"android":"levelo://app?vid=43cd3979-2768-4241-a943-19cc6e1b8fdf","ios":"levelo://app?vid=43cd3979-2768-4241-a943-19cc6e1b8fdf"},"vehicle_type_id":"4","last_reported":1686996376,"current_range_meters":400,"station_id":"ce4bhbh2rcd13ifvqepg","pricing_plan_id":"free"},{"bike_id":"bc85f88b-d210-4f3a-8f41-a6b44f1c8ea0","system_id":"levelo_inurba_marseille","lat":43.284217,"lon":5.349697,"is_reserved":false,"is_disabled":false,"rental_uris":{"android":"levelo://app?vid=bc85f88b-d210-4f3a-8f41-a6b44f1c8ea0","ios":"levelo://app?vid=bc85f88b-d210-4f3a-8f41-a6b44f1c8ea0"},"vehicle_type_id":"4","last_reported":1686996376,"current_range_meters":20400,"station_id":"ce4bhbh2rcd13ifvqepg","pricing_plan_id":"free"},{"bike_id":"3d693432-ef53-4f06-bcec-7bb9bbc1e5e6","system_id":"levelo_inurba_marseille","lat":43.33925,"lon":5.39061,"is_reserved":false,"is_disabled":false,"rental_uris":{"android":"levelo://app?vid=3d693432-ef53-4f06-bcec-7bb9bbc1e5e6","ios":"levelo://app?vid=3d693432-ef53-4f06-bcec-7bb9bbc1e5e6"},"vehicle_type_id":"4","last_reported":1686996376,"current_range_meters":22000,"station_id":"","pricing_plan_id":"free"},{"bike_id":"018dee1e-65f0-4e89-894e-4684da6ec61f","system_id":"levelo_inurba_marseille","lat":43.289363,"lon":5.396322,"is_reserved":false,"is_disabled":false,"rental_uris":{"android":"levelo://app?vid=018dee1e-65f0-4e89-894e-4684da6ec61f","ios":"levelo://app?vid=018dee1e-65f0-4e89-894e-4684da6ec61f"},"vehicle_type_id":"4","last_reported":1686996376,"current_range_meters":24800,"station_id":"ce4bh3h2rcd13ifvqdn0","pricing_plan_id":"free"},{"bike_id":"497e00b9-1465-4933-b729-e43809a1d47d","system_id":"levelo_inurba_marseille","lat":43.282754,"lon":5.350519,"is_reserved":false,"is_disabled":false,"rental_uris":{"android":"levelo://app?vid=497e00b9-1465-4933-b729-e43809a1d47d","ios":"levelo://app?vid=497e00b9-1465-4933-b729-e43809a1d47d"},"vehicle_type_id":"4","last_reported":1686996376,"current_range_meters":31200,"station_id":"ce4bhbp2rcd13ifvqerg","pricing_plan_id":"free"},