{"last_updated":1777224598,"ttl":60,"version":"2.2","data":{"bikes":[{"bike_id":"d98e803b-63ff-4aed-8550-0d90ae1d9ab9","system_id":"levelo_inurba_marseille","lat":43.239617,"lon":5.366168,"is_reserved":false,"is_disabled":false,"rental_uris":{"android":"levelo://app?vid=d98e803b-63ff-4aed-8550-0d90ae1d9ab9","ios":"levelo://app?vid=d98e803b-63ff-4aed-8550-0d90ae1d9ab9"},"vehicle_type_id":"4","last_reported":1777224598,"current_range_meters":2800,"station_id":"ce4bhi12rcd13ifvqfp0","pricing_plan_id":"cebpf4jnsgd1na2vs0mg"},{"bike_id":"799d5333-0521-44f5-a2b7-6b74a3c6ddbc","system_id":"levelo_inurba_marseille","lat":43.26806,"lon":5.40261,"is_reserved":false,"is_disabled":false,"rental_uris":{"android":"levelo://app?vid=799d5333-0521-44f5-a2b7-6b74a3c6ddbc","ios":"levelo://app?vid=799d5333-0521-44f5-a2b7-6b74a3c6ddbc"},"vehicle_type_id":"4","last_reported":1777224598,"current_range_meters":2800,"station_id":"ce501612rcd8frsf0b60","pricing_plan_id":"cebpf4jnsgd1na2vs0mg"},{"bike_id":"f8f1d70a-3ad4-44c4-8908-e3b730c66517","system_id":"levelo_inurba_marseille","lat":43.281,"lon":5.37848,"is_reserved":false,"is_disabled":false,"rental_uris":{"android":"levelo://app?vid=f8f1d70a-3ad4-44c4-8908-e3b730c66517","ios":"levelo://app?vid=f8f1d70a-3ad4-44c4-8908-e3b730c66517"},"vehicle_type_id":"4","last_reported":1777224598,"current_range_meters":2800,"station_id":"ce4bha12rcd13ifvqee0","pricing_plan_id":"cebpf4jnsgd1na2vs0mg"},{"bike_id":"e840a571-96ca-4cbb-93d1-e65620535541","system_id":"levelo_inurba_marseille","lat":43.27904,"lon":5.38004,"is_reserved":false,"is_disabled":false,"rental_uris":{"android":"levelo://app?vid=e840a571-96ca-4cbb-93d1-e65620535541","ios":"levelo://app?vid=e840a571-96ca-4cbb-93d1-e65620535541"},"vehicle_type_id":"4","last_reported":1777224598,"current_range_meters":2800,"station_id":"ce4bhf92rcd13ifvqf50","pricing_plan_id":"cebpf4jnsgd1na2vs0mg"},{"bike_id":"246b7ba4-c92f-44e1-b0fa-eb54ee8b9629","system_id":"levelo_inurba_marseille","lat":43.28412,"lon":5.34989,"is_reserved":false,"is_disabled":false,"rental_uris":{"android":"levelo://app?vid=246b7ba4-c92f-44e1-b0fa-eb54ee8b9629","ios":"levelo://app?vid=246b7ba4-c92f-44e1-b0fa-eb54ee8b9629"},"vehicle_type_id":"4","last_reported":1777224598,"current_range_meters":2800,"station_id":"ce4bhbh2rcd13ifvqepg","pricing_plan_id":"cebpf4jnsgd1na2vs0mg"},{"bike_id":"2cf24fbf-c3e0-425a-91b5-21f2d9a5b934","system_id":"levelo_inurba_marseille","lat":43.30026,"lon":5.40127,"is_reserved":false,"is_disabled":false,"rental_uris":{"android":"levelo://app?vid=2cf24fbf-c3e0-425a-91b5-21f2d9a5b934","ios":"levelo://app?vid=2cf24fbf-c3e0-425a-91b5-21f2d9a5b934"},"vehicle_type_id":"4","last_reported":1777224598,"current_range_meters":2800,"station_id":"","pricing_plan_id":"cebpf4jnsgd1na2vs0mg"},{"bike_id":"b0ff75da-c477-4208-9186-ad3fcde26aa5","system_id":"levelo_inurba_marseille","lat":43.30088,"lon":5.3908,"is_reserved":false,"is_disabled":false,"rental_uris":{"android":"levelo://app?vid=b0ff75da-c477-4208-9186-ad3fcde26aa5","ios":"levelo://app?vid=b0ff75da-c477-4208-9186-ad3fcde26aa5"},"vehicle_type_id":"4","last_reported":1777224598,"current_range_meters":2800,"station_id":"ce4bh192rcd13ifvqdb0","pricing_plan_id":"cebpf4jnsgd1na2vs0mg"},{"bike_id":"76184659-9674-4804-bb2b-ccfcb633b0e1","system_id":"levelo_inurba_marseille","lat":43.29852,"lon":5.3626,"is_reserved":false,"is_disabled":false,"rental_uris":{"android":"levelo://app?vid=76184659-9674-4804-bb2b-ccfcb633b0e1","ios":"levelo://app?vid=76184659-9674-4804-bb2b-ccfcb633b0e1"},"vehicle_type_id":"4","last_reported":1777224598,"current_range_meters":2800,"station_id":"ce4bgpp2rcd13ifvqc3g","pricing_plan_id":"cebpf4jnsgd1na2vs0mg"},{"bike_id":"a0be2e2c-8c5b-496c-bda4-de7791af22a6","system_id":"levelo_inurba_marseille","lat":43.27823,"lon":5.39191,"is_reserved":false,"is_disabled":true,"rental_uris":{"android":"levelo://app?vid=a0be2e2c-8c5b-496c-bda4-de7791af22a6","ios":"levelo://app?vid=a0be2e2c-8c5b-496c-bda4-de7791af22a6"},"vehicle_type_id":"4","last_reported":1777224598,"current_range_meters":2800,"station_id":"ce4bhjp2rcd13ifvqga0","pricing_plan_id":"cebpf4jnsgd1na2vs0mg"},{"bike_id":"7f14f307-ed9b-4bde-a995-2c9126a5e681","system_id":"levelo_inurba_marseille","lat":43.30481,"lon":5.3788,"is_reserved":false,"is_disabled":true,"rental_uris":{"android":"levelo://app?vid=7f14f307-ed9b-4bde-a995-2c9126a5e681","ios":"levelo://app?vid=7f14f307-ed9b-4bde-a995-2c9126a5e681"},"vehicle_type_id":"4","last_reported":1777224598,"current_range_meters":2800,"station_id":"ce4bgup2rcd13ifvqcn0","pricing_plan_id":"cebpf4jnsgd1na2vs0mg"},{"bike_id":"5dfbef59-b530-4f25-96eb-4c6c9716533b","system_id":"levelo_inurba_marseille","lat":43.29223,"lon":5.36069,"is_reserved":false,"is_disabled":false,"rental_uris":{"android":"levelo://app?vid=5dfbef59-b530-4f25-96eb-4c6c9716533b","ios":"levelo://app?vid=5dfbef59-b530-4f25-96eb-4c6c9716533b"},"vehicle_type_id":"4","last_reported":1777224598,"current_range_meters":2800,"station_id":"ce4bhbh2rcd13ifvqeqg","pricing_plan_id":"cebpf4jnsgd1na2vs0mg"},{"bike_id":"d31f8657-32bc-43f7-a656-1d5badf482ff","system_id":"levelo_inurba_marseille","lat":43.29253,"lon":5.36853,"is_reserved":false,"is_disabled":false,"rental_uris":{"android":"levelo://app?vid=d31f8657-32bc-43f7-a656-1d5badf482ff","ios":"levelo://app?vid=d31f8657-32bc-43f7-a656-1d5badf482ff"},"vehicle_type_id":"4","last_reported":1777224598,"current_range_meters":2800,"station_id":"ce4bhbp2rcd13ifvqesg","pricing_plan_id":"cebpf4jnsgd1na2vs0mg"},{"bike_id":"da11f786-6842-4e55-81f1-af27e1dd9f4c","system_id":"levelo_inurba_marseille","lat":43.29258,"lon":5.36851,"is_reserved":false,"is_disabled":false,"rental_uris":{"android":"levelo://app?vid=da11f786-6842-4e55-81f1-af27e1dd9f4c","ios":"levelo://app?vid=da11f786-6842-4e55-81f1-af27e1dd9f4c"},"vehicle_type_id":"4","last_reported":1777224598,"current_range_meters":2800,"station_id":"ce4bhbp2rcd13ifvqesg","pricing_plan_id":"cebpf4jnsgd1na2vs0mg"},{"bike_id":"799d09db-858f-4ccb-8858-23d07f591cb9","system_id":"levelo_inurba_marseille","lat":43.28729,"lon":5.37933,"is_reserved":false,"is_disabled":false,"rental_uris":{"android":"levelo://app?vid=799d09db-858f-4ccb-8858-23d07f591cb9","ios":"levelo://app?vid=799d09db-858f-4ccb-8858-23d07f591cb9"},"vehicle_type_id":"4","last_reported":1777224598,"current_range_meters":2800,"station_id":"ce4bh9p2rcd13ifvqec0","pricing_plan_id":"cebpf4jnsgd1na2vs0mg"},{"bike_id":"f0c14ca6-bc8c-44bb-81be-4bc5e4d56571","system_id":"levelo_inurba_marseille","lat":43.28605,"lon":5.37069,"is_reserved":false,"is_disabled":false,"rental_uris":{"android":"levelo://app?vid=f0c14ca6-bc8c-44bb-81be-4bc5e4d56571","ios":"levelo://app?vid=f0c14ca6-bc8c-44bb-81be-4bc5e4d56571"},"vehicle_type_id":"4","last_reported":1777224598,"current_range_meters":2800,"station_id":"ce4bht12rcd13ifvqi60","pricing_plan_id":"cebpf4jnsgd1na2vs0mg"},{"bike_id":"40d69b45-a292-4d7d-b8e6-837b8b5a9d0c","system_id":"levelo_inurba_marseille","lat":43.28476,"lon":5.4839,"is_reserved":false,"is_disabled":false,"rental_uris":{"android":"levelo://app?vid=40d69b45-a292-4d7d-b8e6-837b8b5a9d0c","ios":"levelo://app?vid=40d69b45-a292-4d7d-b8e6-837b8b5a9d0c"},"vehicle_type_id":"4","last_reported":1777224598,"current_range_meters":3200,"station_id":"","pricing_plan_id":"cebpf4jnsgd1na2vs0mg"},{"bike_id":"3111ed18-a4ca-4d09-ad11-67b9ed77667b","system_id":"levelo_inurba_marseille","lat":43.24467,"lon":5.42552,"is_reserved":false,"is_disabled":false,"rental_uris":{"android":"levelo://app?vid=3111ed18-a4ca-4d09-ad11-67b9ed77667b","ios":"levelo://app?vid=3111ed18-a4ca-4d09-ad11-67b9ed77667b"},"vehicle_type_id":"4","last_reported":1777224598,"current_range_meters":3200,"station_id":"st_d4a3vfp97mjs738cd8kg","pricing_plan_id":"cebpf4jnsgd1na2vs0mg"},{"bike_id":"122f405f-0a6e-4635-87aa-3cfdb6efac3c","system_id":"levelo_inurba_marseille","lat":43.26566,"lon":5.37296,"is_reserved":false,"is_disabled":false,"rental_uris":{"android":"levelo://app?vid=122f405f-0a6e-4635-87aa-3cfdb6efac3c","ios":"levelo://app?vid=122f405f-0a6e-4635-87aa-3cfdb6efac3c"},"vehicle_type_id":"4","last_reported":1777224598,"current_range_meters":3200,"station_id":"ce4bhg12rcd13ifvqf70","pricing_plan_id":"cebpf4jnsgd1na2vs0mg"},{"bike_id":"8164f045-ac82-4b5f-9b34-06f5f17e4c38","system_id":"levelo_inurba_marseille","lat":43.25083,"lon":5.39524,"is_reserved":false,"is_disabled":false,"rental_uris":{"android":"levelo://app?vid=8164f045-ac82-4b5f-9b34-06f5f17e4c38","ios":"levelo://app?vid=8164f045-ac82-4b5f-9b34-06f5f17e4c38"},"vehicle_type_id":"4","last_reported":1777224598,"current_range_meters":3200,"station_id":"ce4bhm12rcd13ifvqgkg","pricing_plan_id":"cebpf4jnsgd1na2vs0mg"},{"bike_id":"6f398d06-722e-4fc2-a679-b9043ac16460","system_id":"levelo_inurba_marseille","lat":43.27943,"lon":5.41047,"is_reserved":false,"is_disabled":false,"rental_uris":{"android":"levelo://app?vid=6f398d06-722e-4fc2-a679-b9043ac16460","ios":"levelo://app?vid=6f398d06-722e-4fc2-a679-b9043ac16460"},"vehicle_type_id":"4","last_reported":1777224598,"current_range_meters":3200,"station_id":"ce4bhnp2rcd13ifvqh0g","pricing_plan_id":"cebpf4jnsgd1na2vs0mg"},{"bike_id":"541dbded-315f-4ca8-ac49-47fcb4294bb7","system_id":"levelo_inurba_marseille","lat":43.33523,"lon":5.3745,"is_reserved":false,"is_disabled":false,"rental_uris":{"android":"levelo://app?vid=541dbded-315f-4ca8-ac49-47fcb4294bb7","ios":"levelo://app?vid=541dbded-315f-4ca8-ac49-47fcb4294bb7"},"vehicle_type_id":"4","last_reported":1777224598,"current_range_meters":3200,"station_id":"st_d46tts09ee8s73dlu43g","pricing_plan_id":"cebpf4jnsgd1na2vs0mg"},{"bike_id":"90fac789-06e9-4c33-94b9-e82543e03c21","system_id":"levelo_inurba_marseille","lat":43.22564,"lon":5.41629,"is_reserved":false,"is_disabled":true,"rental_uris":{"android":"levelo://app?vid=90fac789-06e9-4c33-94b9-e82543e03c21","ios":"levelo://app?vid=90fac789-06e9-4c33-94b9-e82543e03c21"},"vehicle_type_id":"4","last_reported":1777224598,"current_range_meters":3200,"station_id":"st_d2o4gvlbi1j2169b742g","pricing_plan_id":"cebpf4jnsgd1na2vs0mg"},{"bike_id":"95d45c1e-c376-4408-908f-16922f813515","system_id":"levelo_inurba_marseille","lat":43.24996,"lon":5.38935,"is_reserved":false,"is_disabled":false,"rental_uris":{"android":"levelo://app?vid=95d45c1e-c376-4408-908f-16922f813515","ios":"levelo://app?vid=95d45c1e-c376-4408-908f-16922f813515"},"vehicle_type_id":"4","last_reported":1777224598,"current_range_meters":3200,"station_id":"ce4bhgp2rcd13ifvqfd0","pricing_plan_id":"cebpf4jnsgd1na2vs0mg"},{"bike_id":"43e51afa-0171-4a80-a007-f3bf7402b3e5","system_id":"levelo_inurba_marseille","lat":43.31688,"lon":5.40464,"is_reserved":false,"is_disabled":false,"rental_uris":{"android":"levelo://app?vid=43e51afa-0171-4a80-a007-f3bf7402b3e5","ios":"levelo://app?vid=43e51afa-0171-4a80-a007-f3bf7402b3e5"},"vehicle_type_id":"4","last_reported":1777224598,"current_range_meters":3200,"station_id":"ce4bh012rcd13ifvqd00","pricing_plan_id":"cebpf4jnsgd1na2vs0mg"},{"bike_id":"899778b6-8798-4236-be5d-8afb8505853a","system_id":"levelo_inurba_marseille","lat":43.2174,"lon":5.34602,"is_reserved":false,"is_disabled":false,"rental_uris":{"android":"levelo://app?vid=899778b6-8798-4236-be5d-8afb8505853a","ios":"levelo://app?vid=899778b6-8798-4236-be5d-8afb8505853a"},"vehicle_type_id":"4","last_reported":1777224598,"current_range_meters":3200,"station_id":"st_cvj6r9ubvosntc0bgbag","pricing_plan_id":"cebpf4jnsgd1na2vs0mg"},{"bike_id":"0cd2fd7c-6402-466e-aa1b-fa186d7a7ed3","system_id":"levelo_inurba_marseille","lat":43.33194,"lon":5.37792,"is_reserved":false,"is_disabled":false,"rental_uris":{"android":"levelo://app?vid=0cd2fd7c-6402-466e-aa1b-fa186d7a7ed3","ios":"levelo://app?vid=0cd2fd7c-6402-466e-aa1b-fa186d7a7ed3"},"vehicle_type_id":"4","last_reported":1777224598,"current_range_meters":3600,"station_id":"","pricing_plan_id":"cebpf4jnsgd1na2vs0mg"},{"bike_id":"2140ad40-7ff7-4a13-b855-1703f91f35eb","system_id":"levelo_inurba_marseille","lat":43.26212,"lon":5.37493,"is_reserved":false,"is_disabled":false,"rental_uris":{"android":"levelo://app?vid=2140ad40-7ff7-4a13-b855-1703f91f35eb","ios":"levelo://app?vid=2140ad40-7ff7-4a13-b855-1703f91f35eb"},"vehicle_type_id":"4","last_reported":1777224598,"current_range_meters":3600,"station_id":"","pricing_plan_id":"cebpf4jnsgd1na2vs0mg"},{"bike_id":"afba83de-cb7e-4bef-be8c-cd4a644bfbc2","system_id":"levelo_inurba_marseille","lat":43.27646,"lon":5.38932,"is_reserved":false,"is_disabled":false,"rental_uris":{"android":"levelo://app?vid=afba83de-cb7e-4bef-be8c-cd4a644bfbc2","ios":"levelo://app?vid=afba83de-cb7e-4bef-be8c-cd4a644bfbc2"},"vehicle_type_id":"4","last_reported":1777224598,"current_range_meters":3600,"station_id":"","pricing_plan_id":"cebpf4jnsgd1na2vs0mg"},{"bike_id":"2b51c914-b2ad-45b3-bcc5-ffa6e3c39426","system_id":"levelo_inurba_marseille","lat":43.26062,"lon":5.39392,"is_reserved":false,"is_disabled":false,"rental_uris":{"android":"levelo://app?vid=2b51c914-b2ad-45b3-bcc5-ffa6e3c39426","ios":"levelo://app?vid=2b51c914-b2ad-45b3-bcc5-ffa6e3c39426"},"vehicle_type_id":"4","last_reported":1777224598,"current_range_meters":3600,"station_id":"ce4bhh92rcd13ifvqfj0","pricing_plan_id":"cebpf4jnsgd1na2vs0mg"},{"bike_id":"8a885835-e31d-408b-90f7-4ea42e668384","system_id":"levelo_inurba_marseille","lat":43.24805,"lon":5.37448,"is_reserved":false,"is_disabled":false,"rental_uris":{"android":"levelo://app?vid=8a885835-e31d-408b-90f7-4ea42e668384","ios":"levelo://app?vid=8a885835-e31d-408b-90f7-4ea42e668384"},"vehicle_type_id":"4","last_reported":1777224598,"current_range_meters":3600,"station_id":"ce4bhgh2rcd13ifvqfb0","pricing_plan_id":"cebpf4jnsgd1na2vs0mg"},{"bike_id":"17fe3f56-b486-40dd-ac6a-710ede14c97d","system_id":"levelo_inurba_marseille","lat":43.314869,"lon":5.373029,"is_reserved":false,"is_disabled":false,"rental_uris":{"android":"levelo://app?vid=17fe3f56-b486-40dd-ac6a-710ede14c97d","ios":"levelo://app?vid=17fe3f56-b486-40dd-ac6a-710ede14c97d"},"vehicle_type_id":"4","last_reported":1777224598,"current_range_meters":3600,"station_id":"","pricing_plan_id":"cebpf4jnsgd1na2vs0mg"},{"bike_id":"96ba2ede-69e7-4e15-a5de-c0028960b862","system_id":"levelo_inurba_marseille","lat":43.29884,"lon":5.38914,"is_reserved":false,"is_disabled":false,"rental_uris":{"android":"levelo://app?vid=96ba2ede-69e7-4e15-a5de-c0028960b862","ios":"levelo://app?vid=96ba2ede-69e7-4e15-a5de-c0028960b862"},"vehicle_type_id":"4","last_reported":1777224598,"current_range_meters":3600,"station_id":"ce4bh392rcd13ifvqdl0","pricing_plan_id":"cebpf4jnsgd1na2vs0mg"},{"bike_id":"99673b6e-e48f-4312-8947-fbe3461f0a80","system_id":"levelo_inurba_marseille","lat":43.27812,"lon":5.39221,"is_reserved":false,"is_disabled":false,"rental_uris":{"android":"levelo://app?vid=99673b6e-e48f-4312-8947-fbe3461f0a80","ios":"levelo://app?vid=99673b6e-e48f-4312-8947-fbe3461f0a80"},"vehicle_type_id":"4","last_reported":1777224598,"current_range_meters":3600,"station_id":"ce4bhjp2rcd13ifvqga0","pricing_plan_id":"cebpf4jnsgd1na2vs0mg"},{"bike_id":"a62bb2ae-386e-4df3-bc27-8323a5f6a5b8","system_id":"levelo_inurba_marseille","lat":43.28462,"lon":5.35879,"is_reserved":false,"is_disabled":false,"rental_uris":{"android":"levelo://app?vid=a62bb2ae-386e-4df3-bc27-8323a5f6a5b8","ios":"levelo://app?vid=a62bb2ae-386e-4df3-bc27-8323a5f6a5b8"},"vehicle_type_id":"4","last_reported":1777224598,"current_range_meters":3600,"station_id":"ce4bhah2rcd13ifvqei0","pricing_plan_id":"cebpf4jnsgd1na2vs0mg"},{"bike_id":"413e4623-e4a6-44c0-8fe0-f06c3e224af8","system_id":"levelo_inurba_marseille","lat":43.31951,"lon":5.36737,"is_reserved":false,"is_disabled":false,"rental_uris":{"android":"levelo://app?vid=413e4623-e4a6-44c0-8fe0-f06c3e224af8","ios":"levelo://app?vid=413e4623-e4a6-44c0-8fe0-f06c3e224af8"},"vehicle_type_id":"4","last_reported":1777224598,"current_range_meters":4000,"station_id":"","pricing_plan_id":"cebpf4jnsgd1na2vs0mg"},{"bike_id":"c0126e79-e455-4033-aa6f-9cd2537e8b04","system_id":"levelo_inurba_marseille","lat":43.287,"lon":5.46685,"is_reserved":false,"is_disabled":false,"rental_uris":{"android":"levelo://app?vid=c0126e79-e455-4033-aa6f-9cd2537e8b04","ios":"levelo://app?vid=c0126e79-e455-4033-aa6f-9cd2537e8b04"},"vehicle_type_id":"4","last_reported":1777224598,"current_range_meters":4000,"station_id":"st_d6tc3vkotcvc738tfjhg","pricing_plan_id":"cebpf4jnsgd1na2vs0mg"},{"bike_id":"a03ce919-3949-4c06-bbb8-c0f13ba943b2","system_id":"levelo_inurba_marseille","lat":43.25513,"lon":5.37667,"is_reserved":false,"is_disabled":true,"rental_uris":{"android":"levelo://app?vid=a03ce919-3949-4c06-bbb8-c0f13ba943b2","ios":"levelo://app?vid=a03ce919-3949-4c06-bbb8-c0f13ba943b2"},"vehicle_type_id":"4","last_reported":1777224598,"current_range_meters":4000,"station_id":"ce4bhh12rcd13ifvqff0","pricing_plan_id":"cebpf4jnsgd1na2vs0mg"},{"bike_id":"ace34436-51fe-4536-a1f6-cfa009f56977","system_id":"levelo_inurba_marseille","lat":43.33553,"lon":5.37456,"is_reserved":false,"is_disabled":false,"rental_uris":{"android":"levelo://app?vid=ace34436-51fe-4536-a1f6-cfa009f56977","ios":"levelo://app?vid=ace34436-51fe-4536-a1f6-cfa009f56977"},"vehicle_type_id":"4","last_reported":1777224598,"current_range_meters":4000,"station_id":"st_d46tts09ee8s73dlu43g","pricing_plan_id":"cebpf4jnsgd1na2vs0mg"},{"bike_id":"ad0cfa07-febe-423c-830c-9255e36ed980","system_id":"levelo_inurba_marseille","lat":43.26491,"lon":5.39558,"is_reserved":false,"is_disabled":false,"rental_uris":{"android":"levelo://app?vid=ad0cfa07-febe-423c-830c-9255e36ed980","ios":"levelo://app?vid=ad0cfa07-febe-423c-830c-9255e36ed980"},"vehicle_type_id":"4","last_reported":1777224598,"current_range_meters":4000,"station_id":"ce4bhi12rcd13ifvqfq0","pricing_plan_id":"cebpf4jnsgd1na2vs0mg"},{"bike_id":"e9caee44-b787-4c36-a632-4bd6c1ec7cfa","system_id":"levelo_inurba_marseille","lat":43.28469,"lon":5.48412,"is_reserved":false,"is_disabled":false,"rental_uris":{"android":"levelo://app?vid=e9caee44-b787-4c36-a632-4bd6c1ec7cfa","ios":"levelo://app?vid=e9caee44-b787-4c36-a632-4bd6c1ec7cfa"},"vehicle_type_id":"4","last_reported":1777224598,"current_range_meters":4000,"station_id":"st_d3svhcjqgbts73a3dn0g","pricing_plan_id":"cebpf4jnsgd1na2vs0mg"},{"bike_id":"724d0869-017c-4e7e-9911-705be0df09b1","system_id":"levelo_inurba_marseille","lat":43.31432,"lon":5.37374,"is_reserved":false,"is_disabled":false,"rental_uris":{"android":"levelo://app?vid=724d0869-017c-4e7e-9911-705be0df09b1","ios":"levelo://app?vid=724d0869-017c-4e7e-9911-705be0df09b1"},"vehicle_type_id":"4","last_reported":1777224598,"current_range_meters":4000,"station_id":"","pricing_plan_id":"cebpf4jnsgd1na2vs0mg"},{"bike_id":"b465b832-41ca-4c8a-b678-132228b145ba","system_id":"levelo_inurba_marseille","lat":43.30416,"lon":5.3977,"is_reserved":false,"is_disabled":true,"rental_uris":{"android":"levelo://app?vid=b465b832-41ca-4c8a-b678-132228b145ba","ios":"levelo://app?vid=b465b832-41ca-4c8a-b678-132228b145ba"},"vehicle_type_id":"4","last_reported":1777224598,"current_range_meters":4000,"station_id":"ce4bh092rcd13ifvqd20","pricing_plan_id":"cebpf4jnsgd1na2vs0mg"},{"bike_id":"f98295c5-aeb0-4d21-a18b-7ad63c1ea7de","system_id":"levelo_inurba_marseille","lat":43.24811,"lon":5.3746,"is_reserved":false,"is_disabled":false,"rental_uris":{"android":"levelo://app?vid=f98295c5-aeb0-4d21-a18b-7ad63c1ea7de","ios":"levelo://app?vid=f98295c5-aeb0-4d21-a18b-7ad63c1ea7de"},"vehicle_type_id":"4","last_reported":1777224598,"current_range_meters":4000,"station_id":"ce4bhgh2rcd13ifvqfb0","pricing_plan_id":"cebpf4jnsgd1na2vs0mg"},{"bike_id":"8f1285fa-10ff-4153-a195-e0253908d865","system_id":"levelo_inurba_marseille","lat":43.21744,"lon":5.346018,"is_reserved":false,"is_disabled":false,"rental_uris":{"android":"levelo://app?vid=8f1285fa-10ff-4153-a195-e0253908d865","ios":"levelo://app?vid=8f1285fa-10ff-4153-a195-e0253908d865"},"vehicle_type_id":"4","last_reported":1777224598,"current_range_meters":4000,"station_id":"st_cvj6r9ubvosntc0bgbag","pricing_plan_id":"cebpf4jnsgd1na2vs0mg"},{"bike_id":"0f126928-5121-4469-a9c9-6740d8de1e82","system_id":"levelo_inurba_marseille","lat":43.24424,"lon":5.37438,"is_reserved":false,"is_disabled":false,"rental_uris":{"android":"levelo://app?vid=0f126928-5121-4469-a9c9-6740d8de1e82","ios":"levelo://app?vid=0f126928-5121-4469-a9c9-6740d8de1e82"},"vehicle_type_id":"4","last_reported":1777224598,"current_range_meters":4000,"station_id":"","pricing_plan_id":"cebpf4jnsgd1na2vs0mg"},{"bike_id":"05a33fd5-e436-4ad0-a907-865e546c41d5","system_id":"levelo_inurba_marseille","lat":43.22554,"lon":5.41613,"is_reserved":false,"is_disabled":true,"rental_uris":{"android":"levelo://app?vid=05a33fd5-e436-4ad0-a907-865e546c41d5","ios":"levelo://app?vid=05a33fd5-e436-4ad0-a907-865e546c41d5"},"vehicle_type_id":"4","last_reported":1777224598,"current_range_meters":4000,"station_id":"","pricing_plan_id":"cebpf4jnsgd1na2vs0mg"},{"bike_id":"e4c8be76-c472-4db5-814d-bbf6825bc3f7","system_id":"levelo_inurba_marseille","lat":43.29961,"lon":5.38532,"is_reserved":false,"is_disabled":false,"rental_uris":{"android":"levelo://app?vid=e4c8be76-c472-4db5-814d-bbf6825bc3f7","ios":"levelo://app?vid=e4c8be76-c472-4db5-814d-bbf6825bc3f7"},"vehicle_type_id":"4","last_reported":1777224598,"current_range_meters":4000,"station_id":"ce4bgj92rcd13ifvqbd0","pricing_plan_id":"cebpf4jnsgd1na2vs0mg"},{"bike_id":"a1fa8530-65b9-4008-96f3-a6831b1af9e3","system_id":"levelo_inurba_marseille","lat":43.33534,"lon":5.37468,"is_reserved":false,"is_disabled":true,"rental_uris":{"android":"levelo://app?vid=a1fa8530-65b9-4008-96f3-a6831b1af9e3","ios":"levelo://app?vid=a1fa8530-65b9-4008-96f3-a6831b1af9e3"},"vehicle_type_id":"4","last_reported":1777224598,"current_range_meters":4000,"station_id":"st_d46tts09ee8s73dlu43g","pricing_plan_id":"cebpf4jnsgd1na2vs0mg"},{"bike_id":"87f6c15f-2a55-42f2-a887-610b0da5c46d","system_id":"levelo_inurba_marseille","lat":43.30205,"lon":5.39466,"is_reserved":false,"is_disabled":false,"rental_uris":{"android":"levelo://app?vid=87f6c15f-2a55-42f2-a887-610b0da5c46d","ios":"levelo://app?vid=87f6c15f-2a55-42f2-a887-610b0da5c46d"},"vehicle_type_id":"4","last_reported":1777224598,"current_range_meters":4000,"station_id":"ce4bh0p2rcd13ifvqd70","pricing_plan_id":"cebpf4jnsgd1na2vs0mg"},{"bike_id":"e7760414-c99e-4edb-8d77-254918982c51","system_id":"levelo_inurba_marseille","lat":43.280813,"lon":5.396654,"is_reserved":false,"is_disabled":false,"rental_uris":{"android":"levelo://app?vid=e7760414-c99e-4edb-8d77-254918982c51","ios":"levelo://app?vid=e7760414-c99e-4edb-8d77-254918982c51"},"vehicle_type_id":"4","last_reported":1777224598,"current_range_meters":4400,"station_id":"ce4bho12rcd13ifvqh2g","pricing_plan_id":"cebpf4jnsgd1na2vs0mg"},{"bike_id":"70578acc-b935-4f77-be23-bcde1db99b26","system_id":"levelo_inurba_marseille","lat":43.29794,"lon":5.38155,"is_reserved":false,"is_disabled":false,"rental_uris":{"android":"levelo://app?vid=70578acc-b935-4f77-be23-bcde1db99b26","ios":"levelo://app?vid=70578acc-b935-4f77-be23-bcde1db99b26"},"vehicle_type_id":"4","last_reported":1777224598,"current_range_meters":4400,"station_id":"ce4bgip2rcd13ifvqbb0","pricing_plan_id":"cebpf4jnsgd1na2vs0mg"},{"bike_id":"4496adc2-d110-4a32-9955-0d7df89baff9","system_id":"levelo_inurba_marseille","lat":43.29005,"lon":5.35594,"is_reserved":false,"is_disabled":false,"rental_uris":{"android":"levelo://app?vid=4496adc2-d110-4a32-9955-0d7df89baff9","ios":"levelo://app?vid=4496adc2-d110-4a32-9955-0d7df89baff9"},"vehicle_type_id":"4","last_reported":1777224598,"current_range_meters":4400,"station_id":"ce4bhb92rcd13ifvqen0","pricing_plan_id":"cebpf4jnsgd1na2vs0mg"},{"bike_id":"fd433ccd-97bc-45cd-82e1-09aa550bfe0d","system_id":"levelo_inurba_marseille","lat":43.28613,"lon":5.35104,"is_reserved":false,"is_disabled":false,"rental_uris":{"android":"levelo://app?vid=fd433ccd-97bc-45cd-82e1-09aa550bfe0d","ios":"levelo://app?vid=fd433ccd-97bc-45cd-82e1-09aa550bfe0d"},"vehicle_type_id":"4","last_reported":1777224598,"current_range_meters":4400,"station_id":"ce4bhch2rcd13ifvqeug","pricing_plan_id":"cebpf4jnsgd1na2vs0mg"},{"bike_id":"fea5a28c-0167-4a62-9062-e629ed9b3e8f","system_id":"levelo_inurba_marseille","lat":43.2847,"lon":5.48405,"is_reserved":false,"is_disabled":false,"rental_uris":{"android":"levelo://app?vid=fea5a28c-0167-4a62-9062-e629ed9b3e8f","ios":"levelo://app?vid=fea5a28c-0167-4a62-9062-e629ed9b3e8f"},"vehicle_type_id":"4","last_reported":1777224598,"current_range_meters":4400,"station_id":"st_d3svhcjqgbts73a3dn0g","pricing_plan_id":"cebpf4jnsgd1na2vs0mg"},{"bike_id":"e79bde01-2f2e-4687-9114-2908a926683e","system_id":"levelo_inurba_marseille","lat":43.33542,"lon":5.37448,"is_reserved":false,"is_disabled":false,"rental_uris":{"android":"levelo://app?vid=e79bde01-2f2e-4687-9114-2908a926683e","ios":"levelo://app?vid=e79bde01-2f2e-4687-9114-2908a926683e"},"vehicle_type_id":"4","last_reported":1777224598,"current_range_meters":4400,"station_id":"st_d46tts09ee8s73dlu43g","pricing_plan_id":"cebpf4jnsgd1na2vs0mg"},{"bike_id":"737c8f97-7501-4b08-be1b-e6dff07797e7","system_id":"levelo_inurba_marseille","lat":43.24165,"lon":5.36396,"is_reserved":false,"is_disabled":false,"rental_uris":{"android":"levelo://app?vid=737c8f97-7501-4b08-be1b-e6dff07797e7","ios":"levelo://app?vid=737c8f97-7501-4b08-be1b-e6dff07797e7"},"vehicle_type_id":"4","last_reported":1777224598,"current_range_meters":4400,"station_id":"cpo36qri1sfpv3e86is0","pricing_plan_id":"cebpf4jnsgd1na2vs0mg"},{"bike_id":"1ccfe6f4-e5d4-4b33-812d-52bd4f628f2d","system_id":"levelo_inurba_marseille","lat":43.2481,"lon":5.37454,"is_reserved":false,"is_disabled":false,"rental_uris":{"android":"levelo://app?vid=1ccfe6f4-e5d4-4b33-812d-52bd4f628f2d","ios":"levelo://app?vid=1ccfe6f4-e5d4-4b33-812d-52bd4f628f2d"},"vehicle_type_id":"4","last_reported":1777224598,"current_range_meters":4400,"station_id":"ce4bhgh2rcd13ifvqfb0","pricing_plan_id":"cebpf4jnsgd1na2vs0mg"},{"bike_id":"4b4f8a14-28a7-473c-ab80-dc541b302711","system_id":"levelo_inurba_marseille","lat":43.27334,"lon":5.38993,"is_reserved":false,"is_disabled":false,"rental_uris":{"android":"levelo://app?vid=4b4f8a14-28a7-473c-ab80-dc541b302711","ios":"levelo://app?vid=4b4f8a14-28a7-473c-ab80-dc541b302711"},"vehicle_type_id":"4","last_reported":1777224598,"current_range_meters":4400,"station_id":"ce4bhgp2rcd13ifvqfe0","pricing_plan_id":"cebpf4jnsgd1na2vs0mg"},{"bike_id":"edc2a3bb-1aa4-404a-9f62-c14a9c4956a6","system_id":"levelo_inurba_marseille","lat":43.25427,"lon":5.41904,"is_reserved":false,"is_disabled":false,"rental_uris":{"android":"levelo://app?vid=edc2a3bb-1aa4-404a-9f62-c14a9c4956a6","ios":"levelo://app?vid=edc2a3bb-1aa4-404a-9f62-c14a9c4956a6"},"vehicle_type_id":"4","last_reported":1777224598,"current_range_meters":4400,"station_id":"","pricing_plan_id":"cebpf4jnsgd1na2vs0mg"},{"bike_id":"6161ede7-aa25-46de-a043-cdaf0b87397b","system_id":"levelo_inurba_marseille","lat":43.28785,"lon":5.38564,"is_reserved":false,"is_disabled":false,"rental_uris":{"android":"levelo://app?vid=6161ede7-aa25-46de-a043-cdaf0b87397b","ios":"levelo://app?vid=6161ede7-aa25-46de-a043-cdaf0b87397b"},"vehicle_type_id":"4","last_reported":1777224598,"current_range_meters":4400,"station_id":"","pricing_plan_id":"cebpf4jnsgd1na2vs0mg"},{"bike_id":"54b9fc2c-86f0-4a80-8650-7250a3899984","system_id":"levelo_inurba_marseille","lat":43.30268,"lon":5.37716,"is_reserved":false,"is_disabled":false,"rental_uris":{"android":"levelo://app?vid=54b9fc2c-86f0-4a80-8650-7250a3899984","ios":"levelo://app?vid=54b9fc2c-86f0-4a80-8650-7250a3899984"},"vehicle_type_id":"4","last_reported":1777224598,"current_range_meters":4400,"station_id":"ce4bguh2rcd13ifvqcj0","pricing_plan_id":"cebpf4jnsgd1na2vs0mg"},{"bike_id":"806d939e-f3b8-4fe9-b5a9-cb21d8f76212","system_id":"levelo_inurba_marseille","lat":43.30139,"lon":5.38078,"is_reserved":false,"is_disabled":false,"rental_uris":{"android":"levelo://app?vid=806d939e-f3b8-4fe9-b5a9-cb21d8f76212","ios":"levelo://app?vid=806d939e-f3b8-4fe9-b5a9-cb21d8f76212"},"vehicle_type_id":"4","last_reported":1777224598,"current_range_meters":4800,"station_id":"ce4bgjp2rcd13ifvqbh0","pricing_plan_id":"cebpf4jnsgd1na2vs0mg"},{"bike_id":"38680648-1d07-410c-9138-e93e039240e0","system_id":"levelo_inurba_marseille","lat":43.28469,"lon":5.38411,"is_reserved":false,"is_disabled":false,"rental_uris":{"android":"levelo://app?vid=38680648-1d07-410c-9138-e93e039240e0","ios":"levelo://app?vid=38680648-1d07-410c-9138-e93e039240e0"},"vehicle_type_id":"4","last_reported":1777224598,"current_range_meters":4800,"station_id":"ce4bh512rcd13ifvqe3g","pricing_plan_id":"cebpf4jnsgd1na2vs0mg"},{"bike_id":"6635d474-68d0-4398-a7a0-f7c8536ee66b","system_id":"levelo_inurba_marseille","lat":43.30141,"lon":5.37406,"is_reserved":false,"is_disabled":false,"rental_uris":{"android":"levelo://app?vid=6635d474-68d0-4398-a7a0-f7c8536ee66b","ios":"levelo://app?vid=6635d474-68d0-4398-a7a0-f7c8536ee66b"},"vehicle_type_id":"4","last_reported":1777224598,"current_range_meters":4800,"station_id":"ce4bgs92rcd13ifvqcc0","pricing_plan_id":"cebpf4jnsgd1na2vs0mg"},{"bike_id":"b1c42197-d928-48db-9965-054dcbb61485","system_id":"levelo_inurba_marseille","lat":43.29272,"lon":5.36854,"is_reserved":false,"is_disabled":false,"rental_uris":{"android":"levelo://app?vid=b1c42197-d928-48db-9965-054dcbb61485","ios":"levelo://app?vid=b1c42197-d928-48db-9965-054dcbb61485"},"vehicle_type_id":"4","last_reported":1777224598,"current_range_meters":4800,"station_id":"ce4bhbp2rcd13ifvqesg","pricing_plan_id":"cebpf4jnsgd1na2vs0mg"},{"bike_id":"27cd71a7-0940-4415-a67f-21597fbf1cd9","system_id":"levelo_inurba_marseille","lat":43.34433,"lon":5.37821,"is_reserved":false,"is_disabled":false,"rental_uris":{"android":"levelo://app?vid=27cd71a7-0940-4415-a67f-21597fbf1cd9","ios":"levelo://app?vid=27cd71a7-0940-4415-a67f-21597fbf1cd9"},"vehicle_type_id":"4","last_reported":1777224598,"current_range_meters":4800,"station_id":"","pricing_plan_id":"cebpf4jnsgd1na2vs0mg"},{"bike_id":"a741ff1a-484b-4d8a-9c06-c4887c117baa","system_id":"levelo_inurba_marseille","lat":43.22528,"lon":5.34828,"is_reserved":false,"is_disabled":false,"rental_uris":{"android":"levelo://app?vid=a741ff1a-484b-4d8a-9c06-c4887c117baa","ios":"levelo://app?vid=a741ff1a-484b-4d8a-9c06-c4887c117baa"},"vehicle_type_id":"4","last_reported":1777224598,"current_range_meters":4800,"station_id":"st_cvj5dfep6f1abm77gieg","pricing_plan_id":"cebpf4jnsgd1na2vs0mg"},{"bike_id":"230ea165-0ec3-4db4-a5be-84b66b334ccf","system_id":"levelo_inurba_marseille","lat":43.298096,"lon":5.380895,"is_reserved":false,"is_disabled":false,"rental_uris":{"android":"levelo://app?vid=230ea165-0ec3-4db4-a5be-84b66b334ccf","ios":"levelo://app?vid=230ea165-0ec3-4db4-a5be-84b66b334ccf"},"vehicle_type_id":"4","last_reported":1777224598,"current_range_meters":4800,"station_id":"ce4bgip2rcd13ifvqbb0","pricing_plan_id":"cebpf4jnsgd1na2vs0mg"},{"bike_id":"c8b61de4-3641-4fcc-96aa-e7eada36bc90","system_id":"levelo_inurba_marseille","lat":43.30245,"lon":5.40038,"is_reserved":false,"is_disabled":false,"rental_uris":{"android":"levelo://app?vid=c8b61de4-3641-4fcc-96aa-e7eada36bc90","ios":"levelo://app?vid=c8b61de4-3641-4fcc-96aa-e7eada36bc90"},"vehicle_type_id":"4","last_reported":1777224598,"current_range_meters":4800,"station_id":"ce4bgvh2rcd13ifvqcs0","pricing_plan_id":"cebpf4jnsgd1na2vs0mg"},{"bike_id":"49762aaa-5f0a-46b4-b73c-5c8fd08ce4fa","system_id":"levelo_inurba_marseille","lat":43.27944,"lon":5.41034,"is_reserved":false,"is_disabled":false,"rental_uris":{"android":"levelo://app?vid=49762aaa-5f0a-46b4-b73c-5c8fd08ce4fa","ios":"levelo://app?vid=49762aaa-5f0a-46b4-b73c-5c8fd08ce4fa"},"vehicle_type_id":"4","last_reported":1777224598,"current_range_meters":4800,"station_id":"ce4bhnp2rcd13ifvqh0g","pricing_plan_id":"cebpf4jnsgd1na2vs0mg"},{"bike_id":"3a1dde76-eca1-4259-a733-fe668960caa8","system_id":"levelo_inurba_marseille","lat":43.24456,"lon":5.39093,"is_reserved":false,"is_disabled":false,"rental_uris":{"android":"levelo://app?vid=3a1dde76-eca1-4259-a733-fe668960caa8","ios":"levelo://app?vid=3a1dde76-eca1-4259-a733-fe668960caa8"},"vehicle_type_id":"4","last_reported":1777224598,"current_range_meters":4800,"station_id":"","pricing_plan_id":"cebpf4jnsgd1na2vs0mg"},{"bike_id":"b4885e17-586f-4602-b340-8cfc5af7c3c8","system_id":"levelo_inurba_marseille","lat":43.30652,"lon":5.40091,"is_reserved":false,"is_disabled":false,"rental_uris":{"android":"levelo://app?vid=b4885e17-586f-4602-b340-8cfc5af7c3c8","ios":"levelo://app?vid=b4885e17-586f-4602-b340-8cfc5af7c3c8"},"vehicle_type_id":"4","last_reported":1777224598,"current_range_meters":4800,"station_id":"ce4bh112rcd13ifvqda0","pricing_plan_id":"cebpf4jnsgd1na2vs0mg"},{"bike_id":"833d7be3-421b-4c5f-bc44-1a51dc01aed7","system_id":"levelo_inurba_marseille","lat":43.29633,"lon":5.37309,"is_reserved":false,"is_disabled":true,"rental_uris":{"android":"levelo://app?vid=833d7be3-421b-4c5f-bc44-1a51dc01aed7","ios":"levelo://app?vid=833d7be3-421b-4c5f-bc44-1a51dc01aed7"},"vehicle_type_id":"4","last_reported":1777224598,"current_range_meters":4800,"station_id":"","pricing_plan_id":"cebpf4jnsgd1na2vs0mg"},{"bike_id":"f33c6c9d-346a-4c73-9b31-f3ca6fe92254","system_id":"levelo_inurba_marseille","lat":43.29627,"lon":5.377126,"is_reserved":false,"is_disabled":true,"rental_uris":{"android":"levelo://app?vid=f33c6c9d-346a-4c73-9b31-f3ca6fe92254","ios":"levelo://app?vid=f33c6c9d-346a-4c73-9b31-f3ca6fe92254"},"vehicle_type_id":"4","last_reported":1777224598,"current_range_meters":4800,"station_id":"ce4bgi92rcd13ifvqb90","pricing_plan_id":"cebpf4jnsgd1na2vs0mg"},{"bike_id":"8416763b-fe4c-4968-a092-b87cbfa4ec08","system_id":"levelo_inurba_marseille","lat":43.25821,"lon":5.39434,"is_reserved":false,"is_disabled":false,"rental_uris":{"android":"levelo://app?vid=8416763b-fe4c-4968-a092-b87cbfa4ec08","ios":"levelo://app?vid=8416763b-fe4c-4968-a092-b87cbfa4ec08"},"vehicle_type_id":"4","last_reported":1777224598,"current_range_meters":4800,"station_id":"ce4bhip2rcd13ifvqft0","pricing_plan_id":"cebpf4jnsgd1na2vs0mg"},{"bike_id":"a419ae63-9b84-4426-840a-1a78aefcafcc","system_id":"levelo_inurba_marseille","lat":43.29878,"lon":5.38894,"is_reserved":false,"is_disabled":false,"rental_uris":{"android":"levelo://app?vid=a419ae63-9b84-4426-840a-1a78aefcafcc","ios":"levelo://app?vid=a419ae63-9b84-4426-840a-1a78aefcafcc"},"vehicle_type_id":"4","last_reported":1777224598,"current_range_meters":4800,"station_id":"ce4bh392rcd13ifvqdl0","pricing_plan_id":"cebpf4jnsgd1na2vs0mg"},{"bike_id":"5367fafd-42a5-4c52-bd35-5d85953af91c","system_id":"levelo_inurba_marseille","lat":43.31223,"lon":5.37247,"is_reserved":false,"is_disabled":true,"rental_uris":{"android":"levelo://app?vid=5367fafd-42a5-4c52-bd35-5d85953af91c","ios":"levelo://app?vid=5367fafd-42a5-4c52-bd35-5d85953af91c"},"vehicle_type_id":"4","last_reported":1777224598,"current_range_meters":5600,"station_id":"","pricing_plan_id":"cebpf4jnsgd1na2vs0mg"},{"bike_id":"9a7c39d8-ef30-4694-b180-b6fe0a089530","system_id":"levelo_inurba_marseille","lat":43.30116,"lon":5.43116,"is_reserved":false,"is_disabled":false,"rental_uris":{"android":"levelo://app?vid=9a7c39d8-ef30-4694-b180-b6fe0a089530","ios":"levelo://app?vid=9a7c39d8-ef30-4694-b180-b6fe0a089530"},"vehicle_type_id":"4","last_reported":1777224598,"current_range_meters":5600,"station_id":"st_d3js3co5814s73ftftug","pricing_plan_id":"cebpf4jnsgd1na2vs0mg"},{"bike_id":"9762113e-a054-458e-a16d-f34215941270","system_id":"levelo_inurba_marseille","lat":43.29217,"lon":5.36048,"is_reserved":false,"is_disabled":true,"rental_uris":{"android":"levelo://app?vid=9762113e-a054-458e-a16d-f34215941270","ios":"levelo://app?vid=9762113e-a054-458e-a16d-f34215941270"},"vehicle_type_id":"4","last_reported":1777224598,"current_range_meters":5600,"station_id":"ce4bhbh2rcd13ifvqeqg","pricing_plan_id":"cebpf4jnsgd1na2vs0mg"},{"bike_id":"72337c7c-15fe-4d9d-a055-b6365e7a1881","system_id":"levelo_inurba_marseille","lat":43.2491,"lon":5.40539,"is_reserved":false,"is_disabled":false,"rental_uris":{"android":"levelo://app?vid=72337c7c-15fe-4d9d-a055-b6365e7a1881","ios":"levelo://app?vid=72337c7c-15fe-4d9d-a055-b6365e7a1881"},"vehicle_type_id":"4","last_reported":1777224598,"current_range_meters":5600,"station_id":"","pricing_plan_id":"cebpf4jnsgd1na2vs0mg"},{"bike_id":"e8030f99-01e5-4a45-af9a-80d46a8d8629","system_id":"levelo_inurba_marseille","lat":43.30568,"lon":5.3653,"is_reserved":false,"is_disabled":false,"rental_uris":{"android":"levelo://app?vid=e8030f99-01e5-4a45-af9a-80d46a8d8629","ios":"levelo://app?vid=e8030f99-01e5-4a45-af9a-80d46a8d8629"},"vehicle_type_id":"4","last_reported":1777224598,"current_range_meters":5600,"station_id":"ce4bgs12rcd13ifvqcag","pricing_plan_id":"cebpf4jnsgd1na2vs0mg"},{"bike_id":"26d26955-b302-4311-88a8-057f7b19117a","system_id":"levelo_inurba_marseille","lat":43.29652,"lon":5.36063,"is_reserved":false,"is_disabled":false,"rental_uris":{"android":"levelo://app?vid=26d26955-b302-4311-88a8-057f7b19117a","ios":"levelo://app?vid=26d26955-b302-4311-88a8-057f7b19117a"},"vehicle_type_id":"4","last_reported":1777224598,"current_range_meters":5600,"station_id":"","pricing_plan_id":"cebpf4jnsgd1na2vs0mg"},{"bike_id":"0b721656-2615-46d1-805c-d45520d4c28b","system_id":"levelo_inurba_marseille","lat":43.2997,"lon":5.38491,"is_reserved":false,"is_disabled":false,"rental_uris":{"android":"levelo://app?vid=0b721656-2615-46d1-805c-d45520d4c28b","ios":"levelo://app?vid=0b721656-2615-46d1-805c-d45520d4c28b"},"vehicle_type_id":"4","last_reported":1777224598,"current_range_meters":5600,"station_id":"ce4bgj92rcd13ifvqbd0","pricing_plan_id":"cebpf4jnsgd1na2vs0mg"},{"bike_id":"5687bcf3-d7dc-457c-91e4-c37491638fcd","system_id":"levelo_inurba_marseille","lat":43.24163,"lon":5.36411,"is_reserved":false,"is_disabled":false,"rental_uris":{"android":"levelo://app?vid=5687bcf3-d7dc-457c-91e4-c37491638fcd","ios":"levelo://app?vid=5687bcf3-d7dc-457c-91e4-c37491638fcd"},"vehicle_type_id":"4","last_reported":1777224598,"current_range_meters":5600,"station_id":"cpo36qri1sfpv3e86is0","pricing_plan_id":"cebpf4jnsgd1na2vs0mg"},{"bike_id":"042ded27-4b8c-4c5c-8208-79b27c2290d1","system_id":"levelo_inurba_marseille","lat":43.24805,"lon":5.37452,"is_reserved":false,"is_disabled":false,"rental_uris":{"android":"levelo://app?vid=042ded27-4b8c-4c5c-8208-79b27c2290d1","ios":"levelo://app?vid=042ded27-4b8c-4c5c-8208-79b27c2290d1"},"vehicle_type_id":"4","last_reported":1777224598,"current_range_meters":5600,"station_id":"ce4bhgh2rcd13ifvqfb0","pricing_plan_id":"cebpf4jnsgd1na2vs0mg"},{"bike_id":"0abb523f-836b-47ec-90b1-3359b1b477f0","system_id":"levelo_inurba_marseille","lat":43.28227,"lon":5.39069,"is_reserved":false,"is_disabled":false,"rental_uris":{"android":"levelo://app?vid=0abb523f-836b-47ec-90b1-3359b1b477f0","ios":"levelo://app?vid=0abb523f-836b-47ec-90b1-3359b1b477f0"},"vehicle_type_id":"4","last_reported":1777224598,"current_range_meters":5600,"station_id":"ce4bhn92rcd13ifvqgsg","pricing_plan_id":"cebpf4jnsgd1na2vs0mg"},{"bike_id":"237b1cc3-bd61-4d4b-988d-ffeec82480b9","system_id":"levelo_inurba_marseille","lat":43.27225,"lon":5.39187,"is_reserved":false,"is_disabled":false,"rental_uris":{"android":"levelo://app?vid=237b1cc3-bd61-4d4b-988d-ffeec82480b9","ios":"levelo://app?vid=237b1cc3-bd61-4d4b-988d-ffeec82480b9"},"vehicle_type_id":"4","last_reported":1777224598,"current_range_meters":5600,"station_id":"ce4bhhp2rcd13ifvqfm0","pricing_plan_id":"cebpf4jnsgd1na2vs0mg"},{"bike_id":"4691cd64-740a-44bc-869e-0936ce5b5169","system_id":"levelo_inurba_marseille","lat":43.30773,"lon":5.37653,"is_reserved":false,"is_disabled":false,"rental_uris":{"android":"levelo://app?vid=4691cd64-740a-44bc-869e-0936ce5b5169","ios":"levelo://app?vid=4691cd64-740a-44bc-869e-0936ce5b5169"},"vehicle_type_id":"4","last_reported":1777224598,"current_range_meters":5600,"station_id":"ce4bgv92rcd13ifvqcq0","pricing_plan_id":"cebpf4jnsgd1na2vs0mg"},{"bike_id":"313d79ac-9305-4e2e-84ce-b848846ec6a4","system_id":"levelo_inurba_marseille","lat":43.26935,"lon":5.40251,"is_reserved":false,"is_disabled":false,"rental_uris":{"android":"levelo://app?vid=313d79ac-9305-4e2e-84ce-b848846ec6a4","ios":"levelo://app?vid=313d79ac-9305-4e2e-84ce-b848846ec6a4"},"vehicle_type_id":"4","last_reported":1777224598,"current_range_meters":5600,"station_id":"cjm6bp8fraef2m0cb0m0","pricing_plan_id":"cebpf4jnsgd1na2vs0mg"},{"bike_id":"10438bd8-d775-4916-ade5-76c224d1b136","system_id":"levelo_inurba_marseille","lat":43.30619,"lon":5.43663,"is_reserved":false,"is_disabled":false,"rental_uris":{"android":"levelo://app?vid=10438bd8-d775-4916-ade5-76c224d1b136","ios":"levelo://app?vid=10438bd8-d775-4916-ade5-76c224d1b136"},"vehicle_type_id":"4","last_reported":1777224598,"current_range_meters":5600,"station_id":"","pricing_plan_id":"cebpf4jnsgd1na2vs0mg"},{"bike_id":"8686689a-3836-4676-a63f-c8332efb484d","system_id":"levelo_inurba_marseille","lat":43.24397,"lon":5.37036,"is_reserved":false,"is_disabled":true,"rental_uris":{"android":"levelo://app?vid=8686689a-3836-4676-a63f-c8332efb484d","ios":"levelo://app?vid=8686689a-3836-4676-a63f-c8332efb484d"},"vehicle_type_id":"4","last_reported":1777224598,"current_range_meters":5600,"station_id":"ce4bhhh2rcd13ifvqfk0","pricing_plan_id":"cebpf4jnsgd1na2vs0mg"},{"bike_id":"bbafc3d1-0423-43e1-b638-ad263249180b","system_id":"levelo_inurba_marseille","lat":43.2953,"lon":5.38541,"is_reserved":false,"is_disabled":false,"rental_uris":{"android":"levelo://app?vid=bbafc3d1-0423-43e1-b638-ad263249180b","ios":"levelo://app?vid=bbafc3d1-0423-43e1-b638-ad263249180b"},"vehicle_type_id":"4","last_reported":1777224598,"current_range_meters":5600,"station_id":"ce4bgih2rcd13ifvqba0","pricing_plan_id":"cebpf4jnsgd1na2vs0mg"},{"bike_id":"20cc9c4b-7cba-44a7-ba86-1b0c9ae4e879","system_id":"levelo_inurba_marseille","lat":43.288137,"lon":5.363987,"is_reserved":false,"is_disabled":false,"rental_uris":{"android":"levelo://app?vid=20cc9c4b-7cba-44a7-ba86-1b0c9ae4e879","ios":"levelo://app?vid=20cc9c4b-7cba-44a7-ba86-1b0c9ae4e879"},"vehicle_type_id":"4","last_reported":1777224598,"current_range_meters":5600,"station_id":"cki0cbj6b192h4jlfktg","pricing_plan_id":"cebpf4jnsgd1na2vs0mg"},{"bike_id":"e458cf0a-2d99-4a7e-863f-1966634292f9","system_id":"levelo_inurba_marseille","lat":43.30326,"lon":5.38911,"is_reserved":false,"is_disabled":false,"rental_uris":{"android":"levelo://app?vid=e458cf0a-2d99-4a7e-863f-1966634292f9","ios":"levelo://app?vid=e458cf0a-2d99-4a7e-863f-1966634292f9"},"vehicle_type_id":"4","last_reported":1777224598,"current_range_meters":5600,"station_id":"","pricing_plan_id":"cebpf4jnsgd1na2vs0mg"},{"bike_id":"609bdf4a-3601-4570-b4fa-c37eacc0db38","system_id":"levelo_inurba_marseille","lat":43.27187,"lon":5.40984,"is_reserved":false,"is_disabled":false,"rental_uris":{"android":"levelo://app?vid=609bdf4a-3601-4570-b4fa-c37eacc0db38","ios":"levelo://app?vid=609bdf4a-3601-4570-b4fa-c37eacc0db38"},"vehicle_type_id":"4","last_reported":1777224598,"current_range_meters":5600,"station_id":"ce4bhl12rcd13ifvqgf0","pricing_plan_id":"cebpf4jnsgd1na2vs0mg"},{"bike_id":"ba5064b8-36e1-4716-a6f7-4f4f0d5f0535","system_id":"levelo_inurba_marseille","lat":43.30503,"lon":5.3843,"is_reserved":false,"is_disabled":false,"rental_uris":{"android":"levelo://app?vid=ba5064b8-36e1-4716-a6f7-4f4f0d5f0535","ios":"levelo://app?vid=ba5064b8-36e1-4716-a6f7-4f4f0d5f0535"},"vehicle_type_id":"4","last_reported":1777224598,"current_range_meters":5600,"station_id":"ce4bgg92rcd13ifvqb30","pricing_plan_id":"cebpf4jnsgd1na2vs0mg"},{"bike_id":"dcf3c7cc-fd9e-448d-9a58-59ca264eaa33","system_id":"levelo_inurba_marseille","lat":43.23193,"lon":5.39994,"is_reserved":false,"is_disabled":false,"rental_uris":{"android":"levelo://app?vid=dcf3c7cc-fd9e-448d-9a58-59ca264eaa33","ios":"levelo://app?vid=dcf3c7cc-fd9e-448d-9a58-59ca264eaa33"},"vehicle_type_id":"4","last_reported":1777224598,"current_range_meters":6000,"station_id":"ce4bhn12rcd13ifvqgqg","pricing_plan_id":"cebpf4jnsgd1na2vs0mg"},{"bike_id":"682f30e7-3b49-4495-8fde-bd2807fcdf57","system_id":"levelo_inurba_marseille","lat":43.29915,"lon":5.37457,"is_reserved":false,"is_disabled":false,"rental_uris":{"android":"levelo://app?vid=682f30e7-3b49-4495-8fde-bd2807fcdf57","ios":"levelo://app?vid=682f30e7-3b49-4495-8fde-bd2807fcdf57"},"vehicle_type_id":"4","last_reported":1777224598,"current_range_meters":6000,"station_id":"ce4bgjh2rcd13ifvqbg0","pricing_plan_id":"cebpf4jnsgd1na2vs0mg"},{"bike_id":"6b457990-b45e-4c66-8671-2df85355eb3d","system_id":"levelo_inurba_marseille","lat":43.30891,"lon":5.39648,"is_reserved":false,"is_disabled":false,"rental_uris":{"android":"levelo://app?vid=6b457990-b45e-4c66-8671-2df85355eb3d","ios":"levelo://app?vid=6b457990-b45e-4c66-8671-2df85355eb3d"},"vehicle_type_id":"4","last_reported":1777224598,"current_range_meters":6000,"station_id":"ce4bh012rcd13ifvqcv0","pricing_plan_id":"cebpf4jnsgd1na2vs0mg"},{"bike_id":"cca7f69c-b52c-4ab4-a550-bce4482b5936","system_id":"levelo_inurba_marseille","lat":43.27204,"lon":5.39179,"is_reserved":false,"is_disabled":false,"rental_uris":{"android":"levelo://app?vid=cca7f69c-b52c-4ab4-a550-bce4482b5936","ios":"levelo://app?vid=cca7f69c-b52c-4ab4-a550-bce4482b5936"},"vehicle_type_id":"4","last_reported":1777224598,"current_range_meters":6000,"station_id":"ce4bhhp2rcd13ifvqfm0","pricing_plan_id":"cebpf4jnsgd1na2vs0mg"},{"bike_id":"8072cacb-a3e8-46da-82ae-1b43a1fd8ce5","system_id":"levelo_inurba_marseille","lat":43.2788,"lon":5.40694,"is_reserved":false,"is_disabled":false,"rental_uris":{"android":"levelo://app?vid=8072cacb-a3e8-46da-82ae-1b43a1fd8ce5","ios":"levelo://app?vid=8072cacb-a3e8-46da-82ae-1b43a1fd8ce5"},"vehicle_type_id":"4","last_reported":1777224598,"current_range_meters":6000,"station_id":"","pricing_plan_id":"cebpf4jnsgd1na2vs0mg"},{"bike_id":"085eefc3-42b6-4e5f-8fa3-5e096f60ac23","system_id":"levelo_inurba_marseille","lat":43.21751,"lon":5.34621,"is_reserved":false,"is_disabled":true,"rental_uris":{"android":"levelo://app?vid=085eefc3-42b6-4e5f-8fa3-5e096f60ac23","ios":"levelo://app?vid=085eefc3-42b6-4e5f-8fa3-5e096f60ac23"},"vehicle_type_id":"4","last_reported":1777224598,"current_range_meters":6000,"station_id":"st_cvj6r9ubvosntc0bgbag","pricing_plan_id":"cebpf4jnsgd1na2vs0mg"},{"bike_id":"adfeb2f2-21a5-4adf-a92e-a60a7bb66934","system_id":"levelo_inurba_marseille","lat":43.29017,"lon":5.35618,"is_reserved":false,"is_disabled":true,"rental_uris":{"android":"levelo://app?vid=adfeb2f2-21a5-4adf-a92e-a60a7bb66934","ios":"levelo://app?vid=adfeb2f2-21a5-4adf-a92e-a60a7bb66934"},"vehicle_type_id":"4","last_reported":1777224598,"current_range_meters":6000,"station_id":"ce4bhb92rcd13ifvqen0","pricing_plan_id":"cebpf4jnsgd1na2vs0mg"},{"bike_id":"e6e0181d-d51b-42d7-93b1-7e8f4d00629c","system_id":"levelo_inurba_marseille","lat":43.29825,"lon":5.42024,"is_reserved":false,"is_disabled":true,"rental_uris":{"android":"levelo://app?vid=e6e0181d-d51b-42d7-93b1-7e8f4d00629c","ios":"levelo://app?vid=e6e0181d-d51b-42d7-93b1-7e8f4d00629c"},"vehicle_type_id":"4","last_reported":1777224598,"current_range_meters":6000,"station_id":"","pricing_plan_id":"cebpf4jnsgd1na2vs0mg"},{"bike_id":"477f46fa-5032-488b-ae1f-f2b5c2441755","system_id":"levelo_inurba_marseille","lat":43.2971,"lon":5.36611,"is_reserved":false,"is_disabled":false,"rental_uris":{"android":"levelo://app?vid=477f46fa-5032-488b-ae1f-f2b5c2441755","ios":"levelo://app?vid=477f46fa-5032-488b-ae1f-f2b5c2441755"},"vehicle_type_id":"4","last_reported":1777224598,"current_range_meters":6000,"station_id":"ce4bgn12rcd13ifvqbt0","pricing_plan_id":"cebpf4jnsgd1na2vs0mg"},{"bike_id":"2803be04-1e93-42de-9d7b-2484fc36e7b1","system_id":"levelo_inurba_marseille","lat":43.31334,"lon":5.36733,"is_reserved":false,"is_disabled":false,"rental_uris":{"android":"levelo://app?vid=2803be04-1e93-42de-9d7b-2484fc36e7b1","ios":"levelo://app?vid=2803be04-1e93-42de-9d7b-2484fc36e7b1"},"vehicle_type_id":"4","last_reported":1777224598,"current_range_meters":6000,"station_id":"ce4bgr92rcd13ifvqc6g","pricing_plan_id":"cebpf4jnsgd1na2vs0mg"},{"bike_id":"65ce94a2-3b6f-415d-8407-e4423b2b406b","system_id":"levelo_inurba_marseille","lat":43.26205,"lon":5.37445,"is_reserved":false,"is_disabled":false,"rental_uris":{"android":"levelo://app?vid=65ce94a2-3b6f-415d-8407-e4423b2b406b","ios":"levelo://app?vid=65ce94a2-3b6f-415d-8407-e4423b2b406b"},"vehicle_type_id":"4","last_reported":1777224598,"current_range_meters":6000,"station_id":"ce4bhgp2rcd13ifvqfc0","pricing_plan_id":"cebpf4jnsgd1na2vs0mg"},{"bike_id":"673573fb-7457-48f9-bf98-23c4f082a93a","system_id":"levelo_inurba_marseille","lat":43.23172,"lon":5.40003,"is_reserved":false,"is_disabled":false,"rental_uris":{"android":"levelo://app?vid=673573fb-7457-48f9-bf98-23c4f082a93a","ios":"levelo://app?vid=673573fb-7457-48f9-bf98-23c4f082a93a"},"vehicle_type_id":"4","last_reported":1777224598,"current_range_meters":6000,"station_id":"ce4bhn12rcd13ifvqgqg","pricing_plan_id":"cebpf4jnsgd1na2vs0mg"},{"bike_id":"5c63a3a7-16b2-4ef9-bea3-2e7ad948ae2e","system_id":"levelo_inurba_marseille","lat":43.29187,"lon":5.39318,"is_reserved":false,"is_disabled":false,"rental_uris":{"android":"levelo://app?vid=5c63a3a7-16b2-4ef9-bea3-2e7ad948ae2e","ios":"levelo://app?vid=5c63a3a7-16b2-4ef9-bea3-2e7ad948ae2e"},"vehicle_type_id":"4","last_reported":1777224598,"current_range_meters":6000,"station_id":"ce4bh192rcd13ifvqdd0","pricing_plan_id":"cebpf4jnsgd1na2vs0mg"},{"bike_id":"a6bbdb99-d3c8-4c1a-ae28-be5b6e008768","system_id":"levelo_inurba_marseille","lat":43.32469,"lon":5.36552,"is_reserved":false,"is_disabled":false,"rental_uris":{"android":"levelo://app?vid=a6bbdb99-d3c8-4c1a-ae28-be5b6e008768","ios":"levelo://app?vid=a6bbdb99-d3c8-4c1a-ae28-be5b6e008768"},"vehicle_type_id":"4","last_reported":1777224598,"current_range_meters":6000,"station_id":"ce4bhs12rcd13ifvqhvg","pricing_plan_id":"cebpf4jnsgd1na2vs0mg"},{"bike_id":"76a5abff-82a2-43a1-a4a0-b9b58edcac71","system_id":"levelo_inurba_marseille","lat":43.24069,"lon":5.37765,"is_reserved":false,"is_disabled":false,"rental_uris":{"android":"levelo://app?vid=76a5abff-82a2-43a1-a4a0-b9b58edcac71","ios":"levelo://app?vid=76a5abff-82a2-43a1-a4a0-b9b58edcac71"},"vehicle_type_id":"4","last_reported":1777224598,"current_range_meters":6000,"station_id":"ce4bhnp2rcd13ifvqgvg","pricing_plan_id":"cebpf4jnsgd1na2vs0mg"},{"bike_id":"fda983b3-301e-40f3-bb07-e5c67ab620e4","system_id":"levelo_inurba_marseille","lat":43.25052,"lon":5.40455,"is_reserved":false,"is_disabled":false,"rental_uris":{"android":"levelo://app?vid=fda983b3-301e-40f3-bb07-e5c67ab620e4","ios":"levelo://app?vid=fda983b3-301e-40f3-bb07-e5c67ab620e4"},"vehicle_type_id":"4","last_reported":1777224598,"current_range_meters":6000,"station_id":"","pricing_plan_id":"cebpf4jnsgd1na2vs0mg"},{"bike_id":"d054276e-6372-4793-ae37-6281dafb78f8","system_id":"levelo_inurba_marseille","lat":43.3376,"lon":5.37435,"is_reserved":false,"is_disabled":false,"rental_uris":{"android":"levelo://app?vid=d054276e-6372-4793-ae37-6281dafb78f8","ios":"levelo://app?vid=d054276e-6372-4793-ae37-6281dafb78f8"},"vehicle_type_id":"4","last_reported":1777224598,"current_range_meters":6000,"station_id":"","pricing_plan_id":"cebpf4jnsgd1na2vs0mg"},{"bike_id":"5fdff1d7-b2d7-4e39-ad7f-00ed09411d1d","system_id":"levelo_inurba_marseille","lat":43.28478,"lon":5.48366,"is_reserved":false,"is_disabled":false,"rental_uris":{"android":"levelo://app?vid=5fdff1d7-b2d7-4e39-ad7f-00ed09411d1d","ios":"levelo://app?vid=5fdff1d7-b2d7-4e39-ad7f-00ed09411d1d"},"vehicle_type_id":"4","last_reported":1777224598,"current_range_meters":6400,"station_id":"st_d3svhcjqgbts73a3dn0g","pricing_plan_id":"cebpf4jnsgd1na2vs0mg"},{"bike_id":"757fdfcb-45d7-4c45-8e18-f9ab346e8260","system_id":"levelo_inurba_marseille","lat":43.24663,"lon":5.39833,"is_reserved":false,"is_disabled":false,"rental_uris":{"android":"levelo://app?vid=757fdfcb-45d7-4c45-8e18-f9ab346e8260","ios":"levelo://app?vid=757fdfcb-45d7-4c45-8e18-f9ab346e8260"},"vehicle_type_id":"4","last_reported":1777224598,"current_range_meters":6400,"station_id":"","pricing_plan_id":"cebpf4jnsgd1na2vs0mg"},{"bike_id":"6cf3a600-b22f-4888-b1ea-a099526102d1","system_id":"levelo_inurba_marseille","lat":43.24657,"lon":5.38156,"is_reserved":false,"is_disabled":false,"rental_uris":{"android":"levelo://app?vid=6cf3a600-b22f-4888-b1ea-a099526102d1","ios":"levelo://app?vid=6cf3a600-b22f-4888-b1ea-a099526102d1"},"vehicle_type_id":"4","last_reported":1777224598,"current_range_meters":6400,"station_id":"ce4bhih2rcd13ifvqfr0","pricing_plan_id":"cebpf4jnsgd1na2vs0mg"},{"bike_id":"6b60b3c8-da35-492c-9411-418199a97ad7","system_id":"levelo_inurba_marseille","lat":43.28483,"lon":5.48384,"is_reserved":false,"is_disabled":false,"rental_uris":{"android":"levelo://app?vid=6b60b3c8-da35-492c-9411-418199a97ad7","ios":"levelo://app?vid=6b60b3c8-da35-492c-9411-418199a97ad7"},"vehicle_type_id":"4","last_reported":1777224598,"current_range_meters":6400,"station_id":"","pricing_plan_id":"cebpf4jnsgd1na2vs0mg"},{"bike_id":"be3dbaca-317c-43ef-8335-8f03df566046","system_id":"levelo_inurba_marseille","lat":43.28477,"lon":5.48401,"is_reserved":false,"is_disabled":true,"rental_uris":{"android":"levelo://app?vid=be3dbaca-317c-43ef-8335-8f03df566046","ios":"levelo://app?vid=be3dbaca-317c-43ef-8335-8f03df566046"},"vehicle_type_id":"4","last_reported":1777224598,"current_range_meters":6400,"station_id":"st_d3svhcjqgbts73a3dn0g","pricing_plan_id":"cebpf4jnsgd1na2vs0mg"},{"bike_id":"f54ccc15-12bb-43a9-bcae-01eb62b17984","system_id":"levelo_inurba_marseille","lat":43.24792,"lon":5.37469,"is_reserved":false,"is_disabled":false,"rental_uris":{"android":"levelo://app?vid=f54ccc15-12bb-43a9-bcae-01eb62b17984","ios":"levelo://app?vid=f54ccc15-12bb-43a9-bcae-01eb62b17984"},"vehicle_type_id":"4","last_reported":1777224598,"current_range_meters":6400,"station_id":"ce4bhgh2rcd13ifvqfb0","pricing_plan_id":"cebpf4jnsgd1na2vs0mg"},{"bike_id":"3150eb4a-baf7-4873-be1e-d7914701ccaf","system_id":"levelo_inurba_marseille","lat":43.24389,"lon":5.3707,"is_reserved":false,"is_disabled":false,"rental_uris":{"android":"levelo://app?vid=3150eb4a-baf7-4873-be1e-d7914701ccaf","ios":"levelo://app?vid=3150eb4a-baf7-4873-be1e-d7914701ccaf"},"vehicle_type_id":"4","last_reported":1777224598,"current_range_meters":6400,"station_id":"ce4bhhh2rcd13ifvqfk0","pricing_plan_id":"cebpf4jnsgd1na2vs0mg"},{"bike_id":"39c6c4d6-7555-4b53-ad56-337ccc229a3f","system_id":"levelo_inurba_marseille","lat":43.30744,"lon":5.4245,"is_reserved":false,"is_disabled":false,"rental_uris":{"android":"levelo://app?vid=39c6c4d6-7555-4b53-ad56-337ccc229a3f","ios":"levelo://app?vid=39c6c4d6-7555-4b53-ad56-337ccc229a3f"},"vehicle_type_id":"4","last_reported":1777224598,"current_range_meters":6400,"station_id":"st_cvj6ca6bvosntc0bfgr0","pricing_plan_id":"cebpf4jnsgd1na2vs0mg"},{"bike_id":"f11039af-6e3b-4f3c-b6b6-979221e066e2","system_id":"levelo_inurba_marseille","lat":43.29226,"lon":5.3607,"is_reserved":false,"is_disabled":false,"rental_uris":{"android":"levelo://app?vid=f11039af-6e3b-4f3c-b6b6-979221e066e2","ios":"levelo://app?vid=f11039af-6e3b-4f3c-b6b6-979221e066e2"},"vehicle_type_id":"4","last_reported":1777224598,"current_range_meters":6400,"station_id":"ce4bhbh2rcd13ifvqeqg","pricing_plan_id":"cebpf4jnsgd1na2vs0mg"},{"bike_id":"b7166d00-058e-4f8a-ac08-8d7664362d9a","system_id":"levelo_inurba_marseille","lat":43.26549,"lon":5.37323,"is_reserved":false,"is_disabled":true,"rental_uris":{"android":"levelo://app?vid=b7166d00-058e-4f8a-ac08-8d7664362d9a","ios":"levelo://app?vid=b7166d00-058e-4f8a-ac08-8d7664362d9a"},"vehicle_type_id":"4","last_reported":1777224598,"current_range_meters":6400,"station_id":"ce4bhg12rcd13ifvqf70","pricing_plan_id":"cebpf4jnsgd1na2vs0mg"},{"bike_id":"4b32f071-0100-42f3-86a6-75183edbe4cf","system_id":"levelo_inurba_marseille","lat":43.26921,"lon":5.4026,"is_reserved":false,"is_disabled":false,"rental_uris":{"android":"levelo://app?vid=4b32f071-0100-42f3-86a6-75183edbe4cf","ios":"levelo://app?vid=4b32f071-0100-42f3-86a6-75183edbe4cf"},"vehicle_type_id":"4","last_reported":1777224598,"current_range_meters":6400,"station_id":"cjm6bp8fraef2m0cb0m0","pricing_plan_id":"cebpf4jnsgd1na2vs0mg"},{"bike_id":"183918dc-3c87-4d9c-abc0-fe428fa30dc3","system_id":"levelo_inurba_marseille","lat":43.29219,"lon":5.36052,"is_reserved":false,"is_disabled":false,"rental_uris":{"android":"levelo://app?vid=183918dc-3c87-4d9c-abc0-fe428fa30dc3","ios":"levelo://app?vid=183918dc-3c87-4d9c-abc0-fe428fa30dc3"},"vehicle_type_id":"4","last_reported":1777224598,"current_range_meters":6400,"station_id":"ce4bhbh2rcd13ifvqeqg","pricing_plan_id":"cebpf4jnsgd1na2vs0mg"},{"bike_id":"a04ab4c7-ba98-45c6-b83e-a919e77931f8","system_id":"levelo_inurba_marseille","lat":43.24663,"lon":5.3815,"is_reserved":false,"is_disabled":false,"rental_uris":{"android":"levelo://app?vid=a04ab4c7-ba98-45c6-b83e-a919e77931f8","ios":"levelo://app?vid=a04ab4c7-ba98-45c6-b83e-a919e77931f8"},"vehicle_type_id":"4","last_reported":1777224598,"current_range_meters":6400,"station_id":"ce4bhih2rcd13ifvqfr0","pricing_plan_id":"cebpf4jnsgd1na2vs0mg"},{"bike_id":"494fd0fc-3b39-4504-a26b-321afbf22977","system_id":"levelo_inurba_marseille","lat":43.23851,"lon":5.38563,"is_reserved":false,"is_disabled":false,"rental_uris":{"android":"levelo://app?vid=494fd0fc-3b39-4504-a26b-321afbf22977","ios":"levelo://app?vid=494fd0fc-3b39-4504-a26b-321afbf22977"},"vehicle_type_id":"4","last_reported":1777224598,"current_range_meters":6800,"station_id":"","pricing_plan_id":"cebpf4jnsgd1na2vs0mg"},{"bike_id":"291b34ce-5143-4a64-8dd6-ec4c914502be","system_id":"levelo_inurba_marseille","lat":43.28723,"lon":5.36082,"is_reserved":false,"is_disabled":false,"rental_uris":{"android":"levelo://app?vid=291b34ce-5143-4a64-8dd6-ec4c914502be","ios":"levelo://app?vid=291b34ce-5143-4a64-8dd6-ec4c914502be"},"vehicle_type_id":"4","last_reported":1777224598,"current_range_meters":6800,"station_id":"cki0cbj6b192h4jlfktg","pricing_plan_id":"cebpf4jnsgd1na2vs0mg"},{"bike_id":"70683c85-f5cb-4725-b1d8-489e4aedf957","system_id":"levelo_inurba_marseille","lat":43.23385,"lon":5.41241,"is_reserved":false,"is_disabled":false,"rental_uris":{"android":"levelo://app?vid=70683c85-f5cb-4725-b1d8-489e4aedf957","ios":"levelo://app?vid=70683c85-f5cb-4725-b1d8-489e4aedf957"},"vehicle_type_id":"4","last_reported":1777224598,"current_range_meters":6800,"station_id":"st_d75pvndhf9lc73cqq3eg","pricing_plan_id":"cebpf4jnsgd1na2vs0mg"},{"bike_id":"e4b95250-e4ce-4f8b-ab04-a3afcee7b722","system_id":"levelo_inurba_marseille","lat":43.24157,"lon":5.39718,"is_reserved":false,"is_disabled":false,"rental_uris":{"android":"levelo://app?vid=e4b95250-e4ce-4f8b-ab04-a3afcee7b722","ios":"levelo://app?vid=e4b95250-e4ce-4f8b-ab04-a3afcee7b722"},"vehicle_type_id":"4","last_reported":1777224598,"current_range_meters":6800,"station_id":"ce4bhn12rcd13ifvqgpg","pricing_plan_id":"cebpf4jnsgd1na2vs0mg"},{"bike_id":"1fa7c290-baf4-43ed-aa99-7181dabef99e","system_id":"levelo_inurba_marseille","lat":43.33545,"lon":5.37466,"is_reserved":false,"is_disabled":false,"rental_uris":{"android":"levelo://app?vid=1fa7c290-baf4-43ed-aa99-7181dabef99e","ios":"levelo://app?vid=1fa7c290-baf4-43ed-aa99-7181dabef99e"},"vehicle_type_id":"4","last_reported":1777224598,"current_range_meters":6800,"station_id":"st_d46tts09ee8s73dlu43g","pricing_plan_id":"cebpf4jnsgd1na2vs0mg"},{"bike_id":"4470a9dc-0144-467a-9b93-3600a3a76722","system_id":"levelo_inurba_marseille","lat":43.28272,"lon":5.35069,"is_reserved":false,"is_disabled":false,"rental_uris":{"android":"levelo://app?vid=4470a9dc-0144-467a-9b93-3600a3a76722","ios":"levelo://app?vid=4470a9dc-0144-467a-9b93-3600a3a76722"},"vehicle_type_id":"4","last_reported":1777224598,"current_range_meters":6800,"station_id":"ce4bhbp2rcd13ifvqerg","pricing_plan_id":"cebpf4jnsgd1na2vs0mg"},{"bike_id":"9d1ed9ff-baf1-40fc-993f-5d81d5be1a06","system_id":"levelo_inurba_marseille","lat":43.28609,"lon":5.35112,"is_reserved":false,"is_disabled":false,"rental_uris":{"android":"levelo://app?vid=9d1ed9ff-baf1-40fc-993f-5d81d5be1a06","ios":"levelo://app?vid=9d1ed9ff-baf1-40fc-993f-5d81d5be1a06"},"vehicle_type_id":"4","last_reported":1777224598,"current_range_meters":6800,"station_id":"ce4bhch2rcd13ifvqeug","pricing_plan_id":"cebpf4jnsgd1na2vs0mg"},{"bike_id":"fb5034af-1f4f-444d-a41a-f152e4c4e082","system_id":"levelo_inurba_marseille","lat":43.28714,"lon":5.37948,"is_reserved":false,"is_disabled":false,"rental_uris":{"android":"levelo://app?vid=fb5034af-1f4f-444d-a41a-f152e4c4e082","ios":"levelo://app?vid=fb5034af-1f4f-444d-a41a-f152e4c4e082"},"vehicle_type_id":"4","last_reported":1777224598,"current_range_meters":7200,"station_id":"ce4bh9p2rcd13ifvqec0","pricing_plan_id":"cebpf4jnsgd1na2vs0mg"},{"bike_id":"4b43a537-0025-4181-b3f0-3f1fa031f295","system_id":"levelo_inurba_marseille","lat":43.24391,"lon":5.37072,"is_reserved":false,"is_disabled":false,"rental_uris":{"android":"levelo://app?vid=4b43a537-0025-4181-b3f0-3f1fa031f295","ios":"levelo://app?vid=4b43a537-0025-4181-b3f0-3f1fa031f295"},"vehicle_type_id":"4","last_reported":1777224598,"current_range_meters":7200,"station_id":"ce4bhhh2rcd13ifvqfk0","pricing_plan_id":"cebpf4jnsgd1na2vs0mg"},{"bike_id":"e4681f0e-c997-4540-af66-5738c62d429d","system_id":"levelo_inurba_marseille","lat":43.29452,"lon":5.39742,"is_reserved":false,"is_disabled":false,"rental_uris":{"android":"levelo://app?vid=e4681f0e-c997-4540-af66-5738c62d429d","ios":"levelo://app?vid=e4681f0e-c997-4540-af66-5738c62d429d"},"vehicle_type_id":"4","last_reported":1777224598,"current_range_meters":7200,"station_id":"ce4bh3h2rcd13ifvqdo0","pricing_plan_id":"cebpf4jnsgd1na2vs0mg"},{"bike_id":"274b41c4-8b16-47b0-9c85-d9e012646b67","system_id":"levelo_inurba_marseille","lat":43.22919,"lon":5.35352,"is_reserved":false,"is_disabled":true,"rental_uris":{"android":"levelo://app?vid=274b41c4-8b16-47b0-9c85-d9e012646b67","ios":"levelo://app?vid=274b41c4-8b16-47b0-9c85-d9e012646b67"},"vehicle_type_id":"4","last_reported":1777224598,"current_range_meters":7200,"station_id":"cpo3532slgdg3j2ikp40","pricing_plan_id":"cebpf4jnsgd1na2vs0mg"},{"bike_id":"8d2953e3-411f-452f-98b8-b9083dd8db39","system_id":"levelo_inurba_marseille","lat":43.29528,"lon":5.38544,"is_reserved":false,"is_disabled":false,"rental_uris":{"android":"levelo://app?vid=8d2953e3-411f-452f-98b8-b9083dd8db39","ios":"levelo://app?vid=8d2953e3-411f-452f-98b8-b9083dd8db39"},"vehicle_type_id":"4","last_reported":1777224598,"current_range_meters":7200,"station_id":"ce4bgih2rcd13ifvqba0","pricing_plan_id":"cebpf4jnsgd1na2vs0mg"},{"bike_id":"3142bc3c-82f8-47a3-b9b7-bdb5ae2f4136","system_id":"levelo_inurba_marseille","lat":43.26033,"lon":5.37514,"is_reserved":false,"is_disabled":false,"rental_uris":{"android":"levelo://app?vid=3142bc3c-82f8-47a3-b9b7-bdb5ae2f4136","ios":"levelo://app?vid=3142bc3c-82f8-47a3-b9b7-bdb5ae2f4136"},"vehicle_type_id":"4","last_reported":1777224598,"current_range_meters":7200,"station_id":"ce4bhgh2rcd13ifvqfa0","pricing_plan_id":"cebpf4jnsgd1na2vs0mg"},{"bike_id":"5c180de8-9c17-4b87-a3cf-6c2cc4bfc770","system_id":"levelo_inurba_marseille","lat":43.28397,"lon":5.37502,"is_reserved":false,"is_disabled":false,"rental_uris":{"android":"levelo://app?vid=5c180de8-9c17-4b87-a3cf-6c2cc4bfc770","ios":"levelo://app?vid=5c180de8-9c17-4b87-a3cf-6c2cc4bfc770"},"vehicle_type_id":"4","last_reported":1777224598,"current_range_meters":7200,"station_id":"ce4bh412rcd13ifvqds0","pricing_plan_id":"cebpf4jnsgd1na2vs0mg"},{"bike_id":"1296f65a-22f9-4183-9c1d-8ac9e5202437","system_id":"levelo_inurba_marseille","lat":43.30588,"lon":5.39355,"is_reserved":false,"is_disabled":false,"rental_uris":{"android":"levelo://app?vid=1296f65a-22f9-4183-9c1d-8ac9e5202437","ios":"levelo://app?vid=1296f65a-22f9-4183-9c1d-8ac9e5202437"},"vehicle_type_id":"4","last_reported":1777224598,"current_range_meters":7200,"station_id":"ce4bh0p2rcd13ifvqd80","pricing_plan_id":"cebpf4jnsgd1na2vs0mg"},{"bike_id":"d1063a8e-a667-4f9b-9166-4b2ea1244e5f","system_id":"levelo_inurba_marseille","lat":43.24805,"lon":5.37471,"is_reserved":false,"is_disabled":false,"rental_uris":{"android":"levelo://app?vid=d1063a8e-a667-4f9b-9166-4b2ea1244e5f","ios":"levelo://app?vid=d1063a8e-a667-4f9b-9166-4b2ea1244e5f"},"vehicle_type_id":"4","last_reported":1777224598,"current_range_meters":7200,"station_id":"ce4bhgh2rcd13ifvqfb0","pricing_plan_id":"cebpf4jnsgd1na2vs0mg"},{"bike_id":"fb350924-3b39-4197-a891-8208914eef37","system_id":"levelo_inurba_marseille","lat":43.24811,"lon":5.37469,"is_reserved":false,"is_disabled":false,"rental_uris":{"android":"levelo://app?vid=fb350924-3b39-4197-a891-8208914eef37","ios":"levelo://app?vid=fb350924-3b39-4197-a891-8208914eef37"},"vehicle_type_id":"4","last_reported":1777224598,"current_range_meters":7200,"station_id":"ce4bhgh2rcd13ifvqfb0","pricing_plan_id":"cebpf4jnsgd1na2vs0mg"},{"bike_id":"a5d1c5f8-e551-41de-b7f3-a52119a1050b","system_id":"levelo_inurba_marseille","lat":43.27808,"lon":5.37464,"is_reserved":false,"is_disabled":false,"rental_uris":{"android":"levelo://app?vid=a5d1c5f8-e551-41de-b7f3-a52119a1050b","ios":"levelo://app?vid=a5d1c5f8-e551-41de-b7f3-a52119a1050b"},"vehicle_type_id":"4","last_reported":1777224598,"current_range_meters":7200,"station_id":"","pricing_plan_id":"cebpf4jnsgd1na2vs0mg"},{"bike_id":"a411be28-847f-49c9-8b6d-8398e5cd2da7","system_id":"levelo_inurba_marseille","lat":43.28598,"lon":5.37079,"is_reserved":false,"is_disabled":false,"rental_uris":{"android":"levelo://app?vid=a411be28-847f-49c9-8b6d-8398e5cd2da7","ios":"levelo://app?vid=a411be28-847f-49c9-8b6d-8398e5cd2da7"},"vehicle_type_id":"4","last_reported":1777224598,"current_range_meters":7200,"station_id":"ce4bht12rcd13ifvqi60","pricing_plan_id":"cebpf4jnsgd1na2vs0mg"},{"bike_id":"e9a334ad-58ec-447a-9985-75ff68cc42e3","system_id":"levelo_inurba_marseille","lat":43.27046,"lon":5.40272,"is_reserved":false,"is_disabled":false,"rental_uris":{"android":"levelo://app?vid=e9a334ad-58ec-447a-9985-75ff68cc42e3","ios":"levelo://app?vid=e9a334ad-58ec-447a-9985-75ff68cc42e3"},"vehicle_type_id":"4","last_reported":1777224598,"current_range_meters":7200,"station_id":"ce4bhk92rcd13ifvqgc0","pricing_plan_id":"cebpf4jnsgd1na2vs0mg"},{"bike_id":"adea3d3b-6ffc-4558-8661-26de84e3f93e","system_id":"levelo_inurba_marseille","lat":43.28414,"lon":5.34999,"is_reserved":false,"is_disabled":false,"rental_uris":{"android":"levelo://app?vid=adea3d3b-6ffc-4558-8661-26de84e3f93e","ios":"levelo://app?vid=adea3d3b-6ffc-4558-8661-26de84e3f93e"},"vehicle_type_id":"4","last_reported":1777224598,"current_range_meters":7200,"station_id":"ce4bhbh2rcd13ifvqepg","pricing_plan_id":"cebpf4jnsgd1na2vs0mg"},{"bike_id":"7d4e027c-f37c-4ea2-a266-17613dc1d989","system_id":"levelo_inurba_marseille","lat":43.23952,"lon":5.36643,"is_reserved":false,"is_disabled":false,"rental_uris":{"android":"levelo://app?vid=7d4e027c-f37c-4ea2-a266-17613dc1d989","ios":"levelo://app?vid=7d4e027c-f37c-4ea2-a266-17613dc1d989"},"vehicle_type_id":"4","last_reported":1777224598,"current_range_meters":7200,"station_id":"ce4bhi12rcd13ifvqfp0","pricing_plan_id":"cebpf4jnsgd1na2vs0mg"},{"bike_id":"c6941364-0b3e-415d-827c-e48038694e60","system_id":"levelo_inurba_marseille","lat":43.30772,"lon":5.43525,"is_reserved":false,"is_disabled":false,"rental_uris":{"android":"levelo://app?vid=c6941364-0b3e-415d-827c-e48038694e60","ios":"levelo://app?vid=c6941364-0b3e-415d-827c-e48038694e60"},"vehicle_type_id":"4","last_reported":1777224598,"current_range_meters":7200,"station_id":"","pricing_plan_id":"cebpf4jnsgd1na2vs0mg"},{"bike_id":"020db429-7c6a-4786-a59b-3eb7a60f4963","system_id":"levelo_inurba_marseille","lat":43.23199,"lon":5.35508,"is_reserved":false,"is_disabled":false,"rental_uris":{"android":"levelo://app?vid=020db429-7c6a-4786-a59b-3eb7a60f4963","ios":"levelo://app?vid=020db429-7c6a-4786-a59b-3eb7a60f4963"},"vehicle_type_id":"4","last_reported":1777224598,"current_range_meters":7200,"station_id":"ce4bhu92rcd13ifvqi70","pricing_plan_id":"cebpf4jnsgd1na2vs0mg"},{"bike_id":"28223286-e5df-4590-b9ef-5d9008b3e11f","system_id":"levelo_inurba_marseille","lat":43.30275,"lon":5.37705,"is_reserved":false,"is_disabled":false,"rental_uris":{"android":"levelo://app?vid=28223286-e5df-4590-b9ef-5d9008b3e11f","ios":"levelo://app?vid=28223286-e5df-4590-b9ef-5d9008b3e11f"},"vehicle_type_id":"4","last_reported":1777224598,"current_range_meters":7200,"station_id":"ce4bguh2rcd13ifvqcj0","pricing_plan_id":"cebpf4jnsgd1na2vs0mg"},{"bike_id":"46f17c30-0d26-4cbf-92e3-55f8687ffa6c","system_id":"levelo_inurba_marseille","lat":43.2905,"lon":5.35909,"is_reserved":false,"is_disabled":false,"rental_uris":{"android":"levelo://app?vid=46f17c30-0d26-4cbf-92e3-55f8687ffa6c","ios":"levelo://app?vid=46f17c30-0d26-4cbf-92e3-55f8687ffa6c"},"vehicle_type_id":"4","last_reported":1777224598,"current_range_meters":7200,"station_id":"ce4bha92rcd13ifvqeg0","pricing_plan_id":"cebpf4jnsgd1na2vs0mg"},{"bike_id":"174be411-0987-46d1-8afc-ca9f9fba5273","system_id":"levelo_inurba_marseille","lat":43.2655,"lon":5.37282,"is_reserved":false,"is_disabled":false,"rental_uris":{"android":"levelo://app?vid=174be411-0987-46d1-8afc-ca9f9fba5273","ios":"levelo://app?vid=174be411-0987-46d1-8afc-ca9f9fba5273"},"vehicle_type_id":"4","last_reported":1777224598,"current_range_meters":7200,"station_id":"ce4bhg12rcd13ifvqf70","pricing_plan_id":"cebpf4jnsgd1na2vs0mg"},{"bike_id":"f7716b3d-5dc6-4c1f-94ea-dd8b69d23a22","system_id":"levelo_inurba_marseille","lat":43.2749,"lon":5.43489,"is_reserved":false,"is_disabled":false,"rental_uris":{"android":"levelo://app?vid=f7716b3d-5dc6-4c1f-94ea-dd8b69d23a22","ios":"levelo://app?vid=f7716b3d-5dc6-4c1f-94ea-dd8b69d23a22"},"vehicle_type_id":"4","last_reported":1777224598,"current_range_meters":7200,"station_id":"","pricing_plan_id":"cebpf4jnsgd1na2vs0mg"},{"bike_id":"ef54910b-a1ea-4d8d-ac38-eaefa094d130","system_id":"levelo_inurba_marseille","lat":43.21742,"lon":5.34602,"is_reserved":false,"is_disabled":false,"rental_uris":{"android":"levelo://app?vid=ef54910b-a1ea-4d8d-ac38-eaefa094d130","ios":"levelo://app?vid=ef54910b-a1ea-4d8d-ac38-eaefa094d130"},"vehicle_type_id":"4","last_reported":1777224598,"current_range_meters":7200,"station_id":"st_cvj6r9ubvosntc0bgbag","pricing_plan_id":"cebpf4jnsgd1na2vs0mg"},{"bike_id":"5b6557f0-fe74-4b8c-9aaf-dbf4d7d2270e","system_id":"levelo_inurba_marseille","lat":43.29258,"lon":5.40901,"is_reserved":false,"is_disabled":false,"rental_uris":{"android":"levelo://app?vid=5b6557f0-fe74-4b8c-9aaf-dbf4d7d2270e","ios":"levelo://app?vid=5b6557f0-fe74-4b8c-9aaf-dbf4d7d2270e"},"vehicle_type_id":"4","last_reported":1777224598,"current_range_meters":7200,"station_id":"ce4bh192rcd13ifvqdc0","pricing_plan_id":"cebpf4jnsgd1na2vs0mg"},{"bike_id":"cea31a32-5e3a-46c4-9d32-5011edfbb303","system_id":"levelo_inurba_marseille","lat":43.337444,"lon":5.374475,"is_reserved":false,"is_disabled":true,"rental_uris":{"android":"levelo://app?vid=cea31a32-5e3a-46c4-9d32-5011edfbb303","ios":"levelo://app?vid=cea31a32-5e3a-46c4-9d32-5011edfbb303"},"vehicle_type_id":"4","last_reported":1777224598,"current_range_meters":8000,"station_id":"","pricing_plan_id":"cebpf4jnsgd1na2vs0mg"},{"bike_id":"df75676a-7c3f-4d29-80c0-260795f2c62d","system_id":"levelo_inurba_marseille","lat":43.27974,"lon":5.40812,"is_reserved":false,"is_disabled":false,"rental_uris":{"android":"levelo://app?vid=df75676a-7c3f-4d29-80c0-260795f2c62d","ios":"levelo://app?vid=df75676a-7c3f-4d29-80c0-260795f2c62d"},"vehicle_type_id":"4","last_reported":1777224598,"current_range_meters":8000,"station_id":"","pricing_plan_id":"cebpf4jnsgd1na2vs0mg"},{"bike_id":"d84dad1f-3355-427c-a81e-a3f872caa973","system_id":"levelo_inurba_marseille","lat":43.28693,"lon":5.46697,"is_reserved":false,"is_disabled":false,"rental_uris":{"android":"levelo://app?vid=d84dad1f-3355-427c-a81e-a3f872caa973","ios":"levelo://app?vid=d84dad1f-3355-427c-a81e-a3f872caa973"},"vehicle_type_id":"4","last_reported":1777224598,"current_range_meters":8000,"station_id":"st_d6tc3vkotcvc738tfjhg","pricing_plan_id":"cebpf4jnsgd1na2vs0mg"},{"bike_id":"e71479ac-2c75-4920-9d3c-08826be0b2df","system_id":"levelo_inurba_marseille","lat":43.28857,"lon":5.42524,"is_reserved":false,"is_disabled":false,"rental_uris":{"android":"levelo://app?vid=e71479ac-2c75-4920-9d3c-08826be0b2df","ios":"levelo://app?vid=e71479ac-2c75-4920-9d3c-08826be0b2df"},"vehicle_type_id":"4","last_reported":1777224598,"current_range_meters":8000,"station_id":"st_d3b462108ojc7389ooeg","pricing_plan_id":"cebpf4jnsgd1na2vs0mg"},{"bike_id":"897b91dd-f4d2-4562-8f53-295fea35fd40","system_id":"levelo_inurba_marseille","lat":43.29914,"lon":5.37488,"is_reserved":false,"is_disabled":false,"rental_uris":{"android":"levelo://app?vid=897b91dd-f4d2-4562-8f53-295fea35fd40","ios":"levelo://app?vid=897b91dd-f4d2-4562-8f53-295fea35fd40"},"vehicle_type_id":"4","last_reported":1777224598,"current_range_meters":8000,"station_id":"ce4bgjh2rcd13ifvqbg0","pricing_plan_id":"cebpf4jnsgd1na2vs0mg"},{"bike_id":"9bbf1e9d-6737-4217-8ec3-b0d06e6a1719","system_id":"levelo_inurba_marseille","lat":43.27369,"lon":5.36255,"is_reserved":false,"is_disabled":false,"rental_uris":{"android":"levelo://app?vid=9bbf1e9d-6737-4217-8ec3-b0d06e6a1719","ios":"levelo://app?vid=9bbf1e9d-6737-4217-8ec3-b0d06e6a1719"},"vehicle_type_id":"4","last_reported":1777224598,"current_range_meters":8000,"station_id":"ce4bhbh2rcd13ifvqeo0","pricing_plan_id":"cebpf4jnsgd1na2vs0mg"},{"bike_id":"73c295e0-3579-46d9-b916-96b4fb12b5ec","system_id":"levelo_inurba_marseille","lat":43.29199,"lon":5.36059,"is_reserved":false,"is_disabled":false,"rental_uris":{"android":"levelo://app?vid=73c295e0-3579-46d9-b916-96b4fb12b5ec","ios":"levelo://app?vid=73c295e0-3579-46d9-b916-96b4fb12b5ec"},"vehicle_type_id":"4","last_reported":1777224598,"current_range_meters":8000,"station_id":"ce4bhbh2rcd13ifvqeqg","pricing_plan_id":"cebpf4jnsgd1na2vs0mg"},{"bike_id":"82572184-4985-4fbf-9e53-5d0edde88908","system_id":"levelo_inurba_marseille","lat":43.28695,"lon":5.37388,"is_reserved":false,"is_disabled":false,"rental_uris":{"android":"levelo://app?vid=82572184-4985-4fbf-9e53-5d0edde88908","ios":"levelo://app?vid=82572184-4985-4fbf-9e53-5d0edde88908"},"vehicle_type_id":"4","last_reported":1777224598,"current_range_meters":8000,"station_id":"ce4bh3p2rcd13ifvqdq0","pricing_plan_id":"cebpf4jnsgd1na2vs0mg"},{"bike_id":"6c03a756-6268-4631-a1f0-4d7b6ab3b005","system_id":"levelo_inurba_marseille","lat":43.26037,"lon":5.39404,"is_reserved":false,"is_disabled":false,"rental_uris":{"android":"levelo://app?vid=6c03a756-6268-4631-a1f0-4d7b6ab3b005","ios":"levelo://app?vid=6c03a756-6268-4631-a1f0-4d7b6ab3b005"},"vehicle_type_id":"4","last_reported":1777224598,"current_range_meters":8000,"station_id":"ce4bhh92rcd13ifvqfj0","pricing_plan_id":"cebpf4jnsgd1na2vs0mg"},{"bike_id":"0ec2c230-1a8f-4ddd-af26-55d1797f1946","system_id":"levelo_inurba_marseille","lat":43.27315,"lon":5.39074,"is_reserved":false,"is_disabled":false,"rental_uris":{"android":"levelo://app?vid=0ec2c230-1a8f-4ddd-af26-55d1797f1946","ios":"levelo://app?vid=0ec2c230-1a8f-4ddd-af26-55d1797f1946"},"vehicle_type_id":"4","last_reported":1777224598,"current_range_meters":8000,"station_id":"ce4bhgp2rcd13ifvqfe0","pricing_plan_id":"cebpf4jnsgd1na2vs0mg"},{"bike_id":"6eebfbc0-2f35-4ffa-ba3d-a5ff263375aa","system_id":"levelo_inurba_marseille","lat":43.2926,"lon":5.40899,"is_reserved":false,"is_disabled":false,"rental_uris":{"android":"levelo://app?vid=6eebfbc0-2f35-4ffa-ba3d-a5ff263375aa","ios":"levelo://app?vid=6eebfbc0-2f35-4ffa-ba3d-a5ff263375aa"},"vehicle_type_id":"4","last_reported":1777224598,"current_range_meters":8000,"station_id":"ce4bh192rcd13ifvqdc0","pricing_plan_id":"cebpf4jnsgd1na2vs0mg"},{"bike_id":"a44959d9-9292-47ef-9636-50c50cbad103","system_id":"levelo_inurba_marseille","lat":43.31266,"lon":5.40177,"is_reserved":false,"is_disabled":false,"rental_uris":{"android":"levelo://app?vid=a44959d9-9292-47ef-9636-50c50cbad103","ios":"levelo://app?vid=a44959d9-9292-47ef-9636-50c50cbad103"},"vehicle_type_id":"4","last_reported":1777224598,"current_range_meters":8000,"station_id":"ce4bh092rcd13ifvqd30","pricing_plan_id":"cebpf4jnsgd1na2vs0mg"},{"bike_id":"6fefe45f-2e4d-4ce5-a9fc-a6bb1d77c1d3","system_id":"levelo_inurba_marseille","lat":43.28615,"lon":5.35093,"is_reserved":false,"is_disabled":false,"rental_uris":{"android":"levelo://app?vid=6fefe45f-2e4d-4ce5-a9fc-a6bb1d77c1d3","ios":"levelo://app?vid=6fefe45f-2e4d-4ce5-a9fc-a6bb1d77c1d3"},"vehicle_type_id":"4","last_reported":1777224598,"current_range_meters":8000,"station_id":"ce4bhch2rcd13ifvqeug","pricing_plan_id":"cebpf4jnsgd1na2vs0mg"},{"bike_id":"b63f6fd6-182d-4a25-bfa9-8786242f4fb6","system_id":"levelo_inurba_marseille","lat":43.30544,"lon":5.3843,"is_reserved":false,"is_disabled":false,"rental_uris":{"android":"levelo://app?vid=b63f6fd6-182d-4a25-bfa9-8786242f4fb6","ios":"levelo://app?vid=b63f6fd6-182d-4a25-bfa9-8786242f4fb6"},"vehicle_type_id":"4","last_reported":1777224598,"current_range_meters":8400,"station_id":"ce4bgg92rcd13ifvqb30","pricing_plan_id":"cebpf4jnsgd1na2vs0mg"},{"bike_id":"5354cf07-79ed-432a-b193-14addfafc2f9","system_id":"levelo_inurba_marseille","lat":43.24387,"lon":5.37065,"is_reserved":false,"is_disabled":false,"rental_uris":{"android":"levelo://app?vid=5354cf07-79ed-432a-b193-14addfafc2f9","ios":"levelo://app?vid=5354cf07-79ed-432a-b193-14addfafc2f9"},"vehicle_type_id":"4","last_reported":1777224598,"current_range_meters":8400,"station_id":"ce4bhhh2rcd13ifvqfk0","pricing_plan_id":"cebpf4jnsgd1na2vs0mg"},{"bike_id":"62076f36-93ac-412f-9c01-4af048196999","system_id":"levelo_inurba_marseille","lat":43.29226,"lon":5.36043,"is_reserved":false,"is_disabled":false,"rental_uris":{"android":"levelo://app?vid=62076f36-93ac-412f-9c01-4af048196999","ios":"levelo://app?vid=62076f36-93ac-412f-9c01-4af048196999"},"vehicle_type_id":"4","last_reported":1777224598,"current_range_meters":8400,"station_id":"ce4bhbh2rcd13ifvqeqg","pricing_plan_id":"cebpf4jnsgd1na2vs0mg"},{"bike_id":"5676b1df-3102-49f0-94ea-6bd037dc90c9","system_id":"levelo_inurba_marseille","lat":43.31127,"lon":5.38058,"is_reserved":false,"is_disabled":false,"rental_uris":{"android":"levelo://app?vid=5676b1df-3102-49f0-94ea-6bd037dc90c9","ios":"levelo://app?vid=5676b1df-3102-49f0-94ea-6bd037dc90c9"},"vehicle_type_id":"4","last_reported":1777224598,"current_range_meters":8400,"station_id":"","pricing_plan_id":"cebpf4jnsgd1na2vs0mg"},{"bike_id":"17f5223a-84d1-46d9-b55d-6a7e95a08bd7","system_id":"levelo_inurba_marseille","lat":43.24812,"lon":5.37447,"is_reserved":false,"is_disabled":false,"rental_uris":{"android":"levelo://app?vid=17f5223a-84d1-46d9-b55d-6a7e95a08bd7","ios":"levelo://app?vid=17f5223a-84d1-46d9-b55d-6a7e95a08bd7"},"vehicle_type_id":"4","last_reported":1777224598,"current_range_meters":8400,"station_id":"ce4bhgh2rcd13ifvqfb0","pricing_plan_id":"cebpf4jnsgd1na2vs0mg"},{"bike_id":"b21748b2-fb24-4ee6-8e6a-c7c61264faec","system_id":"levelo_inurba_marseille","lat":43.27405,"lon":5.42237,"is_reserved":false,"is_disabled":false,"rental_uris":{"android":"levelo://app?vid=b21748b2-fb24-4ee6-8e6a-c7c61264faec","ios":"levelo://app?vid=b21748b2-fb24-4ee6-8e6a-c7c61264faec"},"vehicle_type_id":"4","last_reported":1777224598,"current_range_meters":8400,"station_id":"","pricing_plan_id":"cebpf4jnsgd1na2vs0mg"},{"bike_id":"1f13452b-ac27-48ca-bbd2-1255b0865067","system_id":"levelo_inurba_marseille","lat":43.27827,"lon":5.37916,"is_reserved":false,"is_disabled":false,"rental_uris":{"android":"levelo://app?vid=1f13452b-ac27-48ca-bbd2-1255b0865067","ios":"levelo://app?vid=1f13452b-ac27-48ca-bbd2-1255b0865067"},"vehicle_type_id":"4","last_reported":1777224598,"current_range_meters":8400,"station_id":"","pricing_plan_id":"cebpf4jnsgd1na2vs0mg"},{"bike_id":"cadfa63b-4f9a-4fdd-9cfc-eea769369763","system_id":"levelo_inurba_marseille","lat":43.27319,"lon":5.39137,"is_reserved":false,"is_disabled":false,"rental_uris":{"android":"levelo://app?vid=cadfa63b-4f9a-4fdd-9cfc-eea769369763","ios":"levelo://app?vid=cadfa63b-4f9a-4fdd-9cfc-eea769369763"},"vehicle_type_id":"4","last_reported":1777224598,"current_range_meters":8400,"station_id":"ce4bhgp2rcd13ifvqfe0","pricing_plan_id":"cebpf4jnsgd1na2vs0mg"},{"bike_id":"7917a9d5-4ac9-40bd-8834-5d3047c76c9d","system_id":"levelo_inurba_marseille","lat":43.32497,"lon":5.40755,"is_reserved":false,"is_disabled":false,"rental_uris":{"android":"levelo://app?vid=7917a9d5-4ac9-40bd-8834-5d3047c76c9d","ios":"levelo://app?vid=7917a9d5-4ac9-40bd-8834-5d3047c76c9d"},"vehicle_type_id":"4","last_reported":1777224598,"current_range_meters":8400,"station_id":"","pricing_plan_id":"cebpf4jnsgd1na2vs0mg"},{"bike_id":"8cc18673-b32b-49d1-918c-3ee79f174af3","system_id":"levelo_inurba_marseille","lat":43.2956,"lon":5.42289,"is_reserved":false,"is_disabled":false,"rental_uris":{"android":"levelo://app?vid=8cc18673-b32b-49d1-918c-3ee79f174af3","ios":"levelo://app?vid=8cc18673-b32b-49d1-918c-3ee79f174af3"},"vehicle_type_id":"4","last_reported":1777224598,"current_range_meters":8400,"station_id":"ce4bhph2rcd13ifvqhdg","pricing_plan_id":"cebpf4jnsgd1na2vs0mg"},{"bike_id":"c61fd509-c1c1-42fa-8339-609d96f4151a","system_id":"levelo_inurba_marseille","lat":43.2463,"lon":5.43149,"is_reserved":false,"is_disabled":false,"rental_uris":{"android":"levelo://app?vid=c61fd509-c1c1-42fa-8339-609d96f4151a","ios":"levelo://app?vid=c61fd509-c1c1-42fa-8339-609d96f4151a"},"vehicle_type_id":"4","last_reported":1777224598,"current_range_meters":8400,"station_id":"st_d2m6c4gdas8pm72e190g","pricing_plan_id":"cebpf4jnsgd1na2vs0mg"},{"bike_id":"0ac6fe75-176f-47ca-97df-dc3691075e50","system_id":"levelo_inurba_marseille","lat":43.24806,"lon":5.37475,"is_reserved":false,"is_disabled":false,"rental_uris":{"android":"levelo://app?vid=0ac6fe75-176f-47ca-97df-dc3691075e50","ios":"levelo://app?vid=0ac6fe75-176f-47ca-97df-dc3691075e50"},"vehicle_type_id":"4","last_reported":1777224598,"current_range_meters":8400,"station_id":"ce4bhgh2rcd13ifvqfb0","pricing_plan_id":"cebpf4jnsgd1na2vs0mg"},{"bike_id":"867e4efb-03e8-466f-a027-d873140a375d","system_id":"levelo_inurba_marseille","lat":43.24813,"lon":5.37465,"is_reserved":false,"is_disabled":false,"rental_uris":{"android":"levelo://app?vid=867e4efb-03e8-466f-a027-d873140a375d","ios":"levelo://app?vid=867e4efb-03e8-466f-a027-d873140a375d"},"vehicle_type_id":"4","last_reported":1777224598,"current_range_meters":8400,"station_id":"ce4bhgh2rcd13ifvqfb0","pricing_plan_id":"cebpf4jnsgd1na2vs0mg"},{"bike_id":"72226c52-96a5-4895-94ca-490c7ea3c64f","system_id":"levelo_inurba_marseille","lat":43.25857,"lon":5.39465,"is_reserved":false,"is_disabled":false,"rental_uris":{"android":"levelo://app?vid=72226c52-96a5-4895-94ca-490c7ea3c64f","ios":"levelo://app?vid=72226c52-96a5-4895-94ca-490c7ea3c64f"},"vehicle_type_id":"4","last_reported":1777224598,"current_range_meters":8400,"station_id":"ce4bhip2rcd13ifvqft0","pricing_plan_id":"cebpf4jnsgd1na2vs0mg"},{"bike_id":"50fcb081-4b05-4355-adf3-07f022c0399c","system_id":"levelo_inurba_marseille","lat":43.30993,"lon":5.37913,"is_reserved":false,"is_disabled":false,"rental_uris":{"android":"levelo://app?vid=50fcb081-4b05-4355-adf3-07f022c0399c","ios":"levelo://app?vid=50fcb081-4b05-4355-adf3-07f022c0399c"},"vehicle_type_id":"4","last_reported":1777224598,"current_range_meters":8400,"station_id":"","pricing_plan_id":"cebpf4jnsgd1na2vs0mg"},{"bike_id":"abe98e65-26e0-4b5b-b925-3e874e9b535b","system_id":"levelo_inurba_marseille","lat":43.24801,"lon":5.37449,"is_reserved":false,"is_disabled":false,"rental_uris":{"android":"levelo://app?vid=abe98e65-26e0-4b5b-b925-3e874e9b535b","ios":"levelo://app?vid=abe98e65-26e0-4b5b-b925-3e874e9b535b"},"vehicle_type_id":"4","last_reported":1777224598,"current_range_meters":8800,"station_id":"ce4bhgh2rcd13ifvqfb0","pricing_plan_id":"cebpf4jnsgd1na2vs0mg"},{"bike_id":"48b9fe23-ce25-406c-9bd7-3389577ae0d2","system_id":"levelo_inurba_marseille","lat":43.287103,"lon":5.379393,"is_reserved":false,"is_disabled":false,"rental_uris":{"android":"levelo://app?vid=48b9fe23-ce25-406c-9bd7-3389577ae0d2","ios":"levelo://app?vid=48b9fe23-ce25-406c-9bd7-3389577ae0d2"},"vehicle_type_id":"4","last_reported":1777224598,"current_range_meters":8800,"station_id":"ce4bh9p2rcd13ifvqec0","pricing_plan_id":"cebpf4jnsgd1na2vs0mg"},{"bike_id":"32d8062d-b01e-46bc-92b9-65d5fbd8fc06","system_id":"levelo_inurba_marseille","lat":43.23966,"lon":5.3664,"is_reserved":false,"is_disabled":false,"rental_uris":{"android":"levelo://app?vid=32d8062d-b01e-46bc-92b9-65d5fbd8fc06","ios":"levelo://app?vid=32d8062d-b01e-46bc-92b9-65d5fbd8fc06"},"vehicle_type_id":"4","last_reported":1777224598,"current_range_meters":8800,"station_id":"ce4bhi12rcd13ifvqfp0","pricing_plan_id":"cebpf4jnsgd1na2vs0mg"},{"bike_id":"1fb0d201-1f56-4523-b307-08a30b23c19f","system_id":"levelo_inurba_marseille","lat":43.26798,"lon":5.40259,"is_reserved":false,"is_disabled":false,"rental_uris":{"android":"levelo://app?vid=1fb0d201-1f56-4523-b307-08a30b23c19f","ios":"levelo://app?vid=1fb0d201-1f56-4523-b307-08a30b23c19f"},"vehicle_type_id":"4","last_reported":1777224598,"current_range_meters":8800,"station_id":"ce501612rcd8frsf0b60","pricing_plan_id":"cebpf4jnsgd1na2vs0mg"},{"bike_id":"1dbbb389-5931-4d64-b29b-02449b2d67dc","system_id":"levelo_inurba_marseille","lat":43.24462,"lon":5.42536,"is_reserved":false,"is_disabled":false,"rental_uris":{"android":"levelo://app?vid=1dbbb389-5931-4d64-b29b-02449b2d67dc","ios":"levelo://app?vid=1dbbb389-5931-4d64-b29b-02449b2d67dc"},"vehicle_type_id":"4","last_reported":1777224598,"current_range_meters":8800,"station_id":"st_d4a3vfp97mjs738cd8kg","pricing_plan_id":"cebpf4jnsgd1na2vs0mg"},{"bike_id":"3e299935-d2f5-44c6-b71b-7e524e497db7","system_id":"levelo_inurba_marseille","lat":43.30596,"lon":5.37238,"is_reserved":false,"is_disabled":false,"rental_uris":{"android":"levelo://app?vid=3e299935-d2f5-44c6-b71b-7e524e497db7","ios":"levelo://app?vid=3e299935-d2f5-44c6-b71b-7e524e497db7"},"vehicle_type_id":"4","last_reported":1777224598,"current_range_meters":8800,"station_id":"ce4bgqh2rcd13ifvqc4g","pricing_plan_id":"cebpf4jnsgd1na2vs0mg"},{"bike_id":"6b5b9e45-67f3-4a64-a294-ead66e30dbef","system_id":"levelo_inurba_marseille","lat":43.24674,"lon":5.38177,"is_reserved":false,"is_disabled":false,"rental_uris":{"android":"levelo://app?vid=6b5b9e45-67f3-4a64-a294-ead66e30dbef","ios":"levelo://app?vid=6b5b9e45-67f3-4a64-a294-ead66e30dbef"},"vehicle_type_id":"4","last_reported":1777224598,"current_range_meters":8800,"station_id":"ce4bhih2rcd13ifvqfr0","pricing_plan_id":"cebpf4jnsgd1na2vs0mg"},{"bike_id":"11effbb2-3489-4e85-aec9-0e018fcdcc03","system_id":"levelo_inurba_marseille","lat":43.23196,"lon":5.35551,"is_reserved":false,"is_disabled":false,"rental_uris":{"android":"levelo://app?vid=11effbb2-3489-4e85-aec9-0e018fcdcc03","ios":"levelo://app?vid=11effbb2-3489-4e85-aec9-0e018fcdcc03"},"vehicle_type_id":"4","last_reported":1777224598,"current_range_meters":8800,"station_id":"ce4bhu92rcd13ifvqi70","pricing_plan_id":"cebpf4jnsgd1na2vs0mg"},{"bike_id":"c11d1808-32dc-4683-bc6f-c818ed8e14de","system_id":"levelo_inurba_marseille","lat":43.27497,"lon":5.42459,"is_reserved":false,"is_disabled":true,"rental_uris":{"android":"levelo://app?vid=c11d1808-32dc-4683-bc6f-c818ed8e14de","ios":"levelo://app?vid=c11d1808-32dc-4683-bc6f-c818ed8e14de"},"vehicle_type_id":"4","last_reported":1777224598,"current_range_meters":8800,"station_id":"ce4bhn92rcd13ifvqgrg","pricing_plan_id":"cebpf4jnsgd1na2vs0mg"},{"bike_id":"a9335f62-4c73-44b2-8914-e3f52e6941ca","system_id":"levelo_inurba_marseille","lat":43.32118,"lon":5.36766,"is_reserved":false,"is_disabled":false,"rental_uris":{"android":"levelo://app?vid=a9335f62-4c73-44b2-8914-e3f52e6941ca","ios":"levelo://app?vid=a9335f62-4c73-44b2-8914-e3f52e6941ca"},"vehicle_type_id":"4","last_reported":1777224598,"current_range_meters":8800,"station_id":"ce4bhrh2rcd13ifvqhug","pricing_plan_id":"cebpf4jnsgd1na2vs0mg"},{"bike_id":"fa751cf9-28f3-4d65-b8f1-30773d90354d","system_id":"levelo_inurba_marseille","lat":43.24945,"lon":5.40494,"is_reserved":false,"is_disabled":false,"rental_uris":{"android":"levelo://app?vid=fa751cf9-28f3-4d65-b8f1-30773d90354d","ios":"levelo://app?vid=fa751cf9-28f3-4d65-b8f1-30773d90354d"},"vehicle_type_id":"4","last_reported":1777224598,"current_range_meters":8800,"station_id":"st_d2ngiaodas8pm72gd1h0","pricing_plan_id":"cebpf4jnsgd1na2vs0mg"},{"bike_id":"a78c4cf8-6f0f-4b95-a435-c6377aca3889","system_id":"levelo_inurba_marseille","lat":43.28417,"lon":5.34983,"is_reserved":false,"is_disabled":false,"rental_uris":{"android":"levelo://app?vid=a78c4cf8-6f0f-4b95-a435-c6377aca3889","ios":"levelo://app?vid=a78c4cf8-6f0f-4b95-a435-c6377aca3889"},"vehicle_type_id":"4","last_reported":1777224598,"current_range_meters":8800,"station_id":"ce4bhbh2rcd13ifvqepg","pricing_plan_id":"cebpf4jnsgd1na2vs0mg"},{"bike_id":"93378c7e-8a33-4e07-ab2a-fc9cc927fe7a","system_id":"levelo_inurba_marseille","lat":43.28839,"lon":5.39334,"is_reserved":false,"is_disabled":true,"rental_uris":{"android":"levelo://app?vid=93378c7e-8a33-4e07-ab2a-fc9cc927fe7a","ios":"levelo://app?vid=93378c7e-8a33-4e07-ab2a-fc9cc927fe7a"},"vehicle_type_id":"4","last_reported":1777224598,"current_range_meters":8800,"station_id":"ce4bh2p2rcd13ifvqdi0","pricing_plan_id":"cebpf4jnsgd1na2vs0mg"},{"bike_id":"89361049-3250-43c7-bc2b-1605a651a9a7","system_id":"levelo_inurba_marseille","lat":43.29232,"lon":5.36048,"is_reserved":false,"is_disabled":false,"rental_uris":{"android":"levelo://app?vid=89361049-3250-43c7-bc2b-1605a651a9a7","ios":"levelo://app?vid=89361049-3250-43c7-bc2b-1605a651a9a7"},"vehicle_type_id":"4","last_reported":1777224598,"current_range_meters":8800,"station_id":"ce4bhbh2rcd13ifvqeqg","pricing_plan_id":"cebpf4jnsgd1na2vs0mg"},{"bike_id":"e4946e49-98b0-4f2d-be30-0b4bdb9bcf3b","system_id":"levelo_inurba_marseille","lat":43.27201,"lon":5.39194,"is_reserved":false,"is_disabled":false,"rental_uris":{"android":"levelo://app?vid=e4946e49-98b0-4f2d-be30-0b4bdb9bcf3b","ios":"levelo://app?vid=e4946e49-98b0-4f2d-be30-0b4bdb9bcf3b"},"vehicle_type_id":"4","last_reported":1777224598,"current_range_meters":8800,"station_id":"ce4bhhp2rcd13ifvqfm0","pricing_plan_id":"cebpf4jnsgd1na2vs0mg"},{"bike_id":"fd583349-9e7d-4e5b-8155-1da1a7a44b99","system_id":"levelo_inurba_marseille","lat":43.2796,"lon":5.41043,"is_reserved":false,"is_disabled":false,"rental_uris":{"android":"levelo://app?vid=fd583349-9e7d-4e5b-8155-1da1a7a44b99","ios":"levelo://app?vid=fd583349-9e7d-4e5b-8155-1da1a7a44b99"},"vehicle_type_id":"4","last_reported":1777224598,"current_range_meters":8800,"station_id":"ce4bhnp2rcd13ifvqh0g","pricing_plan_id":"cebpf4jnsgd1na2vs0mg"},{"bike_id":"d4dddda4-d782-4f2f-8b42-ffa1e2a1afeb","system_id":"levelo_inurba_marseille","lat":43.28929,"lon":5.38363,"is_reserved":false,"is_disabled":false,"rental_uris":{"android":"levelo://app?vid=d4dddda4-d782-4f2f-8b42-ffa1e2a1afeb","ios":"levelo://app?vid=d4dddda4-d782-4f2f-8b42-ffa1e2a1afeb"},"vehicle_type_id":"4","last_reported":1777224598,"current_range_meters":8800,"station_id":"ce4bh612rcd13ifvqe6g","pricing_plan_id":"cebpf4jnsgd1na2vs0mg"},{"bike_id":"d9ab1fbe-ca7f-4edc-8873-00513849da8b","system_id":"levelo_inurba_marseille","lat":43.24418,"lon":5.37038,"is_reserved":false,"is_disabled":false,"rental_uris":{"android":"levelo://app?vid=d9ab1fbe-ca7f-4edc-8873-00513849da8b","ios":"levelo://app?vid=d9ab1fbe-ca7f-4edc-8873-00513849da8b"},"vehicle_type_id":"4","last_reported":1777224598,"current_range_meters":8800,"station_id":"ce4bhhh2rcd13ifvqfk0","pricing_plan_id":"cebpf4jnsgd1na2vs0mg"},{"bike_id":"4b49ab9b-eeca-4117-b1e9-4b53277a58b0","system_id":"levelo_inurba_marseille","lat":43.23189,"lon":5.35596,"is_reserved":false,"is_disabled":true,"rental_uris":{"android":"levelo://app?vid=4b49ab9b-eeca-4117-b1e9-4b53277a58b0","ios":"levelo://app?vid=4b49ab9b-eeca-4117-b1e9-4b53277a58b0"},"vehicle_type_id":"4","last_reported":1777224598,"current_range_meters":8800,"station_id":"ce4bhu92rcd13ifvqi70","pricing_plan_id":"cebpf4jnsgd1na2vs0mg"},{"bike_id":"1b862334-9c5a-48da-89ce-51adedd77be5","system_id":"levelo_inurba_marseille","lat":43.26215,"lon":5.38755,"is_reserved":false,"is_disabled":false,"rental_uris":{"android":"levelo://app?vid=1b862334-9c5a-48da-89ce-51adedd77be5","ios":"levelo://app?vid=1b862334-9c5a-48da-89ce-51adedd77be5"},"vehicle_type_id":"4","last_reported":1777224598,"current_range_meters":8800,"station_id":"","pricing_plan_id":"cebpf4jnsgd1na2vs0mg"},{"bike_id":"07ea61c0-b22b-4bdd-8040-b2308ab3f557","system_id":"levelo_inurba_marseille","lat":43.30927,"lon":5.40145,"is_reserved":false,"is_disabled":false,"rental_uris":{"android":"levelo://app?vid=07ea61c0-b22b-4bdd-8040-b2308ab3f557","ios":"levelo://app?vid=07ea61c0-b22b-4bdd-8040-b2308ab3f557"},"vehicle_type_id":"4","last_reported":1777224598,"current_range_meters":8800,"station_id":"ce4bgvp2rcd13ifvqct0","pricing_plan_id":"cebpf4jnsgd1na2vs0mg"},{"bike_id":"61e7f656-33e8-4f07-8c42-097a4e5404d7","system_id":"levelo_inurba_marseille","lat":43.29845,"lon":5.36283,"is_reserved":false,"is_disabled":false,"rental_uris":{"android":"levelo://app?vid=61e7f656-33e8-4f07-8c42-097a4e5404d7","ios":"levelo://app?vid=61e7f656-33e8-4f07-8c42-097a4e5404d7"},"vehicle_type_id":"4","last_reported":1777224598,"current_range_meters":9200,"station_id":"ce4bgpp2rcd13ifvqc3g","pricing_plan_id":"cebpf4jnsgd1na2vs0mg"},{"bike_id":"3462feaa-c9a2-441c-b3a1-f70058c367e6","system_id":"levelo_inurba_marseille","lat":43.24389,"lon":5.37073,"is_reserved":false,"is_disabled":false,"rental_uris":{"android":"levelo://app?vid=3462feaa-c9a2-441c-b3a1-f70058c367e6","ios":"levelo://app?vid=3462feaa-c9a2-441c-b3a1-f70058c367e6"},"vehicle_type_id":"4","last_reported":1777224598,"current_range_meters":9200,"station_id":"ce4bhhh2rcd13ifvqfk0","pricing_plan_id":"cebpf4jnsgd1na2vs0mg"},{"bike_id":"c5e4557e-a579-4ba0-b540-76be6c2c51d2","system_id":"levelo_inurba_marseille","lat":43.2694,"lon":5.40241,"is_reserved":false,"is_disabled":true,"rental_uris":{"android":"levelo://app?vid=c5e4557e-a579-4ba0-b540-76be6c2c51d2","ios":"levelo://app?vid=c5e4557e-a579-4ba0-b540-76be6c2c51d2"},"vehicle_type_id":"4","last_reported":1777224598,"current_range_meters":9200,"station_id":"cjm6bp8fraef2m0cb0m0","pricing_plan_id":"cebpf4jnsgd1na2vs0mg"},{"bike_id":"afe2c699-d272-47f9-9a1b-81ffe94bdde8","system_id":"levelo_inurba_marseille","lat":43.24165,"lon":5.3639,"is_reserved":false,"is_disabled":false,"rental_uris":{"android":"levelo://app?vid=afe2c699-d272-47f9-9a1b-81ffe94bdde8","ios":"levelo://app?vid=afe2c699-d272-47f9-9a1b-81ffe94bdde8"},"vehicle_type_id":"4","last_reported":1777224598,"current_range_meters":9200,"station_id":"cpo36qri1sfpv3e86is0","pricing_plan_id":"cebpf4jnsgd1na2vs0mg"},{"bike_id":"118c3615-518c-403f-8a26-e2b4e1d9a8a1","system_id":"levelo_inurba_marseille","lat":43.30198,"lon":5.39525,"is_reserved":false,"is_disabled":false,"rental_uris":{"android":"levelo://app?vid=118c3615-518c-403f-8a26-e2b4e1d9a8a1","ios":"levelo://app?vid=118c3615-518c-403f-8a26-e2b4e1d9a8a1"},"vehicle_type_id":"4","last_reported":1777224598,"current_range_meters":9200,"station_id":"ce4bh0p2rcd13ifvqd70","pricing_plan_id":"cebpf4jnsgd1na2vs0mg"},{"bike_id":"2881562f-5e49-4315-80bf-dc8fd103d061","system_id":"levelo_inurba_marseille","lat":43.21202,"lon":5.35065,"is_reserved":false,"is_disabled":false,"rental_uris":{"android":"levelo://app?vid=2881562f-5e49-4315-80bf-dc8fd103d061","ios":"levelo://app?vid=2881562f-5e49-4315-80bf-dc8fd103d061"},"vehicle_type_id":"4","last_reported":1777224598,"current_range_meters":9200,"station_id":"st_cvj6sg6p6f1abm77japg","pricing_plan_id":"cebpf4jnsgd1na2vs0mg"},{"bike_id":"1b7bb941-83c3-4ec7-8d56-88190ac17fc3","system_id":"levelo_inurba_marseille","lat":43.28107,"lon":5.39206,"is_reserved":false,"is_disabled":false,"rental_uris":{"android":"levelo://app?vid=1b7bb941-83c3-4ec7-8d56-88190ac17fc3","ios":"levelo://app?vid=1b7bb941-83c3-4ec7-8d56-88190ac17fc3"},"vehicle_type_id":"4","last_reported":1777224598,"current_range_meters":9200,"station_id":"","pricing_plan_id":"cebpf4jnsgd1na2vs0mg"},{"bike_id":"a17a356a-6340-4eae-b4d5-d59f3247dda3","system_id":"levelo_inurba_marseille","lat":43.25979,"lon":5.39224,"is_reserved":false,"is_disabled":false,"rental_uris":{"android":"levelo://app?vid=a17a356a-6340-4eae-b4d5-d59f3247dda3","ios":"levelo://app?vid=a17a356a-6340-4eae-b4d5-d59f3247dda3"},"vehicle_type_id":"4","last_reported":1777224598,"current_range_meters":9200,"station_id":"","pricing_plan_id":"cebpf4jnsgd1na2vs0mg"},{"bike_id":"d68cd392-a214-40e4-8e5f-e39fa567524a","system_id":"levelo_inurba_marseille","lat":43.30136,"lon":5.37427,"is_reserved":false,"is_disabled":true,"rental_uris":{"android":"levelo://app?vid=d68cd392-a214-40e4-8e5f-e39fa567524a","ios":"levelo://app?vid=d68cd392-a214-40e4-8e5f-e39fa567524a"},"vehicle_type_id":"4","last_reported":1777224598,"current_range_meters":9200,"station_id":"ce4bgs92rcd13ifvqcc0","pricing_plan_id":"cebpf4jnsgd1na2vs0mg"},{"bike_id":"0d8c3362-be20-49ce-8a46-7df1fa0c42ea","system_id":"levelo_inurba_marseille","lat":43.2485,"lon":5.37465,"is_reserved":false,"is_disabled":false,"rental_uris":{"android":"levelo://app?vid=0d8c3362-be20-49ce-8a46-7df1fa0c42ea","ios":"levelo://app?vid=0d8c3362-be20-49ce-8a46-7df1fa0c42ea"},"vehicle_type_id":"4","last_reported":1777224598,"current_range_meters":9200,"station_id":"","pricing_plan_id":"cebpf4jnsgd1na2vs0mg"},{"bike_id":"50f8bdff-b169-44f8-8920-840c94d5e30a","system_id":"levelo_inurba_marseille","lat":43.28483,"lon":5.48377,"is_reserved":false,"is_disabled":true,"rental_uris":{"android":"levelo://app?vid=50f8bdff-b169-44f8-8920-840c94d5e30a","ios":"levelo://app?vid=50f8bdff-b169-44f8-8920-840c94d5e30a"},"vehicle_type_id":"4","last_reported":1777224598,"current_range_meters":9200,"station_id":"","pricing_plan_id":"cebpf4jnsgd1na2vs0mg"},{"bike_id":"2681dfc5-91fe-4bfa-bedd-c06f9fea982c","system_id":"levelo_inurba_marseille","lat":43.2495,"lon":5.4049,"is_reserved":false,"is_disabled":false,"rental_uris":{"android":"levelo://app?vid=2681dfc5-91fe-4bfa-bedd-c06f9fea982c","ios":"levelo://app?vid=2681dfc5-91fe-4bfa-bedd-c06f9fea982c"},"vehicle_type_id":"4","last_reported":1777224598,"current_range_meters":9200,"station_id":"st_d2ngiaodas8pm72gd1h0","pricing_plan_id":"cebpf4jnsgd1na2vs0mg"},{"bike_id":"2725b0c0-a653-43ae-bc24-ce0141576499","system_id":"levelo_inurba_marseille","lat":43.30121,"lon":5.43083,"is_reserved":false,"is_disabled":false,"rental_uris":{"android":"levelo://app?vid=2725b0c0-a653-43ae-bc24-ce0141576499","ios":"levelo://app?vid=2725b0c0-a653-43ae-bc24-ce0141576499"},"vehicle_type_id":"4","last_reported":1777224598,"current_range_meters":9200,"station_id":"st_d3js3co5814s73ftftug","pricing_plan_id":"cebpf4jnsgd1na2vs0mg"},{"bike_id":"c736a106-fb22-47c3-be47-3176b5aba0ec","system_id":"levelo_inurba_marseille","lat":43.27378,"lon":5.362611,"is_reserved":false,"is_disabled":false,"rental_uris":{"android":"levelo://app?vid=c736a106-fb22-47c3-be47-3176b5aba0ec","ios":"levelo://app?vid=c736a106-fb22-47c3-be47-3176b5aba0ec"},"vehicle_type_id":"4","last_reported":1777224598,"current_range_meters":9200,"station_id":"ce4bhbh2rcd13ifvqeo0","pricing_plan_id":"cebpf4jnsgd1na2vs0mg"},{"bike_id":"f0a78c21-af18-4d12-999c-c61c54a5c6ee","system_id":"levelo_inurba_marseille","lat":43.28379,"lon":5.3863,"is_reserved":false,"is_disabled":false,"rental_uris":{"android":"levelo://app?vid=f0a78c21-af18-4d12-999c-c61c54a5c6ee","ios":"levelo://app?vid=f0a78c21-af18-4d12-999c-c61c54a5c6ee"},"vehicle_type_id":"4","last_reported":1777224598,"current_range_meters":9200,"station_id":"ce4bh492rcd13ifvqdvg","pricing_plan_id":"cebpf4jnsgd1na2vs0mg"},{"bike_id":"f2a4086e-fd1c-4d05-bcdc-df9048480c08","system_id":"levelo_inurba_marseille","lat":43.31359,"lon":5.38499,"is_reserved":false,"is_disabled":false,"rental_uris":{"android":"levelo://app?vid=f2a4086e-fd1c-4d05-bcdc-df9048480c08","ios":"levelo://app?vid=f2a4086e-fd1c-4d05-bcdc-df9048480c08"},