{"last_updated":1744165271,"ttl":60,"version":"2.2","data":{"bikes":[{"bike_id":"050457f1-6791-4a22-ab8c-f2b1411b5253","system_id":"levelo_inurba_marseille","lat":43.29238,"lon":5.40168,"is_reserved":false,"is_disabled":false,"rental_uris":{"android":"levelo://app?vid=050457f1-6791-4a22-ab8c-f2b1411b5253","ios":"levelo://app?vid=050457f1-6791-4a22-ab8c-f2b1411b5253"},"vehicle_type_id":"4","last_reported":1744165271,"current_range_meters":2800,"station_id":"","pricing_plan_id":"cebpf4jnsgd1na2vs0mg"},{"bike_id":"a41ed1c8-66a6-494b-a01d-66f32b31d7cf","system_id":"levelo_inurba_marseille","lat":43.2622,"lon":5.37449,"is_reserved":false,"is_disabled":true,"rental_uris":{"android":"levelo://app?vid=a41ed1c8-66a6-494b-a01d-66f32b31d7cf","ios":"levelo://app?vid=a41ed1c8-66a6-494b-a01d-66f32b31d7cf"},"vehicle_type_id":"4","last_reported":1744165271,"current_range_meters":2800,"station_id":"ce4bhgp2rcd13ifvqfc0","pricing_plan_id":"cebpf4jnsgd1na2vs0mg"},{"bike_id":"5b79fd17-71c7-46ba-a08e-72b15d99e820","system_id":"levelo_inurba_marseille","lat":43.22506,"lon":5.3477,"is_reserved":false,"is_disabled":true,"rental_uris":{"android":"levelo://app?vid=5b79fd17-71c7-46ba-a08e-72b15d99e820","ios":"levelo://app?vid=5b79fd17-71c7-46ba-a08e-72b15d99e820"},"vehicle_type_id":"4","last_reported":1744165271,"current_range_meters":2800,"station_id":"st_cvj5dfep6f1abm77gieg","pricing_plan_id":"cebpf4jnsgd1na2vs0mg"},{"bike_id":"86988597-629b-4846-83e5-ff566198de91","system_id":"levelo_inurba_marseille","lat":43.3091,"lon":5.37173,"is_reserved":false,"is_disabled":false,"rental_uris":{"android":"levelo://app?vid=86988597-629b-4846-83e5-ff566198de91","ios":"levelo://app?vid=86988597-629b-4846-83e5-ff566198de91"},"vehicle_type_id":"4","last_reported":1744165271,"current_range_meters":3200,"station_id":"ce4bguh2rcd13ifvqckg","pricing_plan_id":"cebpf4jnsgd1na2vs0mg"},{"bike_id":"cc057f14-b1e1-4dee-b107-8741c01c5964","system_id":"levelo_inurba_marseille","lat":43.32134,"lon":5.36612,"is_reserved":false,"is_disabled":true,"rental_uris":{"android":"levelo://app?vid=cc057f14-b1e1-4dee-b107-8741c01c5964","ios":"levelo://app?vid=cc057f14-b1e1-4dee-b107-8741c01c5964"},"vehicle_type_id":"4","last_reported":1744165271,"current_range_meters":3200,"station_id":"ce4bhrh2rcd13ifvqhug","pricing_plan_id":"cebpf4jnsgd1na2vs0mg"},{"bike_id":"21a5bc84-856d-43a2-b028-f173da65e0c7","system_id":"levelo_inurba_marseille","lat":43.279929,"lon":5.416569,"is_reserved":false,"is_disabled":false,"rental_uris":{"android":"levelo://app?vid=21a5bc84-856d-43a2-b028-f173da65e0c7","ios":"levelo://app?vid=21a5bc84-856d-43a2-b028-f173da65e0c7"},"vehicle_type_id":"4","last_reported":1744165271,"current_range_meters":3200,"station_id":"ce4bho12rcd13ifvqh1g","pricing_plan_id":"cebpf4jnsgd1na2vs0mg"},{"bike_id":"8b4a5c52-3413-49f2-b7f4-7f3508a08342","system_id":"levelo_inurba_marseille","lat":43.30241,"lon":5.40046,"is_reserved":false,"is_disabled":false,"rental_uris":{"android":"levelo://app?vid=8b4a5c52-3413-49f2-b7f4-7f3508a08342","ios":"levelo://app?vid=8b4a5c52-3413-49f2-b7f4-7f3508a08342"},"vehicle_type_id":"4","last_reported":1744165271,"current_range_meters":3600,"station_id":"ce4bgvh2rcd13ifvqcs0","pricing_plan_id":"cebpf4jnsgd1na2vs0mg"},{"bike_id":"3944b4a0-54fb-4d6c-af80-4ca20b89931c","system_id":"levelo_inurba_marseille","lat":43.279988,"lon":5.416509,"is_reserved":false,"is_disabled":false,"rental_uris":{"android":"levelo://app?vid=3944b4a0-54fb-4d6c-af80-4ca20b89931c","ios":"levelo://app?vid=3944b4a0-54fb-4d6c-af80-4ca20b89931c"},"vehicle_type_id":"4","last_reported":1744165271,"current_range_meters":3600,"station_id":"ce4bho12rcd13ifvqh1g","pricing_plan_id":"cebpf4jnsgd1na2vs0mg"},{"bike_id":"87bda883-ac94-49fc-94c2-3a86e52b4f97","system_id":"levelo_inurba_marseille","lat":43.30717,"lon":5.38337,"is_reserved":false,"is_disabled":false,"rental_uris":{"android":"levelo://app?vid=87bda883-ac94-49fc-94c2-3a86e52b4f97","ios":"levelo://app?vid=87bda883-ac94-49fc-94c2-3a86e52b4f97"},"vehicle_type_id":"4","last_reported":1744165271,"current_range_meters":3600,"station_id":"","pricing_plan_id":"cebpf4jnsgd1na2vs0mg"},{"bike_id":"b7c975f1-28d1-4655-a721-f9efee62b9d5","system_id":"levelo_inurba_marseille","lat":43.29797,"lon":5.40409,"is_reserved":false,"is_disabled":false,"rental_uris":{"android":"levelo://app?vid=b7c975f1-28d1-4655-a721-f9efee62b9d5","ios":"levelo://app?vid=b7c975f1-28d1-4655-a721-f9efee62b9d5"},"vehicle_type_id":"4","last_reported":1744165271,"current_range_meters":4400,"station_id":"ce4bh112rcd13ifvqd90","pricing_plan_id":"cebpf4jnsgd1na2vs0mg"},{"bike_id":"83048e5e-4a32-4a69-87af-ee93450509d9","system_id":"levelo_inurba_marseille","lat":43.29677,"lon":5.36621,"is_reserved":false,"is_disabled":false,"rental_uris":{"android":"levelo://app?vid=83048e5e-4a32-4a69-87af-ee93450509d9","ios":"levelo://app?vid=83048e5e-4a32-4a69-87af-ee93450509d9"},"vehicle_type_id":"4","last_reported":1744165271,"current_range_meters":4400,"station_id":"ce4bgn12rcd13ifvqbt0","pricing_plan_id":"cebpf4jnsgd1na2vs0mg"},{"bike_id":"97d81599-6c9d-4509-a79c-73a8d98c3d8b","system_id":"levelo_inurba_marseille","lat":43.30352,"lon":5.42471,"is_reserved":false,"is_disabled":true,"rental_uris":{"android":"levelo://app?vid=97d81599-6c9d-4509-a79c-73a8d98c3d8b","ios":"levelo://app?vid=97d81599-6c9d-4509-a79c-73a8d98c3d8b"},"vehicle_type_id":"4","last_reported":1744165271,"current_range_meters":4400,"station_id":"","pricing_plan_id":"cebpf4jnsgd1na2vs0mg"},{"bike_id":"31c9c43c-6350-4ac3-84d0-0d3b16b85229","system_id":"levelo_inurba_marseille","lat":43.281079,"lon":5.37835,"is_reserved":false,"is_disabled":false,"rental_uris":{"android":"levelo://app?vid=31c9c43c-6350-4ac3-84d0-0d3b16b85229","ios":"levelo://app?vid=31c9c43c-6350-4ac3-84d0-0d3b16b85229"},"vehicle_type_id":"4","last_reported":1744165271,"current_range_meters":4400,"station_id":"ce4bha12rcd13ifvqee0","pricing_plan_id":"cebpf4jnsgd1na2vs0mg"},{"bike_id":"5c28de0a-fbcc-46c1-82b0-7bba6dee6dff","system_id":"levelo_inurba_marseille","lat":43.3059,"lon":5.37205,"is_reserved":false,"is_disabled":false,"rental_uris":{"android":"levelo://app?vid=5c28de0a-fbcc-46c1-82b0-7bba6dee6dff","ios":"levelo://app?vid=5c28de0a-fbcc-46c1-82b0-7bba6dee6dff"},"vehicle_type_id":"4","last_reported":1744165271,"current_range_meters":4800,"station_id":"ce4bgqh2rcd13ifvqc4g","pricing_plan_id":"cebpf4jnsgd1na2vs0mg"},{"bike_id":"b30babdb-4682-4a47-ac66-3ae98de5026a","system_id":"levelo_inurba_marseille","lat":43.316882,"lon":5.404736,"is_reserved":false,"is_disabled":false,"rental_uris":{"android":"levelo://app?vid=b30babdb-4682-4a47-ac66-3ae98de5026a","ios":"levelo://app?vid=b30babdb-4682-4a47-ac66-3ae98de5026a"},"vehicle_type_id":"4","last_reported":1744165271,"current_range_meters":4800,"station_id":"ce4bh012rcd13ifvqd00","pricing_plan_id":"cebpf4jnsgd1na2vs0mg"},{"bike_id":"512c3935-cb43-4190-8f8b-8c2874341e39","system_id":"levelo_inurba_marseille","lat":43.30911,"lon":5.37858,"is_reserved":false,"is_disabled":false,"rental_uris":{"android":"levelo://app?vid=512c3935-cb43-4190-8f8b-8c2874341e39","ios":"levelo://app?vid=512c3935-cb43-4190-8f8b-8c2874341e39"},"vehicle_type_id":"4","last_reported":1744165271,"current_range_meters":5600,"station_id":"","pricing_plan_id":"cebpf4jnsgd1na2vs0mg"},{"bike_id":"4b8dddbd-4a73-4c7c-a615-40a931cd78e8","system_id":"levelo_inurba_marseille","lat":43.25083,"lon":5.39521,"is_reserved":false,"is_disabled":false,"rental_uris":{"android":"levelo://app?vid=4b8dddbd-4a73-4c7c-a615-40a931cd78e8","ios":"levelo://app?vid=4b8dddbd-4a73-4c7c-a615-40a931cd78e8"},"vehicle_type_id":"4","last_reported":1744165271,"current_range_meters":5600,"station_id":"ce4bhm12rcd13ifvqgkg","pricing_plan_id":"cebpf4jnsgd1na2vs0mg"},{"bike_id":"d3f35d20-0527-45ae-94a7-5416fa0141b3","system_id":"levelo_inurba_marseille","lat":43.287204,"lon":5.360849,"is_reserved":false,"is_disabled":false,"rental_uris":{"android":"levelo://app?vid=d3f35d20-0527-45ae-94a7-5416fa0141b3","ios":"levelo://app?vid=d3f35d20-0527-45ae-94a7-5416fa0141b3"},"vehicle_type_id":"4","last_reported":1744165271,"current_range_meters":5600,"station_id":"cki0cbj6b192h4jlfktg","pricing_plan_id":"cebpf4jnsgd1na2vs0mg"},{"bike_id":"a2bc1534-fa4c-44c0-9bf1-e145e671d810","system_id":"levelo_inurba_marseille","lat":43.30359,"lon":5.40036,"is_reserved":false,"is_disabled":false,"rental_uris":{"android":"levelo://app?vid=a2bc1534-fa4c-44c0-9bf1-e145e671d810","ios":"levelo://app?vid=a2bc1534-fa4c-44c0-9bf1-e145e671d810"},"vehicle_type_id":"4","last_reported":1744165271,"current_range_meters":5600,"station_id":"","pricing_plan_id":"cebpf4jnsgd1na2vs0mg"},{"bike_id":"52a3a737-d744-44aa-901d-daf29012d3d4","system_id":"levelo_inurba_marseille","lat":43.30898,"lon":5.3706,"is_reserved":false,"is_disabled":false,"rental_uris":{"android":"levelo://app?vid=52a3a737-d744-44aa-901d-daf29012d3d4","ios":"levelo://app?vid=52a3a737-d744-44aa-901d-daf29012d3d4"},"vehicle_type_id":"4","last_reported":1744165271,"current_range_meters":5600,"station_id":"","pricing_plan_id":"cebpf4jnsgd1na2vs0mg"},{"bike_id":"0fbdf58d-4917-4d24-8b4b-9c66b7b96e08","system_id":"levelo_inurba_marseille","lat":43.31765,"lon":5.39865,"is_reserved":false,"is_disabled":false,"rental_uris":{"android":"levelo://app?vid=0fbdf58d-4917-4d24-8b4b-9c66b7b96e08","ios":"levelo://app?vid=0fbdf58d-4917-4d24-8b4b-9c66b7b96e08"},"vehicle_type_id":"4","last_reported":1744165271,"current_range_meters":5600,"station_id":"","pricing_plan_id":"cebpf4jnsgd1na2vs0mg"},{"bike_id":"a2d46cb9-9eeb-44f6-ab18-0e5c210fd7b5","system_id":"levelo_inurba_marseille","lat":43.289384,"lon":5.366421,"is_reserved":false,"is_disabled":true,"rental_uris":{"android":"levelo://app?vid=a2d46cb9-9eeb-44f6-ab18-0e5c210fd7b5","ios":"levelo://app?vid=a2d46cb9-9eeb-44f6-ab18-0e5c210fd7b5"},"vehicle_type_id":"4","last_reported":1744165271,"current_range_meters":5600,"station_id":"ce4bhap2rcd13ifvqek0","pricing_plan_id":"cebpf4jnsgd1na2vs0mg"},{"bike_id":"e3cc047d-f933-413e-80b9-8141c7879c04","system_id":"levelo_inurba_marseille","lat":43.30306,"lon":5.36893,"is_reserved":false,"is_disabled":false,"rental_uris":{"android":"levelo://app?vid=e3cc047d-f933-413e-80b9-8141c7879c04","ios":"levelo://app?vid=e3cc047d-f933-413e-80b9-8141c7879c04"},"vehicle_type_id":"4","last_reported":1744165271,"current_range_meters":5600,"station_id":"ce4bgqh2rcd13ifvqc5g","pricing_plan_id":"cebpf4jnsgd1na2vs0mg"},{"bike_id":"49a7ec0f-b2f6-4743-b0f8-a332720609da","system_id":"levelo_inurba_marseille","lat":43.30298,"lon":5.39205,"is_reserved":false,"is_disabled":false,"rental_uris":{"android":"levelo://app?vid=49a7ec0f-b2f6-4743-b0f8-a332720609da","ios":"levelo://app?vid=49a7ec0f-b2f6-4743-b0f8-a332720609da"},"vehicle_type_id":"4","last_reported":1744165271,"current_range_meters":6000,"station_id":"ce4bgkh2rcd13ifvqbk0","pricing_plan_id":"cebpf4jnsgd1na2vs0mg"},{"bike_id":"3ea3a003-2b79-4394-9296-9c53c80fdbe9","system_id":"levelo_inurba_marseille","lat":43.27907,"lon":5.39581,"is_reserved":false,"is_disabled":false,"rental_uris":{"android":"levelo://app?vid=3ea3a003-2b79-4394-9296-9c53c80fdbe9","ios":"levelo://app?vid=3ea3a003-2b79-4394-9296-9c53c80fdbe9"},"vehicle_type_id":"4","last_reported":1744165271,"current_range_meters":6000,"station_id":"ce4bhf92rcd13ifvqf40","pricing_plan_id":"cebpf4jnsgd1na2vs0mg"},{"bike_id":"94cc02d0-1cba-4ce3-a6ee-2b2a43266460","system_id":"levelo_inurba_marseille","lat":43.25087,"lon":5.39524,"is_reserved":false,"is_disabled":false,"rental_uris":{"android":"levelo://app?vid=94cc02d0-1cba-4ce3-a6ee-2b2a43266460","ios":"levelo://app?vid=94cc02d0-1cba-4ce3-a6ee-2b2a43266460"},"vehicle_type_id":"4","last_reported":1744165271,"current_range_meters":6000,"station_id":"ce4bhm12rcd13ifvqgkg","pricing_plan_id":"cebpf4jnsgd1na2vs0mg"},{"bike_id":"01c10d9c-6749-4cb0-95a9-9e7a13065362","system_id":"levelo_inurba_marseille","lat":43.25926,"lon":5.40936,"is_reserved":false,"is_disabled":false,"rental_uris":{"android":"levelo://app?vid=01c10d9c-6749-4cb0-95a9-9e7a13065362","ios":"levelo://app?vid=01c10d9c-6749-4cb0-95a9-9e7a13065362"},"vehicle_type_id":"4","last_reported":1744165271,"current_range_meters":6000,"station_id":"ce4bhm92rcd13ifvqglg","pricing_plan_id":"cebpf4jnsgd1na2vs0mg"},{"bike_id":"3b1b06f6-0833-42e0-b5ab-25b3a7513ab2","system_id":"levelo_inurba_marseille","lat":43.30937,"lon":5.39056,"is_reserved":false,"is_disabled":false,"rental_uris":{"android":"levelo://app?vid=3b1b06f6-0833-42e0-b5ab-25b3a7513ab2","ios":"levelo://app?vid=3b1b06f6-0833-42e0-b5ab-25b3a7513ab2"},"vehicle_type_id":"4","last_reported":1744165271,"current_range_meters":6000,"station_id":"ce4bgup2rcd13ifvqco0","pricing_plan_id":"cebpf4jnsgd1na2vs0mg"},{"bike_id":"e7e1ab45-7d32-4b6d-ad17-3b30963cb3b2","system_id":"levelo_inurba_marseille","lat":43.25083,"lon":5.39513,"is_reserved":false,"is_disabled":false,"rental_uris":{"android":"levelo://app?vid=e7e1ab45-7d32-4b6d-ad17-3b30963cb3b2","ios":"levelo://app?vid=e7e1ab45-7d32-4b6d-ad17-3b30963cb3b2"},"vehicle_type_id":"4","last_reported":1744165271,"current_range_meters":6000,"station_id":"ce4bhm12rcd13ifvqgkg","pricing_plan_id":"cebpf4jnsgd1na2vs0mg"},{"bike_id":"95e4d341-aa1d-45d3-97d4-58ce3861535b","system_id":"levelo_inurba_marseille","lat":43.21187,"lon":5.35082,"is_reserved":false,"is_disabled":true,"rental_uris":{"android":"levelo://app?vid=95e4d341-aa1d-45d3-97d4-58ce3861535b","ios":"levelo://app?vid=95e4d341-aa1d-45d3-97d4-58ce3861535b"},"vehicle_type_id":"4","last_reported":1744165271,"current_range_meters":6000,"station_id":"","pricing_plan_id":"cebpf4jnsgd1na2vs0mg"},{"bike_id":"fe15bbb3-41d5-44a5-be9a-d99b3ed36373","system_id":"levelo_inurba_marseille","lat":43.2845,"lon":5.39196,"is_reserved":false,"is_disabled":true,"rental_uris":{"android":"levelo://app?vid=fe15bbb3-41d5-44a5-be9a-d99b3ed36373","ios":"levelo://app?vid=fe15bbb3-41d5-44a5-be9a-d99b3ed36373"},"vehicle_type_id":"4","last_reported":1744165271,"current_range_meters":6400,"station_id":"ce4bhoh2rcd13ifvqh5g","pricing_plan_id":"cebpf4jnsgd1na2vs0mg"},{"bike_id":"c5fb24e6-da81-4c8b-a57b-0bdcae5727b6","system_id":"levelo_inurba_marseille","lat":43.250873,"lon":5.395156,"is_reserved":false,"is_disabled":false,"rental_uris":{"android":"levelo://app?vid=c5fb24e6-da81-4c8b-a57b-0bdcae5727b6","ios":"levelo://app?vid=c5fb24e6-da81-4c8b-a57b-0bdcae5727b6"},"vehicle_type_id":"4","last_reported":1744165271,"current_range_meters":6400,"station_id":"ce4bhm12rcd13ifvqgkg","pricing_plan_id":"cebpf4jnsgd1na2vs0mg"},{"bike_id":"995e03b4-eefd-46d7-9d4d-abb00a296bb5","system_id":"levelo_inurba_marseille","lat":43.23188,"lon":5.39982,"is_reserved":false,"is_disabled":false,"rental_uris":{"android":"levelo://app?vid=995e03b4-eefd-46d7-9d4d-abb00a296bb5","ios":"levelo://app?vid=995e03b4-eefd-46d7-9d4d-abb00a296bb5"},"vehicle_type_id":"4","last_reported":1744165271,"current_range_meters":6400,"station_id":"ce4bhn12rcd13ifvqgqg","pricing_plan_id":"cebpf4jnsgd1na2vs0mg"},{"bike_id":"491aea1b-487e-4207-a384-488767ae1224","system_id":"levelo_inurba_marseille","lat":43.25117,"lon":5.40307,"is_reserved":false,"is_disabled":false,"rental_uris":{"android":"levelo://app?vid=491aea1b-487e-4207-a384-488767ae1224","ios":"levelo://app?vid=491aea1b-487e-4207-a384-488767ae1224"},"vehicle_type_id":"4","last_reported":1744165271,"current_range_meters":6400,"station_id":"ce4bhlh2rcd13ifvqgig","pricing_plan_id":"cebpf4jnsgd1na2vs0mg"},{"bike_id":"02f5f556-9aca-41a9-928c-e217b6392b4b","system_id":"levelo_inurba_marseille","lat":43.31827,"lon":5.43511,"is_reserved":false,"is_disabled":false,"rental_uris":{"android":"levelo://app?vid=02f5f556-9aca-41a9-928c-e217b6392b4b","ios":"levelo://app?vid=02f5f556-9aca-41a9-928c-e217b6392b4b"},"vehicle_type_id":"4","last_reported":1744165271,"current_range_meters":6400,"station_id":"","pricing_plan_id":"cebpf4jnsgd1na2vs0mg"},{"bike_id":"ecef8e9e-03dc-4612-b74e-b978f92e2873","system_id":"levelo_inurba_marseille","lat":43.30103,"lon":5.39087,"is_reserved":false,"is_disabled":true,"rental_uris":{"android":"levelo://app?vid=ecef8e9e-03dc-4612-b74e-b978f92e2873","ios":"levelo://app?vid=ecef8e9e-03dc-4612-b74e-b978f92e2873"},"vehicle_type_id":"4","last_reported":1744165271,"current_range_meters":6400,"station_id":"ce4bh192rcd13ifvqdb0","pricing_plan_id":"cebpf4jnsgd1na2vs0mg"},{"bike_id":"35a9b3bf-fcf8-4f5d-9807-70a22f3ce6b3","system_id":"levelo_inurba_marseille","lat":43.29578,"lon":5.39952,"is_reserved":false,"is_disabled":false,"rental_uris":{"android":"levelo://app?vid=35a9b3bf-fcf8-4f5d-9807-70a22f3ce6b3","ios":"levelo://app?vid=35a9b3bf-fcf8-4f5d-9807-70a22f3ce6b3"},"vehicle_type_id":"4","last_reported":1744165271,"current_range_meters":6400,"station_id":"ce4bh312rcd13ifvqdj0","pricing_plan_id":"cebpf4jnsgd1na2vs0mg"},{"bike_id":"6ab4d61d-93c3-47be-b0ad-8677e7354ce9","system_id":"levelo_inurba_marseille","lat":43.28719,"lon":5.36103,"is_reserved":false,"is_disabled":false,"rental_uris":{"android":"levelo://app?vid=6ab4d61d-93c3-47be-b0ad-8677e7354ce9","ios":"levelo://app?vid=6ab4d61d-93c3-47be-b0ad-8677e7354ce9"},"vehicle_type_id":"4","last_reported":1744165271,"current_range_meters":6400,"station_id":"cki0cbj6b192h4jlfktg","pricing_plan_id":"cebpf4jnsgd1na2vs0mg"},{"bike_id":"f39be6f5-2f69-4c37-b021-559d20b299a4","system_id":"levelo_inurba_marseille","lat":43.300171,"lon":5.376417,"is_reserved":false,"is_disabled":false,"rental_uris":{"android":"levelo://app?vid=f39be6f5-2f69-4c37-b021-559d20b299a4","ios":"levelo://app?vid=f39be6f5-2f69-4c37-b021-559d20b299a4"},"vehicle_type_id":"4","last_reported":1744165271,"current_range_meters":6400,"station_id":"","pricing_plan_id":"cebpf4jnsgd1na2vs0mg"},{"bike_id":"0136aac7-4b11-408a-8016-8954df1c7c11","system_id":"levelo_inurba_marseille","lat":43.295724,"lon":5.399684,"is_reserved":false,"is_disabled":false,"rental_uris":{"android":"levelo://app?vid=0136aac7-4b11-408a-8016-8954df1c7c11","ios":"levelo://app?vid=0136aac7-4b11-408a-8016-8954df1c7c11"},"vehicle_type_id":"4","last_reported":1744165271,"current_range_meters":6800,"station_id":"ce4bh312rcd13ifvqdj0","pricing_plan_id":"cebpf4jnsgd1na2vs0mg"},{"bike_id":"f4822b87-2284-4a37-8410-69cf3e5cbb74","system_id":"levelo_inurba_marseille","lat":43.286628,"lon":5.363502,"is_reserved":false,"is_disabled":false,"rental_uris":{"android":"levelo://app?vid=f4822b87-2284-4a37-8410-69cf3e5cbb74","ios":"levelo://app?vid=f4822b87-2284-4a37-8410-69cf3e5cbb74"},"vehicle_type_id":"4","last_reported":1744165271,"current_range_meters":6800,"station_id":"ce4bhah2rcd13ifvqej0","pricing_plan_id":"cebpf4jnsgd1na2vs0mg"},{"bike_id":"3576b946-70b3-456f-a60a-d98e227f015c","system_id":"levelo_inurba_marseille","lat":43.30098,"lon":5.38221,"is_reserved":false,"is_disabled":false,"rental_uris":{"android":"levelo://app?vid=3576b946-70b3-456f-a60a-d98e227f015c","ios":"levelo://app?vid=3576b946-70b3-456f-a60a-d98e227f015c"},"vehicle_type_id":"4","last_reported":1744165271,"current_range_meters":6800,"station_id":"ce4bgup2rcd13ifvqcn0","pricing_plan_id":"cebpf4jnsgd1na2vs0mg"},{"bike_id":"caa842d6-9249-4d70-a77b-fca8b6526707","system_id":"levelo_inurba_marseille","lat":43.26563,"lon":5.39042,"is_reserved":false,"is_disabled":false,"rental_uris":{"android":"levelo://app?vid=caa842d6-9249-4d70-a77b-fca8b6526707","ios":"levelo://app?vid=caa842d6-9249-4d70-a77b-fca8b6526707"},"vehicle_type_id":"4","last_reported":1744165271,"current_range_meters":6800,"station_id":"ce4bhe12rcd13ifvqf30","pricing_plan_id":"cebpf4jnsgd1na2vs0mg"},{"bike_id":"61faeab7-d3b1-42ea-8185-a6bb834269b2","system_id":"levelo_inurba_marseille","lat":43.27124,"lon":5.41438,"is_reserved":false,"is_disabled":false,"rental_uris":{"android":"levelo://app?vid=61faeab7-d3b1-42ea-8185-a6bb834269b2","ios":"levelo://app?vid=61faeab7-d3b1-42ea-8185-a6bb834269b2"},"vehicle_type_id":"4","last_reported":1744165271,"current_range_meters":6800,"station_id":"","pricing_plan_id":"cebpf4jnsgd1na2vs0mg"},{"bike_id":"456b79bb-81b6-42d9-a52b-1ca6c839f098","system_id":"levelo_inurba_marseille","lat":43.304125,"lon":5.412819,"is_reserved":false,"is_disabled":true,"rental_uris":{"android":"levelo://app?vid=456b79bb-81b6-42d9-a52b-1ca6c839f098","ios":"levelo://app?vid=456b79bb-81b6-42d9-a52b-1ca6c839f098"},"vehicle_type_id":"4","last_reported":1744165271,"current_range_meters":6800,"station_id":"ce4bhop2rcd13ifvqh8g","pricing_plan_id":"cebpf4jnsgd1na2vs0mg"},{"bike_id":"2e9000dc-6400-4918-a994-dd60039ca96d","system_id":"levelo_inurba_marseille","lat":43.31992,"lon":5.3827,"is_reserved":false,"is_disabled":true,"rental_uris":{"android":"levelo://app?vid=2e9000dc-6400-4918-a994-dd60039ca96d","ios":"levelo://app?vid=2e9000dc-6400-4918-a994-dd60039ca96d"},"vehicle_type_id":"4","last_reported":1744165271,"current_range_meters":6800,"station_id":"","pricing_plan_id":"cebpf4jnsgd1na2vs0mg"},{"bike_id":"af02a3e1-9b40-4bd4-8597-818030bdac25","system_id":"levelo_inurba_marseille","lat":43.296937,"lon":5.438193,"is_reserved":false,"is_disabled":false,"rental_uris":{"android":"levelo://app?vid=af02a3e1-9b40-4bd4-8597-818030bdac25","ios":"levelo://app?vid=af02a3e1-9b40-4bd4-8597-818030bdac25"},"vehicle_type_id":"4","last_reported":1744165271,"current_range_meters":7200,"station_id":"","pricing_plan_id":"cebpf4jnsgd1na2vs0mg"},{"bike_id":"82f28cf6-556c-431d-a12b-bd3ce5fc2f28","system_id":"levelo_inurba_marseille","lat":43.275093,"lon":5.377476,"is_reserved":false,"is_disabled":false,"rental_uris":{"android":"levelo://app?vid=82f28cf6-556c-431d-a12b-bd3ce5fc2f28","ios":"levelo://app?vid=82f28cf6-556c-431d-a12b-bd3ce5fc2f28"},"vehicle_type_id":"4","last_reported":1744165271,"current_range_meters":7200,"station_id":"","pricing_plan_id":"cebpf4jnsgd1na2vs0mg"},{"bike_id":"b9d1d5af-bea1-4034-b95f-410563597dbc","system_id":"levelo_inurba_marseille","lat":43.30804,"lon":5.38154,"is_reserved":false,"is_disabled":false,"rental_uris":{"android":"levelo://app?vid=b9d1d5af-bea1-4034-b95f-410563597dbc","ios":"levelo://app?vid=b9d1d5af-bea1-4034-b95f-410563597dbc"},"vehicle_type_id":"4","last_reported":1744165271,"current_range_meters":7200,"station_id":"ce4bgt12rcd13ifvqce0","pricing_plan_id":"cebpf4jnsgd1na2vs0mg"},{"bike_id":"f17ce36f-e80a-4732-89e2-7a7dfab19d87","system_id":"levelo_inurba_marseille","lat":43.29903,"lon":5.4365,"is_reserved":false,"is_disabled":false,"rental_uris":{"android":"levelo://app?vid=f17ce36f-e80a-4732-89e2-7a7dfab19d87","ios":"levelo://app?vid=f17ce36f-e80a-4732-89e2-7a7dfab19d87"},"vehicle_type_id":"4","last_reported":1744165271,"current_range_meters":8000,"station_id":"ce4bhpp2rcd13ifvqhfg","pricing_plan_id":"cebpf4jnsgd1na2vs0mg"},{"bike_id":"e4a24fb8-6cfd-4e67-9f86-b5717b140f9c","system_id":"levelo_inurba_marseille","lat":43.2962,"lon":5.40603,"is_reserved":false,"is_disabled":false,"rental_uris":{"android":"levelo://app?vid=e4a24fb8-6cfd-4e67-9f86-b5717b140f9c","ios":"levelo://app?vid=e4a24fb8-6cfd-4e67-9f86-b5717b140f9c"},"vehicle_type_id":"4","last_reported":1744165271,"current_range_meters":8000,"station_id":"ce4bh0h2rcd13ifvqd60","pricing_plan_id":"cebpf4jnsgd1na2vs0mg"},{"bike_id":"49bd6e77-d561-4866-886e-a2b311584d16","system_id":"levelo_inurba_marseille","lat":43.28665,"lon":5.36356,"is_reserved":false,"is_disabled":false,"rental_uris":{"android":"levelo://app?vid=49bd6e77-d561-4866-886e-a2b311584d16","ios":"levelo://app?vid=49bd6e77-d561-4866-886e-a2b311584d16"},"vehicle_type_id":"4","last_reported":1744165271,"current_range_meters":8000,"station_id":"ce4bhah2rcd13ifvqej0","pricing_plan_id":"cebpf4jnsgd1na2vs0mg"},{"bike_id":"81b4eeec-d26b-4050-a92d-04743fb93072","system_id":"levelo_inurba_marseille","lat":43.23188,"lon":5.399866,"is_reserved":false,"is_disabled":true,"rental_uris":{"android":"levelo://app?vid=81b4eeec-d26b-4050-a92d-04743fb93072","ios":"levelo://app?vid=81b4eeec-d26b-4050-a92d-04743fb93072"},"vehicle_type_id":"4","last_reported":1744165271,"current_range_meters":8000,"station_id":"ce4bhn12rcd13ifvqgqg","pricing_plan_id":"cebpf4jnsgd1na2vs0mg"},{"bike_id":"70810d3e-9936-4863-b211-84f880613e88","system_id":"levelo_inurba_marseille","lat":43.312877,"lon":5.373158,"is_reserved":false,"is_disabled":false,"rental_uris":{"android":"levelo://app?vid=70810d3e-9936-4863-b211-84f880613e88","ios":"levelo://app?vid=70810d3e-9936-4863-b211-84f880613e88"},"vehicle_type_id":"4","last_reported":1744165271,"current_range_meters":8000,"station_id":"","pricing_plan_id":"cebpf4jnsgd1na2vs0mg"},{"bike_id":"ec41b842-c84f-4ab1-894c-fc6101e00efb","system_id":"levelo_inurba_marseille","lat":43.317038,"lon":5.402999,"is_reserved":false,"is_disabled":false,"rental_uris":{"android":"levelo://app?vid=ec41b842-c84f-4ab1-894c-fc6101e00efb","ios":"levelo://app?vid=ec41b842-c84f-4ab1-894c-fc6101e00efb"},"vehicle_type_id":"4","last_reported":1744165271,"current_range_meters":8000,"station_id":"","pricing_plan_id":"cebpf4jnsgd1na2vs0mg"},{"bike_id":"90468961-ea62-48b3-8f76-e769f3c1c672","system_id":"levelo_inurba_marseille","lat":43.31726,"lon":5.424,"is_reserved":false,"is_disabled":false,"rental_uris":{"android":"levelo://app?vid=90468961-ea62-48b3-8f76-e769f3c1c672","ios":"levelo://app?vid=90468961-ea62-48b3-8f76-e769f3c1c672"},"vehicle_type_id":"4","last_reported":1744165271,"current_range_meters":8000,"station_id":"ce4bhp92rcd13ifvqhbg","pricing_plan_id":"cebpf4jnsgd1na2vs0mg"},{"bike_id":"40effb84-61ea-47dd-adb9-cf78a700dc94","system_id":"levelo_inurba_marseille","lat":43.28711,"lon":5.39977,"is_reserved":false,"is_disabled":false,"rental_uris":{"android":"levelo://app?vid=40effb84-61ea-47dd-adb9-cf78a700dc94","ios":"levelo://app?vid=40effb84-61ea-47dd-adb9-cf78a700dc94"},"vehicle_type_id":"4","last_reported":1744165271,"current_range_meters":8000,"station_id":"ce4bho92rcd13ifvqh3g","pricing_plan_id":"cebpf4jnsgd1na2vs0mg"},{"bike_id":"37b2591d-7265-4820-a87b-554301495f71","system_id":"levelo_inurba_marseille","lat":43.28947,"lon":5.36621,"is_reserved":false,"is_disabled":true,"rental_uris":{"android":"levelo://app?vid=37b2591d-7265-4820-a87b-554301495f71","ios":"levelo://app?vid=37b2591d-7265-4820-a87b-554301495f71"},"vehicle_type_id":"4","last_reported":1744165271,"current_range_meters":8400,"station_id":"ce4bhap2rcd13ifvqek0","pricing_plan_id":"cebpf4jnsgd1na2vs0mg"},{"bike_id":"74b78a6e-275c-47e0-b1ed-2ccf34bd59b9","system_id":"levelo_inurba_marseille","lat":43.3016,"lon":5.36634,"is_reserved":false,"is_disabled":false,"rental_uris":{"android":"levelo://app?vid=74b78a6e-275c-47e0-b1ed-2ccf34bd59b9","ios":"levelo://app?vid=74b78a6e-275c-47e0-b1ed-2ccf34bd59b9"},"vehicle_type_id":"4","last_reported":1744165271,"current_range_meters":8400,"station_id":"ce4bgrh2rcd13ifvqc8g","pricing_plan_id":"cebpf4jnsgd1na2vs0mg"},{"bike_id":"5cd1fd40-06f1-4a7e-84bc-4417ad88331e","system_id":"levelo_inurba_marseille","lat":43.2811,"lon":5.37826,"is_reserved":false,"is_disabled":false,"rental_uris":{"android":"levelo://app?vid=5cd1fd40-06f1-4a7e-84bc-4417ad88331e","ios":"levelo://app?vid=5cd1fd40-06f1-4a7e-84bc-4417ad88331e"},"vehicle_type_id":"4","last_reported":1744165271,"current_range_meters":8400,"station_id":"ce4bha12rcd13ifvqee0","pricing_plan_id":"cebpf4jnsgd1na2vs0mg"},{"bike_id":"0bc951e7-9df1-4035-a17c-7207093a2123","system_id":"levelo_inurba_marseille","lat":43.27051,"lon":5.4025,"is_reserved":false,"is_disabled":false,"rental_uris":{"android":"levelo://app?vid=0bc951e7-9df1-4035-a17c-7207093a2123","ios":"levelo://app?vid=0bc951e7-9df1-4035-a17c-7207093a2123"},"vehicle_type_id":"4","last_reported":1744165271,"current_range_meters":8400,"station_id":"ce4bhk92rcd13ifvqgc0","pricing_plan_id":"cebpf4jnsgd1na2vs0mg"},{"bike_id":"9b757910-c3ed-4a06-a368-8bfd9d50c7d2","system_id":"levelo_inurba_marseille","lat":43.284119,"lon":5.375054,"is_reserved":false,"is_disabled":false,"rental_uris":{"android":"levelo://app?vid=9b757910-c3ed-4a06-a368-8bfd9d50c7d2","ios":"levelo://app?vid=9b757910-c3ed-4a06-a368-8bfd9d50c7d2"},"vehicle_type_id":"4","last_reported":1744165271,"current_range_meters":8400,"station_id":"ce4bh412rcd13ifvqds0","pricing_plan_id":"cebpf4jnsgd1na2vs0mg"},{"bike_id":"be757470-b529-482c-8aa3-d5e9918b54f1","system_id":"levelo_inurba_marseille","lat":43.284,"lon":5.37521,"is_reserved":false,"is_disabled":false,"rental_uris":{"android":"levelo://app?vid=be757470-b529-482c-8aa3-d5e9918b54f1","ios":"levelo://app?vid=be757470-b529-482c-8aa3-d5e9918b54f1"},"vehicle_type_id":"4","last_reported":1744165271,"current_range_meters":8400,"station_id":"ce4bh412rcd13ifvqds0","pricing_plan_id":"cebpf4jnsgd1na2vs0mg"},{"bike_id":"ffe06810-5584-4421-889d-508aad74984f","system_id":"levelo_inurba_marseille","lat":43.26196,"lon":5.37461,"is_reserved":false,"is_disabled":false,"rental_uris":{"android":"levelo://app?vid=ffe06810-5584-4421-889d-508aad74984f","ios":"levelo://app?vid=ffe06810-5584-4421-889d-508aad74984f"},"vehicle_type_id":"4","last_reported":1744165271,"current_range_meters":8400,"station_id":"ce4bhgp2rcd13ifvqfc0","pricing_plan_id":"cebpf4jnsgd1na2vs0mg"},{"bike_id":"3d0cae43-5b75-4aac-b7cb-471ce1151dd5","system_id":"levelo_inurba_marseille","lat":43.32997,"lon":5.39521,"is_reserved":false,"is_disabled":false,"rental_uris":{"android":"levelo://app?vid=3d0cae43-5b75-4aac-b7cb-471ce1151dd5","ios":"levelo://app?vid=3d0cae43-5b75-4aac-b7cb-471ce1151dd5"},"vehicle_type_id":"4","last_reported":1744165271,"current_range_meters":8400,"station_id":"","pricing_plan_id":"cebpf4jnsgd1na2vs0mg"},{"bike_id":"9ae6852b-6b22-43ab-9ed3-b9ba4d298e4b","system_id":"levelo_inurba_marseille","lat":43.26243,"lon":5.40455,"is_reserved":false,"is_disabled":false,"rental_uris":{"android":"levelo://app?vid=9ae6852b-6b22-43ab-9ed3-b9ba4d298e4b","ios":"levelo://app?vid=9ae6852b-6b22-43ab-9ed3-b9ba4d298e4b"},"vehicle_type_id":"4","last_reported":1744165271,"current_range_meters":8400,"station_id":"ce4bhmh2rcd13ifvqgmg","pricing_plan_id":"cebpf4jnsgd1na2vs0mg"},{"bike_id":"1a028b86-b054-442e-8a5b-70299b506d2e","system_id":"levelo_inurba_marseille","lat":43.3088,"lon":5.39653,"is_reserved":false,"is_disabled":false,"rental_uris":{"android":"levelo://app?vid=1a028b86-b054-442e-8a5b-70299b506d2e","ios":"levelo://app?vid=1a028b86-b054-442e-8a5b-70299b506d2e"},"vehicle_type_id":"4","last_reported":1744165271,"current_range_meters":8400,"station_id":"ce4bh012rcd13ifvqcv0","pricing_plan_id":"cebpf4jnsgd1na2vs0mg"},{"bike_id":"8dc7d24a-a0ab-4f7c-9c56-3682d61432bf","system_id":"levelo_inurba_marseille","lat":43.29934,"lon":5.36535,"is_reserved":false,"is_disabled":false,"rental_uris":{"android":"levelo://app?vid=8dc7d24a-a0ab-4f7c-9c56-3682d61432bf","ios":"levelo://app?vid=8dc7d24a-a0ab-4f7c-9c56-3682d61432bf"},"vehicle_type_id":"4","last_reported":1744165271,"current_range_meters":8400,"station_id":"ce4bgm92rcd13ifvqbr0","pricing_plan_id":"cebpf4jnsgd1na2vs0mg"},{"bike_id":"ff85d859-6e25-4ab6-9dd4-461048d94450","system_id":"levelo_inurba_marseille","lat":43.31165,"lon":5.387116,"is_reserved":false,"is_disabled":false,"rental_uris":{"android":"levelo://app?vid=ff85d859-6e25-4ab6-9dd4-461048d94450","ios":"levelo://app?vid=ff85d859-6e25-4ab6-9dd4-461048d94450"},"vehicle_type_id":"4","last_reported":1744165271,"current_range_meters":8800,"station_id":"ce4bgv12rcd13ifvqcp0","pricing_plan_id":"cebpf4jnsgd1na2vs0mg"},{"bike_id":"333bf4b5-be21-4a48-8804-3c950d845e91","system_id":"levelo_inurba_marseille","lat":43.292663,"lon":5.376208,"is_reserved":false,"is_disabled":false,"rental_uris":{"android":"levelo://app?vid=333bf4b5-be21-4a48-8804-3c950d845e91","ios":"levelo://app?vid=333bf4b5-be21-4a48-8804-3c950d845e91"},"vehicle_type_id":"4","last_reported":1744165271,"current_range_meters":8800,"station_id":"ce4bgi12rcd13ifvqb80","pricing_plan_id":"cebpf4jnsgd1na2vs0mg"},{"bike_id":"68d1cc33-0218-451e-8e10-d32225c21263","system_id":"levelo_inurba_marseille","lat":43.23151,"lon":5.43708,"is_reserved":false,"is_disabled":true,"rental_uris":{"android":"levelo://app?vid=68d1cc33-0218-451e-8e10-d32225c21263","ios":"levelo://app?vid=68d1cc33-0218-451e-8e10-d32225c21263"},"vehicle_type_id":"4","last_reported":1744165271,"current_range_meters":8800,"station_id":"ce4bhmp2rcd13ifvqgog","pricing_plan_id":"cebpf4jnsgd1na2vs0mg"},{"bike_id":"5e6ad826-38da-4531-b4ba-2eda8622ede3","system_id":"levelo_inurba_marseille","lat":43.3109,"lon":5.40465,"is_reserved":false,"is_disabled":false,"rental_uris":{"android":"levelo://app?vid=5e6ad826-38da-4531-b4ba-2eda8622ede3","ios":"levelo://app?vid=5e6ad826-38da-4531-b4ba-2eda8622ede3"},"vehicle_type_id":"4","last_reported":1744165271,"current_range_meters":8800,"station_id":"","pricing_plan_id":"cebpf4jnsgd1na2vs0mg"},{"bike_id":"001d030a-fc69-452b-9ccd-8ef8e3c0f0ec","system_id":"levelo_inurba_marseille","lat":43.31681,"lon":5.40486,"is_reserved":false,"is_disabled":false,"rental_uris":{"android":"levelo://app?vid=001d030a-fc69-452b-9ccd-8ef8e3c0f0ec","ios":"levelo://app?vid=001d030a-fc69-452b-9ccd-8ef8e3c0f0ec"},"vehicle_type_id":"4","last_reported":1744165271,"current_range_meters":8800,"station_id":"ce4bh012rcd13ifvqd00","pricing_plan_id":"cebpf4jnsgd1na2vs0mg"},{"bike_id":"8c3a87bc-d5ff-412d-93d9-dc60835ec37a","system_id":"levelo_inurba_marseille","lat":43.28839,"lon":5.35869,"is_reserved":false,"is_disabled":false,"rental_uris":{"android":"levelo://app?vid=8c3a87bc-d5ff-412d-93d9-dc60835ec37a","ios":"levelo://app?vid=8c3a87bc-d5ff-412d-93d9-dc60835ec37a"},"vehicle_type_id":"4","last_reported":1744165271,"current_range_meters":9200,"station_id":"ce4bhb12rcd13ifvqem0","pricing_plan_id":"cebpf4jnsgd1na2vs0mg"},{"bike_id":"7cbc3abb-d96e-46ad-87a3-e0fdd1126f87","system_id":"levelo_inurba_marseille","lat":43.31375,"lon":5.38498,"is_reserved":false,"is_disabled":false,"rental_uris":{"android":"levelo://app?vid=7cbc3abb-d96e-46ad-87a3-e0fdd1126f87","ios":"levelo://app?vid=7cbc3abb-d96e-46ad-87a3-e0fdd1126f87"},"vehicle_type_id":"4","last_reported":1744165271,"current_range_meters":9200,"station_id":"ce4bgt92rcd13ifvqcf0","pricing_plan_id":"cebpf4jnsgd1na2vs0mg"},{"bike_id":"111c76dd-f0f7-46e3-85a8-314ab6ead02d","system_id":"levelo_inurba_marseille","lat":43.24669,"lon":5.3813,"is_reserved":false,"is_disabled":false,"rental_uris":{"android":"levelo://app?vid=111c76dd-f0f7-46e3-85a8-314ab6ead02d","ios":"levelo://app?vid=111c76dd-f0f7-46e3-85a8-314ab6ead02d"},"vehicle_type_id":"4","last_reported":1744165271,"current_range_meters":9200,"station_id":"ce4bhih2rcd13ifvqfr0","pricing_plan_id":"cebpf4jnsgd1na2vs0mg"},{"bike_id":"4b2937b2-181e-4485-9356-c12fb210030a","system_id":"levelo_inurba_marseille","lat":43.28418,"lon":5.37505,"is_reserved":false,"is_disabled":false,"rental_uris":{"android":"levelo://app?vid=4b2937b2-181e-4485-9356-c12fb210030a","ios":"levelo://app?vid=4b2937b2-181e-4485-9356-c12fb210030a"},"vehicle_type_id":"4","last_reported":1744165271,"current_range_meters":9200,"station_id":"ce4bh412rcd13ifvqds0","pricing_plan_id":"cebpf4jnsgd1na2vs0mg"},{"bike_id":"0aa02c49-cbb3-4907-a588-f754056f3ba8","system_id":"levelo_inurba_marseille","lat":43.30802,"lon":5.38148,"is_reserved":false,"is_disabled":true,"rental_uris":{"android":"levelo://app?vid=0aa02c49-cbb3-4907-a588-f754056f3ba8","ios":"levelo://app?vid=0aa02c49-cbb3-4907-a588-f754056f3ba8"},"vehicle_type_id":"4","last_reported":1744165271,"current_range_meters":9200,"station_id":"ce4bgt12rcd13ifvqce0","pricing_plan_id":"cebpf4jnsgd1na2vs0mg"},{"bike_id":"87babd59-e462-416b-b47f-71c50fccbaf1","system_id":"levelo_inurba_marseille","lat":43.287075,"lon":5.400023,"is_reserved":false,"is_disabled":false,"rental_uris":{"android":"levelo://app?vid=87babd59-e462-416b-b47f-71c50fccbaf1","ios":"levelo://app?vid=87babd59-e462-416b-b47f-71c50fccbaf1"},"vehicle_type_id":"4","last_reported":1744165271,"current_range_meters":9200,"station_id":"ce4bho92rcd13ifvqh3g","pricing_plan_id":"cebpf4jnsgd1na2vs0mg"},{"bike_id":"ca1cb9af-e981-4da8-ae84-4ca0779eecf9","system_id":"levelo_inurba_marseille","lat":43.31517,"lon":5.37272,"is_reserved":false,"is_disabled":false,"rental_uris":{"android":"levelo://app?vid=ca1cb9af-e981-4da8-ae84-4ca0779eecf9","ios":"levelo://app?vid=ca1cb9af-e981-4da8-ae84-4ca0779eecf9"},"vehicle_type_id":"4","last_reported":1744165271,"current_range_meters":9200,"station_id":"ce4bgt12rcd13ifvqcd0","pricing_plan_id":"cebpf4jnsgd1na2vs0mg"},{"bike_id":"5ded2f45-d133-4ba6-84c5-730139f92490","system_id":"levelo_inurba_marseille","lat":43.30789,"lon":5.38163,"is_reserved":false,"is_disabled":false,"rental_uris":{"android":"levelo://app?vid=5ded2f45-d133-4ba6-84c5-730139f92490","ios":"levelo://app?vid=5ded2f45-d133-4ba6-84c5-730139f92490"},"vehicle_type_id":"4","last_reported":1744165271,"current_range_meters":9200,"station_id":"ce4bgt12rcd13ifvqce0","pricing_plan_id":"cebpf4jnsgd1na2vs0mg"},{"bike_id":"b0594ff5-b7c1-49cd-8189-6959c0986958","system_id":"levelo_inurba_marseille","lat":43.289378,"lon":5.36638,"is_reserved":false,"is_disabled":false,"rental_uris":{"android":"levelo://app?vid=b0594ff5-b7c1-49cd-8189-6959c0986958","ios":"levelo://app?vid=b0594ff5-b7c1-49cd-8189-6959c0986958"},"vehicle_type_id":"4","last_reported":1744165271,"current_range_meters":9200,"station_id":"ce4bhap2rcd13ifvqek0","pricing_plan_id":"cebpf4jnsgd1na2vs0mg"},{"bike_id":"df136d95-e79c-413e-88c1-df03fad44875","system_id":"levelo_inurba_marseille","lat":43.31094,"lon":5.38351,"is_reserved":false,"is_disabled":false,"rental_uris":{"android":"levelo://app?vid=df136d95-e79c-413e-88c1-df03fad44875","ios":"levelo://app?vid=df136d95-e79c-413e-88c1-df03fad44875"},"vehicle_type_id":"4","last_reported":1744165271,"current_range_meters":9200,"station_id":"ce4bgv92rcd13ifvqcr0","pricing_plan_id":"cebpf4jnsgd1na2vs0mg"},{"bike_id":"af2f1370-6ca4-41f1-acda-09dc04497331","system_id":"levelo_inurba_marseille","lat":43.30947,"lon":5.39072,"is_reserved":false,"is_disabled":false,"rental_uris":{"android":"levelo://app?vid=af2f1370-6ca4-41f1-acda-09dc04497331","ios":"levelo://app?vid=af2f1370-6ca4-41f1-acda-09dc04497331"},"vehicle_type_id":"4","last_reported":1744165271,"current_range_meters":9200,"station_id":"ce4bgup2rcd13ifvqco0","pricing_plan_id":"cebpf4jnsgd1na2vs0mg"},{"bike_id":"557e216a-f1fd-448c-87dc-bf453f47c735","system_id":"levelo_inurba_marseille","lat":43.29263,"lon":5.40896,"is_reserved":false,"is_disabled":false,"rental_uris":{"android":"levelo://app?vid=557e216a-f1fd-448c-87dc-bf453f47c735","ios":"levelo://app?vid=557e216a-f1fd-448c-87dc-bf453f47c735"},"vehicle_type_id":"4","last_reported":1744165271,"current_range_meters":9200,"station_id":"ce4bh192rcd13ifvqdc0","pricing_plan_id":"cebpf4jnsgd1na2vs0mg"},{"bike_id":"1b96eb49-ce49-4647-a6d7-d55db9a48315","system_id":"levelo_inurba_marseille","lat":43.323389,"lon":5.406168,"is_reserved":false,"is_disabled":false,"rental_uris":{"android":"levelo://app?vid=1b96eb49-ce49-4647-a6d7-d55db9a48315","ios":"levelo://app?vid=1b96eb49-ce49-4647-a6d7-d55db9a48315"},"vehicle_type_id":"4","last_reported":1744165271,"current_range_meters":9200,"station_id":"ce4bhq92rcd13ifvqhjg","pricing_plan_id":"cebpf4jnsgd1na2vs0mg"},{"bike_id":"d9918c2f-ab7f-450c-9279-5b605a9738a3","system_id":"levelo_inurba_marseille","lat":43.31166,"lon":5.38726,"is_reserved":false,"is_disabled":false,"rental_uris":{"android":"levelo://app?vid=d9918c2f-ab7f-450c-9279-5b605a9738a3","ios":"levelo://app?vid=d9918c2f-ab7f-450c-9279-5b605a9738a3"},"vehicle_type_id":"4","last_reported":1744165271,"current_range_meters":9600,"station_id":"ce4bgv12rcd13ifvqcp0","pricing_plan_id":"cebpf4jnsgd1na2vs0mg"},{"bike_id":"3bd7ee4a-3d47-49fc-893d-5a7bb966f54e","system_id":"levelo_inurba_marseille","lat":43.268038,"lon":5.402608,"is_reserved":false,"is_disabled":false,"rental_uris":{"android":"levelo://app?vid=3bd7ee4a-3d47-49fc-893d-5a7bb966f54e","ios":"levelo://app?vid=3bd7ee4a-3d47-49fc-893d-5a7bb966f54e"},"vehicle_type_id":"4","last_reported":1744165271,"current_range_meters":9600,"station_id":"ce501612rcd8frsf0b60","pricing_plan_id":"cebpf4jnsgd1na2vs0mg"},{"bike_id":"1ca7d0c4-b7aa-4350-ad9f-4e24c2ba029a","system_id":"levelo_inurba_marseille","lat":43.303796,"lon":5.424859,"is_reserved":false,"is_disabled":true,"rental_uris":{"android":"levelo://app?vid=1ca7d0c4-b7aa-4350-ad9f-4e24c2ba029a","ios":"levelo://app?vid=1ca7d0c4-b7aa-4350-ad9f-4e24c2ba029a"},"vehicle_type_id":"4","last_reported":1744165271,"current_range_meters":9600,"station_id":"ce4bhoh2rcd13ifvqh6g","pricing_plan_id":"cebpf4jnsgd1na2vs0mg"},{"bike_id":"2219d906-d8eb-4861-9914-1da6aead283d","system_id":"levelo_inurba_marseille","lat":43.31079,"lon":5.38362,"is_reserved":false,"is_disabled":false,"rental_uris":{"android":"levelo://app?vid=2219d906-d8eb-4861-9914-1da6aead283d","ios":"levelo://app?vid=2219d906-d8eb-4861-9914-1da6aead283d"},"vehicle_type_id":"4","last_reported":1744165271,"current_range_meters":9600,"station_id":"ce4bgv92rcd13ifvqcr0","pricing_plan_id":"cebpf4jnsgd1na2vs0mg"},{"bike_id":"e249359c-2aa1-419e-9353-7d468424c604","system_id":"levelo_inurba_marseille","lat":43.29642,"lon":5.40589,"is_reserved":false,"is_disabled":false,"rental_uris":{"android":"levelo://app?vid=e249359c-2aa1-419e-9353-7d468424c604","ios":"levelo://app?vid=e249359c-2aa1-419e-9353-7d468424c604"},"vehicle_type_id":"4","last_reported":1744165271,"current_range_meters":9600,"station_id":"ce4bh0h2rcd13ifvqd60","pricing_plan_id":"cebpf4jnsgd1na2vs0mg"},{"bike_id":"e34f7c01-c5fa-4cd6-8388-b5cd12b4b9c7","system_id":"levelo_inurba_marseille","lat":43.28585,"lon":5.35105,"is_reserved":false,"is_disabled":true,"rental_uris":{"android":"levelo://app?vid=e34f7c01-c5fa-4cd6-8388-b5cd12b4b9c7","ios":"levelo://app?vid=e34f7c01-c5fa-4cd6-8388-b5cd12b4b9c7"},"vehicle_type_id":"4","last_reported":1744165271,"current_range_meters":9600,"station_id":"ce4bhch2rcd13ifvqeug","pricing_plan_id":"cebpf4jnsgd1na2vs0mg"},{"bike_id":"9fce7fb9-26b6-4832-9f96-ea1b75c489f0","system_id":"levelo_inurba_marseille","lat":43.23162,"lon":5.35586,"is_reserved":false,"is_disabled":false,"rental_uris":{"android":"levelo://app?vid=9fce7fb9-26b6-4832-9f96-ea1b75c489f0","ios":"levelo://app?vid=9fce7fb9-26b6-4832-9f96-ea1b75c489f0"},"vehicle_type_id":"4","last_reported":1744165271,"current_range_meters":10000,"station_id":"ce4bhu92rcd13ifvqi70","pricing_plan_id":"cebpf4jnsgd1na2vs0mg"},{"bike_id":"80663e12-6b64-446d-88c9-20255bde1a8a","system_id":"levelo_inurba_marseille","lat":43.30888,"lon":5.396362,"is_reserved":false,"is_disabled":true,"rental_uris":{"android":"levelo://app?vid=80663e12-6b64-446d-88c9-20255bde1a8a","ios":"levelo://app?vid=80663e12-6b64-446d-88c9-20255bde1a8a"},"vehicle_type_id":"4","last_reported":1744165271,"current_range_meters":10000,"station_id":"ce4bh012rcd13ifvqcv0","pricing_plan_id":"cebpf4jnsgd1na2vs0mg"},{"bike_id":"a566336b-6133-47a6-ad7f-74f32862e29a","system_id":"levelo_inurba_marseille","lat":43.30378,"lon":5.42494,"is_reserved":false,"is_disabled":false,"rental_uris":{"android":"levelo://app?vid=a566336b-6133-47a6-ad7f-74f32862e29a","ios":"levelo://app?vid=a566336b-6133-47a6-ad7f-74f32862e29a"},"vehicle_type_id":"4","last_reported":1744165271,"current_range_meters":10000,"station_id":"ce4bhoh2rcd13ifvqh6g","pricing_plan_id":"cebpf4jnsgd1na2vs0mg"},{"bike_id":"ae8acc12-d36d-43ae-9b5c-d788c29ead74","system_id":"levelo_inurba_marseille","lat":43.24802,"lon":5.37449,"is_reserved":false,"is_disabled":false,"rental_uris":{"android":"levelo://app?vid=ae8acc12-d36d-43ae-9b5c-d788c29ead74","ios":"levelo://app?vid=ae8acc12-d36d-43ae-9b5c-d788c29ead74"},"vehicle_type_id":"4","last_reported":1744165271,"current_range_meters":10000,"station_id":"ce4bhgh2rcd13ifvqfb0","pricing_plan_id":"cebpf4jnsgd1na2vs0mg"},{"bike_id":"0d0eb81d-bbd3-4d24-8e33-355a3233e9ea","system_id":"levelo_inurba_marseille","lat":43.29424,"lon":5.39767,"is_reserved":false,"is_disabled":false,"rental_uris":{"android":"levelo://app?vid=0d0eb81d-bbd3-4d24-8e33-355a3233e9ea","ios":"levelo://app?vid=0d0eb81d-bbd3-4d24-8e33-355a3233e9ea"},"vehicle_type_id":"4","last_reported":1744165271,"current_range_meters":10000,"station_id":"ce4bh3h2rcd13ifvqdo0","pricing_plan_id":"cebpf4jnsgd1na2vs0mg"},{"bike_id":"a396175d-4372-4172-bc6f-f5acf9ab3e7b","system_id":"levelo_inurba_marseille","lat":43.2957,"lon":5.39974,"is_reserved":false,"is_disabled":false,"rental_uris":{"android":"levelo://app?vid=a396175d-4372-4172-bc6f-f5acf9ab3e7b","ios":"levelo://app?vid=a396175d-4372-4172-bc6f-f5acf9ab3e7b"},"vehicle_type_id":"4","last_reported":1744165271,"current_range_meters":10000,"station_id":"ce4bh312rcd13ifvqdj0","pricing_plan_id":"cebpf4jnsgd1na2vs0mg"},{"bike_id":"08f9c0c8-8b33-4578-8a03-20f44d582241","system_id":"levelo_inurba_marseille","lat":43.30605,"lon":5.37149,"is_reserved":false,"is_disabled":false,"rental_uris":{"android":"levelo://app?vid=08f9c0c8-8b33-4578-8a03-20f44d582241","ios":"levelo://app?vid=08f9c0c8-8b33-4578-8a03-20f44d582241"},"vehicle_type_id":"4","last_reported":1744165271,"current_range_meters":10000,"station_id":"","pricing_plan_id":"cebpf4jnsgd1na2vs0mg"},{"bike_id":"d19d78ea-f6ff-463e-a01b-f44ad9ceb51c","system_id":"levelo_inurba_marseille","lat":43.25563,"lon":5.38235,"is_reserved":false,"is_disabled":false,"rental_uris":{"android":"levelo://app?vid=d19d78ea-f6ff-463e-a01b-f44ad9ceb51c","ios":"levelo://app?vid=d19d78ea-f6ff-463e-a01b-f44ad9ceb51c"},"vehicle_type_id":"4","last_reported":1744165271,"current_range_meters":10000,"station_id":"ce4bhih2rcd13ifvqfs0","pricing_plan_id":"cebpf4jnsgd1na2vs0mg"},{"bike_id":"5114018d-021a-49e9-8fa0-8e15e3cc19a5","system_id":"levelo_inurba_marseille","lat":43.28159,"lon":5.42643,"is_reserved":false,"is_disabled":false,"rental_uris":{"android":"levelo://app?vid=5114018d-021a-49e9-8fa0-8e15e3cc19a5","ios":"levelo://app?vid=5114018d-021a-49e9-8fa0-8e15e3cc19a5"},"vehicle_type_id":"4","last_reported":1744165271,"current_range_meters":10000,"station_id":"ce4bhnh2rcd13ifvqgug","pricing_plan_id":"cebpf4jnsgd1na2vs0mg"},{"bike_id":"a0e523e0-f1a1-401d-814d-c198756d058c","system_id":"levelo_inurba_marseille","lat":43.28349,"lon":5.38107,"is_reserved":false,"is_disabled":false,"rental_uris":{"android":"levelo://app?vid=a0e523e0-f1a1-401d-814d-c198756d058c","ios":"levelo://app?vid=a0e523e0-f1a1-401d-814d-c198756d058c"},"vehicle_type_id":"4","last_reported":1744165271,"current_range_meters":10000,"station_id":"ce4bh412rcd13ifvqdr0","pricing_plan_id":"cebpf4jnsgd1na2vs0mg"},{"bike_id":"098b34c4-10a2-481f-b2a3-61f7a3b8f4ed","system_id":"levelo_inurba_marseille","lat":43.30932,"lon":5.40168,"is_reserved":false,"is_disabled":false,"rental_uris":{"android":"levelo://app?vid=098b34c4-10a2-481f-b2a3-61f7a3b8f4ed","ios":"levelo://app?vid=098b34c4-10a2-481f-b2a3-61f7a3b8f4ed"},"vehicle_type_id":"4","last_reported":1744165271,"current_range_meters":10000,"station_id":"ce4bgvp2rcd13ifvqct0","pricing_plan_id":"cebpf4jnsgd1na2vs0mg"},{"bike_id":"f1b3c0ee-1239-478a-87cc-7b3899e208aa","system_id":"levelo_inurba_marseille","lat":43.283541,"lon":5.380984,"is_reserved":false,"is_disabled":false,"rental_uris":{"android":"levelo://app?vid=f1b3c0ee-1239-478a-87cc-7b3899e208aa","ios":"levelo://app?vid=f1b3c0ee-1239-478a-87cc-7b3899e208aa"},"vehicle_type_id":"4","last_reported":1744165271,"current_range_meters":10000,"station_id":"ce4bh412rcd13ifvqdr0","pricing_plan_id":"cebpf4jnsgd1na2vs0mg"},{"bike_id":"b2cee8e0-4c9e-4848-bd0c-91de02906d6a","system_id":"levelo_inurba_marseille","lat":43.27946,"lon":5.41043,"is_reserved":false,"is_disabled":false,"rental_uris":{"android":"levelo://app?vid=b2cee8e0-4c9e-4848-bd0c-91de02906d6a","ios":"levelo://app?vid=b2cee8e0-4c9e-4848-bd0c-91de02906d6a"},"vehicle_type_id":"4","last_reported":1744165271,"current_range_meters":10000,"station_id":"ce4bhnp2rcd13ifvqh0g","pricing_plan_id":"cebpf4jnsgd1na2vs0mg"},{"bike_id":"1e708515-a5a6-41f1-adbd-dfcbc6c7cde7","system_id":"levelo_inurba_marseille","lat":43.30784,"lon":5.37674,"is_reserved":false,"is_disabled":false,"rental_uris":{"android":"levelo://app?vid=1e708515-a5a6-41f1-adbd-dfcbc6c7cde7","ios":"levelo://app?vid=1e708515-a5a6-41f1-adbd-dfcbc6c7cde7"},"vehicle_type_id":"4","last_reported":1744165271,"current_range_meters":10000,"station_id":"ce4bgv92rcd13ifvqcq0","pricing_plan_id":"cebpf4jnsgd1na2vs0mg"},{"bike_id":"b397701f-0d3d-44bf-ab3e-3ccc7e74fb2e","system_id":"levelo_inurba_marseille","lat":43.2644,"lon":5.42272,"is_reserved":false,"is_disabled":false,"rental_uris":{"android":"levelo://app?vid=b397701f-0d3d-44bf-ab3e-3ccc7e74fb2e","ios":"levelo://app?vid=b397701f-0d3d-44bf-ab3e-3ccc7e74fb2e"},"vehicle_type_id":"4","last_reported":1744165271,"current_range_meters":10000,"station_id":"","pricing_plan_id":"cebpf4jnsgd1na2vs0mg"},{"bike_id":"97c885a5-3656-4131-b3ea-06fe5342a972","system_id":"levelo_inurba_marseille","lat":43.30884,"lon":5.37195,"is_reserved":false,"is_disabled":false,"rental_uris":{"android":"levelo://app?vid=97c885a5-3656-4131-b3ea-06fe5342a972","ios":"levelo://app?vid=97c885a5-3656-4131-b3ea-06fe5342a972"},"vehicle_type_id":"4","last_reported":1744165271,"current_range_meters":10800,"station_id":"ce4bguh2rcd13ifvqckg","pricing_plan_id":"cebpf4jnsgd1na2vs0mg"},{"bike_id":"05ebd012-a397-44d6-8d3a-b4fd8a759a09","system_id":"levelo_inurba_marseille","lat":43.30805,"lon":5.43497,"is_reserved":false,"is_disabled":false,"rental_uris":{"android":"levelo://app?vid=05ebd012-a397-44d6-8d3a-b4fd8a759a09","ios":"levelo://app?vid=05ebd012-a397-44d6-8d3a-b4fd8a759a09"},"vehicle_type_id":"4","last_reported":1744165271,"current_range_meters":10800,"station_id":"ce4bhph2rcd13ifvqheg","pricing_plan_id":"cebpf4jnsgd1na2vs0mg"},{"bike_id":"e2c56090-e658-4d6b-8227-ff1b30247ef9","system_id":"levelo_inurba_marseille","lat":43.24686,"lon":5.38135,"is_reserved":false,"is_disabled":false,"rental_uris":{"android":"levelo://app?vid=e2c56090-e658-4d6b-8227-ff1b30247ef9","ios":"levelo://app?vid=e2c56090-e658-4d6b-8227-ff1b30247ef9"},"vehicle_type_id":"4","last_reported":1744165271,"current_range_meters":10800,"station_id":"ce4bhih2rcd13ifvqfr0","pricing_plan_id":"cebpf4jnsgd1na2vs0mg"},{"bike_id":"22a1d299-8b95-4203-a9de-b4d8c5938215","system_id":"levelo_inurba_marseille","lat":43.30649,"lon":5.401,"is_reserved":false,"is_disabled":false,"rental_uris":{"android":"levelo://app?vid=22a1d299-8b95-4203-a9de-b4d8c5938215","ios":"levelo://app?vid=22a1d299-8b95-4203-a9de-b4d8c5938215"},"vehicle_type_id":"4","last_reported":1744165271,"current_range_meters":10800,"station_id":"ce4bh112rcd13ifvqda0","pricing_plan_id":"cebpf4jnsgd1na2vs0mg"},{"bike_id":"894923f7-24a8-4f05-8d0c-1af4b4d3211a","system_id":"levelo_inurba_marseille","lat":43.303076,"lon":5.392081,"is_reserved":false,"is_disabled":true,"rental_uris":{"android":"levelo://app?vid=894923f7-24a8-4f05-8d0c-1af4b4d3211a","ios":"levelo://app?vid=894923f7-24a8-4f05-8d0c-1af4b4d3211a"},"vehicle_type_id":"4","last_reported":1744165271,"current_range_meters":11200,"station_id":"ce4bgkh2rcd13ifvqbk0","pricing_plan_id":"cebpf4jnsgd1na2vs0mg"},{"bike_id":"8379372e-c06d-426f-85f9-acdc4eafa151","system_id":"levelo_inurba_marseille","lat":43.21749,"lon":5.34592,"is_reserved":false,"is_disabled":true,"rental_uris":{"android":"levelo://app?vid=8379372e-c06d-426f-85f9-acdc4eafa151","ios":"levelo://app?vid=8379372e-c06d-426f-85f9-acdc4eafa151"},"vehicle_type_id":"4","last_reported":1744165271,"current_range_meters":11200,"station_id":"st_cvj6r9ubvosntc0bgbag","pricing_plan_id":"cebpf4jnsgd1na2vs0mg"},{"bike_id":"fe554949-79fc-40fb-9308-e13fc7147f59","system_id":"levelo_inurba_marseille","lat":43.31085,"lon":5.42445,"is_reserved":false,"is_disabled":false,"rental_uris":{"android":"levelo://app?vid=fe554949-79fc-40fb-9308-e13fc7147f59","ios":"levelo://app?vid=fe554949-79fc-40fb-9308-e13fc7147f59"},"vehicle_type_id":"4","last_reported":1744165271,"current_range_meters":11200,"station_id":"ce4bhp92rcd13ifvqhag","pricing_plan_id":"cebpf4jnsgd1na2vs0mg"},{"bike_id":"ba7c5990-65c8-4d17-bd7d-615ed4e9b2d3","system_id":"levelo_inurba_marseille","lat":43.28431,"lon":5.39219,"is_reserved":false,"is_disabled":false,"rental_uris":{"android":"levelo://app?vid=ba7c5990-65c8-4d17-bd7d-615ed4e9b2d3","ios":"levelo://app?vid=ba7c5990-65c8-4d17-bd7d-615ed4e9b2d3"},"vehicle_type_id":"4","last_reported":1744165271,"current_range_meters":11600,"station_id":"ce4bhoh2rcd13ifvqh5g","pricing_plan_id":"cebpf4jnsgd1na2vs0mg"},{"bike_id":"76055e52-9550-430a-942e-266679872c8d","system_id":"levelo_inurba_marseille","lat":43.28665,"lon":5.36358,"is_reserved":false,"is_disabled":false,"rental_uris":{"android":"levelo://app?vid=76055e52-9550-430a-942e-266679872c8d","ios":"levelo://app?vid=76055e52-9550-430a-942e-266679872c8d"},"vehicle_type_id":"4","last_reported":1744165271,"current_range_meters":11600,"station_id":"ce4bhah2rcd13ifvqej0","pricing_plan_id":"cebpf4jnsgd1na2vs0mg"},{"bike_id":"a2ba9275-b20f-4348-9f85-1311ea5e40e2","system_id":"levelo_inurba_marseille","lat":43.30458,"lon":5.37901,"is_reserved":false,"is_disabled":false,"rental_uris":{"android":"levelo://app?vid=a2ba9275-b20f-4348-9f85-1311ea5e40e2","ios":"levelo://app?vid=a2ba9275-b20f-4348-9f85-1311ea5e40e2"},"vehicle_type_id":"4","last_reported":1744165271,"current_range_meters":11600,"station_id":"ce4bgup2rcd13ifvqcn0","pricing_plan_id":"cebpf4jnsgd1na2vs0mg"},{"bike_id":"e24c6fd3-f9cb-40c7-9e57-dd2c20540e9b","system_id":"levelo_inurba_marseille","lat":43.31725,"lon":5.42392,"is_reserved":false,"is_disabled":false,"rental_uris":{"android":"levelo://app?vid=e24c6fd3-f9cb-40c7-9e57-dd2c20540e9b","ios":"levelo://app?vid=e24c6fd3-f9cb-40c7-9e57-dd2c20540e9b"},"vehicle_type_id":"4","last_reported":1744165271,"current_range_meters":11600,"station_id":"ce4bhp92rcd13ifvqhbg","pricing_plan_id":"cebpf4jnsgd1na2vs0mg"},{"bike_id":"612731d2-d819-48e3-b425-db5915ef53ee","system_id":"levelo_inurba_marseille","lat":43.28108,"lon":5.37863,"is_reserved":false,"is_disabled":false,"rental_uris":{"android":"levelo://app?vid=612731d2-d819-48e3-b425-db5915ef53ee","ios":"levelo://app?vid=612731d2-d819-48e3-b425-db5915ef53ee"},"vehicle_type_id":"4","last_reported":1744165271,"current_range_meters":11600,"station_id":"ce4bha12rcd13ifvqee0","pricing_plan_id":"cebpf4jnsgd1na2vs0mg"},{"bike_id":"25f3c748-fa73-4af0-99ce-766d7733ec18","system_id":"levelo_inurba_marseille","lat":43.31725,"lon":5.42396,"is_reserved":false,"is_disabled":false,"rental_uris":{"android":"levelo://app?vid=25f3c748-fa73-4af0-99ce-766d7733ec18","ios":"levelo://app?vid=25f3c748-fa73-4af0-99ce-766d7733ec18"},"vehicle_type_id":"4","last_reported":1744165271,"current_range_meters":11600,"station_id":"ce4bhp92rcd13ifvqhbg","pricing_plan_id":"cebpf4jnsgd1na2vs0mg"},{"bike_id":"d30480e9-5458-4c9a-a46d-54beb6247ae9","system_id":"levelo_inurba_marseille","lat":43.29283,"lon":5.40162,"is_reserved":false,"is_disabled":false,"rental_uris":{"android":"levelo://app?vid=d30480e9-5458-4c9a-a46d-54beb6247ae9","ios":"levelo://app?vid=d30480e9-5458-4c9a-a46d-54beb6247ae9"},"vehicle_type_id":"4","last_reported":1744165271,"current_range_meters":11600,"station_id":"ce4bh312rcd13ifvqdk0","pricing_plan_id":"cebpf4jnsgd1na2vs0mg"},{"bike_id":"4612345c-75a3-4189-8a6d-651578d0ecd4","system_id":"levelo_inurba_marseille","lat":43.248192,"lon":5.374474,"is_reserved":false,"is_disabled":true,"rental_uris":{"android":"levelo://app?vid=4612345c-75a3-4189-8a6d-651578d0ecd4","ios":"levelo://app?vid=4612345c-75a3-4189-8a6d-651578d0ecd4"},"vehicle_type_id":"4","last_reported":1744165271,"current_range_meters":12000,"station_id":"ce4bhgh2rcd13ifvqfb0","pricing_plan_id":"cebpf4jnsgd1na2vs0mg"},{"bike_id":"21819b42-8514-4262-aaad-c8a20b5679d4","system_id":"levelo_inurba_marseille","lat":43.2994,"lon":5.39681,"is_reserved":false,"is_disabled":false,"rental_uris":{"android":"levelo://app?vid=21819b42-8514-4262-aaad-c8a20b5679d4","ios":"levelo://app?vid=21819b42-8514-4262-aaad-c8a20b5679d4"},"vehicle_type_id":"4","last_reported":1744165271,"current_range_meters":12000,"station_id":"ce4bh0h2rcd13ifvqd50","pricing_plan_id":"cebpf4jnsgd1na2vs0mg"},{"bike_id":"2b539354-2334-4f2e-883c-1328a00d046f","system_id":"levelo_inurba_marseille","lat":43.2782,"lon":5.39222,"is_reserved":false,"is_disabled":false,"rental_uris":{"android":"levelo://app?vid=2b539354-2334-4f2e-883c-1328a00d046f","ios":"levelo://app?vid=2b539354-2334-4f2e-883c-1328a00d046f"},"vehicle_type_id":"4","last_reported":1744165271,"current_range_meters":12000,"station_id":"ce4bhjp2rcd13ifvqga0","pricing_plan_id":"cebpf4jnsgd1na2vs0mg"},{"bike_id":"9dedf862-2431-49cc-a9c6-aaf09e8ed3d1","system_id":"levelo_inurba_marseille","lat":43.29926,"lon":5.39771,"is_reserved":false,"is_disabled":false,"rental_uris":{"android":"levelo://app?vid=9dedf862-2431-49cc-a9c6-aaf09e8ed3d1","ios":"levelo://app?vid=9dedf862-2431-49cc-a9c6-aaf09e8ed3d1"},"vehicle_type_id":"4","last_reported":1744165271,"current_range_meters":12000,"station_id":"ce4bh0h2rcd13ifvqd50","pricing_plan_id":"cebpf4jnsgd1na2vs0mg"},{"bike_id":"957a6b57-7fc4-4edd-9bc7-7ea5272edce0","system_id":"levelo_inurba_marseille","lat":43.2927,"lon":5.40149,"is_reserved":false,"is_disabled":false,"rental_uris":{"android":"levelo://app?vid=957a6b57-7fc4-4edd-9bc7-7ea5272edce0","ios":"levelo://app?vid=957a6b57-7fc4-4edd-9bc7-7ea5272edce0"},"vehicle_type_id":"4","last_reported":1744165271,"current_range_meters":12000,"station_id":"ce4bh312rcd13ifvqdk0","pricing_plan_id":"cebpf4jnsgd1na2vs0mg"},{"bike_id":"03a190ca-23e8-400f-908f-3b8f9979803b","system_id":"levelo_inurba_marseille","lat":43.28692,"lon":5.39946,"is_reserved":false,"is_disabled":false,"rental_uris":{"android":"levelo://app?vid=03a190ca-23e8-400f-908f-3b8f9979803b","ios":"levelo://app?vid=03a190ca-23e8-400f-908f-3b8f9979803b"},"vehicle_type_id":"4","last_reported":1744165271,"current_range_meters":12000,"station_id":"ce4bho92rcd13ifvqh3g","pricing_plan_id":"cebpf4jnsgd1na2vs0mg"},{"bike_id":"ebae96c6-135d-4301-9591-5fd7bb8e5397","system_id":"levelo_inurba_marseille","lat":43.29253,"lon":5.40154,"is_reserved":false,"is_disabled":false,"rental_uris":{"android":"levelo://app?vid=ebae96c6-135d-4301-9591-5fd7bb8e5397","ios":"levelo://app?vid=ebae96c6-135d-4301-9591-5fd7bb8e5397"},"vehicle_type_id":"4","last_reported":1744165271,"current_range_meters":12400,"station_id":"ce4bh312rcd13ifvqdk0","pricing_plan_id":"cebpf4jnsgd1na2vs0mg"},{"bike_id":"77bf1b8c-314e-4df8-8865-c0b5cdb8fbee","system_id":"levelo_inurba_marseille","lat":43.25071,"lon":5.39527,"is_reserved":false,"is_disabled":false,"rental_uris":{"android":"levelo://app?vid=77bf1b8c-314e-4df8-8865-c0b5cdb8fbee","ios":"levelo://app?vid=77bf1b8c-314e-4df8-8865-c0b5cdb8fbee"},"vehicle_type_id":"4","last_reported":1744165271,"current_range_meters":12400,"station_id":"ce4bhm12rcd13ifvqgkg","pricing_plan_id":"cebpf4jnsgd1na2vs0mg"},{"bike_id":"d72bbde6-d6f3-4b30-8cfc-124ed95f19d5","system_id":"levelo_inurba_marseille","lat":43.25117,"lon":5.40341,"is_reserved":false,"is_disabled":false,"rental_uris":{"android":"levelo://app?vid=d72bbde6-d6f3-4b30-8cfc-124ed95f19d5","ios":"levelo://app?vid=d72bbde6-d6f3-4b30-8cfc-124ed95f19d5"},"vehicle_type_id":"4","last_reported":1744165271,"current_range_meters":12800,"station_id":"ce4bhlh2rcd13ifvqgig","pricing_plan_id":"cebpf4jnsgd1na2vs0mg"},{"bike_id":"fc6adbd9-2933-4ce3-9706-d59df17b53d6","system_id":"levelo_inurba_marseille","lat":43.308952,"lon":5.37077,"is_reserved":false,"is_disabled":false,"rental_uris":{"android":"levelo://app?vid=fc6adbd9-2933-4ce3-9706-d59df17b53d6","ios":"levelo://app?vid=fc6adbd9-2933-4ce3-9706-d59df17b53d6"},"vehicle_type_id":"4","last_reported":1744165271,"current_range_meters":12800,"station_id":"","pricing_plan_id":"cebpf4jnsgd1na2vs0mg"},{"bike_id":"d8d2057f-ff9e-448c-82d6-09e220bb874d","system_id":"levelo_inurba_marseille","lat":43.27386,"lon":5.36254,"is_reserved":false,"is_disabled":false,"rental_uris":{"android":"levelo://app?vid=d8d2057f-ff9e-448c-82d6-09e220bb874d","ios":"levelo://app?vid=d8d2057f-ff9e-448c-82d6-09e220bb874d"},"vehicle_type_id":"4","last_reported":1744165271,"current_range_meters":12800,"station_id":"ce4bhbh2rcd13ifvqeo0","pricing_plan_id":"cebpf4jnsgd1na2vs0mg"},{"bike_id":"18b15fa9-67be-42a6-a2b6-94a0793b9604","system_id":"levelo_inurba_marseille","lat":43.3117,"lon":5.38714,"is_reserved":false,"is_disabled":false,"rental_uris":{"android":"levelo://app?vid=18b15fa9-67be-42a6-a2b6-94a0793b9604","ios":"levelo://app?vid=18b15fa9-67be-42a6-a2b6-94a0793b9604"},"vehicle_type_id":"4","last_reported":1744165271,"current_range_meters":12800,"station_id":"ce4bgv12rcd13ifvqcp0","pricing_plan_id":"cebpf4jnsgd1na2vs0mg"},{"bike_id":"cd8480fd-0260-4751-be49-d71de6c347f5","system_id":"levelo_inurba_marseille","lat":43.25822,"lon":5.39429,"is_reserved":false,"is_disabled":false,"rental_uris":{"android":"levelo://app?vid=cd8480fd-0260-4751-be49-d71de6c347f5","ios":"levelo://app?vid=cd8480fd-0260-4751-be49-d71de6c347f5"},"vehicle_type_id":"4","last_reported":1744165271,"current_range_meters":13600,"station_id":"ce4bhip2rcd13ifvqft0","pricing_plan_id":"cebpf4jnsgd1na2vs0mg"},{"bike_id":"1e099cf5-9456-4ac3-8d36-9153ce8a87f2","system_id":"levelo_inurba_marseille","lat":43.29564,"lon":5.39963,"is_reserved":false,"is_disabled":true,"rental_uris":{"android":"levelo://app?vid=1e099cf5-9456-4ac3-8d36-9153ce8a87f2","ios":"levelo://app?vid=1e099cf5-9456-4ac3-8d36-9153ce8a87f2"},"vehicle_type_id":"4","last_reported":1744165271,"current_range_meters":14000,"station_id":"ce4bh312rcd13ifvqdj0","pricing_plan_id":"cebpf4jnsgd1na2vs0mg"},{"bike_id":"1b98f01f-fe6f-4de5-9152-44a88c871b9f","system_id":"levelo_inurba_marseille","lat":43.30792,"lon":5.38153,"is_reserved":false,"is_disabled":false,"rental_uris":{"android":"levelo://app?vid=1b98f01f-fe6f-4de5-9152-44a88c871b9f","ios":"levelo://app?vid=1b98f01f-fe6f-4de5-9152-44a88c871b9f"},"vehicle_type_id":"4","last_reported":1744165271,"current_range_meters":14000,"station_id":"ce4bgt12rcd13ifvqce0","pricing_plan_id":"cebpf4jnsgd1na2vs0mg"},{"bike_id":"4934f893-0caa-47bb-a816-75edde22b784","system_id":"levelo_inurba_marseille","lat":43.31176,"lon":5.38697,"is_reserved":false,"is_disabled":false,"rental_uris":{"android":"levelo://app?vid=4934f893-0caa-47bb-a816-75edde22b784","ios":"levelo://app?vid=4934f893-0caa-47bb-a816-75edde22b784"},"vehicle_type_id":"4","last_reported":1744165271,"current_range_meters":14000,"station_id":"ce4bgv12rcd13ifvqcp0","pricing_plan_id":"cebpf4jnsgd1na2vs0mg"},{"bike_id":"489d5027-266f-4f78-a468-8cd5294f935a","system_id":"levelo_inurba_marseille","lat":43.24543,"lon":5.39526,"is_reserved":false,"is_disabled":false,"rental_uris":{"android":"levelo://app?vid=489d5027-266f-4f78-a468-8cd5294f935a","ios":"levelo://app?vid=489d5027-266f-4f78-a468-8cd5294f935a"},"vehicle_type_id":"4","last_reported":1744165271,"current_range_meters":14400,"station_id":"ce4bhlp2rcd13ifvqgjg","pricing_plan_id":"cebpf4jnsgd1na2vs0mg"},{"bike_id":"7d704dfc-1eb6-49d7-a9df-919a3b5b6c0a","system_id":"levelo_inurba_marseille","lat":43.27834,"lon":5.39206,"is_reserved":false,"is_disabled":false,"rental_uris":{"android":"levelo://app?vid=7d704dfc-1eb6-49d7-a9df-919a3b5b6c0a","ios":"levelo://app?vid=7d704dfc-1eb6-49d7-a9df-919a3b5b6c0a"},"vehicle_type_id":"4","last_reported":1744165271,"current_range_meters":14400,"station_id":"ce4bhjp2rcd13ifvqga0","pricing_plan_id":"cebpf4jnsgd1na2vs0mg"},{"bike_id":"e82d3cbf-6990-4eca-9743-6a7db542c284","system_id":"levelo_inurba_marseille","lat":43.32339,"lon":5.40623,"is_reserved":false,"is_disabled":false,"rental_uris":{"android":"levelo://app?vid=e82d3cbf-6990-4eca-9743-6a7db542c284","ios":"levelo://app?vid=e82d3cbf-6990-4eca-9743-6a7db542c284"},"vehicle_type_id":"4","last_reported":1744165271,"current_range_meters":14400,"station_id":"ce4bhq92rcd13ifvqhjg","pricing_plan_id":"cebpf4jnsgd1na2vs0mg"},{"bike_id":"b2ab7a9b-ab6f-40c3-9641-ca257733fa28","system_id":"levelo_inurba_marseille","lat":43.30802,"lon":5.38152,"is_reserved":false,"is_disabled":false,"rental_uris":{"android":"levelo://app?vid=b2ab7a9b-ab6f-40c3-9641-ca257733fa28","ios":"levelo://app?vid=b2ab7a9b-ab6f-40c3-9641-ca257733fa28"},"vehicle_type_id":"4","last_reported":1744165271,"current_range_meters":14400,"station_id":"ce4bgt12rcd13ifvqce0","pricing_plan_id":"cebpf4jnsgd1na2vs0mg"},{"bike_id":"5273534c-3473-4abd-9c4b-e677a5c1499a","system_id":"levelo_inurba_marseille","lat":43.29056,"lon":5.36955,"is_reserved":false,"is_disabled":false,"rental_uris":{"android":"levelo://app?vid=5273534c-3473-4abd-9c4b-e677a5c1499a","ios":"levelo://app?vid=5273534c-3473-4abd-9c4b-e677a5c1499a"},"vehicle_type_id":"4","last_reported":1744165271,"current_range_meters":14400,"station_id":"","pricing_plan_id":"cebpf4jnsgd1na2vs0mg"},{"bike_id":"6530ca4f-a646-4648-8000-b12c2c22a131","system_id":"levelo_inurba_marseille","lat":43.24815,"lon":5.37461,"is_reserved":false,"is_disabled":true,"rental_uris":{"android":"levelo://app?vid=6530ca4f-a646-4648-8000-b12c2c22a131","ios":"levelo://app?vid=6530ca4f-a646-4648-8000-b12c2c22a131"},"vehicle_type_id":"4","last_reported":1744165271,"current_range_meters":14800,"station_id":"ce4bhgh2rcd13ifvqfb0","pricing_plan_id":"cebpf4jnsgd1na2vs0mg"},{"bike_id":"be4e10ec-15e4-4807-99c5-755430b13f99","system_id":"levelo_inurba_marseille","lat":43.27951,"lon":5.41058,"is_reserved":false,"is_disabled":false,"rental_uris":{"android":"levelo://app?vid=be4e10ec-15e4-4807-99c5-755430b13f99","ios":"levelo://app?vid=be4e10ec-15e4-4807-99c5-755430b13f99"},"vehicle_type_id":"4","last_reported":1744165271,"current_range_meters":14800,"station_id":"ce4bhnp2rcd13ifvqh0g","pricing_plan_id":"cebpf4jnsgd1na2vs0mg"},{"bike_id":"8608fed8-5511-445a-b382-7039018c22a6","system_id":"levelo_inurba_marseille","lat":43.27054,"lon":5.42301,"is_reserved":false,"is_disabled":false,"rental_uris":{"android":"levelo://app?vid=8608fed8-5511-445a-b382-7039018c22a6","ios":"levelo://app?vid=8608fed8-5511-445a-b382-7039018c22a6"},"vehicle_type_id":"4","last_reported":1744165271,"current_range_meters":14800,"station_id":"ce4bhk92rcd13ifvqgb0","pricing_plan_id":"cebpf4jnsgd1na2vs0mg"},{"bike_id":"7e488337-315e-40a4-a3f1-0d4cba19e8a8","system_id":"levelo_inurba_marseille","lat":43.246919,"lon":5.381792,"is_reserved":false,"is_disabled":false,"rental_uris":{"android":"levelo://app?vid=7e488337-315e-40a4-a3f1-0d4cba19e8a8","ios":"levelo://app?vid=7e488337-315e-40a4-a3f1-0d4cba19e8a8"},"vehicle_type_id":"4","last_reported":1744165271,"current_range_meters":14800,"station_id":"ce4bhih2rcd13ifvqfr0","pricing_plan_id":"cebpf4jnsgd1na2vs0mg"},{"bike_id":"f668e04c-8e8e-4eb8-8efc-d475f5cd543a","system_id":"levelo_inurba_marseille","lat":43.28103,"lon":5.37838,"is_reserved":false,"is_disabled":false,"rental_uris":{"android":"levelo://app?vid=f668e04c-8e8e-4eb8-8efc-d475f5cd543a","ios":"levelo://app?vid=f668e04c-8e8e-4eb8-8efc-d475f5cd543a"},"vehicle_type_id":"4","last_reported":1744165271,"current_range_meters":15200,"station_id":"ce4bha12rcd13ifvqee0","pricing_plan_id":"cebpf4jnsgd1na2vs0mg"},{"bike_id":"7847c22d-422e-4a1b-963b-b43500f3a5a5","system_id":"levelo_inurba_marseille","lat":43.30891,"lon":5.39629,"is_reserved":false,"is_disabled":false,"rental_uris":{"android":"levelo://app?vid=7847c22d-422e-4a1b-963b-b43500f3a5a5","ios":"levelo://app?vid=7847c22d-422e-4a1b-963b-b43500f3a5a5"},"vehicle_type_id":"4","last_reported":1744165271,"current_range_meters":15200,"station_id":"ce4bh012rcd13ifvqcv0","pricing_plan_id":"cebpf4jnsgd1na2vs0mg"},{"bike_id":"75f59def-7d4a-4852-b419-ba3121fedb54","system_id":"levelo_inurba_marseille","lat":43.2963,"lon":5.40592,"is_reserved":false,"is_disabled":false,"rental_uris":{"android":"levelo://app?vid=75f59def-7d4a-4852-b419-ba3121fedb54","ios":"levelo://app?vid=75f59def-7d4a-4852-b419-ba3121fedb54"},"vehicle_type_id":"4","last_reported":1744165271,"current_range_meters":15200,"station_id":"ce4bh0h2rcd13ifvqd60","pricing_plan_id":"cebpf4jnsgd1na2vs0mg"},{"bike_id":"cfa10923-000d-4d6c-a18c-69dd84627bc9","system_id":"levelo_inurba_marseille","lat":43.31068,"lon":5.38351,"is_reserved":false,"is_disabled":false,"rental_uris":{"android":"levelo://app?vid=cfa10923-000d-4d6c-a18c-69dd84627bc9","ios":"levelo://app?vid=cfa10923-000d-4d6c-a18c-69dd84627bc9"},"vehicle_type_id":"4","last_reported":1744165271,"current_range_meters":15200,"station_id":"ce4bgv92rcd13ifvqcr0","pricing_plan_id":"cebpf4jnsgd1na2vs0mg"},{"bike_id":"f59c962d-e3aa-411f-b6eb-24802869fd2c","system_id":"levelo_inurba_marseille","lat":43.21749,"lon":5.34579,"is_reserved":false,"is_disabled":false,"rental_uris":{"android":"levelo://app?vid=f59c962d-e3aa-411f-b6eb-24802869fd2c","ios":"levelo://app?vid=f59c962d-e3aa-411f-b6eb-24802869fd2c"},"vehicle_type_id":"4","last_reported":1744165271,"current_range_meters":15200,"station_id":"st_cvj6r9ubvosntc0bgbag","pricing_plan_id":"cebpf4jnsgd1na2vs0mg"},{"bike_id":"edf92683-0c32-4b77-9509-d6f3456c71e1","system_id":"levelo_inurba_marseille","lat":43.30601,"lon":5.39352,"is_reserved":false,"is_disabled":true,"rental_uris":{"android":"levelo://app?vid=edf92683-0c32-4b77-9509-d6f3456c71e1","ios":"levelo://app?vid=edf92683-0c32-4b77-9509-d6f3456c71e1"},"vehicle_type_id":"4","last_reported":1744165271,"current_range_meters":16000,"station_id":"ce4bh0p2rcd13ifvqd80","pricing_plan_id":"cebpf4jnsgd1na2vs0mg"},{"bike_id":"87070a76-8d9a-4bee-8346-3ec803fc4d2d","system_id":"levelo_inurba_marseille","lat":43.315,"lon":5.37281,"is_reserved":false,"is_disabled":false,"rental_uris":{"android":"levelo://app?vid=87070a76-8d9a-4bee-8346-3ec803fc4d2d","ios":"levelo://app?vid=87070a76-8d9a-4bee-8346-3ec803fc4d2d"},"vehicle_type_id":"4","last_reported":1744165271,"current_range_meters":16000,"station_id":"ce4bgt12rcd13ifvqcd0","pricing_plan_id":"cebpf4jnsgd1na2vs0mg"},{"bike_id":"11300ddc-1a84-4f09-8dd3-92ddec87333b","system_id":"levelo_inurba_marseille","lat":43.299316,"lon":5.365587,"is_reserved":false,"is_disabled":false,"rental_uris":{"android":"levelo://app?vid=11300ddc-1a84-4f09-8dd3-92ddec87333b","ios":"levelo://app?vid=11300ddc-1a84-4f09-8dd3-92ddec87333b"},"vehicle_type_id":"4","last_reported":1744165271,"current_range_meters":16000,"station_id":"ce4bgm92rcd13ifvqbr0","pricing_plan_id":"cebpf4jnsgd1na2vs0mg"},{"bike_id":"8eccc3d9-19cb-4c1d-b27f-e3b5feee92ea","system_id":"levelo_inurba_marseille","lat":43.2294,"lon":5.3539,"is_reserved":false,"is_disabled":false,"rental_uris":{"android":"levelo://app?vid=8eccc3d9-19cb-4c1d-b27f-e3b5feee92ea","ios":"levelo://app?vid=8eccc3d9-19cb-4c1d-b27f-e3b5feee92ea"},"vehicle_type_id":"4","last_reported":1744165271,"current_range_meters":16000,"station_id":"cpo3532slgdg3j2ikp40","pricing_plan_id":"cebpf4jnsgd1na2vs0mg"},{"bike_id":"b37944fb-f9c1-4c8e-ac3a-9da227afb433","system_id":"levelo_inurba_marseille","lat":43.308092,"lon":5.381494,"is_reserved":false,"is_disabled":true,"rental_uris":{"android":"levelo://app?vid=b37944fb-f9c1-4c8e-ac3a-9da227afb433","ios":"levelo://app?vid=b37944fb-f9c1-4c8e-ac3a-9da227afb433"},"vehicle_type_id":"4","last_reported":1744165271,"current_range_meters":16000,"station_id":"ce4bgt12rcd13ifvqce0","pricing_plan_id":"cebpf4jnsgd1na2vs0mg"},{"bike_id":"677bb2e4-e0e9-4384-b985-1575591f715d","system_id":"levelo_inurba_marseille","lat":43.28708,"lon":5.39974,"is_reserved":false,"is_disabled":false,"rental_uris":{"android":"levelo://app?vid=677bb2e4-e0e9-4384-b985-1575591f715d","ios":"levelo://app?vid=677bb2e4-e0e9-4384-b985-1575591f715d"},"vehicle_type_id":"4","last_reported":1744165271,"current_range_meters":16400,"station_id":"ce4bho92rcd13ifvqh3g","pricing_plan_id":"cebpf4jnsgd1na2vs0mg"},{"bike_id":"52dfef30-eef0-4dd6-a138-a48c8dcc2c3a","system_id":"levelo_inurba_marseille","lat":43.30409,"lon":5.42782,"is_reserved":false,"is_disabled":true,"rental_uris":{"android":"levelo://app?vid=52dfef30-eef0-4dd6-a138-a48c8dcc2c3a","ios":"levelo://app?vid=52dfef30-eef0-4dd6-a138-a48c8dcc2c3a"},"vehicle_type_id":"4","last_reported":1744165271,"current_range_meters":16400,"station_id":"","pricing_plan_id":"cebpf4jnsgd1na2vs0mg"},{"bike_id":"b3014d67-1beb-4a0f-a0f5-829e0d2a4492","system_id":"levelo_inurba_marseille","lat":43.21744,"lon":5.34597,"is_reserved":false,"is_disabled":false,"rental_uris":{"android":"levelo://app?vid=b3014d67-1beb-4a0f-a0f5-829e0d2a4492","ios":"levelo://app?vid=b3014d67-1beb-4a0f-a0f5-829e0d2a4492"},"vehicle_type_id":"4","last_reported":1744165271,"current_range_meters":16400,"station_id":"ce4bhu92rcd13ifvqi70","pricing_plan_id":"cebpf4jnsgd1na2vs0mg"},{"bike_id":"d44ff2b9-417e-4368-bebb-1fc974db3122","system_id":"levelo_inurba_marseille","lat":43.33614,"lon":5.39773,"is_reserved":false,"is_disabled":false,"rental_uris":{"android":"levelo://app?vid=d44ff2b9-417e-4368-bebb-1fc974db3122","ios":"levelo://app?vid=d44ff2b9-417e-4368-bebb-1fc974db3122"},"vehicle_type_id":"4","last_reported":1744165271,"current_range_meters":16400,"station_id":"","pricing_plan_id":"cebpf4jnsgd1na2vs0mg"},{"bike_id":"53fb0077-3a65-43ca-a501-d7c36dc0627d","system_id":"levelo_inurba_marseille","lat":43.317734,"lon":5.387918,"is_reserved":false,"is_disabled":false,"rental_uris":{"android":"levelo://app?vid=53fb0077-3a65-43ca-a501-d7c36dc0627d","ios":"levelo://app?vid=53fb0077-3a65-43ca-a501-d7c36dc0627d"},"vehicle_type_id":"4","last_reported":1744165271,"current_range_meters":16800,"station_id":"","pricing_plan_id":"cebpf4jnsgd1na2vs0mg"},{"bike_id":"3a9977f3-3b36-469b-8d49-77830ebfc10f","system_id":"levelo_inurba_marseille","lat":43.26023,"lon":5.39376,"is_reserved":false,"is_disabled":false,"rental_uris":{"android":"levelo://app?vid=3a9977f3-3b36-469b-8d49-77830ebfc10f","ios":"levelo://app?vid=3a9977f3-3b36-469b-8d49-77830ebfc10f"},"vehicle_type_id":"4","last_reported":1744165271,"current_range_meters":16800,"station_id":"ce4bhh92rcd13ifvqfj0","pricing_plan_id":"cebpf4jnsgd1na2vs0mg"},{"bike_id":"f8fd05f6-b019-4162-a9df-dc82b614e530","system_id":"levelo_inurba_marseille","lat":43.28434,"lon":5.3919,"is_reserved":false,"is_disabled":false,"rental_uris":{"android":"levelo://app?vid=f8fd05f6-b019-4162-a9df-dc82b614e530","ios":"levelo://app?vid=f8fd05f6-b019-4162-a9df-dc82b614e530"},"vehicle_type_id":"4","last_reported":1744165271,"current_range_meters":16800,"station_id":"ce4bhoh2rcd13ifvqh5g","pricing_plan_id":"cebpf4jnsgd1na2vs0mg"},{"bike_id":"b4b93a64-d083-4ab2-bbd0-53609c602fb5","system_id":"levelo_inurba_marseille","lat":43.309263,"lon":5.401444,"is_reserved":false,"is_disabled":true,"rental_uris":{"android":"levelo://app?vid=b4b93a64-d083-4ab2-bbd0-53609c602fb5","ios":"levelo://app?vid=b4b93a64-d083-4ab2-bbd0-53609c602fb5"},"vehicle_type_id":"4","last_reported":1744165271,"current_range_meters":16800,"station_id":"ce4bgvp2rcd13ifvqct0","pricing_plan_id":"cebpf4jnsgd1na2vs0mg"},{"bike_id":"62a01926-6933-46cf-a545-45ef8eedb22d","system_id":"levelo_inurba_marseille","lat":43.29262,"lon":5.40901,"is_reserved":false,"is_disabled":false,"rental_uris":{"android":"levelo://app?vid=62a01926-6933-46cf-a545-45ef8eedb22d","ios":"levelo://app?vid=62a01926-6933-46cf-a545-45ef8eedb22d"},"vehicle_type_id":"4","last_reported":1744165271,"current_range_meters":16800,"station_id":"ce4bh192rcd13ifvqdc0","pricing_plan_id":"cebpf4jnsgd1na2vs0mg"},{"bike_id":"8d29c6f3-97bf-4577-8844-066d6065b7aa","system_id":"levelo_inurba_marseille","lat":43.30358,"lon":5.42488,"is_reserved":false,"is_disabled":false,"rental_uris":{"android":"levelo://app?vid=8d29c6f3-97bf-4577-8844-066d6065b7aa","ios":"levelo://app?vid=8d29c6f3-97bf-4577-8844-066d6065b7aa"},"vehicle_type_id":"4","last_reported":1744165271,"current_range_meters":16800,"station_id":"","pricing_plan_id":"cebpf4jnsgd1na2vs0mg"},{"bike_id":"7bd3f7de-3a74-4fff-b4c6-181d8b119e52","system_id":"levelo_inurba_marseille","lat":43.298024,"lon":5.404187,"is_reserved":false,"is_disabled":true,"rental_uris":{"android":"levelo://app?vid=7bd3f7de-3a74-4fff-b4c6-181d8b119e52","ios":"levelo://app?vid=7bd3f7de-3a74-4fff-b4c6-181d8b119e52"},"vehicle_type_id":"4","last_reported":1744165271,"current_range_meters":16800,"station_id":"ce4bh112rcd13ifvqd90","pricing_plan_id":"cebpf4jnsgd1na2vs0mg"},{"bike_id":"805f64ff-45b0-4422-bda5-8499fd7f4d53","system_id":"levelo_inurba_marseille","lat":43.28723,"lon":5.36077,"is_reserved":false,"is_disabled":false,"rental_uris":{"android":"levelo://app?vid=805f64ff-45b0-4422-bda5-8499fd7f4d53","ios":"levelo://app?vid=805f64ff-45b0-4422-bda5-8499fd7f4d53"},"vehicle_type_id":"4","last_reported":1744165271,"current_range_meters":16800,"station_id":"cki0cbj6b192h4jlfktg","pricing_plan_id":"cebpf4jnsgd1na2vs0mg"},{"bike_id":"c3b2f32d-8418-4b7e-b1a9-90e48f7a4762","system_id":"levelo_inurba_marseille","lat":43.33601,"lon":5.41025,"is_reserved":false,"is_disabled":false,"rental_uris":{"android":"levelo://app?vid=c3b2f32d-8418-4b7e-b1a9-90e48f7a4762","ios":"levelo://app?vid=c3b2f32d-8418-4b7e-b1a9-90e48f7a4762"},"vehicle_type_id":"4","last_reported":1744165271,"current_range_meters":16800,"station_id":"ce4bhqh2rcd13ifvqhmg","pricing_plan_id":"cebpf4jnsgd1na2vs0mg"},{"bike_id":"6278194a-3064-41bd-8565-b8ff44b1552d","system_id":"levelo_inurba_marseille","lat":43.29526,"lon":5.38502,"is_reserved":false,"is_disabled":true,"rental_uris":{"android":"levelo://app?vid=6278194a-3064-41bd-8565-b8ff44b1552d","ios":"levelo://app?vid=6278194a-3064-41bd-8565-b8ff44b1552d"},"vehicle_type_id":"4","last_reported":1744165271,"current_range_meters":16800,"station_id":"ce4bgih2rcd13ifvqba0","pricing_plan_id":"cebpf4jnsgd1na2vs0mg"},{"bike_id":"d7b2134e-575c-40f1-9b3b-0ad40ab4b220","system_id":"levelo_inurba_marseille","lat":43.298411,"lon":5.436866,"is_reserved":false,"is_disabled":false,"rental_uris":{"android":"levelo://app?vid=d7b2134e-575c-40f1-9b3b-0ad40ab4b220","ios":"levelo://app?vid=d7b2134e-575c-40f1-9b3b-0ad40ab4b220"},"vehicle_type_id":"4","last_reported":1744165271,"current_range_meters":16800,"station_id":"","pricing_plan_id":"cebpf4jnsgd1na2vs0mg"},{"bike_id":"8b528ee5-0e42-4638-8ff2-55f68be3f509","system_id":"levelo_inurba_marseille","lat":43.30219,"lon":5.39474,"is_reserved":false,"is_disabled":false,"rental_uris":{"android":"levelo://app?vid=8b528ee5-0e42-4638-8ff2-55f68be3f509","ios":"levelo://app?vid=8b528ee5-0e42-4638-8ff2-55f68be3f509"},"vehicle_type_id":"4","last_reported":1744165271,"current_range_meters":16800,"station_id":"ce4bh0p2rcd13ifvqd70","pricing_plan_id":"cebpf4jnsgd1na2vs0mg"},{"bike_id":"68b2b97c-dfa2-455e-98c0-2b19e9ad3657","system_id":"levelo_inurba_marseille","lat":43.29258,"lon":5.4092,"is_reserved":false,"is_disabled":false,"rental_uris":{"android":"levelo://app?vid=68b2b97c-dfa2-455e-98c0-2b19e9ad3657","ios":"levelo://app?vid=68b2b97c-dfa2-455e-98c0-2b19e9ad3657"},"vehicle_type_id":"4","last_reported":1744165271,"current_range_meters":16800,"station_id":"ce4bh192rcd13ifvqdc0","pricing_plan_id":"cebpf4jnsgd1na2vs0mg"},{"bike_id":"0ad9ee3e-0832-46df-b474-10ed8a5a0c97","system_id":"levelo_inurba_marseille","lat":43.21195,"lon":5.35063,"is_reserved":false,"is_disabled":false,"rental_uris":{"android":"levelo://app?vid=0ad9ee3e-0832-46df-b474-10ed8a5a0c97","ios":"levelo://app?vid=0ad9ee3e-0832-46df-b474-10ed8a5a0c97"},"vehicle_type_id":"4","last_reported":1744165271,"current_range_meters":17200,"station_id":"st_cvj6sg6p6f1abm77japg","pricing_plan_id":"cebpf4jnsgd1na2vs0mg"},{"bike_id":"d8836b7c-6415-4392-a3f5-2b7b79914c96","system_id":"levelo_inurba_marseille","lat":43.28703,"lon":5.39963,"is_reserved":false,"is_disabled":false,"rental_uris":{"android":"levelo://app?vid=d8836b7c-6415-4392-a3f5-2b7b79914c96","ios":"levelo://app?vid=d8836b7c-6415-4392-a3f5-2b7b79914c96"},"vehicle_type_id":"4","last_reported":1744165271,"current_range_meters":17200,"station_id":"ce4bho92rcd13ifvqh3g","pricing_plan_id":"cebpf4jnsgd1na2vs0mg"},{"bike_id":"995acf13-7f6f-4351-b2d4-eccf8b4e39a5","system_id":"levelo_inurba_marseille","lat":43.30822,"lon":5.38166,"is_reserved":false,"is_disabled":false,"rental_uris":{"android":"levelo://app?vid=995acf13-7f6f-4351-b2d4-eccf8b4e39a5","ios":"levelo://app?vid=995acf13-7f6f-4351-b2d4-eccf8b4e39a5"},"vehicle_type_id":"4","last_reported":1744165271,"current_range_meters":17200,"station_id":"ce4bgt12rcd13ifvqce0","pricing_plan_id":"cebpf4jnsgd1na2vs0mg"},{"bike_id":"c1c63035-c83b-4419-8cbf-133778d95125","system_id":"levelo_inurba_marseille","lat":43.29797,"lon":5.39375,"is_reserved":false,"is_disabled":true,"rental_uris":{"android":"levelo://app?vid=c1c63035-c83b-4419-8cbf-133778d95125","ios":"levelo://app?vid=c1c63035-c83b-4419-8cbf-133778d95125"},"vehicle_type_id":"4","last_reported":1744165271,"current_range_meters":17200,"station_id":"chh1huq6cuj3fo74tm60","pricing_plan_id":"cebpf4jnsgd1na2vs0mg"},{"bike_id":"a173c7c5-8df8-4946-9b1a-2b9f81805751","system_id":"levelo_inurba_marseille","lat":43.289388,"lon":5.39623,"is_reserved":false,"is_disabled":false,"rental_uris":{"android":"levelo://app?vid=a173c7c5-8df8-4946-9b1a-2b9f81805751","ios":"levelo://app?vid=a173c7c5-8df8-4946-9b1a-2b9f81805751"},"vehicle_type_id":"4","last_reported":1744165271,"current_range_meters":17200,"station_id":"ce4bh3h2rcd13ifvqdn0","pricing_plan_id":"cebpf4jnsgd1na2vs0mg"},{"bike_id":"6a58c4b9-5908-4c3e-ba1c-31602d5dfcef","system_id":"levelo_inurba_marseille","lat":43.30944,"lon":5.40201,"is_reserved":false,"is_disabled":false,"rental_uris":{"android":"levelo://app?vid=6a58c4b9-5908-4c3e-ba1c-31602d5dfcef","ios":"levelo://app?vid=6a58c4b9-5908-4c3e-ba1c-31602d5dfcef"},"vehicle_type_id":"4","last_reported":1744165271,"current_range_meters":17600,"station_id":"ce4bgvp2rcd13ifvqct0","pricing_plan_id":"cebpf4jnsgd1na2vs0mg"},{"bike_id":"e7b11cda-49cc-43fb-8fed-3aa95163c2cd","system_id":"levelo_inurba_marseille","lat":43.25826,"lon":5.39435,"is_reserved":false,"is_disabled":false,"rental_uris":{"android":"levelo://app?vid=e7b11cda-49cc-43fb-8fed-3aa95163c2cd","ios":"levelo://app?vid=e7b11cda-49cc-43fb-8fed-3aa95163c2cd"},"vehicle_type_id":"4","last_reported":1744165271,"current_range_meters":17600,"station_id":"ce4bhip2rcd13ifvqft0","pricing_plan_id":"cebpf4jnsgd1na2vs0mg"},{"bike_id":"262814d8-70e8-4e84-b322-6064a998c97a","system_id":"levelo_inurba_marseille","lat":43.30649,"lon":5.40038,"is_reserved":false,"is_disabled":false,"rental_uris":{"android":"levelo://app?vid=262814d8-70e8-4e84-b322-6064a998c97a","ios":"levelo://app?vid=262814d8-70e8-4e84-b322-6064a998c97a"},"vehicle_type_id":"4","last_reported":1744165271,"current_range_meters":17600,"station_id":"ce4bh112rcd13ifvqda0","pricing_plan_id":"cebpf4jnsgd1na2vs0mg"},{"bike_id":"2c3a2b3a-da6d-4e7a-b514-9be1bc0e24a0","system_id":"levelo_inurba_marseille","lat":43.31075,"lon":5.42425,"is_reserved":false,"is_disabled":false,"rental_uris":{"android":"levelo://app?vid=2c3a2b3a-da6d-4e7a-b514-9be1bc0e24a0","ios":"levelo://app?vid=2c3a2b3a-da6d-4e7a-b514-9be1bc0e24a0"},"vehicle_type_id":"4","last_reported":1744165271,"current_range_meters":17600,"station_id":"ce4bhp92rcd13ifvqhag","pricing_plan_id":"cebpf4jnsgd1na2vs0mg"},{"bike_id":"50e3a432-fd98-4720-aa15-8561d1ec2e95","system_id":"levelo_inurba_marseille","lat":43.2467,"lon":5.38126,"is_reserved":false,"is_disabled":false,"rental_uris":{"android":"levelo://app?vid=50e3a432-fd98-4720-aa15-8561d1ec2e95","ios":"levelo://app?vid=50e3a432-fd98-4720-aa15-8561d1ec2e95"},"vehicle_type_id":"4","last_reported":1744165271,"current_range_meters":17600,"station_id":"ce4bhih2rcd13ifvqfr0","pricing_plan_id":"cebpf4jnsgd1na2vs0mg"},{"bike_id":"b84b1d45-729e-47db-8c7e-e88abe2948fb","system_id":"levelo_inurba_marseille","lat":43.31721,"lon":5.42406,"is_reserved":false,"is_disabled":false,"rental_uris":{"android":"levelo://app?vid=b84b1d45-729e-47db-8c7e-e88abe2948fb","ios":"levelo://app?vid=b84b1d45-729e-47db-8c7e-e88abe2948fb"},"vehicle_type_id":"4","last_reported":1744165271,"current_range_meters":17600,"station_id":"ce4bhp92rcd13ifvqhbg","pricing_plan_id":"cebpf4jnsgd1na2vs0mg"},{"bike_id":"24a119ef-6e80-49b9-80af-273e42ef54b7","system_id":"levelo_inurba_marseille","lat":43.28784,"lon":5.37603,"is_reserved":false,"is_disabled":false,"rental_uris":{"android":"levelo://app?vid=24a119ef-6e80-49b9-80af-273e42ef54b7","ios":"levelo://app?vid=24a119ef-6e80-49b9-80af-273e42ef54b7"},"vehicle_type_id":"4","last_reported":1744165271,"current_range_meters":17600,"station_id":"","pricing_plan_id":"cebpf4jnsgd1na2vs0mg"},{"bike_id":"800e3e3c-6ab6-48d8-8a69-3938eb1aed86","system_id":"levelo_inurba_marseille","lat":43.31307,"lon":5.37419,"is_reserved":false,"is_disabled":false,"rental_uris":{"android":"levelo://app?vid=800e3e3c-6ab6-48d8-8a69-3938eb1aed86","ios":"levelo://app?vid=800e3e3c-6ab6-48d8-8a69-3938eb1aed86"},"vehicle_type_id":"4","last_reported":1744165271,"current_range_meters":17600,"station_id":"","pricing_plan_id":"cebpf4jnsgd1na2vs0mg"},{"bike_id":"6f1ee88b-b170-4686-b470-e364be32c40a","system_id":"levelo_inurba_marseille","lat":43.35272,"lon":5.36385,"is_reserved":false,"is_disabled":false,"rental_uris":{"android":"levelo://app?vid=6f1ee88b-b170-4686-b470-e364be32c40a","ios":"levelo://app?vid=6f1ee88b-b170-4686-b470-e364be32c40a"},"vehicle_type_id":"4","last_reported":1744165271,"current_range_meters":18000,"station_id":"","pricing_plan_id":"cebpf4jnsgd1na2vs0mg"},{"bike_id":"b2b4ba49-ba6a-4884-aa3d-6dc8d50038fa","system_id":"levelo_inurba_marseille","lat":43.31346,"lon":5.38488,"is_reserved":false,"is_disabled":false,"rental_uris":{"android":"levelo://app?vid=b2b4ba49-ba6a-4884-aa3d-6dc8d50038fa","ios":"levelo://app?vid=b2b4ba49-ba6a-4884-aa3d-6dc8d50038fa"},"vehicle_type_id":"4","last_reported":1744165271,"current_range_meters":18000,"station_id":"ce4bgt92rcd13ifvqcf0","pricing_plan_id":"cebpf4jnsgd1na2vs0mg"},{"bike_id":"54525f9c-6729-406c-8f5a-fce95e931823","system_id":"levelo_inurba_marseille","lat":43.30433,"lon":5.37836,"is_reserved":false,"is_disabled":false,"rental_uris":{"android":"levelo://app?vid=54525f9c-6729-406c-8f5a-fce95e931823","ios":"levelo://app?vid=54525f9c-6729-406c-8f5a-fce95e931823"},"vehicle_type_id":"4","last_reported":1744165271,"current_range_meters":18000,"station_id":"","pricing_plan_id":"cebpf4jnsgd1na2vs0mg"},{"bike_id":"3b1079d3-c917-4a40-b549-3a7961d4f537","system_id":"levelo_inurba_marseille","lat":43.29935,"lon":5.36529,"is_reserved":false,"is_disabled":false,"rental_uris":{"android":"levelo://app?vid=3b1079d3-c917-4a40-b549-3a7961d4f537","ios":"levelo://app?vid=3b1079d3-c917-4a40-b549-3a7961d4f537"},"vehicle_type_id":"4","last_reported":1744165271,"current_range_meters":18000,"station_id":"ce4bgm92rcd13ifvqbr0","pricing_plan_id":"cebpf4jnsgd1na2vs0mg"},{"bike_id":"f732e6ee-b929-4d52-b9e6-b13da1311992","system_id":"levelo_inurba_marseille","lat":43.29268,"lon":5.40149,"is_reserved":false,"is_disabled":false,"rental_uris":{"android":"levelo://app?vid=f732e6ee-b929-4d52-b9e6-b13da1311992","ios":"levelo://app?vid=f732e6ee-b929-4d52-b9e6-b13da1311992"},"vehicle_type_id":"4","last_reported":1744165271,"current_range_meters":18000,"station_id":"ce4bh312rcd13ifvqdk0","pricing_plan_id":"cebpf4jnsgd1na2vs0mg"},{"bike_id":"7c01e71c-5596-411f-89dd-0c8e58123bce","system_id":"levelo_inurba_marseille","lat":43.31166,"lon":5.38721,"is_reserved":false,"is_disabled":false,"rental_uris":{"android":"levelo://app?vid=7c01e71c-5596-411f-89dd-0c8e58123bce","ios":"levelo://app?vid=7c01e71c-5596-411f-89dd-0c8e58123bce"},"vehicle_type_id":"4","last_reported":1744165271,"current_range_meters":18000,"station_id":"ce4bgv12rcd13ifvqcp0","pricing_plan_id":"cebpf4jnsgd1na2vs0mg"},{"bike_id":"33c6f353-0166-4c8c-af82-a2e0d1d8c75d","system_id":"levelo_inurba_marseille","lat":43.33,"lon":5.43849,"is_reserved":false,"is_disabled":false,"rental_uris":{"android":"levelo://app?vid=33c6f353-0166-4c8c-af82-a2e0d1d8c75d","ios":"levelo://app?vid=33c6f353-0166-4c8c-af82-a2e0d1d8c75d"},"vehicle_type_id":"4","last_reported":1744165271,"current_range_meters":18000,"station_id":"","pricing_plan_id":"cebpf4jnsgd1na2vs0mg"},{"bike_id":"09bddc24-4c9d-460f-8967-e90ee5c88b43","system_id":"levelo_inurba_marseille","lat":43.313294,"lon":5.396959,"is_reserved":false,"is_disabled":true,"rental_uris":{"android":"levelo://app?vid=09bddc24-4c9d-460f-8967-e90ee5c88b43","ios":"levelo://app?vid=09bddc24-4c9d-460f-8967-e90ee5c88b43"},"vehicle_type_id":"4","last_reported":1744165271,"current_range_meters":18000,"station_id":"ce4bgvp2rcd13ifvqcu0","pricing_plan_id":"cebpf4jnsgd1na2vs0mg"},{"bike_id":"06ddb5d6-9dd6-4450-9d2d-fdbd5980086c","system_id":"levelo_inurba_marseille","lat":43.27908,"lon":5.39581,"is_reserved":false,"is_disabled":false,"rental_uris":{"android":"levelo://app?vid=06ddb5d6-9dd6-4450-9d2d-fdbd5980086c","ios":"levelo://app?vid=06ddb5d6-9dd6-4450-9d2d-fdbd5980086c"},"vehicle_type_id":"4","last_reported":1744165271,"current_range_meters":18800,"station_id":"ce4bhf92rcd13ifvqf40","pricing_plan_id":"cebpf4jnsgd1na2vs0mg"},{"bike_id":"e6c9fae8-0b62-43cf-b987-48e265b86f6a","system_id":"levelo_inurba_marseille","lat":43.29271,"lon":5.40149,"is_reserved":false,"is_disabled":false,"rental_uris":{"android":"levelo://app?vid=e6c9fae8-0b62-43cf-b987-48e265b86f6a","ios":"levelo://app?vid=e6c9fae8-0b62-43cf-b987-48e265b86f6a"},"vehicle_type_id":"4","last_reported":1744165271,"current_range_meters":18800,"station_id":"ce4bh312rcd13ifvqdk0","pricing_plan_id":"cebpf4jnsgd1na2vs0mg"},{"bike_id":"42c1fdc6-38af-4ea1-a910-702e15d5a9b4","system_id":"levelo_inurba_marseille","lat":43.30922,"lon":5.40162,"is_reserved":false,"is_disabled":true,"rental_uris":{"android":"levelo://app?vid=42c1fdc6-38af-4ea1-a910-702e15d5a9b4","ios":"levelo://app?vid=42c1fdc6-38af-4ea1-a910-702e15d5a9b4"},"vehicle_type_id":"4","last_reported":1744165271,"current_range_meters":18800,"station_id":"ce4bgvp2rcd13ifvqct0","pricing_plan_id":"cebpf4jnsgd1na2vs0mg"},{"bike_id":"8071246a-da1d-4c62-856c-b52db7913885","system_id":"levelo_inurba_marseille","lat":43.31717,"lon":5.42402,"is_reserved":false,"is_disabled":false,"rental_uris":{"android":"levelo://app?vid=8071246a-da1d-4c62-856c-b52db7913885","ios":"levelo://app?vid=8071246a-da1d-4c62-856c-b52db7913885"},"vehicle_type_id":"4","last_reported":1744165271,"current_range_meters":18800,"station_id":"ce4bhp92rcd13ifvqhbg","pricing_plan_id":"cebpf4jnsgd1na2vs0mg"},{"bike_id":"97250f01-5de7-4f3c-8e0e-369ba51c5612","system_id":"levelo_inurba_marseille","lat":43.30804,"lon":5.38157,"is_reserved":false,"is_disabled":false,"rental_uris":{"android":"levelo://app?vid=97250f01-5de7-4f3c-8e0e-369ba51c5612","ios":"levelo://app?vid=97250f01-5de7-4f3c-8e0e-369ba51c5612"},"vehicle_type_id":"4","last_reported":1744165271,"current_range_meters":18800,"station_id":"ce4bgt12rcd13ifvqce0","pricing_plan_id":"cebpf4jnsgd1na2vs0mg"},{"bike_id":"8f299a7e-ac08-4b43-bd5f-446d6a3f683e","system_id":"levelo_inurba_marseille","lat":43.30097,"lon":5.3908,"is_reserved":false,"is_disabled":false,"rental_uris":{"android":"levelo://app?vid=8f299a7e-ac08-4b43-bd5f-446d6a3f683e","ios":"levelo://app?vid=8f299a7e-ac08-4b43-bd5f-446d6a3f683e"},"vehicle_type_id":"4","last_reported":1744165271,"current_range_meters":18800,"station_id":"ce4bh192rcd13ifvqdb0","pricing_plan_id":"cebpf4jnsgd1na2vs0mg"},{"bike_id":"0528da84-67a3-4ab9-9c97-bce20d32e9a1","system_id":"levelo_inurba_marseille","lat":43.25124,"lon":5.40323,"is_reserved":false,"is_disabled":false,"rental_uris":{"android":"levelo://app?vid=0528da84-67a3-4ab9-9c97-bce20d32e9a1","ios":"levelo://app?vid=0528da84-67a3-4ab9-9c97-bce20d32e9a1"},"vehicle_type_id":"4","last_reported":1744165271,"current_range_meters":19200,"station_id":"ce4bhlh2rcd13ifvqgig","pricing_plan_id":"cebpf4jnsgd1na2vs0mg"},{"bike_id":"29fa4859-90f2-49bc-b9c2-fc4f3f694348","system_id":"levelo_inurba_marseille","lat":43.28157,"lon":5.42643,"is_reserved":false,"is_disabled":false,"rental_uris":{"android":"levelo://app?vid=29fa4859-90f2-49bc-b9c2-fc4f3f694348","ios":"levelo://app?vid=29fa4859-90f2-49bc-b9c2-fc4f3f694348"},"vehicle_type_id":"4","last_reported":1744165271,"current_range_meters":19200,"station_id":"ce4bhnh2rcd13ifvqgug","pricing_plan_id":"cebpf4jnsgd1na2vs0mg"},{"bike_id":"6af5c8a6-6e6f-47d5-8681-346a73801d42","system_id":"levelo_inurba_marseille","lat":43.308032,"lon":5.381648,"is_reserved":false,"is_disabled":false,"rental_uris":{"android":"levelo://app?vid=6af5c8a6-6e6f-47d5-8681-346a73801d42","ios":"levelo://app?vid=6af5c8a6-6e6f-47d5-8681-346a73801d42"},"vehicle_type_id":"4","last_reported":1744165271,"current_range_meters":19200,"station_id":"ce4bgt12rcd13ifvqce0","pricing_plan_id":"cebpf4jnsgd1na2vs0mg"},{"bike_id":"e5b198f9-c644-42e9-a1d9-be90f896d789","system_id":"levelo_inurba_marseille","lat":43.33768,"lon":5.37467,"is_reserved":false,"is_disabled":false,"rental_uris":{"android":"levelo://app?vid=e5b198f9-c644-42e9-a1d9-be90f896d789","ios":"levelo://app?vid=e5b198f9-c644-42e9-a1d9-be90f896d789"},"vehicle_type_id":"4","last_reported":1744165271,"current_range_meters":19200,"station_id":"","pricing_plan_id":"cebpf4jnsgd1na2vs0mg"},{"bike_id":"d00e04e4-9493-4570-82e0-59f251ed0a8a","system_id":"levelo_inurba_marseille","lat":43.279098,"lon":5.380087,"is_reserved":false,"is_disabled":false,"rental_uris":{"android":"levelo://app?vid=d00e04e4-9493-4570-82e0-59f251ed0a8a","ios":"levelo://app?vid=d00e04e4-9493-4570-82e0-59f251ed0a8a"},"vehicle_type_id":"4","last_reported":1744165271,"current_range_meters":19200,"station_id":"ce4bhf92rcd13ifvqf50","pricing_plan_id":"cebpf4jnsgd1na2vs0mg"},{"bike_id":"8651e8ad-e76f-45d4-a332-92a388feeed1","system_id":"levelo_inurba_marseille","lat":43.29271,"lon":5.40161,"is_reserved":false,"is_disabled":false,"rental_uris":{"android":"levelo://app?vid=8651e8ad-e76f-45d4-a332-92a388feeed1","ios":"levelo://app?vid=8651e8ad-e76f-45d4-a332-92a388feeed1"},"vehicle_type_id":"4","last_reported":1744165271,"current_range_meters":19600,"station_id":"ce4bh312rcd13ifvqdk0","pricing_plan_id":"cebpf4jnsgd1na2vs0mg"},{"bike_id":"3e21f9cf-d990-4de9-bac0-b2c881007ef8","system_id":"levelo_inurba_marseille","lat":43.30646,"lon":5.40072,"is_reserved":false,"is_disabled":false,"rental_uris":{"android":"levelo://app?vid=3e21f9cf-d990-4de9-bac0-b2c881007ef8","ios":"levelo://app?vid=3e21f9cf-d990-4de9-bac0-b2c881007ef8"},"vehicle_type_id":"4","last_reported":1744165271,"current_range_meters":19600,"station_id":"ce4bh112rcd13ifvqda0","pricing_plan_id":"cebpf4jnsgd1na2vs0mg"},{"bike_id":"fc7351d1-c511-4235-af03-bbf58aab542a","system_id":"levelo_inurba_marseille","lat":43.30802,"lon":5.38155,"is_reserved":false,"is_disabled":false,"rental_uris":{"android":"levelo://app?vid=fc7351d1-c511-4235-af03-bbf58aab542a","ios":"levelo://app?vid=fc7351d1-c511-4235-af03-bbf58aab542a"},"vehicle_type_id":"4","last_reported":1744165271,"current_range_meters":19600,"station_id":"ce4bgt12rcd13ifvqce0","pricing_plan_id":"cebpf4jnsgd1na2vs0mg"},{"bike_id":"ce97d8e8-1de1-4bfc-94ff-5ade4d4ddb12","system_id":"levelo_inurba_marseille","lat":43.30783,"lon":5.37649,"is_reserved":false,"is_disabled":false,"rental_uris":{"android":"levelo://app?vid=ce97d8e8-1de1-4bfc-94ff-5ade4d4ddb12","ios":"levelo://app?vid=ce97d8e8-1de1-4bfc-94ff-5ade4d4ddb12"},"vehicle_type_id":"4","last_reported":1744165271,"current_range_meters":19600,"station_id":"ce4bgv92rcd13ifvqcq0","pricing_plan_id":"cebpf4jnsgd1na2vs0mg"},{"bike_id":"1a3cd0ab-ec77-41b3-982c-74e5093499a8","system_id":"levelo_inurba_marseille","lat":43.30434,"lon":5.38896,"is_reserved":false,"is_disabled":true,"rental_uris":{"android":"levelo://app?vid=1a3cd0ab-ec77-41b3-982c-74e5093499a8","ios":"levelo://app?vid=1a3cd0ab-ec77-41b3-982c-74e5093499a8"},"vehicle_type_id":"4","last_reported":1744165271,"current_range_meters":19600,"station_id":"ce4bgk12rcd13ifvqbi0","pricing_plan_id":"cebpf4jnsgd1na2vs0mg"},{"bike_id":"6aeb8745-1add-4320-94be-47d7cc83c606","system_id":"levelo_inurba_marseille","lat":43.286186,"lon":5.350937,"is_reserved":false,"is_disabled":true,"rental_uris":{"android":"levelo://app?vid=6aeb8745-1add-4320-94be-47d7cc83c606","ios":"levelo://app?vid=6aeb8745-1add-4320-94be-47d7cc83c606"},"vehicle_type_id":"4","last_reported":1744165271,"current_range_meters":19600,"station_id":"ce4bhch2rcd13ifvqeug","pricing_plan_id":"cebpf4jnsgd1na2vs0mg"},{"bike_id":"a3a49e65-c75e-4463-a221-3e81b1a1fa78","system_id":"levelo_inurba_marseille","lat":43.3175,"lon":5.39019,"is_reserved":false,"is_disabled":false,"rental_uris":{"android":"levelo://app?vid=a3a49e65-c75e-4463-a221-3e81b1a1fa78","ios":"levelo://app?vid=a3a49e65-c75e-4463-a221-3e81b1a1fa78"},"vehicle_type_id":"4","last_reported":1744165271,"current_range_meters":19600,"station_id":"ce4bhqp2rcd13ifvqhng","pricing_plan_id":"cebpf4jnsgd1na2vs0mg"},{"bike_id":"8d0eb52f-a191-4371-a836-f30fe90a14c8","system_id":"levelo_inurba_marseille","lat":43.28352,"lon":5.38114,"is_reserved":false,"is_disabled":false,"rental_uris":{"android":"levelo://app?vid=8d0eb52f-a191-4371-a836-f30fe90a14c8","ios":"levelo://app?vid=8d0eb52f-a191-4371-a836-f30fe90a14c8"},"vehicle_type_id":"4","last_reported":1744165271,"current_range_meters":19600,"station_id":"ce4bh412rcd13ifvqdr0","pricing_plan_id":"cebpf4jnsgd1na2vs0mg"},{"bike_id":"9274b6ea-59ea-4acf-b776-8a868c75fde7","system_id":"levelo_inurba_marseille","lat":43.29252,"lon":5.40912,"is_reserved":false,"is_disabled":false,"rental_uris":{"android":"levelo://app?vid=9274b6ea-59ea-4acf-b776-8a868c75fde7","ios":"levelo://app?vid=9274b6ea-59ea-4acf-b776-8a868c75fde7"},"vehicle_type_id":"4","last_reported":1744165271,"current_range_meters":20000,"station_id":"ce4bh192rcd13ifvqdc0","pricing_plan_id":"cebpf4jnsgd1na2vs0mg"},{"bike_id":"4c21d86a-40b5-4941-9f8b-9ed03f38cc3e","system_id":"levelo_inurba_marseille","lat":43.31991,"lon":5.38132,"is_reserved":false,"is_disabled":false,"rental_uris":{"android":"levelo://app?vid=4c21d86a-40b5-4941-9f8b-9ed03f38cc3e","ios":"levelo://app?vid=4c21d86a-40b5-4941-9f8b-9ed03f38cc3e"},"vehicle_type_id":"4","last_reported":1744165271,"current_range_meters":20000,"station_id":"ce4bhr12rcd13ifvqhpg","pricing_plan_id":"cebpf4jnsgd1na2vs0mg"},{"bike_id":"e91ed5b5-fb81-49ee-a357-a2e637eb3fc7","system_id":"levelo_inurba_marseille","lat":43.284034,"lon":5.375222,"is_reserved":false,"is_disabled":false,"rental_uris":{"android":"levelo://app?vid=e91ed5b5-fb81-49ee-a357-a2e637eb3fc7","ios":"levelo://app?vid=e91ed5b5-fb81-49ee-a357-a2e637eb3fc7"},"vehicle_type_id":"4","last_reported":1744165271,"current_range_meters":20000,"station_id":"ce4bh412rcd13ifvqds0","pricing_plan_id":"cebpf4jnsgd1na2vs0mg"},{"bike_id":"4991589d-bcb1-4bfb-8d3e-5c59c6458a3d","system_id":"levelo_inurba_marseille","lat":43.34408,"lon":5.38051,"is_reserved":false,"is_disabled":false,"rental_uris":{"android":"levelo://app?vid=4991589d-bcb1-4bfb-8d3e-5c59c6458a3d","ios":"levelo://app?vid=4991589d-bcb1-4bfb-8d3e-5c59c6458a3d"},"vehicle_type_id":"4","last_reported":1744165271,"current_range_meters":20000,"station_id":"","pricing_plan_id":"cebpf4jnsgd1na2vs0mg"},{"bike_id":"81193ee1-1950-4fb7-8b8f-7414a2bf8bf9","system_id":"levelo_inurba_marseille","lat":43.3046,"lon":5.37903,"is_reserved":false,"is_disabled":false,"rental_uris":{"android":"levelo://app?vid=81193ee1-1950-4fb7-8b8f-7414a2bf8bf9","ios":"levelo://app?vid=81193ee1-1950-4fb7-8b8f-7414a2bf8bf9"},"vehicle_type_id":"4","last_reported":1744165271,"current_range_meters":20000,"station_id":"ce4bgup2rcd13ifvqcn0","pricing_plan_id":"cebpf4jnsgd1na2vs0mg"},{"bike_id":"aa2c077b-94a8-4ca8-a1bd-72df56270d30","system_id":"levelo_inurba_marseille","lat":43.25584,"lon":5.38224,"is_reserved":false,"is_disabled":false,"rental_uris":{"android":"levelo://app?vid=aa2c077b-94a8-4ca8-a1bd-72df56270d30","ios":"levelo://app?vid=aa2c077b-94a8-4ca8-a1bd-72df56270d30"},"vehicle_type_id":"4","last_reported":1744165271,"current_range_meters":20400,"station_id":"ce4bhih2rcd13ifvqfs0","pricing_plan_id":"cebpf4jnsgd1na2vs0mg"},{"bike_id":"ee3c03b2-9a4c-4654-a28e-7388f571d9cb","system_id":"levelo_inurba_marseille","lat":43.3199,"lon":5.38138,"is_reserved":false,"is_disabled":true,"rental_uris":{"android":"levelo://app?vid=ee3c03b2-9a4c-4654-a28e-7388f571d9cb","ios":"levelo://app?vid=ee3c03b2-9a4c-4654-a28e-7388f571d9cb"},"vehicle_type_id":"4","last_reported":1744165271,"current_range_meters":20400,"station_id":"ce4bhr12rcd13ifvqhpg","pricing_plan_id":"cebpf4jnsgd1na2vs0mg"},