{"last_updated":1727093867,"ttl":30,"version":"2.2","data":{"bikes":[{"bike_id":"b8605d77-ee86-4990-8757-87f61870c06c","system_id":"levelo_inurba_marseille","lat":43.30912,"lon":5.36851,"is_reserved":false,"is_disabled":false,"rental_uris":{"android":"levelo://app?vid=b8605d77-ee86-4990-8757-87f61870c06c","ios":"levelo://app?vid=b8605d77-ee86-4990-8757-87f61870c06c"},"vehicle_type_id":"4","last_reported":1727093867,"current_range_meters":8400,"station_id":"ce4bgn92rcd13ifvqbvg","pricing_plan_id":"cebpf4jnsgd1na2vs0mg"},{"bike_id":"8724915e-a4fa-4e64-bed3-127a8f330cc1","system_id":"levelo_inurba_marseille","lat":43.26211,"lon":5.37443,"is_reserved":false,"is_disabled":false,"rental_uris":{"android":"levelo://app?vid=8724915e-a4fa-4e64-bed3-127a8f330cc1","ios":"levelo://app?vid=8724915e-a4fa-4e64-bed3-127a8f330cc1"},"vehicle_type_id":"4","last_reported":1727093867,"current_range_meters":26800,"station_id":"ce4bhgp2rcd13ifvqfc0","pricing_plan_id":"cebpf4jnsgd1na2vs0mg"},{"bike_id":"df7767e0-cc98-4237-9d87-3ad00d1f130b","system_id":"levelo_inurba_marseille","lat":43.31483,"lon":5.37307,"is_reserved":false,"is_disabled":false,"rental_uris":{"android":"levelo://app?vid=df7767e0-cc98-4237-9d87-3ad00d1f130b","ios":"levelo://app?vid=df7767e0-cc98-4237-9d87-3ad00d1f130b"},"vehicle_type_id":"4","last_reported":1727093867,"current_range_meters":24000,"station_id":"ce4bgt12rcd13ifvqcd0","pricing_plan_id":"cebpf4jnsgd1na2vs0mg"},{"bike_id":"e2b8e9b6-1a0f-4fcb-9782-55db1cf0ca84","system_id":"levelo_inurba_marseille","lat":43.27961,"lon":5.38753,"is_reserved":false,"is_disabled":false,"rental_uris":{"android":"levelo://app?vid=e2b8e9b6-1a0f-4fcb-9782-55db1cf0ca84","ios":"levelo://app?vid=e2b8e9b6-1a0f-4fcb-9782-55db1cf0ca84"},"vehicle_type_id":"4","last_reported":1727093867,"current_range_meters":28800,"station_id":"ce4bhg12rcd13ifvqf80","pricing_plan_id":"cebpf4jnsgd1na2vs0mg"},{"bike_id":"16b5379b-2948-43c0-812f-c359eab15e56","system_id":"levelo_inurba_marseille","lat":43.3266,"lon":5.40994,"is_reserved":false,"is_disabled":false,"rental_uris":{"android":"levelo://app?vid=16b5379b-2948-43c0-812f-c359eab15e56","ios":"levelo://app?vid=16b5379b-2948-43c0-812f-c359eab15e56"},"vehicle_type_id":"4","last_reported":1727093867,"current_range_meters":32400,"station_id":"ce4bhpp2rcd13ifvqhgg","pricing_plan_id":"cebpf4jnsgd1na2vs0mg"},{"bike_id":"21f08785-f68f-4754-8fba-4ef3045d51b1","system_id":"levelo_inurba_marseille","lat":43.29157,"lon":5.37175,"is_reserved":false,"is_disabled":false,"rental_uris":{"android":"levelo://app?vid=21f08785-f68f-4754-8fba-4ef3045d51b1","ios":"levelo://app?vid=21f08785-f68f-4754-8fba-4ef3045d51b1"},"vehicle_type_id":"4","last_reported":1727093867,"current_range_meters":22800,"station_id":"ce4bha92rcd13ifvqeh0","pricing_plan_id":"cebpf4jnsgd1na2vs0mg"},{"bike_id":"a62c5864-09be-46af-afda-ed106834536c","system_id":"levelo_inurba_marseille","lat":43.31713,"lon":5.43703,"is_reserved":false,"is_disabled":false,"rental_uris":{"android":"levelo://app?vid=a62c5864-09be-46af-afda-ed106834536c","ios":"levelo://app?vid=a62c5864-09be-46af-afda-ed106834536c"},"vehicle_type_id":"4","last_reported":1727093867,"current_range_meters":14800,"station_id":"ce4bhp92rcd13ifvqhcg","pricing_plan_id":"cebpf4jnsgd1na2vs0mg"},{"bike_id":"526b20eb-a75f-40c5-bb76-a03dedac1a2d","system_id":"levelo_inurba_marseille","lat":43.29518,"lon":5.37522,"is_reserved":false,"is_disabled":false,"rental_uris":{"android":"levelo://app?vid=526b20eb-a75f-40c5-bb76-a03dedac1a2d","ios":"levelo://app?vid=526b20eb-a75f-40c5-bb76-a03dedac1a2d"},"vehicle_type_id":"4","last_reported":1727093867,"current_range_meters":36400,"station_id":"ce4bgkp2rcd13ifvqbmg","pricing_plan_id":"cebpf4jnsgd1na2vs0mg"},{"bike_id":"f5810354-e3d1-407f-a173-2c833ddf3129","system_id":"levelo_inurba_marseille","lat":43.31533,"lon":5.38029,"is_reserved":false,"is_disabled":false,"rental_uris":{"android":"levelo://app?vid=f5810354-e3d1-407f-a173-2c833ddf3129","ios":"levelo://app?vid=f5810354-e3d1-407f-a173-2c833ddf3129"},"vehicle_type_id":"4","last_reported":1727093867,"current_range_meters":30800,"station_id":"ce4bhsp2rcd13ifvqi50","pricing_plan_id":"cebpf4jnsgd1na2vs0mg"},{"bike_id":"d5eb0b04-bc07-43d9-8ab6-56616e30eadb","system_id":"levelo_inurba_marseille","lat":43.30178,"lon":5.39314,"is_reserved":false,"is_disabled":false,"rental_uris":{"android":"levelo://app?vid=d5eb0b04-bc07-43d9-8ab6-56616e30eadb","ios":"levelo://app?vid=d5eb0b04-bc07-43d9-8ab6-56616e30eadb"},"vehicle_type_id":"4","last_reported":1727093867,"current_range_meters":38000,"station_id":"","pricing_plan_id":"cebpf4jnsgd1na2vs0mg"},{"bike_id":"dfecea0a-0422-4bc0-a57a-bf86bc071c86","system_id":"levelo_inurba_marseille","lat":43.25933,"lon":5.40908,"is_reserved":false,"is_disabled":false,"rental_uris":{"android":"levelo://app?vid=dfecea0a-0422-4bc0-a57a-bf86bc071c86","ios":"levelo://app?vid=dfecea0a-0422-4bc0-a57a-bf86bc071c86"},"vehicle_type_id":"4","last_reported":1727093867,"current_range_meters":24800,"station_id":"ce4bhm92rcd13ifvqglg","pricing_plan_id":"cebpf4jnsgd1na2vs0mg"},{"bike_id":"18ec8830-6b01-48f2-a7d7-2188544ece93","system_id":"levelo_inurba_marseille","lat":43.28761,"lon":5.38996,"is_reserved":false,"is_disabled":false,"rental_uris":{"android":"levelo://app?vid=18ec8830-6b01-48f2-a7d7-2188544ece93","ios":"levelo://app?vid=18ec8830-6b01-48f2-a7d7-2188544ece93"},"vehicle_type_id":"4","last_reported":1727093867,"current_range_meters":34000,"station_id":"","pricing_plan_id":"cebpf4jnsgd1na2vs0mg"},{"bike_id":"9e491187-6eae-4713-bd6c-e99251300247","system_id":"levelo_inurba_marseille","lat":43.2594,"lon":5.40901,"is_reserved":false,"is_disabled":false,"rental_uris":{"android":"levelo://app?vid=9e491187-6eae-4713-bd6c-e99251300247","ios":"levelo://app?vid=9e491187-6eae-4713-bd6c-e99251300247"},"vehicle_type_id":"4","last_reported":1727093867,"current_range_meters":28400,"station_id":"ce4bhm92rcd13ifvqglg","pricing_plan_id":"cebpf4jnsgd1na2vs0mg"},{"bike_id":"f8faa69f-f0f1-4edf-bcad-bfe1d20bd28b","system_id":"levelo_inurba_marseille","lat":43.24072,"lon":5.37766,"is_reserved":false,"is_disabled":false,"rental_uris":{"android":"levelo://app?vid=f8faa69f-f0f1-4edf-bcad-bfe1d20bd28b","ios":"levelo://app?vid=f8faa69f-f0f1-4edf-bcad-bfe1d20bd28b"},"vehicle_type_id":"4","last_reported":1727093867,"current_range_meters":36400,"station_id":"ce4bhnp2rcd13ifvqgvg","pricing_plan_id":"cebpf4jnsgd1na2vs0mg"},{"bike_id":"20a042f1-81aa-4cde-8548-4f002e395336","system_id":"levelo_inurba_marseille","lat":43.3018,"lon":5.39833,"is_reserved":false,"is_disabled":false,"rental_uris":{"android":"levelo://app?vid=20a042f1-81aa-4cde-8548-4f002e395336","ios":"levelo://app?vid=20a042f1-81aa-4cde-8548-4f002e395336"},"vehicle_type_id":"4","last_reported":1727093867,"current_range_meters":30400,"station_id":"ce4bgvp2rcd13ifvqct0","pricing_plan_id":"cebpf4jnsgd1na2vs0mg"},{"bike_id":"28a59c28-1f67-41d7-b781-3743369a881e","system_id":"levelo_inurba_marseille","lat":43.2797,"lon":5.38735,"is_reserved":false,"is_disabled":false,"rental_uris":{"android":"levelo://app?vid=28a59c28-1f67-41d7-b781-3743369a881e","ios":"levelo://app?vid=28a59c28-1f67-41d7-b781-3743369a881e"},"vehicle_type_id":"4","last_reported":1727093867,"current_range_meters":28000,"station_id":"ce4bhg12rcd13ifvqf80","pricing_plan_id":"cebpf4jnsgd1na2vs0mg"},{"bike_id":"3d192633-044a-4cb5-934c-f0a9047dbc7d","system_id":"levelo_inurba_marseille","lat":43.27495,"lon":5.42453,"is_reserved":false,"is_disabled":false,"rental_uris":{"android":"levelo://app?vid=3d192633-044a-4cb5-934c-f0a9047dbc7d","ios":"levelo://app?vid=3d192633-044a-4cb5-934c-f0a9047dbc7d"},"vehicle_type_id":"4","last_reported":1727093867,"current_range_meters":7200,"station_id":"ce4bhn92rcd13ifvqgrg","pricing_plan_id":"cebpf4jnsgd1na2vs0mg"},{"bike_id":"f24c4d1a-598f-443a-afcb-0fa3525299ef","system_id":"levelo_inurba_marseille","lat":43.26946,"lon":5.38628,"is_reserved":false,"is_disabled":false,"rental_uris":{"android":"levelo://app?vid=f24c4d1a-598f-443a-afcb-0fa3525299ef","ios":"levelo://app?vid=f24c4d1a-598f-443a-afcb-0fa3525299ef"},"vehicle_type_id":"4","last_reported":1727093867,"current_range_meters":30000,"station_id":"ce4bhh92rcd13ifvqfh0","pricing_plan_id":"cebpf4jnsgd1na2vs0mg"},{"bike_id":"821f8910-ab08-4208-bde3-76916bf2cd37","system_id":"levelo_inurba_marseille","lat":43.30194,"lon":5.36633,"is_reserved":false,"is_disabled":false,"rental_uris":{"android":"levelo://app?vid=821f8910-ab08-4208-bde3-76916bf2cd37","ios":"levelo://app?vid=821f8910-ab08-4208-bde3-76916bf2cd37"},"vehicle_type_id":"4","last_reported":1727093867,"current_range_meters":21600,"station_id":"ce4bgrh2rcd13ifvqc8g","pricing_plan_id":"cebpf4jnsgd1na2vs0mg"},{"bike_id":"f7adb0ea-e195-40b9-9d71-9b4f032c7ddb","system_id":"levelo_inurba_marseille","lat":43.23151,"lon":5.43707,"is_reserved":false,"is_disabled":false,"rental_uris":{"android":"levelo://app?vid=f7adb0ea-e195-40b9-9d71-9b4f032c7ddb","ios":"levelo://app?vid=f7adb0ea-e195-40b9-9d71-9b4f032c7ddb"},"vehicle_type_id":"4","last_reported":1727093867,"current_range_meters":38000,"station_id":"ce4bhmp2rcd13ifvqgog","pricing_plan_id":"cebpf4jnsgd1na2vs0mg"},{"bike_id":"d807ad9d-58d0-427c-8d84-4f142777dc28","system_id":"levelo_inurba_marseille","lat":43.27492,"lon":5.42458,"is_reserved":false,"is_disabled":false,"rental_uris":{"android":"levelo://app?vid=d807ad9d-58d0-427c-8d84-4f142777dc28","ios":"levelo://app?vid=d807ad9d-58d0-427c-8d84-4f142777dc28"},"vehicle_type_id":"4","last_reported":1727093867,"current_range_meters":4800,"station_id":"ce4bhn92rcd13ifvqgrg","pricing_plan_id":"cebpf4jnsgd1na2vs0mg"},{"bike_id":"80eca223-4a73-4a65-a903-bcf7afbbc7bd","system_id":"levelo_inurba_marseille","lat":43.23151,"lon":5.43709,"is_reserved":false,"is_disabled":false,"rental_uris":{"android":"levelo://app?vid=80eca223-4a73-4a65-a903-bcf7afbbc7bd","ios":"levelo://app?vid=80eca223-4a73-4a65-a903-bcf7afbbc7bd"},"vehicle_type_id":"4","last_reported":1727093867,"current_range_meters":38800,"station_id":"ce4bhmp2rcd13ifvqgog","pricing_plan_id":"cebpf4jnsgd1na2vs0mg"},{"bike_id":"1f1f13cc-72ab-45bc-92d5-7872d5d302ee","system_id":"levelo_inurba_marseille","lat":43.337583,"lon":5.374568,"is_reserved":false,"is_disabled":false,"rental_uris":{"android":"levelo://app?vid=1f1f13cc-72ab-45bc-92d5-7872d5d302ee","ios":"levelo://app?vid=1f1f13cc-72ab-45bc-92d5-7872d5d302ee"},"vehicle_type_id":"4","last_reported":1727093867,"current_range_meters":36800,"station_id":"","pricing_plan_id":"cebpf4jnsgd1na2vs0mg"},{"bike_id":"52553e47-2c41-4fae-b028-2d1e8c5c6c51","system_id":"levelo_inurba_marseille","lat":43.29896,"lon":5.43659,"is_reserved":false,"is_disabled":false,"rental_uris":{"android":"levelo://app?vid=52553e47-2c41-4fae-b028-2d1e8c5c6c51","ios":"levelo://app?vid=52553e47-2c41-4fae-b028-2d1e8c5c6c51"},"vehicle_type_id":"4","last_reported":1727093867,"current_range_meters":21600,"station_id":"ce4bhpp2rcd13ifvqhfg","pricing_plan_id":"cebpf4jnsgd1na2vs0mg"},{"bike_id":"250e9d3b-0829-454e-87aa-1cc7c5b6d414","system_id":"levelo_inurba_marseille","lat":43.28709,"lon":5.39982,"is_reserved":false,"is_disabled":false,"rental_uris":{"android":"levelo://app?vid=250e9d3b-0829-454e-87aa-1cc7c5b6d414","ios":"levelo://app?vid=250e9d3b-0829-454e-87aa-1cc7c5b6d414"},"vehicle_type_id":"4","last_reported":1727093867,"current_range_meters":2800,"station_id":"ce4bho92rcd13ifvqh3g","pricing_plan_id":"cebpf4jnsgd1na2vs0mg"},{"bike_id":"4d9f8f86-318d-430e-bb5c-682e03a68f0b","system_id":"levelo_inurba_marseille","lat":43.28936,"lon":5.36638,"is_reserved":false,"is_disabled":false,"rental_uris":{"android":"levelo://app?vid=4d9f8f86-318d-430e-bb5c-682e03a68f0b","ios":"levelo://app?vid=4d9f8f86-318d-430e-bb5c-682e03a68f0b"},"vehicle_type_id":"4","last_reported":1727093867,"current_range_meters":30400,"station_id":"ce4bhap2rcd13ifvqek0","pricing_plan_id":"cebpf4jnsgd1na2vs0mg"},{"bike_id":"4117225d-fbf7-489f-a9f9-a7903758f15d","system_id":"levelo_inurba_marseille","lat":43.337444,"lon":5.374475,"is_reserved":false,"is_disabled":false,"rental_uris":{"android":"levelo://app?vid=4117225d-fbf7-489f-a9f9-a7903758f15d","ios":"levelo://app?vid=4117225d-fbf7-489f-a9f9-a7903758f15d"},"vehicle_type_id":"4","last_reported":1727093867,"current_range_meters":26000,"station_id":"","pricing_plan_id":"cebpf4jnsgd1na2vs0mg"},{"bike_id":"a61c23d9-d61c-4365-bc08-d37166eaf4e1","system_id":"levelo_inurba_marseille","lat":43.30327,"lon":5.40443,"is_reserved":false,"is_disabled":false,"rental_uris":{"android":"levelo://app?vid=a61c23d9-d61c-4365-bc08-d37166eaf4e1","ios":"levelo://app?vid=a61c23d9-d61c-4365-bc08-d37166eaf4e1"},"vehicle_type_id":"4","last_reported":1727093867,"current_range_meters":36400,"station_id":"ce4bh012rcd13ifvqd10","pricing_plan_id":"cebpf4jnsgd1na2vs0mg"},{"bike_id":"a7933649-f657-4231-9ea4-97523602c505","system_id":"levelo_inurba_marseille","lat":43.283417,"lon":5.381096,"is_reserved":false,"is_disabled":false,"rental_uris":{"android":"levelo://app?vid=a7933649-f657-4231-9ea4-97523602c505","ios":"levelo://app?vid=a7933649-f657-4231-9ea4-97523602c505"},"vehicle_type_id":"4","last_reported":1727093867,"current_range_meters":26000,"station_id":"ce4bh412rcd13ifvqdr0","pricing_plan_id":"cebpf4jnsgd1na2vs0mg"},{"bike_id":"fb393e0c-478d-4b6e-9798-120a64d86fcc","system_id":"levelo_inurba_marseille","lat":43.24168,"lon":5.36403,"is_reserved":false,"is_disabled":false,"rental_uris":{"android":"levelo://app?vid=fb393e0c-478d-4b6e-9798-120a64d86fcc","ios":"levelo://app?vid=fb393e0c-478d-4b6e-9798-120a64d86fcc"},"vehicle_type_id":"4","last_reported":1727093867,"current_range_meters":36800,"station_id":"cpo36qri1sfpv3e86is0","pricing_plan_id":"cebpf4jnsgd1na2vs0mg"},{"bike_id":"684148ff-b97e-4298-b99f-05f746a12176","system_id":"levelo_inurba_marseille","lat":43.28928,"lon":5.38399,"is_reserved":false,"is_disabled":false,"rental_uris":{"android":"levelo://app?vid=684148ff-b97e-4298-b99f-05f746a12176","ios":"levelo://app?vid=684148ff-b97e-4298-b99f-05f746a12176"},"vehicle_type_id":"4","last_reported":1727093867,"current_range_meters":29600,"station_id":"ce4bh612rcd13ifvqe6g","pricing_plan_id":"cebpf4jnsgd1na2vs0mg"},{"bike_id":"2fc34bba-a2b4-4632-bf54-64bcff937e6e","system_id":"levelo_inurba_marseille","lat":43.3248,"lon":5.36564,"is_reserved":false,"is_disabled":false,"rental_uris":{"android":"levelo://app?vid=2fc34bba-a2b4-4632-bf54-64bcff937e6e","ios":"levelo://app?vid=2fc34bba-a2b4-4632-bf54-64bcff937e6e"},"vehicle_type_id":"4","last_reported":1727093867,"current_range_meters":28000,"station_id":"ce4bhs12rcd13ifvqhvg","pricing_plan_id":"cebpf4jnsgd1na2vs0mg"},{"bike_id":"5efc27d9-9e10-4d54-bb98-f2d624a41a95","system_id":"levelo_inurba_marseille","lat":43.337488,"lon":5.374677,"is_reserved":false,"is_disabled":false,"rental_uris":{"android":"levelo://app?vid=5efc27d9-9e10-4d54-bb98-f2d624a41a95","ios":"levelo://app?vid=5efc27d9-9e10-4d54-bb98-f2d624a41a95"},"vehicle_type_id":"4","last_reported":1727093867,"current_range_meters":38400,"station_id":"","pricing_plan_id":"cebpf4jnsgd1na2vs0mg"},{"bike_id":"73e4a215-0c53-4aea-9746-8d091c916adf","system_id":"levelo_inurba_marseille","lat":43.27494,"lon":5.42455,"is_reserved":false,"is_disabled":false,"rental_uris":{"android":"levelo://app?vid=73e4a215-0c53-4aea-9746-8d091c916adf","ios":"levelo://app?vid=73e4a215-0c53-4aea-9746-8d091c916adf"},"vehicle_type_id":"4","last_reported":1727093867,"current_range_meters":14000,"station_id":"ce4bhn92rcd13ifvqgrg","pricing_plan_id":"cebpf4jnsgd1na2vs0mg"},{"bike_id":"a0edd235-9112-4738-ae17-f58c690ab2f4","system_id":"levelo_inurba_marseille","lat":43.32483,"lon":5.36556,"is_reserved":false,"is_disabled":false,"rental_uris":{"android":"levelo://app?vid=a0edd235-9112-4738-ae17-f58c690ab2f4","ios":"levelo://app?vid=a0edd235-9112-4738-ae17-f58c690ab2f4"},"vehicle_type_id":"4","last_reported":1727093867,"current_range_meters":39200,"station_id":"ce4bhs12rcd13ifvqhvg","pricing_plan_id":"cebpf4jnsgd1na2vs0mg"},{"bike_id":"87c1dfe2-ac49-40f6-8e92-009de98726eb","system_id":"levelo_inurba_marseille","lat":43.273834,"lon":5.393324,"is_reserved":false,"is_disabled":false,"rental_uris":{"android":"levelo://app?vid=87c1dfe2-ac49-40f6-8e92-009de98726eb","ios":"levelo://app?vid=87c1dfe2-ac49-40f6-8e92-009de98726eb"},"vehicle_type_id":"4","last_reported":1727093867,"current_range_meters":16000,"station_id":"ce4bh292rcd13ifvqdg0","pricing_plan_id":"cebpf4jnsgd1na2vs0mg"},{"bike_id":"99e44046-7482-4d37-bb06-82aea3040667","system_id":"levelo_inurba_marseille","lat":43.310441,"lon":5.370068,"is_reserved":false,"is_disabled":false,"rental_uris":{"android":"levelo://app?vid=99e44046-7482-4d37-bb06-82aea3040667","ios":"levelo://app?vid=99e44046-7482-4d37-bb06-82aea3040667"},"vehicle_type_id":"4","last_reported":1727093867,"current_range_meters":25600,"station_id":"ce4bgl92rcd13ifvqbq0","pricing_plan_id":"cebpf4jnsgd1na2vs0mg"},{"bike_id":"b40cf0c5-cf06-4c2c-a4b6-8b279f429441","system_id":"levelo_inurba_marseille","lat":43.3169,"lon":5.4047,"is_reserved":false,"is_disabled":false,"rental_uris":{"android":"levelo://app?vid=b40cf0c5-cf06-4c2c-a4b6-8b279f429441","ios":"levelo://app?vid=b40cf0c5-cf06-4c2c-a4b6-8b279f429441"},"vehicle_type_id":"4","last_reported":1727093867,"current_range_meters":27600,"station_id":"ce4bh012rcd13ifvqd00","pricing_plan_id":"cebpf4jnsgd1na2vs0mg"},{"bike_id":"3c079497-4f0f-4dd3-8bef-c3f7cdf08ea0","system_id":"levelo_inurba_marseille","lat":43.24075,"lon":5.37753,"is_reserved":false,"is_disabled":false,"rental_uris":{"android":"levelo://app?vid=3c079497-4f0f-4dd3-8bef-c3f7cdf08ea0","ios":"levelo://app?vid=3c079497-4f0f-4dd3-8bef-c3f7cdf08ea0"},"vehicle_type_id":"4","last_reported":1727093867,"current_range_meters":36800,"station_id":"ce4bhnp2rcd13ifvqgvg","pricing_plan_id":"cebpf4jnsgd1na2vs0mg"},{"bike_id":"eb854808-7c92-46c5-957f-652344786cca","system_id":"levelo_inurba_marseille","lat":43.241791,"lon":5.39731,"is_reserved":false,"is_disabled":false,"rental_uris":{"android":"levelo://app?vid=eb854808-7c92-46c5-957f-652344786cca","ios":"levelo://app?vid=eb854808-7c92-46c5-957f-652344786cca"},"vehicle_type_id":"4","last_reported":1727093867,"current_range_meters":11600,"station_id":"ce4bhn12rcd13ifvqgpg","pricing_plan_id":"cebpf4jnsgd1na2vs0mg"},{"bike_id":"860c8e9d-4001-4aaa-b1f1-ab02b2cccfa4","system_id":"levelo_inurba_marseille","lat":43.3248,"lon":5.3658,"is_reserved":false,"is_disabled":false,"rental_uris":{"android":"levelo://app?vid=860c8e9d-4001-4aaa-b1f1-ab02b2cccfa4","ios":"levelo://app?vid=860c8e9d-4001-4aaa-b1f1-ab02b2cccfa4"},"vehicle_type_id":"4","last_reported":1727093867,"current_range_meters":24800,"station_id":"ce4bhs12rcd13ifvqhvg","pricing_plan_id":"cebpf4jnsgd1na2vs0mg"},{"bike_id":"11658d4c-2567-4b0f-8e71-8ec83d6896ed","system_id":"levelo_inurba_marseille","lat":43.3054,"lon":5.36538,"is_reserved":false,"is_disabled":false,"rental_uris":{"android":"levelo://app?vid=11658d4c-2567-4b0f-8e71-8ec83d6896ed","ios":"levelo://app?vid=11658d4c-2567-4b0f-8e71-8ec83d6896ed"},"vehicle_type_id":"4","last_reported":1727093867,"current_range_meters":39200,"station_id":"ce4bgs12rcd13ifvqcag","pricing_plan_id":"cebpf4jnsgd1na2vs0mg"},{"bike_id":"84daa11a-5876-4f90-8c91-9e2c87df8f28","system_id":"levelo_inurba_marseille","lat":43.28154,"lon":5.42645,"is_reserved":false,"is_disabled":false,"rental_uris":{"android":"levelo://app?vid=84daa11a-5876-4f90-8c91-9e2c87df8f28","ios":"levelo://app?vid=84daa11a-5876-4f90-8c91-9e2c87df8f28"},"vehicle_type_id":"4","last_reported":1727093867,"current_range_meters":8400,"station_id":"ce4bhnh2rcd13ifvqgug","pricing_plan_id":"cebpf4jnsgd1na2vs0mg"},{"bike_id":"c4c39e66-9ed5-447d-9a70-518b2971b8fd","system_id":"levelo_inurba_marseille","lat":43.3055,"lon":5.36528,"is_reserved":false,"is_disabled":false,"rental_uris":{"android":"levelo://app?vid=c4c39e66-9ed5-447d-9a70-518b2971b8fd","ios":"levelo://app?vid=c4c39e66-9ed5-447d-9a70-518b2971b8fd"},"vehicle_type_id":"4","last_reported":1727093867,"current_range_meters":26000,"station_id":"ce4bgs12rcd13ifvqcag","pricing_plan_id":"cebpf4jnsgd1na2vs0mg"},{"bike_id":"3ebaaaec-15d2-494c-ab9e-13e8bcbe1874","system_id":"levelo_inurba_marseille","lat":43.29276,"lon":5.3686,"is_reserved":false,"is_disabled":false,"rental_uris":{"android":"levelo://app?vid=3ebaaaec-15d2-494c-ab9e-13e8bcbe1874","ios":"levelo://app?vid=3ebaaaec-15d2-494c-ab9e-13e8bcbe1874"},"vehicle_type_id":"4","last_reported":1727093867,"current_range_meters":30400,"station_id":"ce4bhbp2rcd13ifvqesg","pricing_plan_id":"cebpf4jnsgd1na2vs0mg"},{"bike_id":"624e3f94-9568-469c-ab6c-878c70b3a213","system_id":"levelo_inurba_marseille","lat":43.31493,"lon":5.37297,"is_reserved":false,"is_disabled":false,"rental_uris":{"android":"levelo://app?vid=624e3f94-9568-469c-ab6c-878c70b3a213","ios":"levelo://app?vid=624e3f94-9568-469c-ab6c-878c70b3a213"},"vehicle_type_id":"4","last_reported":1727093867,"current_range_meters":22000,"station_id":"ce4bgt12rcd13ifvqcd0","pricing_plan_id":"cebpf4jnsgd1na2vs0mg"},{"bike_id":"5632390e-03af-4541-960f-fec03f55a325","system_id":"levelo_inurba_marseille","lat":43.2707,"lon":5.4228,"is_reserved":false,"is_disabled":false,"rental_uris":{"android":"levelo://app?vid=5632390e-03af-4541-960f-fec03f55a325","ios":"levelo://app?vid=5632390e-03af-4541-960f-fec03f55a325"},"vehicle_type_id":"4","last_reported":1727093867,"current_range_meters":12000,"station_id":"ce4bhk92rcd13ifvqgb0","pricing_plan_id":"cebpf4jnsgd1na2vs0mg"},{"bike_id":"de29b561-59b2-44dc-ae00-0f630a9bf7cb","system_id":"levelo_inurba_marseille","lat":43.337625,"lon":5.374797,"is_reserved":false,"is_disabled":false,"rental_uris":{"android":"levelo://app?vid=de29b561-59b2-44dc-ae00-0f630a9bf7cb","ios":"levelo://app?vid=de29b561-59b2-44dc-ae00-0f630a9bf7cb"},"vehicle_type_id":"4","last_reported":1727093867,"current_range_meters":16000,"station_id":"","pricing_plan_id":"cebpf4jnsgd1na2vs0mg"},{"bike_id":"2b26ac36-e341-4854-a9d6-915450d3500a","system_id":"levelo_inurba_marseille","lat":43.2707,"lon":5.42275,"is_reserved":false,"is_disabled":false,"rental_uris":{"android":"levelo://app?vid=2b26ac36-e341-4854-a9d6-915450d3500a","ios":"levelo://app?vid=2b26ac36-e341-4854-a9d6-915450d3500a"},"vehicle_type_id":"4","last_reported":1727093867,"current_range_meters":37600,"station_id":"ce4bhk92rcd13ifvqgb0","pricing_plan_id":"cebpf4jnsgd1na2vs0mg"},{"bike_id":"419528ea-3cc5-43d8-9f0e-aa0e19a745de","system_id":"levelo_inurba_marseille","lat":43.33603,"lon":5.41016,"is_reserved":false,"is_disabled":false,"rental_uris":{"android":"levelo://app?vid=419528ea-3cc5-43d8-9f0e-aa0e19a745de","ios":"levelo://app?vid=419528ea-3cc5-43d8-9f0e-aa0e19a745de"},"vehicle_type_id":"4","last_reported":1727093867,"current_range_meters":25200,"station_id":"ce4bhqh2rcd13ifvqhmg","pricing_plan_id":"cebpf4jnsgd1na2vs0mg"},{"bike_id":"5ac02ac5-91f4-4bb5-a9b4-f7275115ed59","system_id":"levelo_inurba_marseille","lat":43.23153,"lon":5.43711,"is_reserved":false,"is_disabled":false,"rental_uris":{"android":"levelo://app?vid=5ac02ac5-91f4-4bb5-a9b4-f7275115ed59","ios":"levelo://app?vid=5ac02ac5-91f4-4bb5-a9b4-f7275115ed59"},"vehicle_type_id":"4","last_reported":1727093867,"current_range_meters":23200,"station_id":"ce4bhmp2rcd13ifvqgog","pricing_plan_id":"cebpf4jnsgd1na2vs0mg"},{"bike_id":"fd993244-2500-456b-abb0-d1cb72d741ce","system_id":"levelo_inurba_marseille","lat":43.231903,"lon":5.355486,"is_reserved":false,"is_disabled":false,"rental_uris":{"android":"levelo://app?vid=fd993244-2500-456b-abb0-d1cb72d741ce","ios":"levelo://app?vid=fd993244-2500-456b-abb0-d1cb72d741ce"},"vehicle_type_id":"4","last_reported":1727093867,"current_range_meters":32000,"station_id":"ce4bhu92rcd13ifvqi70","pricing_plan_id":"cebpf4jnsgd1na2vs0mg"},{"bike_id":"0ba2cc93-d70c-4d15-b4be-a0351ddeb414","system_id":"levelo_inurba_marseille","lat":43.27074,"lon":5.42276,"is_reserved":false,"is_disabled":false,"rental_uris":{"android":"levelo://app?vid=0ba2cc93-d70c-4d15-b4be-a0351ddeb414","ios":"levelo://app?vid=0ba2cc93-d70c-4d15-b4be-a0351ddeb414"},"vehicle_type_id":"4","last_reported":1727093867,"current_range_meters":6000,"station_id":"ce4bhk92rcd13ifvqgb0","pricing_plan_id":"cebpf4jnsgd1na2vs0mg"},{"bike_id":"53fa2c97-9230-49e1-be31-123091ff05a0","system_id":"levelo_inurba_marseille","lat":43.24081,"lon":5.37751,"is_reserved":false,"is_disabled":false,"rental_uris":{"android":"levelo://app?vid=53fa2c97-9230-49e1-be31-123091ff05a0","ios":"levelo://app?vid=53fa2c97-9230-49e1-be31-123091ff05a0"},"vehicle_type_id":"4","last_reported":1727093867,"current_range_meters":27600,"station_id":"ce4bhnp2rcd13ifvqgvg","pricing_plan_id":"cebpf4jnsgd1na2vs0mg"},{"bike_id":"36c416da-9158-44af-aa3a-06b103bea7bf","system_id":"levelo_inurba_marseille","lat":43.337444,"lon":5.374475,"is_reserved":false,"is_disabled":false,"rental_uris":{"android":"levelo://app?vid=36c416da-9158-44af-aa3a-06b103bea7bf","ios":"levelo://app?vid=36c416da-9158-44af-aa3a-06b103bea7bf"},"vehicle_type_id":"4","last_reported":1727093867,"current_range_meters":24000,"station_id":"","pricing_plan_id":"cebpf4jnsgd1na2vs0mg"},{"bike_id":"18fae2e4-2399-43e9-ae57-8d2c1d0079a0","system_id":"levelo_inurba_marseille","lat":43.2408,"lon":5.37744,"is_reserved":false,"is_disabled":false,"rental_uris":{"android":"levelo://app?vid=18fae2e4-2399-43e9-ae57-8d2c1d0079a0","ios":"levelo://app?vid=18fae2e4-2399-43e9-ae57-8d2c1d0079a0"},"vehicle_type_id":"4","last_reported":1727093867,"current_range_meters":26800,"station_id":"ce4bhnp2rcd13ifvqgvg","pricing_plan_id":"cebpf4jnsgd1na2vs0mg"},{"bike_id":"b4070923-73cd-44af-85af-109c496f852b","system_id":"levelo_inurba_marseille","lat":43.30537,"lon":5.36714,"is_reserved":false,"is_disabled":false,"rental_uris":{"android":"levelo://app?vid=b4070923-73cd-44af-85af-109c496f852b","ios":"levelo://app?vid=b4070923-73cd-44af-85af-109c496f852b"},"vehicle_type_id":"4","last_reported":1727093867,"current_range_meters":35200,"station_id":"ce4bgrp2rcd13ifvqc9g","pricing_plan_id":"cebpf4jnsgd1na2vs0mg"},{"bike_id":"8e975919-49f3-4c9f-8eda-6d98788fb7bc","system_id":"levelo_inurba_marseille","lat":43.337444,"lon":5.374475,"is_reserved":false,"is_disabled":false,"rental_uris":{"android":"levelo://app?vid=8e975919-49f3-4c9f-8eda-6d98788fb7bc","ios":"levelo://app?vid=8e975919-49f3-4c9f-8eda-6d98788fb7bc"},"vehicle_type_id":"4","last_reported":1727093867,"current_range_meters":36800,"station_id":"","pricing_plan_id":"cebpf4jnsgd1na2vs0mg"},{"bike_id":"7763462c-a04c-4ecc-b136-525e7f00d0c1","system_id":"levelo_inurba_marseille","lat":43.30312,"lon":5.39214,"is_reserved":false,"is_disabled":false,"rental_uris":{"android":"levelo://app?vid=7763462c-a04c-4ecc-b136-525e7f00d0c1","ios":"levelo://app?vid=7763462c-a04c-4ecc-b136-525e7f00d0c1"},"vehicle_type_id":"4","last_reported":1727093867,"current_range_meters":36800,"station_id":"ce4bgkh2rcd13ifvqbk0","pricing_plan_id":"cebpf4jnsgd1na2vs0mg"},{"bike_id":"5abf3738-3056-45d0-ad36-b5f63eb6c7bd","system_id":"levelo_inurba_marseille","lat":43.3172,"lon":5.43692,"is_reserved":false,"is_disabled":false,"rental_uris":{"android":"levelo://app?vid=5abf3738-3056-45d0-ad36-b5f63eb6c7bd","ios":"levelo://app?vid=5abf3738-3056-45d0-ad36-b5f63eb6c7bd"},"vehicle_type_id":"4","last_reported":1727093867,"current_range_meters":20400,"station_id":"ce4bhp92rcd13ifvqhcg","pricing_plan_id":"cebpf4jnsgd1na2vs0mg"},{"bike_id":"bcfab92a-dc6c-4038-8477-18be1eec815d","system_id":"levelo_inurba_marseille","lat":43.28158,"lon":5.42648,"is_reserved":false,"is_disabled":false,"rental_uris":{"android":"levelo://app?vid=bcfab92a-dc6c-4038-8477-18be1eec815d","ios":"levelo://app?vid=bcfab92a-dc6c-4038-8477-18be1eec815d"},"vehicle_type_id":"4","last_reported":1727093867,"current_range_meters":6800,"station_id":"ce4bhnh2rcd13ifvqgug","pricing_plan_id":"cebpf4jnsgd1na2vs0mg"},{"bike_id":"9535c4c1-db43-4da9-bd59-0e6bec13b4df","system_id":"levelo_inurba_marseille","lat":43.23149,"lon":5.43711,"is_reserved":false,"is_disabled":false,"rental_uris":{"android":"levelo://app?vid=9535c4c1-db43-4da9-bd59-0e6bec13b4df","ios":"levelo://app?vid=9535c4c1-db43-4da9-bd59-0e6bec13b4df"},"vehicle_type_id":"4","last_reported":1727093867,"current_range_meters":8800,"station_id":"ce4bhmp2rcd13ifvqgog","pricing_plan_id":"cebpf4jnsgd1na2vs0mg"},{"bike_id":"43043176-26c4-426a-b720-127ae8f9740f","system_id":"levelo_inurba_marseille","lat":43.23149,"lon":5.43716,"is_reserved":false,"is_disabled":false,"rental_uris":{"android":"levelo://app?vid=43043176-26c4-426a-b720-127ae8f9740f","ios":"levelo://app?vid=43043176-26c4-426a-b720-127ae8f9740f"},"vehicle_type_id":"4","last_reported":1727093867,"current_range_meters":38400,"station_id":"ce4bhmp2rcd13ifvqgog","pricing_plan_id":"cebpf4jnsgd1na2vs0mg"},{"bike_id":"fc575353-58ff-483b-a79b-951c44179ca5","system_id":"levelo_inurba_marseille","lat":43.29712,"lon":5.37695,"is_reserved":false,"is_disabled":false,"rental_uris":{"android":"levelo://app?vid=fc575353-58ff-483b-a79b-951c44179ca5","ios":"levelo://app?vid=fc575353-58ff-483b-a79b-951c44179ca5"},"vehicle_type_id":"4","last_reported":1727093867,"current_range_meters":17600,"station_id":"ce4bgkh2rcd13ifvqbl0","pricing_plan_id":"cebpf4jnsgd1na2vs0mg"},{"bike_id":"690627a1-8e57-4b02-bc7a-dd9bcf49489f","system_id":"levelo_inurba_marseille","lat":43.2958,"lon":5.36739,"is_reserved":false,"is_disabled":false,"rental_uris":{"android":"levelo://app?vid=690627a1-8e57-4b02-bc7a-dd9bcf49489f","ios":"levelo://app?vid=690627a1-8e57-4b02-bc7a-dd9bcf49489f"},"vehicle_type_id":"4","last_reported":1727093867,"current_range_meters":38800,"station_id":"ce4bgph2rcd13ifvqc2g","pricing_plan_id":"cebpf4jnsgd1na2vs0mg"},{"bike_id":"149779fc-bc45-458a-857f-33707eedaf6a","system_id":"levelo_inurba_marseille","lat":43.23196,"lon":5.3555,"is_reserved":false,"is_disabled":false,"rental_uris":{"android":"levelo://app?vid=149779fc-bc45-458a-857f-33707eedaf6a","ios":"levelo://app?vid=149779fc-bc45-458a-857f-33707eedaf6a"},"vehicle_type_id":"4","last_reported":1727093867,"current_range_meters":9200,"station_id":"ce4bhu92rcd13ifvqi70","pricing_plan_id":"cebpf4jnsgd1na2vs0mg"},{"bike_id":"08917494-1fc4-4318-ae60-7cc18da54dff","system_id":"levelo_inurba_marseille","lat":43.290037,"lon":5.355926,"is_reserved":false,"is_disabled":false,"rental_uris":{"android":"levelo://app?vid=08917494-1fc4-4318-ae60-7cc18da54dff","ios":"levelo://app?vid=08917494-1fc4-4318-ae60-7cc18da54dff"},"vehicle_type_id":"4","last_reported":1727093867,"current_range_meters":29600,"station_id":"ce4bhb92rcd13ifvqen0","pricing_plan_id":"cebpf4jnsgd1na2vs0mg"},{"bike_id":"dcd9b5d2-0de8-47f5-a370-a19a6ea66e01","system_id":"levelo_inurba_marseille","lat":43.28267,"lon":5.35072,"is_reserved":false,"is_disabled":false,"rental_uris":{"android":"levelo://app?vid=dcd9b5d2-0de8-47f5-a370-a19a6ea66e01","ios":"levelo://app?vid=dcd9b5d2-0de8-47f5-a370-a19a6ea66e01"},"vehicle_type_id":"4","last_reported":1727093867,"current_range_meters":32800,"station_id":"ce4bhbp2rcd13ifvqerg","pricing_plan_id":"cebpf4jnsgd1na2vs0mg"},{"bike_id":"8620dcac-2c9a-44f0-8283-969c0a44894d","system_id":"levelo_inurba_marseille","lat":43.24081,"lon":5.37744,"is_reserved":false,"is_disabled":false,"rental_uris":{"android":"levelo://app?vid=8620dcac-2c9a-44f0-8283-969c0a44894d","ios":"levelo://app?vid=8620dcac-2c9a-44f0-8283-969c0a44894d"},"vehicle_type_id":"4","last_reported":1727093867,"current_range_meters":28000,"station_id":"ce4bhnp2rcd13ifvqgvg","pricing_plan_id":"cebpf4jnsgd1na2vs0mg"},{"bike_id":"cdaf977a-d05d-4a14-92da-799b3184f4ec","system_id":"levelo_inurba_marseille","lat":43.29036,"lon":5.39968,"is_reserved":false,"is_disabled":false,"rental_uris":{"android":"levelo://app?vid=cdaf977a-d05d-4a14-92da-799b3184f4ec","ios":"levelo://app?vid=cdaf977a-d05d-4a14-92da-799b3184f4ec"},"vehicle_type_id":"4","last_reported":1727093867,"current_range_meters":30800,"station_id":"ce4bh392rcd13ifvqdm0","pricing_plan_id":"cebpf4jnsgd1na2vs0mg"},{"bike_id":"781274e8-835f-43f2-9e3f-953edea7483a","system_id":"levelo_inurba_marseille","lat":43.29792,"lon":5.38101,"is_reserved":false,"is_disabled":false,"rental_uris":{"android":"levelo://app?vid=781274e8-835f-43f2-9e3f-953edea7483a","ios":"levelo://app?vid=781274e8-835f-43f2-9e3f-953edea7483a"},"vehicle_type_id":"4","last_reported":1727093867,"current_range_meters":19200,"station_id":"ce4bgip2rcd13ifvqbb0","pricing_plan_id":"cebpf4jnsgd1na2vs0mg"},{"bike_id":"9cef8447-5675-4f8e-856f-e3eb549f0790","system_id":"levelo_inurba_marseille","lat":43.28441,"lon":5.3918,"is_reserved":false,"is_disabled":false,"rental_uris":{"android":"levelo://app?vid=9cef8447-5675-4f8e-856f-e3eb549f0790","ios":"levelo://app?vid=9cef8447-5675-4f8e-856f-e3eb549f0790"},"vehicle_type_id":"4","last_reported":1727093867,"current_range_meters":38800,"station_id":"ce4bhoh2rcd13ifvqh5g","pricing_plan_id":"cebpf4jnsgd1na2vs0mg"},{"bike_id":"7af45883-e956-4577-b31d-9ab3a24d489e","system_id":"levelo_inurba_marseille","lat":43.337444,"lon":5.374475,"is_reserved":false,"is_disabled":false,"rental_uris":{"android":"levelo://app?vid=7af45883-e956-4577-b31d-9ab3a24d489e","ios":"levelo://app?vid=7af45883-e956-4577-b31d-9ab3a24d489e"},"vehicle_type_id":"4","last_reported":1727093867,"current_range_meters":37600,"station_id":"","pricing_plan_id":"cebpf4jnsgd1na2vs0mg"},{"bike_id":"4e1eefbe-ecd8-44f3-b68f-43ed64fa3f88","system_id":"levelo_inurba_marseille","lat":43.24069,"lon":5.37763,"is_reserved":false,"is_disabled":false,"rental_uris":{"android":"levelo://app?vid=4e1eefbe-ecd8-44f3-b68f-43ed64fa3f88","ios":"levelo://app?vid=4e1eefbe-ecd8-44f3-b68f-43ed64fa3f88"},"vehicle_type_id":"4","last_reported":1727093867,"current_range_meters":17600,"station_id":"ce4bhnp2rcd13ifvqgvg","pricing_plan_id":"cebpf4jnsgd1na2vs0mg"},{"bike_id":"5d848626-f327-4779-85e1-7575ec48443c","system_id":"levelo_inurba_marseille","lat":43.295291,"lon":5.375041,"is_reserved":false,"is_disabled":false,"rental_uris":{"android":"levelo://app?vid=5d848626-f327-4779-85e1-7575ec48443c","ios":"levelo://app?vid=5d848626-f327-4779-85e1-7575ec48443c"},"vehicle_type_id":"4","last_reported":1727093867,"current_range_meters":37600,"station_id":"ce4bgrh2rcd13ifvqc8g","pricing_plan_id":"cebpf4jnsgd1na2vs0mg"},{"bike_id":"5e0960b3-5ac4-4497-b4a1-ff8a3f37f64c","system_id":"levelo_inurba_marseille","lat":43.24083,"lon":5.37749,"is_reserved":false,"is_disabled":false,"rental_uris":{"android":"levelo://app?vid=5e0960b3-5ac4-4497-b4a1-ff8a3f37f64c","ios":"levelo://app?vid=5e0960b3-5ac4-4497-b4a1-ff8a3f37f64c"},"vehicle_type_id":"4","last_reported":1727093867,"current_range_meters":38800,"station_id":"ce4bhnp2rcd13ifvqgvg","pricing_plan_id":"cebpf4jnsgd1na2vs0mg"},{"bike_id":"d11b8f39-b703-455f-8066-3c0e114fb85f","system_id":"levelo_inurba_marseille","lat":43.29622,"lon":5.37163,"is_reserved":false,"is_disabled":false,"rental_uris":{"android":"levelo://app?vid=d11b8f39-b703-455f-8066-3c0e114fb85f","ios":"levelo://app?vid=d11b8f39-b703-455f-8066-3c0e114fb85f"},"vehicle_type_id":"4","last_reported":1727093867,"current_range_meters":33600,"station_id":"ce4bgnh2rcd13ifvqc0g","pricing_plan_id":"cebpf4jnsgd1na2vs0mg"},{"bike_id":"a1130285-14c1-471d-a411-fb2eed577eff","system_id":"levelo_inurba_marseille","lat":43.23149,"lon":5.43701,"is_reserved":false,"is_disabled":false,"rental_uris":{"android":"levelo://app?vid=a1130285-14c1-471d-a411-fb2eed577eff","ios":"levelo://app?vid=a1130285-14c1-471d-a411-fb2eed577eff"},"vehicle_type_id":"4","last_reported":1727093867,"current_range_meters":28000,"station_id":"ce4bhmp2rcd13ifvqgog","pricing_plan_id":"cebpf4jnsgd1na2vs0mg"},{"bike_id":"7f4e5069-e2eb-49e6-b158-b5ed6afd3985","system_id":"levelo_inurba_marseille","lat":43.26678,"lon":5.3827,"is_reserved":false,"is_disabled":false,"rental_uris":{"android":"levelo://app?vid=7f4e5069-e2eb-49e6-b158-b5ed6afd3985","ios":"levelo://app?vid=7f4e5069-e2eb-49e6-b158-b5ed6afd3985"},"vehicle_type_id":"4","last_reported":1727093867,"current_range_meters":12000,"station_id":"ce4bhg92rcd13ifvqf90","pricing_plan_id":"cebpf4jnsgd1na2vs0mg"},{"bike_id":"7a3fefb4-a987-4337-80c7-08a7a2002346","system_id":"levelo_inurba_marseille","lat":43.28941,"lon":5.36403,"is_reserved":false,"is_disabled":false,"rental_uris":{"android":"levelo://app?vid=7a3fefb4-a987-4337-80c7-08a7a2002346","ios":"levelo://app?vid=7a3fefb4-a987-4337-80c7-08a7a2002346"},"vehicle_type_id":"4","last_reported":1727093867,"current_range_meters":10800,"station_id":"ce4bhc92rcd13ifvqetg","pricing_plan_id":"cebpf4jnsgd1na2vs0mg"},{"bike_id":"3ba40e7f-1784-44e3-8132-1b88549cd956","system_id":"levelo_inurba_marseille","lat":43.29261,"lon":5.38456,"is_reserved":false,"is_disabled":false,"rental_uris":{"android":"levelo://app?vid=3ba40e7f-1784-44e3-8132-1b88549cd956","ios":"levelo://app?vid=3ba40e7f-1784-44e3-8132-1b88549cd956"},"vehicle_type_id":"4","last_reported":1727093867,"current_range_meters":19200,"station_id":"ce4bh692rcd13ifvqea0","pricing_plan_id":"cebpf4jnsgd1na2vs0mg"},{"bike_id":"2a58cdfb-f240-4535-8c96-efa17ae0387f","system_id":"levelo_inurba_marseille","lat":43.28439,"lon":5.39185,"is_reserved":false,"is_disabled":false,"rental_uris":{"android":"levelo://app?vid=2a58cdfb-f240-4535-8c96-efa17ae0387f","ios":"levelo://app?vid=2a58cdfb-f240-4535-8c96-efa17ae0387f"},"vehicle_type_id":"4","last_reported":1727093867,"current_range_meters":39200,"station_id":"ce4bhoh2rcd13ifvqh5g","pricing_plan_id":"cebpf4jnsgd1na2vs0mg"},{"bike_id":"98a17068-70e7-45b3-b778-4d5e2525564a","system_id":"levelo_inurba_marseille","lat":43.29089,"lon":5.38983,"is_reserved":false,"is_disabled":false,"rental_uris":{"android":"levelo://app?vid=98a17068-70e7-45b3-b778-4d5e2525564a","ios":"levelo://app?vid=98a17068-70e7-45b3-b778-4d5e2525564a"},"vehicle_type_id":"4","last_reported":1727093867,"current_range_meters":14000,"station_id":"ce4bh412rcd13ifvqdr0","pricing_plan_id":"cebpf4jnsgd1na2vs0mg"},{"bike_id":"75c228dd-5d22-472e-8a3b-5da67fad73ae","system_id":"levelo_inurba_marseille","lat":43.30538,"lon":5.36699,"is_reserved":false,"is_disabled":false,"rental_uris":{"android":"levelo://app?vid=75c228dd-5d22-472e-8a3b-5da67fad73ae","ios":"levelo://app?vid=75c228dd-5d22-472e-8a3b-5da67fad73ae"},"vehicle_type_id":"4","last_reported":1727093867,"current_range_meters":16800,"station_id":"ce4bgrp2rcd13ifvqc9g","pricing_plan_id":"cebpf4jnsgd1na2vs0mg"},{"bike_id":"af42854d-7200-46bf-962e-0dbd93fed0e6","system_id":"levelo_inurba_marseille","lat":43.26552,"lon":5.37285,"is_reserved":false,"is_disabled":false,"rental_uris":{"android":"levelo://app?vid=af42854d-7200-46bf-962e-0dbd93fed0e6","ios":"levelo://app?vid=af42854d-7200-46bf-962e-0dbd93fed0e6"},"vehicle_type_id":"4","last_reported":1727093867,"current_range_meters":38800,"station_id":"ce4bhg12rcd13ifvqf70","pricing_plan_id":"cebpf4jnsgd1na2vs0mg"},{"bike_id":"a478c4e2-b12d-45da-a8a8-14e5ecfa0723","system_id":"levelo_inurba_marseille","lat":43.30537,"lon":5.36701,"is_reserved":false,"is_disabled":false,"rental_uris":{"android":"levelo://app?vid=a478c4e2-b12d-45da-a8a8-14e5ecfa0723","ios":"levelo://app?vid=a478c4e2-b12d-45da-a8a8-14e5ecfa0723"},"vehicle_type_id":"4","last_reported":1727093867,"current_range_meters":9600,"station_id":"ce4bgrp2rcd13ifvqc9g","pricing_plan_id":"cebpf4jnsgd1na2vs0mg"},{"bike_id":"c0bf08f8-39b8-43bf-8302-ac2a4dd5ad58","system_id":"levelo_inurba_marseille","lat":43.29559,"lon":5.4229,"is_reserved":false,"is_disabled":false,"rental_uris":{"android":"levelo://app?vid=c0bf08f8-39b8-43bf-8302-ac2a4dd5ad58","ios":"levelo://app?vid=c0bf08f8-39b8-43bf-8302-ac2a4dd5ad58"},"vehicle_type_id":"4","last_reported":1727093867,"current_range_meters":27600,"station_id":"ce4bhph2rcd13ifvqhdg","pricing_plan_id":"cebpf4jnsgd1na2vs0mg"},{"bike_id":"88e4c0fa-72f1-440f-996a-774d6383e494","system_id":"levelo_inurba_marseille","lat":43.29844,"lon":5.36272,"is_reserved":false,"is_disabled":false,"rental_uris":{"android":"levelo://app?vid=88e4c0fa-72f1-440f-996a-774d6383e494","ios":"levelo://app?vid=88e4c0fa-72f1-440f-996a-774d6383e494"},"vehicle_type_id":"4","last_reported":1727093867,"current_range_meters":39200,"station_id":"ce4bgpp2rcd13ifvqc3g","pricing_plan_id":"cebpf4jnsgd1na2vs0mg"},{"bike_id":"44b50cd5-9fec-40b7-88e0-c89ccba3762c","system_id":"levelo_inurba_marseille","lat":43.2315,"lon":5.43707,"is_reserved":false,"is_disabled":false,"rental_uris":{"android":"levelo://app?vid=44b50cd5-9fec-40b7-88e0-c89ccba3762c","ios":"levelo://app?vid=44b50cd5-9fec-40b7-88e0-c89ccba3762c"},"vehicle_type_id":"4","last_reported":1727093867,"current_range_meters":39200,"station_id":"ce4bhmp2rcd13ifvqgog","pricing_plan_id":"cebpf4jnsgd1na2vs0mg"},{"bike_id":"48ba8faa-1a89-432d-81d7-a04264d1af85","system_id":"levelo_inurba_marseille","lat":43.29025,"lon":5.38632,"is_reserved":false,"is_disabled":false,"rental_uris":{"android":"levelo://app?vid=48ba8faa-1a89-432d-81d7-a04264d1af85","ios":"levelo://app?vid=48ba8faa-1a89-432d-81d7-a04264d1af85"},"vehicle_type_id":"4","last_reported":1727093867,"current_range_meters":35200,"station_id":"ce4bh4p2rcd13ifvqe0g","pricing_plan_id":"cebpf4jnsgd1na2vs0mg"},{"bike_id":"063dca6e-6eb8-46ef-af7f-523f85db002f","system_id":"levelo_inurba_marseille","lat":43.24077,"lon":5.37752,"is_reserved":false,"is_disabled":false,"rental_uris":{"android":"levelo://app?vid=063dca6e-6eb8-46ef-af7f-523f85db002f","ios":"levelo://app?vid=063dca6e-6eb8-46ef-af7f-523f85db002f"},"vehicle_type_id":"4","last_reported":1727093867,"current_range_meters":37600,"station_id":"ce4bhnp2rcd13ifvqgvg","pricing_plan_id":"cebpf4jnsgd1na2vs0mg"},{"bike_id":"45b239bd-ddc1-4849-a223-afba4bdbdcbc","system_id":"levelo_inurba_marseille","lat":43.23181,"lon":5.39988,"is_reserved":false,"is_disabled":false,"rental_uris":{"android":"levelo://app?vid=45b239bd-ddc1-4849-a223-afba4bdbdcbc","ios":"levelo://app?vid=45b239bd-ddc1-4849-a223-afba4bdbdcbc"},"vehicle_type_id":"4","last_reported":1727093867,"current_range_meters":10800,"station_id":"ce4bhn12rcd13ifvqgqg","pricing_plan_id":"cebpf4jnsgd1na2vs0mg"},{"bike_id":"5edf01c5-2284-46be-b00e-0ae450588331","system_id":"levelo_inurba_marseille","lat":43.27674,"lon":5.38892,"is_reserved":false,"is_disabled":false,"rental_uris":{"android":"levelo://app?vid=5edf01c5-2284-46be-b00e-0ae450588331","ios":"levelo://app?vid=5edf01c5-2284-46be-b00e-0ae450588331"},"vehicle_type_id":"4","last_reported":1727093867,"current_range_meters":38800,"station_id":"ce4bhi12rcd13ifvqfo0","pricing_plan_id":"cebpf4jnsgd1na2vs0mg"},{"bike_id":"3c62f824-7506-4c44-a7ff-d78b1c251a88","system_id":"levelo_inurba_marseille","lat":43.23194,"lon":5.35549,"is_reserved":false,"is_disabled":false,"rental_uris":{"android":"levelo://app?vid=3c62f824-7506-4c44-a7ff-d78b1c251a88","ios":"levelo://app?vid=3c62f824-7506-4c44-a7ff-d78b1c251a88"},"vehicle_type_id":"4","last_reported":1727093867,"current_range_meters":26800,"station_id":"ce4bhu92rcd13ifvqi70","pricing_plan_id":"cebpf4jnsgd1na2vs0mg"},{"bike_id":"6cbc2fdc-96a1-4bca-b822-56394ecb85a1","system_id":"levelo_inurba_marseille","lat":43.29559,"lon":5.42279,"is_reserved":false,"is_disabled":false,"rental_uris":{"android":"levelo://app?vid=6cbc2fdc-96a1-4bca-b822-56394ecb85a1","ios":"levelo://app?vid=6cbc2fdc-96a1-4bca-b822-56394ecb85a1"},"vehicle_type_id":"4","last_reported":1727093867,"current_range_meters":37600,"station_id":"ce4bhph2rcd13ifvqhdg","pricing_plan_id":"cebpf4jnsgd1na2vs0mg"},{"bike_id":"8ffcf0a8-aaaf-4f9b-9b16-80b53bed4195","system_id":"levelo_inurba_marseille","lat":43.24807,"lon":5.37459,"is_reserved":false,"is_disabled":false,"rental_uris":{"android":"levelo://app?vid=8ffcf0a8-aaaf-4f9b-9b16-80b53bed4195","ios":"levelo://app?vid=8ffcf0a8-aaaf-4f9b-9b16-80b53bed4195"},"vehicle_type_id":"4","last_reported":1727093867,"current_range_meters":9600,"station_id":"ce4bhgh2rcd13ifvqfb0","pricing_plan_id":"cebpf4jnsgd1na2vs0mg"},{"bike_id":"47582e93-95c9-4fa0-b589-7df1e3f081a5","system_id":"levelo_inurba_marseille","lat":43.2827,"lon":5.35082,"is_reserved":false,"is_disabled":false,"rental_uris":{"android":"levelo://app?vid=47582e93-95c9-4fa0-b589-7df1e3f081a5","ios":"levelo://app?vid=47582e93-95c9-4fa0-b589-7df1e3f081a5"},"vehicle_type_id":"4","last_reported":1727093867,"current_range_meters":38800,"station_id":"ce4bhbp2rcd13ifvqerg","pricing_plan_id":"cebpf4jnsgd1na2vs0mg"},{"bike_id":"bfed4d37-4980-4b24-9b62-6cb64737dd69","system_id":"levelo_inurba_marseille","lat":43.31711,"lon":5.37733,"is_reserved":false,"is_disabled":false,"rental_uris":{"android":"levelo://app?vid=bfed4d37-4980-4b24-9b62-6cb64737dd69","ios":"levelo://app?vid=bfed4d37-4980-4b24-9b62-6cb64737dd69"},"vehicle_type_id":"4","last_reported":1727093867,"current_range_meters":16400,"station_id":"ce4bgth2rcd13ifvqch0","pricing_plan_id":"cebpf4jnsgd1na2vs0mg"},{"bike_id":"94b336f7-7186-4d27-99e2-b6ce0dd70a6f","system_id":"levelo_inurba_marseille","lat":43.30144,"lon":5.39864,"is_reserved":false,"is_disabled":false,"rental_uris":{"android":"levelo://app?vid=94b336f7-7186-4d27-99e2-b6ce0dd70a6f","ios":"levelo://app?vid=94b336f7-7186-4d27-99e2-b6ce0dd70a6f"},"vehicle_type_id":"4","last_reported":1727093867,"current_range_meters":36800,"station_id":"ce4bh0h2rcd13ifvqd40","pricing_plan_id":"cebpf4jnsgd1na2vs0mg"},{"bike_id":"5524e161-1116-48ae-a9c2-520fcecf51a9","system_id":"levelo_inurba_marseille","lat":43.24079,"lon":5.37755,"is_reserved":false,"is_disabled":false,"rental_uris":{"android":"levelo://app?vid=5524e161-1116-48ae-a9c2-520fcecf51a9","ios":"levelo://app?vid=5524e161-1116-48ae-a9c2-520fcecf51a9"},"vehicle_type_id":"4","last_reported":1727093867,"current_range_meters":28000,"station_id":"ce4bhnp2rcd13ifvqgvg","pricing_plan_id":"cebpf4jnsgd1na2vs0mg"},{"bike_id":"5e43abb1-7db1-435e-a343-e4d467dda962","system_id":"levelo_inurba_marseille","lat":43.30546,"lon":5.367,"is_reserved":false,"is_disabled":false,"rental_uris":{"android":"levelo://app?vid=5e43abb1-7db1-435e-a343-e4d467dda962","ios":"levelo://app?vid=5e43abb1-7db1-435e-a343-e4d467dda962"},"vehicle_type_id":"4","last_reported":1727093867,"current_range_meters":39200,"station_id":"ce4bgrp2rcd13ifvqc9g","pricing_plan_id":"cebpf4jnsgd1na2vs0mg"},{"bike_id":"44099741-035e-4534-8c91-80464f84937f","system_id":"levelo_inurba_marseille","lat":43.26029,"lon":5.37548,"is_reserved":false,"is_disabled":false,"rental_uris":{"android":"levelo://app?vid=44099741-035e-4534-8c91-80464f84937f","ios":"levelo://app?vid=44099741-035e-4534-8c91-80464f84937f"},"vehicle_type_id":"4","last_reported":1727093867,"current_range_meters":12000,"station_id":"ce4bhgh2rcd13ifvqfa0","pricing_plan_id":"cebpf4jnsgd1na2vs0mg"},{"bike_id":"9d009642-1690-4b5d-84d0-e9c79b2920e1","system_id":"levelo_inurba_marseille","lat":43.29267,"lon":5.38449,"is_reserved":false,"is_disabled":false,"rental_uris":{"android":"levelo://app?vid=9d009642-1690-4b5d-84d0-e9c79b2920e1","ios":"levelo://app?vid=9d009642-1690-4b5d-84d0-e9c79b2920e1"},"vehicle_type_id":"4","last_reported":1727093867,"current_range_meters":8800,"station_id":"ce4bh692rcd13ifvqea0","pricing_plan_id":"cebpf4jnsgd1na2vs0mg"},{"bike_id":"9f5d2443-8596-4e20-829d-c760505e966c","system_id":"levelo_inurba_marseille","lat":43.259933,"lon":5.40819,"is_reserved":false,"is_disabled":false,"rental_uris":{"android":"levelo://app?vid=9f5d2443-8596-4e20-829d-c760505e966c","ios":"levelo://app?vid=9f5d2443-8596-4e20-829d-c760505e966c"},"vehicle_type_id":"4","last_reported":1727093867,"current_range_meters":9600,"station_id":"ce4bhm92rcd13ifvqglg","pricing_plan_id":"cebpf4jnsgd1na2vs0mg"},{"bike_id":"3b2b32b1-081b-464a-b5e2-ce0b7792839b","system_id":"levelo_inurba_marseille","lat":43.26819,"lon":5.3802,"is_reserved":false,"is_disabled":false,"rental_uris":{"android":"levelo://app?vid=3b2b32b1-081b-464a-b5e2-ce0b7792839b","ios":"levelo://app?vid=3b2b32b1-081b-464a-b5e2-ce0b7792839b"},"vehicle_type_id":"4","last_reported":1727093867,"current_range_meters":24400,"station_id":"","pricing_plan_id":"cebpf4jnsgd1na2vs0mg"},{"bike_id":"ab3ffd30-9b5d-483a-b2bc-8dfab9996b6d","system_id":"levelo_inurba_marseille","lat":43.30137,"lon":5.37421,"is_reserved":false,"is_disabled":false,"rental_uris":{"android":"levelo://app?vid=ab3ffd30-9b5d-483a-b2bc-8dfab9996b6d","ios":"levelo://app?vid=ab3ffd30-9b5d-483a-b2bc-8dfab9996b6d"},"vehicle_type_id":"4","last_reported":1727093867,"current_range_meters":21600,"station_id":"ce4bgs92rcd13ifvqcc0","pricing_plan_id":"cebpf4jnsgd1na2vs0mg"},{"bike_id":"0f5fdec9-cddf-4e8f-ae69-e0f0585cf084","system_id":"levelo_inurba_marseille","lat":43.28843,"lon":5.39306,"is_reserved":false,"is_disabled":false,"rental_uris":{"android":"levelo://app?vid=0f5fdec9-cddf-4e8f-ae69-e0f0585cf084","ios":"levelo://app?vid=0f5fdec9-cddf-4e8f-ae69-e0f0585cf084"},"vehicle_type_id":"4","last_reported":1727093867,"current_range_meters":3600,"station_id":"ce4bh2p2rcd13ifvqdi0","pricing_plan_id":"cebpf4jnsgd1na2vs0mg"},{"bike_id":"37cfea08-a4a9-4194-96d9-f325f70d9e4d","system_id":"levelo_inurba_marseille","lat":43.25582,"lon":5.38234,"is_reserved":false,"is_disabled":false,"rental_uris":{"android":"levelo://app?vid=37cfea08-a4a9-4194-96d9-f325f70d9e4d","ios":"levelo://app?vid=37cfea08-a4a9-4194-96d9-f325f70d9e4d"},"vehicle_type_id":"4","last_reported":1727093867,"current_range_meters":7200,"station_id":"ce4bhih2rcd13ifvqfs0","pricing_plan_id":"cebpf4jnsgd1na2vs0mg"},{"bike_id":"1190a69f-3376-4c5c-8353-291b41658ea5","system_id":"levelo_inurba_marseille","lat":43.28708,"lon":5.37954,"is_reserved":false,"is_disabled":false,"rental_uris":{"android":"levelo://app?vid=1190a69f-3376-4c5c-8353-291b41658ea5","ios":"levelo://app?vid=1190a69f-3376-4c5c-8353-291b41658ea5"},"vehicle_type_id":"4","last_reported":1727093867,"current_range_meters":25600,"station_id":"ce4bh9p2rcd13ifvqec0","pricing_plan_id":"cebpf4jnsgd1na2vs0mg"},{"bike_id":"fea683b7-0b42-4db3-b2c4-48550e41f392","system_id":"levelo_inurba_marseille","lat":43.31482,"lon":5.37309,"is_reserved":false,"is_disabled":false,"rental_uris":{"android":"levelo://app?vid=fea683b7-0b42-4db3-b2c4-48550e41f392","ios":"levelo://app?vid=fea683b7-0b42-4db3-b2c4-48550e41f392"},"vehicle_type_id":"4","last_reported":1727093867,"current_range_meters":38800,"station_id":"ce4bgt12rcd13ifvqcd0","pricing_plan_id":"cebpf4jnsgd1na2vs0mg"},{"bike_id":"6b1bfc7c-4a19-4e40-a1e6-7bc55c265373","system_id":"levelo_inurba_marseille","lat":43.27093,"lon":5.39667,"is_reserved":false,"is_disabled":false,"rental_uris":{"android":"levelo://app?vid=6b1bfc7c-4a19-4e40-a1e6-7bc55c265373","ios":"levelo://app?vid=6b1bfc7c-4a19-4e40-a1e6-7bc55c265373"},"vehicle_type_id":"4","last_reported":1727093867,"current_range_meters":22800,"station_id":"","pricing_plan_id":"cebpf4jnsgd1na2vs0mg"},{"bike_id":"715c4804-6a86-4398-98ec-b57358573177","system_id":"levelo_inurba_marseille","lat":43.22931,"lon":5.35374,"is_reserved":false,"is_disabled":false,"rental_uris":{"android":"levelo://app?vid=715c4804-6a86-4398-98ec-b57358573177","ios":"levelo://app?vid=715c4804-6a86-4398-98ec-b57358573177"},"vehicle_type_id":"4","last_reported":1727093867,"current_range_meters":35200,"station_id":"cpo3532slgdg3j2ikp40","pricing_plan_id":"cebpf4jnsgd1na2vs0mg"},{"bike_id":"c2e0a82a-d759-495f-8efb-0e986c5a7e53","system_id":"levelo_inurba_marseille","lat":43.31759,"lon":5.39011,"is_reserved":false,"is_disabled":false,"rental_uris":{"android":"levelo://app?vid=c2e0a82a-d759-495f-8efb-0e986c5a7e53","ios":"levelo://app?vid=c2e0a82a-d759-495f-8efb-0e986c5a7e53"},"vehicle_type_id":"4","last_reported":1727093867,"current_range_meters":36800,"station_id":"ce4bhqp2rcd13ifvqhng","pricing_plan_id":"cebpf4jnsgd1na2vs0mg"},{"bike_id":"25531505-80a7-4749-982a-293ff9ee210a","system_id":"levelo_inurba_marseille","lat":43.296085,"lon":5.370119,"is_reserved":false,"is_disabled":false,"rental_uris":{"android":"levelo://app?vid=25531505-80a7-4749-982a-293ff9ee210a","ios":"levelo://app?vid=25531505-80a7-4749-982a-293ff9ee210a"},"vehicle_type_id":"4","last_reported":1727093867,"current_range_meters":38400,"station_id":"ce4bgnh2rcd13ifvqc0g","pricing_plan_id":"cebpf4jnsgd1na2vs0mg"},{"bike_id":"ba2542eb-4a30-47aa-b57a-68ac954d789a","system_id":"levelo_inurba_marseille","lat":43.23185,"lon":5.35553,"is_reserved":false,"is_disabled":false,"rental_uris":{"android":"levelo://app?vid=ba2542eb-4a30-47aa-b57a-68ac954d789a","ios":"levelo://app?vid=ba2542eb-4a30-47aa-b57a-68ac954d789a"},"vehicle_type_id":"4","last_reported":1727093867,"current_range_meters":18000,"station_id":"ce4bhu92rcd13ifvqi70","pricing_plan_id":"cebpf4jnsgd1na2vs0mg"},{"bike_id":"a2d3faf4-b282-4fa3-b4c8-567a9f539c1c","system_id":"levelo_inurba_marseille","lat":43.24077,"lon":5.37759,"is_reserved":false,"is_disabled":false,"rental_uris":{"android":"levelo://app?vid=a2d3faf4-b282-4fa3-b4c8-567a9f539c1c","ios":"levelo://app?vid=a2d3faf4-b282-4fa3-b4c8-567a9f539c1c"},"vehicle_type_id":"4","last_reported":1727093867,"current_range_meters":3200,"station_id":"ce4bhnp2rcd13ifvqgvg","pricing_plan_id":"cebpf4jnsgd1na2vs0mg"},{"bike_id":"cc3ddff0-82f0-4b1e-af91-f9c8fb85b899","system_id":"levelo_inurba_marseille","lat":43.31484,"lon":5.37301,"is_reserved":false,"is_disabled":false,"rental_uris":{"android":"levelo://app?vid=cc3ddff0-82f0-4b1e-af91-f9c8fb85b899","ios":"levelo://app?vid=cc3ddff0-82f0-4b1e-af91-f9c8fb85b899"},"vehicle_type_id":"4","last_reported":1727093867,"current_range_meters":14800,"station_id":"ce4bgt12rcd13ifvqcd0","pricing_plan_id":"cebpf4jnsgd1na2vs0mg"},{"bike_id":"248789c2-b5e7-4e42-a3f3-cce9a0523119","system_id":"levelo_inurba_marseille","lat":43.28688,"lon":5.37395,"is_reserved":false,"is_disabled":false,"rental_uris":{"android":"levelo://app?vid=248789c2-b5e7-4e42-a3f3-cce9a0523119","ios":"levelo://app?vid=248789c2-b5e7-4e42-a3f3-cce9a0523119"},"vehicle_type_id":"4","last_reported":1727093867,"current_range_meters":12000,"station_id":"ce4bh3p2rcd13ifvqdq0","pricing_plan_id":"cebpf4jnsgd1na2vs0mg"},{"bike_id":"5b8380ad-8ffb-4129-aca8-98aebd209607","system_id":"levelo_inurba_marseille","lat":43.30648,"lon":5.40079,"is_reserved":false,"is_disabled":false,"rental_uris":{"android":"levelo://app?vid=5b8380ad-8ffb-4129-aca8-98aebd209607","ios":"levelo://app?vid=5b8380ad-8ffb-4129-aca8-98aebd209607"},"vehicle_type_id":"4","last_reported":1727093867,"current_range_meters":38800,"station_id":"ce4bh112rcd13ifvqda0","pricing_plan_id":"cebpf4jnsgd1na2vs0mg"},{"bike_id":"6dd65d0e-8b7a-4b77-9bf9-ede98b693613","system_id":"levelo_inurba_marseille","lat":43.30303,"lon":5.36913,"is_reserved":false,"is_disabled":false,"rental_uris":{"android":"levelo://app?vid=6dd65d0e-8b7a-4b77-9bf9-ede98b693613","ios":"levelo://app?vid=6dd65d0e-8b7a-4b77-9bf9-ede98b693613"},"vehicle_type_id":"4","last_reported":1727093867,"current_range_meters":32400,"station_id":"ce4bgqh2rcd13ifvqc5g","pricing_plan_id":"cebpf4jnsgd1na2vs0mg"},{"bike_id":"292a715f-dcda-4978-a6ed-5560011ccc19","system_id":"levelo_inurba_marseille","lat":43.29805,"lon":5.38107,"is_reserved":false,"is_disabled":false,"rental_uris":{"android":"levelo://app?vid=292a715f-dcda-4978-a6ed-5560011ccc19","ios":"levelo://app?vid=292a715f-dcda-4978-a6ed-5560011ccc19"},"vehicle_type_id":"4","last_reported":1727093867,"current_range_meters":5600,"station_id":"ce4bgip2rcd13ifvqbb0","pricing_plan_id":"cebpf4jnsgd1na2vs0mg"},{"bike_id":"a5d6eea8-70db-4349-b3c3-e1c6cf854821","system_id":"levelo_inurba_marseille","lat":43.29023,"lon":5.3864,"is_reserved":false,"is_disabled":false,"rental_uris":{"android":"levelo://app?vid=a5d6eea8-70db-4349-b3c3-e1c6cf854821","ios":"levelo://app?vid=a5d6eea8-70db-4349-b3c3-e1c6cf854821"},"vehicle_type_id":"4","last_reported":1727093867,"current_range_meters":11600,"station_id":"ce4bh4p2rcd13ifvqe0g","pricing_plan_id":"cebpf4jnsgd1na2vs0mg"},{"bike_id":"a0d89e0f-7b55-4e71-ba94-16f323ff0eff","system_id":"levelo_inurba_marseille","lat":43.23183,"lon":5.39986,"is_reserved":false,"is_disabled":false,"rental_uris":{"android":"levelo://app?vid=a0d89e0f-7b55-4e71-ba94-16f323ff0eff","ios":"levelo://app?vid=a0d89e0f-7b55-4e71-ba94-16f323ff0eff"},"vehicle_type_id":"4","last_reported":1727093867,"current_range_meters":36800,"station_id":"ce4bhn12rcd13ifvqgqg","pricing_plan_id":"cebpf4jnsgd1na2vs0mg"},{"bike_id":"ee1f9b0f-dd8b-4d52-9818-385c51c4ad5f","system_id":"levelo_inurba_marseille","lat":43.26025,"lon":5.37553,"is_reserved":false,"is_disabled":false,"rental_uris":{"android":"levelo://app?vid=ee1f9b0f-dd8b-4d52-9818-385c51c4ad5f","ios":"levelo://app?vid=ee1f9b0f-dd8b-4d52-9818-385c51c4ad5f"},"vehicle_type_id":"4","last_reported":1727093867,"current_range_meters":23200,"station_id":"ce4bhgh2rcd13ifvqfa0","pricing_plan_id":"cebpf4jnsgd1na2vs0mg"},{"bike_id":"2a19c0d8-6f6f-4dd8-819f-6ede58ed72df","system_id":"levelo_inurba_marseille","lat":43.28411,"lon":5.37503,"is_reserved":false,"is_disabled":false,"rental_uris":{"android":"levelo://app?vid=2a19c0d8-6f6f-4dd8-819f-6ede58ed72df","ios":"levelo://app?vid=2a19c0d8-6f6f-4dd8-819f-6ede58ed72df"},"vehicle_type_id":"4","last_reported":1727093867,"current_range_meters":6800,"station_id":"ce4bh412rcd13ifvqds0","pricing_plan_id":"cebpf4jnsgd1na2vs0mg"},{"bike_id":"2c3baefd-e174-4a0f-b3c0-c1acdaa422ad","system_id":"levelo_inurba_marseille","lat":43.25936,"lon":5.40912,"is_reserved":false,"is_disabled":false,"rental_uris":{"android":"levelo://app?vid=2c3baefd-e174-4a0f-b3c0-c1acdaa422ad","ios":"levelo://app?vid=2c3baefd-e174-4a0f-b3c0-c1acdaa422ad"},"vehicle_type_id":"4","last_reported":1727093867,"current_range_meters":33200,"station_id":"ce4bhm92rcd13ifvqglg","pricing_plan_id":"cebpf4jnsgd1na2vs0mg"},{"bike_id":"58c966e6-cb61-4b95-b859-3f6ab363c0da","system_id":"levelo_inurba_marseille","lat":43.30277,"lon":5.37705,"is_reserved":false,"is_disabled":false,"rental_uris":{"android":"levelo://app?vid=58c966e6-cb61-4b95-b859-3f6ab363c0da","ios":"levelo://app?vid=58c966e6-cb61-4b95-b859-3f6ab363c0da"},"vehicle_type_id":"4","last_reported":1727093867,"current_range_meters":33200,"station_id":"ce4bguh2rcd13ifvqcj0","pricing_plan_id":"cebpf4jnsgd1na2vs0mg"},{"bike_id":"abc9a503-4897-4c5e-b56a-ffdcd2be4f9e","system_id":"levelo_inurba_marseille","lat":43.33748,"lon":5.37439,"is_reserved":false,"is_disabled":false,"rental_uris":{"android":"levelo://app?vid=abc9a503-4897-4c5e-b56a-ffdcd2be4f9e","ios":"levelo://app?vid=abc9a503-4897-4c5e-b56a-ffdcd2be4f9e"},"vehicle_type_id":"4","last_reported":1727093867,"current_range_meters":28000,"station_id":"","pricing_plan_id":"cebpf4jnsgd1na2vs0mg"},{"bike_id":"54db8160-556f-4838-beec-11d78ced79da","system_id":"levelo_inurba_marseille","lat":43.28153,"lon":5.4264,"is_reserved":false,"is_disabled":false,"rental_uris":{"android":"levelo://app?vid=54db8160-556f-4838-beec-11d78ced79da","ios":"levelo://app?vid=54db8160-556f-4838-beec-11d78ced79da"},"vehicle_type_id":"4","last_reported":1727093867,"current_range_meters":11600,"station_id":"ce4bhnh2rcd13ifvqgug","pricing_plan_id":"cebpf4jnsgd1na2vs0mg"},{"bike_id":"cf904d8e-dd56-4449-9634-5ec8fcd061ab","system_id":"levelo_inurba_marseille","lat":43.3375,"lon":5.37453,"is_reserved":false,"is_disabled":false,"rental_uris":{"android":"levelo://app?vid=cf904d8e-dd56-4449-9634-5ec8fcd061ab","ios":"levelo://app?vid=cf904d8e-dd56-4449-9634-5ec8fcd061ab"},"vehicle_type_id":"4","last_reported":1727093867,"current_range_meters":38400,"station_id":"","pricing_plan_id":"cebpf4jnsgd1na2vs0mg"},{"bike_id":"567c1d1a-885b-42b6-bd84-b4d37a5a7454","system_id":"levelo_inurba_marseille","lat":43.24079,"lon":5.37754,"is_reserved":false,"is_disabled":false,"rental_uris":{"android":"levelo://app?vid=567c1d1a-885b-42b6-bd84-b4d37a5a7454","ios":"levelo://app?vid=567c1d1a-885b-42b6-bd84-b4d37a5a7454"},"vehicle_type_id":"4","last_reported":1727093867,"current_range_meters":25200,"station_id":"ce4bhnp2rcd13ifvqgvg","pricing_plan_id":"cebpf4jnsgd1na2vs0mg"},{"bike_id":"3947245a-1d8d-42ff-ab90-02b8733090a3","system_id":"levelo_inurba_marseille","lat":43.337444,"lon":5.374475,"is_reserved":false,"is_disabled":false,"rental_uris":{"android":"levelo://app?vid=3947245a-1d8d-42ff-ab90-02b8733090a3","ios":"levelo://app?vid=3947245a-1d8d-42ff-ab90-02b8733090a3"},"vehicle_type_id":"4","last_reported":1727093867,"current_range_meters":28000,"station_id":"","pricing_plan_id":"cebpf4jnsgd1na2vs0mg"},{"bike_id":"a10abe02-9d4a-4bb1-93d9-0376f56fbbc5","system_id":"levelo_inurba_marseille","lat":43.30954,"lon":5.390343,"is_reserved":false,"is_disabled":false,"rental_uris":{"android":"levelo://app?vid=a10abe02-9d4a-4bb1-93d9-0376f56fbbc5","ios":"levelo://app?vid=a10abe02-9d4a-4bb1-93d9-0376f56fbbc5"},"vehicle_type_id":"4","last_reported":1727093867,"current_range_meters":12000,"station_id":"ce4bgup2rcd13ifvqco0","pricing_plan_id":"cebpf4jnsgd1na2vs0mg"},{"bike_id":"ea2308e3-ba52-4ef5-a714-4556c5ad6d9d","system_id":"levelo_inurba_marseille","lat":43.28672,"lon":5.3866,"is_reserved":false,"is_disabled":false,"rental_uris":{"android":"levelo://app?vid=ea2308e3-ba52-4ef5-a714-4556c5ad6d9d","ios":"levelo://app?vid=ea2308e3-ba52-4ef5-a714-4556c5ad6d9d"},"vehicle_type_id":"4","last_reported":1727093867,"current_range_meters":16000,"station_id":"ce4bh492rcd13ifvqdug","pricing_plan_id":"cebpf4jnsgd1na2vs0mg"},{"bike_id":"39ea2a17-2530-483c-bd7f-2fa2442969a3","system_id":"levelo_inurba_marseille","lat":43.25578,"lon":5.38239,"is_reserved":false,"is_disabled":false,"rental_uris":{"android":"levelo://app?vid=39ea2a17-2530-483c-bd7f-2fa2442969a3","ios":"levelo://app?vid=39ea2a17-2530-483c-bd7f-2fa2442969a3"},"vehicle_type_id":"4","last_reported":1727093867,"current_range_meters":37600,"station_id":"ce4bhih2rcd13ifvqfs0","pricing_plan_id":"cebpf4jnsgd1na2vs0mg"},{"bike_id":"feb42740-c719-4916-9efa-d99f861e0e6d","system_id":"levelo_inurba_marseille","lat":43.32472,"lon":5.36584,"is_reserved":false,"is_disabled":false,"rental_uris":{"android":"levelo://app?vid=feb42740-c719-4916-9efa-d99f861e0e6d","ios":"levelo://app?vid=feb42740-c719-4916-9efa-d99f861e0e6d"},"vehicle_type_id":"4","last_reported":1727093867,"current_range_meters":30000,"station_id":"ce4bhs12rcd13ifvqhvg","pricing_plan_id":"cebpf4jnsgd1na2vs0mg"},{"bike_id":"914ae7ef-1ebe-4882-be25-0c3aa3dad21f","system_id":"levelo_inurba_marseille","lat":43.30531,"lon":5.36713,"is_reserved":false,"is_disabled":false,"rental_uris":{"android":"levelo://app?vid=914ae7ef-1ebe-4882-be25-0c3aa3dad21f","ios":"levelo://app?vid=914ae7ef-1ebe-4882-be25-0c3aa3dad21f"},"vehicle_type_id":"4","last_reported":1727093867,"current_range_meters":26000,"station_id":"ce4bgrp2rcd13ifvqc9g","pricing_plan_id":"cebpf4jnsgd1na2vs0mg"},{"bike_id":"3f535473-f443-492e-81fb-23c75b4f83e6","system_id":"levelo_inurba_marseille","lat":43.28673,"lon":5.38666,"is_reserved":false,"is_disabled":false,"rental_uris":{"android":"levelo://app?vid=3f535473-f443-492e-81fb-23c75b4f83e6","ios":"levelo://app?vid=3f535473-f443-492e-81fb-23c75b4f83e6"},"vehicle_type_id":"4","last_reported":1727093867,"current_range_meters":38400,"station_id":"ce4bh492rcd13ifvqdug","pricing_plan_id":"cebpf4jnsgd1na2vs0mg"},{"bike_id":"5112c659-31b3-4fa2-be0c-7fc6e6b6271e","system_id":"levelo_inurba_marseille","lat":43.29366,"lon":5.37857,"is_reserved":false,"is_disabled":false,"rental_uris":{"android":"levelo://app?vid=5112c659-31b3-4fa2-be0c-7fc6e6b6271e","ios":"levelo://app?vid=5112c659-31b3-4fa2-be0c-7fc6e6b6271e"},"vehicle_type_id":"4","last_reported":1727093867,"current_range_meters":34800,"station_id":"ce4bgjh2rcd13ifvqbf0","pricing_plan_id":"cebpf4jnsgd1na2vs0mg"},{"bike_id":"3b7312f9-6244-4b71-a8bc-65ca3c008c21","system_id":"levelo_inurba_marseille","lat":43.30604,"lon":5.37231,"is_reserved":false,"is_disabled":false,"rental_uris":{"android":"levelo://app?vid=3b7312f9-6244-4b71-a8bc-65ca3c008c21","ios":"levelo://app?vid=3b7312f9-6244-4b71-a8bc-65ca3c008c21"},"vehicle_type_id":"4","last_reported":1727093867,"current_range_meters":22400,"station_id":"ce4bgqh2rcd13ifvqc4g","pricing_plan_id":"cebpf4jnsgd1na2vs0mg"},{"bike_id":"2cb4d48c-c41a-4327-844b-c5c0fd6c0242","system_id":"levelo_inurba_marseille","lat":43.31485,"lon":5.37297,"is_reserved":false,"is_disabled":false,"rental_uris":{"android":"levelo://app?vid=2cb4d48c-c41a-4327-844b-c5c0fd6c0242","ios":"levelo://app?vid=2cb4d48c-c41a-4327-844b-c5c0fd6c0242"},"vehicle_type_id":"4","last_reported":1727093867,"current_range_meters":16400,"station_id":"ce4bgt12rcd13ifvqcd0","pricing_plan_id":"cebpf4jnsgd1na2vs0mg"},{"bike_id":"d1a28a2c-4d26-4029-b311-7bf0d60152a9","system_id":"levelo_inurba_marseille","lat":43.30541,"lon":5.38433,"is_reserved":false,"is_disabled":false,"rental_uris":{"android":"levelo://app?vid=d1a28a2c-4d26-4029-b311-7bf0d60152a9","ios":"levelo://app?vid=d1a28a2c-4d26-4029-b311-7bf0d60152a9"},"vehicle_type_id":"4","last_reported":1727093867,"current_range_meters":24800,"station_id":"ce4bgg92rcd13ifvqb30","pricing_plan_id":"cebpf4jnsgd1na2vs0mg"},{"bike_id":"fce734b4-6c36-4cb6-983c-c95238702258","system_id":"levelo_inurba_marseille","lat":43.31077,"lon":5.38109,"is_reserved":false,"is_disabled":false,"rental_uris":{"android":"levelo://app?vid=fce734b4-6c36-4cb6-983c-c95238702258","ios":"levelo://app?vid=fce734b4-6c36-4cb6-983c-c95238702258"},"vehicle_type_id":"4","last_reported":1727093867,"current_range_meters":8000,"station_id":"","pricing_plan_id":"cebpf4jnsgd1na2vs0mg"},{"bike_id":"ed151116-7a6b-4ca0-80c1-2863aaaabe44","system_id":"levelo_inurba_marseille","lat":43.29779,"lon":5.37099,"is_reserved":false,"is_disabled":false,"rental_uris":{"android":"levelo://app?vid=ed151116-7a6b-4ca0-80c1-2863aaaabe44","ios":"levelo://app?vid=ed151116-7a6b-4ca0-80c1-2863aaaabe44"},"vehicle_type_id":"4","last_reported":1727093867,"current_range_meters":38800,"station_id":"ce4bgop2rcd13ifvqc1g","pricing_plan_id":"cebpf4jnsgd1na2vs0mg"},{"bike_id":"f016c4e5-040b-46b4-82fe-a434be5816a8","system_id":"levelo_inurba_marseille","lat":43.3019,"lon":5.36608,"is_reserved":false,"is_disabled":false,"rental_uris":{"android":"levelo://app?vid=f016c4e5-040b-46b4-82fe-a434be5816a8","ios":"levelo://app?vid=f016c4e5-040b-46b4-82fe-a434be5816a8"},"vehicle_type_id":"4","last_reported":1727093867,"current_range_meters":38800,"station_id":"ce4bgrh2rcd13ifvqc8g","pricing_plan_id":"cebpf4jnsgd1na2vs0mg"},{"bike_id":"79b384ac-b917-4159-acb1-340284376a3c","system_id":"levelo_inurba_marseille","lat":43.29849,"lon":5.36282,"is_reserved":false,"is_disabled":false,"rental_uris":{"android":"levelo://app?vid=79b384ac-b917-4159-acb1-340284376a3c","ios":"levelo://app?vid=79b384ac-b917-4159-acb1-340284376a3c"},"vehicle_type_id":"4","last_reported":1727093867,"current_range_meters":28400,"station_id":"ce4bgpp2rcd13ifvqc3g","pricing_plan_id":"cebpf4jnsgd1na2vs0mg"},{"bike_id":"3d12929b-07d8-437a-9837-303a8eac6c26","system_id":"levelo_inurba_marseille","lat":43.28457,"lon":5.35902,"is_reserved":false,"is_disabled":false,"rental_uris":{"android":"levelo://app?vid=3d12929b-07d8-437a-9837-303a8eac6c26","ios":"levelo://app?vid=3d12929b-07d8-437a-9837-303a8eac6c26"},"vehicle_type_id":"4","last_reported":1727093867,"current_range_meters":13600,"station_id":"ce4bhah2rcd13ifvqei0","pricing_plan_id":"cebpf4jnsgd1na2vs0mg"},{"bike_id":"e5afe0f9-2845-4770-8a8a-1f97c66f27dc","system_id":"levelo_inurba_marseille","lat":43.25934,"lon":5.40915,"is_reserved":false,"is_disabled":false,"rental_uris":{"android":"levelo://app?vid=e5afe0f9-2845-4770-8a8a-1f97c66f27dc","ios":"levelo://app?vid=e5afe0f9-2845-4770-8a8a-1f97c66f27dc"},"vehicle_type_id":"4","last_reported":1727093867,"current_range_meters":28800,"station_id":"ce4bhm92rcd13ifvqglg","pricing_plan_id":"cebpf4jnsgd1na2vs0mg"},{"bike_id":"c371314f-2cd1-4a92-8738-0c7ece0f5842","system_id":"levelo_inurba_marseille","lat":43.26802,"lon":5.4027,"is_reserved":false,"is_disabled":false,"rental_uris":{"android":"levelo://app?vid=c371314f-2cd1-4a92-8738-0c7ece0f5842","ios":"levelo://app?vid=c371314f-2cd1-4a92-8738-0c7ece0f5842"},"vehicle_type_id":"4","last_reported":1727093867,"current_range_meters":29600,"station_id":"ce501612rcd8frsf0b60","pricing_plan_id":"cebpf4jnsgd1na2vs0mg"},{"bike_id":"79a275fa-7a5f-415e-907a-a87cc6350b62","system_id":"levelo_inurba_marseille","lat":43.337444,"lon":5.374475,"is_reserved":false,"is_disabled":false,"rental_uris":{"android":"levelo://app?vid=79a275fa-7a5f-415e-907a-a87cc6350b62","ios":"levelo://app?vid=79a275fa-7a5f-415e-907a-a87cc6350b62"},"vehicle_type_id":"4","last_reported":1727093867,"current_range_meters":24800,"station_id":"","pricing_plan_id":"cebpf4jnsgd1na2vs0mg"},{"bike_id":"05b74af3-c19f-4945-b495-010898c52379","system_id":"levelo_inurba_marseille","lat":43.30535,"lon":5.38423,"is_reserved":false,"is_disabled":false,"rental_uris":{"android":"levelo://app?vid=05b74af3-c19f-4945-b495-010898c52379","ios":"levelo://app?vid=05b74af3-c19f-4945-b495-010898c52379"},"vehicle_type_id":"4","last_reported":1727093867,"current_range_meters":20000,"station_id":"ce4bgg92rcd13ifvqb30","pricing_plan_id":"cebpf4jnsgd1na2vs0mg"},{"bike_id":"d16c5d1f-4c3e-4fb7-a669-5dcfede090b5","system_id":"levelo_inurba_marseille","lat":43.28443,"lon":5.39192,"is_reserved":false,"is_disabled":false,"rental_uris":{"android":"levelo://app?vid=d16c5d1f-4c3e-4fb7-a669-5dcfede090b5","ios":"levelo://app?vid=d16c5d1f-4c3e-4fb7-a669-5dcfede090b5"},"vehicle_type_id":"4","last_reported":1727093867,"current_range_meters":20800,"station_id":"ce4bhoh2rcd13ifvqh5g","pricing_plan_id":"cebpf4jnsgd1na2vs0mg"},{"bike_id":"6e3f1c76-110c-4206-8065-75afc7d2fd09","system_id":"levelo_inurba_marseille","lat":43.24665,"lon":5.38173,"is_reserved":false,"is_disabled":false,"rental_uris":{"android":"levelo://app?vid=6e3f1c76-110c-4206-8065-75afc7d2fd09","ios":"levelo://app?vid=6e3f1c76-110c-4206-8065-75afc7d2fd09"},"vehicle_type_id":"4","last_reported":1727093867,"current_range_meters":9200,"station_id":"ce4bhih2rcd13ifvqfr0","pricing_plan_id":"cebpf4jnsgd1na2vs0mg"},{"bike_id":"28284f2d-af6a-41fc-ad17-2d5e99e0773a","system_id":"levelo_inurba_marseille","lat":43.30538,"lon":5.36537,"is_reserved":false,"is_disabled":false,"rental_uris":{"android":"levelo://app?vid=28284f2d-af6a-41fc-ad17-2d5e99e0773a","ios":"levelo://app?vid=28284f2d-af6a-41fc-ad17-2d5e99e0773a"},"vehicle_type_id":"4","last_reported":1727093867,"current_range_meters":39200,"station_id":"ce4bgs12rcd13ifvqcag","pricing_plan_id":"cebpf4jnsgd1na2vs0mg"},{"bike_id":"792ff2f7-c377-489e-8842-0a279001b119","system_id":"levelo_inurba_marseille","lat":43.27502,"lon":5.42451,"is_reserved":false,"is_disabled":false,"rental_uris":{"android":"levelo://app?vid=792ff2f7-c377-489e-8842-0a279001b119","ios":"levelo://app?vid=792ff2f7-c377-489e-8842-0a279001b119"},"vehicle_type_id":"4","last_reported":1727093867,"current_range_meters":38800,"station_id":"ce4bhn92rcd13ifvqgrg","pricing_plan_id":"cebpf4jnsgd1na2vs0mg"},{"bike_id":"4e830827-d66b-4129-a6ba-c894c04814f9","system_id":"levelo_inurba_marseille","lat":43.33776,"lon":5.37436,"is_reserved":false,"is_disabled":false,"rental_uris":{"android":"levelo://app?vid=4e830827-d66b-4129-a6ba-c894c04814f9","ios":"levelo://app?vid=4e830827-d66b-4129-a6ba-c894c04814f9"},"vehicle_type_id":"4","last_reported":1727093867,"current_range_meters":38800,"station_id":"","pricing_plan_id":"cebpf4jnsgd1na2vs0mg"},{"bike_id":"7f41fee8-6658-44d0-a5c8-37f96ff88950","system_id":"levelo_inurba_marseille","lat":43.27955,"lon":5.38699,"is_reserved":false,"is_disabled":false,"rental_uris":{"android":"levelo://app?vid=7f41fee8-6658-44d0-a5c8-37f96ff88950","ios":"levelo://app?vid=7f41fee8-6658-44d0-a5c8-37f96ff88950"},"vehicle_type_id":"4","last_reported":1727093867,"current_range_meters":34000,"station_id":"ce4bhg12rcd13ifvqf80","pricing_plan_id":"cebpf4jnsgd1na2vs0mg"},{"bike_id":"506526ca-f49b-420c-8257-cd2a0ad870c5","system_id":"levelo_inurba_marseille","lat":43.29032,"lon":5.39967,"is_reserved":false,"is_disabled":false,"rental_uris":{"android":"levelo://app?vid=506526ca-f49b-420c-8257-cd2a0ad870c5","ios":"levelo://app?vid=506526ca-f49b-420c-8257-cd2a0ad870c5"},"vehicle_type_id":"4","last_reported":1727093867,"current_range_meters":19200,"station_id":"ce4bh392rcd13ifvqdm0","pricing_plan_id":"cebpf4jnsgd1na2vs0mg"},{"bike_id":"4fbb5250-9647-470b-8d93-052750ba4685","system_id":"levelo_inurba_marseille","lat":43.287806,"lon":5.373697,"is_reserved":false,"is_disabled":false,"rental_uris":{"android":"levelo://app?vid=4fbb5250-9647-470b-8d93-052750ba4685","ios":"levelo://app?vid=4fbb5250-9647-470b-8d93-052750ba4685"},"vehicle_type_id":"4","last_reported":1727093867,"current_range_meters":19600,"station_id":"ce4bh692rcd13ifvqe90","pricing_plan_id":"cebpf4jnsgd1na2vs0mg"},{"bike_id":"bba65598-bd24-4b02-9d40-9a7c22761963","system_id":"levelo_inurba_marseille","lat":43.28982,"lon":5.37831,"is_reserved":false,"is_disabled":false,"rental_uris":{"android":"levelo://app?vid=bba65598-bd24-4b02-9d40-9a7c22761963","ios":"levelo://app?vid=bba65598-bd24-4b02-9d40-9a7c22761963"},"vehicle_type_id":"4","last_reported":1727093867,"current_range_meters":24000,"station_id":"ce4bh9p2rcd13ifvqed0","pricing_plan_id":"cebpf4jnsgd1na2vs0mg"},{"bike_id":"c4d81431-ee19-4b2b-9a19-a027dc40bf9b","system_id":"levelo_inurba_marseille","lat":43.27069,"lon":5.42272,"is_reserved":false,"is_disabled":false,"rental_uris":{"android":"levelo://app?vid=c4d81431-ee19-4b2b-9a19-a027dc40bf9b","ios":"levelo://app?vid=c4d81431-ee19-4b2b-9a19-a027dc40bf9b"},"vehicle_type_id":"4","last_reported":1727093867,"current_range_meters":28400,"station_id":"ce4bhk92rcd13ifvqgb0","pricing_plan_id":"cebpf4jnsgd1na2vs0mg"},{"bike_id":"7efff0bf-418d-4879-81c8-5157ce11a026","system_id":"levelo_inurba_marseille","lat":43.284027,"lon":5.375172,"is_reserved":false,"is_disabled":false,"rental_uris":{"android":"levelo://app?vid=7efff0bf-418d-4879-81c8-5157ce11a026","ios":"levelo://app?vid=7efff0bf-418d-4879-81c8-5157ce11a026"},"vehicle_type_id":"4","last_reported":1727093867,"current_range_meters":24800,"station_id":"ce4bh412rcd13ifvqds0","pricing_plan_id":"cebpf4jnsgd1na2vs0mg"},{"bike_id":"fa690805-233a-4a70-a9f3-33f1b67cdb1f","system_id":"levelo_inurba_marseille","lat":43.3229,"lon":5.38241,"is_reserved":false,"is_disabled":false,"rental_uris":{"android":"levelo://app?vid=fa690805-233a-4a70-a9f3-33f1b67cdb1f","ios":"levelo://app?vid=fa690805-233a-4a70-a9f3-33f1b67cdb1f"},"vehicle_type_id":"4","last_reported":1727093867,"current_range_meters":37600,"station_id":"ce4bhr12rcd13ifvqhqg","pricing_plan_id":"cebpf4jnsgd1na2vs0mg"},{"bike_id":"0f6f9238-1221-4012-b3ea-01e71202f90e","system_id":"levelo_inurba_marseille","lat":43.30143,"lon":5.37425,"is_reserved":false,"is_disabled":false,"rental_uris":{"android":"levelo://app?vid=0f6f9238-1221-4012-b3ea-01e71202f90e","ios":"levelo://app?vid=0f6f9238-1221-4012-b3ea-01e71202f90e"},"vehicle_type_id":"4","last_reported":1727093867,"current_range_meters":32800,"station_id":"ce4bgs92rcd13ifvqcc0","pricing_plan_id":"cebpf4jnsgd1na2vs0mg"},{"bike_id":"7de67f75-7e3b-4a49-9cf3-b09ec2ff7e13","system_id":"levelo_inurba_marseille","lat":43.26031,"lon":5.37546,"is_reserved":false,"is_disabled":false,"rental_uris":{"android":"levelo://app?vid=7de67f75-7e3b-4a49-9cf3-b09ec2ff7e13","ios":"levelo://app?vid=7de67f75-7e3b-4a49-9cf3-b09ec2ff7e13"},"vehicle_type_id":"4","last_reported":1727093867,"current_range_meters":36800,"station_id":"ce4bhgh2rcd13ifvqfa0","pricing_plan_id":"cebpf4jnsgd1na2vs0mg"},{"bike_id":"f4c29e48-3974-4048-88ab-02b7121b6009","system_id":"levelo_inurba_marseille","lat":43.309517,"lon":5.390335,"is_reserved":false,"is_disabled":false,"rental_uris":{"android":"levelo://app?vid=f4c29e48-3974-4048-88ab-02b7121b6009","ios":"levelo://app?vid=f4c29e48-3974-4048-88ab-02b7121b6009"},"vehicle_type_id":"4","last_reported":1727093867,"current_range_meters":21600,"station_id":"ce4bgup2rcd13ifvqco0","pricing_plan_id":"cebpf4jnsgd1na2vs0mg"},{"bike_id":"47dd9e80-ab5f-4bee-b9b1-535ccb57b8c9","system_id":"levelo_inurba_marseille","lat":43.29794,"lon":5.3935,"is_reserved":false,"is_disabled":false,"rental_uris":{"android":"levelo://app?vid=47dd9e80-ab5f-4bee-b9b1-535ccb57b8c9","ios":"levelo://app?vid=47dd9e80-ab5f-4bee-b9b1-535ccb57b8c9"},"vehicle_type_id":"4","last_reported":1727093867,"current_range_meters":15200,"station_id":"chh1huq6cuj3fo74tm60","pricing_plan_id":"cebpf4jnsgd1na2vs0mg"},{"bike_id":"f24673b6-28dd-4e9b-a052-27bdbe7ed3ec","system_id":"levelo_inurba_marseille","lat":43.26557,"lon":5.37285,"is_reserved":false,"is_disabled":false,"rental_uris":{"android":"levelo://app?vid=f24673b6-28dd-4e9b-a052-27bdbe7ed3ec","ios":"levelo://app?vid=f24673b6-28dd-4e9b-a052-27bdbe7ed3ec"},"vehicle_type_id":"4","last_reported":1727093867,"current_range_meters":26800,"station_id":"ce4bhg12rcd13ifvqf70","pricing_plan_id":"cebpf4jnsgd1na2vs0mg"},{"bike_id":"63837e2f-9e9e-4ca3-8127-3738fe4726e5","system_id":"levelo_inurba_marseille","lat":43.27494,"lon":5.42454,"is_reserved":false,"is_disabled":false,"rental_uris":{"android":"levelo://app?vid=63837e2f-9e9e-4ca3-8127-3738fe4726e5","ios":"levelo://app?vid=63837e2f-9e9e-4ca3-8127-3738fe4726e5"},"vehicle_type_id":"4","last_reported":1727093867,"current_range_meters":37600,"station_id":"ce4bhn92rcd13ifvqgrg","pricing_plan_id":"cebpf4jnsgd1na2vs0mg"},{"bike_id":"8ea3df62-89ee-4615-817f-9bee95924d8f","system_id":"levelo_inurba_marseille","lat":43.31346,"lon":5.36716,"is_reserved":false,"is_disabled":false,"rental_uris":{"android":"levelo://app?vid=8ea3df62-89ee-4615-817f-9bee95924d8f","ios":"levelo://app?vid=8ea3df62-89ee-4615-817f-9bee95924d8f"},"vehicle_type_id":"4","last_reported":1727093867,"current_range_meters":36800,"station_id":"ce4bgr92rcd13ifvqc6g","pricing_plan_id":"cebpf4jnsgd1na2vs0mg"},{"bike_id":"c2f5ca2d-e916-45c2-8f87-8a958b8cf5bb","system_id":"levelo_inurba_marseille","lat":43.26579,"lon":5.39016,"is_reserved":false,"is_disabled":false,"rental_uris":{"android":"levelo://app?vid=c2f5ca2d-e916-45c2-8f87-8a958b8cf5bb","ios":"levelo://app?vid=c2f5ca2d-e916-45c2-8f87-8a958b8cf5bb"},"vehicle_type_id":"4","last_reported":1727093867,"current_range_meters":20000,"station_id":"ce4bhe12rcd13ifvqf30","pricing_plan_id":"cebpf4jnsgd1na2vs0mg"},{"bike_id":"7ee89815-3f87-4dc0-ac87-de45448091bf","system_id":"levelo_inurba_marseille","lat":43.26038,"lon":5.37548,"is_reserved":false,"is_disabled":false,"rental_uris":{"android":"levelo://app?vid=7ee89815-3f87-4dc0-ac87-de45448091bf","ios":"levelo://app?vid=7ee89815-3f87-4dc0-ac87-de45448091bf"},"vehicle_type_id":"4","last_reported":1727093867,"current_range_meters":38800,"station_id":"ce4bhgh2rcd13ifvqfa0","pricing_plan_id":"cebpf4jnsgd1na2vs0mg"},{"bike_id":"3fb8e4b8-d0ae-4853-bcac-cdfc1170c666","system_id":"levelo_inurba_marseille","lat":43.27917,"lon":5.39573,"is_reserved":false,"is_disabled":false,"rental_uris":{"android":"levelo://app?vid=3fb8e4b8-d0ae-4853-bcac-cdfc1170c666","ios":"levelo://app?vid=3fb8e4b8-d0ae-4853-bcac-cdfc1170c666"},"vehicle_type_id":"4","last_reported":1727093867,"current_range_meters":4000,"station_id":"ce4bhf92rcd13ifvqf40","pricing_plan_id":"cebpf4jnsgd1na2vs0mg"},{"bike_id":"d70dd8cd-fe91-4c08-ae7c-1473132c7c88","system_id":"levelo_inurba_marseille","lat":43.30434,"lon":5.38893,"is_reserved":false,"is_disabled":false,"rental_uris":{"android":"levelo://app?vid=d70dd8cd-fe91-4c08-ae7c-1473132c7c88","ios":"levelo://app?vid=d70dd8cd-fe91-4c08-ae7c-1473132c7c88"},"vehicle_type_id":"4","last_reported":1727093867,"current_range_meters":27600,"station_id":"ce4bgk12rcd13ifvqbi0","pricing_plan_id":"cebpf4jnsgd1na2vs0mg"},{"bike_id":"bb3b22f1-91eb-4f20-ab74-c8337dd41991","system_id":"levelo_inurba_marseille","lat":43.283492,"lon":5.386552,"is_reserved":false,"is_disabled":false,"rental_uris":{"android":"levelo://app?vid=bb3b22f1-91eb-4f20-ab74-c8337dd41991","ios":"levelo://app?vid=bb3b22f1-91eb-4f20-ab74-c8337dd41991"},"vehicle_type_id":"4","last_reported":1727093867,"current_range_meters":19200,"station_id":"ce4bh492rcd13ifvqdvg","pricing_plan_id":"cebpf4jnsgd1na2vs0mg"},{"bike_id":"85d649fa-68c6-4dd0-8e34-0988c7e58de8","system_id":"levelo_inurba_marseille","lat":43.30534,"lon":5.36703,"is_reserved":false,"is_disabled":false,"rental_uris":{"android":"levelo://app?vid=85d649fa-68c6-4dd0-8e34-0988c7e58de8","ios":"levelo://app?vid=85d649fa-68c6-4dd0-8e34-0988c7e58de8"},"vehicle_type_id":"4","last_reported":1727093867,"current_range_meters":9600,"station_id":"ce4bgrp2rcd13ifvqc9g","pricing_plan_id":"cebpf4jnsgd1na2vs0mg"},{"bike_id":"57b6f85d-3df7-49f7-b37d-a1bbee31d1ef","system_id":"levelo_inurba_marseille","lat":43.30186,"lon":5.36624,"is_reserved":false,"is_disabled":false,"rental_uris":{"android":"levelo://app?vid=57b6f85d-3df7-49f7-b37d-a1bbee31d1ef","ios":"levelo://app?vid=57b6f85d-3df7-49f7-b37d-a1bbee31d1ef"},"vehicle_type_id":"4","last_reported":1727093867,"current_range_meters":19200,"station_id":"ce4bgrh2rcd13ifvqc8g","pricing_plan_id":"cebpf4jnsgd1na2vs0mg"},{"bike_id":"9b632e8a-c450-4de6-9b5d-cc84e83f086f","system_id":"levelo_inurba_marseille","lat":43.27492,"lon":5.4245,"is_reserved":false,"is_disabled":false,"rental_uris":{"android":"levelo://app?vid=9b632e8a-c450-4de6-9b5d-cc84e83f086f","ios":"levelo://app?vid=9b632e8a-c450-4de6-9b5d-cc84e83f086f"},"vehicle_type_id":"4","last_reported":1727093867,"current_range_meters":15200,"station_id":"ce4bhn92rcd13ifvqgrg","pricing_plan_id":"cebpf4jnsgd1na2vs0mg"},{"bike_id":"73c95d91-4339-4d75-b1c4-461a3daf1b5f","system_id":"levelo_inurba_marseille","lat":43.29559,"lon":5.42285,"is_reserved":false,"is_disabled":false,"rental_uris":{"android":"levelo://app?vid=73c95d91-4339-4d75-b1c4-461a3daf1b5f","ios":"levelo://app?vid=73c95d91-4339-4d75-b1c4-461a3daf1b5f"},"vehicle_type_id":"4","last_reported":1727093867,"current_range_meters":37600,"station_id":"ce4bhph2rcd13ifvqhdg","pricing_plan_id":"cebpf4jnsgd1na2vs0mg"},{"bike_id":"9c844e65-77b9-4ef2-9931-3de5a1904d24","system_id":"levelo_inurba_marseille","lat":43.32539,"lon":5.41447,"is_reserved":false,"is_disabled":false,"rental_uris":{"android":"levelo://app?vid=9c844e65-77b9-4ef2-9931-3de5a1904d24","ios":"levelo://app?vid=9c844e65-77b9-4ef2-9931-3de5a1904d24"},"vehicle_type_id":"4","last_reported":1727093867,"current_range_meters":16000,"station_id":"ce4bhq12rcd13ifvqhhg","pricing_plan_id":"cebpf4jnsgd1na2vs0mg"},{"bike_id":"e2ea9cef-4113-496e-ae63-85cae6f24f6a","system_id":"levelo_inurba_marseille","lat":43.24163,"lon":5.36399,"is_reserved":false,"is_disabled":false,"rental_uris":{"android":"levelo://app?vid=e2ea9cef-4113-496e-ae63-85cae6f24f6a","ios":"levelo://app?vid=e2ea9cef-4113-496e-ae63-85cae6f24f6a"},"vehicle_type_id":"4","last_reported":1727093867,"current_range_meters":31200,"station_id":"cpo36qri1sfpv3e86is0","pricing_plan_id":"cebpf4jnsgd1na2vs0mg"},{"bike_id":"33e3e324-2f97-491f-9b7d-e12eb9f602e3","system_id":"levelo_inurba_marseille","lat":43.311951,"lon":5.368993,"is_reserved":false,"is_disabled":false,"rental_uris":{"android":"levelo://app?vid=33e3e324-2f97-491f-9b7d-e12eb9f602e3","ios":"levelo://app?vid=33e3e324-2f97-491f-9b7d-e12eb9f602e3"},"vehicle_type_id":"4","last_reported":1727093867,"current_range_meters":32400,"station_id":"ce4bgl92rcd13ifvqbq0","pricing_plan_id":"cebpf4jnsgd1na2vs0mg"},{"bike_id":"259cda08-1e07-4a9c-95d4-c7695b393464","system_id":"levelo_inurba_marseille","lat":43.30143,"lon":5.3742,"is_reserved":false,"is_disabled":false,"rental_uris":{"android":"levelo://app?vid=259cda08-1e07-4a9c-95d4-c7695b393464","ios":"levelo://app?vid=259cda08-1e07-4a9c-95d4-c7695b393464"},"vehicle_type_id":"4","last_reported":1727093867,"current_range_meters":26000,"station_id":"ce4bgs92rcd13ifvqcc0","pricing_plan_id":"cebpf4jnsgd1na2vs0mg"},{"bike_id":"0074696f-e649-4639-9210-689b92842bdc","system_id":"levelo_inurba_marseille","lat":43.30802,"lon":5.4353,"is_reserved":false,"is_disabled":false,"rental_uris":{"android":"levelo://app?vid=0074696f-e649-4639-9210-689b92842bdc","ios":"levelo://app?vid=0074696f-e649-4639-9210-689b92842bdc"},"vehicle_type_id":"4","last_reported":1727093867,"current_range_meters":24000,"station_id":"ce4bhph2rcd13ifvqheg","pricing_plan_id":"cebpf4jnsgd1na2vs0mg"},{"bike_id":"39c48593-a6ab-421a-99fc-c29a84128df6","system_id":"levelo_inurba_marseille","lat":43.28104,"lon":5.37833,"is_reserved":false,"is_disabled":false,"rental_uris":{"android":"levelo://app?vid=39c48593-a6ab-421a-99fc-c29a84128df6","ios":"levelo://app?vid=39c48593-a6ab-421a-99fc-c29a84128df6"},"vehicle_type_id":"4","last_reported":1727093867,"current_range_meters":3200,"station_id":"ce4bha12rcd13ifvqee0","pricing_plan_id":"cebpf4jnsgd1na2vs0mg"},{"bike_id":"c0ad9925-98d6-46f3-8db0-78e7b08411f3","system_id":"levelo_inurba_marseille","lat":43.3254,"lon":5.41441,"is_reserved":false,"is_disabled":false,"rental_uris":{"android":"levelo://app?vid=c0ad9925-98d6-46f3-8db0-78e7b08411f3","ios":"levelo://app?vid=c0ad9925-98d6-46f3-8db0-78e7b08411f3"},"vehicle_type_id":"4","last_reported":1727093867,"current_range_meters":3200,"station_id":"ce4bhq12rcd13ifvqhhg","pricing_plan_id":"cebpf4jnsgd1na2vs0mg"},{"bike_id":"eee05696-6b55-4ea5-a62a-8149d3287208","system_id":"levelo_inurba_marseille","lat":43.3054,"lon":5.36536,"is_reserved":false,"is_disabled":false,"rental_uris":{"android":"levelo://app?vid=eee05696-6b55-4ea5-a62a-8149d3287208","ios":"levelo://app?vid=eee05696-6b55-4ea5-a62a-8149d3287208"},"vehicle_type_id":"4","last_reported":1727093867,"current_range_meters":39200,"station_id":"ce4bgs12rcd13ifvqcag","pricing_plan_id":"cebpf4jnsgd1na2vs0mg"},{"bike_id":"7da69373-dcc6-487e-aab9-d0a573fc76c6","system_id":"levelo_inurba_marseille","lat":43.30934,"lon":5.40143,"is_reserved":false,"is_disabled":false,"rental_uris":{"android":"levelo://app?vid=7da69373-dcc6-487e-aab9-d0a573fc76c6","ios":"levelo://app?vid=7da69373-dcc6-487e-aab9-d0a573fc76c6"},"vehicle_type_id":"4","last_reported":1727093867,"current_range_meters":34800,"station_id":"ce4bgvp2rcd13ifvqct0","pricing_plan_id":"cebpf4jnsgd1na2vs0mg"},{"bike_id":"6a9f45df-04c5-44d5-b656-eb73494e9cef","system_id":"levelo_inurba_marseille","lat":43.23967,"lon":5.36632,"is_reserved":false,"is_disabled":false,"rental_uris":{"android":"levelo://app?vid=6a9f45df-04c5-44d5-b656-eb73494e9cef","ios":"levelo://app?vid=6a9f45df-04c5-44d5-b656-eb73494e9cef"},"vehicle_type_id":"4","last_reported":1727093867,"current_range_meters":3200,"station_id":"ce4bhi12rcd13ifvqfp0","pricing_plan_id":"cebpf4jnsgd1na2vs0mg"},{"bike_id":"37478db7-7392-433b-b340-c4fccb6e7402","system_id":"levelo_inurba_marseille","lat":43.30957,"lon":5.39038,"is_reserved":false,"is_disabled":false,"rental_uris":{"android":"levelo://app?vid=37478db7-7392-433b-b340-c4fccb6e7402","ios":"levelo://app?vid=37478db7-7392-433b-b340-c4fccb6e7402"},"vehicle_type_id":"4","last_reported":1727093867,"current_range_meters":27600,"station_id":"ce4bgup2rcd13ifvqco0","pricing_plan_id":"cebpf4jnsgd1na2vs0mg"},{"bike_id":"455be24a-1729-4e8b-9592-9af52218f198","system_id":"levelo_inurba_marseille","lat":43.26566,"lon":5.39007,"is_reserved":false,"is_disabled":false,"rental_uris":{"android":"levelo://app?vid=455be24a-1729-4e8b-9592-9af52218f198","ios":"levelo://app?vid=455be24a-1729-4e8b-9592-9af52218f198"},"vehicle_type_id":"4","last_reported":1727093867,"current_range_meters":26000,"station_id":"ce4bhe12rcd13ifvqf30","pricing_plan_id":"cebpf4jnsgd1na2vs0mg"},{"bike_id":"fd4eaadc-fcac-4149-b575-78d0cc234986","system_id":"levelo_inurba_marseille","lat":43.28408,"lon":5.37509,"is_reserved":false,"is_disabled":false,"rental_uris":{"android":"levelo://app?vid=fd4eaadc-fcac-4149-b575-78d0cc234986","ios":"levelo://app?vid=fd4eaadc-fcac-4149-b575-78d0cc234986"},"vehicle_type_id":"4","last_reported":1727093867,"current_range_meters":30400,"station_id":"ce4bh412rcd13ifvqds0","pricing_plan_id":"cebpf4jnsgd1na2vs0mg"},{"bike_id":"5d646be7-6f08-4485-8caa-430922346353","system_id":"levelo_inurba_marseille","lat":43.32477,"lon":5.36574,"is_reserved":false,"is_disabled":false,"rental_uris":{"android":"levelo://app?vid=5d646be7-6f08-4485-8caa-430922346353","ios":"levelo://app?vid=5d646be7-6f08-4485-8caa-430922346353"},"vehicle_type_id":"4","last_reported":1727093867,"current_range_meters":38800,"station_id":"ce4bhs12rcd13ifvqhvg","pricing_plan_id":"cebpf4jnsgd1na2vs0mg"},{"bike_id":"fa389a28-fbc0-443d-ae17-61deeb7eddc4","system_id":"levelo_inurba_marseille","lat":43.29793,"lon":5.39352,"is_reserved":false,"is_disabled":false,"rental_uris":{"android":"levelo://app?vid=fa389a28-fbc0-443d-ae17-61deeb7eddc4","ios":"levelo://app?vid=fa389a28-fbc0-443d-ae17-61deeb7eddc4"},"vehicle_type_id":"4","last_reported":1727093867,"current_range_meters":36800,"station_id":"chh1huq6cuj3fo74tm60","pricing_plan_id":"cebpf4jnsgd1na2vs0mg"},{"bike_id":"449fb3f1-4de7-491d-b570-74c72021ce46","system_id":"levelo_inurba_marseille","lat":43.24807,"lon":5.37457,"is_reserved":false,"is_disabled":false,"rental_uris":{"android":"levelo://app?vid=449fb3f1-4de7-491d-b570-74c72021ce46","ios":"levelo://app?vid=449fb3f1-4de7-491d-b570-74c72021ce46"},"vehicle_type_id":"4","last_reported":1727093867,"current_range_meters":26800,"station_id":"ce4bhgh2rcd13ifvqfb0","pricing_plan_id":"cebpf4jnsgd1na2vs0mg"},{"bike_id":"3a19030d-3607-4273-b80a-5184a27534db","system_id":"levelo_inurba_marseille","lat":43.31117,"lon":5.3778,"is_reserved":false,"is_disabled":false,"rental_uris":{"android":"levelo://app?vid=3a19030d-3607-4273-b80a-5184a27534db","ios":"levelo://app?vid=3a19030d-3607-4273-b80a-5184a27534db"},"vehicle_type_id":"4","last_reported":1727093867,"current_range_meters":38000,"station_id":"ce4bgt92rcd13ifvqcg0","pricing_plan_id":"cebpf4jnsgd1na2vs0mg"},{"bike_id":"608ab3c1-1d79-48e2-a9ba-8e36d587cc0f","system_id":"levelo_inurba_marseille","lat":43.27494,"lon":5.4245,"is_reserved":false,"is_disabled":false,"rental_uris":{"android":"levelo://app?vid=608ab3c1-1d79-48e2-a9ba-8e36d587cc0f","ios":"levelo://app?vid=608ab3c1-1d79-48e2-a9ba-8e36d587cc0f"},"vehicle_type_id":"4","last_reported":1727093867,"current_range_meters":20000,"station_id":"ce4bhn92rcd13ifvqgrg","pricing_plan_id":"cebpf4jnsgd1na2vs0mg"},{"bike_id":"bda42faf-0743-4195-a253-11b2919f756c","system_id":"levelo_inurba_marseille","lat":43.24073,"lon":5.37764,"is_reserved":false,"is_disabled":false,"rental_uris":{"android":"levelo://app?vid=bda42faf-0743-4195-a253-11b2919f756c","ios":"levelo://app?vid=bda42faf-0743-4195-a253-11b2919f756c"},"vehicle_type_id":"4","last_reported":1727093867,"current_range_meters":24400,"station_id":"ce4bhnp2rcd13ifvqgvg","pricing_plan_id":"cebpf4jnsgd1na2vs0mg"},{"bike_id":"8e6baf5e-52ab-4bdd-baf9-74db21b29d20","system_id":"levelo_inurba_marseille","lat":43.28947,"lon":5.36417,"is_reserved":false,"is_disabled":false,"rental_uris":{"android":"levelo://app?vid=8e6baf5e-52ab-4bdd-baf9-74db21b29d20","ios":"levelo://app?vid=8e6baf5e-52ab-4bdd-baf9-74db21b29d20"},"vehicle_type_id":"4","last_reported":1727093867,"current_range_meters":32400,"station_id":"ce4bhc92rcd13ifvqetg","pricing_plan_id":"cebpf4jnsgd1na2vs0mg"},{"bike_id":"960b2180-d517-48a6-9c35-f3b501f03b32","system_id":"levelo_inurba_marseille","lat":43.30272,"lon":5.37705,"is_reserved":false,"is_disabled":false,"rental_uris":{"android":"levelo://app?vid=960b2180-d517-48a6-9c35-f3b501f03b32","ios":"levelo://app?vid=960b2180-d517-48a6-9c35-f3b501f03b32"},"vehicle_type_id":"4","last_reported":1727093867,"current_range_meters":33600,"station_id":"ce4bguh2rcd13ifvqcj0","pricing_plan_id":"cebpf4jnsgd1na2vs0mg"},{"bike_id":"668432ca-de92-4367-8eb2-c8bbe00db90d","system_id":"levelo_inurba_marseille","lat":43.30543,"lon":5.3653,"is_reserved":false,"is_disabled":false,"rental_uris":{"android":"levelo://app?vid=668432ca-de92-4367-8eb2-c8bbe00db90d","ios":"levelo://app?vid=668432ca-de92-4367-8eb2-c8bbe00db90d"},"vehicle_type_id":"4","last_reported":1727093867,"current_range_meters":28800,"station_id":"ce4bgs12rcd13ifvqcag","pricing_plan_id":"cebpf4jnsgd1na2vs0mg"},{"bike_id":"d65e9956-795e-43be-8fa8-4bf3303658b4","system_id":"levelo_inurba_marseille","lat":43.2835,"lon":5.38103,"is_reserved":false,"is_disabled":false,"rental_uris":{"android":"levelo://app?vid=d65e9956-795e-43be-8fa8-4bf3303658b4","ios":"levelo://app?vid=d65e9956-795e-43be-8fa8-4bf3303658b4"},"vehicle_type_id":"4","last_reported":1727093867,"current_range_meters":25200,"station_id":"ce4bh412rcd13ifvqdr0","pricing_plan_id":"cebpf4jnsgd1na2vs0mg"},{"bike_id":"8c57bda6-75e9-4c16-9b27-9c90d5609ca2","system_id":"levelo_inurba_marseille","lat":43.29845,"lon":5.36277,"is_reserved":false,"is_disabled":false,"rental_uris":{"android":"levelo://app?vid=8c57bda6-75e9-4c16-9b27-9c90d5609ca2","ios":"levelo://app?vid=8c57bda6-75e9-4c16-9b27-9c90d5609ca2"},"vehicle_type_id":"4","last_reported":1727093867,"current_range_meters":15200,"station_id":"ce4bgpp2rcd13ifvqc3g","pricing_plan_id":"cebpf4jnsgd1na2vs0mg"},{"bike_id":"ef80ef96-f0ae-47f4-a656-30940101fb28","system_id":"levelo_inurba_marseille","lat":43.261963,"lon":5.37929,"is_reserved":false,"is_disabled":false,"rental_uris":{"android":"levelo://app?vid=ef80ef96-f0ae-47f4-a656-30940101fb28","ios":"levelo://app?vid=ef80ef96-f0ae-47f4-a656-30940101fb28"},"vehicle_type_id":"4","last_reported":1727093867,"current_range_meters":36400,"station_id":"ce4bhjp2rcd13ifvqg90","pricing_plan_id":"cebpf4jnsgd1na2vs0mg"},{"bike_id":"973963d7-cd5f-4c62-aa49-892fbc9f75f4","system_id":"levelo_inurba_marseille","lat":43.25499,"lon":5.37651,"is_reserved":false,"is_disabled":false,"rental_uris":{"android":"levelo://app?vid=973963d7-cd5f-4c62-aa49-892fbc9f75f4","ios":"levelo://app?vid=973963d7-cd5f-4c62-aa49-892fbc9f75f4"},"vehicle_type_id":"4","last_reported":1727093867,"current_range_meters":18000,"station_id":"ce4bhh12rcd13ifvqff0","pricing_plan_id":"cebpf4jnsgd1na2vs0mg"},{"bike_id":"26e43ab1-84b6-40bf-9271-f47129192d7e","system_id":"levelo_inurba_marseille","lat":43.24389,"lon":5.37054,"is_reserved":false,"is_disabled":false,"rental_uris":{"android":"levelo://app?vid=26e43ab1-84b6-40bf-9271-f47129192d7e","ios":"levelo://app?vid=26e43ab1-84b6-40bf-9271-f47129192d7e"},"vehicle_type_id":"4","last_reported":1727093867,"current_range_meters":27600,"station_id":"ce4bhhh2rcd13ifvqfk0","pricing_plan_id":"cebpf4jnsgd1na2vs0mg"},{"bike_id":"98317e9d-9c27-46f9-a4da-cf59250e8820","system_id":"levelo_inurba_marseille","lat":43.24074,"lon":5.37761,"is_reserved":false,"is_disabled":false,"rental_uris":{"android":"levelo://app?vid=98317e9d-9c27-46f9-a4da-cf59250e8820","ios":"levelo://app?vid=98317e9d-9c27-46f9-a4da-cf59250e8820"},"vehicle_type_id":"4","last_reported":1727093867,"current_range_meters":38800,"station_id":"ce4bhnp2rcd13ifvqgvg","pricing_plan_id":"cebpf4jnsgd1na2vs0mg"},{"bike_id":"9913f0fe-2392-4900-993a-7d628dc34fa0","system_id":"levelo_inurba_marseille","lat":43.2783,"lon":5.39214,"is_reserved":false,"is_disabled":false,"rental_uris":{"android":"levelo://app?vid=9913f0fe-2392-4900-993a-7d628dc34fa0","ios":"levelo://app?vid=9913f0fe-2392-4900-993a-7d628dc34fa0"},"vehicle_type_id":"4","last_reported":1727093867,"current_range_meters":28400,"station_id":"ce4bhjp2rcd13ifvqga0","pricing_plan_id":"cebpf4jnsgd1na2vs0mg"},{"bike_id":"822d8d8c-0233-4ca0-82a9-08412fdf4b92","system_id":"levelo_inurba_marseille","lat":43.30932,"lon":5.40142,"is_reserved":false,"is_disabled":false,"rental_uris":{"android":"levelo://app?vid=822d8d8c-0233-4ca0-82a9-08412fdf4b92","ios":"levelo://app?vid=822d8d8c-0233-4ca0-82a9-08412fdf4b92"},"vehicle_type_id":"4","last_reported":1727093867,"current_range_meters":6400,"station_id":"ce4bgvp2rcd13ifvqct0","pricing_plan_id":"cebpf4jnsgd1na2vs0mg"},{"bike_id":"915c46d8-2771-4a03-96c6-c7d1c770137b","system_id":"levelo_inurba_marseille","lat":43.3053,"lon":5.36707,"is_reserved":false,"is_disabled":false,"rental_uris":{"android":"levelo://app?vid=915c46d8-2771-4a03-96c6-c7d1c770137b","ios":"levelo://app?vid=915c46d8-2771-4a03-96c6-c7d1c770137b"},"vehicle_type_id":"4","last_reported":1727093867,"current_range_meters":30800,"station_id":"ce4bgrp2rcd13ifvqc9g","pricing_plan_id":"cebpf4jnsgd1na2vs0mg"},{"bike_id":"4562e76e-e2bc-4c99-98c6-229bbf4c2891","system_id":"levelo_inurba_marseille","lat":43.30149,"lon":5.38074,"is_reserved":false,"is_disabled":false,"rental_uris":{"android":"levelo://app?vid=4562e76e-e2bc-4c99-98c6-229bbf4c2891","ios":"levelo://app?vid=4562e76e-e2bc-4c99-98c6-229bbf4c2891"},"vehicle_type_id":"4","last_reported":1727093867,"current_range_meters":24400,"station_id":"ce4bgjp2rcd13ifvqbh0","pricing_plan_id":"cebpf4jnsgd1na2vs0mg"},{"bike_id":"840f3e47-074d-4b22-ab80-8cfe985e5e84","system_id":"levelo_inurba_marseille","lat":43.24081,"lon":5.3775,"is_reserved":false,"is_disabled":false,"rental_uris":{"android":"levelo://app?vid=840f3e47-074d-4b22-ab80-8cfe985e5e84","ios":"levelo://app?vid=840f3e47-074d-4b22-ab80-8cfe985e5e84"},"vehicle_type_id":"4","last_reported":1727093867,"current_range_meters":29600,"station_id":"ce4bhnp2rcd13ifvqgvg","pricing_plan_id":"cebpf4jnsgd1na2vs0mg"},{"bike_id":"b33b4b03-36a3-42a4-9edf-26b0711146ef","system_id":"levelo_inurba_marseille","lat":43.30133,"lon":5.3987,"is_reserved":false,"is_disabled":false,"rental_uris":{"android":"levelo://app?vid=b33b4b03-36a3-42a4-9edf-26b0711146ef","ios":"levelo://app?vid=b33b4b03-36a3-42a4-9edf-26b0711146ef"},"vehicle_type_id":"4","last_reported":1727093867,"current_range_meters":38800,"station_id":"ce4bh0h2rcd13ifvqd40","pricing_plan_id":"cebpf4jnsgd1na2vs0mg"},{"bike_id":"0ac942a9-4377-4c05-af5d-e46d62db16de","system_id":"levelo_inurba_marseille","lat":43.3169,"lon":5.40479,"is_reserved":false,"is_disabled":false,"rental_uris":{"android":"levelo://app?vid=0ac942a9-4377-4c05-af5d-e46d62db16de","ios":"levelo://app?vid=0ac942a9-4377-4c05-af5d-e46d62db16de"},"vehicle_type_id":"4","last_reported":1727093867,"current_range_meters":25600,"station_id":"ce4bh012rcd13ifvqd00","pricing_plan_id":"cebpf4jnsgd1na2vs0mg"},{"bike_id":"f07f2858-9d0a-4a11-8c7d-79d8d4453b32","system_id":"levelo_inurba_marseille","lat":43.32044,"lon":5.41556,"is_reserved":false,"is_disabled":false,"rental_uris":{"android":"levelo://app?vid=f07f2858-9d0a-4a11-8c7d-79d8d4453b32","ios":"levelo://app?vid=f07f2858-9d0a-4a11-8c7d-79d8d4453b32"},"vehicle_type_id":"4","last_reported":1727093867,"current_range_meters":22800,"station_id":"ce4bhqh2rcd13ifvqhmg","pricing_plan_id":"cebpf4jnsgd1na2vs0mg"},{"bike_id":"30263f76-0938-4ad5-a4c4-869db72a6514","system_id":"levelo_inurba_marseille","lat":43.27974,"lon":5.3874,"is_reserved":false,"is_disabled":false,"rental_uris":{"android":"levelo://app?vid=30263f76-0938-4ad5-a4c4-869db72a6514","ios":"levelo://app?vid=30263f76-0938-4ad5-a4c4-869db72a6514"},"vehicle_type_id":"4","last_reported":1727093867,"current_range_meters":26800,"station_id":"ce4bhg12rcd13ifvqf80","pricing_plan_id":"cebpf4jnsgd1na2vs0mg"},{"bike_id":"72a8f564-3e0f-48ca-b32e-25f9a2e91ecc","system_id":"levelo_inurba_marseille","lat":43.28457,"lon":5.359,"is_reserved":false,"is_disabled":false,"rental_uris":{"android":"levelo://app?vid=72a8f564-3e0f-48ca-b32e-25f9a2e91ecc","ios":"levelo://app?vid=72a8f564-3e0f-48ca-b32e-25f9a2e91ecc"},"vehicle_type_id":"4","last_reported":1727093867,"current_range_meters":34800,"station_id":"ce4bhah2rcd13ifvqei0","pricing_plan_id":"cebpf4jnsgd1na2vs0mg"},{"bike_id":"c24f3ef8-8fff-4b31-9353-a8ac2084bfdb","system_id":"levelo_inurba_marseille","lat":43.31714,"lon":5.37731,"is_reserved":false,"is_disabled":false,"rental_uris":{"android":"levelo://app?vid=c24f3ef8-8fff-4b31-9353-a8ac2084bfdb","ios":"levelo://app?vid=c24f3ef8-8fff-4b31-9353-a8ac2084bfdb"},"vehicle_type_id":"4","last_reported":1727093867,"current_range_meters":38400,"station_id":"ce4bgth2rcd13ifvqch0","pricing_plan_id":"cebpf4jnsgd1na2vs0mg"},{"bike_id":"b32b7998-9389-446d-a0d9-9cd0c927f775","system_id":"levelo_inurba_marseille","lat":43.230591,"lon":5.35493,"is_reserved":false,"is_disabled":false,"rental_uris":{"android":"levelo://app?vid=b32b7998-9389-446d-a0d9-9cd0c927f775","ios":"levelo://app?vid=b32b7998-9389-446d-a0d9-9cd0c927f775"},"vehicle_type_id":"4","last_reported":1727093867,"current_range_meters":30000,"station_id":"cpo3342slgdg3j2ifvpg","pricing_plan_id":"cebpf4jnsgd1na2vs0mg"},