{"last_updated":1678986409,"ttl":30,"version":"2.2","data":{"bikes":[{"bike_id":"99429c94-63c7-4cfc-ad1a-4cdfd370f345","system_id":"levelo_inurba_marseille","lat":43.305106,"lon":5.36703,"is_reserved":false,"is_disabled":false,"rental_uris":{"android":"levelo://app?vid=99429c94-63c7-4cfc-ad1a-4cdfd370f345","ios":"levelo://app?vid=99429c94-63c7-4cfc-ad1a-4cdfd370f345"},"vehicle_type_id":"4","last_reported":1678986410,"current_range_meters":0,"station_id":"","pricing_plan_id":"free"},{"bike_id":"7e8f19e7-faee-4a9e-affa-b8af052bcc28","system_id":"levelo_inurba_marseille","lat":43.305989,"lon":5.37225,"is_reserved":false,"is_disabled":false,"rental_uris":{"android":"levelo://app?vid=7e8f19e7-faee-4a9e-affa-b8af052bcc28","ios":"levelo://app?vid=7e8f19e7-faee-4a9e-affa-b8af052bcc28"},"vehicle_type_id":"4","last_reported":1678986410,"current_range_meters":10400,"station_id":"ce4bgqh2rcd13ifvqc4g","pricing_plan_id":"free"},{"bike_id":"68d4179e-d1f9-4293-8206-b26daa7d1334","system_id":"levelo_inurba_marseille","lat":43.306489,"lon":5.374334,"is_reserved":false,"is_disabled":false,"rental_uris":{"android":"levelo://app?vid=68d4179e-d1f9-4293-8206-b26daa7d1334","ios":"levelo://app?vid=68d4179e-d1f9-4293-8206-b26daa7d1334"},"vehicle_type_id":"4","last_reported":1678986410,"current_range_meters":0,"station_id":"","pricing_plan_id":"free"},{"bike_id":"de7e9503-c555-4ec3-8426-2e4a60cb447b","system_id":"levelo_inurba_marseille","lat":43.317075,"lon":5.377367,"is_reserved":false,"is_disabled":false,"rental_uris":{"android":"levelo://app?vid=de7e9503-c555-4ec3-8426-2e4a60cb447b","ios":"levelo://app?vid=de7e9503-c555-4ec3-8426-2e4a60cb447b"},"vehicle_type_id":"4","last_reported":1678986410,"current_range_meters":20400,"station_id":"ce4bgth2rcd13ifvqch0","pricing_plan_id":"free"},{"bike_id":"a69b7364-aacd-456b-8d0e-0802298a120a","system_id":"levelo_inurba_marseille","lat":43.317075,"lon":5.377367,"is_reserved":false,"is_disabled":false,"rental_uris":{"android":"levelo://app?vid=a69b7364-aacd-456b-8d0e-0802298a120a","ios":"levelo://app?vid=a69b7364-aacd-456b-8d0e-0802298a120a"},"vehicle_type_id":"4","last_reported":1678986410,"current_range_meters":12400,"station_id":"ce4bgth2rcd13ifvqch0","pricing_plan_id":"free"},{"bike_id":"3e5635d2-5466-4c44-8ad7-573d8e079cfd","system_id":"levelo_inurba_marseille","lat":43.317075,"lon":5.377367,"is_reserved":false,"is_disabled":false,"rental_uris":{"android":"levelo://app?vid=3e5635d2-5466-4c44-8ad7-573d8e079cfd","ios":"levelo://app?vid=3e5635d2-5466-4c44-8ad7-573d8e079cfd"},"vehicle_type_id":"4","last_reported":1678986410,"current_range_meters":0,"station_id":"ce4bgth2rcd13ifvqch0","pricing_plan_id":"free"},{"bike_id":"79b884f3-7bfa-4962-b4a0-ff2bdfb6d557","system_id":"levelo_inurba_marseille","lat":43.308113,"lon":5.381558,"is_reserved":false,"is_disabled":false,"rental_uris":{"android":"levelo://app?vid=79b884f3-7bfa-4962-b4a0-ff2bdfb6d557","ios":"levelo://app?vid=79b884f3-7bfa-4962-b4a0-ff2bdfb6d557"},"vehicle_type_id":"4","last_reported":1678986410,"current_range_meters":24800,"station_id":"","pricing_plan_id":"free"},{"bike_id":"347b203a-60c1-45e7-96a7-69bc39129401","system_id":"levelo_inurba_marseille","lat":43.308012,"lon":5.381511,"is_reserved":false,"is_disabled":false,"rental_uris":{"android":"levelo://app?vid=347b203a-60c1-45e7-96a7-69bc39129401","ios":"levelo://app?vid=347b203a-60c1-45e7-96a7-69bc39129401"},"vehicle_type_id":"4","last_reported":1678986410,"current_range_meters":12000,"station_id":"ce4bgt12rcd13ifvqce0","pricing_plan_id":"free"},{"bike_id":"9aa9a149-8629-43a1-a8d6-23525292b5fa","system_id":"levelo_inurba_marseille","lat":43.304606,"lon":5.379026,"is_reserved":false,"is_disabled":false,"rental_uris":{"android":"levelo://app?vid=9aa9a149-8629-43a1-a8d6-23525292b5fa","ios":"levelo://app?vid=9aa9a149-8629-43a1-a8d6-23525292b5fa"},"vehicle_type_id":"4","last_reported":1678986410,"current_range_meters":14400,"station_id":"ce4bgup2rcd13ifvqcn0","pricing_plan_id":"free"},{"bike_id":"d14b04aa-70d2-46b7-9752-dd27f0cfb004","system_id":"levelo_inurba_marseille","lat":43.301429,"lon":5.37413,"is_reserved":false,"is_disabled":false,"rental_uris":{"android":"levelo://app?vid=d14b04aa-70d2-46b7-9752-dd27f0cfb004","ios":"levelo://app?vid=d14b04aa-70d2-46b7-9752-dd27f0cfb004"},"vehicle_type_id":"4","last_reported":1678986410,"current_range_meters":22400,"station_id":"ce4bgs92rcd13ifvqcc0","pricing_plan_id":"free"},{"bike_id":"9684ac0d-8d89-4ab8-9bcd-9f7c0a6f6822","system_id":"levelo_inurba_marseille","lat":43.30143,"lon":5.37413,"is_reserved":false,"is_disabled":false,"rental_uris":{"android":"levelo://app?vid=9684ac0d-8d89-4ab8-9bcd-9f7c0a6f6822","ios":"levelo://app?vid=9684ac0d-8d89-4ab8-9bcd-9f7c0a6f6822"},"vehicle_type_id":"4","last_reported":1678986410,"current_range_meters":23200,"station_id":"ce4bgs92rcd13ifvqcc0","pricing_plan_id":"free"},{"bike_id":"6398576f-92a6-495c-b7fc-df745527ea9a","system_id":"levelo_inurba_marseille","lat":43.301429,"lon":5.37413,"is_reserved":false,"is_disabled":false,"rental_uris":{"android":"levelo://app?vid=6398576f-92a6-495c-b7fc-df745527ea9a","ios":"levelo://app?vid=6398576f-92a6-495c-b7fc-df745527ea9a"},"vehicle_type_id":"4","last_reported":1678986410,"current_range_meters":12800,"station_id":"ce4bgs92rcd13ifvqcc0","pricing_plan_id":"free"},{"bike_id":"214c0734-78a0-416d-8ce6-eab00cd4c83b","system_id":"levelo_inurba_marseille","lat":43.313571,"lon":5.384829,"is_reserved":false,"is_disabled":false,"rental_uris":{"android":"levelo://app?vid=214c0734-78a0-416d-8ce6-eab00cd4c83b","ios":"levelo://app?vid=214c0734-78a0-416d-8ce6-eab00cd4c83b"},"vehicle_type_id":"4","last_reported":1678986410,"current_range_meters":26400,"station_id":"ce4bgt92rcd13ifvqcf0","pricing_plan_id":"free"},{"bike_id":"0547dae2-8b1e-4b26-ba1c-87e5d5662a97","system_id":"levelo_inurba_marseille","lat":43.313571,"lon":5.384829,"is_reserved":false,"is_disabled":false,"rental_uris":{"android":"levelo://app?vid=0547dae2-8b1e-4b26-ba1c-87e5d5662a97","ios":"levelo://app?vid=0547dae2-8b1e-4b26-ba1c-87e5d5662a97"},"vehicle_type_id":"4","last_reported":1678986410,"current_range_meters":0,"station_id":"ce4bgt92rcd13ifvqcf0","pricing_plan_id":"free"},{"bike_id":"6cfa4c29-ff57-4d5d-abf3-95f61c6e0fd7","system_id":"levelo_inurba_marseille","lat":43.300638,"lon":5.374238,"is_reserved":false,"is_disabled":false,"rental_uris":{"android":"levelo://app?vid=6cfa4c29-ff57-4d5d-abf3-95f61c6e0fd7","ios":"levelo://app?vid=6cfa4c29-ff57-4d5d-abf3-95f61c6e0fd7"},"vehicle_type_id":"4","last_reported":1678986410,"current_range_meters":0,"station_id":"","pricing_plan_id":"free"},{"bike_id":"76d1dddd-9977-4231-8aa8-da9643e8b440","system_id":"levelo_inurba_marseille","lat":43.311722,"lon":5.387247,"is_reserved":false,"is_disabled":false,"rental_uris":{"android":"levelo://app?vid=76d1dddd-9977-4231-8aa8-da9643e8b440","ios":"levelo://app?vid=76d1dddd-9977-4231-8aa8-da9643e8b440"},"vehicle_type_id":"4","last_reported":1678986410,"current_range_meters":8400,"station_id":"ce4bgv12rcd13ifvqcp0","pricing_plan_id":"free"},{"bike_id":"580ffebf-86b5-405a-8a90-37f51281ca16","system_id":"levelo_inurba_marseille","lat":43.311722,"lon":5.387247,"is_reserved":false,"is_disabled":false,"rental_uris":{"android":"levelo://app?vid=580ffebf-86b5-405a-8a90-37f51281ca16","ios":"levelo://app?vid=580ffebf-86b5-405a-8a90-37f51281ca16"},"vehicle_type_id":"4","last_reported":1678986410,"current_range_meters":0,"station_id":"ce4bgv12rcd13ifvqcp0","pricing_plan_id":"free"},{"bike_id":"ce2667f9-0ad2-4584-bfd7-659f5828fd5a","system_id":"levelo_inurba_marseille","lat":43.297794,"lon":5.370888,"is_reserved":false,"is_disabled":false,"rental_uris":{"android":"levelo://app?vid=ce2667f9-0ad2-4584-bfd7-659f5828fd5a","ios":"levelo://app?vid=ce2667f9-0ad2-4584-bfd7-659f5828fd5a"},"vehicle_type_id":"4","last_reported":1678986410,"current_range_meters":31600,"station_id":"ce4bgop2rcd13ifvqc1g","pricing_plan_id":"free"},{"bike_id":"cfe404af-ab95-4af7-bbdc-6b30b3ca6623","system_id":"levelo_inurba_marseille","lat":43.328371,"lon":5.366909,"is_reserved":false,"is_disabled":false,"rental_uris":{"android":"levelo://app?vid=cfe404af-ab95-4af7-bbdc-6b30b3ca6623","ios":"levelo://app?vid=cfe404af-ab95-4af7-bbdc-6b30b3ca6623"},"vehicle_type_id":"4","last_reported":1678986410,"current_range_meters":31600,"station_id":"ce4bhs92rcd13ifvqi0g","pricing_plan_id":"free"},{"bike_id":"75978b74-79fc-49a5-b9fa-e7039bab7e8c","system_id":"levelo_inurba_marseille","lat":43.328371,"lon":5.366909,"is_reserved":false,"is_disabled":false,"rental_uris":{"android":"levelo://app?vid=75978b74-79fc-49a5-b9fa-e7039bab7e8c","ios":"levelo://app?vid=75978b74-79fc-49a5-b9fa-e7039bab7e8c"},"vehicle_type_id":"4","last_reported":1678986410,"current_range_meters":31600,"station_id":"ce4bhs92rcd13ifvqi0g","pricing_plan_id":"free"},{"bike_id":"3ee9e906-ff61-406e-8f01-1ef90b64d97f","system_id":"levelo_inurba_marseille","lat":43.328371,"lon":5.366909,"is_reserved":false,"is_disabled":false,"rental_uris":{"android":"levelo://app?vid=3ee9e906-ff61-406e-8f01-1ef90b64d97f","ios":"levelo://app?vid=3ee9e906-ff61-406e-8f01-1ef90b64d97f"},"vehicle_type_id":"4","last_reported":1678986410,"current_range_meters":21600,"station_id":"ce4bhs92rcd13ifvqi0g","pricing_plan_id":"free"},{"bike_id":"e9fd470e-2760-47d6-a93f-e375445b3585","system_id":"levelo_inurba_marseille","lat":43.328371,"lon":5.366912,"is_reserved":false,"is_disabled":false,"rental_uris":{"android":"levelo://app?vid=e9fd470e-2760-47d6-a93f-e375445b3585","ios":"levelo://app?vid=e9fd470e-2760-47d6-a93f-e375445b3585"},"vehicle_type_id":"4","last_reported":1678986410,"current_range_meters":25600,"station_id":"ce4bhs92rcd13ifvqi0g","pricing_plan_id":"free"},{"bike_id":"45d7f3c1-e2e2-4ba9-855a-d63e644a893d","system_id":"levelo_inurba_marseille","lat":43.328371,"lon":5.366912,"is_reserved":false,"is_disabled":false,"rental_uris":{"android":"levelo://app?vid=45d7f3c1-e2e2-4ba9-855a-d63e644a893d","ios":"levelo://app?vid=45d7f3c1-e2e2-4ba9-855a-d63e644a893d"},"vehicle_type_id":"4","last_reported":1678986410,"current_range_meters":30800,"station_id":"ce4bhs92rcd13ifvqi0g","pricing_plan_id":"free"},{"bike_id":"7e119c6a-000d-44cc-a247-92db71d8fffe","system_id":"levelo_inurba_marseille","lat":43.328307,"lon":5.366949,"is_reserved":false,"is_disabled":false,"rental_uris":{"android":"levelo://app?vid=7e119c6a-000d-44cc-a247-92db71d8fffe","ios":"levelo://app?vid=7e119c6a-000d-44cc-a247-92db71d8fffe"},"vehicle_type_id":"4","last_reported":1678986410,"current_range_meters":31600,"station_id":"ce4bhs92rcd13ifvqi0g","pricing_plan_id":"free"},{"bike_id":"88c7d809-09de-42e1-ba9f-2896024b23b9","system_id":"levelo_inurba_marseille","lat":43.32831,"lon":5.36695,"is_reserved":false,"is_disabled":false,"rental_uris":{"android":"levelo://app?vid=88c7d809-09de-42e1-ba9f-2896024b23b9","ios":"levelo://app?vid=88c7d809-09de-42e1-ba9f-2896024b23b9"},"vehicle_type_id":"4","last_reported":1678986410,"current_range_meters":31600,"station_id":"","pricing_plan_id":"free"},{"bike_id":"825f011a-6315-4a53-b1ad-10eae5c95006","system_id":"levelo_inurba_marseille","lat":43.328317,"lon":5.366861,"is_reserved":false,"is_disabled":false,"rental_uris":{"android":"levelo://app?vid=825f011a-6315-4a53-b1ad-10eae5c95006","ios":"levelo://app?vid=825f011a-6315-4a53-b1ad-10eae5c95006"},"vehicle_type_id":"4","last_reported":1678986410,"current_range_meters":29200,"station_id":"ce4bhs92rcd13ifvqi0g","pricing_plan_id":"free"},{"bike_id":"6bd41ffc-f4de-4ab5-b0c6-02267cc3d1e5","system_id":"levelo_inurba_marseille","lat":43.328319,"lon":5.366895,"is_reserved":false,"is_disabled":false,"rental_uris":{"android":"levelo://app?vid=6bd41ffc-f4de-4ab5-b0c6-02267cc3d1e5","ios":"levelo://app?vid=6bd41ffc-f4de-4ab5-b0c6-02267cc3d1e5"},"vehicle_type_id":"4","last_reported":1678986410,"current_range_meters":31600,"station_id":"ce4bhs92rcd13ifvqi0g","pricing_plan_id":"free"},{"bike_id":"60a89e88-9467-4a41-9fe4-1d6cd1913095","system_id":"levelo_inurba_marseille","lat":43.328371,"lon":5.366912,"is_reserved":false,"is_disabled":false,"rental_uris":{"android":"levelo://app?vid=60a89e88-9467-4a41-9fe4-1d6cd1913095","ios":"levelo://app?vid=60a89e88-9467-4a41-9fe4-1d6cd1913095"},"vehicle_type_id":"4","last_reported":1678986410,"current_range_meters":7200,"station_id":"ce4bhs92rcd13ifvqi0g","pricing_plan_id":"free"},{"bike_id":"efe8cd5e-7884-47a6-a368-ca0160c655bc","system_id":"levelo_inurba_marseille","lat":43.32833,"lon":5.3669,"is_reserved":false,"is_disabled":false,"rental_uris":{"android":"levelo://app?vid=efe8cd5e-7884-47a6-a368-ca0160c655bc","ios":"levelo://app?vid=efe8cd5e-7884-47a6-a368-ca0160c655bc"},"vehicle_type_id":"4","last_reported":1678986410,"current_range_meters":12400,"station_id":"","pricing_plan_id":"free"},{"bike_id":"a5f33379-9d62-404d-87e3-d13857b69b0b","system_id":"levelo_inurba_marseille","lat":43.328331,"lon":5.366936,"is_reserved":false,"is_disabled":false,"rental_uris":{"android":"levelo://app?vid=a5f33379-9d62-404d-87e3-d13857b69b0b","ios":"levelo://app?vid=a5f33379-9d62-404d-87e3-d13857b69b0b"},"vehicle_type_id":"4","last_reported":1678986410,"current_range_meters":31600,"station_id":"ce4bhs92rcd13ifvqi0g","pricing_plan_id":"free"},{"bike_id":"705cf8f2-4d4b-4a6b-a2be-df8a3cae03bc","system_id":"levelo_inurba_marseille","lat":43.328359,"lon":5.366945,"is_reserved":false,"is_disabled":false,"rental_uris":{"android":"levelo://app?vid=705cf8f2-4d4b-4a6b-a2be-df8a3cae03bc","ios":"levelo://app?vid=705cf8f2-4d4b-4a6b-a2be-df8a3cae03bc"},"vehicle_type_id":"4","last_reported":1678986410,"current_range_meters":27200,"station_id":"ce4bhs92rcd13ifvqi0g","pricing_plan_id":"free"},{"bike_id":"37aaa815-709f-408a-ac91-868f785e2282","system_id":"levelo_inurba_marseille","lat":43.296758,"lon":5.372891,"is_reserved":false,"is_disabled":false,"rental_uris":{"android":"levelo://app?vid=37aaa815-709f-408a-ac91-868f785e2282","ios":"levelo://app?vid=37aaa815-709f-408a-ac91-868f785e2282"},"vehicle_type_id":"4","last_reported":1678986410,"current_range_meters":31600,"station_id":"","pricing_plan_id":"free"},{"bike_id":"8fb72969-9639-4e6c-ab3a-c0314c40d891","system_id":"levelo_inurba_marseille","lat":43.296935,"lon":5.376544,"is_reserved":false,"is_disabled":false,"rental_uris":{"android":"levelo://app?vid=8fb72969-9639-4e6c-ab3a-c0314c40d891","ios":"levelo://app?vid=8fb72969-9639-4e6c-ab3a-c0314c40d891"},"vehicle_type_id":"4","last_reported":1678986410,"current_range_meters":17600,"station_id":"ce4bgkh2rcd13ifvqbl0","pricing_plan_id":"free"},{"bike_id":"62e7cfd2-f37c-4e29-84e4-6a718875dfd0","system_id":"levelo_inurba_marseille","lat":43.2961,"lon":5.37728,"is_reserved":false,"is_disabled":false,"rental_uris":{"android":"levelo://app?vid=62e7cfd2-f37c-4e29-84e4-6a718875dfd0","ios":"levelo://app?vid=62e7cfd2-f37c-4e29-84e4-6a718875dfd0"},"vehicle_type_id":"4","last_reported":1678986410,"current_range_meters":0,"station_id":"ce4bgi92rcd13ifvqb90","pricing_plan_id":"free"},{"bike_id":"59829b98-6007-4916-b75b-00ea51588c47","system_id":"levelo_inurba_marseille","lat":43.299724,"lon":5.384848,"is_reserved":false,"is_disabled":false,"rental_uris":{"android":"levelo://app?vid=59829b98-6007-4916-b75b-00ea51588c47","ios":"levelo://app?vid=59829b98-6007-4916-b75b-00ea51588c47"},"vehicle_type_id":"4","last_reported":1678986410,"current_range_meters":0,"station_id":"ce4bgj92rcd13ifvqbd0","pricing_plan_id":"free"},{"bike_id":"3e8fc2c9-aa1a-43a9-ba8f-1192764afea7","system_id":"levelo_inurba_marseille","lat":43.295279,"lon":5.375048,"is_reserved":false,"is_disabled":false,"rental_uris":{"android":"levelo://app?vid=3e8fc2c9-aa1a-43a9-ba8f-1192764afea7","ios":"levelo://app?vid=3e8fc2c9-aa1a-43a9-ba8f-1192764afea7"},"vehicle_type_id":"4","last_reported":1678986410,"current_range_meters":3200,"station_id":"ce4bgkp2rcd13ifvqbmg","pricing_plan_id":"free"},{"bike_id":"3b5df5a1-726c-41eb-bb03-c7d5e0b630b4","system_id":"levelo_inurba_marseille","lat":43.293249,"lon":5.371578,"is_reserved":false,"is_disabled":false,"rental_uris":{"android":"levelo://app?vid=3b5df5a1-726c-41eb-bb03-c7d5e0b630b4","ios":"levelo://app?vid=3b5df5a1-726c-41eb-bb03-c7d5e0b630b4"},"vehicle_type_id":"4","last_reported":1678986410,"current_range_meters":31600,"station_id":"ce4bgh92rcd13ifvqb40","pricing_plan_id":"free"},{"bike_id":"35ef1b56-4254-4981-bdce-e2d10540dd2c","system_id":"levelo_inurba_marseille","lat":43.293,"lon":5.37178,"is_reserved":false,"is_disabled":false,"rental_uris":{"android":"levelo://app?vid=35ef1b56-4254-4981-bdce-e2d10540dd2c","ios":"levelo://app?vid=35ef1b56-4254-4981-bdce-e2d10540dd2c"},"vehicle_type_id":"4","last_reported":1678986410,"current_range_meters":31600,"station_id":"ce4bgh92rcd13ifvqb40","pricing_plan_id":"free"},{"bike_id":"e78e2252-943c-4119-b668-879b93d8701c","system_id":"levelo_inurba_marseille","lat":43.292698,"lon":5.359655,"is_reserved":false,"is_disabled":false,"rental_uris":{"android":"levelo://app?vid=e78e2252-943c-4119-b668-879b93d8701c","ios":"levelo://app?vid=e78e2252-943c-4119-b668-879b93d8701c"},"vehicle_type_id":"4","last_reported":1678986410,"current_range_meters":1600,"station_id":"","pricing_plan_id":"free"},{"bike_id":"4e8a621f-edb9-4a7e-8100-ecbf2257c370","system_id":"levelo_inurba_marseille","lat":43.231919,"lon":5.355532,"is_reserved":false,"is_disabled":false,"rental_uris":{"android":"levelo://app?vid=4e8a621f-edb9-4a7e-8100-ecbf2257c370","ios":"levelo://app?vid=4e8a621f-edb9-4a7e-8100-ecbf2257c370"},"vehicle_type_id":"4","last_reported":1678986410,"current_range_meters":1200,"station_id":"ce4bhu92rcd13ifvqi70","pricing_plan_id":"free"},{"bike_id":"53e17aba-cceb-4dde-a4e2-412e169e6b63","system_id":"levelo_inurba_marseille","lat":43.231919,"lon":5.355532,"is_reserved":false,"is_disabled":false,"rental_uris":{"android":"levelo://app?vid=53e17aba-cceb-4dde-a4e2-412e169e6b63","ios":"levelo://app?vid=53e17aba-cceb-4dde-a4e2-412e169e6b63"},"vehicle_type_id":"4","last_reported":1678986410,"current_range_meters":18400,"station_id":"ce4bhu92rcd13ifvqi70","pricing_plan_id":"free"},{"bike_id":"7a23e1d9-c55e-4dd5-8f22-e8bac2263da6","system_id":"levelo_inurba_marseille","lat":43.302008,"lon":5.394694,"is_reserved":false,"is_disabled":false,"rental_uris":{"android":"levelo://app?vid=7a23e1d9-c55e-4dd5-8f22-e8bac2263da6","ios":"levelo://app?vid=7a23e1d9-c55e-4dd5-8f22-e8bac2263da6"},"vehicle_type_id":"4","last_reported":1678986410,"current_range_meters":2800,"station_id":"ce4bh0p2rcd13ifvqd70","pricing_plan_id":"free"},{"bike_id":"d92a2d44-709f-4e67-bb06-7182d58ea99e","system_id":"levelo_inurba_marseille","lat":43.290624,"lon":5.359245,"is_reserved":false,"is_disabled":false,"rental_uris":{"android":"levelo://app?vid=d92a2d44-709f-4e67-bb06-7182d58ea99e","ios":"levelo://app?vid=d92a2d44-709f-4e67-bb06-7182d58ea99e"},"vehicle_type_id":"4","last_reported":1678986410,"current_range_meters":400,"station_id":"ce4bha92rcd13ifvqeg0","pricing_plan_id":"free"},{"bike_id":"eea94bfe-5736-4726-8ae9-6dedc6a80b8b","system_id":"levelo_inurba_marseille","lat":43.294162,"lon":5.386292,"is_reserved":false,"is_disabled":false,"rental_uris":{"android":"levelo://app?vid=eea94bfe-5736-4726-8ae9-6dedc6a80b8b","ios":"levelo://app?vid=eea94bfe-5736-4726-8ae9-6dedc6a80b8b"},"vehicle_type_id":"4","last_reported":1678986410,"current_range_meters":0,"station_id":"ce4bh2h2rcd13ifvqdh0","pricing_plan_id":"free"},{"bike_id":"a7f34a67-349b-44df-8e1e-8c37ceae80d8","system_id":"levelo_inurba_marseille","lat":43.330442,"lon":5.389148,"is_reserved":false,"is_disabled":false,"rental_uris":{"android":"levelo://app?vid=a7f34a67-349b-44df-8e1e-8c37ceae80d8","ios":"levelo://app?vid=a7f34a67-349b-44df-8e1e-8c37ceae80d8"},"vehicle_type_id":"4","last_reported":1678986410,"current_range_meters":14400,"station_id":"ce4bhr92rcd13ifvqhrg","pricing_plan_id":"free"},{"bike_id":"d0ac40b5-2ecb-42fd-9540-fee7ac99c4e4","system_id":"levelo_inurba_marseille","lat":43.29008,"lon":5.35609,"is_reserved":false,"is_disabled":false,"rental_uris":{"android":"levelo://app?vid=d0ac40b5-2ecb-42fd-9540-fee7ac99c4e4","ios":"levelo://app?vid=d0ac40b5-2ecb-42fd-9540-fee7ac99c4e4"},"vehicle_type_id":"4","last_reported":1678986410,"current_range_meters":13600,"station_id":"ce4bhb92rcd13ifvqen0","pricing_plan_id":"free"},{"bike_id":"c327e8e6-24ae-4334-abb5-4d02707ade55","system_id":"levelo_inurba_marseille","lat":43.260909,"lon":5.397591,"is_reserved":false,"is_disabled":false,"rental_uris":{"android":"levelo://app?vid=c327e8e6-24ae-4334-abb5-4d02707ade55","ios":"levelo://app?vid=c327e8e6-24ae-4334-abb5-4d02707ade55"},"vehicle_type_id":"4","last_reported":1678986410,"current_range_meters":24000,"station_id":"ce4bhi12rcd13ifvqfq0","pricing_plan_id":"free"},{"bike_id":"39f0ec80-84de-4a2d-a0d9-18b0a9d520ee","system_id":"levelo_inurba_marseille","lat":43.3374,"lon":5.374548,"is_reserved":false,"is_disabled":false,"rental_uris":{"android":"levelo://app?vid=39f0ec80-84de-4a2d-a0d9-18b0a9d520ee","ios":"levelo://app?vid=39f0ec80-84de-4a2d-a0d9-18b0a9d520ee"},"vehicle_type_id":"4","last_reported":1678986410,"current_range_meters":30400,"station_id":"","pricing_plan_id":"free"},{"bike_id":"ac2f47e1-841e-4962-ad05-dbc3c2513baf","system_id":"levelo_inurba_marseille","lat":43.337493,"lon":5.374568,"is_reserved":false,"is_disabled":false,"rental_uris":{"android":"levelo://app?vid=ac2f47e1-841e-4962-ad05-dbc3c2513baf","ios":"levelo://app?vid=ac2f47e1-841e-4962-ad05-dbc3c2513baf"},"vehicle_type_id":"4","last_reported":1678986410,"current_range_meters":0,"station_id":"","pricing_plan_id":"free"},{"bike_id":"0dd5a728-44a9-4c05-945f-74bda4fcde3e","system_id":"levelo_inurba_marseille","lat":43.337476,"lon":5.37471,"is_reserved":false,"is_disabled":false,"rental_uris":{"android":"levelo://app?vid=0dd5a728-44a9-4c05-945f-74bda4fcde3e","ios":"levelo://app?vid=0dd5a728-44a9-4c05-945f-74bda4fcde3e"},"vehicle_type_id":"4","last_reported":1678986410,"current_range_meters":0,"station_id":"","pricing_plan_id":"free"},{"bike_id":"24e42b65-e736-4b02-9f91-341883142906","system_id":"levelo_inurba_marseille","lat":43.337554,"lon":5.374451,"is_reserved":false,"is_disabled":false,"rental_uris":{"android":"levelo://app?vid=24e42b65-e736-4b02-9f91-341883142906","ios":"levelo://app?vid=24e42b65-e736-4b02-9f91-341883142906"},"vehicle_type_id":"4","last_reported":1678986410,"current_range_meters":28800,"station_id":"","pricing_plan_id":"free"},{"bike_id":"150990b9-d5e6-4f79-9812-4de25f7cd584","system_id":"levelo_inurba_marseille","lat":43.306412,"lon":5.401035,"is_reserved":false,"is_disabled":false,"rental_uris":{"android":"levelo://app?vid=150990b9-d5e6-4f79-9812-4de25f7cd584","ios":"levelo://app?vid=150990b9-d5e6-4f79-9812-4de25f7cd584"},"vehicle_type_id":"4","last_reported":1678986410,"current_range_meters":5600,"station_id":"ce4bh112rcd13ifvqda0","pricing_plan_id":"free"},{"bike_id":"f5106067-538d-4dd8-aba9-446996ff8043","system_id":"levelo_inurba_marseille","lat":43.29526,"lon":5.39412,"is_reserved":false,"is_disabled":false,"rental_uris":{"android":"levelo://app?vid=f5106067-538d-4dd8-aba9-446996ff8043","ios":"levelo://app?vid=f5106067-538d-4dd8-aba9-446996ff8043"},"vehicle_type_id":"4","last_reported":1678986410,"current_range_meters":15600,"station_id":"","pricing_plan_id":"free"},{"bike_id":"8bbcd344-2ece-4744-ba27-35dfd08d1728","system_id":"levelo_inurba_marseille","lat":43.30257,"lon":5.40053,"is_reserved":false,"is_disabled":false,"rental_uris":{"android":"levelo://app?vid=8bbcd344-2ece-4744-ba27-35dfd08d1728","ios":"levelo://app?vid=8bbcd344-2ece-4744-ba27-35dfd08d1728"},"vehicle_type_id":"4","last_reported":1678986410,"current_range_meters":0,"station_id":"","pricing_plan_id":"free"},{"bike_id":"1ae3363c-e568-4fa9-ab1f-91ce5f51a028","system_id":"levelo_inurba_marseille","lat":43.302759,"lon":5.400793,"is_reserved":false,"is_disabled":false,"rental_uris":{"android":"levelo://app?vid=1ae3363c-e568-4fa9-ab1f-91ce5f51a028","ios":"levelo://app?vid=1ae3363c-e568-4fa9-ab1f-91ce5f51a028"},"vehicle_type_id":"4","last_reported":1678986410,"current_range_meters":27600,"station_id":"ce4bgvh2rcd13ifvqcs0","pricing_plan_id":"free"},{"bike_id":"a5a0a433-1704-4a19-95e2-a956532fba03","system_id":"levelo_inurba_marseille","lat":43.302759,"lon":5.400793,"is_reserved":false,"is_disabled":false,"rental_uris":{"android":"levelo://app?vid=a5a0a433-1704-4a19-95e2-a956532fba03","ios":"levelo://app?vid=a5a0a433-1704-4a19-95e2-a956532fba03"},"vehicle_type_id":"4","last_reported":1678986410,"current_range_meters":4000,"station_id":"ce4bgvh2rcd13ifvqcs0","pricing_plan_id":"free"},{"bike_id":"46ce7079-44cc-4651-9f90-3e38f2f45be3","system_id":"levelo_inurba_marseille","lat":43.286039,"lon":5.370679,"is_reserved":false,"is_disabled":false,"rental_uris":{"android":"levelo://app?vid=46ce7079-44cc-4651-9f90-3e38f2f45be3","ios":"levelo://app?vid=46ce7079-44cc-4651-9f90-3e38f2f45be3"},"vehicle_type_id":"4","last_reported":1678986410,"current_range_meters":26400,"station_id":"ce4bht12rcd13ifvqi60","pricing_plan_id":"free"},{"bike_id":"3d7a6b5d-57ad-44c1-9a72-f91c65515444","system_id":"levelo_inurba_marseille","lat":43.286039,"lon":5.370681,"is_reserved":false,"is_disabled":false,"rental_uris":{"android":"levelo://app?vid=3d7a6b5d-57ad-44c1-9a72-f91c65515444","ios":"levelo://app?vid=3d7a6b5d-57ad-44c1-9a72-f91c65515444"},"vehicle_type_id":"4","last_reported":1678986410,"current_range_meters":20800,"station_id":"ce4bht12rcd13ifvqi60","pricing_plan_id":"free"},{"bike_id":"c0fee3c4-9cc8-4f93-b688-84d197572196","system_id":"levelo_inurba_marseille","lat":43.286039,"lon":5.370681,"is_reserved":false,"is_disabled":false,"rental_uris":{"android":"levelo://app?vid=c0fee3c4-9cc8-4f93-b688-84d197572196","ios":"levelo://app?vid=c0fee3c4-9cc8-4f93-b688-84d197572196"},"vehicle_type_id":"4","last_reported":1678986410,"current_range_meters":3200,"station_id":"ce4bht12rcd13ifvqi60","pricing_plan_id":"free"},{"bike_id":"8efbae90-2927-4be1-8c13-a4f4f491e50c","system_id":"levelo_inurba_marseille","lat":43.286039,"lon":5.370681,"is_reserved":false,"is_disabled":false,"rental_uris":{"android":"levelo://app?vid=8efbae90-2927-4be1-8c13-a4f4f491e50c","ios":"levelo://app?vid=8efbae90-2927-4be1-8c13-a4f4f491e50c"},"vehicle_type_id":"4","last_reported":1678986410,"current_range_meters":13200,"station_id":"ce4bht12rcd13ifvqi60","pricing_plan_id":"free"},{"bike_id":"2d3cc8fc-8ce6-4c2f-b942-5df837c47f62","system_id":"levelo_inurba_marseille","lat":43.287184,"lon":5.37937,"is_reserved":false,"is_disabled":false,"rental_uris":{"android":"levelo://app?vid=2d3cc8fc-8ce6-4c2f-b942-5df837c47f62","ios":"levelo://app?vid=2d3cc8fc-8ce6-4c2f-b942-5df837c47f62"},"vehicle_type_id":"4","last_reported":1678986410,"current_range_meters":24000,"station_id":"ce4bh9p2rcd13ifvqec0","pricing_plan_id":"free"},{"bike_id":"d3d2c521-f143-4647-8096-aca9c969a5ee","system_id":"levelo_inurba_marseille","lat":43.28465,"lon":5.35885,"is_reserved":false,"is_disabled":false,"rental_uris":{"android":"levelo://app?vid=d3d2c521-f143-4647-8096-aca9c969a5ee","ios":"levelo://app?vid=d3d2c521-f143-4647-8096-aca9c969a5ee"},"vehicle_type_id":"4","last_reported":1678986410,"current_range_meters":4000,"station_id":"","pricing_plan_id":"free"},{"bike_id":"2fd086db-2479-46b8-93cd-9102fbaac272","system_id":"levelo_inurba_marseille","lat":43.284627,"lon":5.35897,"is_reserved":false,"is_disabled":false,"rental_uris":{"android":"levelo://app?vid=2fd086db-2479-46b8-93cd-9102fbaac272","ios":"levelo://app?vid=2fd086db-2479-46b8-93cd-9102fbaac272"},"vehicle_type_id":"4","last_reported":1678986410,"current_range_meters":18000,"station_id":"ce4bhah2rcd13ifvqei0","pricing_plan_id":"free"},{"bike_id":"4954af17-5107-4931-934b-36648ddec960","system_id":"levelo_inurba_marseille","lat":43.28461,"lon":5.35891,"is_reserved":false,"is_disabled":false,"rental_uris":{"android":"levelo://app?vid=4954af17-5107-4931-934b-36648ddec960","ios":"levelo://app?vid=4954af17-5107-4931-934b-36648ddec960"},"vehicle_type_id":"4","last_reported":1678986410,"current_range_meters":8800,"station_id":"","pricing_plan_id":"free"},{"bike_id":"26caacae-1deb-4c56-8f6e-b7f5a8d2a471","system_id":"levelo_inurba_marseille","lat":43.284577,"lon":5.358917,"is_reserved":false,"is_disabled":false,"rental_uris":{"android":"levelo://app?vid=26caacae-1deb-4c56-8f6e-b7f5a8d2a471","ios":"levelo://app?vid=26caacae-1deb-4c56-8f6e-b7f5a8d2a471"},"vehicle_type_id":"4","last_reported":1678986410,"current_range_meters":18000,"station_id":"ce4bhah2rcd13ifvqei0","pricing_plan_id":"free"},{"bike_id":"01599f31-e8df-447f-a5d9-4a5f957c7534","system_id":"levelo_inurba_marseille","lat":43.284949,"lon":5.384199,"is_reserved":false,"is_disabled":false,"rental_uris":{"android":"levelo://app?vid=01599f31-e8df-447f-a5d9-4a5f957c7534","ios":"levelo://app?vid=01599f31-e8df-447f-a5d9-4a5f957c7534"},"vehicle_type_id":"4","last_reported":1678986410,"current_range_meters":0,"station_id":"ce4bh512rcd13ifvqe3g","pricing_plan_id":"free"},{"bike_id":"22934845-6843-4e7d-93ea-d33f24580c3f","system_id":"levelo_inurba_marseille","lat":43.255756,"lon":5.382303,"is_reserved":false,"is_disabled":false,"rental_uris":{"android":"levelo://app?vid=22934845-6843-4e7d-93ea-d33f24580c3f","ios":"levelo://app?vid=22934845-6843-4e7d-93ea-d33f24580c3f"},"vehicle_type_id":"4","last_reported":1678986410,"current_range_meters":7200,"station_id":"ce4bhih2rcd13ifvqfs0","pricing_plan_id":"free"},{"bike_id":"95a3b241-7690-49af-bb6e-8cc1bc98cf70","system_id":"levelo_inurba_marseille","lat":43.28472,"lon":5.3842,"is_reserved":false,"is_disabled":false,"rental_uris":{"android":"levelo://app?vid=95a3b241-7690-49af-bb6e-8cc1bc98cf70","ios":"levelo://app?vid=95a3b241-7690-49af-bb6e-8cc1bc98cf70"},"vehicle_type_id":"4","last_reported":1678986410,"current_range_meters":3200,"station_id":"ce4bh512rcd13ifvqe3g","pricing_plan_id":"free"},{"bike_id":"1c74c1cb-803b-40b5-b953-00c6300eb082","system_id":"levelo_inurba_marseille","lat":43.284219,"lon":5.3497,"is_reserved":false,"is_disabled":false,"rental_uris":{"android":"levelo://app?vid=1c74c1cb-803b-40b5-b953-00c6300eb082","ios":"levelo://app?vid=1c74c1cb-803b-40b5-b953-00c6300eb082"},"vehicle_type_id":"4","last_reported":1678986410,"current_range_meters":10800,"station_id":"ce4bhbh2rcd13ifvqepg","pricing_plan_id":"free"},{"bike_id":"5c5a93ab-f641-40e8-95fa-9fba9f7bfe20","system_id":"levelo_inurba_marseille","lat":43.289363,"lon":5.396322,"is_reserved":false,"is_disabled":false,"rental_uris":{"android":"levelo://app?vid=5c5a93ab-f641-40e8-95fa-9fba9f7bfe20","ios":"levelo://app?vid=5c5a93ab-f641-40e8-95fa-9fba9f7bfe20"},"vehicle_type_id":"4","last_reported":1678986410,"current_range_meters":23200,"station_id":"ce4bh3h2rcd13ifvqdn0","pricing_plan_id":"free"},{"bike_id":"39c736e0-fd2b-49ba-84ff-fabf981ac6a0","system_id":"levelo_inurba_marseille","lat":43.282754,"lon":5.350519,"is_reserved":false,"is_disabled":false,"rental_uris":{"android":"levelo://app?vid=39c736e0-fd2b-49ba-84ff-fabf981ac6a0","ios":"levelo://app?vid=39c736e0-fd2b-49ba-84ff-fabf981ac6a0"},"vehicle_type_id":"4","last_reported":1678986410,"current_range_meters":14800,"station_id":"ce4bhbp2rcd13ifvqerg","pricing_plan_id":"free"},{"bike_id":"caf59951-45ab-4ed1-9f7c-1896da9e4e10","system_id":"levelo_inurba_marseille","lat":43.28039,"lon":5.369297,"is_reserved":false,"is_disabled":false,"rental_uris":{"android":"levelo://app?vid=caf59951-45ab-4ed1-9f7c-1896da9e4e10","ios":"levelo://app?vid=caf59951-45ab-4ed1-9f7c-1896da9e4e10"},"vehicle_type_id":"4","last_reported":1678986410,"current_range_meters":28800,"station_id":"ce4bha12rcd13ifvqef0","pricing_plan_id":"free"},{"bike_id":"4fc68012-f168-4b58-9e04-b5fc8bf75042","system_id":"levelo_inurba_marseille","lat":43.28039,"lon":5.369297,"is_reserved":false,"is_disabled":false,"rental_uris":{"android":"levelo://app?vid=4fc68012-f168-4b58-9e04-b5fc8bf75042","ios":"levelo://app?vid=4fc68012-f168-4b58-9e04-b5fc8bf75042"},"vehicle_type_id":"4","last_reported":1678986410,"current_range_meters":10000,"station_id":"ce4bha12rcd13ifvqef0","pricing_plan_id":"free"},{"bike_id":"f1f67ec6-176f-4668-8f67-5684fb12021e","system_id":"levelo_inurba_marseille","lat":43.28039,"lon":5.369297,"is_reserved":false,"is_disabled":false,"rental_uris":{"android":"levelo://app?vid=f1f67ec6-176f-4668-8f67-5684fb12021e","ios":"levelo://app?vid=f1f67ec6-176f-4668-8f67-5684fb12021e"},"vehicle_type_id":"4","last_reported":1678986410,"current_range_meters":26800,"station_id":"ce4bha12rcd13ifvqef0","pricing_plan_id":"free"},{"bike_id":"be922738-7d44-4ef3-bc6b-6c0ee698fc26","system_id":"levelo_inurba_marseille","lat":43.28183,"lon":5.35266,"is_reserved":false,"is_disabled":false,"rental_uris":{"android":"levelo://app?vid=be922738-7d44-4ef3-bc6b-6c0ee698fc26","ios":"levelo://app?vid=be922738-7d44-4ef3-bc6b-6c0ee698fc26"},"vehicle_type_id":"4","last_reported":1678986410,"current_range_meters":400,"station_id":"","pricing_plan_id":"free"},{"bike_id":"61752445-c77d-48fb-bf7e-ae27cde4f738","system_id":"levelo_inurba_marseille","lat":43.290412,"lon":5.399633,"is_reserved":false,"is_disabled":false,"rental_uris":{"android":"levelo://app?vid=61752445-c77d-48fb-bf7e-ae27cde4f738","ios":"levelo://app?vid=61752445-c77d-48fb-bf7e-ae27cde4f738"},"vehicle_type_id":"4","last_reported":1678986410,"current_range_meters":32000,"station_id":"ce4bh392rcd13ifvqdm0","pricing_plan_id":"free"},{"bike_id":"a3c03ec3-cfd3-4f6f-a74f-7238480f533e","system_id":"levelo_inurba_marseille","lat":43.296263,"lon":5.40601,"is_reserved":false,"is_disabled":false,"rental_uris":{"android":"levelo://app?vid=a3c03ec3-cfd3-4f6f-a74f-7238480f533e","ios":"levelo://app?vid=a3c03ec3-cfd3-4f6f-a74f-7238480f533e"},"vehicle_type_id":"4","last_reported":1678986410,"current_range_meters":19200,"station_id":"ce4bh0h2rcd13ifvqd60","pricing_plan_id":"free"},{"bike_id":"d41d1b42-8d58-4888-bfb9-927c51f8b7ea","system_id":"levelo_inurba_marseille","lat":43.287154,"lon":5.399979,"is_reserved":false,"is_disabled":false,"rental_uris":{"android":"levelo://app?vid=d41d1b42-8d58-4888-bfb9-927c51f8b7ea","ios":"levelo://app?vid=d41d1b42-8d58-4888-bfb9-927c51f8b7ea"},"vehicle_type_id":"4","last_reported":1678986410,"current_range_meters":8800,"station_id":"ce4bho92rcd13ifvqh3g","pricing_plan_id":"free"},{"bike_id":"170871bf-4260-4aa6-8ba4-edeeb25702c3","system_id":"levelo_inurba_marseille","lat":43.287154,"lon":5.399979,"is_reserved":false,"is_disabled":false,"rental_uris":{"android":"levelo://app?vid=170871bf-4260-4aa6-8ba4-edeeb25702c3","ios":"levelo://app?vid=170871bf-4260-4aa6-8ba4-edeeb25702c3"},"vehicle_type_id":"4","last_reported":1678986410,"current_range_meters":1200,"station_id":"ce4bho92rcd13ifvqh3g","pricing_plan_id":"free"},{"bike_id":"3425a8d1-72a9-4c24-a334-81dfa2058529","system_id":"levelo_inurba_marseille","lat":43.2789,"lon":5.38284,"is_reserved":false,"is_disabled":false,"rental_uris":{"android":"levelo://app?vid=3425a8d1-72a9-4c24-a334-81dfa2058529","ios":"levelo://app?vid=3425a8d1-72a9-4c24-a334-81dfa2058529"},"vehicle_type_id":"4","last_reported":1678986410,"current_range_meters":0,"station_id":"","pricing_plan_id":"free"},{"bike_id":"2d53b124-6e2c-4c1e-a06d-c1ed52463468","system_id":"levelo_inurba_marseille","lat":43.320045,"lon":5.415048,"is_reserved":false,"is_disabled":false,"rental_uris":{"android":"levelo://app?vid=2d53b124-6e2c-4c1e-a06d-c1ed52463468","ios":"levelo://app?vid=2d53b124-6e2c-4c1e-a06d-c1ed52463468"},"vehicle_type_id":"4","last_reported":1678986410,"current_range_meters":2000,"station_id":"ce4bhq92rcd13ifvqhkg","pricing_plan_id":"free"},{"bike_id":"9278a054-f484-44c3-80a1-009d6c6d582f","system_id":"levelo_inurba_marseille","lat":43.2996,"lon":5.41319,"is_reserved":false,"is_disabled":false,"rental_uris":{"android":"levelo://app?vid=9278a054-f484-44c3-80a1-009d6c6d582f","ios":"levelo://app?vid=9278a054-f484-44c3-80a1-009d6c6d582f"},"vehicle_type_id":"4","last_reported":1678986410,"current_range_meters":14800,"station_id":"","pricing_plan_id":"free"},{"bike_id":"16b35c76-5e74-4077-ba3f-1b8f5f87a5e6","system_id":"levelo_inurba_marseille","lat":43.279765,"lon":5.38737,"is_reserved":false,"is_disabled":false,"rental_uris":{"android":"levelo://app?vid=16b35c76-5e74-4077-ba3f-1b8f5f87a5e6","ios":"levelo://app?vid=16b35c76-5e74-4077-ba3f-1b8f5f87a5e6"},"vehicle_type_id":"4","last_reported":1678986410,"current_range_meters":4800,"station_id":"ce4bhg12rcd13ifvqf80","pricing_plan_id":"free"},{"bike_id":"9c577b75-60a0-4648-b986-0a5327b2f98d","system_id":"levelo_inurba_marseille","lat":43.27973,"lon":5.38737,"is_reserved":false,"is_disabled":false,"rental_uris":{"android":"levelo://app?vid=9c577b75-60a0-4648-b986-0a5327b2f98d","ios":"levelo://app?vid=9c577b75-60a0-4648-b986-0a5327b2f98d"},"vehicle_type_id":"4","last_reported":1678986410,"current_range_meters":15200,"station_id":"ce4bhg12rcd13ifvqf80","pricing_plan_id":"free"},{"bike_id":"bdaca9af-da34-46e8-bb29-a6833a5ef929","system_id":"levelo_inurba_marseille","lat":43.32481,"lon":5.414314,"is_reserved":false,"is_disabled":false,"rental_uris":{"android":"levelo://app?vid=bdaca9af-da34-46e8-bb29-a6833a5ef929","ios":"levelo://app?vid=bdaca9af-da34-46e8-bb29-a6833a5ef929"},"vehicle_type_id":"4","last_reported":1678986410,"current_range_meters":19600,"station_id":"","pricing_plan_id":"free"},{"bike_id":"01a44b05-c2e3-4116-b012-5e3de118944d","system_id":"levelo_inurba_marseille","lat":43.32482,"lon":5.414348,"is_reserved":false,"is_disabled":false,"rental_uris":{"android":"levelo://app?vid=01a44b05-c2e3-4116-b012-5e3de118944d","ios":"levelo://app?vid=01a44b05-c2e3-4116-b012-5e3de118944d"},"vehicle_type_id":"4","last_reported":1678986410,"current_range_meters":4400,"station_id":"","pricing_plan_id":"free"},{"bike_id":"4c210c53-f23b-4744-94f2-737b86eddf54","system_id":"levelo_inurba_marseille","lat":43.292571,"lon":5.409107,"is_reserved":false,"is_disabled":false,"rental_uris":{"android":"levelo://app?vid=4c210c53-f23b-4744-94f2-737b86eddf54","ios":"levelo://app?vid=4c210c53-f23b-4744-94f2-737b86eddf54"},"vehicle_type_id":"4","last_reported":1678986410,"current_range_meters":0,"station_id":"ce4bh192rcd13ifvqdc0","pricing_plan_id":"free"},{"bike_id":"217165bc-4a27-4a64-afc0-0aeccd83771f","system_id":"levelo_inurba_marseille","lat":43.27618,"lon":5.361009,"is_reserved":false,"is_disabled":false,"rental_uris":{"android":"levelo://app?vid=217165bc-4a27-4a64-afc0-0aeccd83771f","ios":"levelo://app?vid=217165bc-4a27-4a64-afc0-0aeccd83771f"},"vehicle_type_id":"4","last_reported":1678986410,"current_range_meters":1200,"station_id":"ce4bgj92rcd13ifvqbe0","pricing_plan_id":"free"},{"bike_id":"8f997206-736a-4896-941c-e73daf37fcd2","system_id":"levelo_inurba_marseille","lat":43.280784,"lon":5.396622,"is_reserved":false,"is_disabled":false,"rental_uris":{"android":"levelo://app?vid=8f997206-736a-4896-941c-e73daf37fcd2","ios":"levelo://app?vid=8f997206-736a-4896-941c-e73daf37fcd2"},"vehicle_type_id":"4","last_reported":1678986410,"current_range_meters":6800,"station_id":"ce4bho12rcd13ifvqh2g","pricing_plan_id":"free"},{"bike_id":"fef46675-1ec5-4f1d-a03b-1ac7a670b441","system_id":"levelo_inurba_marseille","lat":43.273822,"lon":5.362546,"is_reserved":false,"is_disabled":false,"rental_uris":{"android":"levelo://app?vid=fef46675-1ec5-4f1d-a03b-1ac7a670b441","ios":"levelo://app?vid=fef46675-1ec5-4f1d-a03b-1ac7a670b441"},"vehicle_type_id":"4","last_reported":1678986410,"current_range_meters":10400,"station_id":"","pricing_plan_id":"free"},{"bike_id":"aa00379d-50b9-457e-a3a8-7e09db721123","system_id":"levelo_inurba_marseille","lat":43.27382,"lon":5.36255,"is_reserved":false,"is_disabled":false,"rental_uris":{"android":"levelo://app?vid=aa00379d-50b9-457e-a3a8-7e09db721123","ios":"levelo://app?vid=aa00379d-50b9-457e-a3a8-7e09db721123"},"vehicle_type_id":"4","last_reported":1678986410,"current_range_meters":6400,"station_id":"","pricing_plan_id":"free"},{"bike_id":"2030e684-b246-4321-bf6c-4fb78483513e","system_id":"levelo_inurba_marseille","lat":43.27375,"lon":5.36262,"is_reserved":false,"is_disabled":false,"rental_uris":{"android":"levelo://app?vid=2030e684-b246-4321-bf6c-4fb78483513e","ios":"levelo://app?vid=2030e684-b246-4321-bf6c-4fb78483513e"},"vehicle_type_id":"4","last_reported":1678986410,"current_range_meters":25600,"station_id":"ce4bhbh2rcd13ifvqeo0","pricing_plan_id":"free"},{"bike_id":"967d32c2-f95e-40eb-8cdc-74841ff4732d","system_id":"levelo_inurba_marseille","lat":43.273613,"lon":5.362705,"is_reserved":false,"is_disabled":false,"rental_uris":{"android":"levelo://app?vid=967d32c2-f95e-40eb-8cdc-74841ff4732d","ios":"levelo://app?vid=967d32c2-f95e-40eb-8cdc-74841ff4732d"},"vehicle_type_id":"4","last_reported":1678986410,"current_range_meters":21600,"station_id":"ce4bhbh2rcd13ifvqeo0","pricing_plan_id":"free"},{"bike_id":"cc5fd69f-584a-47b4-a535-ce57865fa0d6","system_id":"levelo_inurba_marseille","lat":43.27369,"lon":5.36261,"is_reserved":false,"is_disabled":false,"rental_uris":{"android":"levelo://app?vid=cc5fd69f-584a-47b4-a535-ce57865fa0d6","ios":"levelo://app?vid=cc5fd69f-584a-47b4-a535-ce57865fa0d6"},"vehicle_type_id":"4","last_reported":1678986410,"current_range_meters":20000,"station_id":"","pricing_plan_id":"free"},{"bike_id":"8d9be07a-6be3-4aff-be6e-cb563df5f0e8","system_id":"levelo_inurba_marseille","lat":43.273683,"lon":5.362497,"is_reserved":false,"is_disabled":false,"rental_uris":{"android":"levelo://app?vid=8d9be07a-6be3-4aff-be6e-cb563df5f0e8","ios":"levelo://app?vid=8d9be07a-6be3-4aff-be6e-cb563df5f0e8"},"vehicle_type_id":"4","last_reported":1678986410,"current_range_meters":19600,"station_id":"ce4bhbh2rcd13ifvqeo0","pricing_plan_id":"free"},{"bike_id":"054d06ea-902e-4b39-be36-2c7902769a73","system_id":"levelo_inurba_marseille","lat":43.273325,"lon":5.362651,"is_reserved":false,"is_disabled":false,"rental_uris":{"android":"levelo://app?vid=054d06ea-902e-4b39-be36-2c7902769a73","ios":"levelo://app?vid=054d06ea-902e-4b39-be36-2c7902769a73"},"vehicle_type_id":"4","last_reported":1678986410,"current_range_meters":7200,"station_id":"ce4bhbh2rcd13ifvqeo0","pricing_plan_id":"free"},{"bike_id":"b1039e26-f19e-45f4-9b2c-8e36193249ad","system_id":"levelo_inurba_marseille","lat":43.326,"lon":5.4199,"is_reserved":false,"is_disabled":false,"rental_uris":{"android":"levelo://app?vid=b1039e26-f19e-45f4-9b2c-8e36193249ad","ios":"levelo://app?vid=b1039e26-f19e-45f4-9b2c-8e36193249ad"},"vehicle_type_id":"4","last_reported":1678986410,"current_range_meters":16800,"station_id":"","pricing_plan_id":"free"},{"bike_id":"4f69df7e-f2b6-414a-bb40-0f3c6aa023a9","system_id":"levelo_inurba_marseille","lat":43.33175,"lon":5.41948,"is_reserved":false,"is_disabled":false,"rental_uris":{"android":"levelo://app?vid=4f69df7e-f2b6-414a-bb40-0f3c6aa023a9","ios":"levelo://app?vid=4f69df7e-f2b6-414a-bb40-0f3c6aa023a9"},"vehicle_type_id":"4","last_reported":1678986410,"current_range_meters":23600,"station_id":"","pricing_plan_id":"free"},{"bike_id":"66ed2c99-a77c-4cb5-9d33-4f60ec39c18d","system_id":"levelo_inurba_marseille","lat":43.273129,"lon":5.390725,"is_reserved":false,"is_disabled":false,"rental_uris":{"android":"levelo://app?vid=66ed2c99-a77c-4cb5-9d33-4f60ec39c18d","ios":"levelo://app?vid=66ed2c99-a77c-4cb5-9d33-4f60ec39c18d"},"vehicle_type_id":"4","last_reported":1678986410,"current_range_meters":31600,"station_id":"ce4bhgp2rcd13ifvqfe0","pricing_plan_id":"free"},{"bike_id":"dd5b0962-3603-44d3-9ce8-051e6bdea885","system_id":"levelo_inurba_marseille","lat":43.273129,"lon":5.390725,"is_reserved":false,"is_disabled":false,"rental_uris":{"android":"levelo://app?vid=dd5b0962-3603-44d3-9ce8-051e6bdea885","ios":"levelo://app?vid=dd5b0962-3603-44d3-9ce8-051e6bdea885"},"vehicle_type_id":"4","last_reported":1678986410,"current_range_meters":11200,"station_id":"ce4bhgp2rcd13ifvqfe0","pricing_plan_id":"free"},{"bike_id":"5fd12bcf-746c-4482-ab34-ecac9e1384d0","system_id":"levelo_inurba_marseille","lat":43.295523,"lon":5.422926,"is_reserved":false,"is_disabled":false,"rental_uris":{"android":"levelo://app?vid=5fd12bcf-746c-4482-ab34-ecac9e1384d0","ios":"levelo://app?vid=5fd12bcf-746c-4482-ab34-ecac9e1384d0"},"vehicle_type_id":"4","last_reported":1678986410,"current_range_meters":22800,"station_id":"ce4bhph2rcd13ifvqhdg","pricing_plan_id":"free"},{"bike_id":"12d48a45-b42c-496d-948c-b77e4a1cd584","system_id":"levelo_inurba_marseille","lat":43.295523,"lon":5.422926,"is_reserved":false,"is_disabled":false,"rental_uris":{"android":"levelo://app?vid=12d48a45-b42c-496d-948c-b77e4a1cd584","ios":"levelo://app?vid=12d48a45-b42c-496d-948c-b77e4a1cd584"},"vehicle_type_id":"4","last_reported":1678986410,"current_range_meters":11200,"station_id":"ce4bhph2rcd13ifvqhdg","pricing_plan_id":"free"},{"bike_id":"af071e67-8404-4f79-8dbf-8de0c124092c","system_id":"levelo_inurba_marseille","lat":43.272116,"lon":5.391747,"is_reserved":false,"is_disabled":false,"rental_uris":{"android":"levelo://app?vid=af071e67-8404-4f79-8dbf-8de0c124092c","ios":"levelo://app?vid=af071e67-8404-4f79-8dbf-8de0c124092c"},"vehicle_type_id":"4","last_reported":1678986410,"current_range_meters":20000,"station_id":"ce4bhhp2rcd13ifvqfm0","pricing_plan_id":"free"},{"bike_id":"0793612b-0b10-4244-9af3-e624b57f5c81","system_id":"levelo_inurba_marseille","lat":43.33487,"lon":5.4205,"is_reserved":false,"is_disabled":false,"rental_uris":{"android":"levelo://app?vid=0793612b-0b10-4244-9af3-e624b57f5c81","ios":"levelo://app?vid=0793612b-0b10-4244-9af3-e624b57f5c81"},"vehicle_type_id":"4","last_reported":1678986410,"current_range_meters":23200,"station_id":"","pricing_plan_id":"free"},{"bike_id":"6c3de61d-c6b7-47bf-b43a-1762b14639f7","system_id":"levelo_inurba_marseille","lat":43.269467,"lon":5.386439,"is_reserved":false,"is_disabled":false,"rental_uris":{"android":"levelo://app?vid=6c3de61d-c6b7-47bf-b43a-1762b14639f7","ios":"levelo://app?vid=6c3de61d-c6b7-47bf-b43a-1762b14639f7"},"vehicle_type_id":"4","last_reported":1678986410,"current_range_meters":13600,"station_id":"ce4bhh92rcd13ifvqfh0","pricing_plan_id":"free"},{"bike_id":"42842fc8-acb4-48d7-a055-3acd7bbc8ee2","system_id":"levelo_inurba_marseille","lat":43.231919,"lon":5.355532,"is_reserved":false,"is_disabled":false,"rental_uris":{"android":"levelo://app?vid=42842fc8-acb4-48d7-a055-3acd7bbc8ee2","ios":"levelo://app?vid=42842fc8-acb4-48d7-a055-3acd7bbc8ee2"},"vehicle_type_id":"4","last_reported":1678986410,"current_range_meters":12800,"station_id":"ce4bhu92rcd13ifvqi70","pricing_plan_id":"free"},{"bike_id":"8976de54-0a44-4fcd-bef9-c15b66c3673a","system_id":"levelo_inurba_marseille","lat":43.26811,"lon":5.39385,"is_reserved":false,"is_disabled":false,"rental_uris":{"android":"levelo://app?vid=8976de54-0a44-4fcd-bef9-c15b66c3673a","ios":"levelo://app?vid=8976de54-0a44-4fcd-bef9-c15b66c3673a"},"vehicle_type_id":"4","last_reported":1678986410,"current_range_meters":0,"station_id":"","pricing_plan_id":"free"},{"bike_id":"12c64852-eccc-412e-9a6d-21f96adcbf4a","system_id":"levelo_inurba_marseille","lat":43.27996,"lon":5.416624,"is_reserved":false,"is_disabled":false,"rental_uris":{"android":"levelo://app?vid=12c64852-eccc-412e-9a6d-21f96adcbf4a","ios":"levelo://app?vid=12c64852-eccc-412e-9a6d-21f96adcbf4a"},"vehicle_type_id":"4","last_reported":1678986410,"current_range_meters":7200,"station_id":"ce4bho12rcd13ifvqh1g","pricing_plan_id":"free"},{"bike_id":"b6042a48-c6b4-46f9-98bc-db739d7015fc","system_id":"levelo_inurba_marseille","lat":43.262685,"lon":5.37878,"is_reserved":false,"is_disabled":false,"rental_uris":{"android":"levelo://app?vid=b6042a48-c6b4-46f9-98bc-db739d7015fc","ios":"levelo://app?vid=b6042a48-c6b4-46f9-98bc-db739d7015fc"},"vehicle_type_id":"4","last_reported":1678986410,"current_range_meters":9600,"station_id":"","pricing_plan_id":"free"},{"bike_id":"a4dd458e-299a-4f13-b72f-5b155251ebeb","system_id":"levelo_inurba_marseille","lat":43.26204,"lon":5.37931,"is_reserved":false,"is_disabled":false,"rental_uris":{"android":"levelo://app?vid=a4dd458e-299a-4f13-b72f-5b155251ebeb","ios":"levelo://app?vid=a4dd458e-299a-4f13-b72f-5b155251ebeb"},"vehicle_type_id":"4","last_reported":1678986410,"current_range_meters":0,"station_id":"ce4bhjp2rcd13ifvqg90","pricing_plan_id":"free"},{"bike_id":"193eeae3-8d41-4001-a88a-1460a8d0738b","system_id":"levelo_inurba_marseille","lat":43.267959,"lon":5.402685,"is_reserved":false,"is_disabled":false,"rental_uris":{"android":"levelo://app?vid=193eeae3-8d41-4001-a88a-1460a8d0738b","ios":"levelo://app?vid=193eeae3-8d41-4001-a88a-1460a8d0738b"},"vehicle_type_id":"4","last_reported":1678986410,"current_range_meters":7600,"station_id":"ce501612rcd8frsf0b60","pricing_plan_id":"free"},{"bike_id":"1448dbb8-3996-4768-abc0-d44015d0f1bf","system_id":"levelo_inurba_marseille","lat":43.260225,"lon":5.375455,"is_reserved":false,"is_disabled":false,"rental_uris":{"android":"levelo://app?vid=1448dbb8-3996-4768-abc0-d44015d0f1bf","ios":"levelo://app?vid=1448dbb8-3996-4768-abc0-d44015d0f1bf"},"vehicle_type_id":"4","last_reported":1678986410,"current_range_meters":3600,"station_id":"ce4bhgh2rcd13ifvqfa0","pricing_plan_id":"free"},{"bike_id":"f239949d-2e20-4230-9807-98a9f0c6db94","system_id":"levelo_inurba_marseille","lat":43.26025,"lon":5.37555,"is_reserved":false,"is_disabled":false,"rental_uris":{"android":"levelo://app?vid=f239949d-2e20-4230-9807-98a9f0c6db94","ios":"levelo://app?vid=f239949d-2e20-4230-9807-98a9f0c6db94"},"vehicle_type_id":"4","last_reported":1678986410,"current_range_meters":0,"station_id":"","pricing_plan_id":"free"},{"bike_id":"670fd50f-50e2-406c-9a1a-087d080531c3","system_id":"levelo_inurba_marseille","lat":43.255756,"lon":5.382303,"is_reserved":false,"is_disabled":false,"rental_uris":{"android":"levelo://app?vid=670fd50f-50e2-406c-9a1a-087d080531c3","ios":"levelo://app?vid=670fd50f-50e2-406c-9a1a-087d080531c3"},"vehicle_type_id":"4","last_reported":1678986410,"current_range_meters":0,"station_id":"ce4bhih2rcd13ifvqfs0","pricing_plan_id":"free"},{"bike_id":"588cb5d7-7b1b-4b5f-b192-f81f6aed3e93","system_id":"levelo_inurba_marseille","lat":43.2607,"lon":5.393983,"is_reserved":false,"is_disabled":false,"rental_uris":{"android":"levelo://app?vid=588cb5d7-7b1b-4b5f-b192-f81f6aed3e93","ios":"levelo://app?vid=588cb5d7-7b1b-4b5f-b192-f81f6aed3e93"},"vehicle_type_id":"4","last_reported":1678986410,"current_range_meters":14000,"station_id":"ce4bhh92rcd13ifvqfj0","pricing_plan_id":"free"},{"bike_id":"b45e605b-2309-42db-b17f-ea7a5a3a80e3","system_id":"levelo_inurba_marseille","lat":43.26081,"lon":5.39761,"is_reserved":false,"is_disabled":false,"rental_uris":{"android":"levelo://app?vid=b45e605b-2309-42db-b17f-ea7a5a3a80e3","ios":"levelo://app?vid=b45e605b-2309-42db-b17f-ea7a5a3a80e3"},"vehicle_type_id":"4","last_reported":1678986410,"current_range_meters":0,"station_id":"","pricing_plan_id":"free"},{"bike_id":"71d81cd8-00ae-4ab0-8aa5-9e96e4a3d13f","system_id":"levelo_inurba_marseille","lat":43.270743,"lon":5.422783,"is_reserved":false,"is_disabled":false,"rental_uris":{"android":"levelo://app?vid=71d81cd8-00ae-4ab0-8aa5-9e96e4a3d13f","ios":"levelo://app?vid=71d81cd8-00ae-4ab0-8aa5-9e96e4a3d13f"},"vehicle_type_id":"4","last_reported":1678986410,"current_range_meters":21600,"station_id":"ce4bhk92rcd13ifvqgb0","pricing_plan_id":"free"},{"bike_id":"4f4f52f4-ae9f-4f1c-a4bf-a0465e5d480f","system_id":"levelo_inurba_marseille","lat":43.248123,"lon":5.374597,"is_reserved":false,"is_disabled":false,"rental_uris":{"android":"levelo://app?vid=4f4f52f4-ae9f-4f1c-a4bf-a0465e5d480f","ios":"levelo://app?vid=4f4f52f4-ae9f-4f1c-a4bf-a0465e5d480f"},"vehicle_type_id":"4","last_reported":1678986410,"current_range_meters":19600,"station_id":"ce4bhgh2rcd13ifvqfb0","pricing_plan_id":"free"},{"bike_id":"a9d86c71-65fb-41c9-8918-1cc1b1ea4e67","system_id":"levelo_inurba_marseille","lat":43.2479,"lon":5.374457,"is_reserved":false,"is_disabled":false,"rental_uris":{"android":"levelo://app?vid=a9d86c71-65fb-41c9-8918-1cc1b1ea4e67","ios":"levelo://app?vid=a9d86c71-65fb-41c9-8918-1cc1b1ea4e67"},"vehicle_type_id":"4","last_reported":1678986410,"current_range_meters":2000,"station_id":"ce4bhgh2rcd13ifvqfb0","pricing_plan_id":"free"},{"bike_id":"67bac52f-9073-4113-ae4b-39f7562c3d3b","system_id":"levelo_inurba_marseille","lat":43.2479,"lon":5.374457,"is_reserved":false,"is_disabled":false,"rental_uris":{"android":"levelo://app?vid=67bac52f-9073-4113-ae4b-39f7562c3d3b","ios":"levelo://app?vid=67bac52f-9073-4113-ae4b-39f7562c3d3b"},"vehicle_type_id":"4","last_reported":1678986410,"current_range_meters":26800,"station_id":"ce4bhgh2rcd13ifvqfb0","pricing_plan_id":"free"},{"bike_id":"ae819fd9-1876-49dc-9408-6114a1341ee6","system_id":"levelo_inurba_marseille","lat":43.250853,"lon":5.395255,"is_reserved":false,"is_disabled":false,"rental_uris":{"android":"levelo://app?vid=ae819fd9-1876-49dc-9408-6114a1341ee6","ios":"levelo://app?vid=ae819fd9-1876-49dc-9408-6114a1341ee6"},"vehicle_type_id":"4","last_reported":1678986410,"current_range_meters":12800,"station_id":"ce4bhm12rcd13ifvqgkg","pricing_plan_id":"free"},{"bike_id":"4e601a74-6f92-478e-bb85-ec75a4e36098","system_id":"levelo_inurba_marseille","lat":43.25102,"lon":5.403214,"is_reserved":false,"is_disabled":false,"rental_uris":{"android":"levelo://app?vid=4e601a74-6f92-478e-bb85-ec75a4e36098","ios":"levelo://app?vid=4e601a74-6f92-478e-bb85-ec75a4e36098"},"vehicle_type_id":"4","last_reported":1678986410,"current_range_meters":18800,"station_id":"ce4bhlh2rcd13ifvqgig","pricing_plan_id":"free"},{"bike_id":"41ae850a-d792-4bfc-a57c-6d1126de5b68","system_id":"levelo_inurba_marseille","lat":43.24665,"lon":5.38174,"is_reserved":false,"is_disabled":false,"rental_uris":{"android":"levelo://app?vid=41ae850a-d792-4bfc-a57c-6d1126de5b68","ios":"levelo://app?vid=41ae850a-d792-4bfc-a57c-6d1126de5b68"},"vehicle_type_id":"4","last_reported":1678986410,"current_range_meters":23600,"station_id":"","pricing_plan_id":"free"},{"bike_id":"f87e61e4-8335-4a09-8682-79c63b71b489","system_id":"levelo_inurba_marseille","lat":43.25102,"lon":5.403214,"is_reserved":false,"is_disabled":false,"rental_uris":{"android":"levelo://app?vid=f87e61e4-8335-4a09-8682-79c63b71b489","ios":"levelo://app?vid=f87e61e4-8335-4a09-8682-79c63b71b489"},"vehicle_type_id":"4","last_reported":1678986410,"current_range_meters":14800,"station_id":"ce4bhlh2rcd13ifvqgig","pricing_plan_id":"free"},{"bike_id":"4aa64387-e245-40b4-87ee-9ef925bfaa40","system_id":"levelo_inurba_marseille","lat":43.25102,"lon":5.403214,"is_reserved":false,"is_disabled":false,"rental_uris":{"android":"levelo://app?vid=4aa64387-e245-40b4-87ee-9ef925bfaa40","ios":"levelo://app?vid=4aa64387-e245-40b4-87ee-9ef925bfaa40"},"vehicle_type_id":"4","last_reported":1678986410,"current_range_meters":16400,"station_id":"ce4bhlh2rcd13ifvqgig","pricing_plan_id":"free"},{"bike_id":"fe2bb2b8-e4e0-417f-afcc-602a4c991097","system_id":"levelo_inurba_marseille","lat":43.25113,"lon":5.4032,"is_reserved":false,"is_disabled":false,"rental_uris":{"android":"levelo://app?vid=fe2bb2b8-e4e0-417f-afcc-602a4c991097","ios":"levelo://app?vid=fe2bb2b8-e4e0-417f-afcc-602a4c991097"},"vehicle_type_id":"4","last_reported":1678986410,"current_range_meters":13200,"station_id":"","pricing_plan_id":"free"},{"bike_id":"5960342b-dfb1-4843-b482-a0a2d4c0339b","system_id":"levelo_inurba_marseille","lat":43.25102,"lon":5.403214,"is_reserved":false,"is_disabled":false,"rental_uris":{"android":"levelo://app?vid=5960342b-dfb1-4843-b482-a0a2d4c0339b","ios":"levelo://app?vid=5960342b-dfb1-4843-b482-a0a2d4c0339b"},"vehicle_type_id":"4","last_reported":1678986410,"current_range_meters":400,"station_id":"ce4bhlh2rcd13ifvqgig","pricing_plan_id":"free"},{"bike_id":"2a516be1-c41e-4cc8-a7da-92d567c89a9e","system_id":"levelo_inurba_marseille","lat":43.246467,"lon":5.388984,"is_reserved":false,"is_disabled":false,"rental_uris":{"android":"levelo://app?vid=2a516be1-c41e-4cc8-a7da-92d567c89a9e","ios":"levelo://app?vid=2a516be1-c41e-4cc8-a7da-92d567c89a9e"},"vehicle_type_id":"4","last_reported":1678986410,"current_range_meters":8400,"station_id":"ce4bhg12rcd13ifvqf60","pricing_plan_id":"free"},{"bike_id":"77008cac-27cd-4dfe-866e-468ba9992a05","system_id":"levelo_inurba_marseille","lat":43.24395,"lon":5.37055,"is_reserved":false,"is_disabled":false,"rental_uris":{"android":"levelo://app?vid=77008cac-27cd-4dfe-866e-468ba9992a05","ios":"levelo://app?vid=77008cac-27cd-4dfe-866e-468ba9992a05"},"vehicle_type_id":"4","last_reported":1678986410,"current_range_meters":0,"station_id":"","pricing_plan_id":"free"},{"bike_id":"2c30ceb0-9752-476f-a3c0-9bfe2baaa040","system_id":"levelo_inurba_marseille","lat":43.23968,"lon":5.36632,"is_reserved":false,"is_disabled":false,"rental_uris":{"android":"levelo://app?vid=2c30ceb0-9752-476f-a3c0-9bfe2baaa040","ios":"levelo://app?vid=2c30ceb0-9752-476f-a3c0-9bfe2baaa040"},"vehicle_type_id":"4","last_reported":1678986410,"current_range_meters":9600,"station_id":"","pricing_plan_id":"free"},{"bike_id":"e7181156-171e-4d37-a69a-beb4310fc71e","system_id":"levelo_inurba_marseille","lat":43.239642,"lon":5.366315,"is_reserved":false,"is_disabled":false,"rental_uris":{"android":"levelo://app?vid=e7181156-171e-4d37-a69a-beb4310fc71e","ios":"levelo://app?vid=e7181156-171e-4d37-a69a-beb4310fc71e"},"vehicle_type_id":"4","last_reported":1678986410,"current_range_meters":4000,"station_id":"ce4bhi12rcd13ifvqfp0","pricing_plan_id":"free"},{"bike_id":"365a1a68-9bb7-4b58-93cc-047a104fbe82","system_id":"levelo_inurba_marseille","lat":43.24182,"lon":5.39724,"is_reserved":false,"is_disabled":false,"rental_uris":{"android":"levelo://app?vid=365a1a68-9bb7-4b58-93cc-047a104fbe82","ios":"levelo://app?vid=365a1a68-9bb7-4b58-93cc-047a104fbe82"},"vehicle_type_id":"4","last_reported":1678986410,"current_range_meters":14400,"station_id":"ce4bhn12rcd13ifvqgpg","pricing_plan_id":"free"},{"bike_id":"bea787e9-839e-485d-bf56-b6ed50c1a86f","system_id":"levelo_inurba_marseille","lat":43.24181,"lon":5.39721,"is_reserved":false,"is_disabled":false,"rental_uris":{"android":"levelo://app?vid=bea787e9-839e-485d-bf56-b6ed50c1a86f","ios":"levelo://app?vid=bea787e9-839e-485d-bf56-b6ed50c1a86f"},"vehicle_type_id":"4","last_reported":1678986410,"current_range_meters":3200,"station_id":"ce4bhn12rcd13ifvqgpg","pricing_plan_id":"free"},{"bike_id":"16ce5556-7856-484f-bf37-bf2f6bcd0a22","system_id":"levelo_inurba_marseille","lat":43.241789,"lon":5.397245,"is_reserved":false,"is_disabled":false,"rental_uris":{"android":"levelo://app?vid=16ce5556-7856-484f-bf37-bf2f6bcd0a22","ios":"levelo://app?vid=16ce5556-7856-484f-bf37-bf2f6bcd0a22"},"vehicle_type_id":"4","last_reported":1678986410,"current_range_meters":3200,"station_id":"ce4bhn12rcd13ifvqgpg","pricing_plan_id":"free"},{"bike_id":"a5a87d23-d311-410e-a6cb-4b725f9467eb","system_id":"levelo_inurba_marseille","lat":43.24178,"lon":5.39723,"is_reserved":false,"is_disabled":false,"rental_uris":{"android":"levelo://app?vid=a5a87d23-d311-410e-a6cb-4b725f9467eb","ios":"levelo://app?vid=a5a87d23-d311-410e-a6cb-4b725f9467eb"},"vehicle_type_id":"4","last_reported":1678986410,"current_range_meters":12800,"station_id":"ce4bhn12rcd13ifvqgpg","pricing_plan_id":"free"},{"bike_id":"d24ca66c-7fdc-4bfc-ac72-a7be331d02b9","system_id":"levelo_inurba_marseille","lat":43.241754,"lon":5.397204,"is_reserved":false,"is_disabled":false,"rental_uris":{"android":"levelo://app?vid=d24ca66c-7fdc-4bfc-ac72-a7be331d02b9","ios":"levelo://app?vid=d24ca66c-7fdc-4bfc-ac72-a7be331d02b9"},"vehicle_type_id":"4","last_reported":1678986410,"current_range_meters":15200,"station_id":"","pricing_plan_id":"free"},{"bike_id":"c33945bd-4261-4e0a-89da-de92f8067d18","system_id":"levelo_inurba_marseille","lat":43.241731,"lon":5.397329,"is_reserved":false,"is_disabled":false,"rental_uris":{"android":"levelo://app?vid=c33945bd-4261-4e0a-89da-de92f8067d18","ios":"levelo://app?vid=c33945bd-4261-4e0a-89da-de92f8067d18"},"vehicle_type_id":"4","last_reported":1678986410,"current_range_meters":21600,"station_id":"","pricing_plan_id":"free"},{"bike_id":"6d879b09-a450-4e18-b0f7-39df337baf01","system_id":"levelo_inurba_marseille","lat":43.23198,"lon":5.355507,"is_reserved":false,"is_disabled":false,"rental_uris":{"android":"levelo://app?vid=6d879b09-a450-4e18-b0f7-39df337baf01","ios":"levelo://app?vid=6d879b09-a450-4e18-b0f7-39df337baf01"},"vehicle_type_id":"4","last_reported":1678986410,"current_range_meters":23600,"station_id":"","pricing_plan_id":"free"},{"bike_id":"c0ea660e-e987-4455-b4fc-9e57deda8a63","system_id":"levelo_inurba_marseille","lat":43.231919,"lon":5.355532,"is_reserved":false,"is_disabled":false,"rental_uris":{"android":"levelo://app?vid=c0ea660e-e987-4455-b4fc-9e57deda8a63","ios":"levelo://app?vid=c0ea660e-e987-4455-b4fc-9e57deda8a63"},"vehicle_type_id":"4","last_reported":1678986410,"current_range_meters":29200,"station_id":"ce4bhu92rcd13ifvqi70","pricing_plan_id":"free"},{"bike_id":"76c31e0a-fc26-4116-8bed-4dbd5a5dde2b","system_id":"levelo_inurba_marseille","lat":43.231948,"lon":5.355536,"is_reserved":false,"is_disabled":false,"rental_uris":{"android":"levelo://app?vid=76c31e0a-fc26-4116-8bed-4dbd5a5dde2b","ios":"levelo://app?vid=76c31e0a-fc26-4116-8bed-4dbd5a5dde2b"},"vehicle_type_id":"4","last_reported":1678986410,"current_range_meters":8400,"station_id":"ce4bhu92rcd13ifvqi70","pricing_plan_id":"free"},{"bike_id":"dd8836c8-afbc-4ce8-8488-8af298bbe40a","system_id":"levelo_inurba_marseille","lat":43.23194,"lon":5.35556,"is_reserved":false,"is_disabled":false,"rental_uris":{"android":"levelo://app?vid=dd8836c8-afbc-4ce8-8488-8af298bbe40a","ios":"levelo://app?vid=dd8836c8-afbc-4ce8-8488-8af298bbe40a"},"vehicle_type_id":"4","last_reported":1678986410,"current_range_meters":14400,"station_id":"","pricing_plan_id":"free"}]}}