{"last_updated":1735380480,"ttl":60,"version":"2.2","data":{"bikes":[{"bike_id":"a9b5fd0e-1baf-45fb-bc8f-7ad95357031b","system_id":"levelo_inurba_marseille","lat":43.29915,"lon":5.37475,"is_reserved":false,"is_disabled":false,"rental_uris":{"android":"levelo://app?vid=a9b5fd0e-1baf-45fb-bc8f-7ad95357031b","ios":"levelo://app?vid=a9b5fd0e-1baf-45fb-bc8f-7ad95357031b"},"vehicle_type_id":"4","last_reported":1735380480,"current_range_meters":39200,"station_id":"ce4bgjh2rcd13ifvqbg0","pricing_plan_id":"cebpf4jnsgd1na2vs0mg"},{"bike_id":"5dfcc53f-a494-4b90-a978-9fd0de924f9a","system_id":"levelo_inurba_marseille","lat":43.28845,"lon":5.35881,"is_reserved":false,"is_disabled":false,"rental_uris":{"android":"levelo://app?vid=5dfcc53f-a494-4b90-a978-9fd0de924f9a","ios":"levelo://app?vid=5dfcc53f-a494-4b90-a978-9fd0de924f9a"},"vehicle_type_id":"4","last_reported":1735380480,"current_range_meters":27600,"station_id":"ce4bhb12rcd13ifvqem0","pricing_plan_id":"cebpf4jnsgd1na2vs0mg"},{"bike_id":"b37ae28c-5660-4c59-8b49-a0b00d609b48","system_id":"levelo_inurba_marseille","lat":43.2954,"lon":5.37501,"is_reserved":false,"is_disabled":false,"rental_uris":{"android":"levelo://app?vid=b37ae28c-5660-4c59-8b49-a0b00d609b48","ios":"levelo://app?vid=b37ae28c-5660-4c59-8b49-a0b00d609b48"},"vehicle_type_id":"4","last_reported":1735380480,"current_range_meters":17600,"station_id":"ce4bgkp2rcd13ifvqbmg","pricing_plan_id":"cebpf4jnsgd1na2vs0mg"},{"bike_id":"4def4882-e804-4c7f-ad72-1d6041f29fab","system_id":"levelo_inurba_marseille","lat":43.28934,"lon":5.36631,"is_reserved":false,"is_disabled":false,"rental_uris":{"android":"levelo://app?vid=4def4882-e804-4c7f-ad72-1d6041f29fab","ios":"levelo://app?vid=4def4882-e804-4c7f-ad72-1d6041f29fab"},"vehicle_type_id":"4","last_reported":1735380480,"current_range_meters":22800,"station_id":"ce4bhap2rcd13ifvqek0","pricing_plan_id":"cebpf4jnsgd1na2vs0mg"},{"bike_id":"17467958-a151-40f2-98e4-bb65ea00e49d","system_id":"levelo_inurba_marseille","lat":43.27947,"lon":5.41045,"is_reserved":false,"is_disabled":false,"rental_uris":{"android":"levelo://app?vid=17467958-a151-40f2-98e4-bb65ea00e49d","ios":"levelo://app?vid=17467958-a151-40f2-98e4-bb65ea00e49d"},"vehicle_type_id":"4","last_reported":1735380480,"current_range_meters":37600,"station_id":"ce4bhnp2rcd13ifvqh0g","pricing_plan_id":"cebpf4jnsgd1na2vs0mg"},{"bike_id":"7db7c03c-b4e3-4ed1-83ef-2ed91eff7f64","system_id":"levelo_inurba_marseille","lat":43.3237,"lon":5.38874,"is_reserved":false,"is_disabled":false,"rental_uris":{"android":"levelo://app?vid=7db7c03c-b4e3-4ed1-83ef-2ed91eff7f64","ios":"levelo://app?vid=7db7c03c-b4e3-4ed1-83ef-2ed91eff7f64"},"vehicle_type_id":"4","last_reported":1735380480,"current_range_meters":24400,"station_id":"ce4bhqp2rcd13ifvqhog","pricing_plan_id":"cebpf4jnsgd1na2vs0mg"},{"bike_id":"3991aac2-ec7f-43c8-801f-23e11845f2d6","system_id":"levelo_inurba_marseille","lat":43.28147,"lon":5.42665,"is_reserved":false,"is_disabled":false,"rental_uris":{"android":"levelo://app?vid=3991aac2-ec7f-43c8-801f-23e11845f2d6","ios":"levelo://app?vid=3991aac2-ec7f-43c8-801f-23e11845f2d6"},"vehicle_type_id":"4","last_reported":1735380480,"current_range_meters":38800,"station_id":"ce4bhnh2rcd13ifvqgug","pricing_plan_id":"cebpf4jnsgd1na2vs0mg"},{"bike_id":"272b0992-bef6-4667-99ce-688fba969443","system_id":"levelo_inurba_marseille","lat":43.25933,"lon":5.40905,"is_reserved":false,"is_disabled":false,"rental_uris":{"android":"levelo://app?vid=272b0992-bef6-4667-99ce-688fba969443","ios":"levelo://app?vid=272b0992-bef6-4667-99ce-688fba969443"},"vehicle_type_id":"4","last_reported":1735380480,"current_range_meters":30000,"station_id":"ce4bhm92rcd13ifvqglg","pricing_plan_id":"cebpf4jnsgd1na2vs0mg"},{"bike_id":"aa910906-3ca2-4107-80e1-4fe46d1472a6","system_id":"levelo_inurba_marseille","lat":43.32032,"lon":5.41569,"is_reserved":false,"is_disabled":false,"rental_uris":{"android":"levelo://app?vid=aa910906-3ca2-4107-80e1-4fe46d1472a6","ios":"levelo://app?vid=aa910906-3ca2-4107-80e1-4fe46d1472a6"},"vehicle_type_id":"4","last_reported":1735380480,"current_range_meters":30800,"station_id":"ce4bhq92rcd13ifvqhkg","pricing_plan_id":"cebpf4jnsgd1na2vs0mg"},{"bike_id":"7086282e-a571-475e-9869-4f96b3bd7481","system_id":"levelo_inurba_marseille","lat":43.29576,"lon":5.37507,"is_reserved":false,"is_disabled":false,"rental_uris":{"android":"levelo://app?vid=7086282e-a571-475e-9869-4f96b3bd7481","ios":"levelo://app?vid=7086282e-a571-475e-9869-4f96b3bd7481"},"vehicle_type_id":"4","last_reported":1735380480,"current_range_meters":36800,"station_id":"ce4bgh92rcd13ifvqb50","pricing_plan_id":"cebpf4jnsgd1na2vs0mg"},{"bike_id":"f4ab519a-4bf7-44ef-a033-b806cea138a3","system_id":"levelo_inurba_marseille","lat":43.2406,"lon":5.37755,"is_reserved":false,"is_disabled":false,"rental_uris":{"android":"levelo://app?vid=f4ab519a-4bf7-44ef-a033-b806cea138a3","ios":"levelo://app?vid=f4ab519a-4bf7-44ef-a033-b806cea138a3"},"vehicle_type_id":"4","last_reported":1735380480,"current_range_meters":35600,"station_id":"ce4bhnp2rcd13ifvqgvg","pricing_plan_id":"cebpf4jnsgd1na2vs0mg"},{"bike_id":"f9a23b1e-bcbb-4ab5-92c5-4234dd6ee0ab","system_id":"levelo_inurba_marseille","lat":43.29981,"lon":5.38493,"is_reserved":false,"is_disabled":false,"rental_uris":{"android":"levelo://app?vid=f9a23b1e-bcbb-4ab5-92c5-4234dd6ee0ab","ios":"levelo://app?vid=f9a23b1e-bcbb-4ab5-92c5-4234dd6ee0ab"},"vehicle_type_id":"4","last_reported":1735380480,"current_range_meters":37600,"station_id":"ce4bgj92rcd13ifvqbd0","pricing_plan_id":"cebpf4jnsgd1na2vs0mg"},{"bike_id":"15dbc128-9fc6-4e82-9c2b-29267fff5efa","system_id":"levelo_inurba_marseille","lat":43.27372,"lon":5.36264,"is_reserved":false,"is_disabled":false,"rental_uris":{"android":"levelo://app?vid=15dbc128-9fc6-4e82-9c2b-29267fff5efa","ios":"levelo://app?vid=15dbc128-9fc6-4e82-9c2b-29267fff5efa"},"vehicle_type_id":"4","last_reported":1735380480,"current_range_meters":30400,"station_id":"ce4bhbh2rcd13ifvqeo0","pricing_plan_id":"cebpf4jnsgd1na2vs0mg"},{"bike_id":"4b2e6672-4cff-42b5-888e-278ffca5e0d0","system_id":"levelo_inurba_marseille","lat":43.28851,"lon":5.35851,"is_reserved":false,"is_disabled":false,"rental_uris":{"android":"levelo://app?vid=4b2e6672-4cff-42b5-888e-278ffca5e0d0","ios":"levelo://app?vid=4b2e6672-4cff-42b5-888e-278ffca5e0d0"},"vehicle_type_id":"4","last_reported":1735380480,"current_range_meters":10000,"station_id":"ce4bhb12rcd13ifvqem0","pricing_plan_id":"cebpf4jnsgd1na2vs0mg"},{"bike_id":"4b0fd93f-ab44-4d17-9609-4abb396d054c","system_id":"levelo_inurba_marseille","lat":43.231919,"lon":5.355591,"is_reserved":false,"is_disabled":false,"rental_uris":{"android":"levelo://app?vid=4b0fd93f-ab44-4d17-9609-4abb396d054c","ios":"levelo://app?vid=4b0fd93f-ab44-4d17-9609-4abb396d054c"},"vehicle_type_id":"4","last_reported":1735380480,"current_range_meters":36000,"station_id":"ce4bhu92rcd13ifvqi70","pricing_plan_id":"cebpf4jnsgd1na2vs0mg"},{"bike_id":"7e9b58ee-83f7-4fc1-8cf2-cdc5ff9690a0","system_id":"levelo_inurba_marseille","lat":43.26932,"lon":5.40273,"is_reserved":false,"is_disabled":false,"rental_uris":{"android":"levelo://app?vid=7e9b58ee-83f7-4fc1-8cf2-cdc5ff9690a0","ios":"levelo://app?vid=7e9b58ee-83f7-4fc1-8cf2-cdc5ff9690a0"},"vehicle_type_id":"4","last_reported":1735380480,"current_range_meters":30800,"station_id":"cjm6bp8fraef2m0cb0m0","pricing_plan_id":"cebpf4jnsgd1na2vs0mg"},{"bike_id":"15e428a4-dc06-46cf-93cd-31f975a6ed67","system_id":"levelo_inurba_marseille","lat":43.24642,"lon":5.38911,"is_reserved":false,"is_disabled":false,"rental_uris":{"android":"levelo://app?vid=15e428a4-dc06-46cf-93cd-31f975a6ed67","ios":"levelo://app?vid=15e428a4-dc06-46cf-93cd-31f975a6ed67"},"vehicle_type_id":"4","last_reported":1735380480,"current_range_meters":38800,"station_id":"ce4bhg12rcd13ifvqf60","pricing_plan_id":"cebpf4jnsgd1na2vs0mg"},{"bike_id":"ab57d468-d63f-40ce-aa8f-340a9e1a74ea","system_id":"levelo_inurba_marseille","lat":43.27677,"lon":5.38902,"is_reserved":false,"is_disabled":false,"rental_uris":{"android":"levelo://app?vid=ab57d468-d63f-40ce-aa8f-340a9e1a74ea","ios":"levelo://app?vid=ab57d468-d63f-40ce-aa8f-340a9e1a74ea"},"vehicle_type_id":"4","last_reported":1735380480,"current_range_meters":38000,"station_id":"ce4bhi12rcd13ifvqfo0","pricing_plan_id":"cebpf4jnsgd1na2vs0mg"},{"bike_id":"34ab0130-1f11-45e3-9d23-c0102913b688","system_id":"levelo_inurba_marseille","lat":43.32355,"lon":5.38907,"is_reserved":false,"is_disabled":false,"rental_uris":{"android":"levelo://app?vid=34ab0130-1f11-45e3-9d23-c0102913b688","ios":"levelo://app?vid=34ab0130-1f11-45e3-9d23-c0102913b688"},"vehicle_type_id":"4","last_reported":1735380480,"current_range_meters":33600,"station_id":"ce4bhqp2rcd13ifvqhog","pricing_plan_id":"cebpf4jnsgd1na2vs0mg"},{"bike_id":"8449818b-2fc9-4431-9a2b-fc64996e29a6","system_id":"levelo_inurba_marseille","lat":43.23151,"lon":5.43718,"is_reserved":false,"is_disabled":false,"rental_uris":{"android":"levelo://app?vid=8449818b-2fc9-4431-9a2b-fc64996e29a6","ios":"levelo://app?vid=8449818b-2fc9-4431-9a2b-fc64996e29a6"},"vehicle_type_id":"4","last_reported":1735380480,"current_range_meters":25200,"station_id":"ce4bhmp2rcd13ifvqgog","pricing_plan_id":"cebpf4jnsgd1na2vs0mg"},{"bike_id":"54e82adf-653a-40bc-8212-b0e67d34d16f","system_id":"levelo_inurba_marseille","lat":43.29936,"lon":5.36543,"is_reserved":false,"is_disabled":false,"rental_uris":{"android":"levelo://app?vid=54e82adf-653a-40bc-8212-b0e67d34d16f","ios":"levelo://app?vid=54e82adf-653a-40bc-8212-b0e67d34d16f"},"vehicle_type_id":"4","last_reported":1735380480,"current_range_meters":30400,"station_id":"ce4bgm92rcd13ifvqbr0","pricing_plan_id":"cebpf4jnsgd1na2vs0mg"},{"bike_id":"f4515983-0efa-4c5c-94c0-86bd8db8cdb3","system_id":"levelo_inurba_marseille","lat":43.29601,"lon":5.38107,"is_reserved":false,"is_disabled":false,"rental_uris":{"android":"levelo://app?vid=f4515983-0efa-4c5c-94c0-86bd8db8cdb3","ios":"levelo://app?vid=f4515983-0efa-4c5c-94c0-86bd8db8cdb3"},"vehicle_type_id":"4","last_reported":1735380480,"current_range_meters":38800,"station_id":"ce4bgl12rcd13ifvqbo0","pricing_plan_id":"cebpf4jnsgd1na2vs0mg"},{"bike_id":"857344dd-6be1-4d34-90e7-6f62afbbef2e","system_id":"levelo_inurba_marseille","lat":43.32104,"lon":5.36776,"is_reserved":false,"is_disabled":false,"rental_uris":{"android":"levelo://app?vid=857344dd-6be1-4d34-90e7-6f62afbbef2e","ios":"levelo://app?vid=857344dd-6be1-4d34-90e7-6f62afbbef2e"},"vehicle_type_id":"4","last_reported":1735380480,"current_range_meters":33600,"station_id":"ce4bhrh2rcd13ifvqhug","pricing_plan_id":"cebpf4jnsgd1na2vs0mg"},{"bike_id":"a080718a-23c4-4f2b-a99b-697a94a3904c","system_id":"levelo_inurba_marseille","lat":43.29251,"lon":5.4013,"is_reserved":false,"is_disabled":false,"rental_uris":{"android":"levelo://app?vid=a080718a-23c4-4f2b-a99b-697a94a3904c","ios":"levelo://app?vid=a080718a-23c4-4f2b-a99b-697a94a3904c"},"vehicle_type_id":"4","last_reported":1735380480,"current_range_meters":36400,"station_id":"ce4bh312rcd13ifvqdk0","pricing_plan_id":"cebpf4jnsgd1na2vs0mg"},{"bike_id":"b21284e9-c36e-4d36-99fc-ae39fbf47211","system_id":"levelo_inurba_marseille","lat":43.30307,"lon":5.36905,"is_reserved":false,"is_disabled":false,"rental_uris":{"android":"levelo://app?vid=b21284e9-c36e-4d36-99fc-ae39fbf47211","ios":"levelo://app?vid=b21284e9-c36e-4d36-99fc-ae39fbf47211"},"vehicle_type_id":"4","last_reported":1735380480,"current_range_meters":26000,"station_id":"ce4bgqh2rcd13ifvqc5g","pricing_plan_id":"cebpf4jnsgd1na2vs0mg"},{"bike_id":"595b770a-6283-4c5a-81d3-40f82231fc59","system_id":"levelo_inurba_marseille","lat":43.28476,"lon":5.38431,"is_reserved":false,"is_disabled":false,"rental_uris":{"android":"levelo://app?vid=595b770a-6283-4c5a-81d3-40f82231fc59","ios":"levelo://app?vid=595b770a-6283-4c5a-81d3-40f82231fc59"},"vehicle_type_id":"4","last_reported":1735380480,"current_range_meters":28800,"station_id":"ce4bh512rcd13ifvqe3g","pricing_plan_id":"cebpf4jnsgd1na2vs0mg"},{"bike_id":"1bd5c776-e736-424a-ba1d-5e52ff178c32","system_id":"levelo_inurba_marseille","lat":43.30654,"lon":5.40072,"is_reserved":false,"is_disabled":false,"rental_uris":{"android":"levelo://app?vid=1bd5c776-e736-424a-ba1d-5e52ff178c32","ios":"levelo://app?vid=1bd5c776-e736-424a-ba1d-5e52ff178c32"},"vehicle_type_id":"4","last_reported":1735380480,"current_range_meters":27200,"station_id":"ce4bh112rcd13ifvqda0","pricing_plan_id":"cebpf4jnsgd1na2vs0mg"},{"bike_id":"f211b7a7-4ea2-43fa-9335-360ff6ef2067","system_id":"levelo_inurba_marseille","lat":43.24081,"lon":5.3775,"is_reserved":false,"is_disabled":false,"rental_uris":{"android":"levelo://app?vid=f211b7a7-4ea2-43fa-9335-360ff6ef2067","ios":"levelo://app?vid=f211b7a7-4ea2-43fa-9335-360ff6ef2067"},"vehicle_type_id":"4","last_reported":1735380480,"current_range_meters":27600,"station_id":"ce4bhnp2rcd13ifvqgvg","pricing_plan_id":"cebpf4jnsgd1na2vs0mg"},{"bike_id":"2f480785-3aa6-4971-a869-d6705666e13a","system_id":"levelo_inurba_marseille","lat":43.28703,"lon":5.3999,"is_reserved":false,"is_disabled":false,"rental_uris":{"android":"levelo://app?vid=2f480785-3aa6-4971-a869-d6705666e13a","ios":"levelo://app?vid=2f480785-3aa6-4971-a869-d6705666e13a"},"vehicle_type_id":"4","last_reported":1735380480,"current_range_meters":30400,"station_id":"ce4bho92rcd13ifvqh3g","pricing_plan_id":"cebpf4jnsgd1na2vs0mg"},{"bike_id":"ad66ce9d-e2b2-4064-ae7f-fe87403c632b","system_id":"levelo_inurba_marseille","lat":43.23064,"lon":5.35492,"is_reserved":false,"is_disabled":false,"rental_uris":{"android":"levelo://app?vid=ad66ce9d-e2b2-4064-ae7f-fe87403c632b","ios":"levelo://app?vid=ad66ce9d-e2b2-4064-ae7f-fe87403c632b"},"vehicle_type_id":"4","last_reported":1735380480,"current_range_meters":22000,"station_id":"cpo3342slgdg3j2ifvpg","pricing_plan_id":"cebpf4jnsgd1na2vs0mg"},{"bike_id":"ac388b5a-9c61-473a-891f-f0bbbc1b0ff2","system_id":"levelo_inurba_marseille","lat":43.30255,"lon":5.40081,"is_reserved":false,"is_disabled":false,"rental_uris":{"android":"levelo://app?vid=ac388b5a-9c61-473a-891f-f0bbbc1b0ff2","ios":"levelo://app?vid=ac388b5a-9c61-473a-891f-f0bbbc1b0ff2"},"vehicle_type_id":"4","last_reported":1735380480,"current_range_meters":38800,"station_id":"ce4bgvh2rcd13ifvqcs0","pricing_plan_id":"cebpf4jnsgd1na2vs0mg"},{"bike_id":"b889fa83-084c-4ad1-b4df-77dec02e8a97","system_id":"levelo_inurba_marseille","lat":43.25865,"lon":5.399,"is_reserved":false,"is_disabled":false,"rental_uris":{"android":"levelo://app?vid=b889fa83-084c-4ad1-b4df-77dec02e8a97","ios":"levelo://app?vid=b889fa83-084c-4ad1-b4df-77dec02e8a97"},"vehicle_type_id":"4","last_reported":1735380480,"current_range_meters":38800,"station_id":"ce4bhl92rcd13ifvqghg","pricing_plan_id":"cebpf4jnsgd1na2vs0mg"},{"bike_id":"32a714be-bac1-4b78-9660-93b660957225","system_id":"levelo_inurba_marseille","lat":43.29538,"lon":5.37498,"is_reserved":false,"is_disabled":false,"rental_uris":{"android":"levelo://app?vid=32a714be-bac1-4b78-9660-93b660957225","ios":"levelo://app?vid=32a714be-bac1-4b78-9660-93b660957225"},"vehicle_type_id":"4","last_reported":1735380480,"current_range_meters":36400,"station_id":"ce4bgkp2rcd13ifvqbmg","pricing_plan_id":"cebpf4jnsgd1na2vs0mg"},{"bike_id":"92de515e-38a1-4340-b2a3-ff9ae8a3b811","system_id":"levelo_inurba_marseille","lat":43.24662,"lon":5.38164,"is_reserved":false,"is_disabled":false,"rental_uris":{"android":"levelo://app?vid=92de515e-38a1-4340-b2a3-ff9ae8a3b811","ios":"levelo://app?vid=92de515e-38a1-4340-b2a3-ff9ae8a3b811"},"vehicle_type_id":"4","last_reported":1735380480,"current_range_meters":20800,"station_id":"ce4bhih2rcd13ifvqfr0","pricing_plan_id":"cebpf4jnsgd1na2vs0mg"},{"bike_id":"d0533ccb-11ce-46dc-9cca-daa9f7a4985a","system_id":"levelo_inurba_marseille","lat":43.29553,"lon":5.42284,"is_reserved":false,"is_disabled":false,"rental_uris":{"android":"levelo://app?vid=d0533ccb-11ce-46dc-9cca-daa9f7a4985a","ios":"levelo://app?vid=d0533ccb-11ce-46dc-9cca-daa9f7a4985a"},"vehicle_type_id":"4","last_reported":1735380480,"current_range_meters":38800,"station_id":"ce4bhph2rcd13ifvqhdg","pricing_plan_id":"cebpf4jnsgd1na2vs0mg"},{"bike_id":"755bba0c-cdd2-4583-a68c-036811712bb0","system_id":"levelo_inurba_marseille","lat":43.32361,"lon":5.38882,"is_reserved":false,"is_disabled":false,"rental_uris":{"android":"levelo://app?vid=755bba0c-cdd2-4583-a68c-036811712bb0","ios":"levelo://app?vid=755bba0c-cdd2-4583-a68c-036811712bb0"},"vehicle_type_id":"4","last_reported":1735380480,"current_range_meters":29600,"station_id":"ce4bhqp2rcd13ifvqhog","pricing_plan_id":"cebpf4jnsgd1na2vs0mg"},{"bike_id":"daef0f94-988f-4230-b125-62ce3474d24c","system_id":"levelo_inurba_marseille","lat":43.27665,"lon":5.38907,"is_reserved":false,"is_disabled":false,"rental_uris":{"android":"levelo://app?vid=daef0f94-988f-4230-b125-62ce3474d24c","ios":"levelo://app?vid=daef0f94-988f-4230-b125-62ce3474d24c"},"vehicle_type_id":"4","last_reported":1735380480,"current_range_meters":37600,"station_id":"ce4bhi12rcd13ifvqfo0","pricing_plan_id":"cebpf4jnsgd1na2vs0mg"},{"bike_id":"d91f1d8d-66ec-4a8f-b241-0944dbc60775","system_id":"levelo_inurba_marseille","lat":43.27672,"lon":5.38923,"is_reserved":false,"is_disabled":false,"rental_uris":{"android":"levelo://app?vid=d91f1d8d-66ec-4a8f-b241-0944dbc60775","ios":"levelo://app?vid=d91f1d8d-66ec-4a8f-b241-0944dbc60775"},"vehicle_type_id":"4","last_reported":1735380480,"current_range_meters":17600,"station_id":"ce4bhi12rcd13ifvqfo0","pricing_plan_id":"cebpf4jnsgd1na2vs0mg"},{"bike_id":"b32fb18a-c8a8-4404-98aa-9a585746a89d","system_id":"levelo_inurba_marseille","lat":43.31768,"lon":5.40613,"is_reserved":false,"is_disabled":false,"rental_uris":{"android":"levelo://app?vid=b32fb18a-c8a8-4404-98aa-9a585746a89d","ios":"levelo://app?vid=b32fb18a-c8a8-4404-98aa-9a585746a89d"},"vehicle_type_id":"4","last_reported":1735380480,"current_range_meters":25600,"station_id":"","pricing_plan_id":"cebpf4jnsgd1na2vs0mg"},{"bike_id":"fb65f68e-01b9-464f-abae-a60e8b871ed3","system_id":"levelo_inurba_marseille","lat":43.27915,"lon":5.39585,"is_reserved":false,"is_disabled":false,"rental_uris":{"android":"levelo://app?vid=fb65f68e-01b9-464f-abae-a60e8b871ed3","ios":"levelo://app?vid=fb65f68e-01b9-464f-abae-a60e8b871ed3"},"vehicle_type_id":"4","last_reported":1735380480,"current_range_meters":24400,"station_id":"ce4bhf92rcd13ifvqf40","pricing_plan_id":"cebpf4jnsgd1na2vs0mg"},{"bike_id":"879d8d2d-aea4-4c68-8405-16edb1cace8d","system_id":"levelo_inurba_marseille","lat":43.28268,"lon":5.35092,"is_reserved":false,"is_disabled":false,"rental_uris":{"android":"levelo://app?vid=879d8d2d-aea4-4c68-8405-16edb1cace8d","ios":"levelo://app?vid=879d8d2d-aea4-4c68-8405-16edb1cace8d"},"vehicle_type_id":"4","last_reported":1735380480,"current_range_meters":38800,"station_id":"ce4bhbp2rcd13ifvqerg","pricing_plan_id":"cebpf4jnsgd1na2vs0mg"},{"bike_id":"caab34a4-5264-4b72-a12f-e55159fe93b6","system_id":"levelo_inurba_marseille","lat":43.270734,"lon":5.422703,"is_reserved":false,"is_disabled":false,"rental_uris":{"android":"levelo://app?vid=caab34a4-5264-4b72-a12f-e55159fe93b6","ios":"levelo://app?vid=caab34a4-5264-4b72-a12f-e55159fe93b6"},"vehicle_type_id":"4","last_reported":1735380480,"current_range_meters":30000,"station_id":"ce4bhk92rcd13ifvqgb0","pricing_plan_id":"cebpf4jnsgd1na2vs0mg"},{"bike_id":"fe50a5ce-c05b-410c-af59-7143f0371395","system_id":"levelo_inurba_marseille","lat":43.301,"lon":5.39898,"is_reserved":false,"is_disabled":false,"rental_uris":{"android":"levelo://app?vid=fe50a5ce-c05b-410c-af59-7143f0371395","ios":"levelo://app?vid=fe50a5ce-c05b-410c-af59-7143f0371395"},"vehicle_type_id":"4","last_reported":1735380480,"current_range_meters":37600,"station_id":"ce4bh0h2rcd13ifvqd40","pricing_plan_id":"cebpf4jnsgd1na2vs0mg"},{"bike_id":"b0e348d3-d161-4c39-87b2-6ac56e202178","system_id":"levelo_inurba_marseille","lat":43.28081,"lon":5.39647,"is_reserved":false,"is_disabled":false,"rental_uris":{"android":"levelo://app?vid=b0e348d3-d161-4c39-87b2-6ac56e202178","ios":"levelo://app?vid=b0e348d3-d161-4c39-87b2-6ac56e202178"},"vehicle_type_id":"4","last_reported":1735380480,"current_range_meters":38800,"station_id":"ce4bho12rcd13ifvqh2g","pricing_plan_id":"cebpf4jnsgd1na2vs0mg"},{"bike_id":"2b08ca99-c6f3-4395-ab2d-aeebc3305aa4","system_id":"levelo_inurba_marseille","lat":43.3376,"lon":5.37445,"is_reserved":false,"is_disabled":true,"rental_uris":{"android":"levelo://app?vid=2b08ca99-c6f3-4395-ab2d-aeebc3305aa4","ios":"levelo://app?vid=2b08ca99-c6f3-4395-ab2d-aeebc3305aa4"},"vehicle_type_id":"4","last_reported":1735380480,"current_range_meters":34800,"station_id":"","pricing_plan_id":"cebpf4jnsgd1na2vs0mg"},{"bike_id":"54512a6c-6aa0-4c70-b645-05855cc084ea","system_id":"levelo_inurba_marseille","lat":43.32338,"lon":5.38892,"is_reserved":false,"is_disabled":false,"rental_uris":{"android":"levelo://app?vid=54512a6c-6aa0-4c70-b645-05855cc084ea","ios":"levelo://app?vid=54512a6c-6aa0-4c70-b645-05855cc084ea"},"vehicle_type_id":"4","last_reported":1735380480,"current_range_meters":30400,"station_id":"ce4bhqp2rcd13ifvqhog","pricing_plan_id":"cebpf4jnsgd1na2vs0mg"},{"bike_id":"efdc8661-a0f3-4d19-90da-c58f06d18d3a","system_id":"levelo_inurba_marseille","lat":43.30882,"lon":5.37191,"is_reserved":false,"is_disabled":false,"rental_uris":{"android":"levelo://app?vid=efdc8661-a0f3-4d19-90da-c58f06d18d3a","ios":"levelo://app?vid=efdc8661-a0f3-4d19-90da-c58f06d18d3a"},"vehicle_type_id":"4","last_reported":1735380480,"current_range_meters":25200,"station_id":"ce4bguh2rcd13ifvqckg","pricing_plan_id":"cebpf4jnsgd1na2vs0mg"},{"bike_id":"70d19c25-8ccd-4e58-ab7a-a78e2691387c","system_id":"levelo_inurba_marseille","lat":43.28614,"lon":5.35102,"is_reserved":false,"is_disabled":false,"rental_uris":{"android":"levelo://app?vid=70d19c25-8ccd-4e58-ab7a-a78e2691387c","ios":"levelo://app?vid=70d19c25-8ccd-4e58-ab7a-a78e2691387c"},"vehicle_type_id":"4","last_reported":1735380480,"current_range_meters":24000,"station_id":"ce4bhch2rcd13ifvqeug","pricing_plan_id":"cebpf4jnsgd1na2vs0mg"},{"bike_id":"33e4c278-497a-4992-9269-3f4bd7a2ca60","system_id":"levelo_inurba_marseille","lat":43.299138,"lon":5.374751,"is_reserved":false,"is_disabled":false,"rental_uris":{"android":"levelo://app?vid=33e4c278-497a-4992-9269-3f4bd7a2ca60","ios":"levelo://app?vid=33e4c278-497a-4992-9269-3f4bd7a2ca60"},"vehicle_type_id":"4","last_reported":1735380480,"current_range_meters":38800,"station_id":"ce4bgjh2rcd13ifvqbg0","pricing_plan_id":"cebpf4jnsgd1na2vs0mg"},{"bike_id":"454d0344-486e-4331-bc83-caa2fc8d4a5e","system_id":"levelo_inurba_marseille","lat":43.25093,"lon":5.39513,"is_reserved":false,"is_disabled":false,"rental_uris":{"android":"levelo://app?vid=454d0344-486e-4331-bc83-caa2fc8d4a5e","ios":"levelo://app?vid=454d0344-486e-4331-bc83-caa2fc8d4a5e"},"vehicle_type_id":"4","last_reported":1735380480,"current_range_meters":37600,"station_id":"ce4bhm12rcd13ifvqgkg","pricing_plan_id":"cebpf4jnsgd1na2vs0mg"},{"bike_id":"4e1b440e-dc87-47f0-92e1-32a898eeb09a","system_id":"levelo_inurba_marseille","lat":43.32042,"lon":5.4158,"is_reserved":false,"is_disabled":false,"rental_uris":{"android":"levelo://app?vid=4e1b440e-dc87-47f0-92e1-32a898eeb09a","ios":"levelo://app?vid=4e1b440e-dc87-47f0-92e1-32a898eeb09a"},"vehicle_type_id":"4","last_reported":1735380480,"current_range_meters":36800,"station_id":"ce4bhq92rcd13ifvqhkg","pricing_plan_id":"cebpf4jnsgd1na2vs0mg"},{"bike_id":"9f8096d7-efc4-4844-92ca-9cbc491997cd","system_id":"levelo_inurba_marseille","lat":43.2619,"lon":5.37941,"is_reserved":false,"is_disabled":false,"rental_uris":{"android":"levelo://app?vid=9f8096d7-efc4-4844-92ca-9cbc491997cd","ios":"levelo://app?vid=9f8096d7-efc4-4844-92ca-9cbc491997cd"},"vehicle_type_id":"4","last_reported":1735380480,"current_range_meters":17600,"station_id":"ce4bhjp2rcd13ifvqg90","pricing_plan_id":"cebpf4jnsgd1na2vs0mg"},{"bike_id":"c0c3e5c6-edc3-41c4-8feb-85aaa21b750a","system_id":"levelo_inurba_marseille","lat":43.32046,"lon":5.4157,"is_reserved":false,"is_disabled":false,"rental_uris":{"android":"levelo://app?vid=c0c3e5c6-edc3-41c4-8feb-85aaa21b750a","ios":"levelo://app?vid=c0c3e5c6-edc3-41c4-8feb-85aaa21b750a"},"vehicle_type_id":"4","last_reported":1735380480,"current_range_meters":36800,"station_id":"ce4bhq92rcd13ifvqhkg","pricing_plan_id":"cebpf4jnsgd1na2vs0mg"},{"bike_id":"bb506308-72e4-4e49-b063-db664729cd99","system_id":"levelo_inurba_marseille","lat":43.27373,"lon":5.36262,"is_reserved":false,"is_disabled":false,"rental_uris":{"android":"levelo://app?vid=bb506308-72e4-4e49-b063-db664729cd99","ios":"levelo://app?vid=bb506308-72e4-4e49-b063-db664729cd99"},"vehicle_type_id":"4","last_reported":1735380480,"current_range_meters":8800,"station_id":"ce4bhbh2rcd13ifvqeo0","pricing_plan_id":"cebpf4jnsgd1na2vs0mg"},{"bike_id":"f3a3c2d0-8e8e-4bfb-9785-8292b6ff4f8d","system_id":"levelo_inurba_marseille","lat":43.28704,"lon":5.39989,"is_reserved":false,"is_disabled":false,"rental_uris":{"android":"levelo://app?vid=f3a3c2d0-8e8e-4bfb-9785-8292b6ff4f8d","ios":"levelo://app?vid=f3a3c2d0-8e8e-4bfb-9785-8292b6ff4f8d"},"vehicle_type_id":"4","last_reported":1735380480,"current_range_meters":30000,"station_id":"ce4bho92rcd13ifvqh3g","pricing_plan_id":"cebpf4jnsgd1na2vs0mg"},{"bike_id":"37e166dd-489b-4768-96d6-f8210cddb7c4","system_id":"levelo_inurba_marseille","lat":43.29212,"lon":5.40915,"is_reserved":false,"is_disabled":false,"rental_uris":{"android":"levelo://app?vid=37e166dd-489b-4768-96d6-f8210cddb7c4","ios":"levelo://app?vid=37e166dd-489b-4768-96d6-f8210cddb7c4"},"vehicle_type_id":"4","last_reported":1735380480,"current_range_meters":38800,"station_id":"ce4bh192rcd13ifvqdc0","pricing_plan_id":"cebpf4jnsgd1na2vs0mg"},{"bike_id":"d5424619-470a-4323-83b8-3dff700edc54","system_id":"levelo_inurba_marseille","lat":43.30947,"lon":5.39075,"is_reserved":false,"is_disabled":false,"rental_uris":{"android":"levelo://app?vid=d5424619-470a-4323-83b8-3dff700edc54","ios":"levelo://app?vid=d5424619-470a-4323-83b8-3dff700edc54"},"vehicle_type_id":"4","last_reported":1735380480,"current_range_meters":30800,"station_id":"ce4bgup2rcd13ifvqco0","pricing_plan_id":"cebpf4jnsgd1na2vs0mg"},{"bike_id":"47577b70-f45d-48cc-85f7-b8db2f4cea3c","system_id":"levelo_inurba_marseille","lat":43.27826,"lon":5.39206,"is_reserved":false,"is_disabled":false,"rental_uris":{"android":"levelo://app?vid=47577b70-f45d-48cc-85f7-b8db2f4cea3c","ios":"levelo://app?vid=47577b70-f45d-48cc-85f7-b8db2f4cea3c"},"vehicle_type_id":"4","last_reported":1735380480,"current_range_meters":9600,"station_id":"ce4bhjp2rcd13ifvqga0","pricing_plan_id":"cebpf4jnsgd1na2vs0mg"},{"bike_id":"87a0c6ac-e5ca-4737-b619-7dbc0d8466d7","system_id":"levelo_inurba_marseille","lat":43.29617,"lon":5.37714,"is_reserved":false,"is_disabled":false,"rental_uris":{"android":"levelo://app?vid=87a0c6ac-e5ca-4737-b619-7dbc0d8466d7","ios":"levelo://app?vid=87a0c6ac-e5ca-4737-b619-7dbc0d8466d7"},"vehicle_type_id":"4","last_reported":1735380480,"current_range_meters":34800,"station_id":"ce4bgi92rcd13ifvqb90","pricing_plan_id":"cebpf4jnsgd1na2vs0mg"},{"bike_id":"df870bd9-e76f-4acd-a844-86f561648ba7","system_id":"levelo_inurba_marseille","lat":43.30145,"lon":5.38065,"is_reserved":false,"is_disabled":false,"rental_uris":{"android":"levelo://app?vid=df870bd9-e76f-4acd-a844-86f561648ba7","ios":"levelo://app?vid=df870bd9-e76f-4acd-a844-86f561648ba7"},"vehicle_type_id":"4","last_reported":1735380480,"current_range_meters":30000,"station_id":"ce4bgjp2rcd13ifvqbh0","pricing_plan_id":"cebpf4jnsgd1na2vs0mg"},{"bike_id":"849d3f14-a99a-4c5f-8374-42a543d43e8e","system_id":"levelo_inurba_marseille","lat":43.2718,"lon":5.40983,"is_reserved":false,"is_disabled":true,"rental_uris":{"android":"levelo://app?vid=849d3f14-a99a-4c5f-8374-42a543d43e8e","ios":"levelo://app?vid=849d3f14-a99a-4c5f-8374-42a543d43e8e"},"vehicle_type_id":"4","last_reported":1735380480,"current_range_meters":0,"station_id":"ce4bhl12rcd13ifvqgf0","pricing_plan_id":"cebpf4jnsgd1na2vs0mg"},{"bike_id":"94cb8401-b698-4044-86f0-f66d1b433659","system_id":"levelo_inurba_marseille","lat":43.27948,"lon":5.41038,"is_reserved":false,"is_disabled":false,"rental_uris":{"android":"levelo://app?vid=94cb8401-b698-4044-86f0-f66d1b433659","ios":"levelo://app?vid=94cb8401-b698-4044-86f0-f66d1b433659"},"vehicle_type_id":"4","last_reported":1735380480,"current_range_meters":37600,"station_id":"ce4bhnp2rcd13ifvqh0g","pricing_plan_id":"cebpf4jnsgd1na2vs0mg"},{"bike_id":"ca318340-aea9-44aa-8b0f-6144858fa742","system_id":"levelo_inurba_marseille","lat":43.24998,"lon":5.38926,"is_reserved":false,"is_disabled":false,"rental_uris":{"android":"levelo://app?vid=ca318340-aea9-44aa-8b0f-6144858fa742","ios":"levelo://app?vid=ca318340-aea9-44aa-8b0f-6144858fa742"},"vehicle_type_id":"4","last_reported":1735380480,"current_range_meters":12800,"station_id":"ce4bhgp2rcd13ifvqfd0","pricing_plan_id":"cebpf4jnsgd1na2vs0mg"},{"bike_id":"fb86dc07-2dc6-4bfa-b85e-9957685650ab","system_id":"levelo_inurba_marseille","lat":43.2306,"lon":5.35492,"is_reserved":false,"is_disabled":false,"rental_uris":{"android":"levelo://app?vid=fb86dc07-2dc6-4bfa-b85e-9957685650ab","ios":"levelo://app?vid=fb86dc07-2dc6-4bfa-b85e-9957685650ab"},"vehicle_type_id":"4","last_reported":1735380480,"current_range_meters":17200,"station_id":"cpo3342slgdg3j2ifvpg","pricing_plan_id":"cebpf4jnsgd1na2vs0mg"},{"bike_id":"cfb94b76-8023-4846-bc02-2e593c90f87e","system_id":"levelo_inurba_marseille","lat":43.27937,"lon":5.38709,"is_reserved":false,"is_disabled":false,"rental_uris":{"android":"levelo://app?vid=cfb94b76-8023-4846-bc02-2e593c90f87e","ios":"levelo://app?vid=cfb94b76-8023-4846-bc02-2e593c90f87e"},"vehicle_type_id":"4","last_reported":1735380480,"current_range_meters":38800,"station_id":"ce4bhg12rcd13ifvqf80","pricing_plan_id":"cebpf4jnsgd1na2vs0mg"},{"bike_id":"204f0bfe-4513-4fef-9e32-daabf22ab3b1","system_id":"levelo_inurba_marseille","lat":43.29929,"lon":5.3715,"is_reserved":false,"is_disabled":false,"rental_uris":{"android":"levelo://app?vid=204f0bfe-4513-4fef-9e32-daabf22ab3b1","ios":"levelo://app?vid=204f0bfe-4513-4fef-9e32-daabf22ab3b1"},"vehicle_type_id":"4","last_reported":1735380480,"current_range_meters":38000,"station_id":"ce4bgr92rcd13ifvqc7g","pricing_plan_id":"cebpf4jnsgd1na2vs0mg"},{"bike_id":"5fee88d4-fa21-4b0a-a30a-db466552630b","system_id":"levelo_inurba_marseille","lat":43.29198,"lon":5.39323,"is_reserved":false,"is_disabled":false,"rental_uris":{"android":"levelo://app?vid=5fee88d4-fa21-4b0a-a30a-db466552630b","ios":"levelo://app?vid=5fee88d4-fa21-4b0a-a30a-db466552630b"},"vehicle_type_id":"4","last_reported":1735380480,"current_range_meters":38800,"station_id":"ce4bh192rcd13ifvqdd0","pricing_plan_id":"cebpf4jnsgd1na2vs0mg"},{"bike_id":"ff11dca8-a219-4257-8f5d-e5bf1d5c8893","system_id":"levelo_inurba_marseille","lat":43.24386,"lon":5.37067,"is_reserved":false,"is_disabled":false,"rental_uris":{"android":"levelo://app?vid=ff11dca8-a219-4257-8f5d-e5bf1d5c8893","ios":"levelo://app?vid=ff11dca8-a219-4257-8f5d-e5bf1d5c8893"},"vehicle_type_id":"4","last_reported":1735380480,"current_range_meters":33200,"station_id":"ce4bhhh2rcd13ifvqfk0","pricing_plan_id":"cebpf4jnsgd1na2vs0mg"},{"bike_id":"ae8f8cdf-d1f9-4519-9c49-1aed0fe5c5ba","system_id":"levelo_inurba_marseille","lat":43.30521,"lon":5.36699,"is_reserved":false,"is_disabled":false,"rental_uris":{"android":"levelo://app?vid=ae8f8cdf-d1f9-4519-9c49-1aed0fe5c5ba","ios":"levelo://app?vid=ae8f8cdf-d1f9-4519-9c49-1aed0fe5c5ba"},"vehicle_type_id":"4","last_reported":1735380480,"current_range_meters":38800,"station_id":"ce4bgrp2rcd13ifvqc9g","pricing_plan_id":"cebpf4jnsgd1na2vs0mg"},{"bike_id":"09898dd2-84ad-4911-a21d-d1f0823964b3","system_id":"levelo_inurba_marseille","lat":43.29601,"lon":5.37739,"is_reserved":false,"is_disabled":false,"rental_uris":{"android":"levelo://app?vid=09898dd2-84ad-4911-a21d-d1f0823964b3","ios":"levelo://app?vid=09898dd2-84ad-4911-a21d-d1f0823964b3"},"vehicle_type_id":"4","last_reported":1735380480,"current_range_meters":39200,"station_id":"ce4bgi92rcd13ifvqb90","pricing_plan_id":"cebpf4jnsgd1na2vs0mg"},{"bike_id":"40eee063-b95d-4d32-aca8-c581cf8477cf","system_id":"levelo_inurba_marseille","lat":43.25013,"lon":5.38912,"is_reserved":false,"is_disabled":false,"rental_uris":{"android":"levelo://app?vid=40eee063-b95d-4d32-aca8-c581cf8477cf","ios":"levelo://app?vid=40eee063-b95d-4d32-aca8-c581cf8477cf"},"vehicle_type_id":"4","last_reported":1735380480,"current_range_meters":25200,"station_id":"ce4bhgp2rcd13ifvqfd0","pricing_plan_id":"cebpf4jnsgd1na2vs0mg"},{"bike_id":"a15773e6-2ac5-4b02-87a8-56c818178181","system_id":"levelo_inurba_marseille","lat":43.29025,"lon":5.38127,"is_reserved":false,"is_disabled":false,"rental_uris":{"android":"levelo://app?vid=a15773e6-2ac5-4b02-87a8-56c818178181","ios":"levelo://app?vid=a15773e6-2ac5-4b02-87a8-56c818178181"},"vehicle_type_id":"4","last_reported":1735380480,"current_range_meters":22000,"station_id":"","pricing_plan_id":"cebpf4jnsgd1na2vs0mg"},{"bike_id":"79de9358-86ba-4186-afae-1dcac9573cea","system_id":"levelo_inurba_marseille","lat":43.28073,"lon":5.39647,"is_reserved":false,"is_disabled":false,"rental_uris":{"android":"levelo://app?vid=79de9358-86ba-4186-afae-1dcac9573cea","ios":"levelo://app?vid=79de9358-86ba-4186-afae-1dcac9573cea"},"vehicle_type_id":"4","last_reported":1735380480,"current_range_meters":37600,"station_id":"ce4bho12rcd13ifvqh2g","pricing_plan_id":"cebpf4jnsgd1na2vs0mg"},{"bike_id":"c0392848-0bdf-4f66-828f-2f1678520562","system_id":"levelo_inurba_marseille","lat":43.306435,"lon":5.400723,"is_reserved":false,"is_disabled":false,"rental_uris":{"android":"levelo://app?vid=c0392848-0bdf-4f66-828f-2f1678520562","ios":"levelo://app?vid=c0392848-0bdf-4f66-828f-2f1678520562"},"vehicle_type_id":"4","last_reported":1735380480,"current_range_meters":37600,"station_id":"ce4bh112rcd13ifvqda0","pricing_plan_id":"cebpf4jnsgd1na2vs0mg"},{"bike_id":"5be3d17a-9c8c-40c8-a7f5-11e9744dd0b7","system_id":"levelo_inurba_marseille","lat":43.28477,"lon":5.38418,"is_reserved":false,"is_disabled":false,"rental_uris":{"android":"levelo://app?vid=5be3d17a-9c8c-40c8-a7f5-11e9744dd0b7","ios":"levelo://app?vid=5be3d17a-9c8c-40c8-a7f5-11e9744dd0b7"},"vehicle_type_id":"4","last_reported":1735380480,"current_range_meters":37600,"station_id":"ce4bh512rcd13ifvqe3g","pricing_plan_id":"cebpf4jnsgd1na2vs0mg"},{"bike_id":"6fc39219-982d-4feb-9b3b-e1ba4db40afe","system_id":"levelo_inurba_marseille","lat":43.29606,"lon":5.38114,"is_reserved":false,"is_disabled":false,"rental_uris":{"android":"levelo://app?vid=6fc39219-982d-4feb-9b3b-e1ba4db40afe","ios":"levelo://app?vid=6fc39219-982d-4feb-9b3b-e1ba4db40afe"},"vehicle_type_id":"4","last_reported":1735380480,"current_range_meters":38800,"station_id":"ce4bgl12rcd13ifvqbo0","pricing_plan_id":"cebpf4jnsgd1na2vs0mg"},{"bike_id":"e73e6057-e6e9-407b-a17e-f4e119a96aba","system_id":"levelo_inurba_marseille","lat":43.32111,"lon":5.36768,"is_reserved":false,"is_disabled":false,"rental_uris":{"android":"levelo://app?vid=e73e6057-e6e9-407b-a17e-f4e119a96aba","ios":"levelo://app?vid=e73e6057-e6e9-407b-a17e-f4e119a96aba"},"vehicle_type_id":"4","last_reported":1735380480,"current_range_meters":16400,"station_id":"ce4bhrh2rcd13ifvqhug","pricing_plan_id":"cebpf4jnsgd1na2vs0mg"},{"bike_id":"bd55923c-f926-41bd-a062-5799511a18a2","system_id":"levelo_inurba_marseille","lat":43.27321,"lon":5.39066,"is_reserved":false,"is_disabled":false,"rental_uris":{"android":"levelo://app?vid=bd55923c-f926-41bd-a062-5799511a18a2","ios":"levelo://app?vid=bd55923c-f926-41bd-a062-5799511a18a2"},"vehicle_type_id":"4","last_reported":1735380480,"current_range_meters":20400,"station_id":"ce4bhgp2rcd13ifvqfe0","pricing_plan_id":"cebpf4jnsgd1na2vs0mg"},{"bike_id":"2f2c9660-47a9-4c5c-b6dd-838206212356","system_id":"levelo_inurba_marseille","lat":43.29712,"lon":5.36608,"is_reserved":false,"is_disabled":false,"rental_uris":{"android":"levelo://app?vid=2f2c9660-47a9-4c5c-b6dd-838206212356","ios":"levelo://app?vid=2f2c9660-47a9-4c5c-b6dd-838206212356"},"vehicle_type_id":"4","last_reported":1735380480,"current_range_meters":36000,"station_id":"ce4bgn12rcd13ifvqbt0","pricing_plan_id":"cebpf4jnsgd1na2vs0mg"},{"bike_id":"062008cc-a7ec-41fc-ab0a-02aee794153b","system_id":"levelo_inurba_marseille","lat":43.27071,"lon":5.42275,"is_reserved":false,"is_disabled":false,"rental_uris":{"android":"levelo://app?vid=062008cc-a7ec-41fc-ab0a-02aee794153b","ios":"levelo://app?vid=062008cc-a7ec-41fc-ab0a-02aee794153b"},"vehicle_type_id":"4","last_reported":1735380480,"current_range_meters":37600,"station_id":"ce4bhk92rcd13ifvqgb0","pricing_plan_id":"cebpf4jnsgd1na2vs0mg"},{"bike_id":"57103b12-06fc-494b-9a1a-1903f8f245d5","system_id":"levelo_inurba_marseille","lat":43.27982,"lon":5.41655,"is_reserved":false,"is_disabled":false,"rental_uris":{"android":"levelo://app?vid=57103b12-06fc-494b-9a1a-1903f8f245d5","ios":"levelo://app?vid=57103b12-06fc-494b-9a1a-1903f8f245d5"},"vehicle_type_id":"4","last_reported":1735380480,"current_range_meters":23200,"station_id":"ce4bho12rcd13ifvqh1g","pricing_plan_id":"cebpf4jnsgd1na2vs0mg"},{"bike_id":"09dd81c0-cae5-44a2-a85f-debca86ea826","system_id":"levelo_inurba_marseille","lat":43.27377,"lon":5.36258,"is_reserved":false,"is_disabled":false,"rental_uris":{"android":"levelo://app?vid=09dd81c0-cae5-44a2-a85f-debca86ea826","ios":"levelo://app?vid=09dd81c0-cae5-44a2-a85f-debca86ea826"},"vehicle_type_id":"4","last_reported":1735380480,"current_range_meters":38800,"station_id":"ce4bhbh2rcd13ifvqeo0","pricing_plan_id":"cebpf4jnsgd1na2vs0mg"},{"bike_id":"20f4e438-1366-4a84-bf7d-a2e481186e28","system_id":"levelo_inurba_marseille","lat":43.28474,"lon":5.38411,"is_reserved":false,"is_disabled":false,"rental_uris":{"android":"levelo://app?vid=20f4e438-1366-4a84-bf7d-a2e481186e28","ios":"levelo://app?vid=20f4e438-1366-4a84-bf7d-a2e481186e28"},"vehicle_type_id":"4","last_reported":1735380480,"current_range_meters":39200,"station_id":"ce4bh512rcd13ifvqe3g","pricing_plan_id":"cebpf4jnsgd1na2vs0mg"},{"bike_id":"97ca0c8e-570e-434d-9cb8-766dfcbfa557","system_id":"levelo_inurba_marseille","lat":43.32034,"lon":5.41561,"is_reserved":false,"is_disabled":false,"rental_uris":{"android":"levelo://app?vid=97ca0c8e-570e-434d-9cb8-766dfcbfa557","ios":"levelo://app?vid=97ca0c8e-570e-434d-9cb8-766dfcbfa557"},"vehicle_type_id":"4","last_reported":1735380480,"current_range_meters":39200,"station_id":"ce4bhq92rcd13ifvqhkg","pricing_plan_id":"cebpf4jnsgd1na2vs0mg"},{"bike_id":"9a6e3a7e-5a38-4778-8569-c4a718bdad09","system_id":"levelo_inurba_marseille","lat":43.28719,"lon":5.37949,"is_reserved":false,"is_disabled":false,"rental_uris":{"android":"levelo://app?vid=9a6e3a7e-5a38-4778-8569-c4a718bdad09","ios":"levelo://app?vid=9a6e3a7e-5a38-4778-8569-c4a718bdad09"},"vehicle_type_id":"4","last_reported":1735380480,"current_range_meters":8800,"station_id":"ce4bh9p2rcd13ifvqec0","pricing_plan_id":"cebpf4jnsgd1na2vs0mg"},{"bike_id":"938613cf-c269-42d9-985b-361a421bf4d1","system_id":"levelo_inurba_marseille","lat":43.3078,"lon":5.37654,"is_reserved":false,"is_disabled":false,"rental_uris":{"android":"levelo://app?vid=938613cf-c269-42d9-985b-361a421bf4d1","ios":"levelo://app?vid=938613cf-c269-42d9-985b-361a421bf4d1"},"vehicle_type_id":"4","last_reported":1735380480,"current_range_meters":38800,"station_id":"ce4bgv92rcd13ifvqcq0","pricing_plan_id":"cebpf4jnsgd1na2vs0mg"},{"bike_id":"b398f9ec-3d69-4e65-8657-4986194d6615","system_id":"levelo_inurba_marseille","lat":43.30142,"lon":5.3988,"is_reserved":false,"is_disabled":false,"rental_uris":{"android":"levelo://app?vid=b398f9ec-3d69-4e65-8657-4986194d6615","ios":"levelo://app?vid=b398f9ec-3d69-4e65-8657-4986194d6615"},"vehicle_type_id":"4","last_reported":1735380480,"current_range_meters":27600,"station_id":"ce4bh0h2rcd13ifvqd40","pricing_plan_id":"cebpf4jnsgd1na2vs0mg"},{"bike_id":"bf075035-d901-41db-ae8f-dfcc1aedb23e","system_id":"levelo_inurba_marseille","lat":43.24066,"lon":5.37766,"is_reserved":false,"is_disabled":false,"rental_uris":{"android":"levelo://app?vid=bf075035-d901-41db-ae8f-dfcc1aedb23e","ios":"levelo://app?vid=bf075035-d901-41db-ae8f-dfcc1aedb23e"},"vehicle_type_id":"4","last_reported":1735380480,"current_range_meters":18000,"station_id":"ce4bhnp2rcd13ifvqgvg","pricing_plan_id":"cebpf4jnsgd1na2vs0mg"},{"bike_id":"6797f74d-fd3c-4db0-9cb8-e2ded151ac34","system_id":"levelo_inurba_marseille","lat":43.30894,"lon":5.3965,"is_reserved":false,"is_disabled":true,"rental_uris":{"android":"levelo://app?vid=6797f74d-fd3c-4db0-9cb8-e2ded151ac34","ios":"levelo://app?vid=6797f74d-fd3c-4db0-9cb8-e2ded151ac34"},"vehicle_type_id":"4","last_reported":1735380480,"current_range_meters":0,"station_id":"ce4bh012rcd13ifvqcv0","pricing_plan_id":"cebpf4jnsgd1na2vs0mg"},{"bike_id":"375d5811-de8b-418c-91ed-82d921ddce21","system_id":"levelo_inurba_marseille","lat":43.29702,"lon":5.36609,"is_reserved":false,"is_disabled":false,"rental_uris":{"android":"levelo://app?vid=375d5811-de8b-418c-91ed-82d921ddce21","ios":"levelo://app?vid=375d5811-de8b-418c-91ed-82d921ddce21"},"vehicle_type_id":"4","last_reported":1735380480,"current_range_meters":30000,"station_id":"ce4bgn12rcd13ifvqbt0","pricing_plan_id":"cebpf4jnsgd1na2vs0mg"},{"bike_id":"f523f994-10cd-4740-b49c-26b69297a317","system_id":"levelo_inurba_marseille","lat":43.25115,"lon":5.40327,"is_reserved":false,"is_disabled":false,"rental_uris":{"android":"levelo://app?vid=f523f994-10cd-4740-b49c-26b69297a317","ios":"levelo://app?vid=f523f994-10cd-4740-b49c-26b69297a317"},"vehicle_type_id":"4","last_reported":1735380480,"current_range_meters":31200,"station_id":"ce4bhlh2rcd13ifvqgig","pricing_plan_id":"cebpf4jnsgd1na2vs0mg"},{"bike_id":"80d430f4-5610-4680-8cfe-699a3335b5bf","system_id":"levelo_inurba_marseille","lat":43.30596,"lon":5.37218,"is_reserved":false,"is_disabled":false,"rental_uris":{"android":"levelo://app?vid=80d430f4-5610-4680-8cfe-699a3335b5bf","ios":"levelo://app?vid=80d430f4-5610-4680-8cfe-699a3335b5bf"},"vehicle_type_id":"4","last_reported":1735380480,"current_range_meters":38800,"station_id":"ce4bgqh2rcd13ifvqc4g","pricing_plan_id":"cebpf4jnsgd1na2vs0mg"},{"bike_id":"db2c549d-e98a-4769-95fa-52946ad4fb3d","system_id":"levelo_inurba_marseille","lat":43.2985,"lon":5.36282,"is_reserved":false,"is_disabled":false,"rental_uris":{"android":"levelo://app?vid=db2c549d-e98a-4769-95fa-52946ad4fb3d","ios":"levelo://app?vid=db2c549d-e98a-4769-95fa-52946ad4fb3d"},"vehicle_type_id":"4","last_reported":1735380480,"current_range_meters":36800,"station_id":"ce4bgpp2rcd13ifvqc3g","pricing_plan_id":"cebpf4jnsgd1na2vs0mg"},{"bike_id":"06cb9db3-5173-4e30-b394-f221ce1c8457","system_id":"levelo_inurba_marseille","lat":43.30135,"lon":5.39872,"is_reserved":false,"is_disabled":false,"rental_uris":{"android":"levelo://app?vid=06cb9db3-5173-4e30-b394-f221ce1c8457","ios":"levelo://app?vid=06cb9db3-5173-4e30-b394-f221ce1c8457"},"vehicle_type_id":"4","last_reported":1735380480,"current_range_meters":24000,"station_id":"ce4bh0h2rcd13ifvqd40","pricing_plan_id":"cebpf4jnsgd1na2vs0mg"},{"bike_id":"71e6eecc-482e-4ed8-b40b-efc6ef9e702a","system_id":"levelo_inurba_marseille","lat":43.27493,"lon":5.4246,"is_reserved":false,"is_disabled":false,"rental_uris":{"android":"levelo://app?vid=71e6eecc-482e-4ed8-b40b-efc6ef9e702a","ios":"levelo://app?vid=71e6eecc-482e-4ed8-b40b-efc6ef9e702a"},"vehicle_type_id":"4","last_reported":1735380480,"current_range_meters":37600,"station_id":"ce4bhn92rcd13ifvqgrg","pricing_plan_id":"cebpf4jnsgd1na2vs0mg"},{"bike_id":"e2d02283-b127-48cd-86f1-5f160651ede8","system_id":"levelo_inurba_marseille","lat":43.28931,"lon":5.36398,"is_reserved":false,"is_disabled":false,"rental_uris":{"android":"levelo://app?vid=e2d02283-b127-48cd-86f1-5f160651ede8","ios":"levelo://app?vid=e2d02283-b127-48cd-86f1-5f160651ede8"},"vehicle_type_id":"4","last_reported":1735380480,"current_range_meters":27600,"station_id":"ce4bhc92rcd13ifvqetg","pricing_plan_id":"cebpf4jnsgd1na2vs0mg"},{"bike_id":"a3b5e29c-4425-483d-9fe4-2d25fea7803f","system_id":"levelo_inurba_marseille","lat":43.25008,"lon":5.389116,"is_reserved":false,"is_disabled":false,"rental_uris":{"android":"levelo://app?vid=a3b5e29c-4425-483d-9fe4-2d25fea7803f","ios":"levelo://app?vid=a3b5e29c-4425-483d-9fe4-2d25fea7803f"},"vehicle_type_id":"4","last_reported":1735380480,"current_range_meters":28400,"station_id":"ce4bhgp2rcd13ifvqfd0","pricing_plan_id":"cebpf4jnsgd1na2vs0mg"},{"bike_id":"6164b460-c3c8-4dbd-9cc2-9b33b9e9bb2d","system_id":"levelo_inurba_marseille","lat":43.30881,"lon":5.39651,"is_reserved":false,"is_disabled":false,"rental_uris":{"android":"levelo://app?vid=6164b460-c3c8-4dbd-9cc2-9b33b9e9bb2d","ios":"levelo://app?vid=6164b460-c3c8-4dbd-9cc2-9b33b9e9bb2d"},"vehicle_type_id":"4","last_reported":1735380480,"current_range_meters":37600,"station_id":"ce4bh012rcd13ifvqcv0","pricing_plan_id":"cebpf4jnsgd1na2vs0mg"},{"bike_id":"8de30e8f-d9cd-4847-a28e-ae6bcfbd857f","system_id":"levelo_inurba_marseille","lat":43.26212,"lon":5.37445,"is_reserved":false,"is_disabled":false,"rental_uris":{"android":"levelo://app?vid=8de30e8f-d9cd-4847-a28e-ae6bcfbd857f","ios":"levelo://app?vid=8de30e8f-d9cd-4847-a28e-ae6bcfbd857f"},"vehicle_type_id":"4","last_reported":1735380480,"current_range_meters":17200,"station_id":"ce4bhgp2rcd13ifvqfc0","pricing_plan_id":"cebpf4jnsgd1na2vs0mg"},{"bike_id":"d7d05281-eeea-4dcf-a456-28c85b5ed49c","system_id":"levelo_inurba_marseille","lat":43.30651,"lon":5.40076,"is_reserved":false,"is_disabled":false,"rental_uris":{"android":"levelo://app?vid=d7d05281-eeea-4dcf-a456-28c85b5ed49c","ios":"levelo://app?vid=d7d05281-eeea-4dcf-a456-28c85b5ed49c"},"vehicle_type_id":"4","last_reported":1735380480,"current_range_meters":20800,"station_id":"ce4bh112rcd13ifvqda0","pricing_plan_id":"cebpf4jnsgd1na2vs0mg"},{"bike_id":"ced151f5-4c79-4a37-9365-9728a8712301","system_id":"levelo_inurba_marseille","lat":43.28466,"lon":5.35882,"is_reserved":false,"is_disabled":false,"rental_uris":{"android":"levelo://app?vid=ced151f5-4c79-4a37-9365-9728a8712301","ios":"levelo://app?vid=ced151f5-4c79-4a37-9365-9728a8712301"},"vehicle_type_id":"4","last_reported":1735380480,"current_range_meters":25600,"station_id":"ce4bhah2rcd13ifvqei0","pricing_plan_id":"cebpf4jnsgd1na2vs0mg"},{"bike_id":"2ef3cadb-4938-410b-af4c-81b56131356d","system_id":"levelo_inurba_marseille","lat":43.248,"lon":5.37477,"is_reserved":false,"is_disabled":false,"rental_uris":{"android":"levelo://app?vid=2ef3cadb-4938-410b-af4c-81b56131356d","ios":"levelo://app?vid=2ef3cadb-4938-410b-af4c-81b56131356d"},"vehicle_type_id":"4","last_reported":1735380480,"current_range_meters":14800,"station_id":"ce4bhgh2rcd13ifvqfb0","pricing_plan_id":"cebpf4jnsgd1na2vs0mg"},{"bike_id":"7bd44d09-e872-4291-b548-1cbe40f16cac","system_id":"levelo_inurba_marseille","lat":43.2815,"lon":5.42684,"is_reserved":false,"is_disabled":false,"rental_uris":{"android":"levelo://app?vid=7bd44d09-e872-4291-b548-1cbe40f16cac","ios":"levelo://app?vid=7bd44d09-e872-4291-b548-1cbe40f16cac"},"vehicle_type_id":"4","last_reported":1735380480,"current_range_meters":28400,"station_id":"ce4bhnh2rcd13ifvqgug","pricing_plan_id":"cebpf4jnsgd1na2vs0mg"},{"bike_id":"f698358a-3d78-4534-a1cb-bd26a9f4defe","system_id":"levelo_inurba_marseille","lat":43.30532,"lon":5.38437,"is_reserved":false,"is_disabled":false,"rental_uris":{"android":"levelo://app?vid=f698358a-3d78-4534-a1cb-bd26a9f4defe","ios":"levelo://app?vid=f698358a-3d78-4534-a1cb-bd26a9f4defe"},"vehicle_type_id":"4","last_reported":1735380480,"current_range_meters":38800,"station_id":"ce4bgg92rcd13ifvqb30","pricing_plan_id":"cebpf4jnsgd1na2vs0mg"},{"bike_id":"e06232ef-caaf-4238-9d2b-ccce6dfdbe4b","system_id":"levelo_inurba_marseille","lat":43.30598,"lon":5.37216,"is_reserved":false,"is_disabled":false,"rental_uris":{"android":"levelo://app?vid=e06232ef-caaf-4238-9d2b-ccce6dfdbe4b","ios":"levelo://app?vid=e06232ef-caaf-4238-9d2b-ccce6dfdbe4b"},"vehicle_type_id":"4","last_reported":1735380480,"current_range_meters":38800,"station_id":"ce4bgqh2rcd13ifvqc4g","pricing_plan_id":"cebpf4jnsgd1na2vs0mg"},{"bike_id":"e2a7c6dd-75f7-4381-8adc-261461a58747","system_id":"levelo_inurba_marseille","lat":43.2922,"lon":5.3605,"is_reserved":false,"is_disabled":true,"rental_uris":{"android":"levelo://app?vid=e2a7c6dd-75f7-4381-8adc-261461a58747","ios":"levelo://app?vid=e2a7c6dd-75f7-4381-8adc-261461a58747"},"vehicle_type_id":"4","last_reported":1735380480,"current_range_meters":38800,"station_id":"ce4bhbh2rcd13ifvqeqg","pricing_plan_id":"cebpf4jnsgd1na2vs0mg"},{"bike_id":"1f03e07b-50b0-4a9e-bd03-dc766534a5b3","system_id":"levelo_inurba_marseille","lat":43.2558,"lon":5.38237,"is_reserved":false,"is_disabled":false,"rental_uris":{"android":"levelo://app?vid=1f03e07b-50b0-4a9e-bd03-dc766534a5b3","ios":"levelo://app?vid=1f03e07b-50b0-4a9e-bd03-dc766534a5b3"},"vehicle_type_id":"4","last_reported":1735380480,"current_range_meters":39200,"station_id":"ce4bhih2rcd13ifvqfs0","pricing_plan_id":"cebpf4jnsgd1na2vs0mg"},{"bike_id":"502fd9c3-f876-4a0c-bac3-0f53a7382c20","system_id":"levelo_inurba_marseille","lat":43.29031,"lon":5.39982,"is_reserved":false,"is_disabled":false,"rental_uris":{"android":"levelo://app?vid=502fd9c3-f876-4a0c-bac3-0f53a7382c20","ios":"levelo://app?vid=502fd9c3-f876-4a0c-bac3-0f53a7382c20"},"vehicle_type_id":"4","last_reported":1735380480,"current_range_meters":38800,"station_id":"ce4bh392rcd13ifvqdm0","pricing_plan_id":"cebpf4jnsgd1na2vs0mg"},{"bike_id":"57f9a8c9-10b3-430c-9a28-3de9267d8fe1","system_id":"levelo_inurba_marseille","lat":43.272147,"lon":5.39164,"is_reserved":false,"is_disabled":false,"rental_uris":{"android":"levelo://app?vid=57f9a8c9-10b3-430c-9a28-3de9267d8fe1","ios":"levelo://app?vid=57f9a8c9-10b3-430c-9a28-3de9267d8fe1"},"vehicle_type_id":"4","last_reported":1735380480,"current_range_meters":34000,"station_id":"ce4bhhp2rcd13ifvqfm0","pricing_plan_id":"cebpf4jnsgd1na2vs0mg"},{"bike_id":"359ddae0-5d3f-4b29-8d32-daa2bb9138da","system_id":"levelo_inurba_marseille","lat":43.29723,"lon":5.37689,"is_reserved":false,"is_disabled":false,"rental_uris":{"android":"levelo://app?vid=359ddae0-5d3f-4b29-8d32-daa2bb9138da","ios":"levelo://app?vid=359ddae0-5d3f-4b29-8d32-daa2bb9138da"},"vehicle_type_id":"4","last_reported":1735380480,"current_range_meters":35600,"station_id":"ce4bgkh2rcd13ifvqbl0","pricing_plan_id":"cebpf4jnsgd1na2vs0mg"},{"bike_id":"1107b56a-98a5-4a01-8449-9eba086fee5a","system_id":"levelo_inurba_marseille","lat":43.29073,"lon":5.39883,"is_reserved":false,"is_disabled":true,"rental_uris":{"android":"levelo://app?vid=1107b56a-98a5-4a01-8449-9eba086fee5a","ios":"levelo://app?vid=1107b56a-98a5-4a01-8449-9eba086fee5a"},"vehicle_type_id":"4","last_reported":1735380480,"current_range_meters":20800,"station_id":"","pricing_plan_id":"cebpf4jnsgd1na2vs0mg"},{"bike_id":"ed755373-34f4-4acd-9dce-ab728df6a1d8","system_id":"levelo_inurba_marseille","lat":43.29616,"lon":5.37716,"is_reserved":false,"is_disabled":false,"rental_uris":{"android":"levelo://app?vid=ed755373-34f4-4acd-9dce-ab728df6a1d8","ios":"levelo://app?vid=ed755373-34f4-4acd-9dce-ab728df6a1d8"},"vehicle_type_id":"4","last_reported":1735380480,"current_range_meters":38400,"station_id":"ce4bgi92rcd13ifvqb90","pricing_plan_id":"cebpf4jnsgd1na2vs0mg"},{"bike_id":"11a0ffca-220f-4915-8ee5-56db1deea1c4","system_id":"levelo_inurba_marseille","lat":43.29574,"lon":5.37512,"is_reserved":false,"is_disabled":false,"rental_uris":{"android":"levelo://app?vid=11a0ffca-220f-4915-8ee5-56db1deea1c4","ios":"levelo://app?vid=11a0ffca-220f-4915-8ee5-56db1deea1c4"},"vehicle_type_id":"4","last_reported":1735380480,"current_range_meters":30400,"station_id":"ce4bgh92rcd13ifvqb50","pricing_plan_id":"cebpf4jnsgd1na2vs0mg"},{"bike_id":"dc4f15fa-6d05-4205-b4be-fba68cc03616","system_id":"levelo_inurba_marseille","lat":43.29602,"lon":5.38104,"is_reserved":false,"is_disabled":false,"rental_uris":{"android":"levelo://app?vid=dc4f15fa-6d05-4205-b4be-fba68cc03616","ios":"levelo://app?vid=dc4f15fa-6d05-4205-b4be-fba68cc03616"},"vehicle_type_id":"4","last_reported":1735380480,"current_range_meters":38000,"station_id":"ce4bgl12rcd13ifvqbo0","pricing_plan_id":"cebpf4jnsgd1na2vs0mg"},{"bike_id":"c9b97fb7-b709-4c26-ae01-dabf637bc152","system_id":"levelo_inurba_marseille","lat":43.27811,"lon":5.4071,"is_reserved":false,"is_disabled":false,"rental_uris":{"android":"levelo://app?vid=c9b97fb7-b709-4c26-ae01-dabf637bc152","ios":"levelo://app?vid=c9b97fb7-b709-4c26-ae01-dabf637bc152"},"vehicle_type_id":"4","last_reported":1735380480,"current_range_meters":28400,"station_id":"ce4bhnh2rcd13ifvqgtg","pricing_plan_id":"cebpf4jnsgd1na2vs0mg"},{"bike_id":"4485f98a-c081-40ff-aeab-5967b9ceab6a","system_id":"levelo_inurba_marseille","lat":43.30664,"lon":5.38205,"is_reserved":false,"is_disabled":false,"rental_uris":{"android":"levelo://app?vid=4485f98a-c081-40ff-aeab-5967b9ceab6a","ios":"levelo://app?vid=4485f98a-c081-40ff-aeab-5967b9ceab6a"},"vehicle_type_id":"4","last_reported":1735380480,"current_range_meters":25600,"station_id":"","pricing_plan_id":"cebpf4jnsgd1na2vs0mg"},{"bike_id":"3fbbac4e-077e-476b-9b1a-9cc6e989ecb0","system_id":"levelo_inurba_marseille","lat":43.250057,"lon":5.389208,"is_reserved":false,"is_disabled":false,"rental_uris":{"android":"levelo://app?vid=3fbbac4e-077e-476b-9b1a-9cc6e989ecb0","ios":"levelo://app?vid=3fbbac4e-077e-476b-9b1a-9cc6e989ecb0"},"vehicle_type_id":"4","last_reported":1735380480,"current_range_meters":35600,"station_id":"ce4bhgp2rcd13ifvqfd0","pricing_plan_id":"cebpf4jnsgd1na2vs0mg"},{"bike_id":"3834223e-8da5-43e4-be59-bf5dfe01e046","system_id":"levelo_inurba_marseille","lat":43.27619,"lon":5.36122,"is_reserved":false,"is_disabled":false,"rental_uris":{"android":"levelo://app?vid=3834223e-8da5-43e4-be59-bf5dfe01e046","ios":"levelo://app?vid=3834223e-8da5-43e4-be59-bf5dfe01e046"},"vehicle_type_id":"4","last_reported":1735380480,"current_range_meters":36400,"station_id":"ce4bgj92rcd13ifvqbe0","pricing_plan_id":"cebpf4jnsgd1na2vs0mg"},{"bike_id":"854a3e48-c4e4-4baf-a49e-cf8a057b5738","system_id":"levelo_inurba_marseille","lat":43.24808,"lon":5.37454,"is_reserved":false,"is_disabled":false,"rental_uris":{"android":"levelo://app?vid=854a3e48-c4e4-4baf-a49e-cf8a057b5738","ios":"levelo://app?vid=854a3e48-c4e4-4baf-a49e-cf8a057b5738"},"vehicle_type_id":"4","last_reported":1735380480,"current_range_meters":10000,"station_id":"ce4bhgh2rcd13ifvqfb0","pricing_plan_id":"cebpf4jnsgd1na2vs0mg"},{"bike_id":"e203eede-93d4-4367-be9a-c6d93cdc799f","system_id":"levelo_inurba_marseille","lat":43.29932,"lon":5.36548,"is_reserved":false,"is_disabled":false,"rental_uris":{"android":"levelo://app?vid=e203eede-93d4-4367-be9a-c6d93cdc799f","ios":"levelo://app?vid=e203eede-93d4-4367-be9a-c6d93cdc799f"},"vehicle_type_id":"4","last_reported":1735380480,"current_range_meters":16000,"station_id":"ce4bgm92rcd13ifvqbr0","pricing_plan_id":"cebpf4jnsgd1na2vs0mg"},{"bike_id":"9ab5ce30-c1c1-4ba8-817b-5ecdc604686b","system_id":"levelo_inurba_marseille","lat":43.30933,"lon":5.40145,"is_reserved":false,"is_disabled":false,"rental_uris":{"android":"levelo://app?vid=9ab5ce30-c1c1-4ba8-817b-5ecdc604686b","ios":"levelo://app?vid=9ab5ce30-c1c1-4ba8-817b-5ecdc604686b"},"vehicle_type_id":"4","last_reported":1735380480,"current_range_meters":38800,"station_id":"ce4bgvp2rcd13ifvqct0","pricing_plan_id":"cebpf4jnsgd1na2vs0mg"},{"bike_id":"f0faaccf-349b-4956-ba5b-f9026985d8dc","system_id":"levelo_inurba_marseille","lat":43.3079,"lon":5.37655,"is_reserved":false,"is_disabled":false,"rental_uris":{"android":"levelo://app?vid=f0faaccf-349b-4956-ba5b-f9026985d8dc","ios":"levelo://app?vid=f0faaccf-349b-4956-ba5b-f9026985d8dc"},"vehicle_type_id":"4","last_reported":1735380480,"current_range_meters":11200,"station_id":"ce4bgv92rcd13ifvqcq0","pricing_plan_id":"cebpf4jnsgd1na2vs0mg"},{"bike_id":"41e441a8-4ad2-4bf0-81ba-96c35feaf6d8","system_id":"levelo_inurba_marseille","lat":43.2815,"lon":5.42642,"is_reserved":false,"is_disabled":false,"rental_uris":{"android":"levelo://app?vid=41e441a8-4ad2-4bf0-81ba-96c35feaf6d8","ios":"levelo://app?vid=41e441a8-4ad2-4bf0-81ba-96c35feaf6d8"},"vehicle_type_id":"4","last_reported":1735380480,"current_range_meters":35200,"station_id":"ce4bhnh2rcd13ifvqgug","pricing_plan_id":"cebpf4jnsgd1na2vs0mg"},{"bike_id":"ad954c5e-731b-466c-b7a3-d28bedadb5f9","system_id":"levelo_inurba_marseille","lat":43.27367,"lon":5.36258,"is_reserved":false,"is_disabled":false,"rental_uris":{"android":"levelo://app?vid=ad954c5e-731b-466c-b7a3-d28bedadb5f9","ios":"levelo://app?vid=ad954c5e-731b-466c-b7a3-d28bedadb5f9"},"vehicle_type_id":"4","last_reported":1735380480,"current_range_meters":33600,"station_id":"ce4bhbh2rcd13ifvqeo0","pricing_plan_id":"cebpf4jnsgd1na2vs0mg"},{"bike_id":"a3673035-fb02-4390-bedb-0b1150e97895","system_id":"levelo_inurba_marseille","lat":43.29911,"lon":5.37478,"is_reserved":false,"is_disabled":false,"rental_uris":{"android":"levelo://app?vid=a3673035-fb02-4390-bedb-0b1150e97895","ios":"levelo://app?vid=a3673035-fb02-4390-bedb-0b1150e97895"},"vehicle_type_id":"4","last_reported":1735380480,"current_range_meters":36000,"station_id":"ce4bgjh2rcd13ifvqbg0","pricing_plan_id":"cebpf4jnsgd1na2vs0mg"},{"bike_id":"0040c17c-e92e-44b5-a6fb-3621bcac561f","system_id":"levelo_inurba_marseille","lat":43.27075,"lon":5.4228,"is_reserved":false,"is_disabled":false,"rental_uris":{"android":"levelo://app?vid=0040c17c-e92e-44b5-a6fb-3621bcac561f","ios":"levelo://app?vid=0040c17c-e92e-44b5-a6fb-3621bcac561f"},"vehicle_type_id":"4","last_reported":1735380480,"current_range_meters":26800,"station_id":"ce4bhk92rcd13ifvqgb0","pricing_plan_id":"cebpf4jnsgd1na2vs0mg"},{"bike_id":"705ab4c6-e818-4d06-b513-caca4e703da9","system_id":"levelo_inurba_marseille","lat":43.3065,"lon":5.40069,"is_reserved":false,"is_disabled":false,"rental_uris":{"android":"levelo://app?vid=705ab4c6-e818-4d06-b513-caca4e703da9","ios":"levelo://app?vid=705ab4c6-e818-4d06-b513-caca4e703da9"},"vehicle_type_id":"4","last_reported":1735380480,"current_range_meters":38800,"station_id":"ce4bh112rcd13ifvqda0","pricing_plan_id":"cebpf4jnsgd1na2vs0mg"},{"bike_id":"ca385147-3dd1-4a2f-a785-f231a2c009d8","system_id":"levelo_inurba_marseille","lat":43.30543,"lon":5.36529,"is_reserved":false,"is_disabled":false,"rental_uris":{"android":"levelo://app?vid=ca385147-3dd1-4a2f-a785-f231a2c009d8","ios":"levelo://app?vid=ca385147-3dd1-4a2f-a785-f231a2c009d8"},"vehicle_type_id":"4","last_reported":1735380480,"current_range_meters":38800,"station_id":"ce4bgs12rcd13ifvqcag","pricing_plan_id":"cebpf4jnsgd1na2vs0mg"},{"bike_id":"416ab53b-279a-422e-99c8-cc6e97f84422","system_id":"levelo_inurba_marseille","lat":43.2957,"lon":5.37499,"is_reserved":false,"is_disabled":false,"rental_uris":{"android":"levelo://app?vid=416ab53b-279a-422e-99c8-cc6e97f84422","ios":"levelo://app?vid=416ab53b-279a-422e-99c8-cc6e97f84422"},"vehicle_type_id":"4","last_reported":1735380480,"current_range_meters":38400,"station_id":"ce4bgh92rcd13ifvqb50","pricing_plan_id":"cebpf4jnsgd1na2vs0mg"},{"bike_id":"9abd8a5d-5472-480b-98a2-09e9d24f416d","system_id":"levelo_inurba_marseille","lat":43.2834,"lon":5.38101,"is_reserved":false,"is_disabled":false,"rental_uris":{"android":"levelo://app?vid=9abd8a5d-5472-480b-98a2-09e9d24f416d","ios":"levelo://app?vid=9abd8a5d-5472-480b-98a2-09e9d24f416d"},"vehicle_type_id":"4","last_reported":1735380480,"current_range_meters":31200,"station_id":"ce4bh412rcd13ifvqdr0","pricing_plan_id":"cebpf4jnsgd1na2vs0mg"},{"bike_id":"9729fc41-f9c3-49f6-b29a-3e005f0daeb5","system_id":"levelo_inurba_marseille","lat":43.23059,"lon":5.35491,"is_reserved":false,"is_disabled":false,"rental_uris":{"android":"levelo://app?vid=9729fc41-f9c3-49f6-b29a-3e005f0daeb5","ios":"levelo://app?vid=9729fc41-f9c3-49f6-b29a-3e005f0daeb5"},"vehicle_type_id":"4","last_reported":1735380480,"current_range_meters":16800,"station_id":"","pricing_plan_id":"cebpf4jnsgd1na2vs0mg"},{"bike_id":"01db7d1c-3388-47d9-8d30-2ae8980fde05","system_id":"levelo_inurba_marseille","lat":43.29612,"lon":5.37721,"is_reserved":false,"is_disabled":false,"rental_uris":{"android":"levelo://app?vid=01db7d1c-3388-47d9-8d30-2ae8980fde05","ios":"levelo://app?vid=01db7d1c-3388-47d9-8d30-2ae8980fde05"},"vehicle_type_id":"4","last_reported":1735380480,"current_range_meters":25600,"station_id":"ce4bgi92rcd13ifvqb90","pricing_plan_id":"cebpf4jnsgd1na2vs0mg"},{"bike_id":"356fd92d-e963-40e6-b40e-58fc72ac9553","system_id":"levelo_inurba_marseille","lat":43.32104,"lon":5.36779,"is_reserved":false,"is_disabled":false,"rental_uris":{"android":"levelo://app?vid=356fd92d-e963-40e6-b40e-58fc72ac9553","ios":"levelo://app?vid=356fd92d-e963-40e6-b40e-58fc72ac9553"},"vehicle_type_id":"4","last_reported":1735380480,"current_range_meters":14800,"station_id":"ce4bhrh2rcd13ifvqhug","pricing_plan_id":"cebpf4jnsgd1na2vs0mg"},{"bike_id":"b9946797-e770-48ac-9bc5-6937e6a4e5a7","system_id":"levelo_inurba_marseille","lat":43.25498,"lon":5.37653,"is_reserved":false,"is_disabled":false,"rental_uris":{"android":"levelo://app?vid=b9946797-e770-48ac-9bc5-6937e6a4e5a7","ios":"levelo://app?vid=b9946797-e770-48ac-9bc5-6937e6a4e5a7"},"vehicle_type_id":"4","last_reported":1735380480,"current_range_meters":27600,"station_id":"ce4bhh12rcd13ifvqff0","pricing_plan_id":"cebpf4jnsgd1na2vs0mg"},{"bike_id":"90c942c7-cc9f-4ca0-a4bf-cccb4ac71e6f","system_id":"levelo_inurba_marseille","lat":43.25721,"lon":5.41124,"is_reserved":false,"is_disabled":false,"rental_uris":{"android":"levelo://app?vid=90c942c7-cc9f-4ca0-a4bf-cccb4ac71e6f","ios":"levelo://app?vid=90c942c7-cc9f-4ca0-a4bf-cccb4ac71e6f"},"vehicle_type_id":"4","last_reported":1735380480,"current_range_meters":34800,"station_id":"ce4bhkp2rcd13ifvqgd0","pricing_plan_id":"cebpf4jnsgd1na2vs0mg"},{"bike_id":"90ed6077-bca5-4c05-9b40-989d297f4346","system_id":"levelo_inurba_marseille","lat":43.29902,"lon":5.39748,"is_reserved":false,"is_disabled":false,"rental_uris":{"android":"levelo://app?vid=90ed6077-bca5-4c05-9b40-989d297f4346","ios":"levelo://app?vid=90ed6077-bca5-4c05-9b40-989d297f4346"},"vehicle_type_id":"4","last_reported":1735380480,"current_range_meters":38800,"station_id":"ce4bh0h2rcd13ifvqd50","pricing_plan_id":"cebpf4jnsgd1na2vs0mg"},{"bike_id":"1a5fe85f-21f2-4c67-968f-111947a6581f","system_id":"levelo_inurba_marseille","lat":43.30658,"lon":5.40103,"is_reserved":false,"is_disabled":false,"rental_uris":{"android":"levelo://app?vid=1a5fe85f-21f2-4c67-968f-111947a6581f","ios":"levelo://app?vid=1a5fe85f-21f2-4c67-968f-111947a6581f"},"vehicle_type_id":"4","last_reported":1735380480,"current_range_meters":36800,"station_id":"ce4bh112rcd13ifvqda0","pricing_plan_id":"cebpf4jnsgd1na2vs0mg"},{"bike_id":"f8497df0-4557-47bc-9ea4-d8ec8afe7f62","system_id":"levelo_inurba_marseille","lat":43.29535,"lon":5.37501,"is_reserved":false,"is_disabled":false,"rental_uris":{"android":"levelo://app?vid=f8497df0-4557-47bc-9ea4-d8ec8afe7f62","ios":"levelo://app?vid=f8497df0-4557-47bc-9ea4-d8ec8afe7f62"},"vehicle_type_id":"4","last_reported":1735380480,"current_range_meters":36400,"station_id":"ce4bgkp2rcd13ifvqbmg","pricing_plan_id":"cebpf4jnsgd1na2vs0mg"},{"bike_id":"8246244d-f12e-47a6-bc07-df0733439242","system_id":"levelo_inurba_marseille","lat":43.3169,"lon":5.40474,"is_reserved":false,"is_disabled":false,"rental_uris":{"android":"levelo://app?vid=8246244d-f12e-47a6-bc07-df0733439242","ios":"levelo://app?vid=8246244d-f12e-47a6-bc07-df0733439242"},"vehicle_type_id":"4","last_reported":1735380480,"current_range_meters":10800,"station_id":"ce4bh012rcd13ifvqd00","pricing_plan_id":"cebpf4jnsgd1na2vs0mg"},{"bike_id":"564ebe9f-cc62-463d-b471-293ffba3fd5b","system_id":"levelo_inurba_marseille","lat":43.31327,"lon":5.39694,"is_reserved":false,"is_disabled":false,"rental_uris":{"android":"levelo://app?vid=564ebe9f-cc62-463d-b471-293ffba3fd5b","ios":"levelo://app?vid=564ebe9f-cc62-463d-b471-293ffba3fd5b"},"vehicle_type_id":"4","last_reported":1735380480,"current_range_meters":17200,"station_id":"ce4bgvp2rcd13ifvqcu0","pricing_plan_id":"cebpf4jnsgd1na2vs0mg"},{"bike_id":"673ed0fe-3027-4e1f-9efc-2804b0e32190","system_id":"levelo_inurba_marseille","lat":43.26688,"lon":5.38272,"is_reserved":false,"is_disabled":false,"rental_uris":{"android":"levelo://app?vid=673ed0fe-3027-4e1f-9efc-2804b0e32190","ios":"levelo://app?vid=673ed0fe-3027-4e1f-9efc-2804b0e32190"},"vehicle_type_id":"4","last_reported":1735380480,"current_range_meters":12800,"station_id":"ce4bhg92rcd13ifvqf90","pricing_plan_id":"cebpf4jnsgd1na2vs0mg"},{"bike_id":"d867ab7d-c5ed-4841-b9e5-8e2221fa856c","system_id":"levelo_inurba_marseille","lat":43.2871,"lon":5.3794,"is_reserved":false,"is_disabled":false,"rental_uris":{"android":"levelo://app?vid=d867ab7d-c5ed-4841-b9e5-8e2221fa856c","ios":"levelo://app?vid=d867ab7d-c5ed-4841-b9e5-8e2221fa856c"},"vehicle_type_id":"4","last_reported":1735380480,"current_range_meters":38800,"station_id":"ce4bh9p2rcd13ifvqec0","pricing_plan_id":"cebpf4jnsgd1na2vs0mg"},{"bike_id":"64cca61c-056e-4ca5-8b1a-6ce986cb0d3d","system_id":"levelo_inurba_marseille","lat":43.29604,"lon":5.37738,"is_reserved":false,"is_disabled":false,"rental_uris":{"android":"levelo://app?vid=64cca61c-056e-4ca5-8b1a-6ce986cb0d3d","ios":"levelo://app?vid=64cca61c-056e-4ca5-8b1a-6ce986cb0d3d"},"vehicle_type_id":"4","last_reported":1735380480,"current_range_meters":37600,"station_id":"ce4bgi92rcd13ifvqb90","pricing_plan_id":"cebpf4jnsgd1na2vs0mg"},{"bike_id":"4edf1a42-d1cb-4e42-a8d9-af12f276347c","system_id":"levelo_inurba_marseille","lat":43.26934,"lon":5.40253,"is_reserved":false,"is_disabled":false,"rental_uris":{"android":"levelo://app?vid=4edf1a42-d1cb-4e42-a8d9-af12f276347c","ios":"levelo://app?vid=4edf1a42-d1cb-4e42-a8d9-af12f276347c"},"vehicle_type_id":"4","last_reported":1735380480,"current_range_meters":38800,"station_id":"cjm6bp8fraef2m0cb0m0","pricing_plan_id":"cebpf4jnsgd1na2vs0mg"},{"bike_id":"e251fbdc-aee1-4174-a904-a67fb7c0b1da","system_id":"levelo_inurba_marseille","lat":43.31754,"lon":5.39026,"is_reserved":false,"is_disabled":false,"rental_uris":{"android":"levelo://app?vid=e251fbdc-aee1-4174-a904-a67fb7c0b1da","ios":"levelo://app?vid=e251fbdc-aee1-4174-a904-a67fb7c0b1da"},"vehicle_type_id":"4","last_reported":1735380480,"current_range_meters":26800,"station_id":"ce4bhqp2rcd13ifvqhng","pricing_plan_id":"cebpf4jnsgd1na2vs0mg"},{"bike_id":"e4c477c2-7de5-4221-8c03-48f7497fb7c9","system_id":"levelo_inurba_marseille","lat":43.30782,"lon":5.37652,"is_reserved":false,"is_disabled":false,"rental_uris":{"android":"levelo://app?vid=e4c477c2-7de5-4221-8c03-48f7497fb7c9","ios":"levelo://app?vid=e4c477c2-7de5-4221-8c03-48f7497fb7c9"},"vehicle_type_id":"4","last_reported":1735380480,"current_range_meters":38800,"station_id":"ce4bgv92rcd13ifvqcq0","pricing_plan_id":"cebpf4jnsgd1na2vs0mg"},{"bike_id":"042d605d-9530-43c5-a439-7b5f91963fd3","system_id":"levelo_inurba_marseille","lat":43.31486,"lon":5.37309,"is_reserved":false,"is_disabled":false,"rental_uris":{"android":"levelo://app?vid=042d605d-9530-43c5-a439-7b5f91963fd3","ios":"levelo://app?vid=042d605d-9530-43c5-a439-7b5f91963fd3"},"vehicle_type_id":"4","last_reported":1735380480,"current_range_meters":38800,"station_id":"ce4bgt12rcd13ifvqcd0","pricing_plan_id":"cebpf4jnsgd1na2vs0mg"},{"bike_id":"182697cb-2219-4e08-8291-846687f91a97","system_id":"levelo_inurba_marseille","lat":43.28156,"lon":5.4264,"is_reserved":false,"is_disabled":false,"rental_uris":{"android":"levelo://app?vid=182697cb-2219-4e08-8291-846687f91a97","ios":"levelo://app?vid=182697cb-2219-4e08-8291-846687f91a97"},"vehicle_type_id":"4","last_reported":1735380480,"current_range_meters":7200,"station_id":"ce4bhnh2rcd13ifvqgug","pricing_plan_id":"cebpf4jnsgd1na2vs0mg"},{"bike_id":"0e2e2a21-ac7e-4ad7-a25e-487c50aecf5f","system_id":"levelo_inurba_marseille","lat":43.29193,"lon":5.35825,"is_reserved":false,"is_disabled":false,"rental_uris":{"android":"levelo://app?vid=0e2e2a21-ac7e-4ad7-a25e-487c50aecf5f","ios":"levelo://app?vid=0e2e2a21-ac7e-4ad7-a25e-487c50aecf5f"},"vehicle_type_id":"4","last_reported":1735380480,"current_range_meters":38800,"station_id":"ce4bhb12rcd13ifvqel0","pricing_plan_id":"cebpf4jnsgd1na2vs0mg"},{"bike_id":"e07f17cb-27ad-4f87-ba7c-7a4bd3b83819","system_id":"levelo_inurba_marseille","lat":43.32483,"lon":5.36566,"is_reserved":false,"is_disabled":false,"rental_uris":{"android":"levelo://app?vid=e07f17cb-27ad-4f87-ba7c-7a4bd3b83819","ios":"levelo://app?vid=e07f17cb-27ad-4f87-ba7c-7a4bd3b83819"},"vehicle_type_id":"4","last_reported":1735380480,"current_range_meters":39200,"station_id":"ce4bhs12rcd13ifvqhvg","pricing_plan_id":"cebpf4jnsgd1na2vs0mg"},{"bike_id":"aad9bd70-a762-4749-b03b-a3c39a9e6b37","system_id":"levelo_inurba_marseille","lat":43.28356,"lon":5.38632,"is_reserved":false,"is_disabled":false,"rental_uris":{"android":"levelo://app?vid=aad9bd70-a762-4749-b03b-a3c39a9e6b37","ios":"levelo://app?vid=aad9bd70-a762-4749-b03b-a3c39a9e6b37"},"vehicle_type_id":"4","last_reported":1735380480,"current_range_meters":25200,"station_id":"ce4bh492rcd13ifvqdvg","pricing_plan_id":"cebpf4jnsgd1na2vs0mg"},{"bike_id":"40876164-1f31-47f1-8e21-1971d9a0a5c9","system_id":"levelo_inurba_marseille","lat":43.3011,"lon":5.38785,"is_reserved":false,"is_disabled":false,"rental_uris":{"android":"levelo://app?vid=40876164-1f31-47f1-8e21-1971d9a0a5c9","ios":"levelo://app?vid=40876164-1f31-47f1-8e21-1971d9a0a5c9"},"vehicle_type_id":"4","last_reported":1735380480,"current_range_meters":36400,"station_id":"ce4bghh2rcd13ifvqb60","pricing_plan_id":"cebpf4jnsgd1na2vs0mg"},{"bike_id":"f9bf07a3-d52a-4e29-a667-bb52a902ba73","system_id":"levelo_inurba_marseille","lat":43.337444,"lon":5.374475,"is_reserved":false,"is_disabled":true,"rental_uris":{"android":"levelo://app?vid=f9bf07a3-d52a-4e29-a667-bb52a902ba73","ios":"levelo://app?vid=f9bf07a3-d52a-4e29-a667-bb52a902ba73"},"vehicle_type_id":"4","last_reported":1735380480,"current_range_meters":1600,"station_id":"","pricing_plan_id":"cebpf4jnsgd1na2vs0mg"},{"bike_id":"eb63ce81-3003-4598-b9d4-028636a5034e","system_id":"levelo_inurba_marseille","lat":43.32497,"lon":5.36578,"is_reserved":false,"is_disabled":false,"rental_uris":{"android":"levelo://app?vid=eb63ce81-3003-4598-b9d4-028636a5034e","ios":"levelo://app?vid=eb63ce81-3003-4598-b9d4-028636a5034e"},"vehicle_type_id":"4","last_reported":1735380480,"current_range_meters":38800,"station_id":"ce4bhs12rcd13ifvqhvg","pricing_plan_id":"cebpf4jnsgd1na2vs0mg"},{"bike_id":"06238650-178a-4a67-b951-f296ab8fb3da","system_id":"levelo_inurba_marseille","lat":43.30544,"lon":5.36541,"is_reserved":false,"is_disabled":false,"rental_uris":{"android":"levelo://app?vid=06238650-178a-4a67-b951-f296ab8fb3da","ios":"levelo://app?vid=06238650-178a-4a67-b951-f296ab8fb3da"},"vehicle_type_id":"4","last_reported":1735380480,"current_range_meters":18800,"station_id":"ce4bgs12rcd13ifvqcag","pricing_plan_id":"cebpf4jnsgd1na2vs0mg"},{"bike_id":"a6335f21-56b5-487c-8f5d-9e604c9f789a","system_id":"levelo_inurba_marseille","lat":43.29801,"lon":5.40411,"is_reserved":false,"is_disabled":false,"rental_uris":{"android":"levelo://app?vid=a6335f21-56b5-487c-8f5d-9e604c9f789a","ios":"levelo://app?vid=a6335f21-56b5-487c-8f5d-9e604c9f789a"},"vehicle_type_id":"4","last_reported":1735380480,"current_range_meters":28000,"station_id":"ce4bh112rcd13ifvqd90","pricing_plan_id":"cebpf4jnsgd1na2vs0mg"},{"bike_id":"d5ddbfd8-c695-45c7-8f75-3f1b7776c13d","system_id":"levelo_inurba_marseille","lat":43.22927,"lon":5.3538,"is_reserved":false,"is_disabled":false,"rental_uris":{"android":"levelo://app?vid=d5ddbfd8-c695-45c7-8f75-3f1b7776c13d","ios":"levelo://app?vid=d5ddbfd8-c695-45c7-8f75-3f1b7776c13d"},"vehicle_type_id":"4","last_reported":1735380480,"current_range_meters":32000,"station_id":"cpo3532slgdg3j2ikp40","pricing_plan_id":"cebpf4jnsgd1na2vs0mg"},{"bike_id":"eeb0d433-3c14-490c-a1c3-e6268649a012","system_id":"levelo_inurba_marseille","lat":43.27078,"lon":5.42289,"is_reserved":false,"is_disabled":false,"rental_uris":{"android":"levelo://app?vid=eeb0d433-3c14-490c-a1c3-e6268649a012","ios":"levelo://app?vid=eeb0d433-3c14-490c-a1c3-e6268649a012"},"vehicle_type_id":"4","last_reported":1735380480,"current_range_meters":37600,"station_id":"ce4bhk92rcd13ifvqgb0","pricing_plan_id":"cebpf4jnsgd1na2vs0mg"},{"bike_id":"d70dcb5b-d2f2-4557-84d5-2a5a7d33ddb2","system_id":"levelo_inurba_marseille","lat":43.281,"lon":5.37863,"is_reserved":false,"is_disabled":false,"rental_uris":{"android":"levelo://app?vid=d70dcb5b-d2f2-4557-84d5-2a5a7d33ddb2","ios":"levelo://app?vid=d70dcb5b-d2f2-4557-84d5-2a5a7d33ddb2"},"vehicle_type_id":"4","last_reported":1735380480,"current_range_meters":32400,"station_id":"ce4bha12rcd13ifvqee0","pricing_plan_id":"cebpf4jnsgd1na2vs0mg"},{"bike_id":"5477d212-35e2-4622-b27a-bfe5ff434d03","system_id":"levelo_inurba_marseille","lat":43.337603,"lon":5.374424,"is_reserved":false,"is_disabled":false,"rental_uris":{"android":"levelo://app?vid=5477d212-35e2-4622-b27a-bfe5ff434d03","ios":"levelo://app?vid=5477d212-35e2-4622-b27a-bfe5ff434d03"},"vehicle_type_id":"4","last_reported":1735380480,"current_range_meters":25600,"station_id":"","pricing_plan_id":"cebpf4jnsgd1na2vs0mg"},{"bike_id":"cde3f170-06b0-4e91-aa69-fb37991af807","system_id":"levelo_inurba_marseille","lat":43.2868,"lon":5.38675,"is_reserved":false,"is_disabled":false,"rental_uris":{"android":"levelo://app?vid=cde3f170-06b0-4e91-aa69-fb37991af807","ios":"levelo://app?vid=cde3f170-06b0-4e91-aa69-fb37991af807"},"vehicle_type_id":"4","last_reported":1735380480,"current_range_meters":36800,"station_id":"ce4bh492rcd13ifvqdug","pricing_plan_id":"cebpf4jnsgd1na2vs0mg"},{"bike_id":"c052cb3a-1124-4eeb-8c36-3c0ee41619e3","system_id":"levelo_inurba_marseille","lat":43.2942,"lon":5.38616,"is_reserved":false,"is_disabled":false,"rental_uris":{"android":"levelo://app?vid=c052cb3a-1124-4eeb-8c36-3c0ee41619e3","ios":"levelo://app?vid=c052cb3a-1124-4eeb-8c36-3c0ee41619e3"},"vehicle_type_id":"4","last_reported":1735380480,"current_range_meters":37600,"station_id":"ce4bh2h2rcd13ifvqdh0","pricing_plan_id":"cebpf4jnsgd1na2vs0mg"},{"bike_id":"5f51766e-2cc5-4378-a73d-126b72e8ffc6","system_id":"levelo_inurba_marseille","lat":43.29808,"lon":5.40401,"is_reserved":false,"is_disabled":false,"rental_uris":{"android":"levelo://app?vid=5f51766e-2cc5-4378-a73d-126b72e8ffc6","ios":"levelo://app?vid=5f51766e-2cc5-4378-a73d-126b72e8ffc6"},"vehicle_type_id":"4","last_reported":1735380480,"current_range_meters":30000,"station_id":"ce4bh112rcd13ifvqd90","pricing_plan_id":"cebpf4jnsgd1na2vs0mg"},{"bike_id":"32df82ce-6219-4736-8eb8-fc8999cbfd21","system_id":"levelo_inurba_marseille","lat":43.26199,"lon":5.37925,"is_reserved":false,"is_disabled":false,"rental_uris":{"android":"levelo://app?vid=32df82ce-6219-4736-8eb8-fc8999cbfd21","ios":"levelo://app?vid=32df82ce-6219-4736-8eb8-fc8999cbfd21"},"vehicle_type_id":"4","last_reported":1735380480,"current_range_meters":38800,"station_id":"ce4bhjp2rcd13ifvqg90","pricing_plan_id":"cebpf4jnsgd1na2vs0mg"},{"bike_id":"7b4149c7-000d-4a5e-a048-0f208a6d4a0d","system_id":"levelo_inurba_marseille","lat":43.30792,"lon":5.37664,"is_reserved":false,"is_disabled":false,"rental_uris":{"android":"levelo://app?vid=7b4149c7-000d-4a5e-a048-0f208a6d4a0d","ios":"levelo://app?vid=7b4149c7-000d-4a5e-a048-0f208a6d4a0d"},"vehicle_type_id":"4","last_reported":1735380480,"current_range_meters":38800,"station_id":"ce4bgv92rcd13ifvqcq0","pricing_plan_id":"cebpf4jnsgd1na2vs0mg"},{"bike_id":"eba9add4-799e-4920-a21e-dcbe301ffb4e","system_id":"levelo_inurba_marseille","lat":43.26789,"lon":5.39406,"is_reserved":false,"is_disabled":false,"rental_uris":{"android":"levelo://app?vid=eba9add4-799e-4920-a21e-dcbe301ffb4e","ios":"levelo://app?vid=eba9add4-799e-4920-a21e-dcbe301ffb4e"},"vehicle_type_id":"4","last_reported":1735380480,"current_range_meters":38400,"station_id":"ce4bhh12rcd13ifvqfg0","pricing_plan_id":"cebpf4jnsgd1na2vs0mg"},{"bike_id":"3deeb153-8183-495f-a95d-408ac615dcde","system_id":"levelo_inurba_marseille","lat":43.27995,"lon":5.40018,"is_reserved":false,"is_disabled":false,"rental_uris":{"android":"levelo://app?vid=3deeb153-8183-495f-a95d-408ac615dcde","ios":"levelo://app?vid=3deeb153-8183-495f-a95d-408ac615dcde"},"vehicle_type_id":"4","last_reported":1735380480,"current_range_meters":38800,"station_id":"ce4bho92rcd13ifvqh4g","pricing_plan_id":"cebpf4jnsgd1na2vs0mg"},{"bike_id":"0cfb0a3d-0020-4998-ba2e-283f18ea00e9","system_id":"levelo_inurba_marseille","lat":43.30152,"lon":5.3808,"is_reserved":false,"is_disabled":false,"rental_uris":{"android":"levelo://app?vid=0cfb0a3d-0020-4998-ba2e-283f18ea00e9","ios":"levelo://app?vid=0cfb0a3d-0020-4998-ba2e-283f18ea00e9"},"vehicle_type_id":"4","last_reported":1735380480,"current_range_meters":38000,"station_id":"ce4bgjp2rcd13ifvqbh0","pricing_plan_id":"cebpf4jnsgd1na2vs0mg"},{"bike_id":"28bd3904-ffcb-4595-8c51-c947161caafc","system_id":"levelo_inurba_marseille","lat":43.296063,"lon":5.377263,"is_reserved":false,"is_disabled":false,"rental_uris":{"android":"levelo://app?vid=28bd3904-ffcb-4595-8c51-c947161caafc","ios":"levelo://app?vid=28bd3904-ffcb-4595-8c51-c947161caafc"},"vehicle_type_id":"4","last_reported":1735380480,"current_range_meters":16800,"station_id":"ce4bgi92rcd13ifvqb90","pricing_plan_id":"cebpf4jnsgd1na2vs0mg"},{"bike_id":"e82fa968-8cc5-4e9d-9e64-93cbca02a3c9","system_id":"levelo_inurba_marseille","lat":43.29523,"lon":5.375013,"is_reserved":false,"is_disabled":false,"rental_uris":{"android":"levelo://app?vid=e82fa968-8cc5-4e9d-9e64-93cbca02a3c9","ios":"levelo://app?vid=e82fa968-8cc5-4e9d-9e64-93cbca02a3c9"},"vehicle_type_id":"4","last_reported":1735380480,"current_range_meters":12400,"station_id":"ce4bgkp2rcd13ifvqbmg","pricing_plan_id":"cebpf4jnsgd1na2vs0mg"},{"bike_id":"6bd48d81-28e7-45d3-91bb-c861a5a2eba5","system_id":"levelo_inurba_marseille","lat":43.26932,"lon":5.40259,"is_reserved":false,"is_disabled":false,"rental_uris":{"android":"levelo://app?vid=6bd48d81-28e7-45d3-91bb-c861a5a2eba5","ios":"levelo://app?vid=6bd48d81-28e7-45d3-91bb-c861a5a2eba5"},"vehicle_type_id":"4","last_reported":1735380480,"current_range_meters":38800,"station_id":"cjm6bp8fraef2m0cb0m0","pricing_plan_id":"cebpf4jnsgd1na2vs0mg"},{"bike_id":"b2e37cc1-7364-4c55-9759-6c6ef55d37c3","system_id":"levelo_inurba_marseille","lat":43.30597,"lon":5.37224,"is_reserved":false,"is_disabled":false,"rental_uris":{"android":"levelo://app?vid=b2e37cc1-7364-4c55-9759-6c6ef55d37c3","ios":"levelo://app?vid=b2e37cc1-7364-4c55-9759-6c6ef55d37c3"},"vehicle_type_id":"4","last_reported":1735380480,"current_range_meters":38400,"station_id":"ce4bgqh2rcd13ifvqc4g","pricing_plan_id":"cebpf4jnsgd1na2vs0mg"},{"bike_id":"27001726-4b0a-4ba0-8261-5a303bdee373","system_id":"levelo_inurba_marseille","lat":43.27569,"lon":5.38399,"is_reserved":false,"is_disabled":false,"rental_uris":{"android":"levelo://app?vid=27001726-4b0a-4ba0-8261-5a303bdee373","ios":"levelo://app?vid=27001726-4b0a-4ba0-8261-5a303bdee373"},"vehicle_type_id":"4","last_reported":1735380480,"current_range_meters":39200,"station_id":"ce4bhh92rcd13ifvqfi0","pricing_plan_id":"cebpf4jnsgd1na2vs0mg"},{"bike_id":"421c6551-132c-4015-aab8-f2eccc5315e9","system_id":"levelo_inurba_marseille","lat":43.30121,"lon":5.39215,"is_reserved":false,"is_disabled":false,"rental_uris":{"android":"levelo://app?vid=421c6551-132c-4015-aab8-f2eccc5315e9","ios":"levelo://app?vid=421c6551-132c-4015-aab8-f2eccc5315e9"},"vehicle_type_id":"4","last_reported":1735380480,"current_range_meters":36400,"station_id":"ce4bh192rcd13ifvqdb0","pricing_plan_id":"cebpf4jnsgd1na2vs0mg"},{"bike_id":"eb012e81-1257-4cc7-b165-96cce61ecb90","system_id":"levelo_inurba_marseille","lat":43.30428,"lon":5.3975,"is_reserved":false,"is_disabled":false,"rental_uris":{"android":"levelo://app?vid=eb012e81-1257-4cc7-b165-96cce61ecb90","ios":"levelo://app?vid=eb012e81-1257-4cc7-b165-96cce61ecb90"},"vehicle_type_id":"4","last_reported":1735380480,"current_range_meters":38800,"station_id":"ce4bh092rcd13ifvqd20","pricing_plan_id":"cebpf4jnsgd1na2vs0mg"},{"bike_id":"47003c16-5788-487c-a470-e96e4f20143d","system_id":"levelo_inurba_marseille","lat":43.30095,"lon":5.39078,"is_reserved":false,"is_disabled":false,"rental_uris":{"android":"levelo://app?vid=47003c16-5788-487c-a470-e96e4f20143d","ios":"levelo://app?vid=47003c16-5788-487c-a470-e96e4f20143d"},"vehicle_type_id":"4","last_reported":1735380480,"current_range_meters":19200,"station_id":"ce4bh192rcd13ifvqdb0","pricing_plan_id":"cebpf4jnsgd1na2vs0mg"},{"bike_id":"d7294cd5-2623-434f-b244-c391219a24d9","system_id":"levelo_inurba_marseille","lat":43.30542,"lon":5.36694,"is_reserved":false,"is_disabled":false,"rental_uris":{"android":"levelo://app?vid=d7294cd5-2623-434f-b244-c391219a24d9","ios":"levelo://app?vid=d7294cd5-2623-434f-b244-c391219a24d9"},"vehicle_type_id":"4","last_reported":1735380480,"current_range_meters":28000,"station_id":"ce4bgrp2rcd13ifvqc9g","pricing_plan_id":"cebpf4jnsgd1na2vs0mg"},{"bike_id":"9b033979-22fb-4fbe-862b-12b59af70025","system_id":"levelo_inurba_marseille","lat":43.23057,"lon":5.35497,"is_reserved":false,"is_disabled":false,"rental_uris":{"android":"levelo://app?vid=9b033979-22fb-4fbe-862b-12b59af70025","ios":"levelo://app?vid=9b033979-22fb-4fbe-862b-12b59af70025"},"vehicle_type_id":"4","last_reported":1735380480,"current_range_meters":26000,"station_id":"cpo3342slgdg3j2ifvpg","pricing_plan_id":"cebpf4jnsgd1na2vs0mg"},{"bike_id":"7ed14772-43fd-4e91-9682-602d4d8bddbc","system_id":"levelo_inurba_marseille","lat":43.2465,"lon":5.38899,"is_reserved":false,"is_disabled":false,"rental_uris":{"android":"levelo://app?vid=7ed14772-43fd-4e91-9682-602d4d8bddbc","ios":"levelo://app?vid=7ed14772-43fd-4e91-9682-602d4d8bddbc"},"vehicle_type_id":"4","last_reported":1735380480,"current_range_meters":38800,"station_id":"ce4bhg12rcd13ifvqf60","pricing_plan_id":"cebpf4jnsgd1na2vs0mg"},{"bike_id":"3fd0ce8b-62e5-482c-86d5-ed88c92ffef8","system_id":"levelo_inurba_marseille","lat":43.27466,"lon":5.39447,"is_reserved":false,"is_disabled":false,"rental_uris":{"android":"levelo://app?vid=3fd0ce8b-62e5-482c-86d5-ed88c92ffef8","ios":"levelo://app?vid=3fd0ce8b-62e5-482c-86d5-ed88c92ffef8"},"vehicle_type_id":"4","last_reported":1735380480,"current_range_meters":12400,"station_id":"","pricing_plan_id":"cebpf4jnsgd1na2vs0mg"},{"bike_id":"c9e5d6c6-5601-4769-be5c-20fef93ca121","system_id":"levelo_inurba_marseille","lat":43.24164,"lon":5.36392,"is_reserved":false,"is_disabled":false,"rental_uris":{"android":"levelo://app?vid=c9e5d6c6-5601-4769-be5c-20fef93ca121","ios":"levelo://app?vid=c9e5d6c6-5601-4769-be5c-20fef93ca121"},"vehicle_type_id":"4","last_reported":1735380480,"current_range_meters":17600,"station_id":"cpo36qri1sfpv3e86is0","pricing_plan_id":"cebpf4jnsgd1na2vs0mg"},{"bike_id":"e23a7d55-7ce1-4f20-a71a-26c06c907d82","system_id":"levelo_inurba_marseille","lat":43.27955,"lon":5.41047,"is_reserved":false,"is_disabled":false,"rental_uris":{"android":"levelo://app?vid=e23a7d55-7ce1-4f20-a71a-26c06c907d82","ios":"levelo://app?vid=e23a7d55-7ce1-4f20-a71a-26c06c907d82"},"vehicle_type_id":"4","last_reported":1735380480,"current_range_meters":36400,"station_id":"ce4bhnp2rcd13ifvqh0g","pricing_plan_id":"cebpf4jnsgd1na2vs0mg"},{"bike_id":"88d25dc6-77d7-4a14-94e3-b489df5b3b63","system_id":"levelo_inurba_marseille","lat":43.32476,"lon":5.36561,"is_reserved":false,"is_disabled":false,"rental_uris":{"android":"levelo://app?vid=88d25dc6-77d7-4a14-94e3-b489df5b3b63","ios":"levelo://app?vid=88d25dc6-77d7-4a14-94e3-b489df5b3b63"},"vehicle_type_id":"4","last_reported":1735380480,"current_range_meters":38800,"station_id":"ce4bhs12rcd13ifvqhvg","pricing_plan_id":"cebpf4jnsgd1na2vs0mg"},{"bike_id":"8dc0edca-2d83-43db-b2b6-d78e1244e192","system_id":"levelo_inurba_marseille","lat":43.23055,"lon":5.3552,"is_reserved":false,"is_disabled":false,"rental_uris":{"android":"levelo://app?vid=8dc0edca-2d83-43db-b2b6-d78e1244e192","ios":"levelo://app?vid=8dc0edca-2d83-43db-b2b6-d78e1244e192"},"vehicle_type_id":"4","last_reported":1735380480,"current_range_meters":4400,"station_id":"cpo3342slgdg3j2ifvpg","pricing_plan_id":"cebpf4jnsgd1na2vs0mg"},{"bike_id":"dfb909f2-5c0f-4071-9b17-30c3c9747e7e","system_id":"levelo_inurba_marseille","lat":43.29415,"lon":5.3863,"is_reserved":false,"is_disabled":false,"rental_uris":{"android":"levelo://app?vid=dfb909f2-5c0f-4071-9b17-30c3c9747e7e","ios":"levelo://app?vid=dfb909f2-5c0f-4071-9b17-30c3c9747e7e"},"vehicle_type_id":"4","last_reported":1735380480,"current_range_meters":34000,"station_id":"ce4bh2h2rcd13ifvqdh0","pricing_plan_id":"cebpf4jnsgd1na2vs0mg"},{"bike_id":"45fa6a31-9acd-4c82-95a3-046d48a01d71","system_id":"levelo_inurba_marseille","lat":43.30546,"lon":5.38423,"is_reserved":false,"is_disabled":false,"rental_uris":{"android":"levelo://app?vid=45fa6a31-9acd-4c82-95a3-046d48a01d71","ios":"levelo://app?vid=45fa6a31-9acd-4c82-95a3-046d48a01d71"},"vehicle_type_id":"4","last_reported":1735380480,"current_range_meters":37600,"station_id":"ce4bgg92rcd13ifvqb30","pricing_plan_id":"cebpf4jnsgd1na2vs0mg"},{"bike_id":"f83dded0-e4d8-47a4-8324-7d51c5d0e918","system_id":"levelo_inurba_marseille","lat":43.30155,"lon":5.38082,"is_reserved":false,"is_disabled":false,"rental_uris":{"android":"levelo://app?vid=f83dded0-e4d8-47a4-8324-7d51c5d0e918","ios":"levelo://app?vid=f83dded0-e4d8-47a4-8324-7d51c5d0e918"},"vehicle_type_id":"4","last_reported":1735380480,"current_range_meters":36000,"station_id":"ce4bgjp2rcd13ifvqbh0","pricing_plan_id":"cebpf4jnsgd1na2vs0mg"},{"bike_id":"fbec4ea5-65d3-402f-907b-b448d00dedaa","system_id":"levelo_inurba_marseille","lat":43.26205,"lon":5.37921,"is_reserved":false,"is_disabled":false,"rental_uris":{"android":"levelo://app?vid=fbec4ea5-65d3-402f-907b-b448d00dedaa","ios":"levelo://app?vid=fbec4ea5-65d3-402f-907b-b448d00dedaa"},"vehicle_type_id":"4","last_reported":1735380480,"current_range_meters":9200,"station_id":"ce4bhjp2rcd13ifvqg90","pricing_plan_id":"cebpf4jnsgd1na2vs0mg"},{"bike_id":"0282327f-22ca-4ab3-896f-e9875e096199","system_id":"levelo_inurba_marseille","lat":43.337444,"lon":5.374475,"is_reserved":false,"is_disabled":false,"rental_uris":{"android":"levelo://app?vid=0282327f-22ca-4ab3-896f-e9875e096199","ios":"levelo://app?vid=0282327f-22ca-4ab3-896f-e9875e096199"},"vehicle_type_id":"4","last_reported":1735380480,"current_range_meters":16800,"station_id":"ce4bh392rcd13ifvqdl0","pricing_plan_id":"cebpf4jnsgd1na2vs0mg"},{"bike_id":"f43c87b6-2547-48c1-af12-db33128b32ff","system_id":"levelo_inurba_marseille","lat":43.28482,"lon":5.38435,"is_reserved":false,"is_disabled":false,"rental_uris":{"android":"levelo://app?vid=f43c87b6-2547-48c1-af12-db33128b32ff","ios":"levelo://app?vid=f43c87b6-2547-48c1-af12-db33128b32ff"},"vehicle_type_id":"4","last_reported":1735380480,"current_range_meters":38000,"station_id":"ce4bh512rcd13ifvqe3g","pricing_plan_id":"cebpf4jnsgd1na2vs0mg"},{"bike_id":"c92c3beb-7f31-4d47-b88d-fecb5e9a50ef","system_id":"levelo_inurba_marseille","lat":43.29193,"lon":5.39308,"is_reserved":false,"is_disabled":true,"rental_uris":{"android":"levelo://app?vid=c92c3beb-7f31-4d47-b88d-fecb5e9a50ef","ios":"levelo://app?vid=c92c3beb-7f31-4d47-b88d-fecb5e9a50ef"},"vehicle_type_id":"4","last_reported":1735380480,"current_range_meters":38400,"station_id":"ce4bh192rcd13ifvqdd0","pricing_plan_id":"cebpf4jnsgd1na2vs0mg"},{"bike_id":"06a35bc6-b0d2-4c4a-8ac7-010edbf416d1","system_id":"levelo_inurba_marseille","lat":43.29561,"lon":5.37509,"is_reserved":false,"is_disabled":false,"rental_uris":{"android":"levelo://app?vid=06a35bc6-b0d2-4c4a-8ac7-010edbf416d1","ios":"levelo://app?vid=06a35bc6-b0d2-4c4a-8ac7-010edbf416d1"},"vehicle_type_id":"4","last_reported":1735380480,"current_range_meters":30800,"station_id":"ce4bgh92rcd13ifvqb50","pricing_plan_id":"cebpf4jnsgd1na2vs0mg"},{"bike_id":"11457fd4-5865-44cb-a2d7-db003eb4a3e4","system_id":"levelo_inurba_marseille","lat":43.29026,"lon":5.38187,"is_reserved":false,"is_disabled":false,"rental_uris":{"android":"levelo://app?vid=11457fd4-5865-44cb-a2d7-db003eb4a3e4","ios":"levelo://app?vid=11457fd4-5865-44cb-a2d7-db003eb4a3e4"},"vehicle_type_id":"4","last_reported":1735380480,"current_range_meters":37600,"station_id":"","pricing_plan_id":"cebpf4jnsgd1na2vs0mg"},{"bike_id":"eadabbdf-f27e-4542-81b8-57f38bbe0912","system_id":"levelo_inurba_marseille","lat":43.28473,"lon":5.38435,"is_reserved":false,"is_disabled":false,"rental_uris":{"android":"levelo://app?vid=eadabbdf-f27e-4542-81b8-57f38bbe0912","ios":"levelo://app?vid=eadabbdf-f27e-4542-81b8-57f38bbe0912"},"vehicle_type_id":"4","last_reported":1735380480,"current_range_meters":12400,"station_id":"ce4bh512rcd13ifvqe3g","pricing_plan_id":"cebpf4jnsgd1na2vs0mg"},{"bike_id":"deb74dd6-caed-4958-9dd1-d5f6f39c849d","system_id":"levelo_inurba_marseille","lat":43.29843,"lon":5.36288,"is_reserved":false,"is_disabled":false,"rental_uris":{"android":"levelo://app?vid=deb74dd6-caed-4958-9dd1-d5f6f39c849d","ios":"levelo://app?vid=deb74dd6-caed-4958-9dd1-d5f6f39c849d"},"vehicle_type_id":"4","last_reported":1735380480,"current_range_meters":26000,"station_id":"ce4bgpp2rcd13ifvqc3g","pricing_plan_id":"cebpf4jnsgd1na2vs0mg"},{"bike_id":"454f6085-f0b8-4af4-9885-84c48ec17630","system_id":"levelo_inurba_marseille","lat":43.30155,"lon":5.38084,"is_reserved":false,"is_disabled":false,"rental_uris":{"android":"levelo://app?vid=454f6085-f0b8-4af4-9885-84c48ec17630","ios":"levelo://app?vid=454f6085-f0b8-4af4-9885-84c48ec17630"},"vehicle_type_id":"4","last_reported":1735380480,"current_range_meters":25200,"station_id":"ce4bgjp2rcd13ifvqbh0","pricing_plan_id":"cebpf4jnsgd1na2vs0mg"},{"bike_id":"0869301a-63d0-4228-8b67-c47ca7686146","system_id":"levelo_inurba_marseille","lat":43.29872,"lon":5.39724,"is_reserved":false,"is_disabled":false,"rental_uris":{"android":"levelo://app?vid=0869301a-63d0-4228-8b67-c47ca7686146","ios":"levelo://app?vid=0869301a-63d0-4228-8b67-c47ca7686146"},"vehicle_type_id":"4","last_reported":1735380480,"current_range_meters":32400,"station_id":"ce4bh0h2rcd13ifvqd50","pricing_plan_id":"cebpf4jnsgd1na2vs0mg"},{"bike_id":"8f632681-d8f1-48b9-b4cc-6844d3e8e880","system_id":"levelo_inurba_marseille","lat":43.29367,"lon":5.37857,"is_reserved":false,"is_disabled":false,"rental_uris":{"android":"levelo://app?vid=8f632681-d8f1-48b9-b4cc-6844d3e8e880","ios":"levelo://app?vid=8f632681-d8f1-48b9-b4cc-6844d3e8e880"},"vehicle_type_id":"4","last_reported":1735380480,"current_range_meters":34800,"station_id":"ce4bgjh2rcd13ifvqbf0","pricing_plan_id":"cebpf4jnsgd1na2vs0mg"},{"bike_id":"16d30438-d609-4c9b-be36-cc109ff785a9","system_id":"levelo_inurba_marseille","lat":43.29807,"lon":5.40411,"is_reserved":false,"is_disabled":false,"rental_uris":{"android":"levelo://app?vid=16d30438-d609-4c9b-be36-cc109ff785a9","ios":"levelo://app?vid=16d30438-d609-4c9b-be36-cc109ff785a9"},"vehicle_type_id":"4","last_reported":1735380480,"current_range_meters":24400,"station_id":"ce4bh112rcd13ifvqd90","pricing_plan_id":"cebpf4jnsgd1na2vs0mg"},{"bike_id":"293671a8-67e1-4d08-a7c6-ed1760e6dded","system_id":"levelo_inurba_marseille","lat":43.31759,"lon":5.39006,"is_reserved":false,"is_disabled":false,"rental_uris":{"android":"levelo://app?vid=293671a8-67e1-4d08-a7c6-ed1760e6dded","ios":"levelo://app?vid=293671a8-67e1-4d08-a7c6-ed1760e6dded"},"vehicle_type_id":"4","last_reported":1735380480,"current_range_meters":36400,"station_id":"ce4bhqp2rcd13ifvqhng","pricing_plan_id":"cebpf4jnsgd1na2vs0mg"},{"bike_id":"b23c0590-ef54-41cd-8583-62a444448403","system_id":"levelo_inurba_marseille","lat":43.29846,"lon":5.36292,"is_reserved":false,"is_disabled":false,"rental_uris":{"android":"levelo://app?vid=b23c0590-ef54-41cd-8583-62a444448403","ios":"levelo://app?vid=b23c0590-ef54-41cd-8583-62a444448403"},"vehicle_type_id":"4","last_reported":1735380480,"current_range_meters":36000,"station_id":"ce4bgpp2rcd13ifvqc3g","pricing_plan_id":"cebpf4jnsgd1na2vs0mg"},{"bike_id":"dac94ecf-3203-4c89-acc0-21c14e979588","system_id":"levelo_inurba_marseille","lat":43.26705,"lon":5.3827,"is_reserved":false,"is_disabled":false,"rental_uris":{"android":"levelo://app?vid=dac94ecf-3203-4c89-acc0-21c14e979588","ios":"levelo://app?vid=dac94ecf-3203-4c89-acc0-21c14e979588"},"vehicle_type_id":"4","last_reported":1735380480,"current_range_meters":32400,"station_id":"ce4bhg92rcd13ifvqf90","pricing_plan_id":"cebpf4jnsgd1na2vs0mg"},{"bike_id":"5b76156a-6f6c-44d7-995b-e9bf8f68ae0c","system_id":"levelo_inurba_marseille","lat":43.28871,"lon":5.35853,"is_reserved":false,"is_disabled":false,"rental_uris":{"android":"levelo://app?vid=5b76156a-6f6c-44d7-995b-e9bf8f68ae0c","ios":"levelo://app?vid=5b76156a-6f6c-44d7-995b-e9bf8f68ae0c"},"vehicle_type_id":"4","last_reported":1735380480,"current_range_meters":38400,"station_id":"ce4bhb12rcd13ifvqem0","pricing_plan_id":"cebpf4jnsgd1na2vs0mg"},{"bike_id":"55494904-e217-47ec-bee4-0b332cb794ee","system_id":"levelo_inurba_marseille","lat":43.30673,"lon":5.40077,"is_reserved":false,"is_disabled":false,"rental_uris":{"android":"levelo://app?vid=55494904-e217-47ec-bee4-0b332cb794ee","ios":"levelo://app?vid=55494904-e217-47ec-bee4-0b332cb794ee"},"vehicle_type_id":"4","last_reported":1735380480,"current_range_meters":17200,"station_id":"ce4bh112rcd13ifvqda0","pricing_plan_id":"cebpf4jnsgd1na2vs0mg"},{"bike_id":"d787e330-e288-4e1c-926a-5bcb7a236ca2","system_id":"levelo_inurba_marseille","lat":43.28149,"lon":5.42636,"is_reserved":false,"is_disabled":false,"rental_uris":{"android":"levelo://app?vid=d787e330-e288-4e1c-926a-5bcb7a236ca2","ios":"levelo://app?vid=d787e330-e288-4e1c-926a-5bcb7a236ca2"},"vehicle_type_id":"4","last_reported":1735380480,"current_range_meters":28800,"station_id":"ce4bhnh2rcd13ifvqgug","pricing_plan_id":"cebpf4jnsgd1na2vs0mg"},{"bike_id":"2ae705de-6574-464b-ab9f-3d33c1b2a845","system_id":"levelo_inurba_marseille","lat":43.25864,"lon":5.39907,"is_reserved":false,"is_disabled":false,"rental_uris":{"android":"levelo://app?vid=2ae705de-6574-464b-ab9f-3d33c1b2a845","ios":"levelo://app?vid=2ae705de-6574-464b-ab9f-3d33c1b2a845"},"vehicle_type_id":"4","last_reported":1735380480,"current_range_meters":38800,"station_id":"ce4bhl92rcd13ifvqghg","pricing_plan_id":"cebpf4jnsgd1na2vs0mg"},{"bike_id":"9f14593c-6bea-4127-b1fc-c4fadd694d26","system_id":"levelo_inurba_marseille","lat":43.27679,"lon":5.38891,"is_reserved":false,"is_disabled":false,"rental_uris":{"android":"levelo://app?vid=9f14593c-6bea-4127-b1fc-c4fadd694d26","ios":"levelo://app?vid=9f14593c-6bea-4127-b1fc-c4fadd694d26"},"vehicle_type_id":"4","last_reported":1735380480,"current_range_meters":24800,"station_id":"ce4bhi12rcd13ifvqfo0","pricing_plan_id":"cebpf4jnsgd1na2vs0mg"},{"bike_id":"23d9ec8f-d502-4410-9f7a-9706a61157b8","system_id":"levelo_inurba_marseille","lat":43.27615,"lon":5.36107,"is_reserved":false,"is_disabled":false,"rental_uris":{"android":"levelo://app?vid=23d9ec8f-d502-4410-9f7a-9706a61157b8","ios":"levelo://app?vid=23d9ec8f-d502-4410-9f7a-9706a61157b8"},"vehicle_type_id":"4","last_reported":1735380480,"current_range_meters":38800,"station_id":"ce4bgj92rcd13ifvqbe0","pricing_plan_id":"cebpf4jnsgd1na2vs0mg"},{"bike_id":"3b24b85c-1c04-4fb2-a570-991764c32677","system_id":"levelo_inurba_marseille","lat":43.28457,"lon":5.35886,"is_reserved":false,"is_disabled":false,"rental_uris":{"android":"levelo://app?vid=3b24b85c-1c04-4fb2-a570-991764c32677","ios":"levelo://app?vid=3b24b85c-1c04-4fb2-a570-991764c32677"},"vehicle_type_id":"4","last_reported":1735380480,"current_range_meters":26000,"station_id":"ce4bhah2rcd13ifvqei0","pricing_plan_id":"cebpf4jnsgd1na2vs0mg"},{"bike_id":"6b579508-5354-439e-a4e0-4261173e8d8b","system_id":"levelo_inurba_marseille","lat":43.2991,"lon":5.37496,"is_reserved":false,"is_disabled":false,"rental_uris":{"android":"levelo://app?vid=6b579508-5354-439e-a4e0-4261173e8d8b","ios":"levelo://app?vid=6b579508-5354-439e-a4e0-4261173e8d8b"},"vehicle_type_id":"4","last_reported":1735380480,"current_range_meters":39200,"station_id":"ce4bgjh2rcd13ifvqbg0","pricing_plan_id":"cebpf4jnsgd1na2vs0mg"},{"bike_id":"e93efc2f-4d32-418b-a9a6-50f1d941711d","system_id":"levelo_inurba_marseille","lat":43.31995,"lon":5.38152,"is_reserved":false,"is_disabled":false,"rental_uris":{"android":"levelo://app?vid=e93efc2f-4d32-418b-a9a6-50f1d941711d","ios":"levelo://app?vid=e93efc2f-4d32-418b-a9a6-50f1d941711d"},"vehicle_type_id":"4","last_reported":1735380480,"current_range_meters":12800,"station_id":"ce4bhr12rcd13ifvqhpg","pricing_plan_id":"cebpf4jnsgd1na2vs0mg"},{"bike_id":"fc55ee07-cb79-4880-8466-c9fe9e754cca","system_id":"levelo_inurba_marseille","lat":43.32367,"lon":5.36751,"is_reserved":false,"is_disabled":false,"rental_uris":{"android":"levelo://app?vid=fc55ee07-cb79-4880-8466-c9fe9e754cca","ios":"levelo://app?vid=fc55ee07-cb79-4880-8466-c9fe9e754cca"},"vehicle_type_id":"4","last_reported":1735380480,"current_range_meters":24000,"station_id":"ce4bhsh2rcd13ifvqi2g","pricing_plan_id":"cebpf4jnsgd1na2vs0mg"},{"bike_id":"5a1f645b-3373-4cf7-b691-7b742edb6de3","system_id":"levelo_inurba_marseille","lat":43.24391,"lon":5.37062,"is_reserved":false,"is_disabled":false,"rental_uris":{"android":"levelo://app?vid=5a1f645b-3373-4cf7-b691-7b742edb6de3","ios":"levelo://app?vid=5a1f645b-3373-4cf7-b691-7b742edb6de3"},"vehicle_type_id":"4","last_reported":1735380480,"current_range_meters":22800,"station_id":"ce4bhhh2rcd13ifvqfk0","pricing_plan_id":"cebpf4jnsgd1na2vs0mg"},{"bike_id":"e66bfa74-9d11-484a-82a0-ee03e52a4906","system_id":"levelo_inurba_marseille","lat":43.29733,"lon":5.37691,"is_reserved":false,"is_disabled":false,"rental_uris":{"android":"levelo://app?vid=e66bfa74-9d11-484a-82a0-ee03e52a4906","ios":"levelo://app?vid=e66bfa74-9d11-484a-82a0-ee03e52a4906"},"vehicle_type_id":"4","last_reported":1735380480,"current_range_meters":38000,"station_id":"ce4bgkh2rcd13ifvqbl0","pricing_plan_id":"cebpf4jnsgd1na2vs0mg"},{"bike_id":"97ff7428-db0c-4d40-b5a4-3eb64c609a70","system_id":"levelo_inurba_marseille","lat":43.30883,"lon":5.37211,"is_reserved":false,"is_disabled":false,"rental_uris":{"android":"levelo://app?vid=97ff7428-db0c-4d40-b5a4-3eb64c609a70","ios":"levelo://app?vid=97ff7428-db0c-4d40-b5a4-3eb64c609a70"},"vehicle_type_id":"4","last_reported":1735380480,"current_range_meters":32000,"station_id":"ce4bguh2rcd13ifvqckg","pricing_plan_id":"cebpf4jnsgd1na2vs0mg"},{"bike_id":"c1db147a-7b83-4ff5-a8e3-d9b9a99adf19","system_id":"levelo_inurba_marseille","lat":43.292241,"lon":5.360738,"is_reserved":false,"is_disabled":false,"rental_uris":{"android":"levelo://app?vid=c1db147a-7b83-4ff5-a8e3-d9b9a99adf19","ios":"levelo://app?vid=c1db147a-7b83-4ff5-a8e3-d9b9a99adf19"},"vehicle_type_id":"4","last_reported":1735380480,"current_range_meters":29600,"station_id":"ce4bhbh2rcd13ifvqeqg","pricing_plan_id":"cebpf4jnsgd1na2vs0mg"},{"bike_id":"7012cb98-1ed5-4fab-a226-6bd2a920be05","system_id":"levelo_inurba_marseille","lat":43.31227,"lon":5.36898,"is_reserved":false,"is_disabled":false,"rental_uris":{"android":"levelo://app?vid=7012cb98-1ed5-4fab-a226-6bd2a920be05","ios":"levelo://app?vid=7012cb98-1ed5-4fab-a226-6bd2a920be05"},"vehicle_type_id":"4","last_reported":1735380480,"current_range_meters":38400,"station_id":"ce4bgl92rcd13ifvqbq0","pricing_plan_id":"cebpf4jnsgd1na2vs0mg"},{"bike_id":"d6763751-8aeb-4ad0-82c6-a260450ed1f7","system_id":"levelo_inurba_marseille","lat":43.33759,"lon":5.37408,"is_reserved":false,"is_disabled":false,"rental_uris":{"android":"levelo://app?vid=d6763751-8aeb-4ad0-82c6-a260450ed1f7","ios":"levelo://app?vid=d6763751-8aeb-4ad0-82c6-a260450ed1f7"},"vehicle_type_id":"4","last_reported":1735380480,"current_range_meters":24400,"station_id":"","pricing_plan_id":"cebpf4jnsgd1na2vs0mg"},{"bike_id":"0e147874-a83d-42ea-b6b2-f39173ec219b","system_id":"levelo_inurba_marseille","lat":43.28696,"lon":5.39991,"is_reserved":false,"is_disabled":false,"rental_uris":{"android":"levelo://app?vid=0e147874-a83d-42ea-b6b2-f39173ec219b","ios":"levelo://app?vid=0e147874-a83d-42ea-b6b2-f39173ec219b"},"vehicle_type_id":"4","last_reported":1735380480,"current_range_meters":33200,"station_id":"ce4bho92rcd13ifvqh3g","pricing_plan_id":"cebpf4jnsgd1na2vs0mg"},