{"last_updated":1741550829,"ttl":60,"version":"2.2","data":{"bikes":[{"bike_id":"fc671881-f86f-4456-8c23-778c96f46313","system_id":"levelo_inurba_marseille","lat":43.2706,"lon":5.40272,"is_reserved":false,"is_disabled":false,"rental_uris":{"android":"levelo://app?vid=fc671881-f86f-4456-8c23-778c96f46313","ios":"levelo://app?vid=fc671881-f86f-4456-8c23-778c96f46313"},"vehicle_type_id":"4","last_reported":1741550830,"current_range_meters":2800,"station_id":"ce4bhk92rcd13ifvqgc0","pricing_plan_id":"cebpf4jnsgd1na2vs0mg"},{"bike_id":"a85666a4-8fe7-4d6d-9254-683bdd61b61f","system_id":"levelo_inurba_marseille","lat":43.27381,"lon":5.41407,"is_reserved":false,"is_disabled":false,"rental_uris":{"android":"levelo://app?vid=a85666a4-8fe7-4d6d-9254-683bdd61b61f","ios":"levelo://app?vid=a85666a4-8fe7-4d6d-9254-683bdd61b61f"},"vehicle_type_id":"4","last_reported":1741550830,"current_range_meters":2800,"station_id":"","pricing_plan_id":"cebpf4jnsgd1na2vs0mg"},{"bike_id":"6d0356cd-03ed-4a8b-97c7-0e2dd8952c4d","system_id":"levelo_inurba_marseille","lat":43.31709,"lon":5.4372,"is_reserved":false,"is_disabled":false,"rental_uris":{"android":"levelo://app?vid=6d0356cd-03ed-4a8b-97c7-0e2dd8952c4d","ios":"levelo://app?vid=6d0356cd-03ed-4a8b-97c7-0e2dd8952c4d"},"vehicle_type_id":"4","last_reported":1741550830,"current_range_meters":2800,"station_id":"ce4bhp92rcd13ifvqhcg","pricing_plan_id":"cebpf4jnsgd1na2vs0mg"},{"bike_id":"de9dd6b4-169b-45d2-bea4-254a4c81f43b","system_id":"levelo_inurba_marseille","lat":43.31693,"lon":5.40476,"is_reserved":false,"is_disabled":false,"rental_uris":{"android":"levelo://app?vid=de9dd6b4-169b-45d2-bea4-254a4c81f43b","ios":"levelo://app?vid=de9dd6b4-169b-45d2-bea4-254a4c81f43b"},"vehicle_type_id":"4","last_reported":1741550830,"current_range_meters":2800,"station_id":"ce4bh012rcd13ifvqd00","pricing_plan_id":"cebpf4jnsgd1na2vs0mg"},{"bike_id":"e349ff65-0a44-4668-be39-331480a53e8c","system_id":"levelo_inurba_marseille","lat":43.29674,"lon":5.44523,"is_reserved":false,"is_disabled":false,"rental_uris":{"android":"levelo://app?vid=e349ff65-0a44-4668-be39-331480a53e8c","ios":"levelo://app?vid=e349ff65-0a44-4668-be39-331480a53e8c"},"vehicle_type_id":"4","last_reported":1741550830,"current_range_meters":2800,"station_id":"","pricing_plan_id":"cebpf4jnsgd1na2vs0mg"},{"bike_id":"802ec9b6-cf45-4906-a6b8-3b7e5c09357c","system_id":"levelo_inurba_marseille","lat":43.30939,"lon":5.40141,"is_reserved":false,"is_disabled":false,"rental_uris":{"android":"levelo://app?vid=802ec9b6-cf45-4906-a6b8-3b7e5c09357c","ios":"levelo://app?vid=802ec9b6-cf45-4906-a6b8-3b7e5c09357c"},"vehicle_type_id":"4","last_reported":1741550830,"current_range_meters":2800,"station_id":"ce4bgvp2rcd13ifvqct0","pricing_plan_id":"cebpf4jnsgd1na2vs0mg"},{"bike_id":"53bd1732-d8ff-41a5-8f1b-42274afdde26","system_id":"levelo_inurba_marseille","lat":43.29358,"lon":5.42838,"is_reserved":false,"is_disabled":false,"rental_uris":{"android":"levelo://app?vid=53bd1732-d8ff-41a5-8f1b-42274afdde26","ios":"levelo://app?vid=53bd1732-d8ff-41a5-8f1b-42274afdde26"},"vehicle_type_id":"4","last_reported":1741550830,"current_range_meters":2800,"station_id":"","pricing_plan_id":"cebpf4jnsgd1na2vs0mg"},{"bike_id":"dec29720-34f1-4ed4-8695-f9a107b367e4","system_id":"levelo_inurba_marseille","lat":43.28699,"lon":5.37382,"is_reserved":false,"is_disabled":true,"rental_uris":{"android":"levelo://app?vid=dec29720-34f1-4ed4-8695-f9a107b367e4","ios":"levelo://app?vid=dec29720-34f1-4ed4-8695-f9a107b367e4"},"vehicle_type_id":"4","last_reported":1741550830,"current_range_meters":2800,"station_id":"ce4bh3p2rcd13ifvqdq0","pricing_plan_id":"cebpf4jnsgd1na2vs0mg"},{"bike_id":"471ac80e-0d7e-4323-9da4-6ae7473219ec","system_id":"levelo_inurba_marseille","lat":43.3303,"lon":5.40058,"is_reserved":false,"is_disabled":false,"rental_uris":{"android":"levelo://app?vid=471ac80e-0d7e-4323-9da4-6ae7473219ec","ios":"levelo://app?vid=471ac80e-0d7e-4323-9da4-6ae7473219ec"},"vehicle_type_id":"4","last_reported":1741550830,"current_range_meters":3200,"station_id":"","pricing_plan_id":"cebpf4jnsgd1na2vs0mg"},{"bike_id":"9effefb9-02e3-4c25-ab75-e3a5ac01515f","system_id":"levelo_inurba_marseille","lat":43.2656,"lon":5.37291,"is_reserved":false,"is_disabled":true,"rental_uris":{"android":"levelo://app?vid=9effefb9-02e3-4c25-ab75-e3a5ac01515f","ios":"levelo://app?vid=9effefb9-02e3-4c25-ab75-e3a5ac01515f"},"vehicle_type_id":"4","last_reported":1741550830,"current_range_meters":3200,"station_id":"ce4bhg12rcd13ifvqf70","pricing_plan_id":"cebpf4jnsgd1na2vs0mg"},{"bike_id":"903ca8fb-a01f-48af-9d7f-844151e9f785","system_id":"levelo_inurba_marseille","lat":43.27953,"lon":5.41062,"is_reserved":false,"is_disabled":true,"rental_uris":{"android":"levelo://app?vid=903ca8fb-a01f-48af-9d7f-844151e9f785","ios":"levelo://app?vid=903ca8fb-a01f-48af-9d7f-844151e9f785"},"vehicle_type_id":"4","last_reported":1741550830,"current_range_meters":3200,"station_id":"ce4bhnp2rcd13ifvqh0g","pricing_plan_id":"cebpf4jnsgd1na2vs0mg"},{"bike_id":"a6ae0bc8-e9de-41d5-a045-f654875517eb","system_id":"levelo_inurba_marseille","lat":43.3106,"lon":5.38343,"is_reserved":false,"is_disabled":false,"rental_uris":{"android":"levelo://app?vid=a6ae0bc8-e9de-41d5-a045-f654875517eb","ios":"levelo://app?vid=a6ae0bc8-e9de-41d5-a045-f654875517eb"},"vehicle_type_id":"4","last_reported":1741550830,"current_range_meters":3600,"station_id":"ce4bgv92rcd13ifvqcr0","pricing_plan_id":"cebpf4jnsgd1na2vs0mg"},{"bike_id":"a01889f6-7082-4c91-9d70-b12d1c00664e","system_id":"levelo_inurba_marseille","lat":43.3082,"lon":5.43537,"is_reserved":false,"is_disabled":false,"rental_uris":{"android":"levelo://app?vid=a01889f6-7082-4c91-9d70-b12d1c00664e","ios":"levelo://app?vid=a01889f6-7082-4c91-9d70-b12d1c00664e"},"vehicle_type_id":"4","last_reported":1741550830,"current_range_meters":4000,"station_id":"ce4bhph2rcd13ifvqheg","pricing_plan_id":"cebpf4jnsgd1na2vs0mg"},{"bike_id":"a6c74a05-39e7-4da6-8b71-1ba187fc5bae","system_id":"levelo_inurba_marseille","lat":43.305346,"lon":5.365521,"is_reserved":false,"is_disabled":true,"rental_uris":{"android":"levelo://app?vid=a6c74a05-39e7-4da6-8b71-1ba187fc5bae","ios":"levelo://app?vid=a6c74a05-39e7-4da6-8b71-1ba187fc5bae"},"vehicle_type_id":"4","last_reported":1741550830,"current_range_meters":4000,"station_id":"ce4bgs12rcd13ifvqcag","pricing_plan_id":"cebpf4jnsgd1na2vs0mg"},{"bike_id":"b4ec2170-59cc-4751-981a-ecabaa90ce87","system_id":"levelo_inurba_marseille","lat":43.25125,"lon":5.4035,"is_reserved":false,"is_disabled":false,"rental_uris":{"android":"levelo://app?vid=b4ec2170-59cc-4751-981a-ecabaa90ce87","ios":"levelo://app?vid=b4ec2170-59cc-4751-981a-ecabaa90ce87"},"vehicle_type_id":"4","last_reported":1741550830,"current_range_meters":4000,"station_id":"ce4bhlh2rcd13ifvqgig","pricing_plan_id":"cebpf4jnsgd1na2vs0mg"},{"bike_id":"4f508b50-1e3d-40c5-be77-1e6495edbe07","system_id":"levelo_inurba_marseille","lat":43.25723,"lon":5.4111,"is_reserved":false,"is_disabled":false,"rental_uris":{"android":"levelo://app?vid=4f508b50-1e3d-40c5-be77-1e6495edbe07","ios":"levelo://app?vid=4f508b50-1e3d-40c5-be77-1e6495edbe07"},"vehicle_type_id":"4","last_reported":1741550830,"current_range_meters":4400,"station_id":"ce4bhkp2rcd13ifvqgd0","pricing_plan_id":"cebpf4jnsgd1na2vs0mg"},{"bike_id":"1d4bb7b9-3ae6-4d31-8bdd-ee00b3232adf","system_id":"levelo_inurba_marseille","lat":43.25649,"lon":5.41028,"is_reserved":false,"is_disabled":false,"rental_uris":{"android":"levelo://app?vid=1d4bb7b9-3ae6-4d31-8bdd-ee00b3232adf","ios":"levelo://app?vid=1d4bb7b9-3ae6-4d31-8bdd-ee00b3232adf"},"vehicle_type_id":"4","last_reported":1741550830,"current_range_meters":4800,"station_id":"","pricing_plan_id":"cebpf4jnsgd1na2vs0mg"},{"bike_id":"c787a0ef-03a5-4d36-b53c-60238e9036da","system_id":"levelo_inurba_marseille","lat":43.2319,"lon":5.40009,"is_reserved":false,"is_disabled":false,"rental_uris":{"android":"levelo://app?vid=c787a0ef-03a5-4d36-b53c-60238e9036da","ios":"levelo://app?vid=c787a0ef-03a5-4d36-b53c-60238e9036da"},"vehicle_type_id":"4","last_reported":1741550830,"current_range_meters":5600,"station_id":"ce4bhn12rcd13ifvqgqg","pricing_plan_id":"cebpf4jnsgd1na2vs0mg"},{"bike_id":"d399c68f-4683-4187-95d7-e32ffde3c66c","system_id":"levelo_inurba_marseille","lat":43.25093,"lon":5.39518,"is_reserved":false,"is_disabled":false,"rental_uris":{"android":"levelo://app?vid=d399c68f-4683-4187-95d7-e32ffde3c66c","ios":"levelo://app?vid=d399c68f-4683-4187-95d7-e32ffde3c66c"},"vehicle_type_id":"4","last_reported":1741550830,"current_range_meters":5600,"station_id":"ce4bhm12rcd13ifvqgkg","pricing_plan_id":"cebpf4jnsgd1na2vs0mg"},{"bike_id":"7e48344a-4db8-47b3-8baa-574165663505","system_id":"levelo_inurba_marseille","lat":43.24379,"lon":5.37068,"is_reserved":false,"is_disabled":false,"rental_uris":{"android":"levelo://app?vid=7e48344a-4db8-47b3-8baa-574165663505","ios":"levelo://app?vid=7e48344a-4db8-47b3-8baa-574165663505"},"vehicle_type_id":"4","last_reported":1741550830,"current_range_meters":5600,"station_id":"ce4bhhh2rcd13ifvqfk0","pricing_plan_id":"cebpf4jnsgd1na2vs0mg"},{"bike_id":"9575670e-b27f-4126-a71f-88b5ca1b341b","system_id":"levelo_inurba_marseille","lat":43.30151,"lon":5.38792,"is_reserved":false,"is_disabled":false,"rental_uris":{"android":"levelo://app?vid=9575670e-b27f-4126-a71f-88b5ca1b341b","ios":"levelo://app?vid=9575670e-b27f-4126-a71f-88b5ca1b341b"},"vehicle_type_id":"4","last_reported":1741550830,"current_range_meters":5600,"station_id":"ce4bghh2rcd13ifvqb60","pricing_plan_id":"cebpf4jnsgd1na2vs0mg"},{"bike_id":"b2c2514d-58df-4080-9acc-0a3325c87525","system_id":"levelo_inurba_marseille","lat":43.323667,"lon":5.367613,"is_reserved":false,"is_disabled":false,"rental_uris":{"android":"levelo://app?vid=b2c2514d-58df-4080-9acc-0a3325c87525","ios":"levelo://app?vid=b2c2514d-58df-4080-9acc-0a3325c87525"},"vehicle_type_id":"4","last_reported":1741550830,"current_range_meters":6000,"station_id":"ce4bhsh2rcd13ifvqi2g","pricing_plan_id":"cebpf4jnsgd1na2vs0mg"},{"bike_id":"fdf45df4-47d5-41e8-a6c7-03ee85585140","system_id":"levelo_inurba_marseille","lat":43.26784,"lon":5.39431,"is_reserved":false,"is_disabled":true,"rental_uris":{"android":"levelo://app?vid=fdf45df4-47d5-41e8-a6c7-03ee85585140","ios":"levelo://app?vid=fdf45df4-47d5-41e8-a6c7-03ee85585140"},"vehicle_type_id":"4","last_reported":1741550830,"current_range_meters":6400,"station_id":"ce4bhh12rcd13ifvqfg0","pricing_plan_id":"cebpf4jnsgd1na2vs0mg"},{"bike_id":"dd9a88d6-be9f-49f5-ab3a-4a9b434f536b","system_id":"levelo_inurba_marseille","lat":43.30933,"lon":5.40149,"is_reserved":false,"is_disabled":true,"rental_uris":{"android":"levelo://app?vid=dd9a88d6-be9f-49f5-ab3a-4a9b434f536b","ios":"levelo://app?vid=dd9a88d6-be9f-49f5-ab3a-4a9b434f536b"},"vehicle_type_id":"4","last_reported":1741550830,"current_range_meters":6400,"station_id":"ce4bgvp2rcd13ifvqct0","pricing_plan_id":"cebpf4jnsgd1na2vs0mg"},{"bike_id":"f2d8424b-2a02-486a-b757-07ec7107c9e4","system_id":"levelo_inurba_marseille","lat":43.32668,"lon":5.40992,"is_reserved":false,"is_disabled":false,"rental_uris":{"android":"levelo://app?vid=f2d8424b-2a02-486a-b757-07ec7107c9e4","ios":"levelo://app?vid=f2d8424b-2a02-486a-b757-07ec7107c9e4"},"vehicle_type_id":"4","last_reported":1741550830,"current_range_meters":6400,"station_id":"ce4bhpp2rcd13ifvqhgg","pricing_plan_id":"cebpf4jnsgd1na2vs0mg"},{"bike_id":"2e3c60b3-f5fc-40b6-b347-86b0b4f3ee6e","system_id":"levelo_inurba_marseille","lat":43.232,"lon":5.39995,"is_reserved":false,"is_disabled":false,"rental_uris":{"android":"levelo://app?vid=2e3c60b3-f5fc-40b6-b347-86b0b4f3ee6e","ios":"levelo://app?vid=2e3c60b3-f5fc-40b6-b347-86b0b4f3ee6e"},"vehicle_type_id":"4","last_reported":1741550830,"current_range_meters":6400,"station_id":"ce4bhn12rcd13ifvqgqg","pricing_plan_id":"cebpf4jnsgd1na2vs0mg"},{"bike_id":"c854b195-a8dd-4c0b-8985-9c3d86974ab3","system_id":"levelo_inurba_marseille","lat":43.32608,"lon":5.35681,"is_reserved":false,"is_disabled":false,"rental_uris":{"android":"levelo://app?vid=c854b195-a8dd-4c0b-8985-9c3d86974ab3","ios":"levelo://app?vid=c854b195-a8dd-4c0b-8985-9c3d86974ab3"},"vehicle_type_id":"4","last_reported":1741550830,"current_range_meters":6400,"station_id":"","pricing_plan_id":"cebpf4jnsgd1na2vs0mg"},{"bike_id":"0e5fb576-3871-48d4-a9ab-d4cbe4f327b5","system_id":"levelo_inurba_marseille","lat":43.27573,"lon":5.38411,"is_reserved":false,"is_disabled":false,"rental_uris":{"android":"levelo://app?vid=0e5fb576-3871-48d4-a9ab-d4cbe4f327b5","ios":"levelo://app?vid=0e5fb576-3871-48d4-a9ab-d4cbe4f327b5"},"vehicle_type_id":"4","last_reported":1741550830,"current_range_meters":6400,"station_id":"ce4bhh92rcd13ifvqfi0","pricing_plan_id":"cebpf4jnsgd1na2vs0mg"},{"bike_id":"34c4ee14-6320-4ad3-88c5-ab373e7f962f","system_id":"levelo_inurba_marseille","lat":43.28505,"lon":5.38422,"is_reserved":false,"is_disabled":false,"rental_uris":{"android":"levelo://app?vid=34c4ee14-6320-4ad3-88c5-ab373e7f962f","ios":"levelo://app?vid=34c4ee14-6320-4ad3-88c5-ab373e7f962f"},"vehicle_type_id":"4","last_reported":1741550830,"current_range_meters":6400,"station_id":"ce4bh512rcd13ifvqe3g","pricing_plan_id":"cebpf4jnsgd1na2vs0mg"},{"bike_id":"e4bd2c36-555f-4bad-ae17-7623a44e9165","system_id":"levelo_inurba_marseille","lat":43.31362,"lon":5.38325,"is_reserved":false,"is_disabled":false,"rental_uris":{"android":"levelo://app?vid=e4bd2c36-555f-4bad-ae17-7623a44e9165","ios":"levelo://app?vid=e4bd2c36-555f-4bad-ae17-7623a44e9165"},"vehicle_type_id":"4","last_reported":1741550830,"current_range_meters":6800,"station_id":"","pricing_plan_id":"cebpf4jnsgd1na2vs0mg"},{"bike_id":"692c3fd1-e388-4c38-bc5f-023f56dd0104","system_id":"levelo_inurba_marseille","lat":43.257307,"lon":5.411091,"is_reserved":false,"is_disabled":false,"rental_uris":{"android":"levelo://app?vid=692c3fd1-e388-4c38-bc5f-023f56dd0104","ios":"levelo://app?vid=692c3fd1-e388-4c38-bc5f-023f56dd0104"},"vehicle_type_id":"4","last_reported":1741550830,"current_range_meters":6800,"station_id":"","pricing_plan_id":"cebpf4jnsgd1na2vs0mg"},{"bike_id":"c96d4cf5-4caa-424b-aaed-f59002c4db95","system_id":"levelo_inurba_marseille","lat":43.31197,"lon":5.38721,"is_reserved":false,"is_disabled":false,"rental_uris":{"android":"levelo://app?vid=c96d4cf5-4caa-424b-aaed-f59002c4db95","ios":"levelo://app?vid=c96d4cf5-4caa-424b-aaed-f59002c4db95"},"vehicle_type_id":"4","last_reported":1741550830,"current_range_meters":6800,"station_id":"ce4bgv12rcd13ifvqcp0","pricing_plan_id":"cebpf4jnsgd1na2vs0mg"},{"bike_id":"388ea826-f5fa-4632-a530-45d13cc0a769","system_id":"levelo_inurba_marseille","lat":43.23209,"lon":5.4,"is_reserved":false,"is_disabled":false,"rental_uris":{"android":"levelo://app?vid=388ea826-f5fa-4632-a530-45d13cc0a769","ios":"levelo://app?vid=388ea826-f5fa-4632-a530-45d13cc0a769"},"vehicle_type_id":"4","last_reported":1741550830,"current_range_meters":6800,"station_id":"ce4bhn12rcd13ifvqgqg","pricing_plan_id":"cebpf4jnsgd1na2vs0mg"},{"bike_id":"86aee35e-79c8-44c3-b874-208895087de6","system_id":"levelo_inurba_marseille","lat":43.29609,"lon":5.38144,"is_reserved":false,"is_disabled":false,"rental_uris":{"android":"levelo://app?vid=86aee35e-79c8-44c3-b874-208895087de6","ios":"levelo://app?vid=86aee35e-79c8-44c3-b874-208895087de6"},"vehicle_type_id":"4","last_reported":1741550830,"current_range_meters":6800,"station_id":"ce4bgl12rcd13ifvqbo0","pricing_plan_id":"cebpf4jnsgd1na2vs0mg"},{"bike_id":"2f0c724b-bb76-4a4c-8862-0d82bf790fbd","system_id":"levelo_inurba_marseille","lat":43.26569,"lon":5.39009,"is_reserved":false,"is_disabled":false,"rental_uris":{"android":"levelo://app?vid=2f0c724b-bb76-4a4c-8862-0d82bf790fbd","ios":"levelo://app?vid=2f0c724b-bb76-4a4c-8862-0d82bf790fbd"},"vehicle_type_id":"4","last_reported":1741550830,"current_range_meters":6800,"station_id":"ce4bhe12rcd13ifvqf30","pricing_plan_id":"cebpf4jnsgd1na2vs0mg"},{"bike_id":"13c912b1-5b7c-4cb9-9aa5-15e41f113ac7","system_id":"levelo_inurba_marseille","lat":43.26807,"lon":5.40262,"is_reserved":false,"is_disabled":false,"rental_uris":{"android":"levelo://app?vid=13c912b1-5b7c-4cb9-9aa5-15e41f113ac7","ios":"levelo://app?vid=13c912b1-5b7c-4cb9-9aa5-15e41f113ac7"},"vehicle_type_id":"4","last_reported":1741550830,"current_range_meters":6800,"station_id":"ce501612rcd8frsf0b60","pricing_plan_id":"cebpf4jnsgd1na2vs0mg"},{"bike_id":"b533f38f-df9a-4e01-86fb-08f4b9bfcdfb","system_id":"levelo_inurba_marseille","lat":43.26229,"lon":5.42139,"is_reserved":false,"is_disabled":false,"rental_uris":{"android":"levelo://app?vid=b533f38f-df9a-4e01-86fb-08f4b9bfcdfb","ios":"levelo://app?vid=b533f38f-df9a-4e01-86fb-08f4b9bfcdfb"},"vehicle_type_id":"4","last_reported":1741550830,"current_range_meters":6800,"station_id":"","pricing_plan_id":"cebpf4jnsgd1na2vs0mg"},{"bike_id":"e5eee172-60ba-4f84-85fe-09d2b9bd00b6","system_id":"levelo_inurba_marseille","lat":43.27945,"lon":5.41056,"is_reserved":false,"is_disabled":false,"rental_uris":{"android":"levelo://app?vid=e5eee172-60ba-4f84-85fe-09d2b9bd00b6","ios":"levelo://app?vid=e5eee172-60ba-4f84-85fe-09d2b9bd00b6"},"vehicle_type_id":"4","last_reported":1741550830,"current_range_meters":6800,"station_id":"ce4bhnp2rcd13ifvqh0g","pricing_plan_id":"cebpf4jnsgd1na2vs0mg"},{"bike_id":"ad284fdb-e6f9-4c5a-9e2c-c44130087410","system_id":"levelo_inurba_marseille","lat":43.23189,"lon":5.39988,"is_reserved":false,"is_disabled":false,"rental_uris":{"android":"levelo://app?vid=ad284fdb-e6f9-4c5a-9e2c-c44130087410","ios":"levelo://app?vid=ad284fdb-e6f9-4c5a-9e2c-c44130087410"},"vehicle_type_id":"4","last_reported":1741550830,"current_range_meters":7200,"station_id":"ce4bhn12rcd13ifvqgqg","pricing_plan_id":"cebpf4jnsgd1na2vs0mg"},{"bike_id":"8968ebf0-976e-4199-a05d-0b5eb90e8fa7","system_id":"levelo_inurba_marseille","lat":43.25719,"lon":5.41057,"is_reserved":false,"is_disabled":false,"rental_uris":{"android":"levelo://app?vid=8968ebf0-976e-4199-a05d-0b5eb90e8fa7","ios":"levelo://app?vid=8968ebf0-976e-4199-a05d-0b5eb90e8fa7"},"vehicle_type_id":"4","last_reported":1741550830,"current_range_meters":7200,"station_id":"ce4bhkp2rcd13ifvqgd0","pricing_plan_id":"cebpf4jnsgd1na2vs0mg"},{"bike_id":"c2245ef2-e394-43d3-95ba-1ea922282f10","system_id":"levelo_inurba_marseille","lat":43.30928,"lon":5.40167,"is_reserved":false,"is_disabled":false,"rental_uris":{"android":"levelo://app?vid=c2245ef2-e394-43d3-95ba-1ea922282f10","ios":"levelo://app?vid=c2245ef2-e394-43d3-95ba-1ea922282f10"},"vehicle_type_id":"4","last_reported":1741550830,"current_range_meters":7200,"station_id":"ce4bgvp2rcd13ifvqct0","pricing_plan_id":"cebpf4jnsgd1na2vs0mg"},{"bike_id":"21090efb-813e-4bfd-ac70-5164e92b28c6","system_id":"levelo_inurba_marseille","lat":43.27667,"lon":5.38907,"is_reserved":false,"is_disabled":true,"rental_uris":{"android":"levelo://app?vid=21090efb-813e-4bfd-ac70-5164e92b28c6","ios":"levelo://app?vid=21090efb-813e-4bfd-ac70-5164e92b28c6"},"vehicle_type_id":"4","last_reported":1741550830,"current_range_meters":7200,"station_id":"ce4bhi12rcd13ifvqfo0","pricing_plan_id":"cebpf4jnsgd1na2vs0mg"},{"bike_id":"6278d2ee-3fe8-4bef-aea6-64166ac384f6","system_id":"levelo_inurba_marseille","lat":43.26749,"lon":5.38289,"is_reserved":false,"is_disabled":true,"rental_uris":{"android":"levelo://app?vid=6278d2ee-3fe8-4bef-aea6-64166ac384f6","ios":"levelo://app?vid=6278d2ee-3fe8-4bef-aea6-64166ac384f6"},"vehicle_type_id":"4","last_reported":1741550830,"current_range_meters":7200,"station_id":"","pricing_plan_id":"cebpf4jnsgd1na2vs0mg"},{"bike_id":"93b65028-e8a4-4c8f-876a-ae246ea8ac90","system_id":"levelo_inurba_marseille","lat":43.31345,"lon":5.38479,"is_reserved":false,"is_disabled":true,"rental_uris":{"android":"levelo://app?vid=93b65028-e8a4-4c8f-876a-ae246ea8ac90","ios":"levelo://app?vid=93b65028-e8a4-4c8f-876a-ae246ea8ac90"},"vehicle_type_id":"4","last_reported":1741550830,"current_range_meters":8000,"station_id":"ce4bgt92rcd13ifvqcf0","pricing_plan_id":"cebpf4jnsgd1na2vs0mg"},{"bike_id":"f7515e47-1b5c-4cc2-87fc-79ab0a524835","system_id":"levelo_inurba_marseille","lat":43.31766,"lon":5.39025,"is_reserved":false,"is_disabled":false,"rental_uris":{"android":"levelo://app?vid=f7515e47-1b5c-4cc2-87fc-79ab0a524835","ios":"levelo://app?vid=f7515e47-1b5c-4cc2-87fc-79ab0a524835"},"vehicle_type_id":"4","last_reported":1741550830,"current_range_meters":8000,"station_id":"ce4bhqp2rcd13ifvqhng","pricing_plan_id":"cebpf4jnsgd1na2vs0mg"},{"bike_id":"e3d70927-05a1-48f3-8975-c39fc2eb2dde","system_id":"levelo_inurba_marseille","lat":43.31682,"lon":5.37784,"is_reserved":false,"is_disabled":false,"rental_uris":{"android":"levelo://app?vid=e3d70927-05a1-48f3-8975-c39fc2eb2dde","ios":"levelo://app?vid=e3d70927-05a1-48f3-8975-c39fc2eb2dde"},"vehicle_type_id":"4","last_reported":1741550830,"current_range_meters":8000,"station_id":"ce4bgth2rcd13ifvqch0","pricing_plan_id":"cebpf4jnsgd1na2vs0mg"},{"bike_id":"30ca0a12-56c0-4feb-9059-10680035a6ae","system_id":"levelo_inurba_marseille","lat":43.28709,"lon":5.37381,"is_reserved":false,"is_disabled":true,"rental_uris":{"android":"levelo://app?vid=30ca0a12-56c0-4feb-9059-10680035a6ae","ios":"levelo://app?vid=30ca0a12-56c0-4feb-9059-10680035a6ae"},"vehicle_type_id":"4","last_reported":1741550830,"current_range_meters":8000,"station_id":"ce4bh3p2rcd13ifvqdq0","pricing_plan_id":"cebpf4jnsgd1na2vs0mg"},{"bike_id":"3e3ed28a-d70d-4e7b-8492-a13a8b5faa63","system_id":"levelo_inurba_marseille","lat":43.25865,"lon":5.39893,"is_reserved":false,"is_disabled":false,"rental_uris":{"android":"levelo://app?vid=3e3ed28a-d70d-4e7b-8492-a13a8b5faa63","ios":"levelo://app?vid=3e3ed28a-d70d-4e7b-8492-a13a8b5faa63"},"vehicle_type_id":"4","last_reported":1741550830,"current_range_meters":8000,"station_id":"ce4bhl92rcd13ifvqghg","pricing_plan_id":"cebpf4jnsgd1na2vs0mg"},{"bike_id":"e5e118b0-32a8-4ef3-b6d1-b7487133ba19","system_id":"levelo_inurba_marseille","lat":43.28154,"lon":5.42667,"is_reserved":false,"is_disabled":false,"rental_uris":{"android":"levelo://app?vid=e5e118b0-32a8-4ef3-b6d1-b7487133ba19","ios":"levelo://app?vid=e5e118b0-32a8-4ef3-b6d1-b7487133ba19"},"vehicle_type_id":"4","last_reported":1741550830,"current_range_meters":8000,"station_id":"ce4bhnh2rcd13ifvqgug","pricing_plan_id":"cebpf4jnsgd1na2vs0mg"},{"bike_id":"8df81582-b866-4e92-b4ac-8e09a62a5b41","system_id":"levelo_inurba_marseille","lat":43.32804,"lon":5.37542,"is_reserved":false,"is_disabled":false,"rental_uris":{"android":"levelo://app?vid=8df81582-b866-4e92-b4ac-8e09a62a5b41","ios":"levelo://app?vid=8df81582-b866-4e92-b4ac-8e09a62a5b41"},"vehicle_type_id":"4","last_reported":1741550830,"current_range_meters":8000,"station_id":"","pricing_plan_id":"cebpf4jnsgd1na2vs0mg"},{"bike_id":"ac927d39-3b9f-4178-989d-e65c69e28e0f","system_id":"levelo_inurba_marseille","lat":43.30891,"lon":5.3964,"is_reserved":false,"is_disabled":false,"rental_uris":{"android":"levelo://app?vid=ac927d39-3b9f-4178-989d-e65c69e28e0f","ios":"levelo://app?vid=ac927d39-3b9f-4178-989d-e65c69e28e0f"},"vehicle_type_id":"4","last_reported":1741550830,"current_range_meters":8000,"station_id":"ce4bh012rcd13ifvqcv0","pricing_plan_id":"cebpf4jnsgd1na2vs0mg"},{"bike_id":"a4e6a743-4ff5-437d-be8d-c71876e7375d","system_id":"levelo_inurba_marseille","lat":43.33758,"lon":5.39191,"is_reserved":false,"is_disabled":false,"rental_uris":{"android":"levelo://app?vid=a4e6a743-4ff5-437d-be8d-c71876e7375d","ios":"levelo://app?vid=a4e6a743-4ff5-437d-be8d-c71876e7375d"},"vehicle_type_id":"4","last_reported":1741550830,"current_range_meters":8000,"station_id":"ce4bhr92rcd13ifvqhsg","pricing_plan_id":"cebpf4jnsgd1na2vs0mg"},{"bike_id":"e35a5aed-f86f-450c-9828-3a42b7b1d0fd","system_id":"levelo_inurba_marseille","lat":43.29268,"lon":5.40123,"is_reserved":false,"is_disabled":false,"rental_uris":{"android":"levelo://app?vid=e35a5aed-f86f-450c-9828-3a42b7b1d0fd","ios":"levelo://app?vid=e35a5aed-f86f-450c-9828-3a42b7b1d0fd"},"vehicle_type_id":"4","last_reported":1741550830,"current_range_meters":8000,"station_id":"ce4bh312rcd13ifvqdk0","pricing_plan_id":"cebpf4jnsgd1na2vs0mg"},{"bike_id":"8810679a-e7c9-4297-97b3-dd7d0bfc4864","system_id":"levelo_inurba_marseille","lat":43.25007,"lon":5.38875,"is_reserved":false,"is_disabled":false,"rental_uris":{"android":"levelo://app?vid=8810679a-e7c9-4297-97b3-dd7d0bfc4864","ios":"levelo://app?vid=8810679a-e7c9-4297-97b3-dd7d0bfc4864"},"vehicle_type_id":"4","last_reported":1741550830,"current_range_meters":8000,"station_id":"ce4bhgp2rcd13ifvqfd0","pricing_plan_id":"cebpf4jnsgd1na2vs0mg"},{"bike_id":"2a3a8222-0824-4130-a051-e3506a3fb94c","system_id":"levelo_inurba_marseille","lat":43.24095,"lon":5.37758,"is_reserved":false,"is_disabled":false,"rental_uris":{"android":"levelo://app?vid=2a3a8222-0824-4130-a051-e3506a3fb94c","ios":"levelo://app?vid=2a3a8222-0824-4130-a051-e3506a3fb94c"},"vehicle_type_id":"4","last_reported":1741550830,"current_range_meters":8400,"station_id":"ce4bhnp2rcd13ifvqgvg","pricing_plan_id":"cebpf4jnsgd1na2vs0mg"},{"bike_id":"716ad52e-6276-401a-9565-37b068cf8f1c","system_id":"levelo_inurba_marseille","lat":43.24815,"lon":5.37445,"is_reserved":false,"is_disabled":false,"rental_uris":{"android":"levelo://app?vid=716ad52e-6276-401a-9565-37b068cf8f1c","ios":"levelo://app?vid=716ad52e-6276-401a-9565-37b068cf8f1c"},"vehicle_type_id":"4","last_reported":1741550830,"current_range_meters":8400,"station_id":"ce4bhgh2rcd13ifvqfb0","pricing_plan_id":"cebpf4jnsgd1na2vs0mg"},{"bike_id":"19bbe8da-d7df-496e-a677-cbaab925cf5e","system_id":"levelo_inurba_marseille","lat":43.24851,"lon":5.42531,"is_reserved":false,"is_disabled":false,"rental_uris":{"android":"levelo://app?vid=19bbe8da-d7df-496e-a677-cbaab925cf5e","ios":"levelo://app?vid=19bbe8da-d7df-496e-a677-cbaab925cf5e"},"vehicle_type_id":"4","last_reported":1741550830,"current_range_meters":8400,"station_id":"","pricing_plan_id":"cebpf4jnsgd1na2vs0mg"},{"bike_id":"14704438-ead4-4a94-95b6-837271a082f6","system_id":"levelo_inurba_marseille","lat":43.24672,"lon":5.38155,"is_reserved":false,"is_disabled":false,"rental_uris":{"android":"levelo://app?vid=14704438-ead4-4a94-95b6-837271a082f6","ios":"levelo://app?vid=14704438-ead4-4a94-95b6-837271a082f6"},"vehicle_type_id":"4","last_reported":1741550830,"current_range_meters":8400,"station_id":"ce4bhih2rcd13ifvqfr0","pricing_plan_id":"cebpf4jnsgd1na2vs0mg"},{"bike_id":"565fac05-172c-4b9b-92f1-8fa35566d080","system_id":"levelo_inurba_marseille","lat":43.25725,"lon":5.41033,"is_reserved":false,"is_disabled":false,"rental_uris":{"android":"levelo://app?vid=565fac05-172c-4b9b-92f1-8fa35566d080","ios":"levelo://app?vid=565fac05-172c-4b9b-92f1-8fa35566d080"},"vehicle_type_id":"4","last_reported":1741550830,"current_range_meters":8400,"station_id":"","pricing_plan_id":"cebpf4jnsgd1na2vs0mg"},{"bike_id":"7b2f6b3b-3dfd-4e2d-be6b-0818decb7513","system_id":"levelo_inurba_marseille","lat":43.31763,"lon":5.40496,"is_reserved":false,"is_disabled":false,"rental_uris":{"android":"levelo://app?vid=7b2f6b3b-3dfd-4e2d-be6b-0818decb7513","ios":"levelo://app?vid=7b2f6b3b-3dfd-4e2d-be6b-0818decb7513"},"vehicle_type_id":"4","last_reported":1741550830,"current_range_meters":8400,"station_id":"","pricing_plan_id":"cebpf4jnsgd1na2vs0mg"},{"bike_id":"97687e68-be46-4713-8e56-6dcec5493f0a","system_id":"levelo_inurba_marseille","lat":43.24827,"lon":5.37449,"is_reserved":false,"is_disabled":false,"rental_uris":{"android":"levelo://app?vid=97687e68-be46-4713-8e56-6dcec5493f0a","ios":"levelo://app?vid=97687e68-be46-4713-8e56-6dcec5493f0a"},"vehicle_type_id":"4","last_reported":1741550830,"current_range_meters":8400,"station_id":"ce4bhgh2rcd13ifvqfb0","pricing_plan_id":"cebpf4jnsgd1na2vs0mg"},{"bike_id":"c005a41e-a53a-49c3-ab86-ed6508363649","system_id":"levelo_inurba_marseille","lat":43.24545,"lon":5.39525,"is_reserved":false,"is_disabled":false,"rental_uris":{"android":"levelo://app?vid=c005a41e-a53a-49c3-ab86-ed6508363649","ios":"levelo://app?vid=c005a41e-a53a-49c3-ab86-ed6508363649"},"vehicle_type_id":"4","last_reported":1741550830,"current_range_meters":8400,"station_id":"ce4bhlp2rcd13ifvqgjg","pricing_plan_id":"cebpf4jnsgd1na2vs0mg"},{"bike_id":"d4d80517-15f5-40ba-adfb-dbbe2bf1cada","system_id":"levelo_inurba_marseille","lat":43.290391,"lon":5.436771,"is_reserved":false,"is_disabled":false,"rental_uris":{"android":"levelo://app?vid=d4d80517-15f5-40ba-adfb-dbbe2bf1cada","ios":"levelo://app?vid=d4d80517-15f5-40ba-adfb-dbbe2bf1cada"},"vehicle_type_id":"4","last_reported":1741550830,"current_range_meters":8400,"station_id":"","pricing_plan_id":"cebpf4jnsgd1na2vs0mg"},{"bike_id":"ac2efbb8-87f5-4e67-91b6-6982ed970754","system_id":"levelo_inurba_marseille","lat":43.25153,"lon":5.40361,"is_reserved":false,"is_disabled":false,"rental_uris":{"android":"levelo://app?vid=ac2efbb8-87f5-4e67-91b6-6982ed970754","ios":"levelo://app?vid=ac2efbb8-87f5-4e67-91b6-6982ed970754"},"vehicle_type_id":"4","last_reported":1741550830,"current_range_meters":8400,"station_id":"","pricing_plan_id":"cebpf4jnsgd1na2vs0mg"},{"bike_id":"cf3ef34c-e7a7-4b57-9fab-554ab221f09a","system_id":"levelo_inurba_marseille","lat":43.27944,"lon":5.41038,"is_reserved":false,"is_disabled":false,"rental_uris":{"android":"levelo://app?vid=cf3ef34c-e7a7-4b57-9fab-554ab221f09a","ios":"levelo://app?vid=cf3ef34c-e7a7-4b57-9fab-554ab221f09a"},"vehicle_type_id":"4","last_reported":1741550830,"current_range_meters":8400,"station_id":"ce4bhnp2rcd13ifvqh0g","pricing_plan_id":"cebpf4jnsgd1na2vs0mg"},{"bike_id":"768a8b1b-0b22-4c90-8353-951ae83771e1","system_id":"levelo_inurba_marseille","lat":43.246744,"lon":5.381547,"is_reserved":false,"is_disabled":false,"rental_uris":{"android":"levelo://app?vid=768a8b1b-0b22-4c90-8353-951ae83771e1","ios":"levelo://app?vid=768a8b1b-0b22-4c90-8353-951ae83771e1"},"vehicle_type_id":"4","last_reported":1741550830,"current_range_meters":8400,"station_id":"ce4bhih2rcd13ifvqfr0","pricing_plan_id":"cebpf4jnsgd1na2vs0mg"},{"bike_id":"87d6e4ef-3df7-4bbb-ac4a-4299f7db2aa6","system_id":"levelo_inurba_marseille","lat":43.25726,"lon":5.41116,"is_reserved":false,"is_disabled":false,"rental_uris":{"android":"levelo://app?vid=87d6e4ef-3df7-4bbb-ac4a-4299f7db2aa6","ios":"levelo://app?vid=87d6e4ef-3df7-4bbb-ac4a-4299f7db2aa6"},"vehicle_type_id":"4","last_reported":1741550830,"current_range_meters":8800,"station_id":"ce4bhkp2rcd13ifvqgd0","pricing_plan_id":"cebpf4jnsgd1na2vs0mg"},{"bike_id":"0cfda5ec-0688-455d-846d-82f6ae995eb3","system_id":"levelo_inurba_marseille","lat":43.29256,"lon":5.38447,"is_reserved":false,"is_disabled":true,"rental_uris":{"android":"levelo://app?vid=0cfda5ec-0688-455d-846d-82f6ae995eb3","ios":"levelo://app?vid=0cfda5ec-0688-455d-846d-82f6ae995eb3"},"vehicle_type_id":"4","last_reported":1741550830,"current_range_meters":8800,"station_id":"ce4bh692rcd13ifvqea0","pricing_plan_id":"cebpf4jnsgd1na2vs0mg"},{"bike_id":"05156e07-47f0-4de0-bb69-b66700e92b0e","system_id":"levelo_inurba_marseille","lat":43.24406,"lon":5.37064,"is_reserved":false,"is_disabled":true,"rental_uris":{"android":"levelo://app?vid=05156e07-47f0-4de0-bb69-b66700e92b0e","ios":"levelo://app?vid=05156e07-47f0-4de0-bb69-b66700e92b0e"},"vehicle_type_id":"4","last_reported":1741550830,"current_range_meters":8800,"station_id":"ce4bhhh2rcd13ifvqfk0","pricing_plan_id":"cebpf4jnsgd1na2vs0mg"},{"bike_id":"6d30fa00-fa73-4a2d-aac6-368b08cd61f0","system_id":"levelo_inurba_marseille","lat":43.31197,"lon":5.37952,"is_reserved":false,"is_disabled":false,"rental_uris":{"android":"levelo://app?vid=6d30fa00-fa73-4a2d-aac6-368b08cd61f0","ios":"levelo://app?vid=6d30fa00-fa73-4a2d-aac6-368b08cd61f0"},"vehicle_type_id":"4","last_reported":1741550830,"current_range_meters":8800,"station_id":"","pricing_plan_id":"cebpf4jnsgd1na2vs0mg"},{"bike_id":"a6bd990a-685a-41d8-b918-9cbe4c8e1b3b","system_id":"levelo_inurba_marseille","lat":43.28631,"lon":5.35103,"is_reserved":false,"is_disabled":false,"rental_uris":{"android":"levelo://app?vid=a6bd990a-685a-41d8-b918-9cbe4c8e1b3b","ios":"levelo://app?vid=a6bd990a-685a-41d8-b918-9cbe4c8e1b3b"},"vehicle_type_id":"4","last_reported":1741550830,"current_range_meters":8800,"station_id":"ce4bhch2rcd13ifvqeug","pricing_plan_id":"cebpf4jnsgd1na2vs0mg"},{"bike_id":"b4c9fc08-92b4-40ba-ba9e-03e885dbfc0c","system_id":"levelo_inurba_marseille","lat":43.23067,"lon":5.355,"is_reserved":false,"is_disabled":false,"rental_uris":{"android":"levelo://app?vid=b4c9fc08-92b4-40ba-ba9e-03e885dbfc0c","ios":"levelo://app?vid=b4c9fc08-92b4-40ba-ba9e-03e885dbfc0c"},"vehicle_type_id":"4","last_reported":1741550830,"current_range_meters":8800,"station_id":"cpo3342slgdg3j2ifvpg","pricing_plan_id":"cebpf4jnsgd1na2vs0mg"},{"bike_id":"746b7595-f0ba-41be-a02d-d4eb178e3a67","system_id":"levelo_inurba_marseille","lat":43.24658,"lon":5.38181,"is_reserved":false,"is_disabled":false,"rental_uris":{"android":"levelo://app?vid=746b7595-f0ba-41be-a02d-d4eb178e3a67","ios":"levelo://app?vid=746b7595-f0ba-41be-a02d-d4eb178e3a67"},"vehicle_type_id":"4","last_reported":1741550830,"current_range_meters":9200,"station_id":"ce4bhih2rcd13ifvqfr0","pricing_plan_id":"cebpf4jnsgd1na2vs0mg"},{"bike_id":"087036ff-e2fe-413c-b913-026734388b1f","system_id":"levelo_inurba_marseille","lat":43.26793,"lon":5.394347,"is_reserved":false,"is_disabled":false,"rental_uris":{"android":"levelo://app?vid=087036ff-e2fe-413c-b913-026734388b1f","ios":"levelo://app?vid=087036ff-e2fe-413c-b913-026734388b1f"},"vehicle_type_id":"4","last_reported":1741550830,"current_range_meters":9200,"station_id":"ce4bhh12rcd13ifvqfg0","pricing_plan_id":"cebpf4jnsgd1na2vs0mg"},{"bike_id":"f5d27d01-effc-4a0c-b4ac-2b42b750aca5","system_id":"levelo_inurba_marseille","lat":43.24567,"lon":5.39521,"is_reserved":false,"is_disabled":false,"rental_uris":{"android":"levelo://app?vid=f5d27d01-effc-4a0c-b4ac-2b42b750aca5","ios":"levelo://app?vid=f5d27d01-effc-4a0c-b4ac-2b42b750aca5"},"vehicle_type_id":"4","last_reported":1741550830,"current_range_meters":9200,"station_id":"ce4bhlp2rcd13ifvqgjg","pricing_plan_id":"cebpf4jnsgd1na2vs0mg"},{"bike_id":"4c5d8bb4-3d1e-4689-9d72-361d8d376cce","system_id":"levelo_inurba_marseille","lat":43.24807,"lon":5.37468,"is_reserved":false,"is_disabled":false,"rental_uris":{"android":"levelo://app?vid=4c5d8bb4-3d1e-4689-9d72-361d8d376cce","ios":"levelo://app?vid=4c5d8bb4-3d1e-4689-9d72-361d8d376cce"},"vehicle_type_id":"4","last_reported":1741550830,"current_range_meters":9200,"station_id":"ce4bhgh2rcd13ifvqfb0","pricing_plan_id":"cebpf4jnsgd1na2vs0mg"},{"bike_id":"3be05de1-f1d3-4ad2-a148-a6cb978e1795","system_id":"levelo_inurba_marseille","lat":43.29804,"lon":5.381,"is_reserved":false,"is_disabled":false,"rental_uris":{"android":"levelo://app?vid=3be05de1-f1d3-4ad2-a148-a6cb978e1795","ios":"levelo://app?vid=3be05de1-f1d3-4ad2-a148-a6cb978e1795"},"vehicle_type_id":"4","last_reported":1741550830,"current_range_meters":9600,"station_id":"ce4bgip2rcd13ifvqbb0","pricing_plan_id":"cebpf4jnsgd1na2vs0mg"},{"bike_id":"b3b6de43-7ccc-473b-9e87-034a0d9f1009","system_id":"levelo_inurba_marseille","lat":43.28997,"lon":5.37519,"is_reserved":false,"is_disabled":true,"rental_uris":{"android":"levelo://app?vid=b3b6de43-7ccc-473b-9e87-034a0d9f1009","ios":"levelo://app?vid=b3b6de43-7ccc-473b-9e87-034a0d9f1009"},"vehicle_type_id":"4","last_reported":1741550830,"current_range_meters":9600,"station_id":"","pricing_plan_id":"cebpf4jnsgd1na2vs0mg"},{"bike_id":"ac13c927-ef96-480c-ac70-9f27e602a87a","system_id":"levelo_inurba_marseille","lat":43.25581,"lon":5.38237,"is_reserved":false,"is_disabled":false,"rental_uris":{"android":"levelo://app?vid=ac13c927-ef96-480c-ac70-9f27e602a87a","ios":"levelo://app?vid=ac13c927-ef96-480c-ac70-9f27e602a87a"},"vehicle_type_id":"4","last_reported":1741550830,"current_range_meters":9600,"station_id":"ce4bhih2rcd13ifvqfs0","pricing_plan_id":"cebpf4jnsgd1na2vs0mg"},{"bike_id":"34565812-0fff-4dbb-b10e-c8a1a59facae","system_id":"levelo_inurba_marseille","lat":43.31717,"lon":5.43699,"is_reserved":false,"is_disabled":true,"rental_uris":{"android":"levelo://app?vid=34565812-0fff-4dbb-b10e-c8a1a59facae","ios":"levelo://app?vid=34565812-0fff-4dbb-b10e-c8a1a59facae"},"vehicle_type_id":"4","last_reported":1741550830,"current_range_meters":10000,"station_id":"ce4bhp92rcd13ifvqhcg","pricing_plan_id":"cebpf4jnsgd1na2vs0mg"},{"bike_id":"0ab1cca9-9bdd-4f19-84c3-3c95846a54cd","system_id":"levelo_inurba_marseille","lat":43.293,"lon":5.37456,"is_reserved":false,"is_disabled":false,"rental_uris":{"android":"levelo://app?vid=0ab1cca9-9bdd-4f19-84c3-3c95846a54cd","ios":"levelo://app?vid=0ab1cca9-9bdd-4f19-84c3-3c95846a54cd"},"vehicle_type_id":"4","last_reported":1741550830,"current_range_meters":10000,"station_id":"ce4bgi12rcd13ifvqb70","pricing_plan_id":"cebpf4jnsgd1na2vs0mg"},{"bike_id":"61193e8a-8e60-4220-8577-846bbeba5e58","system_id":"levelo_inurba_marseille","lat":43.30604,"lon":5.37228,"is_reserved":false,"is_disabled":false,"rental_uris":{"android":"levelo://app?vid=61193e8a-8e60-4220-8577-846bbeba5e58","ios":"levelo://app?vid=61193e8a-8e60-4220-8577-846bbeba5e58"},"vehicle_type_id":"4","last_reported":1741550830,"current_range_meters":10000,"station_id":"ce4bgqh2rcd13ifvqc4g","pricing_plan_id":"cebpf4jnsgd1na2vs0mg"},{"bike_id":"365263c5-5707-4d0b-99e3-506f6a4cceb7","system_id":"levelo_inurba_marseille","lat":43.24122,"lon":5.3777,"is_reserved":false,"is_disabled":false,"rental_uris":{"android":"levelo://app?vid=365263c5-5707-4d0b-99e3-506f6a4cceb7","ios":"levelo://app?vid=365263c5-5707-4d0b-99e3-506f6a4cceb7"},"vehicle_type_id":"4","last_reported":1741550830,"current_range_meters":10800,"station_id":"ce4bhnp2rcd13ifvqgvg","pricing_plan_id":"cebpf4jnsgd1na2vs0mg"},{"bike_id":"18656ee1-bec4-47b9-821d-61902b6f5512","system_id":"levelo_inurba_marseille","lat":43.24545,"lon":5.39534,"is_reserved":false,"is_disabled":false,"rental_uris":{"android":"levelo://app?vid=18656ee1-bec4-47b9-821d-61902b6f5512","ios":"levelo://app?vid=18656ee1-bec4-47b9-821d-61902b6f5512"},"vehicle_type_id":"4","last_reported":1741550830,"current_range_meters":10800,"station_id":"ce4bhlp2rcd13ifvqgjg","pricing_plan_id":"cebpf4jnsgd1na2vs0mg"},{"bike_id":"5e7b27ef-a426-4849-8056-82ebaa124bb0","system_id":"levelo_inurba_marseille","lat":43.3024,"lon":5.40072,"is_reserved":false,"is_disabled":true,"rental_uris":{"android":"levelo://app?vid=5e7b27ef-a426-4849-8056-82ebaa124bb0","ios":"levelo://app?vid=5e7b27ef-a426-4849-8056-82ebaa124bb0"},"vehicle_type_id":"4","last_reported":1741550830,"current_range_meters":10800,"station_id":"ce4bgvh2rcd13ifvqcs0","pricing_plan_id":"cebpf4jnsgd1na2vs0mg"},{"bike_id":"67fc845a-4e54-4c1c-8b59-aae9c41867a4","system_id":"levelo_inurba_marseille","lat":43.270741,"lon":5.422737,"is_reserved":false,"is_disabled":false,"rental_uris":{"android":"levelo://app?vid=67fc845a-4e54-4c1c-8b59-aae9c41867a4","ios":"levelo://app?vid=67fc845a-4e54-4c1c-8b59-aae9c41867a4"},"vehicle_type_id":"4","last_reported":1741550830,"current_range_meters":10800,"station_id":"ce4bhk92rcd13ifvqgb0","pricing_plan_id":"cebpf4jnsgd1na2vs0mg"},{"bike_id":"1c481fb0-d338-447e-9ac4-5d0e02692c73","system_id":"levelo_inurba_marseille","lat":43.2549,"lon":5.37649,"is_reserved":false,"is_disabled":false,"rental_uris":{"android":"levelo://app?vid=1c481fb0-d338-447e-9ac4-5d0e02692c73","ios":"levelo://app?vid=1c481fb0-d338-447e-9ac4-5d0e02692c73"},"vehicle_type_id":"4","last_reported":1741550830,"current_range_meters":10800,"station_id":"ce4bhh12rcd13ifvqff0","pricing_plan_id":"cebpf4jnsgd1na2vs0mg"},{"bike_id":"95a9099a-60dc-480d-ab0b-ec9e3943d5e5","system_id":"levelo_inurba_marseille","lat":43.24644,"lon":5.38905,"is_reserved":false,"is_disabled":false,"rental_uris":{"android":"levelo://app?vid=95a9099a-60dc-480d-ab0b-ec9e3943d5e5","ios":"levelo://app?vid=95a9099a-60dc-480d-ab0b-ec9e3943d5e5"},"vehicle_type_id":"4","last_reported":1741550830,"current_range_meters":10800,"station_id":"ce4bhg12rcd13ifvqf60","pricing_plan_id":"cebpf4jnsgd1na2vs0mg"},{"bike_id":"ebb2d58b-982f-41cd-b65c-668035c69ec1","system_id":"levelo_inurba_marseille","lat":43.30461,"lon":5.37168,"is_reserved":false,"is_disabled":false,"rental_uris":{"android":"levelo://app?vid=ebb2d58b-982f-41cd-b65c-668035c69ec1","ios":"levelo://app?vid=ebb2d58b-982f-41cd-b65c-668035c69ec1"},"vehicle_type_id":"4","last_reported":1741550830,"current_range_meters":10800,"station_id":"","pricing_plan_id":"cebpf4jnsgd1na2vs0mg"},{"bike_id":"6503f83c-089e-443d-9c4d-c5c9fa6b70ea","system_id":"levelo_inurba_marseille","lat":43.25725,"lon":5.41119,"is_reserved":false,"is_disabled":false,"rental_uris":{"android":"levelo://app?vid=6503f83c-089e-443d-9c4d-c5c9fa6b70ea","ios":"levelo://app?vid=6503f83c-089e-443d-9c4d-c5c9fa6b70ea"},"vehicle_type_id":"4","last_reported":1741550830,"current_range_meters":10800,"station_id":"ce4bhkp2rcd13ifvqgd0","pricing_plan_id":"cebpf4jnsgd1na2vs0mg"},{"bike_id":"11f35fc8-bf5a-42db-8ee3-67d16f82ad59","system_id":"levelo_inurba_marseille","lat":43.24092,"lon":5.37755,"is_reserved":false,"is_disabled":false,"rental_uris":{"android":"levelo://app?vid=11f35fc8-bf5a-42db-8ee3-67d16f82ad59","ios":"levelo://app?vid=11f35fc8-bf5a-42db-8ee3-67d16f82ad59"},"vehicle_type_id":"4","last_reported":1741550830,"current_range_meters":11200,"station_id":"ce4bhnp2rcd13ifvqgvg","pricing_plan_id":"cebpf4jnsgd1na2vs0mg"},{"bike_id":"35514726-1011-43b4-839d-fee055dcb757","system_id":"levelo_inurba_marseille","lat":43.30271,"lon":5.4002,"is_reserved":false,"is_disabled":false,"rental_uris":{"android":"levelo://app?vid=35514726-1011-43b4-839d-fee055dcb757","ios":"levelo://app?vid=35514726-1011-43b4-839d-fee055dcb757"},"vehicle_type_id":"4","last_reported":1741550830,"current_range_meters":11200,"station_id":"ce4bgvh2rcd13ifvqcs0","pricing_plan_id":"cebpf4jnsgd1na2vs0mg"},{"bike_id":"19609529-1868-4c17-842e-4ad490db40d4","system_id":"levelo_inurba_marseille","lat":43.313598,"lon":5.384968,"is_reserved":false,"is_disabled":false,"rental_uris":{"android":"levelo://app?vid=19609529-1868-4c17-842e-4ad490db40d4","ios":"levelo://app?vid=19609529-1868-4c17-842e-4ad490db40d4"},"vehicle_type_id":"4","last_reported":1741550830,"current_range_meters":11200,"station_id":"ce4bgt92rcd13ifvqcf0","pricing_plan_id":"cebpf4jnsgd1na2vs0mg"},{"bike_id":"fe0ec737-5a80-48e8-adfe-00e47b1c2424","system_id":"levelo_inurba_marseille","lat":43.3119,"lon":5.38697,"is_reserved":false,"is_disabled":false,"rental_uris":{"android":"levelo://app?vid=fe0ec737-5a80-48e8-adfe-00e47b1c2424","ios":"levelo://app?vid=fe0ec737-5a80-48e8-adfe-00e47b1c2424"},"vehicle_type_id":"4","last_reported":1741550830,"current_range_meters":11200,"station_id":"ce4bgv12rcd13ifvqcp0","pricing_plan_id":"cebpf4jnsgd1na2vs0mg"},{"bike_id":"60f4da96-da64-488c-98f7-c9a61709620a","system_id":"levelo_inurba_marseille","lat":43.25582,"lon":5.38242,"is_reserved":false,"is_disabled":false,"rental_uris":{"android":"levelo://app?vid=60f4da96-da64-488c-98f7-c9a61709620a","ios":"levelo://app?vid=60f4da96-da64-488c-98f7-c9a61709620a"},"vehicle_type_id":"4","last_reported":1741550830,"current_range_meters":11200,"station_id":"ce4bhih2rcd13ifvqfs0","pricing_plan_id":"cebpf4jnsgd1na2vs0mg"},{"bike_id":"6332f21c-b735-409b-8f12-ffcec3dc9b39","system_id":"levelo_inurba_marseille","lat":43.23193,"lon":5.39986,"is_reserved":false,"is_disabled":false,"rental_uris":{"android":"levelo://app?vid=6332f21c-b735-409b-8f12-ffcec3dc9b39","ios":"levelo://app?vid=6332f21c-b735-409b-8f12-ffcec3dc9b39"},"vehicle_type_id":"4","last_reported":1741550830,"current_range_meters":11200,"station_id":"ce4bhn12rcd13ifvqgqg","pricing_plan_id":"cebpf4jnsgd1na2vs0mg"},{"bike_id":"64fdb816-a58d-4d00-b8b1-9f2d0690f5c1","system_id":"levelo_inurba_marseille","lat":43.24159,"lon":5.36446,"is_reserved":false,"is_disabled":true,"rental_uris":{"android":"levelo://app?vid=64fdb816-a58d-4d00-b8b1-9f2d0690f5c1","ios":"levelo://app?vid=64fdb816-a58d-4d00-b8b1-9f2d0690f5c1"},"vehicle_type_id":"4","last_reported":1741550830,"current_range_meters":11600,"station_id":"cpo36qri1sfpv3e86is0","pricing_plan_id":"cebpf4jnsgd1na2vs0mg"},{"bike_id":"7f08542c-3622-4bee-8852-d0974c0ec085","system_id":"levelo_inurba_marseille","lat":43.24141,"lon":5.36355,"is_reserved":false,"is_disabled":false,"rental_uris":{"android":"levelo://app?vid=7f08542c-3622-4bee-8852-d0974c0ec085","ios":"levelo://app?vid=7f08542c-3622-4bee-8852-d0974c0ec085"},"vehicle_type_id":"4","last_reported":1741550830,"current_range_meters":11600,"station_id":"cpo36qri1sfpv3e86is0","pricing_plan_id":"cebpf4jnsgd1na2vs0mg"},{"bike_id":"239162f1-6901-4b7a-b4a8-fb7b0f41bdca","system_id":"levelo_inurba_marseille","lat":43.255739,"lon":5.38242,"is_reserved":false,"is_disabled":false,"rental_uris":{"android":"levelo://app?vid=239162f1-6901-4b7a-b4a8-fb7b0f41bdca","ios":"levelo://app?vid=239162f1-6901-4b7a-b4a8-fb7b0f41bdca"},"vehicle_type_id":"4","last_reported":1741550830,"current_range_meters":11600,"station_id":"ce4bhih2rcd13ifvqfs0","pricing_plan_id":"cebpf4jnsgd1na2vs0mg"},{"bike_id":"5ed2dd89-a937-49df-801e-4fd381bacc70","system_id":"levelo_inurba_marseille","lat":43.251214,"lon":5.403196,"is_reserved":false,"is_disabled":false,"rental_uris":{"android":"levelo://app?vid=5ed2dd89-a937-49df-801e-4fd381bacc70","ios":"levelo://app?vid=5ed2dd89-a937-49df-801e-4fd381bacc70"},"vehicle_type_id":"4","last_reported":1741550830,"current_range_meters":11600,"station_id":"ce4bhlh2rcd13ifvqgig","pricing_plan_id":"cebpf4jnsgd1na2vs0mg"},{"bike_id":"f957b7c5-cf17-4e93-9ecf-3b65410cc4e5","system_id":"levelo_inurba_marseille","lat":43.32133,"lon":5.38028,"is_reserved":false,"is_disabled":false,"rental_uris":{"android":"levelo://app?vid=f957b7c5-cf17-4e93-9ecf-3b65410cc4e5","ios":"levelo://app?vid=f957b7c5-cf17-4e93-9ecf-3b65410cc4e5"},"vehicle_type_id":"4","last_reported":1741550830,"current_range_meters":11600,"station_id":"","pricing_plan_id":"cebpf4jnsgd1na2vs0mg"},{"bike_id":"0221ef38-d887-4acd-a581-8fe904943e96","system_id":"levelo_inurba_marseille","lat":43.2511,"lon":5.40309,"is_reserved":false,"is_disabled":false,"rental_uris":{"android":"levelo://app?vid=0221ef38-d887-4acd-a581-8fe904943e96","ios":"levelo://app?vid=0221ef38-d887-4acd-a581-8fe904943e96"},"vehicle_type_id":"4","last_reported":1741550830,"current_range_meters":12000,"station_id":"ce4bhlh2rcd13ifvqgig","pricing_plan_id":"cebpf4jnsgd1na2vs0mg"},{"bike_id":"cc8ccfcb-3658-4b9e-8ea9-b04a28ec7454","system_id":"levelo_inurba_marseille","lat":43.28176,"lon":5.42627,"is_reserved":false,"is_disabled":false,"rental_uris":{"android":"levelo://app?vid=cc8ccfcb-3658-4b9e-8ea9-b04a28ec7454","ios":"levelo://app?vid=cc8ccfcb-3658-4b9e-8ea9-b04a28ec7454"},"vehicle_type_id":"4","last_reported":1741550830,"current_range_meters":12000,"station_id":"ce4bhnh2rcd13ifvqgug","pricing_plan_id":"cebpf4jnsgd1na2vs0mg"},{"bike_id":"1ffe0839-d6b0-49e0-a58b-164465fcccd9","system_id":"levelo_inurba_marseille","lat":43.246517,"lon":5.388908,"is_reserved":false,"is_disabled":false,"rental_uris":{"android":"levelo://app?vid=1ffe0839-d6b0-49e0-a58b-164465fcccd9","ios":"levelo://app?vid=1ffe0839-d6b0-49e0-a58b-164465fcccd9"},"vehicle_type_id":"4","last_reported":1741550830,"current_range_meters":12000,"station_id":"ce4bhg12rcd13ifvqf60","pricing_plan_id":"cebpf4jnsgd1na2vs0mg"},{"bike_id":"1f72adc6-3d1a-4fad-a905-cb9dcd596e26","system_id":"levelo_inurba_marseille","lat":43.23852,"lon":5.43548,"is_reserved":false,"is_disabled":false,"rental_uris":{"android":"levelo://app?vid=1f72adc6-3d1a-4fad-a905-cb9dcd596e26","ios":"levelo://app?vid=1f72adc6-3d1a-4fad-a905-cb9dcd596e26"},"vehicle_type_id":"4","last_reported":1741550830,"current_range_meters":12000,"station_id":"","pricing_plan_id":"cebpf4jnsgd1na2vs0mg"},{"bike_id":"3795c289-beea-44c3-a7ae-fd3e55b72f22","system_id":"levelo_inurba_marseille","lat":43.28618,"lon":5.35093,"is_reserved":false,"is_disabled":true,"rental_uris":{"android":"levelo://app?vid=3795c289-beea-44c3-a7ae-fd3e55b72f22","ios":"levelo://app?vid=3795c289-beea-44c3-a7ae-fd3e55b72f22"},"vehicle_type_id":"4","last_reported":1741550830,"current_range_meters":12400,"station_id":"ce4bhch2rcd13ifvqeug","pricing_plan_id":"cebpf4jnsgd1na2vs0mg"},{"bike_id":"a02a28d4-d06e-4518-80af-d4c0443381ad","system_id":"levelo_inurba_marseille","lat":43.32302,"lon":5.38263,"is_reserved":false,"is_disabled":false,"rental_uris":{"android":"levelo://app?vid=a02a28d4-d06e-4518-80af-d4c0443381ad","ios":"levelo://app?vid=a02a28d4-d06e-4518-80af-d4c0443381ad"},"vehicle_type_id":"4","last_reported":1741550830,"current_range_meters":12400,"station_id":"ce4bhr12rcd13ifvqhqg","pricing_plan_id":"cebpf4jnsgd1na2vs0mg"},{"bike_id":"fe94410e-aa42-416c-9c96-04749bbe8893","system_id":"levelo_inurba_marseille","lat":43.284778,"lon":5.384328,"is_reserved":false,"is_disabled":false,"rental_uris":{"android":"levelo://app?vid=fe94410e-aa42-416c-9c96-04749bbe8893","ios":"levelo://app?vid=fe94410e-aa42-416c-9c96-04749bbe8893"},"vehicle_type_id":"4","last_reported":1741550830,"current_range_meters":12400,"station_id":"ce4bh512rcd13ifvqe3g","pricing_plan_id":"cebpf4jnsgd1na2vs0mg"},{"bike_id":"91f0b97b-efcf-46d9-8bbf-c1ba93008778","system_id":"levelo_inurba_marseille","lat":43.27349,"lon":5.39128,"is_reserved":false,"is_disabled":true,"rental_uris":{"android":"levelo://app?vid=91f0b97b-efcf-46d9-8bbf-c1ba93008778","ios":"levelo://app?vid=91f0b97b-efcf-46d9-8bbf-c1ba93008778"},"vehicle_type_id":"4","last_reported":1741550830,"current_range_meters":12400,"station_id":"ce4bhgp2rcd13ifvqfe0","pricing_plan_id":"cebpf4jnsgd1na2vs0mg"},{"bike_id":"40105887-9bc0-4723-8d9f-9de791c42c03","system_id":"levelo_inurba_marseille","lat":43.31526,"lon":5.38032,"is_reserved":false,"is_disabled":false,"rental_uris":{"android":"levelo://app?vid=40105887-9bc0-4723-8d9f-9de791c42c03","ios":"levelo://app?vid=40105887-9bc0-4723-8d9f-9de791c42c03"},"vehicle_type_id":"4","last_reported":1741550830,"current_range_meters":12400,"station_id":"ce4bhsp2rcd13ifvqi50","pricing_plan_id":"cebpf4jnsgd1na2vs0mg"},{"bike_id":"4157396e-6ece-45b3-8db6-5f36be26c941","system_id":"levelo_inurba_marseille","lat":43.26572,"lon":5.3902,"is_reserved":false,"is_disabled":false,"rental_uris":{"android":"levelo://app?vid=4157396e-6ece-45b3-8db6-5f36be26c941","ios":"levelo://app?vid=4157396e-6ece-45b3-8db6-5f36be26c941"},"vehicle_type_id":"4","last_reported":1741550830,"current_range_meters":12400,"station_id":"ce4bhe12rcd13ifvqf30","pricing_plan_id":"cebpf4jnsgd1na2vs0mg"},{"bike_id":"32711cb1-35b1-48bc-b979-758999ee6df9","system_id":"levelo_inurba_marseille","lat":43.309473,"lon":5.390263,"is_reserved":false,"is_disabled":false,"rental_uris":{"android":"levelo://app?vid=32711cb1-35b1-48bc-b979-758999ee6df9","ios":"levelo://app?vid=32711cb1-35b1-48bc-b979-758999ee6df9"},"vehicle_type_id":"4","last_reported":1741550830,"current_range_meters":12400,"station_id":"ce4bgup2rcd13ifvqco0","pricing_plan_id":"cebpf4jnsgd1na2vs0mg"},{"bike_id":"ef6303de-f84a-4b1f-9060-2a8d28e015bb","system_id":"levelo_inurba_marseille","lat":43.24058,"lon":5.37748,"is_reserved":false,"is_disabled":false,"rental_uris":{"android":"levelo://app?vid=ef6303de-f84a-4b1f-9060-2a8d28e015bb","ios":"levelo://app?vid=ef6303de-f84a-4b1f-9060-2a8d28e015bb"},"vehicle_type_id":"4","last_reported":1741550830,"current_range_meters":12800,"station_id":"ce4bhnp2rcd13ifvqgvg","pricing_plan_id":"cebpf4jnsgd1na2vs0mg"},{"bike_id":"5feb6fa1-6aef-4afb-8cf0-7112712f90e3","system_id":"levelo_inurba_marseille","lat":43.305333,"lon":5.367053,"is_reserved":false,"is_disabled":true,"rental_uris":{"android":"levelo://app?vid=5feb6fa1-6aef-4afb-8cf0-7112712f90e3","ios":"levelo://app?vid=5feb6fa1-6aef-4afb-8cf0-7112712f90e3"},"vehicle_type_id":"4","last_reported":1741550830,"current_range_meters":12800,"station_id":"ce4bgrp2rcd13ifvqc9g","pricing_plan_id":"cebpf4jnsgd1na2vs0mg"},{"bike_id":"199cb7b2-857a-4db4-b08b-30cc2dc0c4f3","system_id":"levelo_inurba_marseille","lat":43.31712,"lon":5.43721,"is_reserved":false,"is_disabled":false,"rental_uris":{"android":"levelo://app?vid=199cb7b2-857a-4db4-b08b-30cc2dc0c4f3","ios":"levelo://app?vid=199cb7b2-857a-4db4-b08b-30cc2dc0c4f3"},"vehicle_type_id":"4","last_reported":1741550830,"current_range_meters":12800,"station_id":"ce4bhp92rcd13ifvqhcg","pricing_plan_id":"cebpf4jnsgd1na2vs0mg"},{"bike_id":"3e93b162-f299-477d-9ef9-e2acab4085b9","system_id":"levelo_inurba_marseille","lat":43.31222,"lon":5.3876,"is_reserved":false,"is_disabled":false,"rental_uris":{"android":"levelo://app?vid=3e93b162-f299-477d-9ef9-e2acab4085b9","ios":"levelo://app?vid=3e93b162-f299-477d-9ef9-e2acab4085b9"},"vehicle_type_id":"4","last_reported":1741550830,"current_range_meters":12800,"station_id":"","pricing_plan_id":"cebpf4jnsgd1na2vs0mg"},{"bike_id":"3b9a653a-2fa2-4334-b7b8-6db4ab68b695","system_id":"levelo_inurba_marseille","lat":43.2844,"lon":5.391848,"is_reserved":false,"is_disabled":true,"rental_uris":{"android":"levelo://app?vid=3b9a653a-2fa2-4334-b7b8-6db4ab68b695","ios":"levelo://app?vid=3b9a653a-2fa2-4334-b7b8-6db4ab68b695"},"vehicle_type_id":"4","last_reported":1741550830,"current_range_meters":12800,"station_id":"ce4bhoh2rcd13ifvqh5g","pricing_plan_id":"cebpf4jnsgd1na2vs0mg"},{"bike_id":"bac871c7-059b-4dc7-a657-f620d0a4794f","system_id":"levelo_inurba_marseille","lat":43.29612,"lon":5.38108,"is_reserved":false,"is_disabled":true,"rental_uris":{"android":"levelo://app?vid=bac871c7-059b-4dc7-a657-f620d0a4794f","ios":"levelo://app?vid=bac871c7-059b-4dc7-a657-f620d0a4794f"},"vehicle_type_id":"4","last_reported":1741550830,"current_range_meters":12800,"station_id":"ce4bgl12rcd13ifvqbo0","pricing_plan_id":"cebpf4jnsgd1na2vs0mg"},{"bike_id":"3ed0c8ba-c7f7-40d8-9403-a3f96d6af6b9","system_id":"levelo_inurba_marseille","lat":43.32366,"lon":5.36751,"is_reserved":false,"is_disabled":false,"rental_uris":{"android":"levelo://app?vid=3ed0c8ba-c7f7-40d8-9403-a3f96d6af6b9","ios":"levelo://app?vid=3ed0c8ba-c7f7-40d8-9403-a3f96d6af6b9"},"vehicle_type_id":"4","last_reported":1741550830,"current_range_meters":12800,"station_id":"ce4bhsh2rcd13ifvqi2g","pricing_plan_id":"cebpf4jnsgd1na2vs0mg"},{"bike_id":"4e988b79-546d-4039-b5f6-8f94585d4ef4","system_id":"levelo_inurba_marseille","lat":43.33418,"lon":5.36029,"is_reserved":false,"is_disabled":false,"rental_uris":{"android":"levelo://app?vid=4e988b79-546d-4039-b5f6-8f94585d4ef4","ios":"levelo://app?vid=4e988b79-546d-4039-b5f6-8f94585d4ef4"},"vehicle_type_id":"4","last_reported":1741550830,"current_range_meters":13600,"station_id":"","pricing_plan_id":"cebpf4jnsgd1na2vs0mg"},{"bike_id":"c59cfede-72d5-4c07-aa0e-b184c85be70a","system_id":"levelo_inurba_marseille","lat":43.25081,"lon":5.39535,"is_reserved":false,"is_disabled":false,"rental_uris":{"android":"levelo://app?vid=c59cfede-72d5-4c07-aa0e-b184c85be70a","ios":"levelo://app?vid=c59cfede-72d5-4c07-aa0e-b184c85be70a"},"vehicle_type_id":"4","last_reported":1741550830,"current_range_meters":13600,"station_id":"ce4bhm12rcd13ifvqgkg","pricing_plan_id":"cebpf4jnsgd1na2vs0mg"},{"bike_id":"895910d5-c55d-48ae-a7d7-789ae9ebaa6d","system_id":"levelo_inurba_marseille","lat":43.28418,"lon":5.37508,"is_reserved":false,"is_disabled":true,"rental_uris":{"android":"levelo://app?vid=895910d5-c55d-48ae-a7d7-789ae9ebaa6d","ios":"levelo://app?vid=895910d5-c55d-48ae-a7d7-789ae9ebaa6d"},"vehicle_type_id":"4","last_reported":1741550830,"current_range_meters":13600,"station_id":"ce4bh412rcd13ifvqds0","pricing_plan_id":"cebpf4jnsgd1na2vs0mg"},{"bike_id":"a2a96e25-6e4d-4f22-bccf-4d57539a8d60","system_id":"levelo_inurba_marseille","lat":43.31171,"lon":5.38711,"is_reserved":false,"is_disabled":false,"rental_uris":{"android":"levelo://app?vid=a2a96e25-6e4d-4f22-bccf-4d57539a8d60","ios":"levelo://app?vid=a2a96e25-6e4d-4f22-bccf-4d57539a8d60"},"vehicle_type_id":"4","last_reported":1741550830,"current_range_meters":13600,"station_id":"ce4bgv12rcd13ifvqcp0","pricing_plan_id":"cebpf4jnsgd1na2vs0mg"},{"bike_id":"d89207cb-27fe-45f3-b661-72cbbc9a2274","system_id":"levelo_inurba_marseille","lat":43.3136,"lon":5.38514,"is_reserved":false,"is_disabled":false,"rental_uris":{"android":"levelo://app?vid=d89207cb-27fe-45f3-b661-72cbbc9a2274","ios":"levelo://app?vid=d89207cb-27fe-45f3-b661-72cbbc9a2274"},"vehicle_type_id":"4","last_reported":1741550830,"current_range_meters":13600,"station_id":"ce4bgt92rcd13ifvqcf0","pricing_plan_id":"cebpf4jnsgd1na2vs0mg"},{"bike_id":"9bffac8a-38cc-41f0-bdae-455783c2f48e","system_id":"levelo_inurba_marseille","lat":43.29905,"lon":5.38146,"is_reserved":false,"is_disabled":false,"rental_uris":{"android":"levelo://app?vid=9bffac8a-38cc-41f0-bdae-455783c2f48e","ios":"levelo://app?vid=9bffac8a-38cc-41f0-bdae-455783c2f48e"},"vehicle_type_id":"4","last_reported":1741550830,"current_range_meters":13600,"station_id":"ce4bgj12rcd13ifvqbc0","pricing_plan_id":"cebpf4jnsgd1na2vs0mg"},{"bike_id":"a37d42aa-085d-4a56-8e08-eaf93bfe5e2b","system_id":"levelo_inurba_marseille","lat":43.31203,"lon":5.38712,"is_reserved":false,"is_disabled":true,"rental_uris":{"android":"levelo://app?vid=a37d42aa-085d-4a56-8e08-eaf93bfe5e2b","ios":"levelo://app?vid=a37d42aa-085d-4a56-8e08-eaf93bfe5e2b"},"vehicle_type_id":"4","last_reported":1741550830,"current_range_meters":13600,"station_id":"ce4bgv12rcd13ifvqcp0","pricing_plan_id":"cebpf4jnsgd1na2vs0mg"},{"bike_id":"8645bf35-f5b2-48f7-8496-8f0131101e85","system_id":"levelo_inurba_marseille","lat":43.26578,"lon":5.3736,"is_reserved":false,"is_disabled":false,"rental_uris":{"android":"levelo://app?vid=8645bf35-f5b2-48f7-8496-8f0131101e85","ios":"levelo://app?vid=8645bf35-f5b2-48f7-8496-8f0131101e85"},"vehicle_type_id":"4","last_reported":1741550830,"current_range_meters":13600,"station_id":"ce4bhg12rcd13ifvqf70","pricing_plan_id":"cebpf4jnsgd1na2vs0mg"},{"bike_id":"83fe625c-a403-4ad3-b440-2e9d65d3891e","system_id":"levelo_inurba_marseille","lat":43.25577,"lon":5.38237,"is_reserved":false,"is_disabled":false,"rental_uris":{"android":"levelo://app?vid=83fe625c-a403-4ad3-b440-2e9d65d3891e","ios":"levelo://app?vid=83fe625c-a403-4ad3-b440-2e9d65d3891e"},"vehicle_type_id":"4","last_reported":1741550830,"current_range_meters":14000,"station_id":"ce4bhih2rcd13ifvqfs0","pricing_plan_id":"cebpf4jnsgd1na2vs0mg"},{"bike_id":"81bc8ec7-203d-452b-a4e8-595b7bbc2677","system_id":"levelo_inurba_marseille","lat":43.28999,"lon":5.35626,"is_reserved":false,"is_disabled":true,"rental_uris":{"android":"levelo://app?vid=81bc8ec7-203d-452b-a4e8-595b7bbc2677","ios":"levelo://app?vid=81bc8ec7-203d-452b-a4e8-595b7bbc2677"},"vehicle_type_id":"4","last_reported":1741550830,"current_range_meters":14000,"station_id":"ce4bhb92rcd13ifvqen0","pricing_plan_id":"cebpf4jnsgd1na2vs0mg"},{"bike_id":"7dc51c44-6bee-4f7d-84bd-874c4cd4d9f8","system_id":"levelo_inurba_marseille","lat":43.30886,"lon":5.39642,"is_reserved":false,"is_disabled":false,"rental_uris":{"android":"levelo://app?vid=7dc51c44-6bee-4f7d-84bd-874c4cd4d9f8","ios":"levelo://app?vid=7dc51c44-6bee-4f7d-84bd-874c4cd4d9f8"},"vehicle_type_id":"4","last_reported":1741550830,"current_range_meters":14000,"station_id":"ce4bh012rcd13ifvqcv0","pricing_plan_id":"cebpf4jnsgd1na2vs0mg"},{"bike_id":"467504e6-290f-4a04-baa8-655c7144c75b","system_id":"levelo_inurba_marseille","lat":43.29892,"lon":5.38916,"is_reserved":false,"is_disabled":false,"rental_uris":{"android":"levelo://app?vid=467504e6-290f-4a04-baa8-655c7144c75b","ios":"levelo://app?vid=467504e6-290f-4a04-baa8-655c7144c75b"},"vehicle_type_id":"4","last_reported":1741550830,"current_range_meters":14400,"station_id":"ce4bh392rcd13ifvqdl0","pricing_plan_id":"cebpf4jnsgd1na2vs0mg"},{"bike_id":"9155b321-35a7-4504-9dbc-f1b388d020e7","system_id":"levelo_inurba_marseille","lat":43.27819,"lon":5.40709,"is_reserved":false,"is_disabled":false,"rental_uris":{"android":"levelo://app?vid=9155b321-35a7-4504-9dbc-f1b388d020e7","ios":"levelo://app?vid=9155b321-35a7-4504-9dbc-f1b388d020e7"},"vehicle_type_id":"4","last_reported":1741550830,"current_range_meters":14400,"station_id":"ce4bhnh2rcd13ifvqgtg","pricing_plan_id":"cebpf4jnsgd1na2vs0mg"},{"bike_id":"8579e54f-565e-4025-a73c-88723bee831d","system_id":"levelo_inurba_marseille","lat":43.231945,"lon":5.399876,"is_reserved":false,"is_disabled":false,"rental_uris":{"android":"levelo://app?vid=8579e54f-565e-4025-a73c-88723bee831d","ios":"levelo://app?vid=8579e54f-565e-4025-a73c-88723bee831d"},"vehicle_type_id":"4","last_reported":1741550830,"current_range_meters":14400,"station_id":"ce4bhn12rcd13ifvqgqg","pricing_plan_id":"cebpf4jnsgd1na2vs0mg"},{"bike_id":"b54e92b9-a4a7-482c-9d57-67d95c7aea3a","system_id":"levelo_inurba_marseille","lat":43.30323,"lon":5.4044,"is_reserved":false,"is_disabled":false,"rental_uris":{"android":"levelo://app?vid=b54e92b9-a4a7-482c-9d57-67d95c7aea3a","ios":"levelo://app?vid=b54e92b9-a4a7-482c-9d57-67d95c7aea3a"},"vehicle_type_id":"4","last_reported":1741550830,"current_range_meters":14400,"station_id":"ce4bh012rcd13ifvqd10","pricing_plan_id":"cebpf4jnsgd1na2vs0mg"},{"bike_id":"ec0a56da-3b74-4ad5-aa49-ecd7ea511691","system_id":"levelo_inurba_marseille","lat":43.25722,"lon":5.41113,"is_reserved":false,"is_disabled":false,"rental_uris":{"android":"levelo://app?vid=ec0a56da-3b74-4ad5-aa49-ecd7ea511691","ios":"levelo://app?vid=ec0a56da-3b74-4ad5-aa49-ecd7ea511691"},"vehicle_type_id":"4","last_reported":1741550830,"current_range_meters":14400,"station_id":"ce4bhkp2rcd13ifvqgd0","pricing_plan_id":"cebpf4jnsgd1na2vs0mg"},{"bike_id":"35b6c8dd-c1b8-4970-bb1c-0f0396b333a1","system_id":"levelo_inurba_marseille","lat":43.25722,"lon":5.41071,"is_reserved":false,"is_disabled":false,"rental_uris":{"android":"levelo://app?vid=35b6c8dd-c1b8-4970-bb1c-0f0396b333a1","ios":"levelo://app?vid=35b6c8dd-c1b8-4970-bb1c-0f0396b333a1"},"vehicle_type_id":"4","last_reported":1741550830,"current_range_meters":14400,"station_id":"ce4bhkp2rcd13ifvqgd0","pricing_plan_id":"cebpf4jnsgd1na2vs0mg"},{"bike_id":"424a877a-56f1-4c95-8272-1a73fff37bfb","system_id":"levelo_inurba_marseille","lat":43.25135,"lon":5.4033,"is_reserved":false,"is_disabled":false,"rental_uris":{"android":"levelo://app?vid=424a877a-56f1-4c95-8272-1a73fff37bfb","ios":"levelo://app?vid=424a877a-56f1-4c95-8272-1a73fff37bfb"},"vehicle_type_id":"4","last_reported":1741550830,"current_range_meters":14800,"station_id":"ce4bhlh2rcd13ifvqgig","pricing_plan_id":"cebpf4jnsgd1na2vs0mg"},{"bike_id":"375b0e4e-46b2-4f14-9005-cd1590755e2d","system_id":"levelo_inurba_marseille","lat":43.29244,"lon":5.40898,"is_reserved":false,"is_disabled":false,"rental_uris":{"android":"levelo://app?vid=375b0e4e-46b2-4f14-9005-cd1590755e2d","ios":"levelo://app?vid=375b0e4e-46b2-4f14-9005-cd1590755e2d"},"vehicle_type_id":"4","last_reported":1741550830,"current_range_meters":14800,"station_id":"ce4bh192rcd13ifvqdc0","pricing_plan_id":"cebpf4jnsgd1na2vs0mg"},{"bike_id":"1e66a1e1-8fac-4bad-b246-9ff116855410","system_id":"levelo_inurba_marseille","lat":43.28102,"lon":5.44196,"is_reserved":false,"is_disabled":false,"rental_uris":{"android":"levelo://app?vid=1e66a1e1-8fac-4bad-b246-9ff116855410","ios":"levelo://app?vid=1e66a1e1-8fac-4bad-b246-9ff116855410"},"vehicle_type_id":"4","last_reported":1741550830,"current_range_meters":14800,"station_id":"","pricing_plan_id":"cebpf4jnsgd1na2vs0mg"},{"bike_id":"158e535f-825e-4468-93be-62b6e673c923","system_id":"levelo_inurba_marseille","lat":43.26184,"lon":5.42073,"is_reserved":false,"is_disabled":false,"rental_uris":{"android":"levelo://app?vid=158e535f-825e-4468-93be-62b6e673c923","ios":"levelo://app?vid=158e535f-825e-4468-93be-62b6e673c923"},"vehicle_type_id":"4","last_reported":1741550830,"current_range_meters":14800,"station_id":"","pricing_plan_id":"cebpf4jnsgd1na2vs0mg"},{"bike_id":"e7bd67e9-1b39-4ad0-bb3d-eb15c6f32a60","system_id":"levelo_inurba_marseille","lat":43.28461,"lon":5.35894,"is_reserved":false,"is_disabled":false,"rental_uris":{"android":"levelo://app?vid=e7bd67e9-1b39-4ad0-bb3d-eb15c6f32a60","ios":"levelo://app?vid=e7bd67e9-1b39-4ad0-bb3d-eb15c6f32a60"},"vehicle_type_id":"4","last_reported":1741550830,"current_range_meters":14800,"station_id":"ce4bhah2rcd13ifvqei0","pricing_plan_id":"cebpf4jnsgd1na2vs0mg"},{"bike_id":"65ebf940-f6f1-4ba2-8b75-2b2127dd3199","system_id":"levelo_inurba_marseille","lat":43.25022,"lon":5.38944,"is_reserved":false,"is_disabled":false,"rental_uris":{"android":"levelo://app?vid=65ebf940-f6f1-4ba2-8b75-2b2127dd3199","ios":"levelo://app?vid=65ebf940-f6f1-4ba2-8b75-2b2127dd3199"},"vehicle_type_id":"4","last_reported":1741550830,"current_range_meters":14800,"station_id":"ce4bhgp2rcd13ifvqfd0","pricing_plan_id":"cebpf4jnsgd1na2vs0mg"},{"bike_id":"a9dc9408-7c2c-4e10-8d6c-41c9c7ad256b","system_id":"levelo_inurba_marseille","lat":43.28991,"lon":5.37847,"is_reserved":false,"is_disabled":false,"rental_uris":{"android":"levelo://app?vid=a9dc9408-7c2c-4e10-8d6c-41c9c7ad256b","ios":"levelo://app?vid=a9dc9408-7c2c-4e10-8d6c-41c9c7ad256b"},"vehicle_type_id":"4","last_reported":1741550830,"current_range_meters":15200,"station_id":"ce4bh9p2rcd13ifvqed0","pricing_plan_id":"cebpf4jnsgd1na2vs0mg"},{"bike_id":"ae4913d3-c7b3-4e3b-8b0e-9eedefc8bcf1","system_id":"levelo_inurba_marseille","lat":43.31317,"lon":5.388436,"is_reserved":false,"is_disabled":false,"rental_uris":{"android":"levelo://app?vid=ae4913d3-c7b3-4e3b-8b0e-9eedefc8bcf1","ios":"levelo://app?vid=ae4913d3-c7b3-4e3b-8b0e-9eedefc8bcf1"},"vehicle_type_id":"4","last_reported":1741550830,"current_range_meters":15200,"station_id":"","pricing_plan_id":"cebpf4jnsgd1na2vs0mg"},{"bike_id":"906c6e5a-4ec6-4885-afda-48adb50c51d3","system_id":"levelo_inurba_marseille","lat":43.24389,"lon":5.37052,"is_reserved":false,"is_disabled":false,"rental_uris":{"android":"levelo://app?vid=906c6e5a-4ec6-4885-afda-48adb50c51d3","ios":"levelo://app?vid=906c6e5a-4ec6-4885-afda-48adb50c51d3"},"vehicle_type_id":"4","last_reported":1741550830,"current_range_meters":15200,"station_id":"ce4bhhh2rcd13ifvqfk0","pricing_plan_id":"cebpf4jnsgd1na2vs0mg"},{"bike_id":"8db12307-83c5-4ab1-8e4e-b5f471f883f6","system_id":"levelo_inurba_marseille","lat":43.25084,"lon":5.395238,"is_reserved":false,"is_disabled":false,"rental_uris":{"android":"levelo://app?vid=8db12307-83c5-4ab1-8e4e-b5f471f883f6","ios":"levelo://app?vid=8db12307-83c5-4ab1-8e4e-b5f471f883f6"},"vehicle_type_id":"4","last_reported":1741550830,"current_range_meters":15200,"station_id":"ce4bhm12rcd13ifvqgkg","pricing_plan_id":"cebpf4jnsgd1na2vs0mg"},{"bike_id":"7e3d8419-8a9f-4911-a4ba-a72be646bfd3","system_id":"levelo_inurba_marseille","lat":43.295541,"lon":5.42283,"is_reserved":false,"is_disabled":false,"rental_uris":{"android":"levelo://app?vid=7e3d8419-8a9f-4911-a4ba-a72be646bfd3","ios":"levelo://app?vid=7e3d8419-8a9f-4911-a4ba-a72be646bfd3"},"vehicle_type_id":"4","last_reported":1741550830,"current_range_meters":15200,"station_id":"ce4bhph2rcd13ifvqhdg","pricing_plan_id":"cebpf4jnsgd1na2vs0mg"},{"bike_id":"6f90875f-5f20-4ba4-bf72-ab65af64eb4e","system_id":"levelo_inurba_marseille","lat":43.31712,"lon":5.40482,"is_reserved":false,"is_disabled":false,"rental_uris":{"android":"levelo://app?vid=6f90875f-5f20-4ba4-bf72-ab65af64eb4e","ios":"levelo://app?vid=6f90875f-5f20-4ba4-bf72-ab65af64eb4e"},"vehicle_type_id":"4","last_reported":1741550830,"current_range_meters":14800,"station_id":"ce4bh012rcd13ifvqd00","pricing_plan_id":"cebpf4jnsgd1na2vs0mg"},{"bike_id":"a5c5ade0-6f33-45a7-beaf-3545d30425b1","system_id":"levelo_inurba_marseille","lat":43.24091,"lon":5.37735,"is_reserved":false,"is_disabled":false,"rental_uris":{"android":"levelo://app?vid=a5c5ade0-6f33-45a7-beaf-3545d30425b1","ios":"levelo://app?vid=a5c5ade0-6f33-45a7-beaf-3545d30425b1"},"vehicle_type_id":"4","last_reported":1741550830,"current_range_meters":15200,"station_id":"ce4bhnp2rcd13ifvqgvg","pricing_plan_id":"cebpf4jnsgd1na2vs0mg"},{"bike_id":"4491a1e2-eb06-49d1-bf0c-ffab94d6b1ae","system_id":"levelo_inurba_marseille","lat":43.24167,"lon":5.39676,"is_reserved":false,"is_disabled":false,"rental_uris":{"android":"levelo://app?vid=4491a1e2-eb06-49d1-bf0c-ffab94d6b1ae","ios":"levelo://app?vid=4491a1e2-eb06-49d1-bf0c-ffab94d6b1ae"},"vehicle_type_id":"4","last_reported":1741550830,"current_range_meters":16000,"station_id":"ce4bhn12rcd13ifvqgpg","pricing_plan_id":"cebpf4jnsgd1na2vs0mg"},{"bike_id":"203d4b86-c4b8-4907-bf23-14985dae4756","system_id":"levelo_inurba_marseille","lat":43.28115,"lon":5.44228,"is_reserved":false,"is_disabled":false,"rental_uris":{"android":"levelo://app?vid=203d4b86-c4b8-4907-bf23-14985dae4756","ios":"levelo://app?vid=203d4b86-c4b8-4907-bf23-14985dae4756"},"vehicle_type_id":"4","last_reported":1741550830,"current_range_meters":16000,"station_id":"","pricing_plan_id":"cebpf4jnsgd1na2vs0mg"},{"bike_id":"b6e1fe51-ddc8-4033-b5a5-0f918086f8eb","system_id":"levelo_inurba_marseille","lat":43.25124,"lon":5.4033,"is_reserved":false,"is_disabled":false,"rental_uris":{"android":"levelo://app?vid=b6e1fe51-ddc8-4033-b5a5-0f918086f8eb","ios":"levelo://app?vid=b6e1fe51-ddc8-4033-b5a5-0f918086f8eb"},"vehicle_type_id":"4","last_reported":1741550830,"current_range_meters":16000,"station_id":"ce4bhlh2rcd13ifvqgig","pricing_plan_id":"cebpf4jnsgd1na2vs0mg"},{"bike_id":"c1c80c13-20cb-44f5-aa30-5c8aedb294e8","system_id":"levelo_inurba_marseille","lat":43.321,"lon":5.3678,"is_reserved":false,"is_disabled":false,"rental_uris":{"android":"levelo://app?vid=c1c80c13-20cb-44f5-aa30-5c8aedb294e8","ios":"levelo://app?vid=c1c80c13-20cb-44f5-aa30-5c8aedb294e8"},"vehicle_type_id":"4","last_reported":1741550830,"current_range_meters":16000,"station_id":"ce4bhrh2rcd13ifvqhug","pricing_plan_id":"cebpf4jnsgd1na2vs0mg"},{"bike_id":"1689e47c-b3be-41f1-825a-50008dbe5a30","system_id":"levelo_inurba_marseille","lat":43.26556,"lon":5.37359,"is_reserved":false,"is_disabled":false,"rental_uris":{"android":"levelo://app?vid=1689e47c-b3be-41f1-825a-50008dbe5a30","ios":"levelo://app?vid=1689e47c-b3be-41f1-825a-50008dbe5a30"},"vehicle_type_id":"4","last_reported":1741550830,"current_range_meters":16000,"station_id":"ce4bhg12rcd13ifvqf70","pricing_plan_id":"cebpf4jnsgd1na2vs0mg"},{"bike_id":"225e5f66-483f-46df-82e5-69cdcdcf155f","system_id":"levelo_inurba_marseille","lat":43.3089,"lon":5.39638,"is_reserved":false,"is_disabled":false,"rental_uris":{"android":"levelo://app?vid=225e5f66-483f-46df-82e5-69cdcdcf155f","ios":"levelo://app?vid=225e5f66-483f-46df-82e5-69cdcdcf155f"},"vehicle_type_id":"4","last_reported":1741550830,"current_range_meters":16000,"station_id":"ce4bh012rcd13ifvqcv0","pricing_plan_id":"cebpf4jnsgd1na2vs0mg"},{"bike_id":"546628a2-a28e-4907-83a1-71e9aa739480","system_id":"levelo_inurba_marseille","lat":43.30799,"lon":5.37617,"is_reserved":false,"is_disabled":false,"rental_uris":{"android":"levelo://app?vid=546628a2-a28e-4907-83a1-71e9aa739480","ios":"levelo://app?vid=546628a2-a28e-4907-83a1-71e9aa739480"},"vehicle_type_id":"4","last_reported":1741550830,"current_range_meters":16000,"station_id":"ce4bgv92rcd13ifvqcq0","pricing_plan_id":"cebpf4jnsgd1na2vs0mg"},{"bike_id":"e1464fd1-88dd-4217-9b48-8798f8d7a4bc","system_id":"levelo_inurba_marseille","lat":43.24394,"lon":5.37056,"is_reserved":false,"is_disabled":false,"rental_uris":{"android":"levelo://app?vid=e1464fd1-88dd-4217-9b48-8798f8d7a4bc","ios":"levelo://app?vid=e1464fd1-88dd-4217-9b48-8798f8d7a4bc"},"vehicle_type_id":"4","last_reported":1741550830,"current_range_meters":16000,"station_id":"ce4bhhh2rcd13ifvqfk0","pricing_plan_id":"cebpf4jnsgd1na2vs0mg"},{"bike_id":"6c7acd0e-d950-476c-9eb3-046468b88ffd","system_id":"levelo_inurba_marseille","lat":43.24683,"lon":5.38168,"is_reserved":false,"is_disabled":false,"rental_uris":{"android":"levelo://app?vid=6c7acd0e-d950-476c-9eb3-046468b88ffd","ios":"levelo://app?vid=6c7acd0e-d950-476c-9eb3-046468b88ffd"},"vehicle_type_id":"4","last_reported":1741550830,"current_range_meters":16000,"station_id":"ce4bhih2rcd13ifvqfr0","pricing_plan_id":"cebpf4jnsgd1na2vs0mg"},{"bike_id":"3b1988f5-96b5-4ba3-b568-001a2a928dd3","system_id":"levelo_inurba_marseille","lat":43.28412,"lon":5.3751,"is_reserved":false,"is_disabled":false,"rental_uris":{"android":"levelo://app?vid=3b1988f5-96b5-4ba3-b568-001a2a928dd3","ios":"levelo://app?vid=3b1988f5-96b5-4ba3-b568-001a2a928dd3"},"vehicle_type_id":"4","last_reported":1741550830,"current_range_meters":16000,"station_id":"ce4bh412rcd13ifvqds0","pricing_plan_id":"cebpf4jnsgd1na2vs0mg"},{"bike_id":"dda8b7f8-cd93-4fdf-8891-dad88d85b985","system_id":"levelo_inurba_marseille","lat":43.29638,"lon":5.40605,"is_reserved":false,"is_disabled":false,"rental_uris":{"android":"levelo://app?vid=dda8b7f8-cd93-4fdf-8891-dad88d85b985","ios":"levelo://app?vid=dda8b7f8-cd93-4fdf-8891-dad88d85b985"},"vehicle_type_id":"4","last_reported":1741550830,"current_range_meters":16400,"station_id":"ce4bh0h2rcd13ifvqd60","pricing_plan_id":"cebpf4jnsgd1na2vs0mg"},{"bike_id":"1574c69b-ea6d-4097-914a-46a44316e27b","system_id":"levelo_inurba_marseille","lat":43.30889,"lon":5.39641,"is_reserved":false,"is_disabled":false,"rental_uris":{"android":"levelo://app?vid=1574c69b-ea6d-4097-914a-46a44316e27b","ios":"levelo://app?vid=1574c69b-ea6d-4097-914a-46a44316e27b"},"vehicle_type_id":"4","last_reported":1741550830,"current_range_meters":16400,"station_id":"ce4bh012rcd13ifvqcv0","pricing_plan_id":"cebpf4jnsgd1na2vs0mg"},{"bike_id":"b74c9bc5-e1c6-485c-ba7e-15a3a050c754","system_id":"levelo_inurba_marseille","lat":43.28854,"lon":5.39322,"is_reserved":false,"is_disabled":false,"rental_uris":{"android":"levelo://app?vid=b74c9bc5-e1c6-485c-ba7e-15a3a050c754","ios":"levelo://app?vid=b74c9bc5-e1c6-485c-ba7e-15a3a050c754"},"vehicle_type_id":"4","last_reported":1741550830,"current_range_meters":16400,"station_id":"ce4bh2p2rcd13ifvqdi0","pricing_plan_id":"cebpf4jnsgd1na2vs0mg"},{"bike_id":"be872404-b661-4361-aa36-79869406c8fd","system_id":"levelo_inurba_marseille","lat":43.297861,"lon":5.381195,"is_reserved":false,"is_disabled":false,"rental_uris":{"android":"levelo://app?vid=be872404-b661-4361-aa36-79869406c8fd","ios":"levelo://app?vid=be872404-b661-4361-aa36-79869406c8fd"},"vehicle_type_id":"4","last_reported":1741550830,"current_range_meters":16400,"station_id":"ce4bgip2rcd13ifvqbb0","pricing_plan_id":"cebpf4jnsgd1na2vs0mg"},{"bike_id":"863fe8dd-e693-4f8e-84ce-2fd09c5d38bc","system_id":"levelo_inurba_marseille","lat":43.25041,"lon":5.38953,"is_reserved":false,"is_disabled":false,"rental_uris":{"android":"levelo://app?vid=863fe8dd-e693-4f8e-84ce-2fd09c5d38bc","ios":"levelo://app?vid=863fe8dd-e693-4f8e-84ce-2fd09c5d38bc"},"vehicle_type_id":"4","last_reported":1741550830,"current_range_meters":16400,"station_id":"","pricing_plan_id":"cebpf4jnsgd1na2vs0mg"},{"bike_id":"0bc5bda3-3076-4625-9595-7f3b64f090d7","system_id":"levelo_inurba_marseille","lat":43.30798,"lon":5.43537,"is_reserved":false,"is_disabled":false,"rental_uris":{"android":"levelo://app?vid=0bc5bda3-3076-4625-9595-7f3b64f090d7","ios":"levelo://app?vid=0bc5bda3-3076-4625-9595-7f3b64f090d7"},"vehicle_type_id":"4","last_reported":1741550830,"current_range_meters":16400,"station_id":"ce4bhph2rcd13ifvqheg","pricing_plan_id":"cebpf4jnsgd1na2vs0mg"},{"bike_id":"4fdb4367-69f1-4a6d-9389-e26be0310107","system_id":"levelo_inurba_marseille","lat":43.30542,"lon":5.36681,"is_reserved":false,"is_disabled":false,"rental_uris":{"android":"levelo://app?vid=4fdb4367-69f1-4a6d-9389-e26be0310107","ios":"levelo://app?vid=4fdb4367-69f1-4a6d-9389-e26be0310107"},"vehicle_type_id":"4","last_reported":1741550830,"current_range_meters":16400,"station_id":"ce4bgrp2rcd13ifvqc9g","pricing_plan_id":"cebpf4jnsgd1na2vs0mg"},{"bike_id":"f5e5357b-b502-47fb-8353-4c0a68cdcdcf","system_id":"levelo_inurba_marseille","lat":43.31352,"lon":5.38462,"is_reserved":false,"is_disabled":false,"rental_uris":{"android":"levelo://app?vid=f5e5357b-b502-47fb-8353-4c0a68cdcdcf","ios":"levelo://app?vid=f5e5357b-b502-47fb-8353-4c0a68cdcdcf"},"vehicle_type_id":"4","last_reported":1741550830,"current_range_meters":16400,"station_id":"ce4bgt92rcd13ifvqcf0","pricing_plan_id":"cebpf4jnsgd1na2vs0mg"},{"bike_id":"80771939-f406-42f7-81c5-33180fd8a338","system_id":"levelo_inurba_marseille","lat":43.23218,"lon":5.35559,"is_reserved":false,"is_disabled":false,"rental_uris":{"android":"levelo://app?vid=80771939-f406-42f7-81c5-33180fd8a338","ios":"levelo://app?vid=80771939-f406-42f7-81c5-33180fd8a338"},"vehicle_type_id":"4","last_reported":1741550830,"current_range_meters":16400,"station_id":"ce4bhu92rcd13ifvqi70","pricing_plan_id":"cebpf4jnsgd1na2vs0mg"},{"bike_id":"d085bc4f-d51b-4cdc-b84d-c7911f48026d","system_id":"levelo_inurba_marseille","lat":43.31545,"lon":5.38053,"is_reserved":false,"is_disabled":false,"rental_uris":{"android":"levelo://app?vid=d085bc4f-d51b-4cdc-b84d-c7911f48026d","ios":"levelo://app?vid=d085bc4f-d51b-4cdc-b84d-c7911f48026d"},"vehicle_type_id":"4","last_reported":1741550830,"current_range_meters":16400,"station_id":"ce4bhsp2rcd13ifvqi50","pricing_plan_id":"cebpf4jnsgd1na2vs0mg"},{"bike_id":"979b0e12-19bd-4394-8b98-332e21f24fbc","system_id":"levelo_inurba_marseille","lat":43.25118,"lon":5.40383,"is_reserved":false,"is_disabled":false,"rental_uris":{"android":"levelo://app?vid=979b0e12-19bd-4394-8b98-332e21f24fbc","ios":"levelo://app?vid=979b0e12-19bd-4394-8b98-332e21f24fbc"},"vehicle_type_id":"4","last_reported":1741550830,"current_range_meters":16400,"station_id":"ce4bhlh2rcd13ifvqgig","pricing_plan_id":"cebpf4jnsgd1na2vs0mg"},{"bike_id":"3997df03-2b66-4d6c-b2b5-de0a0c299bae","system_id":"levelo_inurba_marseille","lat":43.251,"lon":5.39515,"is_reserved":false,"is_disabled":false,"rental_uris":{"android":"levelo://app?vid=3997df03-2b66-4d6c-b2b5-de0a0c299bae","ios":"levelo://app?vid=3997df03-2b66-4d6c-b2b5-de0a0c299bae"},"vehicle_type_id":"4","last_reported":1741550830,"current_range_meters":16800,"station_id":"ce4bhm12rcd13ifvqgkg","pricing_plan_id":"cebpf4jnsgd1na2vs0mg"},{"bike_id":"14ff316d-69a0-4350-bd65-221c06b4c050","system_id":"levelo_inurba_marseille","lat":43.25724,"lon":5.41111,"is_reserved":false,"is_disabled":false,"rental_uris":{"android":"levelo://app?vid=14ff316d-69a0-4350-bd65-221c06b4c050","ios":"levelo://app?vid=14ff316d-69a0-4350-bd65-221c06b4c050"},"vehicle_type_id":"4","last_reported":1741550830,"current_range_meters":16800,"station_id":"ce4bhkp2rcd13ifvqgd0","pricing_plan_id":"cebpf4jnsgd1na2vs0mg"},{"bike_id":"65579f2d-9a67-4337-ae45-db2974909cf3","system_id":"levelo_inurba_marseille","lat":43.24659,"lon":5.38903,"is_reserved":false,"is_disabled":false,"rental_uris":{"android":"levelo://app?vid=65579f2d-9a67-4337-ae45-db2974909cf3","ios":"levelo://app?vid=65579f2d-9a67-4337-ae45-db2974909cf3"},"vehicle_type_id":"4","last_reported":1741550830,"current_range_meters":16800,"station_id":"ce4bhg12rcd13ifvqf60","pricing_plan_id":"cebpf4jnsgd1na2vs0mg"},{"bike_id":"83deafb1-ce89-45a3-8ef6-b8885d380b0f","system_id":"levelo_inurba_marseille","lat":43.28149,"lon":5.4262,"is_reserved":false,"is_disabled":false,"rental_uris":{"android":"levelo://app?vid=83deafb1-ce89-45a3-8ef6-b8885d380b0f","ios":"levelo://app?vid=83deafb1-ce89-45a3-8ef6-b8885d380b0f"},"vehicle_type_id":"4","last_reported":1741550830,"current_range_meters":16800,"station_id":"ce4bhnh2rcd13ifvqgug","pricing_plan_id":"cebpf4jnsgd1na2vs0mg"},{"bike_id":"8e85a7bb-e1ce-43e8-a1a7-c288df482312","system_id":"levelo_inurba_marseille","lat":43.24649,"lon":5.38898,"is_reserved":false,"is_disabled":false,"rental_uris":{"android":"levelo://app?vid=8e85a7bb-e1ce-43e8-a1a7-c288df482312","ios":"levelo://app?vid=8e85a7bb-e1ce-43e8-a1a7-c288df482312"},"vehicle_type_id":"4","last_reported":1741550830,"current_range_meters":16800,"station_id":"ce4bhg12rcd13ifvqf60","pricing_plan_id":"cebpf4jnsgd1na2vs0mg"},{"bike_id":"6cbb4559-3979-42f5-8535-6ca3652635e2","system_id":"levelo_inurba_marseille","lat":43.32364,"lon":5.38893,"is_reserved":false,"is_disabled":false,"rental_uris":{"android":"levelo://app?vid=6cbb4559-3979-42f5-8535-6ca3652635e2","ios":"levelo://app?vid=6cbb4559-3979-42f5-8535-6ca3652635e2"},"vehicle_type_id":"4","last_reported":1741550830,"current_range_meters":16800,"station_id":"ce4bhqp2rcd13ifvqhog","pricing_plan_id":"cebpf4jnsgd1na2vs0mg"},{"bike_id":"9ba6a429-52fb-4d26-bfbc-5aec09ff26d7","system_id":"levelo_inurba_marseille","lat":43.26754,"lon":5.39357,"is_reserved":false,"is_disabled":false,"rental_uris":{"android":"levelo://app?vid=9ba6a429-52fb-4d26-bfbc-5aec09ff26d7","ios":"levelo://app?vid=9ba6a429-52fb-4d26-bfbc-5aec09ff26d7"},"vehicle_type_id":"4","last_reported":1741550830,"current_range_meters":16800,"station_id":"","pricing_plan_id":"cebpf4jnsgd1na2vs0mg"},{"bike_id":"26efa438-47f1-437c-a262-70d3b8dce7fa","system_id":"levelo_inurba_marseille","lat":43.28433,"lon":5.35011,"is_reserved":false,"is_disabled":true,"rental_uris":{"android":"levelo://app?vid=26efa438-47f1-437c-a262-70d3b8dce7fa","ios":"levelo://app?vid=26efa438-47f1-437c-a262-70d3b8dce7fa"},"vehicle_type_id":"4","last_reported":1741550830,"current_range_meters":16800,"station_id":"ce4bhbh2rcd13ifvqepg","pricing_plan_id":"cebpf4jnsgd1na2vs0mg"},{"bike_id":"39a544a4-9cda-43e2-be22-212a764912e7","system_id":"levelo_inurba_marseille","lat":43.24074,"lon":5.37763,"is_reserved":false,"is_disabled":false,"rental_uris":{"android":"levelo://app?vid=39a544a4-9cda-43e2-be22-212a764912e7","ios":"levelo://app?vid=39a544a4-9cda-43e2-be22-212a764912e7"},"vehicle_type_id":"4","last_reported":1741550830,"current_range_meters":16800,"station_id":"ce4bhnp2rcd13ifvqgvg","pricing_plan_id":"cebpf4jnsgd1na2vs0mg"},{"bike_id":"caeb1ed2-b70b-481f-b341-ccaa84ec7ae8","system_id":"levelo_inurba_marseille","lat":43.24703,"lon":5.38195,"is_reserved":false,"is_disabled":false,"rental_uris":{"android":"levelo://app?vid=caeb1ed2-b70b-481f-b341-ccaa84ec7ae8","ios":"levelo://app?vid=caeb1ed2-b70b-481f-b341-ccaa84ec7ae8"},"vehicle_type_id":"4","last_reported":1741550830,"current_range_meters":16800,"station_id":"","pricing_plan_id":"cebpf4jnsgd1na2vs0mg"},{"bike_id":"962b8100-db4e-4177-b392-9df2ed356517","system_id":"levelo_inurba_marseille","lat":43.31715,"lon":5.37805,"is_reserved":false,"is_disabled":false,"rental_uris":{"android":"levelo://app?vid=962b8100-db4e-4177-b392-9df2ed356517","ios":"levelo://app?vid=962b8100-db4e-4177-b392-9df2ed356517"},"vehicle_type_id":"4","last_reported":1741550830,"current_range_meters":17200,"station_id":"","pricing_plan_id":"cebpf4jnsgd1na2vs0mg"},{"bike_id":"236cd163-fe3d-4bd4-beac-67f4ef54b16e","system_id":"levelo_inurba_marseille","lat":43.31114,"lon":5.3777,"is_reserved":false,"is_disabled":false,"rental_uris":{"android":"levelo://app?vid=236cd163-fe3d-4bd4-beac-67f4ef54b16e","ios":"levelo://app?vid=236cd163-fe3d-4bd4-beac-67f4ef54b16e"},"vehicle_type_id":"4","last_reported":1741550830,"current_range_meters":17200,"station_id":"ce4bgt92rcd13ifvqcg0","pricing_plan_id":"cebpf4jnsgd1na2vs0mg"},{"bike_id":"6c925a33-922a-4f5d-a19e-2ae09dadacc9","system_id":"levelo_inurba_marseille","lat":43.3135,"lon":5.38474,"is_reserved":false,"is_disabled":false,"rental_uris":{"android":"levelo://app?vid=6c925a33-922a-4f5d-a19e-2ae09dadacc9","ios":"levelo://app?vid=6c925a33-922a-4f5d-a19e-2ae09dadacc9"},"vehicle_type_id":"4","last_reported":1741550830,"current_range_meters":17200,"station_id":"ce4bgt92rcd13ifvqcf0","pricing_plan_id":"cebpf4jnsgd1na2vs0mg"},{"bike_id":"83c1f231-42aa-45f0-be2e-62d72e927bdd","system_id":"levelo_inurba_marseille","lat":43.31183,"lon":5.38684,"is_reserved":false,"is_disabled":false,"rental_uris":{"android":"levelo://app?vid=83c1f231-42aa-45f0-be2e-62d72e927bdd","ios":"levelo://app?vid=83c1f231-42aa-45f0-be2e-62d72e927bdd"},"vehicle_type_id":"4","last_reported":1741550830,"current_range_meters":17200,"station_id":"ce4bgv12rcd13ifvqcp0","pricing_plan_id":"cebpf4jnsgd1na2vs0mg"},{"bike_id":"0879ab9f-9014-4f92-8cca-882db42d6f17","system_id":"levelo_inurba_marseille","lat":43.2573,"lon":5.41105,"is_reserved":false,"is_disabled":false,"rental_uris":{"android":"levelo://app?vid=0879ab9f-9014-4f92-8cca-882db42d6f17","ios":"levelo://app?vid=0879ab9f-9014-4f92-8cca-882db42d6f17"},"vehicle_type_id":"4","last_reported":1741550830,"current_range_meters":17200,"station_id":"ce4bhkp2rcd13ifvqgd0","pricing_plan_id":"cebpf4jnsgd1na2vs0mg"},{"bike_id":"84729fed-df92-4020-92b6-edf920b35995","system_id":"levelo_inurba_marseille","lat":43.28487,"lon":5.38425,"is_reserved":false,"is_disabled":false,"rental_uris":{"android":"levelo://app?vid=84729fed-df92-4020-92b6-edf920b35995","ios":"levelo://app?vid=84729fed-df92-4020-92b6-edf920b35995"},"vehicle_type_id":"4","last_reported":1741550830,"current_range_meters":17200,"station_id":"ce4bh512rcd13ifvqe3g","pricing_plan_id":"cebpf4jnsgd1na2vs0mg"},{"bike_id":"08965530-ff8e-4faf-9f41-90736e941e18","system_id":"levelo_inurba_marseille","lat":43.28661,"lon":5.3513,"is_reserved":false,"is_disabled":false,"rental_uris":{"android":"levelo://app?vid=08965530-ff8e-4faf-9f41-90736e941e18","ios":"levelo://app?vid=08965530-ff8e-4faf-9f41-90736e941e18"},"vehicle_type_id":"4","last_reported":1741550830,"current_range_meters":17200,"station_id":"ce4bhch2rcd13ifvqeug","pricing_plan_id":"cebpf4jnsgd1na2vs0mg"},{"bike_id":"9ec52ed9-9c0e-4e61-a378-5327e3711632","system_id":"levelo_inurba_marseille","lat":43.24722,"lon":5.41152,"is_reserved":false,"is_disabled":false,"rental_uris":{"android":"levelo://app?vid=9ec52ed9-9c0e-4e61-a378-5327e3711632","ios":"levelo://app?vid=9ec52ed9-9c0e-4e61-a378-5327e3711632"},"vehicle_type_id":"4","last_reported":1741550830,"current_range_meters":17200,"station_id":"","pricing_plan_id":"cebpf4jnsgd1na2vs0mg"},{"bike_id":"1044a43a-99ba-418f-8d4c-9ae671d6b1a9","system_id":"levelo_inurba_marseille","lat":43.2931,"lon":5.37433,"is_reserved":false,"is_disabled":true,"rental_uris":{"android":"levelo://app?vid=1044a43a-99ba-418f-8d4c-9ae671d6b1a9","ios":"levelo://app?vid=1044a43a-99ba-418f-8d4c-9ae671d6b1a9"},"vehicle_type_id":"4","last_reported":1741550830,"current_range_meters":17600,"station_id":"ce4bgi12rcd13ifvqb70","pricing_plan_id":"cebpf4jnsgd1na2vs0mg"},{"bike_id":"67e96ce9-54b2-44cb-a5b1-546730071f20","system_id":"levelo_inurba_marseille","lat":43.25714,"lon":5.41114,"is_reserved":false,"is_disabled":false,"rental_uris":{"android":"levelo://app?vid=67e96ce9-54b2-44cb-a5b1-546730071f20","ios":"levelo://app?vid=67e96ce9-54b2-44cb-a5b1-546730071f20"},"vehicle_type_id":"4","last_reported":1741550830,"current_range_meters":17600,"station_id":"ce4bhkp2rcd13ifvqgd0","pricing_plan_id":"cebpf4jnsgd1na2vs0mg"},{"bike_id":"a44b4ad2-e639-4c9a-8fb7-52bbbdc7ff12","system_id":"levelo_inurba_marseille","lat":43.25009,"lon":5.38901,"is_reserved":false,"is_disabled":false,"rental_uris":{"android":"levelo://app?vid=a44b4ad2-e639-4c9a-8fb7-52bbbdc7ff12","ios":"levelo://app?vid=a44b4ad2-e639-4c9a-8fb7-52bbbdc7ff12"},"vehicle_type_id":"4","last_reported":1741550830,"current_range_meters":17600,"station_id":"ce4bhgp2rcd13ifvqfd0","pricing_plan_id":"cebpf4jnsgd1na2vs0mg"},{"bike_id":"145495db-349c-4f8b-a04f-4f009e07981f","system_id":"levelo_inurba_marseille","lat":43.25745,"lon":5.41096,"is_reserved":false,"is_disabled":false,"rental_uris":{"android":"levelo://app?vid=145495db-349c-4f8b-a04f-4f009e07981f","ios":"levelo://app?vid=145495db-349c-4f8b-a04f-4f009e07981f"},"vehicle_type_id":"4","last_reported":1741550830,"current_range_meters":17600,"station_id":"ce4bhkp2rcd13ifvqgd0","pricing_plan_id":"cebpf4jnsgd1na2vs0mg"},{"bike_id":"b5f24760-138f-4676-b5a5-e1d99857a913","system_id":"levelo_inurba_marseille","lat":43.292607,"lon":5.376149,"is_reserved":false,"is_disabled":false,"rental_uris":{"android":"levelo://app?vid=b5f24760-138f-4676-b5a5-e1d99857a913","ios":"levelo://app?vid=b5f24760-138f-4676-b5a5-e1d99857a913"},"vehicle_type_id":"4","last_reported":1741550830,"current_range_meters":17600,"station_id":"ce4bgi12rcd13ifvqb80","pricing_plan_id":"cebpf4jnsgd1na2vs0mg"},{"bike_id":"ccbf617d-c92c-4154-ad70-fcdbe832004f","system_id":"levelo_inurba_marseille","lat":43.28138,"lon":5.42647,"is_reserved":false,"is_disabled":false,"rental_uris":{"android":"levelo://app?vid=ccbf617d-c92c-4154-ad70-fcdbe832004f","ios":"levelo://app?vid=ccbf617d-c92c-4154-ad70-fcdbe832004f"},"vehicle_type_id":"4","last_reported":1741550830,"current_range_meters":17600,"station_id":"ce4bhnh2rcd13ifvqgug","pricing_plan_id":"cebpf4jnsgd1na2vs0mg"},{"bike_id":"5168a913-5224-4ddf-8293-e2c5484c5bf7","system_id":"levelo_inurba_marseille","lat":43.25565,"lon":5.38245,"is_reserved":false,"is_disabled":false,"rental_uris":{"android":"levelo://app?vid=5168a913-5224-4ddf-8293-e2c5484c5bf7","ios":"levelo://app?vid=5168a913-5224-4ddf-8293-e2c5484c5bf7"},"vehicle_type_id":"4","last_reported":1741550830,"current_range_meters":17600,"station_id":"ce4bhih2rcd13ifvqfs0","pricing_plan_id":"cebpf4jnsgd1na2vs0mg"},{"bike_id":"a4722dc4-8e08-4c35-830f-773852947369","system_id":"levelo_inurba_marseille","lat":43.25756,"lon":5.41112,"is_reserved":false,"is_disabled":false,"rental_uris":{"android":"levelo://app?vid=a4722dc4-8e08-4c35-830f-773852947369","ios":"levelo://app?vid=a4722dc4-8e08-4c35-830f-773852947369"},"vehicle_type_id":"4","last_reported":1741550830,"current_range_meters":18000,"station_id":"ce4bhkp2rcd13ifvqgd0","pricing_plan_id":"cebpf4jnsgd1na2vs0mg"},{"bike_id":"ac1d3586-76cb-40d1-a306-7c8c5194b349","system_id":"levelo_inurba_marseille","lat":43.31508,"lon":5.38052,"is_reserved":false,"is_disabled":false,"rental_uris":{"android":"levelo://app?vid=ac1d3586-76cb-40d1-a306-7c8c5194b349","ios":"levelo://app?vid=ac1d3586-76cb-40d1-a306-7c8c5194b349"},"vehicle_type_id":"4","last_reported":1741550830,"current_range_meters":18000,"station_id":"ce4bhsp2rcd13ifvqi50","pricing_plan_id":"cebpf4jnsgd1na2vs0mg"},{"bike_id":"95032280-8699-443d-b858-ddb87b2be509","system_id":"levelo_inurba_marseille","lat":43.28611,"lon":5.35168,"is_reserved":false,"is_disabled":false,"rental_uris":{"android":"levelo://app?vid=95032280-8699-443d-b858-ddb87b2be509","ios":"levelo://app?vid=95032280-8699-443d-b858-ddb87b2be509"},"vehicle_type_id":"4","last_reported":1741550830,"current_range_meters":18000,"station_id":"ce4bhch2rcd13ifvqeug","pricing_plan_id":"cebpf4jnsgd1na2vs0mg"},{"bike_id":"5a86cf8d-68d1-45dd-8ef4-19f3766a28ac","system_id":"levelo_inurba_marseille","lat":43.27574,"lon":5.38409,"is_reserved":false,"is_disabled":true,"rental_uris":{"android":"levelo://app?vid=5a86cf8d-68d1-45dd-8ef4-19f3766a28ac","ios":"levelo://app?vid=5a86cf8d-68d1-45dd-8ef4-19f3766a28ac"},"vehicle_type_id":"4","last_reported":1741550830,"current_range_meters":18000,"station_id":"ce4bhh92rcd13ifvqfi0","pricing_plan_id":"cebpf4jnsgd1na2vs0mg"},{"bike_id":"dd781e17-1734-40bf-aa64-52ec7227d31f","system_id":"levelo_inurba_marseille","lat":43.25713,"lon":5.41022,"is_reserved":false,"is_disabled":false,"rental_uris":{"android":"levelo://app?vid=dd781e17-1734-40bf-aa64-52ec7227d31f","ios":"levelo://app?vid=dd781e17-1734-40bf-aa64-52ec7227d31f"},"vehicle_type_id":"4","last_reported":1741550830,"current_range_meters":18000,"station_id":"","pricing_plan_id":"cebpf4jnsgd1na2vs0mg"},{"bike_id":"594c048f-9cc8-4fbc-888f-e62be6931fb9","system_id":"levelo_inurba_marseille","lat":43.32384,"lon":5.36919,"is_reserved":false,"is_disabled":false,"rental_uris":{"android":"levelo://app?vid=594c048f-9cc8-4fbc-888f-e62be6931fb9","ios":"levelo://app?vid=594c048f-9cc8-4fbc-888f-e62be6931fb9"},"vehicle_type_id":"4","last_reported":1741550830,"current_range_meters":18000,"station_id":"","pricing_plan_id":"cebpf4jnsgd1na2vs0mg"},{"bike_id":"f381c9bd-14fa-41ab-b589-3ecebd6dfe48","system_id":"levelo_inurba_marseille","lat":43.32369,"lon":5.36769,"is_reserved":false,"is_disabled":false,"rental_uris":{"android":"levelo://app?vid=f381c9bd-14fa-41ab-b589-3ecebd6dfe48","ios":"levelo://app?vid=f381c9bd-14fa-41ab-b589-3ecebd6dfe48"},"vehicle_type_id":"4","last_reported":1741550830,"current_range_meters":18000,"station_id":"ce4bhsh2rcd13ifvqi2g","pricing_plan_id":"cebpf4jnsgd1na2vs0mg"},{"bike_id":"08b68eba-53e3-4dc9-b600-bf554c1ed500","system_id":"levelo_inurba_marseille","lat":43.29253,"lon":5.37595,"is_reserved":false,"is_disabled":false,"rental_uris":{"android":"levelo://app?vid=08b68eba-53e3-4dc9-b600-bf554c1ed500","ios":"levelo://app?vid=08b68eba-53e3-4dc9-b600-bf554c1ed500"},"vehicle_type_id":"4","last_reported":1741550830,"current_range_meters":18800,"station_id":"ce4bgi12rcd13ifvqb80","pricing_plan_id":"cebpf4jnsgd1na2vs0mg"},{"bike_id":"14a64e50-67e4-4ccc-8dd3-b69f798262a6","system_id":"levelo_inurba_marseille","lat":43.25125,"lon":5.40308,"is_reserved":false,"is_disabled":false,"rental_uris":{"android":"levelo://app?vid=14a64e50-67e4-4ccc-8dd3-b69f798262a6","ios":"levelo://app?vid=14a64e50-67e4-4ccc-8dd3-b69f798262a6"},"vehicle_type_id":"4","last_reported":1741550830,"current_range_meters":18800,"station_id":"ce4bhlh2rcd13ifvqgig","pricing_plan_id":"cebpf4jnsgd1na2vs0mg"},{"bike_id":"259dde30-071d-4e72-9e93-2afe0e28cbba","system_id":"levelo_inurba_marseille","lat":43.30616,"lon":5.37316,"is_reserved":false,"is_disabled":false,"rental_uris":{"android":"levelo://app?vid=259dde30-071d-4e72-9e93-2afe0e28cbba","ios":"levelo://app?vid=259dde30-071d-4e72-9e93-2afe0e28cbba"},"vehicle_type_id":"4","last_reported":1741550830,"current_range_meters":18800,"station_id":"","pricing_plan_id":"cebpf4jnsgd1na2vs0mg"},{"bike_id":"d3ed7f53-2ad7-4e4b-baf0-9ec7f6d00998","system_id":"levelo_inurba_marseille","lat":43.27815,"lon":5.40708,"is_reserved":false,"is_disabled":false,"rental_uris":{"android":"levelo://app?vid=d3ed7f53-2ad7-4e4b-baf0-9ec7f6d00998","ios":"levelo://app?vid=d3ed7f53-2ad7-4e4b-baf0-9ec7f6d00998"},"vehicle_type_id":"4","last_reported":1741550830,"current_range_meters":18800,"station_id":"ce4bhnh2rcd13ifvqgtg","pricing_plan_id":"cebpf4jnsgd1na2vs0mg"},{"bike_id":"5e6345b0-8796-458b-85a3-d3b4f6f6507a","system_id":"levelo_inurba_marseille","lat":43.24664,"lon":5.3893,"is_reserved":false,"is_disabled":false,"rental_uris":{"android":"levelo://app?vid=5e6345b0-8796-458b-85a3-d3b4f6f6507a","ios":"levelo://app?vid=5e6345b0-8796-458b-85a3-d3b4f6f6507a"},"vehicle_type_id":"4","last_reported":1741550830,"current_range_meters":18800,"station_id":"ce4bhg12rcd13ifvqf60","pricing_plan_id":"cebpf4jnsgd1na2vs0mg"},{"bike_id":"41c57243-0c71-4854-b843-3007f01d478b","system_id":"levelo_inurba_marseille","lat":43.28422,"lon":5.37512,"is_reserved":false,"is_disabled":true,"rental_uris":{"android":"levelo://app?vid=41c57243-0c71-4854-b843-3007f01d478b","ios":"levelo://app?vid=41c57243-0c71-4854-b843-3007f01d478b"},"vehicle_type_id":"4","last_reported":1741550830,"current_range_meters":18800,"station_id":"ce4bh412rcd13ifvqds0","pricing_plan_id":"cebpf4jnsgd1na2vs0mg"},{"bike_id":"9c21c891-bf93-4c67-b36f-39a12f814032","system_id":"levelo_inurba_marseille","lat":43.24537,"lon":5.39525,"is_reserved":false,"is_disabled":false,"rental_uris":{"android":"levelo://app?vid=9c21c891-bf93-4c67-b36f-39a12f814032","ios":"levelo://app?vid=9c21c891-bf93-4c67-b36f-39a12f814032"},"vehicle_type_id":"4","last_reported":1741550830,"current_range_meters":18800,"station_id":"ce4bhlp2rcd13ifvqgjg","pricing_plan_id":"cebpf4jnsgd1na2vs0mg"},{"bike_id":"565febc3-3424-4d4c-95ca-5705a262f891","system_id":"levelo_inurba_marseille","lat":43.28217,"lon":5.4264,"is_reserved":false,"is_disabled":true,"rental_uris":{"android":"levelo://app?vid=565febc3-3424-4d4c-95ca-5705a262f891","ios":"levelo://app?vid=565febc3-3424-4d4c-95ca-5705a262f891"},"vehicle_type_id":"4","last_reported":1741550830,"current_range_meters":18800,"station_id":"ce4bhnh2rcd13ifvqgug","pricing_plan_id":"cebpf4jnsgd1na2vs0mg"},{"bike_id":"8da917ef-4c6d-444d-94a6-f47d4d842484","system_id":"levelo_inurba_marseille","lat":43.28163,"lon":5.42643,"is_reserved":false,"is_disabled":false,"rental_uris":{"android":"levelo://app?vid=8da917ef-4c6d-444d-94a6-f47d4d842484","ios":"levelo://app?vid=8da917ef-4c6d-444d-94a6-f47d4d842484"},"vehicle_type_id":"4","last_reported":1741550830,"current_range_meters":18800,"station_id":"ce4bhnh2rcd13ifvqgug","pricing_plan_id":"cebpf4jnsgd1na2vs0mg"},{"bike_id":"bf49a0fd-bfe2-4bbb-8d6a-0540c7d91d25","system_id":"levelo_inurba_marseille","lat":43.323624,"lon":5.367559,"is_reserved":false,"is_disabled":false,"rental_uris":{"android":"levelo://app?vid=bf49a0fd-bfe2-4bbb-8d6a-0540c7d91d25","ios":"levelo://app?vid=bf49a0fd-bfe2-4bbb-8d6a-0540c7d91d25"},"vehicle_type_id":"4","last_reported":1741550830,"current_range_meters":19200,"station_id":"ce4bhsh2rcd13ifvqi2g","pricing_plan_id":"cebpf4jnsgd1na2vs0mg"},{"bike_id":"8e64f9ed-feee-4541-93f8-395d685c678c","system_id":"levelo_inurba_marseille","lat":43.27964,"lon":5.41051,"is_reserved":false,"is_disabled":false,"rental_uris":{"android":"levelo://app?vid=8e64f9ed-feee-4541-93f8-395d685c678c","ios":"levelo://app?vid=8e64f9ed-feee-4541-93f8-395d685c678c"},"vehicle_type_id":"4","last_reported":1741550830,"current_range_meters":19200,"station_id":"ce4bhnp2rcd13ifvqh0g","pricing_plan_id":"cebpf4jnsgd1na2vs0mg"},{"bike_id":"12418dc1-2a02-4d62-9d41-294061fbfa52","system_id":"levelo_inurba_marseille","lat":43.29317,"lon":5.37445,"is_reserved":false,"is_disabled":true,"rental_uris":{"android":"levelo://app?vid=12418dc1-2a02-4d62-9d41-294061fbfa52","ios":"levelo://app?vid=12418dc1-2a02-4d62-9d41-294061fbfa52"},"vehicle_type_id":"4","last_reported":1741550830,"current_range_meters":19200,"station_id":"ce4bgi12rcd13ifvqb70","pricing_plan_id":"cebpf4jnsgd1na2vs0mg"},{"bike_id":"71baf02d-ec1d-434b-9696-111c399ded0e","system_id":"levelo_inurba_marseille","lat":43.28441,"lon":5.37539,"is_reserved":false,"is_disabled":false,"rental_uris":{"android":"levelo://app?vid=71baf02d-ec1d-434b-9696-111c399ded0e","ios":"levelo://app?vid=71baf02d-ec1d-434b-9696-111c399ded0e"},"vehicle_type_id":"4","last_reported":1741550830,"current_range_meters":19200,"station_id":"","pricing_plan_id":"cebpf4jnsgd1na2vs0mg"},{"bike_id":"1eea2404-33b7-428c-8a6c-b16c98567d7d","system_id":"levelo_inurba_marseille","lat":43.284162,"lon":5.375176,"is_reserved":false,"is_disabled":false,"rental_uris":{"android":"levelo://app?vid=1eea2404-33b7-428c-8a6c-b16c98567d7d","ios":"levelo://app?vid=1eea2404-33b7-428c-8a6c-b16c98567d7d"},"vehicle_type_id":"4","last_reported":1741550830,"current_range_meters":18800,"station_id":"ce4bhb12rcd13ifvqem0","pricing_plan_id":"cebpf4jnsgd1na2vs0mg"},{"bike_id":"3e6308ea-b674-4d82-9432-e671a422998f","system_id":"levelo_inurba_marseille","lat":43.25741,"lon":5.41103,"is_reserved":false,"is_disabled":false,"rental_uris":{"android":"levelo://app?vid=3e6308ea-b674-4d82-9432-e671a422998f","ios":"levelo://app?vid=3e6308ea-b674-4d82-9432-e671a422998f"},"vehicle_type_id":"4","last_reported":1741550830,"current_range_meters":19200,"station_id":"ce4bhkp2rcd13ifvqgd0","pricing_plan_id":"cebpf4jnsgd1na2vs0mg"},{"bike_id":"fa7e2c73-f1de-470d-a02a-ac87c93f97c5","system_id":"levelo_inurba_marseille","lat":43.28427,"lon":5.37524,"is_reserved":false,"is_disabled":false,"rental_uris":{"android":"levelo://app?vid=fa7e2c73-f1de-470d-a02a-ac87c93f97c5","ios":"levelo://app?vid=fa7e2c73-f1de-470d-a02a-ac87c93f97c5"},"vehicle_type_id":"4","last_reported":1741550830,"current_range_meters":19200,"station_id":"ce4bh412rcd13ifvqds0","pricing_plan_id":"cebpf4jnsgd1na2vs0mg"},{"bike_id":"667d56af-3762-4bfe-8a2b-a93b14a7fb4f","system_id":"levelo_inurba_marseille","lat":43.30583,"lon":5.39318,"is_reserved":false,"is_disabled":false,"rental_uris":{"android":"levelo://app?vid=667d56af-3762-4bfe-8a2b-a93b14a7fb4f","ios":"levelo://app?vid=667d56af-3762-4bfe-8a2b-a93b14a7fb4f"},"vehicle_type_id":"4","last_reported":1741550830,"current_range_meters":19200,"station_id":"ce4bh0p2rcd13ifvqd80","pricing_plan_id":"cebpf4jnsgd1na2vs0mg"},{"bike_id":"19f601f1-6319-4184-aa0f-d711aed13c55","system_id":"levelo_inurba_marseille","lat":43.31144,"lon":5.37758,"is_reserved":false,"is_disabled":false,"rental_uris":{"android":"levelo://app?vid=19f601f1-6319-4184-aa0f-d711aed13c55","ios":"levelo://app?vid=19f601f1-6319-4184-aa0f-d711aed13c55"},"vehicle_type_id":"4","last_reported":1741550830,"current_range_meters":19600,"station_id":"ce4bgt92rcd13ifvqcg0","pricing_plan_id":"cebpf4jnsgd1na2vs0mg"},