{"last_updated":1746731296,"ttl":60,"version":"2.2","data":{"bikes":[{"bike_id":"8b85b2ff-5279-4adc-a184-35c512b8ca4b","system_id":"levelo_inurba_marseille","lat":43.26623,"lon":5.4029,"is_reserved":false,"is_disabled":true,"rental_uris":{"android":"levelo://app?vid=8b85b2ff-5279-4adc-a184-35c512b8ca4b","ios":"levelo://app?vid=8b85b2ff-5279-4adc-a184-35c512b8ca4b"},"vehicle_type_id":"4","last_reported":1746731296,"current_range_meters":0,"station_id":"","pricing_plan_id":"cebpf4jnsgd1na2vs0mg"},{"bike_id":"66b646b3-6352-44bb-9bfb-21570512e3e5","system_id":"levelo_inurba_marseille","lat":43.281434,"lon":5.404042,"is_reserved":false,"is_disabled":true,"rental_uris":{"android":"levelo://app?vid=66b646b3-6352-44bb-9bfb-21570512e3e5","ios":"levelo://app?vid=66b646b3-6352-44bb-9bfb-21570512e3e5"},"vehicle_type_id":"4","last_reported":1746731296,"current_range_meters":0,"station_id":"","pricing_plan_id":"cebpf4jnsgd1na2vs0mg"},{"bike_id":"ca85c203-a3ad-4cb5-b8f9-da552140ab73","system_id":"levelo_inurba_marseille","lat":43.33686,"lon":5.35598,"is_reserved":false,"is_disabled":true,"rental_uris":{"android":"levelo://app?vid=ca85c203-a3ad-4cb5-b8f9-da552140ab73","ios":"levelo://app?vid=ca85c203-a3ad-4cb5-b8f9-da552140ab73"},"vehicle_type_id":"4","last_reported":1746731296,"current_range_meters":0,"station_id":"","pricing_plan_id":"cebpf4jnsgd1na2vs0mg"},{"bike_id":"b56eeeb9-9ded-4dd2-9efa-c8d4f8a5e387","system_id":"levelo_inurba_marseille","lat":43.273863,"lon":5.422426,"is_reserved":false,"is_disabled":true,"rental_uris":{"android":"levelo://app?vid=b56eeeb9-9ded-4dd2-9efa-c8d4f8a5e387","ios":"levelo://app?vid=b56eeeb9-9ded-4dd2-9efa-c8d4f8a5e387"},"vehicle_type_id":"4","last_reported":1746731296,"current_range_meters":0,"station_id":"","pricing_plan_id":"cebpf4jnsgd1na2vs0mg"},{"bike_id":"88c3c6c1-a33a-48ed-b2a4-48c16332184c","system_id":"levelo_inurba_marseille","lat":43.27933,"lon":5.3739,"is_reserved":false,"is_disabled":true,"rental_uris":{"android":"levelo://app?vid=88c3c6c1-a33a-48ed-b2a4-48c16332184c","ios":"levelo://app?vid=88c3c6c1-a33a-48ed-b2a4-48c16332184c"},"vehicle_type_id":"4","last_reported":1746731296,"current_range_meters":0,"station_id":"","pricing_plan_id":"cebpf4jnsgd1na2vs0mg"},{"bike_id":"12190f64-f320-4df7-a5fc-c5e8dd278a3b","system_id":"levelo_inurba_marseille","lat":43.337444,"lon":5.374475,"is_reserved":false,"is_disabled":true,"rental_uris":{"android":"levelo://app?vid=12190f64-f320-4df7-a5fc-c5e8dd278a3b","ios":"levelo://app?vid=12190f64-f320-4df7-a5fc-c5e8dd278a3b"},"vehicle_type_id":"4","last_reported":1746731296,"current_range_meters":0,"station_id":"","pricing_plan_id":"cebpf4jnsgd1na2vs0mg"},{"bike_id":"2d251c8d-e9d0-476f-8622-cb88831f30c3","system_id":"levelo_inurba_marseille","lat":43.270126,"lon":5.387779,"is_reserved":false,"is_disabled":true,"rental_uris":{"android":"levelo://app?vid=2d251c8d-e9d0-476f-8622-cb88831f30c3","ios":"levelo://app?vid=2d251c8d-e9d0-476f-8622-cb88831f30c3"},"vehicle_type_id":"4","last_reported":1746731296,"current_range_meters":0,"station_id":"","pricing_plan_id":"cebpf4jnsgd1na2vs0mg"},{"bike_id":"10ef3736-c38d-47a7-9481-8a8f26cb1cdb","system_id":"levelo_inurba_marseille","lat":43.292021,"lon":5.39318,"is_reserved":false,"is_disabled":true,"rental_uris":{"android":"levelo://app?vid=10ef3736-c38d-47a7-9481-8a8f26cb1cdb","ios":"levelo://app?vid=10ef3736-c38d-47a7-9481-8a8f26cb1cdb"},"vehicle_type_id":"4","last_reported":1746731296,"current_range_meters":0,"station_id":"ce4bh192rcd13ifvqdd0","pricing_plan_id":"cebpf4jnsgd1na2vs0mg"},{"bike_id":"f3827cb9-28ff-4e6f-aa49-d47546b37903","system_id":"levelo_inurba_marseille","lat":43.26955,"lon":5.38637,"is_reserved":false,"is_disabled":true,"rental_uris":{"android":"levelo://app?vid=f3827cb9-28ff-4e6f-aa49-d47546b37903","ios":"levelo://app?vid=f3827cb9-28ff-4e6f-aa49-d47546b37903"},"vehicle_type_id":"4","last_reported":1746731296,"current_range_meters":0,"station_id":"ce4bhh92rcd13ifvqfh0","pricing_plan_id":"cebpf4jnsgd1na2vs0mg"},{"bike_id":"568f7ab5-7959-4fe1-a3a6-3d865932450e","system_id":"levelo_inurba_marseille","lat":43.231613,"lon":5.437293,"is_reserved":false,"is_disabled":true,"rental_uris":{"android":"levelo://app?vid=568f7ab5-7959-4fe1-a3a6-3d865932450e","ios":"levelo://app?vid=568f7ab5-7959-4fe1-a3a6-3d865932450e"},"vehicle_type_id":"4","last_reported":1746731296,"current_range_meters":0,"station_id":"ce4bhmp2rcd13ifvqgog","pricing_plan_id":"cebpf4jnsgd1na2vs0mg"},{"bike_id":"ee05e8a9-cd8b-47da-a0ab-8e7a359ec112","system_id":"levelo_inurba_marseille","lat":43.32318,"lon":5.4063,"is_reserved":false,"is_disabled":true,"rental_uris":{"android":"levelo://app?vid=ee05e8a9-cd8b-47da-a0ab-8e7a359ec112","ios":"levelo://app?vid=ee05e8a9-cd8b-47da-a0ab-8e7a359ec112"},"vehicle_type_id":"4","last_reported":1746731296,"current_range_meters":0,"station_id":"ce4bhq92rcd13ifvqhjg","pricing_plan_id":"cebpf4jnsgd1na2vs0mg"},{"bike_id":"346c5085-9aba-4c82-922a-6c1adc3af586","system_id":"levelo_inurba_marseille","lat":43.25426,"lon":5.3824,"is_reserved":false,"is_disabled":true,"rental_uris":{"android":"levelo://app?vid=346c5085-9aba-4c82-922a-6c1adc3af586","ios":"levelo://app?vid=346c5085-9aba-4c82-922a-6c1adc3af586"},"vehicle_type_id":"4","last_reported":1746731296,"current_range_meters":400,"station_id":"","pricing_plan_id":"cebpf4jnsgd1na2vs0mg"},{"bike_id":"c9592205-9409-4f74-aed1-7c4141a58caa","system_id":"levelo_inurba_marseille","lat":43.27133,"lon":5.36362,"is_reserved":false,"is_disabled":true,"rental_uris":{"android":"levelo://app?vid=c9592205-9409-4f74-aed1-7c4141a58caa","ios":"levelo://app?vid=c9592205-9409-4f74-aed1-7c4141a58caa"},"vehicle_type_id":"4","last_reported":1746731296,"current_range_meters":400,"station_id":"","pricing_plan_id":"cebpf4jnsgd1na2vs0mg"},{"bike_id":"00c74c59-98b8-4917-8d36-3021337670e8","system_id":"levelo_inurba_marseille","lat":43.31885,"lon":5.36765,"is_reserved":false,"is_disabled":true,"rental_uris":{"android":"levelo://app?vid=00c74c59-98b8-4917-8d36-3021337670e8","ios":"levelo://app?vid=00c74c59-98b8-4917-8d36-3021337670e8"},"vehicle_type_id":"4","last_reported":1746731296,"current_range_meters":400,"station_id":"","pricing_plan_id":"cebpf4jnsgd1na2vs0mg"},{"bike_id":"cf504049-f826-4d8f-a326-421a710b2f8c","system_id":"levelo_inurba_marseille","lat":43.31172,"lon":5.38731,"is_reserved":false,"is_disabled":true,"rental_uris":{"android":"levelo://app?vid=cf504049-f826-4d8f-a326-421a710b2f8c","ios":"levelo://app?vid=cf504049-f826-4d8f-a326-421a710b2f8c"},"vehicle_type_id":"4","last_reported":1746731296,"current_range_meters":400,"station_id":"ce4bgv12rcd13ifvqcp0","pricing_plan_id":"cebpf4jnsgd1na2vs0mg"},{"bike_id":"ae285acc-bf01-403e-bc1d-6f218fa5ed27","system_id":"levelo_inurba_marseille","lat":43.248016,"lon":5.374519,"is_reserved":false,"is_disabled":true,"rental_uris":{"android":"levelo://app?vid=ae285acc-bf01-403e-bc1d-6f218fa5ed27","ios":"levelo://app?vid=ae285acc-bf01-403e-bc1d-6f218fa5ed27"},"vehicle_type_id":"4","last_reported":1746731296,"current_range_meters":800,"station_id":"","pricing_plan_id":"cebpf4jnsgd1na2vs0mg"},{"bike_id":"4b60aabd-330a-4777-af39-40cd376ea2ec","system_id":"levelo_inurba_marseille","lat":43.2762,"lon":5.36105,"is_reserved":false,"is_disabled":true,"rental_uris":{"android":"levelo://app?vid=4b60aabd-330a-4777-af39-40cd376ea2ec","ios":"levelo://app?vid=4b60aabd-330a-4777-af39-40cd376ea2ec"},"vehicle_type_id":"4","last_reported":1746731296,"current_range_meters":800,"station_id":"ce4bgj92rcd13ifvqbe0","pricing_plan_id":"cebpf4jnsgd1na2vs0mg"},{"bike_id":"aa0d6347-2b4a-42e3-bca0-7a21dd14203d","system_id":"levelo_inurba_marseille","lat":43.28269,"lon":5.35061,"is_reserved":false,"is_disabled":true,"rental_uris":{"android":"levelo://app?vid=aa0d6347-2b4a-42e3-bca0-7a21dd14203d","ios":"levelo://app?vid=aa0d6347-2b4a-42e3-bca0-7a21dd14203d"},"vehicle_type_id":"4","last_reported":1746731296,"current_range_meters":800,"station_id":"ce4bhbp2rcd13ifvqerg","pricing_plan_id":"cebpf4jnsgd1na2vs0mg"},{"bike_id":"d35c05e0-21e6-4c12-90e6-53e0053f70e0","system_id":"levelo_inurba_marseille","lat":43.29788,"lon":5.38103,"is_reserved":false,"is_disabled":true,"rental_uris":{"android":"levelo://app?vid=d35c05e0-21e6-4c12-90e6-53e0053f70e0","ios":"levelo://app?vid=d35c05e0-21e6-4c12-90e6-53e0053f70e0"},"vehicle_type_id":"4","last_reported":1746731296,"current_range_meters":1200,"station_id":"ce4bgip2rcd13ifvqbb0","pricing_plan_id":"cebpf4jnsgd1na2vs0mg"},{"bike_id":"d33e0461-9fd7-4133-9c9b-d67d6f8eb7d5","system_id":"levelo_inurba_marseille","lat":43.313324,"lon":5.396917,"is_reserved":false,"is_disabled":true,"rental_uris":{"android":"levelo://app?vid=d33e0461-9fd7-4133-9c9b-d67d6f8eb7d5","ios":"levelo://app?vid=d33e0461-9fd7-4133-9c9b-d67d6f8eb7d5"},"vehicle_type_id":"4","last_reported":1746731296,"current_range_meters":1200,"station_id":"ce4bgvp2rcd13ifvqcu0","pricing_plan_id":"cebpf4jnsgd1na2vs0mg"},{"bike_id":"30c94ff1-5c0c-4c40-8f57-7f7d02df0c58","system_id":"levelo_inurba_marseille","lat":43.31706,"lon":5.40451,"is_reserved":false,"is_disabled":true,"rental_uris":{"android":"levelo://app?vid=30c94ff1-5c0c-4c40-8f57-7f7d02df0c58","ios":"levelo://app?vid=30c94ff1-5c0c-4c40-8f57-7f7d02df0c58"},"vehicle_type_id":"4","last_reported":1746731296,"current_range_meters":1200,"station_id":"ce4bh012rcd13ifvqd00","pricing_plan_id":"cebpf4jnsgd1na2vs0mg"},{"bike_id":"199aa044-c086-42ed-ab4a-8f570f2ccc5b","system_id":"levelo_inurba_marseille","lat":43.292523,"lon":5.409043,"is_reserved":false,"is_disabled":true,"rental_uris":{"android":"levelo://app?vid=199aa044-c086-42ed-ab4a-8f570f2ccc5b","ios":"levelo://app?vid=199aa044-c086-42ed-ab4a-8f570f2ccc5b"},"vehicle_type_id":"4","last_reported":1746731296,"current_range_meters":1200,"station_id":"ce4bh192rcd13ifvqdc0","pricing_plan_id":"cebpf4jnsgd1na2vs0mg"},{"bike_id":"21ad45cc-cf85-4887-b91f-7ca5c252a0d6","system_id":"levelo_inurba_marseille","lat":43.28416,"lon":5.35,"is_reserved":false,"is_disabled":true,"rental_uris":{"android":"levelo://app?vid=21ad45cc-cf85-4887-b91f-7ca5c252a0d6","ios":"levelo://app?vid=21ad45cc-cf85-4887-b91f-7ca5c252a0d6"},"vehicle_type_id":"4","last_reported":1746731296,"current_range_meters":1200,"station_id":"ce4bhbh2rcd13ifvqepg","pricing_plan_id":"cebpf4jnsgd1na2vs0mg"},{"bike_id":"690fd055-2eba-4d8f-9e9a-1f65e8e15c59","system_id":"levelo_inurba_marseille","lat":43.295258,"lon":5.385414,"is_reserved":false,"is_disabled":true,"rental_uris":{"android":"levelo://app?vid=690fd055-2eba-4d8f-9e9a-1f65e8e15c59","ios":"levelo://app?vid=690fd055-2eba-4d8f-9e9a-1f65e8e15c59"},"vehicle_type_id":"4","last_reported":1746731296,"current_range_meters":1600,"station_id":"ce4bgih2rcd13ifvqba0","pricing_plan_id":"cebpf4jnsgd1na2vs0mg"},{"bike_id":"4ea12f58-03ce-4eaf-a4da-6a7400e84758","system_id":"levelo_inurba_marseille","lat":43.28271,"lon":5.35056,"is_reserved":false,"is_disabled":true,"rental_uris":{"android":"levelo://app?vid=4ea12f58-03ce-4eaf-a4da-6a7400e84758","ios":"levelo://app?vid=4ea12f58-03ce-4eaf-a4da-6a7400e84758"},"vehicle_type_id":"4","last_reported":1746731296,"current_range_meters":1600,"station_id":"ce4bhbp2rcd13ifvqerg","pricing_plan_id":"cebpf4jnsgd1na2vs0mg"},{"bike_id":"898793ee-a83e-4c6d-9d16-8ef4a20c430a","system_id":"levelo_inurba_marseille","lat":43.28155,"lon":5.42647,"is_reserved":false,"is_disabled":true,"rental_uris":{"android":"levelo://app?vid=898793ee-a83e-4c6d-9d16-8ef4a20c430a","ios":"levelo://app?vid=898793ee-a83e-4c6d-9d16-8ef4a20c430a"},"vehicle_type_id":"4","last_reported":1746731296,"current_range_meters":1600,"station_id":"ce4bhnh2rcd13ifvqgug","pricing_plan_id":"cebpf4jnsgd1na2vs0mg"},{"bike_id":"dc7b65a1-b940-4f52-a543-ab12af21d1e6","system_id":"levelo_inurba_marseille","lat":43.28702,"lon":5.39986,"is_reserved":false,"is_disabled":true,"rental_uris":{"android":"levelo://app?vid=dc7b65a1-b940-4f52-a543-ab12af21d1e6","ios":"levelo://app?vid=dc7b65a1-b940-4f52-a543-ab12af21d1e6"},"vehicle_type_id":"4","last_reported":1746731296,"current_range_meters":1600,"station_id":"ce4bho92rcd13ifvqh3g","pricing_plan_id":"cebpf4jnsgd1na2vs0mg"},{"bike_id":"9acc04ed-0e24-4fd7-85a3-31be413a1e0d","system_id":"levelo_inurba_marseille","lat":43.28656,"lon":5.36349,"is_reserved":false,"is_disabled":false,"rental_uris":{"android":"levelo://app?vid=9acc04ed-0e24-4fd7-85a3-31be413a1e0d","ios":"levelo://app?vid=9acc04ed-0e24-4fd7-85a3-31be413a1e0d"},"vehicle_type_id":"4","last_reported":1746731296,"current_range_meters":2000,"station_id":"ce4bhah2rcd13ifvqej0","pricing_plan_id":"cebpf4jnsgd1na2vs0mg"},{"bike_id":"3a5bb497-5d55-49e9-a736-b01e53e9c32b","system_id":"levelo_inurba_marseille","lat":43.25121,"lon":5.40316,"is_reserved":false,"is_disabled":true,"rental_uris":{"android":"levelo://app?vid=3a5bb497-5d55-49e9-a736-b01e53e9c32b","ios":"levelo://app?vid=3a5bb497-5d55-49e9-a736-b01e53e9c32b"},"vehicle_type_id":"4","last_reported":1746731296,"current_range_meters":2000,"station_id":"ce4bhlh2rcd13ifvqgig","pricing_plan_id":"cebpf4jnsgd1na2vs0mg"},{"bike_id":"8a99c4f1-4b1c-46ae-b43c-91f91b6bea9a","system_id":"levelo_inurba_marseille","lat":43.30442,"lon":5.3889,"is_reserved":false,"is_disabled":false,"rental_uris":{"android":"levelo://app?vid=8a99c4f1-4b1c-46ae-b43c-91f91b6bea9a","ios":"levelo://app?vid=8a99c4f1-4b1c-46ae-b43c-91f91b6bea9a"},"vehicle_type_id":"4","last_reported":1746731296,"current_range_meters":2800,"station_id":"ce4bgk12rcd13ifvqbi0","pricing_plan_id":"cebpf4jnsgd1na2vs0mg"},{"bike_id":"92430755-5e92-44ac-86e9-fed319afbad5","system_id":"levelo_inurba_marseille","lat":43.29894,"lon":5.4367,"is_reserved":false,"is_disabled":false,"rental_uris":{"android":"levelo://app?vid=92430755-5e92-44ac-86e9-fed319afbad5","ios":"levelo://app?vid=92430755-5e92-44ac-86e9-fed319afbad5"},"vehicle_type_id":"4","last_reported":1746731296,"current_range_meters":2800,"station_id":"ce4bhpp2rcd13ifvqhfg","pricing_plan_id":"cebpf4jnsgd1na2vs0mg"},{"bike_id":"2378f73b-7fb6-4201-a6bf-8d30a55e8782","system_id":"levelo_inurba_marseille","lat":43.30428,"lon":5.38896,"is_reserved":false,"is_disabled":false,"rental_uris":{"android":"levelo://app?vid=2378f73b-7fb6-4201-a6bf-8d30a55e8782","ios":"levelo://app?vid=2378f73b-7fb6-4201-a6bf-8d30a55e8782"},"vehicle_type_id":"4","last_reported":1746731296,"current_range_meters":3200,"station_id":"ce4bgk12rcd13ifvqbi0","pricing_plan_id":"cebpf4jnsgd1na2vs0mg"},{"bike_id":"7debde7c-92ac-4aaa-b209-f7dade41fad1","system_id":"levelo_inurba_marseille","lat":43.31168,"lon":5.38729,"is_reserved":false,"is_disabled":false,"rental_uris":{"android":"levelo://app?vid=7debde7c-92ac-4aaa-b209-f7dade41fad1","ios":"levelo://app?vid=7debde7c-92ac-4aaa-b209-f7dade41fad1"},"vehicle_type_id":"4","last_reported":1746731296,"current_range_meters":3200,"station_id":"ce4bgv12rcd13ifvqcp0","pricing_plan_id":"cebpf4jnsgd1na2vs0mg"},{"bike_id":"19afd90c-fec4-41f4-8fd8-3137e8a1a1db","system_id":"levelo_inurba_marseille","lat":43.29025,"lon":5.381392,"is_reserved":false,"is_disabled":false,"rental_uris":{"android":"levelo://app?vid=19afd90c-fec4-41f4-8fd8-3137e8a1a1db","ios":"levelo://app?vid=19afd90c-fec4-41f4-8fd8-3137e8a1a1db"},"vehicle_type_id":"4","last_reported":1746731296,"current_range_meters":3200,"station_id":"ce4bh4p2rcd13ifvqe1g","pricing_plan_id":"cebpf4jnsgd1na2vs0mg"},{"bike_id":"ffd7d3cc-ca24-4de6-94f1-bf9dac46fb7b","system_id":"levelo_inurba_marseille","lat":43.27324,"lon":5.39095,"is_reserved":false,"is_disabled":false,"rental_uris":{"android":"levelo://app?vid=ffd7d3cc-ca24-4de6-94f1-bf9dac46fb7b","ios":"levelo://app?vid=ffd7d3cc-ca24-4de6-94f1-bf9dac46fb7b"},"vehicle_type_id":"4","last_reported":1746731296,"current_range_meters":3200,"station_id":"ce4bhgp2rcd13ifvqfe0","pricing_plan_id":"cebpf4jnsgd1na2vs0mg"},{"bike_id":"2c1b937b-92c4-4533-a48f-1b3b2def6c64","system_id":"levelo_inurba_marseille","lat":43.293671,"lon":5.378528,"is_reserved":false,"is_disabled":false,"rental_uris":{"android":"levelo://app?vid=2c1b937b-92c4-4533-a48f-1b3b2def6c64","ios":"levelo://app?vid=2c1b937b-92c4-4533-a48f-1b3b2def6c64"},"vehicle_type_id":"4","last_reported":1746731296,"current_range_meters":3600,"station_id":"ce4bgjh2rcd13ifvqbf0","pricing_plan_id":"cebpf4jnsgd1na2vs0mg"},{"bike_id":"795d60e9-ce03-4c64-a520-bd26b7eb58c6","system_id":"levelo_inurba_marseille","lat":43.28121,"lon":5.44221,"is_reserved":false,"is_disabled":false,"rental_uris":{"android":"levelo://app?vid=795d60e9-ce03-4c64-a520-bd26b7eb58c6","ios":"levelo://app?vid=795d60e9-ce03-4c64-a520-bd26b7eb58c6"},"vehicle_type_id":"4","last_reported":1746731296,"current_range_meters":4000,"station_id":"","pricing_plan_id":"cebpf4jnsgd1na2vs0mg"},{"bike_id":"d9d6bb9c-f73e-447f-ab94-0899b29e18af","system_id":"levelo_inurba_marseille","lat":43.293,"lon":5.37463,"is_reserved":false,"is_disabled":false,"rental_uris":{"android":"levelo://app?vid=d9d6bb9c-f73e-447f-ab94-0899b29e18af","ios":"levelo://app?vid=d9d6bb9c-f73e-447f-ab94-0899b29e18af"},"vehicle_type_id":"4","last_reported":1746731296,"current_range_meters":4000,"station_id":"ce4bgi12rcd13ifvqb70","pricing_plan_id":"cebpf4jnsgd1na2vs0mg"},{"bike_id":"3f7ebe81-0ed2-4935-bd0c-7b09f5b82eee","system_id":"levelo_inurba_marseille","lat":43.2954,"lon":5.39044,"is_reserved":false,"is_disabled":false,"rental_uris":{"android":"levelo://app?vid=3f7ebe81-0ed2-4935-bd0c-7b09f5b82eee","ios":"levelo://app?vid=3f7ebe81-0ed2-4935-bd0c-7b09f5b82eee"},"vehicle_type_id":"4","last_reported":1746731296,"current_range_meters":4000,"station_id":"ce4bh3p2rcd13ifvqdp0","pricing_plan_id":"cebpf4jnsgd1na2vs0mg"},{"bike_id":"0756c0d0-b598-4aa6-b38c-395c766c62fe","system_id":"levelo_inurba_marseille","lat":43.29251,"lon":5.37628,"is_reserved":false,"is_disabled":false,"rental_uris":{"android":"levelo://app?vid=0756c0d0-b598-4aa6-b38c-395c766c62fe","ios":"levelo://app?vid=0756c0d0-b598-4aa6-b38c-395c766c62fe"},"vehicle_type_id":"4","last_reported":1746731296,"current_range_meters":4400,"station_id":"ce4bgi12rcd13ifvqb80","pricing_plan_id":"cebpf4jnsgd1na2vs0mg"},{"bike_id":"af7d2939-5dfc-41c6-86ce-d55de3e766c9","system_id":"levelo_inurba_marseille","lat":43.2907,"lon":5.37159,"is_reserved":false,"is_disabled":false,"rental_uris":{"android":"levelo://app?vid=af7d2939-5dfc-41c6-86ce-d55de3e766c9","ios":"levelo://app?vid=af7d2939-5dfc-41c6-86ce-d55de3e766c9"},"vehicle_type_id":"4","last_reported":1746731296,"current_range_meters":4400,"station_id":"ce4bh5p2rcd13ifvqe4g","pricing_plan_id":"cebpf4jnsgd1na2vs0mg"},{"bike_id":"df65eb14-d74a-45ba-ac4c-380129c3227b","system_id":"levelo_inurba_marseille","lat":43.29629,"lon":5.40585,"is_reserved":false,"is_disabled":false,"rental_uris":{"android":"levelo://app?vid=df65eb14-d74a-45ba-ac4c-380129c3227b","ios":"levelo://app?vid=df65eb14-d74a-45ba-ac4c-380129c3227b"},"vehicle_type_id":"4","last_reported":1746731296,"current_range_meters":4800,"station_id":"ce4bh0h2rcd13ifvqd60","pricing_plan_id":"cebpf4jnsgd1na2vs0mg"},{"bike_id":"991e0f3b-c0bb-462e-bb15-982999600a86","system_id":"levelo_inurba_marseille","lat":43.29257,"lon":5.38447,"is_reserved":false,"is_disabled":false,"rental_uris":{"android":"levelo://app?vid=991e0f3b-c0bb-462e-bb15-982999600a86","ios":"levelo://app?vid=991e0f3b-c0bb-462e-bb15-982999600a86"},"vehicle_type_id":"4","last_reported":1746731296,"current_range_meters":4800,"station_id":"ce4bh692rcd13ifvqea0","pricing_plan_id":"cebpf4jnsgd1na2vs0mg"},{"bike_id":"d406817b-9f7c-45f8-9507-864a72c19634","system_id":"levelo_inurba_marseille","lat":43.24071,"lon":5.37763,"is_reserved":false,"is_disabled":false,"rental_uris":{"android":"levelo://app?vid=d406817b-9f7c-45f8-9507-864a72c19634","ios":"levelo://app?vid=d406817b-9f7c-45f8-9507-864a72c19634"},"vehicle_type_id":"4","last_reported":1746731296,"current_range_meters":5600,"station_id":"ce4bhnp2rcd13ifvqgvg","pricing_plan_id":"cebpf4jnsgd1na2vs0mg"},{"bike_id":"ed76766d-8482-41cd-991d-6ce9044b4c0d","system_id":"levelo_inurba_marseille","lat":43.28442,"lon":5.39206,"is_reserved":false,"is_disabled":false,"rental_uris":{"android":"levelo://app?vid=ed76766d-8482-41cd-991d-6ce9044b4c0d","ios":"levelo://app?vid=ed76766d-8482-41cd-991d-6ce9044b4c0d"},"vehicle_type_id":"4","last_reported":1746731296,"current_range_meters":5600,"station_id":"ce4bhoh2rcd13ifvqh5g","pricing_plan_id":"cebpf4jnsgd1na2vs0mg"},{"bike_id":"63707718-642f-4e97-990d-b3182e27a6ae","system_id":"levelo_inurba_marseille","lat":43.2749,"lon":5.42449,"is_reserved":false,"is_disabled":false,"rental_uris":{"android":"levelo://app?vid=63707718-642f-4e97-990d-b3182e27a6ae","ios":"levelo://app?vid=63707718-642f-4e97-990d-b3182e27a6ae"},"vehicle_type_id":"4","last_reported":1746731296,"current_range_meters":6000,"station_id":"ce4bhn92rcd13ifvqgrg","pricing_plan_id":"cebpf4jnsgd1na2vs0mg"},{"bike_id":"b7bdbe3a-b7ec-4256-908f-dfa71835a5d1","system_id":"levelo_inurba_marseille","lat":43.298942,"lon":5.38353,"is_reserved":false,"is_disabled":false,"rental_uris":{"android":"levelo://app?vid=b7bdbe3a-b7ec-4256-908f-dfa71835a5d1","ios":"levelo://app?vid=b7bdbe3a-b7ec-4256-908f-dfa71835a5d1"},"vehicle_type_id":"4","last_reported":1746731296,"current_range_meters":6400,"station_id":"","pricing_plan_id":"cebpf4jnsgd1na2vs0mg"},{"bike_id":"7337bb47-feab-4b1f-ae56-485a7280e694","system_id":"levelo_inurba_marseille","lat":43.27314,"lon":5.39072,"is_reserved":false,"is_disabled":false,"rental_uris":{"android":"levelo://app?vid=7337bb47-feab-4b1f-ae56-485a7280e694","ios":"levelo://app?vid=7337bb47-feab-4b1f-ae56-485a7280e694"},"vehicle_type_id":"4","last_reported":1746731296,"current_range_meters":6400,"station_id":"ce4bhgp2rcd13ifvqfe0","pricing_plan_id":"cebpf4jnsgd1na2vs0mg"},{"bike_id":"5a2c1b6c-26e7-43a4-99ca-e870c326c221","system_id":"levelo_inurba_marseille","lat":43.32287,"lon":5.38275,"is_reserved":false,"is_disabled":false,"rental_uris":{"android":"levelo://app?vid=5a2c1b6c-26e7-43a4-99ca-e870c326c221","ios":"levelo://app?vid=5a2c1b6c-26e7-43a4-99ca-e870c326c221"},"vehicle_type_id":"4","last_reported":1746731296,"current_range_meters":6400,"station_id":"ce4bhr12rcd13ifvqhqg","pricing_plan_id":"cebpf4jnsgd1na2vs0mg"},{"bike_id":"14e638c3-6ba0-4ad0-8ab0-153f53fa1fbe","system_id":"levelo_inurba_marseille","lat":43.22909,"lon":5.35375,"is_reserved":false,"is_disabled":false,"rental_uris":{"android":"levelo://app?vid=14e638c3-6ba0-4ad0-8ab0-153f53fa1fbe","ios":"levelo://app?vid=14e638c3-6ba0-4ad0-8ab0-153f53fa1fbe"},"vehicle_type_id":"4","last_reported":1746731296,"current_range_meters":6400,"station_id":"cpo3532slgdg3j2ikp40","pricing_plan_id":"cebpf4jnsgd1na2vs0mg"},{"bike_id":"2460d382-4a03-4e7c-a2bf-574f06379d8a","system_id":"levelo_inurba_marseille","lat":43.302549,"lon":5.400825,"is_reserved":false,"is_disabled":false,"rental_uris":{"android":"levelo://app?vid=2460d382-4a03-4e7c-a2bf-574f06379d8a","ios":"levelo://app?vid=2460d382-4a03-4e7c-a2bf-574f06379d8a"},"vehicle_type_id":"4","last_reported":1746731296,"current_range_meters":6800,"station_id":"","pricing_plan_id":"cebpf4jnsgd1na2vs0mg"},{"bike_id":"6fa13521-f270-4672-8e57-9d4b4c379dec","system_id":"levelo_inurba_marseille","lat":43.3016,"lon":5.38768,"is_reserved":false,"is_disabled":false,"rental_uris":{"android":"levelo://app?vid=6fa13521-f270-4672-8e57-9d4b4c379dec","ios":"levelo://app?vid=6fa13521-f270-4672-8e57-9d4b4c379dec"},"vehicle_type_id":"4","last_reported":1746731296,"current_range_meters":6800,"station_id":"ce4bghh2rcd13ifvqb60","pricing_plan_id":"cebpf4jnsgd1na2vs0mg"},{"bike_id":"fcb56575-5e69-4e07-9685-d64c79311893","system_id":"levelo_inurba_marseille","lat":43.31321,"lon":5.39672,"is_reserved":false,"is_disabled":false,"rental_uris":{"android":"levelo://app?vid=fcb56575-5e69-4e07-9685-d64c79311893","ios":"levelo://app?vid=fcb56575-5e69-4e07-9685-d64c79311893"},"vehicle_type_id":"4","last_reported":1746731296,"current_range_meters":6800,"station_id":"ce4bgvp2rcd13ifvqcu0","pricing_plan_id":"cebpf4jnsgd1na2vs0mg"},{"bike_id":"32177595-d9a1-4788-a257-808878a65913","system_id":"levelo_inurba_marseille","lat":43.30898,"lon":5.37277,"is_reserved":false,"is_disabled":false,"rental_uris":{"android":"levelo://app?vid=32177595-d9a1-4788-a257-808878a65913","ios":"levelo://app?vid=32177595-d9a1-4788-a257-808878a65913"},"vehicle_type_id":"4","last_reported":1746731296,"current_range_meters":7200,"station_id":"","pricing_plan_id":"cebpf4jnsgd1na2vs0mg"},{"bike_id":"1ca0608c-e033-437c-ac61-71e9555c44b8","system_id":"levelo_inurba_marseille","lat":43.299713,"lon":5.384814,"is_reserved":false,"is_disabled":false,"rental_uris":{"android":"levelo://app?vid=1ca0608c-e033-437c-ac61-71e9555c44b8","ios":"levelo://app?vid=1ca0608c-e033-437c-ac61-71e9555c44b8"},"vehicle_type_id":"4","last_reported":1746731296,"current_range_meters":7200,"station_id":"ce4bgj92rcd13ifvqbd0","pricing_plan_id":"cebpf4jnsgd1na2vs0mg"},{"bike_id":"30a57150-f7d3-44ff-a719-985e18fc9a3a","system_id":"levelo_inurba_marseille","lat":43.31111,"lon":5.37769,"is_reserved":false,"is_disabled":false,"rental_uris":{"android":"levelo://app?vid=30a57150-f7d3-44ff-a719-985e18fc9a3a","ios":"levelo://app?vid=30a57150-f7d3-44ff-a719-985e18fc9a3a"},"vehicle_type_id":"4","last_reported":1746731296,"current_range_meters":7200,"station_id":"ce4bgt92rcd13ifvqcg0","pricing_plan_id":"cebpf4jnsgd1na2vs0mg"},{"bike_id":"7e699623-9ac4-4a0f-8e0e-3645bac122df","system_id":"levelo_inurba_marseille","lat":43.29517,"lon":5.39403,"is_reserved":false,"is_disabled":false,"rental_uris":{"android":"levelo://app?vid=7e699623-9ac4-4a0f-8e0e-3645bac122df","ios":"levelo://app?vid=7e699623-9ac4-4a0f-8e0e-3645bac122df"},"vehicle_type_id":"4","last_reported":1746731296,"current_range_meters":7200,"station_id":"ce4bh292rcd13ifvqdf0","pricing_plan_id":"cebpf4jnsgd1na2vs0mg"},{"bike_id":"4be690eb-25e9-4849-b2ef-15bea2bfecc0","system_id":"levelo_inurba_marseille","lat":43.29573,"lon":5.399823,"is_reserved":false,"is_disabled":false,"rental_uris":{"android":"levelo://app?vid=4be690eb-25e9-4849-b2ef-15bea2bfecc0","ios":"levelo://app?vid=4be690eb-25e9-4849-b2ef-15bea2bfecc0"},"vehicle_type_id":"4","last_reported":1746731296,"current_range_meters":7200,"station_id":"ce4bh312rcd13ifvqdj0","pricing_plan_id":"cebpf4jnsgd1na2vs0mg"},{"bike_id":"6a1928f7-17f2-48b4-b4bd-8c2c163725fe","system_id":"levelo_inurba_marseille","lat":43.28402,"lon":5.37512,"is_reserved":false,"is_disabled":false,"rental_uris":{"android":"levelo://app?vid=6a1928f7-17f2-48b4-b4bd-8c2c163725fe","ios":"levelo://app?vid=6a1928f7-17f2-48b4-b4bd-8c2c163725fe"},"vehicle_type_id":"4","last_reported":1746731296,"current_range_meters":7200,"station_id":"ce4bh412rcd13ifvqds0","pricing_plan_id":"cebpf4jnsgd1na2vs0mg"},{"bike_id":"15c659ca-432a-4c12-9254-ab0262d3eeda","system_id":"levelo_inurba_marseille","lat":43.23182,"lon":5.39989,"is_reserved":false,"is_disabled":false,"rental_uris":{"android":"levelo://app?vid=15c659ca-432a-4c12-9254-ab0262d3eeda","ios":"levelo://app?vid=15c659ca-432a-4c12-9254-ab0262d3eeda"},"vehicle_type_id":"4","last_reported":1746731296,"current_range_meters":7200,"station_id":"ce4bhn12rcd13ifvqgqg","pricing_plan_id":"cebpf4jnsgd1na2vs0mg"},{"bike_id":"a26bf867-1fe2-4ae4-824a-551512845756","system_id":"levelo_inurba_marseille","lat":43.30732,"lon":5.42433,"is_reserved":false,"is_disabled":false,"rental_uris":{"android":"levelo://app?vid=a26bf867-1fe2-4ae4-824a-551512845756","ios":"levelo://app?vid=a26bf867-1fe2-4ae4-824a-551512845756"},"vehicle_type_id":"4","last_reported":1746731296,"current_range_meters":7200,"station_id":"st_cvj6ca6bvosntc0bfgr0","pricing_plan_id":"cebpf4jnsgd1na2vs0mg"},{"bike_id":"37234c4e-95b2-48f3-8a47-f6a69b514ae8","system_id":"levelo_inurba_marseille","lat":43.29432,"lon":5.38614,"is_reserved":false,"is_disabled":false,"rental_uris":{"android":"levelo://app?vid=37234c4e-95b2-48f3-8a47-f6a69b514ae8","ios":"levelo://app?vid=37234c4e-95b2-48f3-8a47-f6a69b514ae8"},"vehicle_type_id":"4","last_reported":1746731296,"current_range_meters":8000,"station_id":"ce4bh2h2rcd13ifvqdh0","pricing_plan_id":"cebpf4jnsgd1na2vs0mg"},{"bike_id":"aa89676c-c163-4eed-bd75-e97636d45dfd","system_id":"levelo_inurba_marseille","lat":43.24644,"lon":5.38911,"is_reserved":false,"is_disabled":false,"rental_uris":{"android":"levelo://app?vid=aa89676c-c163-4eed-bd75-e97636d45dfd","ios":"levelo://app?vid=aa89676c-c163-4eed-bd75-e97636d45dfd"},"vehicle_type_id":"4","last_reported":1746731296,"current_range_meters":8000,"station_id":"ce4bhg12rcd13ifvqf60","pricing_plan_id":"cebpf4jnsgd1na2vs0mg"},{"bike_id":"62f70cf7-b1a8-483b-b810-7934a8f3a936","system_id":"levelo_inurba_marseille","lat":43.26559,"lon":5.37286,"is_reserved":false,"is_disabled":false,"rental_uris":{"android":"levelo://app?vid=62f70cf7-b1a8-483b-b810-7934a8f3a936","ios":"levelo://app?vid=62f70cf7-b1a8-483b-b810-7934a8f3a936"},"vehicle_type_id":"4","last_reported":1746731296,"current_range_meters":8000,"station_id":"ce4bhg12rcd13ifvqf70","pricing_plan_id":"cebpf4jnsgd1na2vs0mg"},{"bike_id":"eadc19b3-64a4-4861-9594-8f5e2f4e575f","system_id":"levelo_inurba_marseille","lat":43.27813,"lon":5.40699,"is_reserved":false,"is_disabled":false,"rental_uris":{"android":"levelo://app?vid=eadc19b3-64a4-4861-9594-8f5e2f4e575f","ios":"levelo://app?vid=eadc19b3-64a4-4861-9594-8f5e2f4e575f"},"vehicle_type_id":"4","last_reported":1746731296,"current_range_meters":8000,"station_id":"ce4bhnh2rcd13ifvqgtg","pricing_plan_id":"cebpf4jnsgd1na2vs0mg"},{"bike_id":"4ae7a83c-4508-4420-bdfc-fc011c19b67a","system_id":"levelo_inurba_marseille","lat":43.33796,"lon":5.3748,"is_reserved":false,"is_disabled":false,"rental_uris":{"android":"levelo://app?vid=4ae7a83c-4508-4420-bdfc-fc011c19b67a","ios":"levelo://app?vid=4ae7a83c-4508-4420-bdfc-fc011c19b67a"},"vehicle_type_id":"4","last_reported":1746731296,"current_range_meters":8400,"station_id":"","pricing_plan_id":"cebpf4jnsgd1na2vs0mg"},{"bike_id":"b15fe93b-1059-4d75-abd3-040e349ce402","system_id":"levelo_inurba_marseille","lat":43.30123,"lon":5.37021,"is_reserved":false,"is_disabled":false,"rental_uris":{"android":"levelo://app?vid=b15fe93b-1059-4d75-abd3-040e349ce402","ios":"levelo://app?vid=b15fe93b-1059-4d75-abd3-040e349ce402"},"vehicle_type_id":"4","last_reported":1746731296,"current_range_meters":8400,"station_id":"","pricing_plan_id":"cebpf4jnsgd1na2vs0mg"},{"bike_id":"2cd4497b-b94b-408f-bc20-a6f93449ba18","system_id":"levelo_inurba_marseille","lat":43.29527,"lon":5.38546,"is_reserved":false,"is_disabled":false,"rental_uris":{"android":"levelo://app?vid=2cd4497b-b94b-408f-bc20-a6f93449ba18","ios":"levelo://app?vid=2cd4497b-b94b-408f-bc20-a6f93449ba18"},"vehicle_type_id":"4","last_reported":1746731296,"current_range_meters":8400,"station_id":"ce4bgih2rcd13ifvqba0","pricing_plan_id":"cebpf4jnsgd1na2vs0mg"},{"bike_id":"1a265eb9-e499-4da7-8367-9a76df75535e","system_id":"levelo_inurba_marseille","lat":43.29912,"lon":5.37492,"is_reserved":false,"is_disabled":false,"rental_uris":{"android":"levelo://app?vid=1a265eb9-e499-4da7-8367-9a76df75535e","ios":"levelo://app?vid=1a265eb9-e499-4da7-8367-9a76df75535e"},"vehicle_type_id":"4","last_reported":1746731296,"current_range_meters":8400,"station_id":"ce4bgjh2rcd13ifvqbg0","pricing_plan_id":"cebpf4jnsgd1na2vs0mg"},{"bike_id":"a11d56dd-2ff2-4e88-9197-b1ce2dda01fd","system_id":"levelo_inurba_marseille","lat":43.30334,"lon":5.40438,"is_reserved":false,"is_disabled":false,"rental_uris":{"android":"levelo://app?vid=a11d56dd-2ff2-4e88-9197-b1ce2dda01fd","ios":"levelo://app?vid=a11d56dd-2ff2-4e88-9197-b1ce2dda01fd"},"vehicle_type_id":"4","last_reported":1746731296,"current_range_meters":8400,"station_id":"ce4bh012rcd13ifvqd10","pricing_plan_id":"cebpf4jnsgd1na2vs0mg"},{"bike_id":"e3a9b663-80e1-4858-b608-7e2401ffe38e","system_id":"levelo_inurba_marseille","lat":43.29514,"lon":5.39406,"is_reserved":false,"is_disabled":false,"rental_uris":{"android":"levelo://app?vid=e3a9b663-80e1-4858-b608-7e2401ffe38e","ios":"levelo://app?vid=e3a9b663-80e1-4858-b608-7e2401ffe38e"},"vehicle_type_id":"4","last_reported":1746731296,"current_range_meters":8400,"station_id":"ce4bh292rcd13ifvqdf0","pricing_plan_id":"cebpf4jnsgd1na2vs0mg"},{"bike_id":"1cd92087-a03e-4a51-b229-e3ec3ef0f51e","system_id":"levelo_inurba_marseille","lat":43.28082,"lon":5.39661,"is_reserved":false,"is_disabled":false,"rental_uris":{"android":"levelo://app?vid=1cd92087-a03e-4a51-b229-e3ec3ef0f51e","ios":"levelo://app?vid=1cd92087-a03e-4a51-b229-e3ec3ef0f51e"},"vehicle_type_id":"4","last_reported":1746731296,"current_range_meters":8400,"station_id":"ce4bho12rcd13ifvqh2g","pricing_plan_id":"cebpf4jnsgd1na2vs0mg"},{"bike_id":"c356d9c9-467f-42d0-97aa-81b0b3f01826","system_id":"levelo_inurba_marseille","lat":43.29367,"lon":5.37848,"is_reserved":false,"is_disabled":false,"rental_uris":{"android":"levelo://app?vid=c356d9c9-467f-42d0-97aa-81b0b3f01826","ios":"levelo://app?vid=c356d9c9-467f-42d0-97aa-81b0b3f01826"},"vehicle_type_id":"4","last_reported":1746731296,"current_range_meters":8800,"station_id":"ce4bgjh2rcd13ifvqbf0","pricing_plan_id":"cebpf4jnsgd1na2vs0mg"},{"bike_id":"19c847cd-ffc5-4e26-a565-264ad1cbcc3f","system_id":"levelo_inurba_marseille","lat":43.30433,"lon":5.38894,"is_reserved":false,"is_disabled":false,"rental_uris":{"android":"levelo://app?vid=19c847cd-ffc5-4e26-a565-264ad1cbcc3f","ios":"levelo://app?vid=19c847cd-ffc5-4e26-a565-264ad1cbcc3f"},"vehicle_type_id":"4","last_reported":1746731296,"current_range_meters":8800,"station_id":"ce4bgk12rcd13ifvqbi0","pricing_plan_id":"cebpf4jnsgd1na2vs0mg"},{"bike_id":"dfb48032-71b3-44c0-8e47-ee1ee47a51aa","system_id":"levelo_inurba_marseille","lat":43.2856,"lon":5.395,"is_reserved":false,"is_disabled":false,"rental_uris":{"android":"levelo://app?vid=dfb48032-71b3-44c0-8e47-ee1ee47a51aa","ios":"levelo://app?vid=dfb48032-71b3-44c0-8e47-ee1ee47a51aa"},"vehicle_type_id":"4","last_reported":1746731296,"current_range_meters":8800,"station_id":"ce4bh292rcd13ifvqdg0","pricing_plan_id":"cebpf4jnsgd1na2vs0mg"},{"bike_id":"dd05ef55-0387-4fd2-a5b9-e7d9788117ef","system_id":"levelo_inurba_marseille","lat":43.26063,"lon":5.394,"is_reserved":false,"is_disabled":false,"rental_uris":{"android":"levelo://app?vid=dd05ef55-0387-4fd2-a5b9-e7d9788117ef","ios":"levelo://app?vid=dd05ef55-0387-4fd2-a5b9-e7d9788117ef"},"vehicle_type_id":"4","last_reported":1746731296,"current_range_meters":8800,"station_id":"ce4bhh92rcd13ifvqfj0","pricing_plan_id":"cebpf4jnsgd1na2vs0mg"},{"bike_id":"3380be41-5609-4f83-92ea-376897d27f4f","system_id":"levelo_inurba_marseille","lat":43.23187,"lon":5.39991,"is_reserved":false,"is_disabled":false,"rental_uris":{"android":"levelo://app?vid=3380be41-5609-4f83-92ea-376897d27f4f","ios":"levelo://app?vid=3380be41-5609-4f83-92ea-376897d27f4f"},"vehicle_type_id":"4","last_reported":1746731296,"current_range_meters":8800,"station_id":"ce4bhn12rcd13ifvqgqg","pricing_plan_id":"cebpf4jnsgd1na2vs0mg"},{"bike_id":"4b7a0579-0cb2-41f0-b0f4-770d47118651","system_id":"levelo_inurba_marseille","lat":43.27946,"lon":5.41042,"is_reserved":false,"is_disabled":false,"rental_uris":{"android":"levelo://app?vid=4b7a0579-0cb2-41f0-b0f4-770d47118651","ios":"levelo://app?vid=4b7a0579-0cb2-41f0-b0f4-770d47118651"},"vehicle_type_id":"4","last_reported":1746731296,"current_range_meters":8800,"station_id":"ce4bhnp2rcd13ifvqh0g","pricing_plan_id":"cebpf4jnsgd1na2vs0mg"},{"bike_id":"45747f8c-d7a5-4054-aabb-62406ec915e1","system_id":"levelo_inurba_marseille","lat":43.30429,"lon":5.41296,"is_reserved":false,"is_disabled":false,"rental_uris":{"android":"levelo://app?vid=45747f8c-d7a5-4054-aabb-62406ec915e1","ios":"levelo://app?vid=45747f8c-d7a5-4054-aabb-62406ec915e1"},"vehicle_type_id":"4","last_reported":1746731296,"current_range_meters":8800,"station_id":"ce4bhop2rcd13ifvqh8g","pricing_plan_id":"cebpf4jnsgd1na2vs0mg"},{"bike_id":"8b698a34-fbf5-484e-9ecb-26e22393bc90","system_id":"levelo_inurba_marseille","lat":43.330405,"lon":5.390466,"is_reserved":false,"is_disabled":false,"rental_uris":{"android":"levelo://app?vid=8b698a34-fbf5-484e-9ecb-26e22393bc90","ios":"levelo://app?vid=8b698a34-fbf5-484e-9ecb-26e22393bc90"},"vehicle_type_id":"4","last_reported":1746731296,"current_range_meters":8800,"station_id":"ce4bhr92rcd13ifvqhrg","pricing_plan_id":"cebpf4jnsgd1na2vs0mg"},{"bike_id":"1f281ed5-8e05-43ba-b583-cf4e73bd4cb4","system_id":"levelo_inurba_marseille","lat":43.321086,"lon":5.367764,"is_reserved":false,"is_disabled":false,"rental_uris":{"android":"levelo://app?vid=1f281ed5-8e05-43ba-b583-cf4e73bd4cb4","ios":"levelo://app?vid=1f281ed5-8e05-43ba-b583-cf4e73bd4cb4"},"vehicle_type_id":"4","last_reported":1746731296,"current_range_meters":8800,"station_id":"ce4bhrh2rcd13ifvqhug","pricing_plan_id":"cebpf4jnsgd1na2vs0mg"},{"bike_id":"32a2dd87-3e7c-483f-8fc7-e0ab727ee215","system_id":"levelo_inurba_marseille","lat":43.28309,"lon":5.4064,"is_reserved":false,"is_disabled":false,"rental_uris":{"android":"levelo://app?vid=32a2dd87-3e7c-483f-8fc7-e0ab727ee215","ios":"levelo://app?vid=32a2dd87-3e7c-483f-8fc7-e0ab727ee215"},"vehicle_type_id":"4","last_reported":1746731296,"current_range_meters":9200,"station_id":"","pricing_plan_id":"cebpf4jnsgd1na2vs0mg"},{"bike_id":"d598589b-8761-4bca-8d00-0f100ad94ce9","system_id":"levelo_inurba_marseille","lat":43.29305,"lon":5.37462,"is_reserved":false,"is_disabled":false,"rental_uris":{"android":"levelo://app?vid=d598589b-8761-4bca-8d00-0f100ad94ce9","ios":"levelo://app?vid=d598589b-8761-4bca-8d00-0f100ad94ce9"},"vehicle_type_id":"4","last_reported":1746731296,"current_range_meters":9200,"station_id":"ce4bgi12rcd13ifvqb70","pricing_plan_id":"cebpf4jnsgd1na2vs0mg"},{"bike_id":"67ec731b-84e5-49af-96a7-2577c389fd51","system_id":"levelo_inurba_marseille","lat":43.29595,"lon":5.38109,"is_reserved":false,"is_disabled":false,"rental_uris":{"android":"levelo://app?vid=67ec731b-84e5-49af-96a7-2577c389fd51","ios":"levelo://app?vid=67ec731b-84e5-49af-96a7-2577c389fd51"},"vehicle_type_id":"4","last_reported":1746731296,"current_range_meters":9200,"station_id":"ce4bgl12rcd13ifvqbo0","pricing_plan_id":"cebpf4jnsgd1na2vs0mg"},{"bike_id":"2c5fb153-2d2a-4fe1-8a21-4290161ad984","system_id":"levelo_inurba_marseille","lat":43.31494,"lon":5.37301,"is_reserved":false,"is_disabled":false,"rental_uris":{"android":"levelo://app?vid=2c5fb153-2d2a-4fe1-8a21-4290161ad984","ios":"levelo://app?vid=2c5fb153-2d2a-4fe1-8a21-4290161ad984"},"vehicle_type_id":"4","last_reported":1746731296,"current_range_meters":9200,"station_id":"ce4bgt12rcd13ifvqcd0","pricing_plan_id":"cebpf4jnsgd1na2vs0mg"},{"bike_id":"e9027ed5-cc10-44a7-8b6f-aeacc09540d4","system_id":"levelo_inurba_marseille","lat":43.30894,"lon":5.371903,"is_reserved":false,"is_disabled":false,"rental_uris":{"android":"levelo://app?vid=e9027ed5-cc10-44a7-8b6f-aeacc09540d4","ios":"levelo://app?vid=e9027ed5-cc10-44a7-8b6f-aeacc09540d4"},"vehicle_type_id":"4","last_reported":1746731296,"current_range_meters":9200,"station_id":"ce4bguh2rcd13ifvqckg","pricing_plan_id":"cebpf4jnsgd1na2vs0mg"},{"bike_id":"50a4e746-9238-4da0-94ea-e28704ab94a9","system_id":"levelo_inurba_marseille","lat":43.29523,"lon":5.39048,"is_reserved":false,"is_disabled":false,"rental_uris":{"android":"levelo://app?vid=50a4e746-9238-4da0-94ea-e28704ab94a9","ios":"levelo://app?vid=50a4e746-9238-4da0-94ea-e28704ab94a9"},"vehicle_type_id":"4","last_reported":1746731296,"current_range_meters":9200,"station_id":"ce4bh3p2rcd13ifvqdp0","pricing_plan_id":"cebpf4jnsgd1na2vs0mg"},{"bike_id":"fb695bf4-dd1d-4687-ba0f-0d637e08b5f1","system_id":"levelo_inurba_marseille","lat":43.29079,"lon":5.37154,"is_reserved":false,"is_disabled":false,"rental_uris":{"android":"levelo://app?vid=fb695bf4-dd1d-4687-ba0f-0d637e08b5f1","ios":"levelo://app?vid=fb695bf4-dd1d-4687-ba0f-0d637e08b5f1"},"vehicle_type_id":"4","last_reported":1746731296,"current_range_meters":9200,"station_id":"ce4bh5p2rcd13ifvqe4g","pricing_plan_id":"cebpf4jnsgd1na2vs0mg"},{"bike_id":"98a6640a-5a4e-4624-b088-423b764e775e","system_id":"levelo_inurba_marseille","lat":43.29509,"lon":5.37521,"is_reserved":false,"is_disabled":false,"rental_uris":{"android":"levelo://app?vid=98a6640a-5a4e-4624-b088-423b764e775e","ios":"levelo://app?vid=98a6640a-5a4e-4624-b088-423b764e775e"},"vehicle_type_id":"4","last_reported":1746731296,"current_range_meters":9600,"station_id":"ce4bgkp2rcd13ifvqbmg","pricing_plan_id":"cebpf4jnsgd1na2vs0mg"},{"bike_id":"3da51ce6-f335-4e86-941a-d25e3f2b7712","system_id":"levelo_inurba_marseille","lat":43.29579,"lon":5.38115,"is_reserved":false,"is_disabled":false,"rental_uris":{"android":"levelo://app?vid=3da51ce6-f335-4e86-941a-d25e3f2b7712","ios":"levelo://app?vid=3da51ce6-f335-4e86-941a-d25e3f2b7712"},"vehicle_type_id":"4","last_reported":1746731296,"current_range_meters":9600,"station_id":"ce4bgl12rcd13ifvqbo0","pricing_plan_id":"cebpf4jnsgd1na2vs0mg"},{"bike_id":"ed85b697-2caa-4256-8dda-619649c3b4f8","system_id":"levelo_inurba_marseille","lat":43.31118,"lon":5.37767,"is_reserved":false,"is_disabled":false,"rental_uris":{"android":"levelo://app?vid=ed85b697-2caa-4256-8dda-619649c3b4f8","ios":"levelo://app?vid=ed85b697-2caa-4256-8dda-619649c3b4f8"},"vehicle_type_id":"4","last_reported":1746731296,"current_range_meters":9600,"station_id":"ce4bgt92rcd13ifvqcg0","pricing_plan_id":"cebpf4jnsgd1na2vs0mg"},{"bike_id":"d3ac2643-7197-4a46-b079-37ecb55bf390","system_id":"levelo_inurba_marseille","lat":43.24808,"lon":5.37455,"is_reserved":false,"is_disabled":false,"rental_uris":{"android":"levelo://app?vid=d3ac2643-7197-4a46-b079-37ecb55bf390","ios":"levelo://app?vid=d3ac2643-7197-4a46-b079-37ecb55bf390"},"vehicle_type_id":"4","last_reported":1746731296,"current_range_meters":9600,"station_id":"ce4bhgh2rcd13ifvqfb0","pricing_plan_id":"cebpf4jnsgd1na2vs0mg"},{"bike_id":"cb4b81b9-aab2-41b1-bd2a-bc135f87a19d","system_id":"levelo_inurba_marseille","lat":43.33607,"lon":5.41032,"is_reserved":false,"is_disabled":false,"rental_uris":{"android":"levelo://app?vid=cb4b81b9-aab2-41b1-bd2a-bc135f87a19d","ios":"levelo://app?vid=cb4b81b9-aab2-41b1-bd2a-bc135f87a19d"},"vehicle_type_id":"4","last_reported":1746731296,"current_range_meters":9600,"station_id":"ce4bhqh2rcd13ifvqhmg","pricing_plan_id":"cebpf4jnsgd1na2vs0mg"},{"bike_id":"c49bdf6b-5439-4d3a-bb3d-f06d9284e79b","system_id":"levelo_inurba_marseille","lat":43.2942,"lon":5.3862,"is_reserved":false,"is_disabled":false,"rental_uris":{"android":"levelo://app?vid=c49bdf6b-5439-4d3a-bb3d-f06d9284e79b","ios":"levelo://app?vid=c49bdf6b-5439-4d3a-bb3d-f06d9284e79b"},"vehicle_type_id":"4","last_reported":1746731296,"current_range_meters":10000,"station_id":"ce4bh2h2rcd13ifvqdh0","pricing_plan_id":"cebpf4jnsgd1na2vs0mg"},{"bike_id":"7d79cb93-b45b-41c7-b737-8fceef5b7d27","system_id":"levelo_inurba_marseille","lat":43.3031,"lon":5.36838,"is_reserved":false,"is_disabled":false,"rental_uris":{"android":"levelo://app?vid=7d79cb93-b45b-41c7-b737-8fceef5b7d27","ios":"levelo://app?vid=7d79cb93-b45b-41c7-b737-8fceef5b7d27"},"vehicle_type_id":"4","last_reported":1746731296,"current_range_meters":10800,"station_id":"","pricing_plan_id":"cebpf4jnsgd1na2vs0mg"},{"bike_id":"75a25dcb-2f4a-4e01-a08b-3bd74f98a3ef","system_id":"levelo_inurba_marseille","lat":43.290078,"lon":5.386582,"is_reserved":false,"is_disabled":false,"rental_uris":{"android":"levelo://app?vid=75a25dcb-2f4a-4e01-a08b-3bd74f98a3ef","ios":"levelo://app?vid=75a25dcb-2f4a-4e01-a08b-3bd74f98a3ef"},"vehicle_type_id":"4","last_reported":1746731296,"current_range_meters":10800,"station_id":"ce4bh4p2rcd13ifvqe0g","pricing_plan_id":"cebpf4jnsgd1na2vs0mg"},{"bike_id":"809c8673-c032-46b9-aa07-62c38e26d44e","system_id":"levelo_inurba_marseille","lat":43.2506,"lon":5.38789,"is_reserved":false,"is_disabled":false,"rental_uris":{"android":"levelo://app?vid=809c8673-c032-46b9-aa07-62c38e26d44e","ios":"levelo://app?vid=809c8673-c032-46b9-aa07-62c38e26d44e"},"vehicle_type_id":"4","last_reported":1746731296,"current_range_meters":11200,"station_id":"","pricing_plan_id":"cebpf4jnsgd1na2vs0mg"},{"bike_id":"367903dc-4a93-47fe-aa81-5390fa3b5d3d","system_id":"levelo_inurba_marseille","lat":43.30325,"lon":5.40431,"is_reserved":false,"is_disabled":false,"rental_uris":{"android":"levelo://app?vid=367903dc-4a93-47fe-aa81-5390fa3b5d3d","ios":"levelo://app?vid=367903dc-4a93-47fe-aa81-5390fa3b5d3d"},"vehicle_type_id":"4","last_reported":1746731296,"current_range_meters":11200,"station_id":"ce4bh012rcd13ifvqd10","pricing_plan_id":"cebpf4jnsgd1na2vs0mg"},{"bike_id":"6763a2e8-a3ca-4772-91a6-7be353c330bf","system_id":"levelo_inurba_marseille","lat":43.2925,"lon":5.38434,"is_reserved":false,"is_disabled":false,"rental_uris":{"android":"levelo://app?vid=6763a2e8-a3ca-4772-91a6-7be353c330bf","ios":"levelo://app?vid=6763a2e8-a3ca-4772-91a6-7be353c330bf"},"vehicle_type_id":"4","last_reported":1746731296,"current_range_meters":11200,"station_id":"ce4bh692rcd13ifvqea0","pricing_plan_id":"cebpf4jnsgd1na2vs0mg"},{"bike_id":"dd986b0f-feb2-41c8-bf4f-fe0b41771e00","system_id":"levelo_inurba_marseille","lat":43.29233,"lon":5.36075,"is_reserved":false,"is_disabled":false,"rental_uris":{"android":"levelo://app?vid=dd986b0f-feb2-41c8-bf4f-fe0b41771e00","ios":"levelo://app?vid=dd986b0f-feb2-41c8-bf4f-fe0b41771e00"},"vehicle_type_id":"4","last_reported":1746731296,"current_range_meters":11200,"station_id":"ce4bhbh2rcd13ifvqeqg","pricing_plan_id":"cebpf4jnsgd1na2vs0mg"},{"bike_id":"f07d7cda-229c-4e20-9f30-b11d40b9bfd0","system_id":"levelo_inurba_marseille","lat":43.27081,"lon":5.42268,"is_reserved":false,"is_disabled":false,"rental_uris":{"android":"levelo://app?vid=f07d7cda-229c-4e20-9f30-b11d40b9bfd0","ios":"levelo://app?vid=f07d7cda-229c-4e20-9f30-b11d40b9bfd0"},"vehicle_type_id":"4","last_reported":1746731296,"current_range_meters":11200,"station_id":"ce4bhk92rcd13ifvqgb0","pricing_plan_id":"cebpf4jnsgd1na2vs0mg"},{"bike_id":"6971f759-8594-489e-a8f6-9153c9a9c438","system_id":"levelo_inurba_marseille","lat":43.27693,"lon":5.41964,"is_reserved":false,"is_disabled":false,"rental_uris":{"android":"levelo://app?vid=6971f759-8594-489e-a8f6-9153c9a9c438","ios":"levelo://app?vid=6971f759-8594-489e-a8f6-9153c9a9c438"},"vehicle_type_id":"4","last_reported":1746731296,"current_range_meters":11600,"station_id":"","pricing_plan_id":"cebpf4jnsgd1na2vs0mg"},{"bike_id":"8fa5584d-a028-44e7-8f53-4d5ec124d76b","system_id":"levelo_inurba_marseille","lat":43.31694,"lon":5.40464,"is_reserved":false,"is_disabled":false,"rental_uris":{"android":"levelo://app?vid=8fa5584d-a028-44e7-8f53-4d5ec124d76b","ios":"levelo://app?vid=8fa5584d-a028-44e7-8f53-4d5ec124d76b"},"vehicle_type_id":"4","last_reported":1746731296,"current_range_meters":11600,"station_id":"ce4bh012rcd13ifvqd00","pricing_plan_id":"cebpf4jnsgd1na2vs0mg"},{"bike_id":"b91b7593-12d6-4810-8c65-7be6afca8112","system_id":"levelo_inurba_marseille","lat":43.31748,"lon":5.39017,"is_reserved":false,"is_disabled":false,"rental_uris":{"android":"levelo://app?vid=b91b7593-12d6-4810-8c65-7be6afca8112","ios":"levelo://app?vid=b91b7593-12d6-4810-8c65-7be6afca8112"},"vehicle_type_id":"4","last_reported":1746731296,"current_range_meters":11600,"station_id":"ce4bhqp2rcd13ifvqhng","pricing_plan_id":"cebpf4jnsgd1na2vs0mg"},{"bike_id":"82ab5860-ba2e-4a5d-bf81-220af50d58b8","system_id":"levelo_inurba_marseille","lat":43.29599,"lon":5.37726,"is_reserved":false,"is_disabled":false,"rental_uris":{"android":"levelo://app?vid=82ab5860-ba2e-4a5d-bf81-220af50d58b8","ios":"levelo://app?vid=82ab5860-ba2e-4a5d-bf81-220af50d58b8"},"vehicle_type_id":"4","last_reported":1746731296,"current_range_meters":12000,"station_id":"ce4bgi92rcd13ifvqb90","pricing_plan_id":"cebpf4jnsgd1na2vs0mg"},{"bike_id":"501cc704-7716-4627-aca9-f070b147d898","system_id":"levelo_inurba_marseille","lat":43.29926,"lon":5.38163,"is_reserved":false,"is_disabled":false,"rental_uris":{"android":"levelo://app?vid=501cc704-7716-4627-aca9-f070b147d898","ios":"levelo://app?vid=501cc704-7716-4627-aca9-f070b147d898"},"vehicle_type_id":"4","last_reported":1746731296,"current_range_meters":12000,"station_id":"ce4bgj12rcd13ifvqbc0","pricing_plan_id":"cebpf4jnsgd1na2vs0mg"},{"bike_id":"dd821d7c-fbce-4c64-b0a8-9a0fa3941bb3","system_id":"levelo_inurba_marseille","lat":43.25723,"lon":5.41106,"is_reserved":false,"is_disabled":false,"rental_uris":{"android":"levelo://app?vid=dd821d7c-fbce-4c64-b0a8-9a0fa3941bb3","ios":"levelo://app?vid=dd821d7c-fbce-4c64-b0a8-9a0fa3941bb3"},"vehicle_type_id":"4","last_reported":1746731296,"current_range_meters":12000,"station_id":"ce4bhkp2rcd13ifvqgd0","pricing_plan_id":"cebpf4jnsgd1na2vs0mg"},{"bike_id":"86c53ec4-7ea9-4f42-ad35-0a03f05f161c","system_id":"levelo_inurba_marseille","lat":43.25721,"lon":5.41112,"is_reserved":false,"is_disabled":false,"rental_uris":{"android":"levelo://app?vid=86c53ec4-7ea9-4f42-ad35-0a03f05f161c","ios":"levelo://app?vid=86c53ec4-7ea9-4f42-ad35-0a03f05f161c"},"vehicle_type_id":"4","last_reported":1746731296,"current_range_meters":12000,"station_id":"ce4bhkp2rcd13ifvqgd0","pricing_plan_id":"cebpf4jnsgd1na2vs0mg"},{"bike_id":"caccb556-2ad0-45b8-84b8-819024dd44e6","system_id":"levelo_inurba_marseille","lat":43.29812,"lon":5.36774,"is_reserved":false,"is_disabled":false,"rental_uris":{"android":"levelo://app?vid=caccb556-2ad0-45b8-84b8-819024dd44e6","ios":"levelo://app?vid=caccb556-2ad0-45b8-84b8-819024dd44e6"},"vehicle_type_id":"4","last_reported":1746731296,"current_range_meters":12400,"station_id":"","pricing_plan_id":"cebpf4jnsgd1na2vs0mg"},{"bike_id":"2c46dd45-0f5d-4dd7-9f6c-32bd367698c9","system_id":"levelo_inurba_marseille","lat":43.2989,"lon":5.39727,"is_reserved":false,"is_disabled":false,"rental_uris":{"android":"levelo://app?vid=2c46dd45-0f5d-4dd7-9f6c-32bd367698c9","ios":"levelo://app?vid=2c46dd45-0f5d-4dd7-9f6c-32bd367698c9"},"vehicle_type_id":"4","last_reported":1746731296,"current_range_meters":12400,"station_id":"ce4bh0h2rcd13ifvqd50","pricing_plan_id":"cebpf4jnsgd1na2vs0mg"},{"bike_id":"17f2d86b-ac5a-4036-9b52-9a06f96e5a0a","system_id":"levelo_inurba_marseille","lat":43.2797,"lon":5.38741,"is_reserved":false,"is_disabled":false,"rental_uris":{"android":"levelo://app?vid=17f2d86b-ac5a-4036-9b52-9a06f96e5a0a","ios":"levelo://app?vid=17f2d86b-ac5a-4036-9b52-9a06f96e5a0a"},"vehicle_type_id":"4","last_reported":1746731296,"current_range_meters":12400,"station_id":"ce4bhg12rcd13ifvqf80","pricing_plan_id":"cebpf4jnsgd1na2vs0mg"},{"bike_id":"bf2bbac1-597b-4c47-abea-a0395d249249","system_id":"levelo_inurba_marseille","lat":43.24785,"lon":5.37456,"is_reserved":false,"is_disabled":false,"rental_uris":{"android":"levelo://app?vid=bf2bbac1-597b-4c47-abea-a0395d249249","ios":"levelo://app?vid=bf2bbac1-597b-4c47-abea-a0395d249249"},"vehicle_type_id":"4","last_reported":1746731296,"current_range_meters":12400,"station_id":"ce4bhgh2rcd13ifvqfb0","pricing_plan_id":"cebpf4jnsgd1na2vs0mg"},{"bike_id":"049dee66-f320-4a39-90d5-cac240a0fc35","system_id":"levelo_inurba_marseille","lat":43.270704,"lon":5.422754,"is_reserved":false,"is_disabled":false,"rental_uris":{"android":"levelo://app?vid=049dee66-f320-4a39-90d5-cac240a0fc35","ios":"levelo://app?vid=049dee66-f320-4a39-90d5-cac240a0fc35"},"vehicle_type_id":"4","last_reported":1746731296,"current_range_meters":12400,"station_id":"ce4bhk92rcd13ifvqgb0","pricing_plan_id":"cebpf4jnsgd1na2vs0mg"},{"bike_id":"3b8212b5-493b-4457-a8f0-9ba0eb082317","system_id":"levelo_inurba_marseille","lat":43.29612,"lon":5.3773,"is_reserved":false,"is_disabled":false,"rental_uris":{"android":"levelo://app?vid=3b8212b5-493b-4457-a8f0-9ba0eb082317","ios":"levelo://app?vid=3b8212b5-493b-4457-a8f0-9ba0eb082317"},"vehicle_type_id":"4","last_reported":1746731296,"current_range_meters":12800,"station_id":"ce4bgi92rcd13ifvqb90","pricing_plan_id":"cebpf4jnsgd1na2vs0mg"},{"bike_id":"7e9c9eb7-363c-4d4d-b3dd-d3836107cb0e","system_id":"levelo_inurba_marseille","lat":43.29977,"lon":5.37179,"is_reserved":false,"is_disabled":false,"rental_uris":{"android":"levelo://app?vid=7e9c9eb7-363c-4d4d-b3dd-d3836107cb0e","ios":"levelo://app?vid=7e9c9eb7-363c-4d4d-b3dd-d3836107cb0e"},"vehicle_type_id":"4","last_reported":1746731296,"current_range_meters":12800,"station_id":"ce4bgr92rcd13ifvqc7g","pricing_plan_id":"cebpf4jnsgd1na2vs0mg"},{"bike_id":"07c7dc4c-444f-4c0a-aec8-a2e7879bb11d","system_id":"levelo_inurba_marseille","lat":43.28456,"lon":5.3589,"is_reserved":false,"is_disabled":false,"rental_uris":{"android":"levelo://app?vid=07c7dc4c-444f-4c0a-aec8-a2e7879bb11d","ios":"levelo://app?vid=07c7dc4c-444f-4c0a-aec8-a2e7879bb11d"},"vehicle_type_id":"4","last_reported":1746731296,"current_range_meters":12800,"station_id":"ce4bhah2rcd13ifvqei0","pricing_plan_id":"cebpf4jnsgd1na2vs0mg"},{"bike_id":"881c097a-b180-44f5-9d6b-1f54f714978b","system_id":"levelo_inurba_marseille","lat":43.27069,"lon":5.42274,"is_reserved":false,"is_disabled":false,"rental_uris":{"android":"levelo://app?vid=881c097a-b180-44f5-9d6b-1f54f714978b","ios":"levelo://app?vid=881c097a-b180-44f5-9d6b-1f54f714978b"},"vehicle_type_id":"4","last_reported":1746731296,"current_range_meters":12800,"station_id":"ce4bhk92rcd13ifvqgb0","pricing_plan_id":"cebpf4jnsgd1na2vs0mg"},{"bike_id":"5e4980f5-4a5e-4dd2-84e5-00cf593a2f81","system_id":"levelo_inurba_marseille","lat":43.31753,"lon":5.39015,"is_reserved":false,"is_disabled":false,"rental_uris":{"android":"levelo://app?vid=5e4980f5-4a5e-4dd2-84e5-00cf593a2f81","ios":"levelo://app?vid=5e4980f5-4a5e-4dd2-84e5-00cf593a2f81"},"vehicle_type_id":"4","last_reported":1746731296,"current_range_meters":12800,"station_id":"ce4bhqp2rcd13ifvqhng","pricing_plan_id":"cebpf4jnsgd1na2vs0mg"},{"bike_id":"a2309e80-b2ba-42c9-9c60-147f0babf9f9","system_id":"levelo_inurba_marseille","lat":43.30848,"lon":5.37061,"is_reserved":false,"is_disabled":false,"rental_uris":{"android":"levelo://app?vid=a2309e80-b2ba-42c9-9c60-147f0babf9f9","ios":"levelo://app?vid=a2309e80-b2ba-42c9-9c60-147f0babf9f9"},"vehicle_type_id":"4","last_reported":1746731296,"current_range_meters":13600,"station_id":"","pricing_plan_id":"cebpf4jnsgd1na2vs0mg"},{"bike_id":"e6282093-23fb-41a9-859d-c0d9ad966535","system_id":"levelo_inurba_marseille","lat":43.315873,"lon":5.382473,"is_reserved":false,"is_disabled":false,"rental_uris":{"android":"levelo://app?vid=e6282093-23fb-41a9-859d-c0d9ad966535","ios":"levelo://app?vid=e6282093-23fb-41a9-859d-c0d9ad966535"},"vehicle_type_id":"4","last_reported":1746731296,"current_range_meters":13600,"station_id":"","pricing_plan_id":"cebpf4jnsgd1na2vs0mg"},{"bike_id":"8d3678e2-0423-4057-980c-9827bc813f08","system_id":"levelo_inurba_marseille","lat":43.24808,"lon":5.37455,"is_reserved":false,"is_disabled":false,"rental_uris":{"android":"levelo://app?vid=8d3678e2-0423-4057-980c-9827bc813f08","ios":"levelo://app?vid=8d3678e2-0423-4057-980c-9827bc813f08"},"vehicle_type_id":"4","last_reported":1746731296,"current_range_meters":13600,"station_id":"ce4bhgh2rcd13ifvqfb0","pricing_plan_id":"cebpf4jnsgd1na2vs0mg"},{"bike_id":"aeabde90-cdc7-4de5-bd54-b6ab25eba2ea","system_id":"levelo_inurba_marseille","lat":43.29706,"lon":5.36612,"is_reserved":false,"is_disabled":false,"rental_uris":{"android":"levelo://app?vid=aeabde90-cdc7-4de5-bd54-b6ab25eba2ea","ios":"levelo://app?vid=aeabde90-cdc7-4de5-bd54-b6ab25eba2ea"},"vehicle_type_id":"4","last_reported":1746731296,"current_range_meters":14000,"station_id":"ce4bgn12rcd13ifvqbt0","pricing_plan_id":"cebpf4jnsgd1na2vs0mg"},{"bike_id":"0477dad0-94d6-4f77-9e04-54115d8ec573","system_id":"levelo_inurba_marseille","lat":43.30324,"lon":5.40438,"is_reserved":false,"is_disabled":false,"rental_uris":{"android":"levelo://app?vid=0477dad0-94d6-4f77-9e04-54115d8ec573","ios":"levelo://app?vid=0477dad0-94d6-4f77-9e04-54115d8ec573"},"vehicle_type_id":"4","last_reported":1746731296,"current_range_meters":14000,"station_id":"ce4bh012rcd13ifvqd10","pricing_plan_id":"cebpf4jnsgd1na2vs0mg"},{"bike_id":"33ac4c89-c7cc-49ce-ab5d-4ca376ffe709","system_id":"levelo_inurba_marseille","lat":43.29258,"lon":5.38452,"is_reserved":false,"is_disabled":false,"rental_uris":{"android":"levelo://app?vid=33ac4c89-c7cc-49ce-ab5d-4ca376ffe709","ios":"levelo://app?vid=33ac4c89-c7cc-49ce-ab5d-4ca376ffe709"},"vehicle_type_id":"4","last_reported":1746731296,"current_range_meters":14000,"station_id":"ce4bh692rcd13ifvqea0","pricing_plan_id":"cebpf4jnsgd1na2vs0mg"},{"bike_id":"ec0b9493-0d0e-4089-bfc7-297014a1dc7c","system_id":"levelo_inurba_marseille","lat":43.28164,"lon":5.42644,"is_reserved":false,"is_disabled":false,"rental_uris":{"android":"levelo://app?vid=ec0b9493-0d0e-4089-bfc7-297014a1dc7c","ios":"levelo://app?vid=ec0b9493-0d0e-4089-bfc7-297014a1dc7c"},"vehicle_type_id":"4","last_reported":1746731296,"current_range_meters":14000,"station_id":"ce4bhnh2rcd13ifvqgug","pricing_plan_id":"cebpf4jnsgd1na2vs0mg"},{"bike_id":"3b00d88c-bc83-44eb-9bf1-827c2cc7850a","system_id":"levelo_inurba_marseille","lat":43.31889,"lon":5.40734,"is_reserved":false,"is_disabled":false,"rental_uris":{"android":"levelo://app?vid=3b00d88c-bc83-44eb-9bf1-827c2cc7850a","ios":"levelo://app?vid=3b00d88c-bc83-44eb-9bf1-827c2cc7850a"},"vehicle_type_id":"4","last_reported":1746731296,"current_range_meters":14000,"station_id":"ce4bhq12rcd13ifvqhig","pricing_plan_id":"cebpf4jnsgd1na2vs0mg"},{"bike_id":"28f2d2bd-60e4-40d5-b724-58902b076511","system_id":"levelo_inurba_marseille","lat":43.27069,"lon":5.42298,"is_reserved":false,"is_disabled":false,"rental_uris":{"android":"levelo://app?vid=28f2d2bd-60e4-40d5-b724-58902b076511","ios":"levelo://app?vid=28f2d2bd-60e4-40d5-b724-58902b076511"},"vehicle_type_id":"4","last_reported":1746731296,"current_range_meters":14800,"station_id":"ce4bhk92rcd13ifvqgb0","pricing_plan_id":"cebpf4jnsgd1na2vs0mg"},{"bike_id":"353c0ad5-5220-41dd-80b7-daed4f408baa","system_id":"levelo_inurba_marseille","lat":43.298035,"lon":5.380861,"is_reserved":false,"is_disabled":false,"rental_uris":{"android":"levelo://app?vid=353c0ad5-5220-41dd-80b7-daed4f408baa","ios":"levelo://app?vid=353c0ad5-5220-41dd-80b7-daed4f408baa"},"vehicle_type_id":"4","last_reported":1746731296,"current_range_meters":15200,"station_id":"ce4bgip2rcd13ifvqbb0","pricing_plan_id":"cebpf4jnsgd1na2vs0mg"},{"bike_id":"7e317858-38ab-41f0-81b0-4469b342a908","system_id":"levelo_inurba_marseille","lat":43.30193,"lon":5.36629,"is_reserved":false,"is_disabled":false,"rental_uris":{"android":"levelo://app?vid=7e317858-38ab-41f0-81b0-4469b342a908","ios":"levelo://app?vid=7e317858-38ab-41f0-81b0-4469b342a908"},"vehicle_type_id":"4","last_reported":1746731296,"current_range_meters":15200,"station_id":"ce4bgrh2rcd13ifvqc8g","pricing_plan_id":"cebpf4jnsgd1na2vs0mg"},{"bike_id":"6be5f06f-96b0-4dcd-84b4-f8a4db2f2127","system_id":"levelo_inurba_marseille","lat":43.28449,"lon":5.39207,"is_reserved":false,"is_disabled":false,"rental_uris":{"android":"levelo://app?vid=6be5f06f-96b0-4dcd-84b4-f8a4db2f2127","ios":"levelo://app?vid=6be5f06f-96b0-4dcd-84b4-f8a4db2f2127"},"vehicle_type_id":"4","last_reported":1746731296,"current_range_meters":15200,"station_id":"ce4bhoh2rcd13ifvqh5g","pricing_plan_id":"cebpf4jnsgd1na2vs0mg"},{"bike_id":"8572c9e3-0f6f-4689-8330-0406ee94fd17","system_id":"levelo_inurba_marseille","lat":43.31522,"lon":5.38034,"is_reserved":false,"is_disabled":false,"rental_uris":{"android":"levelo://app?vid=8572c9e3-0f6f-4689-8330-0406ee94fd17","ios":"levelo://app?vid=8572c9e3-0f6f-4689-8330-0406ee94fd17"},"vehicle_type_id":"4","last_reported":1746731296,"current_range_meters":15200,"station_id":"ce4bhsp2rcd13ifvqi50","pricing_plan_id":"cebpf4jnsgd1na2vs0mg"},{"bike_id":"b0c54ead-2c9a-4d45-904a-5e1b9abf7338","system_id":"levelo_inurba_marseille","lat":43.27899,"lon":5.44062,"is_reserved":false,"is_disabled":false,"rental_uris":{"android":"levelo://app?vid=b0c54ead-2c9a-4d45-904a-5e1b9abf7338","ios":"levelo://app?vid=b0c54ead-2c9a-4d45-904a-5e1b9abf7338"},"vehicle_type_id":"4","last_reported":1746731296,"current_range_meters":16000,"station_id":"","pricing_plan_id":"cebpf4jnsgd1na2vs0mg"},{"bike_id":"1bb9462c-5750-4d8f-b395-da6e3387707f","system_id":"levelo_inurba_marseille","lat":43.29291,"lon":5.4013,"is_reserved":false,"is_disabled":false,"rental_uris":{"android":"levelo://app?vid=1bb9462c-5750-4d8f-b395-da6e3387707f","ios":"levelo://app?vid=1bb9462c-5750-4d8f-b395-da6e3387707f"},"vehicle_type_id":"4","last_reported":1746731296,"current_range_meters":16400,"station_id":"ce4bh312rcd13ifvqdk0","pricing_plan_id":"cebpf4jnsgd1na2vs0mg"},{"bike_id":"8e513055-65fa-4211-b0bf-2d1bba41504c","system_id":"levelo_inurba_marseille","lat":43.25723,"lon":5.41112,"is_reserved":false,"is_disabled":false,"rental_uris":{"android":"levelo://app?vid=8e513055-65fa-4211-b0bf-2d1bba41504c","ios":"levelo://app?vid=8e513055-65fa-4211-b0bf-2d1bba41504c"},"vehicle_type_id":"4","last_reported":1746731296,"current_range_meters":16400,"station_id":"ce4bhkp2rcd13ifvqgd0","pricing_plan_id":"cebpf4jnsgd1na2vs0mg"},{"bike_id":"0ce1a668-3a37-402c-bbc6-b2f3d2d630cd","system_id":"levelo_inurba_marseille","lat":43.29263,"lon":5.4091,"is_reserved":false,"is_disabled":false,"rental_uris":{"android":"levelo://app?vid=0ce1a668-3a37-402c-bbc6-b2f3d2d630cd","ios":"levelo://app?vid=0ce1a668-3a37-402c-bbc6-b2f3d2d630cd"},"vehicle_type_id":"4","last_reported":1746731296,"current_range_meters":16800,"station_id":"ce4bh192rcd13ifvqdc0","pricing_plan_id":"cebpf4jnsgd1na2vs0mg"},{"bike_id":"38908c4e-2ce7-4805-8c6a-f121f7969232","system_id":"levelo_inurba_marseille","lat":43.23967,"lon":5.36634,"is_reserved":false,"is_disabled":false,"rental_uris":{"android":"levelo://app?vid=38908c4e-2ce7-4805-8c6a-f121f7969232","ios":"levelo://app?vid=38908c4e-2ce7-4805-8c6a-f121f7969232"},"vehicle_type_id":"4","last_reported":1746731296,"current_range_meters":16800,"station_id":"ce4bhi12rcd13ifvqfp0","pricing_plan_id":"cebpf4jnsgd1na2vs0mg"},{"bike_id":"f2426d29-fb74-454b-bbfb-8300cb38d71e","system_id":"levelo_inurba_marseille","lat":43.31722,"lon":5.42398,"is_reserved":false,"is_disabled":false,"rental_uris":{"android":"levelo://app?vid=f2426d29-fb74-454b-bbfb-8300cb38d71e","ios":"levelo://app?vid=f2426d29-fb74-454b-bbfb-8300cb38d71e"},"vehicle_type_id":"4","last_reported":1746731296,"current_range_meters":16800,"station_id":"ce4bhp92rcd13ifvqhbg","pricing_plan_id":"cebpf4jnsgd1na2vs0mg"},{"bike_id":"ccf62313-6c7d-4d79-a5d7-ce161920e475","system_id":"levelo_inurba_marseille","lat":43.323697,"lon":5.367807,"is_reserved":false,"is_disabled":false,"rental_uris":{"android":"levelo://app?vid=ccf62313-6c7d-4d79-a5d7-ce161920e475","ios":"levelo://app?vid=ccf62313-6c7d-4d79-a5d7-ce161920e475"},"vehicle_type_id":"4","last_reported":1746731296,"current_range_meters":16800,"station_id":"ce4bhsh2rcd13ifvqi2g","pricing_plan_id":"cebpf4jnsgd1na2vs0mg"},{"bike_id":"1cf7f37b-0dc3-4f5a-9ad3-eb6d37d7fa6b","system_id":"levelo_inurba_marseille","lat":43.303089,"lon":5.368989,"is_reserved":false,"is_disabled":false,"rental_uris":{"android":"levelo://app?vid=1cf7f37b-0dc3-4f5a-9ad3-eb6d37d7fa6b","ios":"levelo://app?vid=1cf7f37b-0dc3-4f5a-9ad3-eb6d37d7fa6b"},"vehicle_type_id":"4","last_reported":1746731296,"current_range_meters":17200,"station_id":"ce4bgqh2rcd13ifvqc5g","pricing_plan_id":"cebpf4jnsgd1na2vs0mg"},{"bike_id":"6034e6a5-624a-4df1-93d7-934cda7f61ee","system_id":"levelo_inurba_marseille","lat":43.29249,"lon":5.38449,"is_reserved":false,"is_disabled":false,"rental_uris":{"android":"levelo://app?vid=6034e6a5-624a-4df1-93d7-934cda7f61ee","ios":"levelo://app?vid=6034e6a5-624a-4df1-93d7-934cda7f61ee"},"vehicle_type_id":"4","last_reported":1746731296,"current_range_meters":17200,"station_id":"ce4bh692rcd13ifvqea0","pricing_plan_id":"cebpf4jnsgd1na2vs0mg"},{"bike_id":"b0f3f92d-8999-468a-9528-0914f61ea2fa","system_id":"levelo_inurba_marseille","lat":43.31262,"lon":5.40173,"is_reserved":false,"is_disabled":false,"rental_uris":{"android":"levelo://app?vid=b0f3f92d-8999-468a-9528-0914f61ea2fa","ios":"levelo://app?vid=b0f3f92d-8999-468a-9528-0914f61ea2fa"},"vehicle_type_id":"4","last_reported":1746731296,"current_range_meters":17600,"station_id":"ce4bh092rcd13ifvqd30","pricing_plan_id":"cebpf4jnsgd1na2vs0mg"},{"bike_id":"6a65346c-7c57-4b38-a032-040ca4b8e8c3","system_id":"levelo_inurba_marseille","lat":43.29074,"lon":5.37174,"is_reserved":false,"is_disabled":false,"rental_uris":{"android":"levelo://app?vid=6a65346c-7c57-4b38-a032-040ca4b8e8c3","ios":"levelo://app?vid=6a65346c-7c57-4b38-a032-040ca4b8e8c3"},"vehicle_type_id":"4","last_reported":1746731296,"current_range_meters":17600,"station_id":"ce4bh5p2rcd13ifvqe4g","pricing_plan_id":"cebpf4jnsgd1na2vs0mg"},{"bike_id":"19b497f5-022e-48df-8516-8db4d8bb7cc4","system_id":"levelo_inurba_marseille","lat":43.27064,"lon":5.42283,"is_reserved":false,"is_disabled":false,"rental_uris":{"android":"levelo://app?vid=19b497f5-022e-48df-8516-8db4d8bb7cc4","ios":"levelo://app?vid=19b497f5-022e-48df-8516-8db4d8bb7cc4"},"vehicle_type_id":"4","last_reported":1746731296,"current_range_meters":17600,"station_id":"ce4bhk92rcd13ifvqgb0","pricing_plan_id":"cebpf4jnsgd1na2vs0mg"},{"bike_id":"0dcff1f3-222b-4253-a622-d46ced046ebc","system_id":"levelo_inurba_marseille","lat":43.29302,"lon":5.37469,"is_reserved":false,"is_disabled":false,"rental_uris":{"android":"levelo://app?vid=0dcff1f3-222b-4253-a622-d46ced046ebc","ios":"levelo://app?vid=0dcff1f3-222b-4253-a622-d46ced046ebc"},"vehicle_type_id":"4","last_reported":1746731296,"current_range_meters":18000,"station_id":"ce4bgi12rcd13ifvqb70","pricing_plan_id":"cebpf4jnsgd1na2vs0mg"},{"bike_id":"6a9bdb19-33a1-4c1b-a3f3-89c80e169d40","system_id":"levelo_inurba_marseille","lat":43.31491,"lon":5.37307,"is_reserved":false,"is_disabled":false,"rental_uris":{"android":"levelo://app?vid=6a9bdb19-33a1-4c1b-a3f3-89c80e169d40","ios":"levelo://app?vid=6a9bdb19-33a1-4c1b-a3f3-89c80e169d40"},"vehicle_type_id":"4","last_reported":1746731296,"current_range_meters":18000,"station_id":"ce4bgt12rcd13ifvqcd0","pricing_plan_id":"cebpf4jnsgd1na2vs0mg"},{"bike_id":"7d246290-807c-483d-b36a-be722707d659","system_id":"levelo_inurba_marseille","lat":43.30892,"lon":5.37191,"is_reserved":false,"is_disabled":false,"rental_uris":{"android":"levelo://app?vid=7d246290-807c-483d-b36a-be722707d659","ios":"levelo://app?vid=7d246290-807c-483d-b36a-be722707d659"},"vehicle_type_id":"4","last_reported":1746731296,"current_range_meters":18000,"station_id":"ce4bguh2rcd13ifvqckg","pricing_plan_id":"cebpf4jnsgd1na2vs0mg"},{"bike_id":"985fe6f6-e64b-4952-a852-c75bf770834c","system_id":"levelo_inurba_marseille","lat":43.31691,"lon":5.40474,"is_reserved":false,"is_disabled":false,"rental_uris":{"android":"levelo://app?vid=985fe6f6-e64b-4952-a852-c75bf770834c","ios":"levelo://app?vid=985fe6f6-e64b-4952-a852-c75bf770834c"},"vehicle_type_id":"4","last_reported":1746731296,"current_range_meters":18000,"station_id":"ce4bh012rcd13ifvqd00","pricing_plan_id":"cebpf4jnsgd1na2vs0mg"},{"bike_id":"d9e6ceed-a577-46f4-aca5-c5aab20479cd","system_id":"levelo_inurba_marseille","lat":43.29022,"lon":5.38628,"is_reserved":false,"is_disabled":false,"rental_uris":{"android":"levelo://app?vid=d9e6ceed-a577-46f4-aca5-c5aab20479cd","ios":"levelo://app?vid=d9e6ceed-a577-46f4-aca5-c5aab20479cd"},"vehicle_type_id":"4","last_reported":1746731296,"current_range_meters":18000,"station_id":"ce4bh4p2rcd13ifvqe0g","pricing_plan_id":"cebpf4jnsgd1na2vs0mg"},{"bike_id":"7dea83ba-f932-447c-a5b0-d74bea788181","system_id":"levelo_inurba_marseille","lat":43.29101,"lon":5.3815,"is_reserved":false,"is_disabled":false,"rental_uris":{"android":"levelo://app?vid=7dea83ba-f932-447c-a5b0-d74bea788181","ios":"levelo://app?vid=7dea83ba-f932-447c-a5b0-d74bea788181"},"vehicle_type_id":"4","last_reported":1746731296,"current_range_meters":18000,"station_id":"ce4bh512rcd13ifvqe2g","pricing_plan_id":"cebpf4jnsgd1na2vs0mg"},{"bike_id":"64e04a1d-7919-4ae1-80c2-9fed7ad258e4","system_id":"levelo_inurba_marseille","lat":43.24077,"lon":5.37755,"is_reserved":false,"is_disabled":false,"rental_uris":{"android":"levelo://app?vid=64e04a1d-7919-4ae1-80c2-9fed7ad258e4","ios":"levelo://app?vid=64e04a1d-7919-4ae1-80c2-9fed7ad258e4"},"vehicle_type_id":"4","last_reported":1746731296,"current_range_meters":18000,"station_id":"ce4bhnp2rcd13ifvqgvg","pricing_plan_id":"cebpf4jnsgd1na2vs0mg"},{"bike_id":"9f864d51-5fb2-4609-882f-e1e374c1caef","system_id":"levelo_inurba_marseille","lat":43.336041,"lon":5.410265,"is_reserved":false,"is_disabled":false,"rental_uris":{"android":"levelo://app?vid=9f864d51-5fb2-4609-882f-e1e374c1caef","ios":"levelo://app?vid=9f864d51-5fb2-4609-882f-e1e374c1caef"},"vehicle_type_id":"4","last_reported":1746731296,"current_range_meters":18000,"station_id":"ce4bhqh2rcd13ifvqhmg","pricing_plan_id":"cebpf4jnsgd1na2vs0mg"},{"bike_id":"0cb542d0-661d-4a86-904d-249f6866850a","system_id":"levelo_inurba_marseille","lat":43.25697,"lon":5.41075,"is_reserved":false,"is_disabled":false,"rental_uris":{"android":"levelo://app?vid=0cb542d0-661d-4a86-904d-249f6866850a","ios":"levelo://app?vid=0cb542d0-661d-4a86-904d-249f6866850a"},"vehicle_type_id":"4","last_reported":1746731296,"current_range_meters":18800,"station_id":"ce4bhkp2rcd13ifvqgd0","pricing_plan_id":"cebpf4jnsgd1na2vs0mg"},{"bike_id":"b7a678cf-58f1-4449-9685-02450529df69","system_id":"levelo_inurba_marseille","lat":43.295715,"lon":5.375284,"is_reserved":false,"is_disabled":false,"rental_uris":{"android":"levelo://app?vid=b7a678cf-58f1-4449-9685-02450529df69","ios":"levelo://app?vid=b7a678cf-58f1-4449-9685-02450529df69"},"vehicle_type_id":"4","last_reported":1746731296,"current_range_meters":19200,"station_id":"ce4bgh92rcd13ifvqb50","pricing_plan_id":"cebpf4jnsgd1na2vs0mg"},{"bike_id":"6c2e8f0c-3287-4e2a-a1fd-ae910ff387af","system_id":"levelo_inurba_marseille","lat":43.29604,"lon":5.37702,"is_reserved":false,"is_disabled":false,"rental_uris":{"android":"levelo://app?vid=6c2e8f0c-3287-4e2a-a1fd-ae910ff387af","ios":"levelo://app?vid=6c2e8f0c-3287-4e2a-a1fd-ae910ff387af"},"vehicle_type_id":"4","last_reported":1746731296,"current_range_meters":19200,"station_id":"ce4bgi92rcd13ifvqb90","pricing_plan_id":"cebpf4jnsgd1na2vs0mg"},{"bike_id":"adc63367-e6ca-4760-a861-d0b2093e94a0","system_id":"levelo_inurba_marseille","lat":43.31184,"lon":5.38711,"is_reserved":false,"is_disabled":false,"rental_uris":{"android":"levelo://app?vid=adc63367-e6ca-4760-a861-d0b2093e94a0","ios":"levelo://app?vid=adc63367-e6ca-4760-a861-d0b2093e94a0"},"vehicle_type_id":"4","last_reported":1746731296,"current_range_meters":19200,"station_id":"ce4bgv12rcd13ifvqcp0","pricing_plan_id":"cebpf4jnsgd1na2vs0mg"},{"bike_id":"52ae1965-825d-4880-bf6d-ed688b72a5a5","system_id":"levelo_inurba_marseille","lat":43.30113,"lon":5.39914,"is_reserved":false,"is_disabled":false,"rental_uris":{"android":"levelo://app?vid=52ae1965-825d-4880-bf6d-ed688b72a5a5","ios":"levelo://app?vid=52ae1965-825d-4880-bf6d-ed688b72a5a5"},"vehicle_type_id":"4","last_reported":1746731296,"current_range_meters":19200,"station_id":"ce4bh0h2rcd13ifvqd40","pricing_plan_id":"cebpf4jnsgd1na2vs0mg"},{"bike_id":"4f5be8f7-ad27-44b6-b7b9-91352141c1f5","system_id":"levelo_inurba_marseille","lat":43.29253,"lon":5.38448,"is_reserved":false,"is_disabled":false,"rental_uris":{"android":"levelo://app?vid=4f5be8f7-ad27-44b6-b7b9-91352141c1f5","ios":"levelo://app?vid=4f5be8f7-ad27-44b6-b7b9-91352141c1f5"},"vehicle_type_id":"4","last_reported":1746731296,"current_range_meters":19200,"station_id":"ce4bh692rcd13ifvqea0","pricing_plan_id":"cebpf4jnsgd1na2vs0mg"},{"bike_id":"dcdbb441-b13f-4818-b966-ccbe08dbc7fa","system_id":"levelo_inurba_marseille","lat":43.24812,"lon":5.37453,"is_reserved":false,"is_disabled":false,"rental_uris":{"android":"levelo://app?vid=dcdbb441-b13f-4818-b966-ccbe08dbc7fa","ios":"levelo://app?vid=dcdbb441-b13f-4818-b966-ccbe08dbc7fa"},"vehicle_type_id":"4","last_reported":1746731296,"current_range_meters":19200,"station_id":"ce4bhgh2rcd13ifvqfb0","pricing_plan_id":"cebpf4jnsgd1na2vs0mg"},{"bike_id":"0166e5a6-5e1e-43ea-b955-17cad81e37e0","system_id":"levelo_inurba_marseille","lat":43.24793,"lon":5.37462,"is_reserved":false,"is_disabled":false,"rental_uris":{"android":"levelo://app?vid=0166e5a6-5e1e-43ea-b955-17cad81e37e0","ios":"levelo://app?vid=0166e5a6-5e1e-43ea-b955-17cad81e37e0"},"vehicle_type_id":"4","last_reported":1746731296,"current_range_meters":19200,"station_id":"ce4bhgh2rcd13ifvqfb0","pricing_plan_id":"cebpf4jnsgd1na2vs0mg"},{"bike_id":"7a59e08f-cf32-4e07-8e1d-4f320b669ece","system_id":"levelo_inurba_marseille","lat":43.24805,"lon":5.37455,"is_reserved":false,"is_disabled":false,"rental_uris":{"android":"levelo://app?vid=7a59e08f-cf32-4e07-8e1d-4f320b669ece","ios":"levelo://app?vid=7a59e08f-cf32-4e07-8e1d-4f320b669ece"},"vehicle_type_id":"4","last_reported":1746731296,"current_range_meters":19200,"station_id":"ce4bhgh2rcd13ifvqfb0","pricing_plan_id":"cebpf4jnsgd1na2vs0mg"},{"bike_id":"26e70a0b-b107-439b-8618-c49c15ae625b","system_id":"levelo_inurba_marseille","lat":43.25001,"lon":5.38924,"is_reserved":false,"is_disabled":false,"rental_uris":{"android":"levelo://app?vid=26e70a0b-b107-439b-8618-c49c15ae625b","ios":"levelo://app?vid=26e70a0b-b107-439b-8618-c49c15ae625b"},"vehicle_type_id":"4","last_reported":1746731296,"current_range_meters":19200,"station_id":"ce4bhgp2rcd13ifvqfd0","pricing_plan_id":"cebpf4jnsgd1na2vs0mg"},{"bike_id":"ebf04f70-36ba-4264-b04a-e5c5fc624b8e","system_id":"levelo_inurba_marseille","lat":43.30131,"lon":5.4005,"is_reserved":false,"is_disabled":false,"rental_uris":{"android":"levelo://app?vid=ebf04f70-36ba-4264-b04a-e5c5fc624b8e","ios":"levelo://app?vid=ebf04f70-36ba-4264-b04a-e5c5fc624b8e"},"vehicle_type_id":"4","last_reported":1746731296,"current_range_meters":19600,"station_id":"","pricing_plan_id":"cebpf4jnsgd1na2vs0mg"},{"bike_id":"93247167-164b-4e50-bfa9-4aa8f857bc82","system_id":"levelo_inurba_marseille","lat":43.29996,"lon":5.38481,"is_reserved":false,"is_disabled":false,"rental_uris":{"android":"levelo://app?vid=93247167-164b-4e50-bfa9-4aa8f857bc82","ios":"levelo://app?vid=93247167-164b-4e50-bfa9-4aa8f857bc82"},"vehicle_type_id":"4","last_reported":1746731296,"current_range_meters":19600,"station_id":"ce4bgj92rcd13ifvqbd0","pricing_plan_id":"cebpf4jnsgd1na2vs0mg"},{"bike_id":"046aa597-5089-4107-85f9-63bacdb529cc","system_id":"levelo_inurba_marseille","lat":43.29075,"lon":5.371495,"is_reserved":false,"is_disabled":false,"rental_uris":{"android":"levelo://app?vid=046aa597-5089-4107-85f9-63bacdb529cc","ios":"levelo://app?vid=046aa597-5089-4107-85f9-63bacdb529cc"},"vehicle_type_id":"4","last_reported":1746731296,"current_range_meters":19600,"station_id":"ce4bh5p2rcd13ifvqe4g","pricing_plan_id":"cebpf4jnsgd1na2vs0mg"},{"bike_id":"3e998cdf-83c1-4e75-8456-786ecd931a8f","system_id":"levelo_inurba_marseille","lat":43.28439,"lon":5.392,"is_reserved":false,"is_disabled":false,"rental_uris":{"android":"levelo://app?vid=3e998cdf-83c1-4e75-8456-786ecd931a8f","ios":"levelo://app?vid=3e998cdf-83c1-4e75-8456-786ecd931a8f"},"vehicle_type_id":"4","last_reported":1746731296,"current_range_meters":19600,"station_id":"ce4bhoh2rcd13ifvqh5g","pricing_plan_id":"cebpf4jnsgd1na2vs0mg"},{"bike_id":"c1041c9f-2085-470a-b13c-f88fd8323115","system_id":"levelo_inurba_marseille","lat":43.277494,"lon":5.386619,"is_reserved":false,"is_disabled":false,"rental_uris":{"android":"levelo://app?vid=c1041c9f-2085-470a-b13c-f88fd8323115","ios":"levelo://app?vid=c1041c9f-2085-470a-b13c-f88fd8323115"},"vehicle_type_id":"4","last_reported":1746731296,"current_range_meters":20000,"station_id":"","pricing_plan_id":"cebpf4jnsgd1na2vs0mg"},{"bike_id":"ea4b74c8-b0ae-4919-879d-65304c8c8a86","system_id":"levelo_inurba_marseille","lat":43.298726,"lon":5.397328,"is_reserved":false,"is_disabled":false,"rental_uris":{"android":"levelo://app?vid=ea4b74c8-b0ae-4919-879d-65304c8c8a86","ios":"levelo://app?vid=ea4b74c8-b0ae-4919-879d-65304c8c8a86"},"vehicle_type_id":"4","last_reported":1746731296,"current_range_meters":20000,"station_id":"ce4bh0h2rcd13ifvqd50","pricing_plan_id":"cebpf4jnsgd1na2vs0mg"},{"bike_id":"629e5b5f-9333-4750-8dac-cc63ecad4489","system_id":"levelo_inurba_marseille","lat":43.2835,"lon":5.381,"is_reserved":false,"is_disabled":false,"rental_uris":{"android":"levelo://app?vid=629e5b5f-9333-4750-8dac-cc63ecad4489","ios":"levelo://app?vid=629e5b5f-9333-4750-8dac-cc63ecad4489"},"vehicle_type_id":"4","last_reported":1746731296,"current_range_meters":20000,"station_id":"ce4bh412rcd13ifvqdr0","pricing_plan_id":"cebpf4jnsgd1na2vs0mg"},{"bike_id":"49ea43fd-5e18-47f3-9932-47beb07ae6ba","system_id":"levelo_inurba_marseille","lat":43.29252,"lon":5.38444,"is_reserved":false,"is_disabled":false,"rental_uris":{"android":"levelo://app?vid=49ea43fd-5e18-47f3-9932-47beb07ae6ba","ios":"levelo://app?vid=49ea43fd-5e18-47f3-9932-47beb07ae6ba"},"vehicle_type_id":"4","last_reported":1746731296,"current_range_meters":20000,"station_id":"ce4bh692rcd13ifvqea0","pricing_plan_id":"cebpf4jnsgd1na2vs0mg"},{"bike_id":"6f278b54-45b1-4310-b74e-d84509b0f53f","system_id":"levelo_inurba_marseille","lat":43.29711,"lon":5.36593,"is_reserved":false,"is_disabled":false,"rental_uris":{"android":"levelo://app?vid=6f278b54-45b1-4310-b74e-d84509b0f53f","ios":"levelo://app?vid=6f278b54-45b1-4310-b74e-d84509b0f53f"},"vehicle_type_id":"4","last_reported":1746731296,"current_range_meters":20400,"station_id":"ce4bgn12rcd13ifvqbt0","pricing_plan_id":"cebpf4jnsgd1na2vs0mg"},{"bike_id":"14632825-7c0d-45b0-8007-9b4d5d5a19ec","system_id":"levelo_inurba_marseille","lat":43.29626,"lon":5.40595,"is_reserved":false,"is_disabled":false,"rental_uris":{"android":"levelo://app?vid=14632825-7c0d-45b0-8007-9b4d5d5a19ec","ios":"levelo://app?vid=14632825-7c0d-45b0-8007-9b4d5d5a19ec"},"vehicle_type_id":"4","last_reported":1746731296,"current_range_meters":20400,"station_id":"ce4bh0h2rcd13ifvqd60","pricing_plan_id":"cebpf4jnsgd1na2vs0mg"},{"bike_id":"b6e24dad-fd0e-413c-b828-58169ee747f9","system_id":"levelo_inurba_marseille","lat":43.29297,"lon":5.409,"is_reserved":false,"is_disabled":false,"rental_uris":{"android":"levelo://app?vid=b6e24dad-fd0e-413c-b828-58169ee747f9","ios":"levelo://app?vid=b6e24dad-fd0e-413c-b828-58169ee747f9"},"vehicle_type_id":"4","last_reported":1746731296,"current_range_meters":20400,"station_id":"ce4bh192rcd13ifvqdc0","pricing_plan_id":"cebpf4jnsgd1na2vs0mg"},{"bike_id":"bcd43df2-a954-4953-9a47-0ad5f0bea946","system_id":"levelo_inurba_marseille","lat":43.24995,"lon":5.38931,"is_reserved":false,"is_disabled":false,"rental_uris":{"android":"levelo://app?vid=bcd43df2-a954-4953-9a47-0ad5f0bea946","ios":"levelo://app?vid=bcd43df2-a954-4953-9a47-0ad5f0bea946"},"vehicle_type_id":"4","last_reported":1746731296,"current_range_meters":20400,"station_id":"ce4bhgp2rcd13ifvqfd0","pricing_plan_id":"cebpf4jnsgd1na2vs0mg"},{"bike_id":"577b6fa1-01aa-4b90-beb1-386dce7ef354","system_id":"levelo_inurba_marseille","lat":43.25943,"lon":5.4089,"is_reserved":false,"is_disabled":false,"rental_uris":{"android":"levelo://app?vid=577b6fa1-01aa-4b90-beb1-386dce7ef354","ios":"levelo://app?vid=577b6fa1-01aa-4b90-beb1-386dce7ef354"},"vehicle_type_id":"4","last_reported":1746731296,"current_range_meters":20400,"station_id":"ce4bhm92rcd13ifvqglg","pricing_plan_id":"cebpf4jnsgd1na2vs0mg"},{"bike_id":"ed245a0d-53ee-4e03-bd65-487b9a90cdc8","system_id":"levelo_inurba_marseille","lat":43.24072,"lon":5.37766,"is_reserved":false,"is_disabled":false,"rental_uris":{"android":"levelo://app?vid=ed245a0d-53ee-4e03-bd65-487b9a90cdc8","ios":"levelo://app?vid=ed245a0d-53ee-4e03-bd65-487b9a90cdc8"},"vehicle_type_id":"4","last_reported":1746731296,"current_range_meters":20400,"station_id":"ce4bhnp2rcd13ifvqgvg","pricing_plan_id":"cebpf4jnsgd1na2vs0mg"},{"bike_id":"cbb45d8c-f14a-4433-94c2-f9c173fc22f3","system_id":"levelo_inurba_marseille","lat":43.29251,"lon":5.3764,"is_reserved":false,"is_disabled":false,"rental_uris":{"android":"levelo://app?vid=cbb45d8c-f14a-4433-94c2-f9c173fc22f3","ios":"levelo://app?vid=cbb45d8c-f14a-4433-94c2-f9c173fc22f3"},"vehicle_type_id":"4","last_reported":1746731296,"current_range_meters":20800,"station_id":"ce4bgi12rcd13ifvqb80","pricing_plan_id":"cebpf4jnsgd1na2vs0mg"},{"bike_id":"73ec0491-b7d9-4fff-b7ad-0aa3dd3e9e91","system_id":"levelo_inurba_marseille","lat":43.3117,"lon":5.38716,"is_reserved":false,"is_disabled":false,"rental_uris":{"android":"levelo://app?vid=73ec0491-b7d9-4fff-b7ad-0aa3dd3e9e91","ios":"levelo://app?vid=73ec0491-b7d9-4fff-b7ad-0aa3dd3e9e91"},"vehicle_type_id":"4","last_reported":1746731296,"current_range_meters":20800,"station_id":"ce4bgv12rcd13ifvqcp0","pricing_plan_id":"cebpf4jnsgd1na2vs0mg"},{"bike_id":"0c4b9a4b-66af-418b-b050-03335686b66e","system_id":"levelo_inurba_marseille","lat":43.29506,"lon":5.39409,"is_reserved":false,"is_disabled":false,"rental_uris":{"android":"levelo://app?vid=0c4b9a4b-66af-418b-b050-03335686b66e","ios":"levelo://app?vid=0c4b9a4b-66af-418b-b050-03335686b66e"},"vehicle_type_id":"4","last_reported":1746731296,"current_range_meters":20800,"station_id":"ce4bh292rcd13ifvqdf0","pricing_plan_id":"cebpf4jnsgd1na2vs0mg"},{"bike_id":"0ec3345e-caed-4327-9436-4f0c0119f8f5","system_id":"levelo_inurba_marseille","lat":43.29876,"lon":5.38904,"is_reserved":false,"is_disabled":false,"rental_uris":{"android":"levelo://app?vid=0ec3345e-caed-4327-9436-4f0c0119f8f5","ios":"levelo://app?vid=0ec3345e-caed-4327-9436-4f0c0119f8f5"},"vehicle_type_id":"4","last_reported":1746731296,"current_range_meters":20800,"station_id":"ce4bh392rcd13ifvqdl0","pricing_plan_id":"cebpf4jnsgd1na2vs0mg"},{"bike_id":"ee24a9e8-706c-4bf4-bce4-47cc7a3f42b5","system_id":"levelo_inurba_marseille","lat":43.29707,"lon":5.36585,"is_reserved":false,"is_disabled":false,"rental_uris":{"android":"levelo://app?vid=ee24a9e8-706c-4bf4-bce4-47cc7a3f42b5","ios":"levelo://app?vid=ee24a9e8-706c-4bf4-bce4-47cc7a3f42b5"},"vehicle_type_id":"4","last_reported":1746731296,"current_range_meters":21600,"station_id":"ce4bgn12rcd13ifvqbt0","pricing_plan_id":"cebpf4jnsgd1na2vs0mg"},{"bike_id":"4482d359-964a-41c7-aa38-350c3db2123e","system_id":"levelo_inurba_marseille","lat":43.29259,"lon":5.38443,"is_reserved":false,"is_disabled":false,"rental_uris":{"android":"levelo://app?vid=4482d359-964a-41c7-aa38-350c3db2123e","ios":"levelo://app?vid=4482d359-964a-41c7-aa38-350c3db2123e"},"vehicle_type_id":"4","last_reported":1746731296,"current_range_meters":21600,"station_id":"ce4bh692rcd13ifvqea0","pricing_plan_id":"cebpf4jnsgd1na2vs0mg"},{"bike_id":"b33ce307-1034-4a07-9bc6-7e901b47ca3b","system_id":"levelo_inurba_marseille","lat":43.26809,"lon":5.40274,"is_reserved":false,"is_disabled":false,"rental_uris":{"android":"levelo://app?vid=b33ce307-1034-4a07-9bc6-7e901b47ca3b","ios":"levelo://app?vid=b33ce307-1034-4a07-9bc6-7e901b47ca3b"},"vehicle_type_id":"4","last_reported":1746731296,"current_range_meters":21600,"station_id":"ce501612rcd8frsf0b60","pricing_plan_id":"cebpf4jnsgd1na2vs0mg"},{"bike_id":"6c743dce-9ebb-4e4c-8c7e-fa53cac69469","system_id":"levelo_inurba_marseille","lat":43.24071,"lon":5.37761,"is_reserved":false,"is_disabled":false,"rental_uris":{"android":"levelo://app?vid=6c743dce-9ebb-4e4c-8c7e-fa53cac69469","ios":"levelo://app?vid=6c743dce-9ebb-4e4c-8c7e-fa53cac69469"},"vehicle_type_id":"4","last_reported":1746731296,"current_range_meters":22000,"station_id":"ce4bhnp2rcd13ifvqgvg","pricing_plan_id":"cebpf4jnsgd1na2vs0mg"},{"bike_id":"fc2577e7-1497-425b-9d4f-ab8d7dc843c6","system_id":"levelo_inurba_marseille","lat":43.33771,"lon":5.37485,"is_reserved":false,"is_disabled":false,"rental_uris":{"android":"levelo://app?vid=fc2577e7-1497-425b-9d4f-ab8d7dc843c6","ios":"levelo://app?vid=fc2577e7-1497-425b-9d4f-ab8d7dc843c6"},"vehicle_type_id":"4","last_reported":1746731296,"current_range_meters":22400,"station_id":"","pricing_plan_id":"cebpf4jnsgd1na2vs0mg"},{"bike_id":"545e5687-b7df-4883-81be-75a8925d5f91","system_id":"levelo_inurba_marseille","lat":43.337444,"lon":5.374475,"is_reserved":false,"is_disabled":false,"rental_uris":{"android":"levelo://app?vid=545e5687-b7df-4883-81be-75a8925d5f91","ios":"levelo://app?vid=545e5687-b7df-4883-81be-75a8925d5f91"},"vehicle_type_id":"4","last_reported":1746731296,"current_range_meters":22400,"station_id":"","pricing_plan_id":"cebpf4jnsgd1na2vs0mg"},{"bike_id":"e7a2f458-35fe-4aa8-85f9-4d76a2f2b08f","system_id":"levelo_inurba_marseille","lat":43.30304,"lon":5.39214,"is_reserved":false,"is_disabled":false,"rental_uris":{"android":"levelo://app?vid=e7a2f458-35fe-4aa8-85f9-4d76a2f2b08f","ios":"levelo://app?vid=e7a2f458-35fe-4aa8-85f9-4d76a2f2b08f"},"vehicle_type_id":"4","last_reported":1746731296,"current_range_meters":22400,"station_id":"ce4bgkh2rcd13ifvqbk0","pricing_plan_id":"cebpf4jnsgd1na2vs0mg"},{"bike_id":"02b00e71-d301-4c71-bedf-44f36d029b08","system_id":"levelo_inurba_marseille","lat":43.29847,"lon":5.36276,"is_reserved":false,"is_disabled":false,"rental_uris":{"android":"levelo://app?vid=02b00e71-d301-4c71-bedf-44f36d029b08","ios":"levelo://app?vid=02b00e71-d301-4c71-bedf-44f36d029b08"},"vehicle_type_id":"4","last_reported":1746731296,"current_range_meters":22400,"station_id":"ce4bgpp2rcd13ifvqc3g","pricing_plan_id":"cebpf4jnsgd1na2vs0mg"},{"bike_id":"b021d3e4-5975-43b2-a780-149dfce9bff3","system_id":"levelo_inurba_marseille","lat":43.29207,"lon":5.39308,"is_reserved":false,"is_disabled":false,"rental_uris":{"android":"levelo://app?vid=b021d3e4-5975-43b2-a780-149dfce9bff3","ios":"levelo://app?vid=b021d3e4-5975-43b2-a780-149dfce9bff3"},"vehicle_type_id":"4","last_reported":1746731296,"current_range_meters":22400,"station_id":"ce4bh192rcd13ifvqdd0","pricing_plan_id":"cebpf4jnsgd1na2vs0mg"},{"bike_id":"4d831d7f-8586-4ab7-9c7b-381952757fb6","system_id":"levelo_inurba_marseille","lat":43.2942,"lon":5.38628,"is_reserved":false,"is_disabled":false,"rental_uris":{"android":"levelo://app?vid=4d831d7f-8586-4ab7-9c7b-381952757fb6","ios":"levelo://app?vid=4d831d7f-8586-4ab7-9c7b-381952757fb6"},"vehicle_type_id":"4","last_reported":1746731296,"current_range_meters":22400,"station_id":"ce4bh2h2rcd13ifvqdh0","pricing_plan_id":"cebpf4jnsgd1na2vs0mg"},{"bike_id":"3f2c1636-23a3-482c-960a-17f372059acb","system_id":"levelo_inurba_marseille","lat":43.28332,"lon":5.38093,"is_reserved":false,"is_disabled":false,"rental_uris":{"android":"levelo://app?vid=3f2c1636-23a3-482c-960a-17f372059acb","ios":"levelo://app?vid=3f2c1636-23a3-482c-960a-17f372059acb"},"vehicle_type_id":"4","last_reported":1746731296,"current_range_meters":22400,"station_id":"ce4bh412rcd13ifvqdr0","pricing_plan_id":"cebpf4jnsgd1na2vs0mg"},{"bike_id":"4e27d9fe-1a8b-4e07-a788-a6dec11b7654","system_id":"levelo_inurba_marseille","lat":43.29256,"lon":5.38445,"is_reserved":false,"is_disabled":false,"rental_uris":{"android":"levelo://app?vid=4e27d9fe-1a8b-4e07-a788-a6dec11b7654","ios":"levelo://app?vid=4e27d9fe-1a8b-4e07-a788-a6dec11b7654"},"vehicle_type_id":"4","last_reported":1746731296,"current_range_meters":22400,"station_id":"ce4bh692rcd13ifvqea0","pricing_plan_id":"cebpf4jnsgd1na2vs0mg"},{"bike_id":"1e39b4d9-43d3-4366-94de-1dbba7a2c508","system_id":"levelo_inurba_marseille","lat":43.24654,"lon":5.38882,"is_reserved":false,"is_disabled":false,"rental_uris":{"android":"levelo://app?vid=1e39b4d9-43d3-4366-94de-1dbba7a2c508","ios":"levelo://app?vid=1e39b4d9-43d3-4366-94de-1dbba7a2c508"},"vehicle_type_id":"4","last_reported":1746731296,"current_range_meters":22400,"station_id":"ce4bhg12rcd13ifvqf60","pricing_plan_id":"cebpf4jnsgd1na2vs0mg"},{"bike_id":"3e7c6aae-b2bc-4dc1-ae18-e8b01d55045f","system_id":"levelo_inurba_marseille","lat":43.24643,"lon":5.43641,"is_reserved":false,"is_disabled":false,"rental_uris":{"android":"levelo://app?vid=3e7c6aae-b2bc-4dc1-ae18-e8b01d55045f","ios":"levelo://app?vid=3e7c6aae-b2bc-4dc1-ae18-e8b01d55045f"},"vehicle_type_id":"4","last_reported":1746731296,"current_range_meters":22800,"station_id":"","pricing_plan_id":"cebpf4jnsgd1na2vs0mg"},{"bike_id":"e2c07dc1-5983-448d-ab6c-5b71eef02f36","system_id":"levelo_inurba_marseille","lat":43.30089,"lon":5.39078,"is_reserved":false,"is_disabled":false,"rental_uris":{"android":"levelo://app?vid=e2c07dc1-5983-448d-ab6c-5b71eef02f36","ios":"levelo://app?vid=e2c07dc1-5983-448d-ab6c-5b71eef02f36"},"vehicle_type_id":"4","last_reported":1746731296,"current_range_meters":22800,"station_id":"ce4bh192rcd13ifvqdb0","pricing_plan_id":"cebpf4jnsgd1na2vs0mg"},{"bike_id":"81b1461a-b964-4157-bc4d-845e8c44053d","system_id":"levelo_inurba_marseille","lat":43.25463,"lon":5.41852,"is_reserved":false,"is_disabled":false,"rental_uris":{"android":"levelo://app?vid=81b1461a-b964-4157-bc4d-845e8c44053d","ios":"levelo://app?vid=81b1461a-b964-4157-bc4d-845e8c44053d"},"vehicle_type_id":"4","last_reported":1746731296,"current_range_meters":23200,"station_id":"","pricing_plan_id":"cebpf4jnsgd1na2vs0mg"},{"bike_id":"e7d124be-ae65-48c6-9b51-296dd80ce066","system_id":"levelo_inurba_marseille","lat":43.28573,"lon":5.39462,"is_reserved":false,"is_disabled":false,"rental_uris":{"android":"levelo://app?vid=e7d124be-ae65-48c6-9b51-296dd80ce066","ios":"levelo://app?vid=e7d124be-ae65-48c6-9b51-296dd80ce066"},"vehicle_type_id":"4","last_reported":1746731296,"current_range_meters":23200,"station_id":"ce4bh292rcd13ifvqdg0","pricing_plan_id":"cebpf4jnsgd1na2vs0mg"},{"bike_id":"0c31fad9-5792-49b4-ab11-971338858b73","system_id":"levelo_inurba_marseille","lat":43.29424,"lon":5.38614,"is_reserved":false,"is_disabled":false,"rental_uris":{"android":"levelo://app?vid=0c31fad9-5792-49b4-ab11-971338858b73","ios":"levelo://app?vid=0c31fad9-5792-49b4-ab11-971338858b73"},"vehicle_type_id":"4","last_reported":1746731296,"current_range_meters":23200,"station_id":"ce4bh2h2rcd13ifvqdh0","pricing_plan_id":"cebpf4jnsgd1na2vs0mg"},{"bike_id":"9b84e65f-2424-4f8e-b51b-21355d123536","system_id":"levelo_inurba_marseille","lat":43.31516,"lon":5.37271,"is_reserved":false,"is_disabled":false,"rental_uris":{"android":"levelo://app?vid=9b84e65f-2424-4f8e-b51b-21355d123536","ios":"levelo://app?vid=9b84e65f-2424-4f8e-b51b-21355d123536"},"vehicle_type_id":"4","last_reported":1746731296,"current_range_meters":24000,"station_id":"","pricing_plan_id":"cebpf4jnsgd1na2vs0mg"},{"bike_id":"66d39f5f-1aac-423b-9ea7-bf9c1b0e5079","system_id":"levelo_inurba_marseille","lat":43.275095,"lon":5.411318,"is_reserved":false,"is_disabled":false,"rental_uris":{"android":"levelo://app?vid=66d39f5f-1aac-423b-9ea7-bf9c1b0e5079","ios":"levelo://app?vid=66d39f5f-1aac-423b-9ea7-bf9c1b0e5079"},"vehicle_type_id":"4","last_reported":1746731296,"current_range_meters":24000,"station_id":"","pricing_plan_id":"cebpf4jnsgd1na2vs0mg"},{"bike_id":"dab58e95-cfaa-4e6c-a5d3-68be59ba399e","system_id":"levelo_inurba_marseille","lat":43.30548,"lon":5.38431,"is_reserved":false,"is_disabled":false,"rental_uris":{"android":"levelo://app?vid=dab58e95-cfaa-4e6c-a5d3-68be59ba399e","ios":"levelo://app?vid=dab58e95-cfaa-4e6c-a5d3-68be59ba399e"},"vehicle_type_id":"4","last_reported":1746731296,"current_range_meters":24000,"station_id":"ce4bgg92rcd13ifvqb30","pricing_plan_id":"cebpf4jnsgd1na2vs0mg"},{"bike_id":"556e9d30-4d7f-49db-88a9-f6c8c816cd3f","system_id":"levelo_inurba_marseille","lat":43.2954,"lon":5.38538,"is_reserved":false,"is_disabled":false,"rental_uris":{"android":"levelo://app?vid=556e9d30-4d7f-49db-88a9-f6c8c816cd3f","ios":"levelo://app?vid=556e9d30-4d7f-49db-88a9-f6c8c816cd3f"},"vehicle_type_id":"4","last_reported":1746731296,"current_range_meters":24000,"station_id":"ce4bgih2rcd13ifvqba0","pricing_plan_id":"cebpf4jnsgd1na2vs0mg"},{"bike_id":"bdb4c058-f68d-4d3c-92c2-605200a1d421","system_id":"levelo_inurba_marseille","lat":43.29916,"lon":5.38148,"is_reserved":false,"is_disabled":false,"rental_uris":{"android":"levelo://app?vid=bdb4c058-f68d-4d3c-92c2-605200a1d421","ios":"levelo://app?vid=bdb4c058-f68d-4d3c-92c2-605200a1d421"},"vehicle_type_id":"4","last_reported":1746731296,"current_range_meters":24000,"station_id":"ce4bgj12rcd13ifvqbc0","pricing_plan_id":"cebpf4jnsgd1na2vs0mg"},{"bike_id":"a938615b-af97-4d66-bb3e-51167900c85a","system_id":"levelo_inurba_marseille","lat":43.29531,"lon":5.39031,"is_reserved":false,"is_disabled":false,"rental_uris":{"android":"levelo://app?vid=a938615b-af97-4d66-bb3e-51167900c85a","ios":"levelo://app?vid=a938615b-af97-4d66-bb3e-51167900c85a"},"vehicle_type_id":"4","last_reported":1746731296,"current_range_meters":24000,"station_id":"ce4bh3p2rcd13ifvqdp0","pricing_plan_id":"cebpf4jnsgd1na2vs0mg"},{"bike_id":"5a64309b-a794-4a8f-8bbe-7e980831906b","system_id":"levelo_inurba_marseille","lat":43.28688,"lon":5.3866,"is_reserved":false,"is_disabled":false,"rental_uris":{"android":"levelo://app?vid=5a64309b-a794-4a8f-8bbe-7e980831906b","ios":"levelo://app?vid=5a64309b-a794-4a8f-8bbe-7e980831906b"},"vehicle_type_id":"4","last_reported":1746731296,"current_range_meters":24000,"station_id":"ce4bh492rcd13ifvqdug","pricing_plan_id":"cebpf4jnsgd1na2vs0mg"},{"bike_id":"f8355d5d-193e-41ed-a0d5-c3d12ed244c6","system_id":"levelo_inurba_marseille","lat":43.2902,"lon":5.38622,"is_reserved":false,"is_disabled":false,"rental_uris":{"android":"levelo://app?vid=f8355d5d-193e-41ed-a0d5-c3d12ed244c6","ios":"levelo://app?vid=f8355d5d-193e-41ed-a0d5-c3d12ed244c6"},"vehicle_type_id":"4","last_reported":1746731296,"current_range_meters":24000,"station_id":"ce4bh4p2rcd13ifvqe0g","pricing_plan_id":"cebpf4jnsgd1na2vs0mg"},{"bike_id":"1841ce55-871d-467b-b6bb-b156a02911b5","system_id":"levelo_inurba_marseille","lat":43.28937,"lon":5.36638,"is_reserved":false,"is_disabled":false,"rental_uris":{"android":"levelo://app?vid=1841ce55-871d-467b-b6bb-b156a02911b5","ios":"levelo://app?vid=1841ce55-871d-467b-b6bb-b156a02911b5"},"vehicle_type_id":"4","last_reported":1746731296,"current_range_meters":24000,"station_id":"ce4bhap2rcd13ifvqek0","pricing_plan_id":"cebpf4jnsgd1na2vs0mg"},{"bike_id":"733966a6-4bb4-4364-aa65-282911707158","system_id":"levelo_inurba_marseille","lat":43.24076,"lon":5.37758,"is_reserved":false,"is_disabled":false,"rental_uris":{"android":"levelo://app?vid=733966a6-4bb4-4364-aa65-282911707158","ios":"levelo://app?vid=733966a6-4bb4-4364-aa65-282911707158"},"vehicle_type_id":"4","last_reported":1746731296,"current_range_meters":24000,"station_id":"ce4bhnp2rcd13ifvqgvg","pricing_plan_id":"cebpf4jnsgd1na2vs0mg"},{"bike_id":"7b3de7e9-ed40-4bf2-82b0-fea92167b0a9","system_id":"levelo_inurba_marseille","lat":43.3301,"lon":5.39077,"is_reserved":false,"is_disabled":false,"rental_uris":{"android":"levelo://app?vid=7b3de7e9-ed40-4bf2-82b0-fea92167b0a9","ios":"levelo://app?vid=7b3de7e9-ed40-4bf2-82b0-fea92167b0a9"},"vehicle_type_id":"4","last_reported":1746731296,"current_range_meters":24000,"station_id":"ce4bhr92rcd13ifvqhrg","pricing_plan_id":"cebpf4jnsgd1na2vs0mg"},{"bike_id":"320445d7-aaf7-43ec-baaf-4e67030e8b62","system_id":"levelo_inurba_marseille","lat":43.27131,"lon":5.40577,"is_reserved":false,"is_disabled":false,"rental_uris":{"android":"levelo://app?vid=320445d7-aaf7-43ec-baaf-4e67030e8b62","ios":"levelo://app?vid=320445d7-aaf7-43ec-baaf-4e67030e8b62"},"vehicle_type_id":"4","last_reported":1746731296,"current_range_meters":24400,"station_id":"","pricing_plan_id":"cebpf4jnsgd1na2vs0mg"},{"bike_id":"7dbf7670-d1d0-4a80-8ac5-74bfe0c01954","system_id":"levelo_inurba_marseille","lat":43.23773,"lon":5.36184,"is_reserved":false,"is_disabled":false,"rental_uris":{"android":"levelo://app?vid=7dbf7670-d1d0-4a80-8ac5-74bfe0c01954","ios":"levelo://app?vid=7dbf7670-d1d0-4a80-8ac5-74bfe0c01954"},"vehicle_type_id":"4","last_reported":1746731296,"current_range_meters":24400,"station_id":"","pricing_plan_id":"cebpf4jnsgd1na2vs0mg"},{"bike_id":"9edd0dbc-99e7-4e79-8c3a-8d24f9248478","system_id":"levelo_inurba_marseille","lat":43.30897,"lon":5.37185,"is_reserved":false,"is_disabled":false,"rental_uris":{"android":"levelo://app?vid=9edd0dbc-99e7-4e79-8c3a-8d24f9248478","ios":"levelo://app?vid=9edd0dbc-99e7-4e79-8c3a-8d24f9248478"},"vehicle_type_id":"4","last_reported":1746731296,"current_range_meters":24400,"station_id":"ce4bguh2rcd13ifvqckg","pricing_plan_id":"cebpf4jnsgd1na2vs0mg"},{"bike_id":"e98d1041-05a9-4f00-9d2b-862263f93c10","system_id":"levelo_inurba_marseille","lat":43.30328,"lon":5.40439,"is_reserved":false,"is_disabled":false,"rental_uris":{"android":"levelo://app?vid=e98d1041-05a9-4f00-9d2b-862263f93c10","ios":"levelo://app?vid=e98d1041-05a9-4f00-9d2b-862263f93c10"},"vehicle_type_id":"4","last_reported":1746731296,"current_range_meters":24400,"station_id":"ce4bh012rcd13ifvqd10","pricing_plan_id":"cebpf4jnsgd1na2vs0mg"},{"bike_id":"1f7b8de0-a160-4b64-8a70-6bc3ff320e29","system_id":"levelo_inurba_marseille","lat":43.29906,"lon":5.39721,"is_reserved":false,"is_disabled":false,"rental_uris":{"android":"levelo://app?vid=1f7b8de0-a160-4b64-8a70-6bc3ff320e29","ios":"levelo://app?vid=1f7b8de0-a160-4b64-8a70-6bc3ff320e29"},"vehicle_type_id":"4","last_reported":1746731296,"current_range_meters":24400,"station_id":"ce4bh0h2rcd13ifvqd50","pricing_plan_id":"cebpf4jnsgd1na2vs0mg"},{"bike_id":"29ed992d-7d32-4176-9f4f-ed81f079724a","system_id":"levelo_inurba_marseille","lat":43.294189,"lon":5.386062,"is_reserved":false,"is_disabled":false,"rental_uris":{"android":"levelo://app?vid=29ed992d-7d32-4176-9f4f-ed81f079724a","ios":"levelo://app?vid=29ed992d-7d32-4176-9f4f-ed81f079724a"},"vehicle_type_id":"4","last_reported":1746731296,"current_range_meters":24400,"station_id":"ce4bh2h2rcd13ifvqdh0","pricing_plan_id":"cebpf4jnsgd1na2vs0mg"},{"bike_id":"747cffa0-4117-429f-9e92-47f066371be5","system_id":"levelo_inurba_marseille","lat":43.28462,"lon":5.359,"is_reserved":false,"is_disabled":false,"rental_uris":{"android":"levelo://app?vid=747cffa0-4117-429f-9e92-47f066371be5","ios":"levelo://app?vid=747cffa0-4117-429f-9e92-47f066371be5"},"vehicle_type_id":"4","last_reported":1746731296,"current_range_meters":24400,"station_id":"ce4bhah2rcd13ifvqei0","pricing_plan_id":"cebpf4jnsgd1na2vs0mg"},{"bike_id":"6c036e22-2880-4ca3-8ec2-3c1c93aa2e22","system_id":"levelo_inurba_marseille","lat":43.33029,"lon":5.3905,"is_reserved":false,"is_disabled":false,"rental_uris":{"android":"levelo://app?vid=6c036e22-2880-4ca3-8ec2-3c1c93aa2e22","ios":"levelo://app?vid=6c036e22-2880-4ca3-8ec2-3c1c93aa2e22"},"vehicle_type_id":"4","last_reported":1746731296,"current_range_meters":24400,"station_id":"ce4bhr92rcd13ifvqhrg","pricing_plan_id":"cebpf4jnsgd1na2vs0mg"},{"bike_id":"1bf2376c-71fc-4d1f-b643-23fafdf125a4","system_id":"levelo_inurba_marseille","lat":43.29528,"lon":5.38537,"is_reserved":false,"is_disabled":false,"rental_uris":{"android":"levelo://app?vid=1bf2376c-71fc-4d1f-b643-23fafdf125a4","ios":"levelo://app?vid=1bf2376c-71fc-4d1f-b643-23fafdf125a4"},"vehicle_type_id":"4","last_reported":1746731296,"current_range_meters":24800,"station_id":"ce4bgih2rcd13ifvqba0","pricing_plan_id":"cebpf4jnsgd1na2vs0mg"},{"bike_id":"12e4ace3-13b8-462a-ad9a-c2167371bd89","system_id":"levelo_inurba_marseille","lat":43.30798,"lon":5.38151,"is_reserved":false,"is_disabled":false,"rental_uris":{"android":"levelo://app?vid=12e4ace3-13b8-462a-ad9a-c2167371bd89","ios":"levelo://app?vid=12e4ace3-13b8-462a-ad9a-c2167371bd89"},"vehicle_type_id":"4","last_reported":1746731296,"current_range_meters":24800,"station_id":"ce4bgt12rcd13ifvqce0","pricing_plan_id":"cebpf4jnsgd1na2vs0mg"},{"bike_id":"a010c2c8-6954-4eee-bcdd-9735001f2cda","system_id":"levelo_inurba_marseille","lat":43.2942,"lon":5.38629,"is_reserved":false,"is_disabled":false,"rental_uris":{"android":"levelo://app?vid=a010c2c8-6954-4eee-bcdd-9735001f2cda","ios":"levelo://app?vid=a010c2c8-6954-4eee-bcdd-9735001f2cda"},"vehicle_type_id":"4","last_reported":1746731296,"current_range_meters":24800,"station_id":"ce4bh2h2rcd13ifvqdh0","pricing_plan_id":"cebpf4jnsgd1na2vs0mg"},{"bike_id":"f631fd2f-a0cd-4d03-bc56-c451cc3a7712","system_id":"levelo_inurba_marseille","lat":43.29167,"lon":5.37147,"is_reserved":false,"is_disabled":false,"rental_uris":{"android":"levelo://app?vid=f631fd2f-a0cd-4d03-bc56-c451cc3a7712","ios":"levelo://app?vid=f631fd2f-a0cd-4d03-bc56-c451cc3a7712"},"vehicle_type_id":"4","last_reported":1746731296,"current_range_meters":24800,"station_id":"ce4bha92rcd13ifvqeh0","pricing_plan_id":"cebpf4jnsgd1na2vs0mg"},