{"last_updated":1744723322,"ttl":60,"version":"2.2","data":{"bikes":[{"bike_id":"e96b3320-c739-4d9d-b38d-37f6ad68ae56","system_id":"levelo_inurba_marseille","lat":43.31222,"lon":5.36856,"is_reserved":false,"is_disabled":false,"rental_uris":{"android":"levelo://app?vid=e96b3320-c739-4d9d-b38d-37f6ad68ae56","ios":"levelo://app?vid=e96b3320-c739-4d9d-b38d-37f6ad68ae56"},"vehicle_type_id":"4","last_reported":1744723322,"current_range_meters":2800,"station_id":"ce4bgl92rcd13ifvqbq0","pricing_plan_id":"cebpf4jnsgd1na2vs0mg"},{"bike_id":"1e28a0a0-8ca1-4255-9925-0bc79647d0a4","system_id":"levelo_inurba_marseille","lat":43.311132,"lon":5.377656,"is_reserved":false,"is_disabled":false,"rental_uris":{"android":"levelo://app?vid=1e28a0a0-8ca1-4255-9925-0bc79647d0a4","ios":"levelo://app?vid=1e28a0a0-8ca1-4255-9925-0bc79647d0a4"},"vehicle_type_id":"4","last_reported":1744723322,"current_range_meters":2800,"station_id":"ce4bgt92rcd13ifvqcg0","pricing_plan_id":"cebpf4jnsgd1na2vs0mg"},{"bike_id":"e50a671b-3b33-4149-860c-a00931afee40","system_id":"levelo_inurba_marseille","lat":43.284763,"lon":5.384083,"is_reserved":false,"is_disabled":false,"rental_uris":{"android":"levelo://app?vid=e50a671b-3b33-4149-860c-a00931afee40","ios":"levelo://app?vid=e50a671b-3b33-4149-860c-a00931afee40"},"vehicle_type_id":"4","last_reported":1744723322,"current_range_meters":4000,"station_id":"ce4bhgp2rcd13ifvqfe0","pricing_plan_id":"cebpf4jnsgd1na2vs0mg"},{"bike_id":"5e471e70-fb12-4f4e-bf80-428cedfb2e65","system_id":"levelo_inurba_marseille","lat":43.317127,"lon":5.437113,"is_reserved":false,"is_disabled":false,"rental_uris":{"android":"levelo://app?vid=5e471e70-fb12-4f4e-bf80-428cedfb2e65","ios":"levelo://app?vid=5e471e70-fb12-4f4e-bf80-428cedfb2e65"},"vehicle_type_id":"4","last_reported":1744723322,"current_range_meters":5600,"station_id":"","pricing_plan_id":"cebpf4jnsgd1na2vs0mg"},{"bike_id":"347d61b8-041f-45ec-b00e-19eff5cfe123","system_id":"levelo_inurba_marseille","lat":43.24169,"lon":5.36392,"is_reserved":false,"is_disabled":false,"rental_uris":{"android":"levelo://app?vid=347d61b8-041f-45ec-b00e-19eff5cfe123","ios":"levelo://app?vid=347d61b8-041f-45ec-b00e-19eff5cfe123"},"vehicle_type_id":"4","last_reported":1744723322,"current_range_meters":5600,"station_id":"cpo36qri1sfpv3e86is0","pricing_plan_id":"cebpf4jnsgd1na2vs0mg"},{"bike_id":"9ccb220d-507b-44e2-a54d-c0a748d5b45f","system_id":"levelo_inurba_marseille","lat":43.25682,"lon":5.41089,"is_reserved":false,"is_disabled":false,"rental_uris":{"android":"levelo://app?vid=9ccb220d-507b-44e2-a54d-c0a748d5b45f","ios":"levelo://app?vid=9ccb220d-507b-44e2-a54d-c0a748d5b45f"},"vehicle_type_id":"4","last_reported":1744723322,"current_range_meters":5600,"station_id":"ce4bhkp2rcd13ifvqgd0","pricing_plan_id":"cebpf4jnsgd1na2vs0mg"},{"bike_id":"2938bc9c-a915-484e-9b02-b4a924f19077","system_id":"levelo_inurba_marseille","lat":43.2417,"lon":5.36395,"is_reserved":false,"is_disabled":false,"rental_uris":{"android":"levelo://app?vid=2938bc9c-a915-484e-9b02-b4a924f19077","ios":"levelo://app?vid=2938bc9c-a915-484e-9b02-b4a924f19077"},"vehicle_type_id":"4","last_reported":1744723322,"current_range_meters":6000,"station_id":"cpo36qri1sfpv3e86is0","pricing_plan_id":"cebpf4jnsgd1na2vs0mg"},{"bike_id":"c533eee1-2b2b-492e-99d9-12392af3bb6e","system_id":"levelo_inurba_marseille","lat":43.29292,"lon":5.40121,"is_reserved":false,"is_disabled":false,"rental_uris":{"android":"levelo://app?vid=c533eee1-2b2b-492e-99d9-12392af3bb6e","ios":"levelo://app?vid=c533eee1-2b2b-492e-99d9-12392af3bb6e"},"vehicle_type_id":"4","last_reported":1744723322,"current_range_meters":6000,"station_id":"ce4bh312rcd13ifvqdk0","pricing_plan_id":"cebpf4jnsgd1na2vs0mg"},{"bike_id":"e7816af6-b51f-4a54-bfd2-977771406aea","system_id":"levelo_inurba_marseille","lat":43.2315,"lon":5.43725,"is_reserved":false,"is_disabled":false,"rental_uris":{"android":"levelo://app?vid=e7816af6-b51f-4a54-bfd2-977771406aea","ios":"levelo://app?vid=e7816af6-b51f-4a54-bfd2-977771406aea"},"vehicle_type_id":"4","last_reported":1744723322,"current_range_meters":6000,"station_id":"ce4bhmp2rcd13ifvqgog","pricing_plan_id":"cebpf4jnsgd1na2vs0mg"},{"bike_id":"f2683306-14c0-466d-8562-255176f93ee2","system_id":"levelo_inurba_marseille","lat":43.2737,"lon":5.36238,"is_reserved":false,"is_disabled":false,"rental_uris":{"android":"levelo://app?vid=f2683306-14c0-466d-8562-255176f93ee2","ios":"levelo://app?vid=f2683306-14c0-466d-8562-255176f93ee2"},"vehicle_type_id":"4","last_reported":1744723322,"current_range_meters":6000,"station_id":"ce4bhbh2rcd13ifvqeo0","pricing_plan_id":"cebpf4jnsgd1na2vs0mg"},{"bike_id":"d521b1c3-d39b-4f66-8b66-c0d0e3dc0abc","system_id":"levelo_inurba_marseille","lat":43.3036,"lon":5.4251,"is_reserved":false,"is_disabled":false,"rental_uris":{"android":"levelo://app?vid=d521b1c3-d39b-4f66-8b66-c0d0e3dc0abc","ios":"levelo://app?vid=d521b1c3-d39b-4f66-8b66-c0d0e3dc0abc"},"vehicle_type_id":"4","last_reported":1744723322,"current_range_meters":6400,"station_id":"ce4bhoh2rcd13ifvqh6g","pricing_plan_id":"cebpf4jnsgd1na2vs0mg"},{"bike_id":"5543a855-ffcd-4051-9f1d-d8b334bf2842","system_id":"levelo_inurba_marseille","lat":43.25008,"lon":5.38918,"is_reserved":false,"is_disabled":false,"rental_uris":{"android":"levelo://app?vid=5543a855-ffcd-4051-9f1d-d8b334bf2842","ios":"levelo://app?vid=5543a855-ffcd-4051-9f1d-d8b334bf2842"},"vehicle_type_id":"4","last_reported":1744723322,"current_range_meters":6400,"station_id":"ce4bhgp2rcd13ifvqfd0","pricing_plan_id":"cebpf4jnsgd1na2vs0mg"},{"bike_id":"c90796ad-a244-4ab0-99e6-ebb5d8f14975","system_id":"levelo_inurba_marseille","lat":43.30548,"lon":5.36531,"is_reserved":false,"is_disabled":false,"rental_uris":{"android":"levelo://app?vid=c90796ad-a244-4ab0-99e6-ebb5d8f14975","ios":"levelo://app?vid=c90796ad-a244-4ab0-99e6-ebb5d8f14975"},"vehicle_type_id":"4","last_reported":1744723322,"current_range_meters":6800,"station_id":"ce4bgs12rcd13ifvqcag","pricing_plan_id":"cebpf4jnsgd1na2vs0mg"},{"bike_id":"6e813554-554a-49dd-9009-02d95efd3de7","system_id":"levelo_inurba_marseille","lat":43.32367,"lon":5.38889,"is_reserved":false,"is_disabled":false,"rental_uris":{"android":"levelo://app?vid=6e813554-554a-49dd-9009-02d95efd3de7","ios":"levelo://app?vid=6e813554-554a-49dd-9009-02d95efd3de7"},"vehicle_type_id":"4","last_reported":1744723322,"current_range_meters":6800,"station_id":"ce4bhqp2rcd13ifvqhog","pricing_plan_id":"cebpf4jnsgd1na2vs0mg"},{"bike_id":"c3ab95cc-7eca-4e08-828a-474938179166","system_id":"levelo_inurba_marseille","lat":43.25113,"lon":5.40327,"is_reserved":false,"is_disabled":false,"rental_uris":{"android":"levelo://app?vid=c3ab95cc-7eca-4e08-828a-474938179166","ios":"levelo://app?vid=c3ab95cc-7eca-4e08-828a-474938179166"},"vehicle_type_id":"4","last_reported":1744723322,"current_range_meters":6800,"station_id":"ce4bhlh2rcd13ifvqgig","pricing_plan_id":"cebpf4jnsgd1na2vs0mg"},{"bike_id":"50d1c769-78d0-4bbe-bcea-5856c9ba50eb","system_id":"levelo_inurba_marseille","lat":43.2792,"lon":5.41023,"is_reserved":false,"is_disabled":false,"rental_uris":{"android":"levelo://app?vid=50d1c769-78d0-4bbe-bcea-5856c9ba50eb","ios":"levelo://app?vid=50d1c769-78d0-4bbe-bcea-5856c9ba50eb"},"vehicle_type_id":"4","last_reported":1744723322,"current_range_meters":7200,"station_id":"ce4bhnp2rcd13ifvqh0g","pricing_plan_id":"cebpf4jnsgd1na2vs0mg"},{"bike_id":"73a9b8ce-1a66-4d91-b4d5-da4593ad97b6","system_id":"levelo_inurba_marseille","lat":43.30543,"lon":5.3653,"is_reserved":false,"is_disabled":false,"rental_uris":{"android":"levelo://app?vid=73a9b8ce-1a66-4d91-b4d5-da4593ad97b6","ios":"levelo://app?vid=73a9b8ce-1a66-4d91-b4d5-da4593ad97b6"},"vehicle_type_id":"4","last_reported":1744723322,"current_range_meters":7200,"station_id":"ce4bgs12rcd13ifvqcag","pricing_plan_id":"cebpf4jnsgd1na2vs0mg"},{"bike_id":"2840dd03-7e3c-473f-8550-a29070d3bba2","system_id":"levelo_inurba_marseille","lat":43.29485,"lon":5.38263,"is_reserved":false,"is_disabled":false,"rental_uris":{"android":"levelo://app?vid=2840dd03-7e3c-473f-8550-a29070d3bba2","ios":"levelo://app?vid=2840dd03-7e3c-473f-8550-a29070d3bba2"},"vehicle_type_id":"4","last_reported":1744723322,"current_range_meters":7200,"station_id":"","pricing_plan_id":"cebpf4jnsgd1na2vs0mg"},{"bike_id":"8a58a04e-f069-487b-905a-c2f308a407cd","system_id":"levelo_inurba_marseille","lat":43.33017,"lon":5.39037,"is_reserved":false,"is_disabled":false,"rental_uris":{"android":"levelo://app?vid=8a58a04e-f069-487b-905a-c2f308a407cd","ios":"levelo://app?vid=8a58a04e-f069-487b-905a-c2f308a407cd"},"vehicle_type_id":"4","last_reported":1744723322,"current_range_meters":8000,"station_id":"ce4bhr92rcd13ifvqhrg","pricing_plan_id":"cebpf4jnsgd1na2vs0mg"},{"bike_id":"d727b37a-69d0-4672-bd60-ac5c6073c2c1","system_id":"levelo_inurba_marseille","lat":43.305573,"lon":5.365639,"is_reserved":false,"is_disabled":false,"rental_uris":{"android":"levelo://app?vid=d727b37a-69d0-4672-bd60-ac5c6073c2c1","ios":"levelo://app?vid=d727b37a-69d0-4672-bd60-ac5c6073c2c1"},"vehicle_type_id":"4","last_reported":1744723322,"current_range_meters":8000,"station_id":"ce4bgs12rcd13ifvqcag","pricing_plan_id":"cebpf4jnsgd1na2vs0mg"},{"bike_id":"465070c6-ec06-44fe-aaea-7b3bd0eb78f6","system_id":"levelo_inurba_marseille","lat":43.33603,"lon":5.41046,"is_reserved":false,"is_disabled":false,"rental_uris":{"android":"levelo://app?vid=465070c6-ec06-44fe-aaea-7b3bd0eb78f6","ios":"levelo://app?vid=465070c6-ec06-44fe-aaea-7b3bd0eb78f6"},"vehicle_type_id":"4","last_reported":1744723322,"current_range_meters":8000,"station_id":"ce4bhqh2rcd13ifvqhmg","pricing_plan_id":"cebpf4jnsgd1na2vs0mg"},{"bike_id":"37cb159b-b51f-4037-98e4-b45b07c8d93e","system_id":"levelo_inurba_marseille","lat":43.2957,"lon":5.37522,"is_reserved":false,"is_disabled":false,"rental_uris":{"android":"levelo://app?vid=37cb159b-b51f-4037-98e4-b45b07c8d93e","ios":"levelo://app?vid=37cb159b-b51f-4037-98e4-b45b07c8d93e"},"vehicle_type_id":"4","last_reported":1744723322,"current_range_meters":8000,"station_id":"ce4bgh92rcd13ifvqb50","pricing_plan_id":"cebpf4jnsgd1na2vs0mg"},{"bike_id":"2f93173f-d02c-4e29-ab59-1fff882697d7","system_id":"levelo_inurba_marseille","lat":43.2405,"lon":5.37774,"is_reserved":false,"is_disabled":false,"rental_uris":{"android":"levelo://app?vid=2f93173f-d02c-4e29-ab59-1fff882697d7","ios":"levelo://app?vid=2f93173f-d02c-4e29-ab59-1fff882697d7"},"vehicle_type_id":"4","last_reported":1744723322,"current_range_meters":8000,"station_id":"ce4bhnp2rcd13ifvqgvg","pricing_plan_id":"cebpf4jnsgd1na2vs0mg"},{"bike_id":"111872dc-41ae-4831-9879-87b83fe93a55","system_id":"levelo_inurba_marseille","lat":43.31121,"lon":5.37777,"is_reserved":false,"is_disabled":false,"rental_uris":{"android":"levelo://app?vid=111872dc-41ae-4831-9879-87b83fe93a55","ios":"levelo://app?vid=111872dc-41ae-4831-9879-87b83fe93a55"},"vehicle_type_id":"4","last_reported":1744723322,"current_range_meters":8400,"station_id":"ce4bgt92rcd13ifvqcg0","pricing_plan_id":"cebpf4jnsgd1na2vs0mg"},{"bike_id":"28853f91-3134-4a75-b8f4-d2214680775e","system_id":"levelo_inurba_marseille","lat":43.27952,"lon":5.41046,"is_reserved":false,"is_disabled":false,"rental_uris":{"android":"levelo://app?vid=28853f91-3134-4a75-b8f4-d2214680775e","ios":"levelo://app?vid=28853f91-3134-4a75-b8f4-d2214680775e"},"vehicle_type_id":"4","last_reported":1744723322,"current_range_meters":8400,"station_id":"ce4bhnp2rcd13ifvqh0g","pricing_plan_id":"cebpf4jnsgd1na2vs0mg"},{"bike_id":"4a17c6a0-31f0-494a-b192-933361bd9bd3","system_id":"levelo_inurba_marseille","lat":43.30543,"lon":5.3842,"is_reserved":false,"is_disabled":false,"rental_uris":{"android":"levelo://app?vid=4a17c6a0-31f0-494a-b192-933361bd9bd3","ios":"levelo://app?vid=4a17c6a0-31f0-494a-b192-933361bd9bd3"},"vehicle_type_id":"4","last_reported":1744723322,"current_range_meters":8000,"station_id":"ce4bgg92rcd13ifvqb30","pricing_plan_id":"cebpf4jnsgd1na2vs0mg"},{"bike_id":"c2599b18-ad7c-47f3-ad71-b33ed8017d7c","system_id":"levelo_inurba_marseille","lat":43.2795,"lon":5.41044,"is_reserved":false,"is_disabled":false,"rental_uris":{"android":"levelo://app?vid=c2599b18-ad7c-47f3-ad71-b33ed8017d7c","ios":"levelo://app?vid=c2599b18-ad7c-47f3-ad71-b33ed8017d7c"},"vehicle_type_id":"4","last_reported":1744723322,"current_range_meters":8400,"station_id":"ce4bhnp2rcd13ifvqh0g","pricing_plan_id":"cebpf4jnsgd1na2vs0mg"},{"bike_id":"933eec20-f31c-43fe-9739-9657a887ae36","system_id":"levelo_inurba_marseille","lat":43.25008,"lon":5.38923,"is_reserved":false,"is_disabled":false,"rental_uris":{"android":"levelo://app?vid=933eec20-f31c-43fe-9739-9657a887ae36","ios":"levelo://app?vid=933eec20-f31c-43fe-9739-9657a887ae36"},"vehicle_type_id":"4","last_reported":1744723322,"current_range_meters":8400,"station_id":"ce4bhgp2rcd13ifvqfd0","pricing_plan_id":"cebpf4jnsgd1na2vs0mg"},{"bike_id":"5003a55b-231c-44a8-931b-af8b2005fdde","system_id":"levelo_inurba_marseille","lat":43.267847,"lon":5.39416,"is_reserved":false,"is_disabled":false,"rental_uris":{"android":"levelo://app?vid=5003a55b-231c-44a8-931b-af8b2005fdde","ios":"levelo://app?vid=5003a55b-231c-44a8-931b-af8b2005fdde"},"vehicle_type_id":"4","last_reported":1744723322,"current_range_meters":8800,"station_id":"ce4bhh12rcd13ifvqfg0","pricing_plan_id":"cebpf4jnsgd1na2vs0mg"},{"bike_id":"a30c31d8-ca2b-442e-8a80-92aa3c04c035","system_id":"levelo_inurba_marseille","lat":43.27919,"lon":5.39579,"is_reserved":false,"is_disabled":false,"rental_uris":{"android":"levelo://app?vid=a30c31d8-ca2b-442e-8a80-92aa3c04c035","ios":"levelo://app?vid=a30c31d8-ca2b-442e-8a80-92aa3c04c035"},"vehicle_type_id":"4","last_reported":1744723322,"current_range_meters":9200,"station_id":"ce4bhf92rcd13ifvqf40","pricing_plan_id":"cebpf4jnsgd1na2vs0mg"},{"bike_id":"ef734429-5e24-498b-98db-95ee16873a56","system_id":"levelo_inurba_marseille","lat":43.27073,"lon":5.42274,"is_reserved":false,"is_disabled":false,"rental_uris":{"android":"levelo://app?vid=ef734429-5e24-498b-98db-95ee16873a56","ios":"levelo://app?vid=ef734429-5e24-498b-98db-95ee16873a56"},"vehicle_type_id":"4","last_reported":1744723322,"current_range_meters":9200,"station_id":"ce4bhk92rcd13ifvqgb0","pricing_plan_id":"cebpf4jnsgd1na2vs0mg"},{"bike_id":"5c7fd4d3-0dd8-457d-9de6-a3ca37b5dd7d","system_id":"levelo_inurba_marseille","lat":43.30877,"lon":5.39657,"is_reserved":false,"is_disabled":false,"rental_uris":{"android":"levelo://app?vid=5c7fd4d3-0dd8-457d-9de6-a3ca37b5dd7d","ios":"levelo://app?vid=5c7fd4d3-0dd8-457d-9de6-a3ca37b5dd7d"},"vehicle_type_id":"4","last_reported":1744723322,"current_range_meters":9200,"station_id":"ce4bh012rcd13ifvqcv0","pricing_plan_id":"cebpf4jnsgd1na2vs0mg"},{"bike_id":"660d2eb3-0dca-4724-8d5d-ef301fa8b51b","system_id":"levelo_inurba_marseille","lat":43.33017,"lon":5.3904,"is_reserved":false,"is_disabled":false,"rental_uris":{"android":"levelo://app?vid=660d2eb3-0dca-4724-8d5d-ef301fa8b51b","ios":"levelo://app?vid=660d2eb3-0dca-4724-8d5d-ef301fa8b51b"},"vehicle_type_id":"4","last_reported":1744723322,"current_range_meters":9200,"station_id":"ce4bhr92rcd13ifvqhrg","pricing_plan_id":"cebpf4jnsgd1na2vs0mg"},{"bike_id":"6f8ae48e-b1ce-46a5-b3ef-efe0b3854701","system_id":"levelo_inurba_marseille","lat":43.28998,"lon":5.35611,"is_reserved":false,"is_disabled":false,"rental_uris":{"android":"levelo://app?vid=6f8ae48e-b1ce-46a5-b3ef-efe0b3854701","ios":"levelo://app?vid=6f8ae48e-b1ce-46a5-b3ef-efe0b3854701"},"vehicle_type_id":"4","last_reported":1744723322,"current_range_meters":9600,"station_id":"ce4bhb92rcd13ifvqen0","pricing_plan_id":"cebpf4jnsgd1na2vs0mg"},{"bike_id":"b04f28da-d880-4eb3-9fe1-7b86b3116103","system_id":"levelo_inurba_marseille","lat":43.30552,"lon":5.36535,"is_reserved":false,"is_disabled":false,"rental_uris":{"android":"levelo://app?vid=b04f28da-d880-4eb3-9fe1-7b86b3116103","ios":"levelo://app?vid=b04f28da-d880-4eb3-9fe1-7b86b3116103"},"vehicle_type_id":"4","last_reported":1744723322,"current_range_meters":9600,"station_id":"ce4bgs12rcd13ifvqcag","pricing_plan_id":"cebpf4jnsgd1na2vs0mg"},{"bike_id":"27a55245-8dd2-4f1a-af63-95a9d7b71690","system_id":"levelo_inurba_marseille","lat":43.31063,"lon":5.37854,"is_reserved":false,"is_disabled":false,"rental_uris":{"android":"levelo://app?vid=27a55245-8dd2-4f1a-af63-95a9d7b71690","ios":"levelo://app?vid=27a55245-8dd2-4f1a-af63-95a9d7b71690"},"vehicle_type_id":"4","last_reported":1744723322,"current_range_meters":9600,"station_id":"","pricing_plan_id":"cebpf4jnsgd1na2vs0mg"},{"bike_id":"773f38cc-fef6-4442-8eb0-6a4377cc6583","system_id":"levelo_inurba_marseille","lat":43.255,"lon":5.3765,"is_reserved":false,"is_disabled":false,"rental_uris":{"android":"levelo://app?vid=773f38cc-fef6-4442-8eb0-6a4377cc6583","ios":"levelo://app?vid=773f38cc-fef6-4442-8eb0-6a4377cc6583"},"vehicle_type_id":"4","last_reported":1744723322,"current_range_meters":10000,"station_id":"ce4bhh12rcd13ifvqff0","pricing_plan_id":"cebpf4jnsgd1na2vs0mg"},{"bike_id":"7cef6be3-ae65-4c1e-9f15-674d72289595","system_id":"levelo_inurba_marseille","lat":43.299787,"lon":5.385162,"is_reserved":false,"is_disabled":false,"rental_uris":{"android":"levelo://app?vid=7cef6be3-ae65-4c1e-9f15-674d72289595","ios":"levelo://app?vid=7cef6be3-ae65-4c1e-9f15-674d72289595"},"vehicle_type_id":"4","last_reported":1744723322,"current_range_meters":10000,"station_id":"ce4bgj92rcd13ifvqbd0","pricing_plan_id":"cebpf4jnsgd1na2vs0mg"},{"bike_id":"845417ce-58f8-4fd0-a812-396ebdabaa1c","system_id":"levelo_inurba_marseille","lat":43.25122,"lon":5.40335,"is_reserved":false,"is_disabled":false,"rental_uris":{"android":"levelo://app?vid=845417ce-58f8-4fd0-a812-396ebdabaa1c","ios":"levelo://app?vid=845417ce-58f8-4fd0-a812-396ebdabaa1c"},"vehicle_type_id":"4","last_reported":1744723322,"current_range_meters":10000,"station_id":"ce4bhlh2rcd13ifvqgig","pricing_plan_id":"cebpf4jnsgd1na2vs0mg"},{"bike_id":"76b474bb-51c3-4ddf-998b-32f36fbc53a0","system_id":"levelo_inurba_marseille","lat":43.27944,"lon":5.41047,"is_reserved":false,"is_disabled":false,"rental_uris":{"android":"levelo://app?vid=76b474bb-51c3-4ddf-998b-32f36fbc53a0","ios":"levelo://app?vid=76b474bb-51c3-4ddf-998b-32f36fbc53a0"},"vehicle_type_id":"4","last_reported":1744723322,"current_range_meters":10800,"station_id":"ce4bhnp2rcd13ifvqh0g","pricing_plan_id":"cebpf4jnsgd1na2vs0mg"},{"bike_id":"6086be1f-2f41-4b8c-9ce9-011bcea915da","system_id":"levelo_inurba_marseille","lat":43.31305,"lon":5.37329,"is_reserved":false,"is_disabled":false,"rental_uris":{"android":"levelo://app?vid=6086be1f-2f41-4b8c-9ce9-011bcea915da","ios":"levelo://app?vid=6086be1f-2f41-4b8c-9ce9-011bcea915da"},"vehicle_type_id":"4","last_reported":1744723322,"current_range_meters":10800,"station_id":"","pricing_plan_id":"cebpf4jnsgd1na2vs0mg"},{"bike_id":"572f1bc3-546c-41e0-8730-39609b4006f1","system_id":"levelo_inurba_marseille","lat":43.32502,"lon":5.36567,"is_reserved":false,"is_disabled":false,"rental_uris":{"android":"levelo://app?vid=572f1bc3-546c-41e0-8730-39609b4006f1","ios":"levelo://app?vid=572f1bc3-546c-41e0-8730-39609b4006f1"},"vehicle_type_id":"4","last_reported":1744723322,"current_range_meters":10800,"station_id":"ce4bhs12rcd13ifvqhvg","pricing_plan_id":"cebpf4jnsgd1na2vs0mg"},{"bike_id":"45152fd8-c07c-4d52-b7a7-6670add35e00","system_id":"levelo_inurba_marseille","lat":43.261101,"lon":5.420816,"is_reserved":false,"is_disabled":false,"rental_uris":{"android":"levelo://app?vid=45152fd8-c07c-4d52-b7a7-6670add35e00","ios":"levelo://app?vid=45152fd8-c07c-4d52-b7a7-6670add35e00"},"vehicle_type_id":"4","last_reported":1744723322,"current_range_meters":10800,"station_id":"","pricing_plan_id":"cebpf4jnsgd1na2vs0mg"},{"bike_id":"51854c31-3f8b-4334-95b0-d38944fddb06","system_id":"levelo_inurba_marseille","lat":43.25825,"lon":5.39434,"is_reserved":false,"is_disabled":false,"rental_uris":{"android":"levelo://app?vid=51854c31-3f8b-4334-95b0-d38944fddb06","ios":"levelo://app?vid=51854c31-3f8b-4334-95b0-d38944fddb06"},"vehicle_type_id":"4","last_reported":1744723322,"current_range_meters":10800,"station_id":"ce4bhip2rcd13ifvqft0","pricing_plan_id":"cebpf4jnsgd1na2vs0mg"},{"bike_id":"f7256989-fbbb-4098-8007-c6d3f26975c5","system_id":"levelo_inurba_marseille","lat":43.30432,"lon":5.38886,"is_reserved":false,"is_disabled":false,"rental_uris":{"android":"levelo://app?vid=f7256989-fbbb-4098-8007-c6d3f26975c5","ios":"levelo://app?vid=f7256989-fbbb-4098-8007-c6d3f26975c5"},"vehicle_type_id":"4","last_reported":1744723322,"current_range_meters":11200,"station_id":"ce4bgk12rcd13ifvqbi0","pricing_plan_id":"cebpf4jnsgd1na2vs0mg"},{"bike_id":"9b08a760-2ac2-4d58-8425-91ba853eb5f0","system_id":"levelo_inurba_marseille","lat":43.23195,"lon":5.35554,"is_reserved":false,"is_disabled":false,"rental_uris":{"android":"levelo://app?vid=9b08a760-2ac2-4d58-8425-91ba853eb5f0","ios":"levelo://app?vid=9b08a760-2ac2-4d58-8425-91ba853eb5f0"},"vehicle_type_id":"4","last_reported":1744723322,"current_range_meters":11200,"station_id":"ce4bhu92rcd13ifvqi70","pricing_plan_id":"cebpf4jnsgd1na2vs0mg"},{"bike_id":"a0e209b1-3e4a-4ac3-9f02-bc78a9f47983","system_id":"levelo_inurba_marseille","lat":43.30554,"lon":5.36538,"is_reserved":false,"is_disabled":false,"rental_uris":{"android":"levelo://app?vid=a0e209b1-3e4a-4ac3-9f02-bc78a9f47983","ios":"levelo://app?vid=a0e209b1-3e4a-4ac3-9f02-bc78a9f47983"},"vehicle_type_id":"4","last_reported":1744723322,"current_range_meters":11200,"station_id":"ce4bgs12rcd13ifvqcag","pricing_plan_id":"cebpf4jnsgd1na2vs0mg"},{"bike_id":"4810a73d-5efd-4bc0-84ba-716d51691df5","system_id":"levelo_inurba_marseille","lat":43.24181,"lon":5.39724,"is_reserved":false,"is_disabled":false,"rental_uris":{"android":"levelo://app?vid=4810a73d-5efd-4bc0-84ba-716d51691df5","ios":"levelo://app?vid=4810a73d-5efd-4bc0-84ba-716d51691df5"},"vehicle_type_id":"4","last_reported":1744723322,"current_range_meters":11600,"station_id":"ce4bhn12rcd13ifvqgpg","pricing_plan_id":"cebpf4jnsgd1na2vs0mg"},{"bike_id":"37342bdf-d586-43ba-a25b-da22b3393da6","system_id":"levelo_inurba_marseille","lat":43.29164,"lon":5.37491,"is_reserved":false,"is_disabled":false,"rental_uris":{"android":"levelo://app?vid=37342bdf-d586-43ba-a25b-da22b3393da6","ios":"levelo://app?vid=37342bdf-d586-43ba-a25b-da22b3393da6"},"vehicle_type_id":"4","last_reported":1744723322,"current_range_meters":11600,"station_id":"","pricing_plan_id":"cebpf4jnsgd1na2vs0mg"},{"bike_id":"9ec9cdd8-30d4-47ba-9754-025638d7b4db","system_id":"levelo_inurba_marseille","lat":43.29964,"lon":5.37189,"is_reserved":false,"is_disabled":false,"rental_uris":{"android":"levelo://app?vid=9ec9cdd8-30d4-47ba-9754-025638d7b4db","ios":"levelo://app?vid=9ec9cdd8-30d4-47ba-9754-025638d7b4db"},"vehicle_type_id":"4","last_reported":1744723322,"current_range_meters":12000,"station_id":"ce4bgr92rcd13ifvqc7g","pricing_plan_id":"cebpf4jnsgd1na2vs0mg"},{"bike_id":"176e5662-5b80-483a-80f1-1787e24f6140","system_id":"levelo_inurba_marseille","lat":43.27942,"lon":5.41047,"is_reserved":false,"is_disabled":false,"rental_uris":{"android":"levelo://app?vid=176e5662-5b80-483a-80f1-1787e24f6140","ios":"levelo://app?vid=176e5662-5b80-483a-80f1-1787e24f6140"},"vehicle_type_id":"4","last_reported":1744723322,"current_range_meters":12000,"station_id":"ce4bhnp2rcd13ifvqh0g","pricing_plan_id":"cebpf4jnsgd1na2vs0mg"},{"bike_id":"fb58e65d-da29-4170-ae89-7e74f6fffab1","system_id":"levelo_inurba_marseille","lat":43.275,"lon":5.42458,"is_reserved":false,"is_disabled":false,"rental_uris":{"android":"levelo://app?vid=fb58e65d-da29-4170-ae89-7e74f6fffab1","ios":"levelo://app?vid=fb58e65d-da29-4170-ae89-7e74f6fffab1"},"vehicle_type_id":"4","last_reported":1744723322,"current_range_meters":12000,"station_id":"ce4bhn92rcd13ifvqgrg","pricing_plan_id":"cebpf4jnsgd1na2vs0mg"},{"bike_id":"d3a0fbcc-8789-46e3-ad8a-8c877abb0794","system_id":"levelo_inurba_marseille","lat":43.2988,"lon":5.39726,"is_reserved":false,"is_disabled":false,"rental_uris":{"android":"levelo://app?vid=d3a0fbcc-8789-46e3-ad8a-8c877abb0794","ios":"levelo://app?vid=d3a0fbcc-8789-46e3-ad8a-8c877abb0794"},"vehicle_type_id":"4","last_reported":1744723322,"current_range_meters":12400,"station_id":"ce4bh0h2rcd13ifvqd50","pricing_plan_id":"cebpf4jnsgd1na2vs0mg"},{"bike_id":"7970ce07-e1b1-4ab8-a760-27d0d02d8fa6","system_id":"levelo_inurba_marseille","lat":43.29597,"lon":5.38109,"is_reserved":false,"is_disabled":false,"rental_uris":{"android":"levelo://app?vid=7970ce07-e1b1-4ab8-a760-27d0d02d8fa6","ios":"levelo://app?vid=7970ce07-e1b1-4ab8-a760-27d0d02d8fa6"},"vehicle_type_id":"4","last_reported":1744723322,"current_range_meters":12400,"station_id":"ce4bgl12rcd13ifvqbo0","pricing_plan_id":"cebpf4jnsgd1na2vs0mg"},{"bike_id":"8e70bf92-4f5a-4092-8d5f-47db54b391ee","system_id":"levelo_inurba_marseille","lat":43.27366,"lon":5.36252,"is_reserved":false,"is_disabled":false,"rental_uris":{"android":"levelo://app?vid=8e70bf92-4f5a-4092-8d5f-47db54b391ee","ios":"levelo://app?vid=8e70bf92-4f5a-4092-8d5f-47db54b391ee"},"vehicle_type_id":"4","last_reported":1744723322,"current_range_meters":12800,"station_id":"ce4bhbh2rcd13ifvqeo0","pricing_plan_id":"cebpf4jnsgd1na2vs0mg"},{"bike_id":"129e1c37-93e9-483a-b799-a451e622173f","system_id":"levelo_inurba_marseille","lat":43.296233,"lon":5.371553,"is_reserved":false,"is_disabled":false,"rental_uris":{"android":"levelo://app?vid=129e1c37-93e9-483a-b799-a451e622173f","ios":"levelo://app?vid=129e1c37-93e9-483a-b799-a451e622173f"},"vehicle_type_id":"4","last_reported":1744723322,"current_range_meters":12800,"station_id":"ce4bgnh2rcd13ifvqc0g","pricing_plan_id":"cebpf4jnsgd1na2vs0mg"},{"bike_id":"dc9dd73c-d43c-4083-ad4e-5e4dd0712e73","system_id":"levelo_inurba_marseille","lat":43.286771,"lon":5.386597,"is_reserved":false,"is_disabled":false,"rental_uris":{"android":"levelo://app?vid=dc9dd73c-d43c-4083-ad4e-5e4dd0712e73","ios":"levelo://app?vid=dc9dd73c-d43c-4083-ad4e-5e4dd0712e73"},"vehicle_type_id":"4","last_reported":1744723322,"current_range_meters":12800,"station_id":"ce4bh492rcd13ifvqdug","pricing_plan_id":"cebpf4jnsgd1na2vs0mg"},{"bike_id":"795d95d6-ad06-46d6-8b93-0372fdaa87fa","system_id":"levelo_inurba_marseille","lat":43.31129,"lon":5.37757,"is_reserved":false,"is_disabled":false,"rental_uris":{"android":"levelo://app?vid=795d95d6-ad06-46d6-8b93-0372fdaa87fa","ios":"levelo://app?vid=795d95d6-ad06-46d6-8b93-0372fdaa87fa"},"vehicle_type_id":"4","last_reported":1744723322,"current_range_meters":12800,"station_id":"ce4bgt92rcd13ifvqcg0","pricing_plan_id":"cebpf4jnsgd1na2vs0mg"},{"bike_id":"47a85634-40b2-4bd1-8409-1d1cf2f06bdc","system_id":"levelo_inurba_marseille","lat":43.24057,"lon":5.377805,"is_reserved":false,"is_disabled":false,"rental_uris":{"android":"levelo://app?vid=47a85634-40b2-4bd1-8409-1d1cf2f06bdc","ios":"levelo://app?vid=47a85634-40b2-4bd1-8409-1d1cf2f06bdc"},"vehicle_type_id":"4","last_reported":1744723322,"current_range_meters":13600,"station_id":"ce4bhnp2rcd13ifvqgvg","pricing_plan_id":"cebpf4jnsgd1na2vs0mg"},{"bike_id":"475ae1d8-b176-4867-aed7-2c55f80c09f5","system_id":"levelo_inurba_marseille","lat":43.30468,"lon":5.37908,"is_reserved":false,"is_disabled":false,"rental_uris":{"android":"levelo://app?vid=475ae1d8-b176-4867-aed7-2c55f80c09f5","ios":"levelo://app?vid=475ae1d8-b176-4867-aed7-2c55f80c09f5"},"vehicle_type_id":"4","last_reported":1744723322,"current_range_meters":13600,"station_id":"ce4bgup2rcd13ifvqcn0","pricing_plan_id":"cebpf4jnsgd1na2vs0mg"},{"bike_id":"3bffb734-4942-4429-be21-0822927f8b78","system_id":"levelo_inurba_marseille","lat":43.27924,"lon":5.39592,"is_reserved":false,"is_disabled":false,"rental_uris":{"android":"levelo://app?vid=3bffb734-4942-4429-be21-0822927f8b78","ios":"levelo://app?vid=3bffb734-4942-4429-be21-0822927f8b78"},"vehicle_type_id":"4","last_reported":1744723322,"current_range_meters":13600,"station_id":"ce4bhf92rcd13ifvqf40","pricing_plan_id":"cebpf4jnsgd1na2vs0mg"},{"bike_id":"d2d37f01-fa46-4fbc-a721-7789f4003663","system_id":"levelo_inurba_marseille","lat":43.24972,"lon":5.38961,"is_reserved":false,"is_disabled":false,"rental_uris":{"android":"levelo://app?vid=d2d37f01-fa46-4fbc-a721-7789f4003663","ios":"levelo://app?vid=d2d37f01-fa46-4fbc-a721-7789f4003663"},"vehicle_type_id":"4","last_reported":1744723322,"current_range_meters":13600,"station_id":"","pricing_plan_id":"cebpf4jnsgd1na2vs0mg"},{"bike_id":"192632e2-2665-465c-9c1c-47eaef1fd2bb","system_id":"levelo_inurba_marseille","lat":43.33617,"lon":5.41038,"is_reserved":false,"is_disabled":false,"rental_uris":{"android":"levelo://app?vid=192632e2-2665-465c-9c1c-47eaef1fd2bb","ios":"levelo://app?vid=192632e2-2665-465c-9c1c-47eaef1fd2bb"},"vehicle_type_id":"4","last_reported":1744723322,"current_range_meters":13600,"station_id":"ce4bhqh2rcd13ifvqhmg","pricing_plan_id":"cebpf4jnsgd1na2vs0mg"},{"bike_id":"9f93ddec-ffcf-4c49-86b9-668f3824cbdf","system_id":"levelo_inurba_marseille","lat":43.27203,"lon":5.39182,"is_reserved":false,"is_disabled":false,"rental_uris":{"android":"levelo://app?vid=9f93ddec-ffcf-4c49-86b9-668f3824cbdf","ios":"levelo://app?vid=9f93ddec-ffcf-4c49-86b9-668f3824cbdf"},"vehicle_type_id":"4","last_reported":1744723322,"current_range_meters":13600,"station_id":"ce4bhhp2rcd13ifvqfm0","pricing_plan_id":"cebpf4jnsgd1na2vs0mg"},{"bike_id":"bdbfa91d-f51b-4c92-a880-1cae845c2a5c","system_id":"levelo_inurba_marseille","lat":43.229254,"lon":5.353823,"is_reserved":false,"is_disabled":false,"rental_uris":{"android":"levelo://app?vid=bdbfa91d-f51b-4c92-a880-1cae845c2a5c","ios":"levelo://app?vid=bdbfa91d-f51b-4c92-a880-1cae845c2a5c"},"vehicle_type_id":"4","last_reported":1744723322,"current_range_meters":14000,"station_id":"cpo3532slgdg3j2ikp40","pricing_plan_id":"cebpf4jnsgd1na2vs0mg"},{"bike_id":"c13360bf-72a6-41f8-ba61-7eadb585c0cb","system_id":"levelo_inurba_marseille","lat":43.30543,"lon":5.36537,"is_reserved":false,"is_disabled":false,"rental_uris":{"android":"levelo://app?vid=c13360bf-72a6-41f8-ba61-7eadb585c0cb","ios":"levelo://app?vid=c13360bf-72a6-41f8-ba61-7eadb585c0cb"},"vehicle_type_id":"4","last_reported":1744723322,"current_range_meters":14000,"station_id":"ce4bgs12rcd13ifvqcag","pricing_plan_id":"cebpf4jnsgd1na2vs0mg"},{"bike_id":"c9fbfbd0-ac82-410e-8a58-1795989b1898","system_id":"levelo_inurba_marseille","lat":43.30473,"lon":5.37908,"is_reserved":false,"is_disabled":false,"rental_uris":{"android":"levelo://app?vid=c9fbfbd0-ac82-410e-8a58-1795989b1898","ios":"levelo://app?vid=c9fbfbd0-ac82-410e-8a58-1795989b1898"},"vehicle_type_id":"4","last_reported":1744723322,"current_range_meters":14000,"station_id":"ce4bgup2rcd13ifvqcn0","pricing_plan_id":"cebpf4jnsgd1na2vs0mg"},{"bike_id":"e298fb17-60fe-4ee1-bc94-645f9b8b1bb4","system_id":"levelo_inurba_marseille","lat":43.29001,"lon":5.37603,"is_reserved":false,"is_disabled":false,"rental_uris":{"android":"levelo://app?vid=e298fb17-60fe-4ee1-bc94-645f9b8b1bb4","ios":"levelo://app?vid=e298fb17-60fe-4ee1-bc94-645f9b8b1bb4"},"vehicle_type_id":"4","last_reported":1744723322,"current_range_meters":14000,"station_id":"ce4bh692rcd13ifvqe90","pricing_plan_id":"cebpf4jnsgd1na2vs0mg"},{"bike_id":"f94d8e17-2fa6-4719-b087-be886f9a69c5","system_id":"levelo_inurba_marseille","lat":43.255015,"lon":5.3765,"is_reserved":false,"is_disabled":false,"rental_uris":{"android":"levelo://app?vid=f94d8e17-2fa6-4719-b087-be886f9a69c5","ios":"levelo://app?vid=f94d8e17-2fa6-4719-b087-be886f9a69c5"},"vehicle_type_id":"4","last_reported":1744723322,"current_range_meters":14000,"station_id":"ce4bhh12rcd13ifvqff0","pricing_plan_id":"cebpf4jnsgd1na2vs0mg"},{"bike_id":"67330119-bba8-458f-9d71-51e202d98b78","system_id":"levelo_inurba_marseille","lat":43.31237,"lon":5.36872,"is_reserved":false,"is_disabled":false,"rental_uris":{"android":"levelo://app?vid=67330119-bba8-458f-9d71-51e202d98b78","ios":"levelo://app?vid=67330119-bba8-458f-9d71-51e202d98b78"},"vehicle_type_id":"4","last_reported":1744723322,"current_range_meters":14400,"station_id":"ce4bgl92rcd13ifvqbq0","pricing_plan_id":"cebpf4jnsgd1na2vs0mg"},{"bike_id":"2765f89f-ce29-44fe-affc-8f39e166205c","system_id":"levelo_inurba_marseille","lat":43.29707,"lon":5.36595,"is_reserved":false,"is_disabled":false,"rental_uris":{"android":"levelo://app?vid=2765f89f-ce29-44fe-affc-8f39e166205c","ios":"levelo://app?vid=2765f89f-ce29-44fe-affc-8f39e166205c"},"vehicle_type_id":"4","last_reported":1744723322,"current_range_meters":14400,"station_id":"ce4bgn12rcd13ifvqbt0","pricing_plan_id":"cebpf4jnsgd1na2vs0mg"},{"bike_id":"14f7058f-6db2-4792-b09d-e4560dc0fad9","system_id":"levelo_inurba_marseille","lat":43.32483,"lon":5.36561,"is_reserved":false,"is_disabled":false,"rental_uris":{"android":"levelo://app?vid=14f7058f-6db2-4792-b09d-e4560dc0fad9","ios":"levelo://app?vid=14f7058f-6db2-4792-b09d-e4560dc0fad9"},"vehicle_type_id":"4","last_reported":1744723322,"current_range_meters":14800,"station_id":"ce4bhs12rcd13ifvqhvg","pricing_plan_id":"cebpf4jnsgd1na2vs0mg"},{"bike_id":"68f39582-8a10-45a5-8d66-14e7d9d691dc","system_id":"levelo_inurba_marseille","lat":43.23186,"lon":5.39993,"is_reserved":false,"is_disabled":false,"rental_uris":{"android":"levelo://app?vid=68f39582-8a10-45a5-8d66-14e7d9d691dc","ios":"levelo://app?vid=68f39582-8a10-45a5-8d66-14e7d9d691dc"},"vehicle_type_id":"4","last_reported":1744723322,"current_range_meters":14400,"station_id":"ce4bhn12rcd13ifvqgqg","pricing_plan_id":"cebpf4jnsgd1na2vs0mg"},{"bike_id":"c1020aea-6fcd-4093-8f62-0c06a97d27ef","system_id":"levelo_inurba_marseille","lat":43.305497,"lon":5.365654,"is_reserved":false,"is_disabled":false,"rental_uris":{"android":"levelo://app?vid=c1020aea-6fcd-4093-8f62-0c06a97d27ef","ios":"levelo://app?vid=c1020aea-6fcd-4093-8f62-0c06a97d27ef"},"vehicle_type_id":"4","last_reported":1744723322,"current_range_meters":14800,"station_id":"ce4bgs12rcd13ifvqcag","pricing_plan_id":"cebpf4jnsgd1na2vs0mg"},{"bike_id":"851c342f-847a-4d1a-87b8-7d8f38b1622d","system_id":"levelo_inurba_marseille","lat":43.27625,"lon":5.361,"is_reserved":false,"is_disabled":false,"rental_uris":{"android":"levelo://app?vid=851c342f-847a-4d1a-87b8-7d8f38b1622d","ios":"levelo://app?vid=851c342f-847a-4d1a-87b8-7d8f38b1622d"},"vehicle_type_id":"4","last_reported":1744723322,"current_range_meters":14800,"station_id":"ce4bgj92rcd13ifvqbe0","pricing_plan_id":"cebpf4jnsgd1na2vs0mg"},{"bike_id":"eb3ef853-fb74-4712-9dd8-37b188ca4daf","system_id":"levelo_inurba_marseille","lat":43.28861,"lon":5.35851,"is_reserved":false,"is_disabled":false,"rental_uris":{"android":"levelo://app?vid=eb3ef853-fb74-4712-9dd8-37b188ca4daf","ios":"levelo://app?vid=eb3ef853-fb74-4712-9dd8-37b188ca4daf"},"vehicle_type_id":"4","last_reported":1744723322,"current_range_meters":15200,"station_id":"ce4bhb12rcd13ifvqem0","pricing_plan_id":"cebpf4jnsgd1na2vs0mg"},{"bike_id":"96f67fc3-1d8d-4e0e-b60a-683312315db0","system_id":"levelo_inurba_marseille","lat":43.31365,"lon":5.36714,"is_reserved":false,"is_disabled":false,"rental_uris":{"android":"levelo://app?vid=96f67fc3-1d8d-4e0e-b60a-683312315db0","ios":"levelo://app?vid=96f67fc3-1d8d-4e0e-b60a-683312315db0"},"vehicle_type_id":"4","last_reported":1744723322,"current_range_meters":15200,"station_id":"ce4bgr92rcd13ifvqc6g","pricing_plan_id":"cebpf4jnsgd1na2vs0mg"},{"bike_id":"77037b3f-050a-4708-b85e-3feee4d6225d","system_id":"levelo_inurba_marseille","lat":43.30469,"lon":5.37903,"is_reserved":false,"is_disabled":false,"rental_uris":{"android":"levelo://app?vid=77037b3f-050a-4708-b85e-3feee4d6225d","ios":"levelo://app?vid=77037b3f-050a-4708-b85e-3feee4d6225d"},"vehicle_type_id":"4","last_reported":1744723322,"current_range_meters":15200,"station_id":"ce4bgup2rcd13ifvqcn0","pricing_plan_id":"cebpf4jnsgd1na2vs0mg"},{"bike_id":"2d6fe4c8-5d44-495b-85b2-9dce69368155","system_id":"levelo_inurba_marseille","lat":43.31266,"lon":5.36861,"is_reserved":false,"is_disabled":false,"rental_uris":{"android":"levelo://app?vid=2d6fe4c8-5d44-495b-85b2-9dce69368155","ios":"levelo://app?vid=2d6fe4c8-5d44-495b-85b2-9dce69368155"},"vehicle_type_id":"4","last_reported":1744723322,"current_range_meters":15200,"station_id":"ce4bgl92rcd13ifvqbq0","pricing_plan_id":"cebpf4jnsgd1na2vs0mg"},{"bike_id":"3e98e11e-eb79-4d54-b4e2-8fa96dd6d16e","system_id":"levelo_inurba_marseille","lat":43.26953,"lon":5.40259,"is_reserved":false,"is_disabled":false,"rental_uris":{"android":"levelo://app?vid=3e98e11e-eb79-4d54-b4e2-8fa96dd6d16e","ios":"levelo://app?vid=3e98e11e-eb79-4d54-b4e2-8fa96dd6d16e"},"vehicle_type_id":"4","last_reported":1744723322,"current_range_meters":16000,"station_id":"cjm6bp8fraef2m0cb0m0","pricing_plan_id":"cebpf4jnsgd1na2vs0mg"},{"bike_id":"9155bc8a-cf7e-4b94-a172-173d840f44db","system_id":"levelo_inurba_marseille","lat":43.25,"lon":5.38927,"is_reserved":false,"is_disabled":false,"rental_uris":{"android":"levelo://app?vid=9155bc8a-cf7e-4b94-a172-173d840f44db","ios":"levelo://app?vid=9155bc8a-cf7e-4b94-a172-173d840f44db"},"vehicle_type_id":"4","last_reported":1744723322,"current_range_meters":16000,"station_id":"ce4bhgp2rcd13ifvqfd0","pricing_plan_id":"cebpf4jnsgd1na2vs0mg"},{"bike_id":"a8132d22-4ce6-4e24-9e2c-e02042e4181b","system_id":"levelo_inurba_marseille","lat":43.23063,"lon":5.35492,"is_reserved":false,"is_disabled":false,"rental_uris":{"android":"levelo://app?vid=a8132d22-4ce6-4e24-9e2c-e02042e4181b","ios":"levelo://app?vid=a8132d22-4ce6-4e24-9e2c-e02042e4181b"},"vehicle_type_id":"4","last_reported":1744723322,"current_range_meters":16000,"station_id":"cpo3342slgdg3j2ifvpg","pricing_plan_id":"cebpf4jnsgd1na2vs0mg"},{"bike_id":"7eacb872-0584-4b06-8fad-feb612d3799a","system_id":"levelo_inurba_marseille","lat":43.29719,"lon":5.3811,"is_reserved":false,"is_disabled":false,"rental_uris":{"android":"levelo://app?vid=7eacb872-0584-4b06-8fad-feb612d3799a","ios":"levelo://app?vid=7eacb872-0584-4b06-8fad-feb612d3799a"},"vehicle_type_id":"4","last_reported":1744723322,"current_range_meters":16000,"station_id":"","pricing_plan_id":"cebpf4jnsgd1na2vs0mg"},{"bike_id":"2caebf1c-7dd1-4d93-97aa-8cb87eccf6d4","system_id":"levelo_inurba_marseille","lat":43.3108,"lon":5.42445,"is_reserved":false,"is_disabled":false,"rental_uris":{"android":"levelo://app?vid=2caebf1c-7dd1-4d93-97aa-8cb87eccf6d4","ios":"levelo://app?vid=2caebf1c-7dd1-4d93-97aa-8cb87eccf6d4"},"vehicle_type_id":"4","last_reported":1744723322,"current_range_meters":16000,"station_id":"ce4bhp92rcd13ifvqhag","pricing_plan_id":"cebpf4jnsgd1na2vs0mg"},{"bike_id":"273bd182-2947-4fca-9a98-8e619f05a2c0","system_id":"levelo_inurba_marseille","lat":43.304317,"lon":5.388932,"is_reserved":false,"is_disabled":false,"rental_uris":{"android":"levelo://app?vid=273bd182-2947-4fca-9a98-8e619f05a2c0","ios":"levelo://app?vid=273bd182-2947-4fca-9a98-8e619f05a2c0"},"vehicle_type_id":"4","last_reported":1744723322,"current_range_meters":16400,"station_id":"ce4bgk12rcd13ifvqbi0","pricing_plan_id":"cebpf4jnsgd1na2vs0mg"},{"bike_id":"e5153cbb-eac4-4b32-9d07-e32f67a7eb69","system_id":"levelo_inurba_marseille","lat":43.29634,"lon":5.37159,"is_reserved":false,"is_disabled":false,"rental_uris":{"android":"levelo://app?vid=e5153cbb-eac4-4b32-9d07-e32f67a7eb69","ios":"levelo://app?vid=e5153cbb-eac4-4b32-9d07-e32f67a7eb69"},"vehicle_type_id":"4","last_reported":1744723322,"current_range_meters":16400,"station_id":"ce4bgnh2rcd13ifvqc0g","pricing_plan_id":"cebpf4jnsgd1na2vs0mg"},{"bike_id":"5dfca6c1-f2b4-47f4-a5d8-0b137be0c3ad","system_id":"levelo_inurba_marseille","lat":43.31388,"lon":5.36731,"is_reserved":false,"is_disabled":false,"rental_uris":{"android":"levelo://app?vid=5dfca6c1-f2b4-47f4-a5d8-0b137be0c3ad","ios":"levelo://app?vid=5dfca6c1-f2b4-47f4-a5d8-0b137be0c3ad"},"vehicle_type_id":"4","last_reported":1744723322,"current_range_meters":16400,"station_id":"","pricing_plan_id":"cebpf4jnsgd1na2vs0mg"},{"bike_id":"4aef0fa6-a0da-4fa2-9099-9fa1ba81c16a","system_id":"levelo_inurba_marseille","lat":43.28174,"lon":5.40441,"is_reserved":false,"is_disabled":false,"rental_uris":{"android":"levelo://app?vid=4aef0fa6-a0da-4fa2-9099-9fa1ba81c16a","ios":"levelo://app?vid=4aef0fa6-a0da-4fa2-9099-9fa1ba81c16a"},"vehicle_type_id":"4","last_reported":1744723322,"current_range_meters":16400,"station_id":"","pricing_plan_id":"cebpf4jnsgd1na2vs0mg"},{"bike_id":"b9bb7332-ee3f-4e79-b7d9-32192e9a1d10","system_id":"levelo_inurba_marseille","lat":43.268033,"lon":5.393597,"is_reserved":false,"is_disabled":false,"rental_uris":{"android":"levelo://app?vid=b9bb7332-ee3f-4e79-b7d9-32192e9a1d10","ios":"levelo://app?vid=b9bb7332-ee3f-4e79-b7d9-32192e9a1d10"},"vehicle_type_id":"4","last_reported":1744723322,"current_range_meters":16400,"station_id":"ce4bhh12rcd13ifvqfg0","pricing_plan_id":"cebpf4jnsgd1na2vs0mg"},{"bike_id":"659aaa49-85bf-4da4-bbac-f55f7321737b","system_id":"levelo_inurba_marseille","lat":43.30796,"lon":5.37642,"is_reserved":false,"is_disabled":false,"rental_uris":{"android":"levelo://app?vid=659aaa49-85bf-4da4-bbac-f55f7321737b","ios":"levelo://app?vid=659aaa49-85bf-4da4-bbac-f55f7321737b"},"vehicle_type_id":"4","last_reported":1744723322,"current_range_meters":16400,"station_id":"ce4bgv92rcd13ifvqcq0","pricing_plan_id":"cebpf4jnsgd1na2vs0mg"},{"bike_id":"16fe7de5-2dfe-4289-9d46-7d2b106c45e5","system_id":"levelo_inurba_marseille","lat":43.26797,"lon":5.39416,"is_reserved":false,"is_disabled":false,"rental_uris":{"android":"levelo://app?vid=16fe7de5-2dfe-4289-9d46-7d2b106c45e5","ios":"levelo://app?vid=16fe7de5-2dfe-4289-9d46-7d2b106c45e5"},"vehicle_type_id":"4","last_reported":1744723322,"current_range_meters":16400,"station_id":"ce4bhh12rcd13ifvqfg0","pricing_plan_id":"cebpf4jnsgd1na2vs0mg"},{"bike_id":"af05c0b3-39c3-4725-9c78-7e282df39f53","system_id":"levelo_inurba_marseille","lat":43.26789,"lon":5.39407,"is_reserved":false,"is_disabled":false,"rental_uris":{"android":"levelo://app?vid=af05c0b3-39c3-4725-9c78-7e282df39f53","ios":"levelo://app?vid=af05c0b3-39c3-4725-9c78-7e282df39f53"},"vehicle_type_id":"4","last_reported":1744723322,"current_range_meters":16400,"station_id":"ce4bhh12rcd13ifvqfg0","pricing_plan_id":"cebpf4jnsgd1na2vs0mg"},{"bike_id":"944bddab-9f41-4da7-80e2-b3e803e6b9a5","system_id":"levelo_inurba_marseille","lat":43.212,"lon":5.3507,"is_reserved":false,"is_disabled":false,"rental_uris":{"android":"levelo://app?vid=944bddab-9f41-4da7-80e2-b3e803e6b9a5","ios":"levelo://app?vid=944bddab-9f41-4da7-80e2-b3e803e6b9a5"},"vehicle_type_id":"4","last_reported":1744723322,"current_range_meters":16400,"station_id":"st_cvj6sg6p6f1abm77japg","pricing_plan_id":"cebpf4jnsgd1na2vs0mg"},{"bike_id":"0ad72825-2c1a-424a-b449-18fa6535c038","system_id":"levelo_inurba_marseille","lat":43.29266,"lon":5.3844,"is_reserved":false,"is_disabled":false,"rental_uris":{"android":"levelo://app?vid=0ad72825-2c1a-424a-b449-18fa6535c038","ios":"levelo://app?vid=0ad72825-2c1a-424a-b449-18fa6535c038"},"vehicle_type_id":"4","last_reported":1744723322,"current_range_meters":16800,"station_id":"ce4bh692rcd13ifvqea0","pricing_plan_id":"cebpf4jnsgd1na2vs0mg"},{"bike_id":"4e62293d-53b5-47bd-8532-04d90d705792","system_id":"levelo_inurba_marseille","lat":43.30376,"lon":5.42489,"is_reserved":false,"is_disabled":false,"rental_uris":{"android":"levelo://app?vid=4e62293d-53b5-47bd-8532-04d90d705792","ios":"levelo://app?vid=4e62293d-53b5-47bd-8532-04d90d705792"},"vehicle_type_id":"4","last_reported":1744723322,"current_range_meters":16000,"station_id":"ce4bhoh2rcd13ifvqh6g","pricing_plan_id":"cebpf4jnsgd1na2vs0mg"},{"bike_id":"c13ca439-ab6f-419d-a89e-3ddb4cb69e57","system_id":"levelo_inurba_marseille","lat":43.274914,"lon":5.424504,"is_reserved":false,"is_disabled":false,"rental_uris":{"android":"levelo://app?vid=c13ca439-ab6f-419d-a89e-3ddb4cb69e57","ios":"levelo://app?vid=c13ca439-ab6f-419d-a89e-3ddb4cb69e57"},"vehicle_type_id":"4","last_reported":1744723322,"current_range_meters":16400,"station_id":"ce4bho92rcd13ifvqh4g","pricing_plan_id":"cebpf4jnsgd1na2vs0mg"},{"bike_id":"504cf016-be85-40ae-bd6e-21fe1e837c30","system_id":"levelo_inurba_marseille","lat":43.324903,"lon":5.365693,"is_reserved":false,"is_disabled":false,"rental_uris":{"android":"levelo://app?vid=504cf016-be85-40ae-bd6e-21fe1e837c30","ios":"levelo://app?vid=504cf016-be85-40ae-bd6e-21fe1e837c30"},"vehicle_type_id":"4","last_reported":1744723322,"current_range_meters":16800,"station_id":"ce4bhs12rcd13ifvqhvg","pricing_plan_id":"cebpf4jnsgd1na2vs0mg"},{"bike_id":"c9f6bd0f-4970-4331-8b7d-8e3e6653e24b","system_id":"levelo_inurba_marseille","lat":43.31488,"lon":5.37311,"is_reserved":false,"is_disabled":false,"rental_uris":{"android":"levelo://app?vid=c9f6bd0f-4970-4331-8b7d-8e3e6653e24b","ios":"levelo://app?vid=c9f6bd0f-4970-4331-8b7d-8e3e6653e24b"},"vehicle_type_id":"4","last_reported":1744723322,"current_range_meters":16800,"station_id":"ce4bgt12rcd13ifvqcd0","pricing_plan_id":"cebpf4jnsgd1na2vs0mg"},{"bike_id":"7035a280-e367-4dda-ab53-5448a5769738","system_id":"levelo_inurba_marseille","lat":43.30539,"lon":5.36543,"is_reserved":false,"is_disabled":false,"rental_uris":{"android":"levelo://app?vid=7035a280-e367-4dda-ab53-5448a5769738","ios":"levelo://app?vid=7035a280-e367-4dda-ab53-5448a5769738"},"vehicle_type_id":"4","last_reported":1744723322,"current_range_meters":16800,"station_id":"ce4bgs12rcd13ifvqcag","pricing_plan_id":"cebpf4jnsgd1na2vs0mg"},{"bike_id":"1cda6c4a-ae57-4fc8-b8ee-0ab1f3b5a4dd","system_id":"levelo_inurba_marseille","lat":43.30912,"lon":5.36851,"is_reserved":false,"is_disabled":false,"rental_uris":{"android":"levelo://app?vid=1cda6c4a-ae57-4fc8-b8ee-0ab1f3b5a4dd","ios":"levelo://app?vid=1cda6c4a-ae57-4fc8-b8ee-0ab1f3b5a4dd"},"vehicle_type_id":"4","last_reported":1744723322,"current_range_meters":16800,"station_id":"ce4bgn92rcd13ifvqbvg","pricing_plan_id":"cebpf4jnsgd1na2vs0mg"},{"bike_id":"8cbd2531-c5b2-48f4-8519-f32a3a880ece","system_id":"levelo_inurba_marseille","lat":43.30525,"lon":5.36538,"is_reserved":false,"is_disabled":false,"rental_uris":{"android":"levelo://app?vid=8cbd2531-c5b2-48f4-8519-f32a3a880ece","ios":"levelo://app?vid=8cbd2531-c5b2-48f4-8519-f32a3a880ece"},"vehicle_type_id":"4","last_reported":1744723322,"current_range_meters":16800,"station_id":"ce4bgs12rcd13ifvqcag","pricing_plan_id":"cebpf4jnsgd1na2vs0mg"},{"bike_id":"6c04b47c-47c5-47ec-b049-5a66ac41b83e","system_id":"levelo_inurba_marseille","lat":43.28444,"lon":5.392,"is_reserved":false,"is_disabled":false,"rental_uris":{"android":"levelo://app?vid=6c04b47c-47c5-47ec-b049-5a66ac41b83e","ios":"levelo://app?vid=6c04b47c-47c5-47ec-b049-5a66ac41b83e"},"vehicle_type_id":"4","last_reported":1744723322,"current_range_meters":17200,"station_id":"ce4bhoh2rcd13ifvqh5g","pricing_plan_id":"cebpf4jnsgd1na2vs0mg"},{"bike_id":"93676aa8-d320-4c2d-8b07-a119495392e0","system_id":"levelo_inurba_marseille","lat":43.30312,"lon":5.36899,"is_reserved":false,"is_disabled":false,"rental_uris":{"android":"levelo://app?vid=93676aa8-d320-4c2d-8b07-a119495392e0","ios":"levelo://app?vid=93676aa8-d320-4c2d-8b07-a119495392e0"},"vehicle_type_id":"4","last_reported":1744723322,"current_range_meters":16800,"station_id":"ce4bgqh2rcd13ifvqc5g","pricing_plan_id":"cebpf4jnsgd1na2vs0mg"},{"bike_id":"3d7fd21c-a712-4fa2-903c-f81195ba6cf6","system_id":"levelo_inurba_marseille","lat":43.29607,"lon":5.37739,"is_reserved":false,"is_disabled":false,"rental_uris":{"android":"levelo://app?vid=3d7fd21c-a712-4fa2-903c-f81195ba6cf6","ios":"levelo://app?vid=3d7fd21c-a712-4fa2-903c-f81195ba6cf6"},"vehicle_type_id":"4","last_reported":1744723322,"current_range_meters":17200,"station_id":"ce4bgi92rcd13ifvqb90","pricing_plan_id":"cebpf4jnsgd1na2vs0mg"},{"bike_id":"578d8506-4fad-4d2c-a513-ac92e3f08947","system_id":"levelo_inurba_marseille","lat":43.25927,"lon":5.40892,"is_reserved":false,"is_disabled":false,"rental_uris":{"android":"levelo://app?vid=578d8506-4fad-4d2c-a513-ac92e3f08947","ios":"levelo://app?vid=578d8506-4fad-4d2c-a513-ac92e3f08947"},"vehicle_type_id":"4","last_reported":1744723322,"current_range_meters":17600,"station_id":"ce4bhm92rcd13ifvqglg","pricing_plan_id":"cebpf4jnsgd1na2vs0mg"},{"bike_id":"4362e1fa-4658-4fc3-9e76-87502b2e3949","system_id":"levelo_inurba_marseille","lat":43.2985,"lon":5.36285,"is_reserved":false,"is_disabled":false,"rental_uris":{"android":"levelo://app?vid=4362e1fa-4658-4fc3-9e76-87502b2e3949","ios":"levelo://app?vid=4362e1fa-4658-4fc3-9e76-87502b2e3949"},"vehicle_type_id":"4","last_reported":1744723322,"current_range_meters":17600,"station_id":"ce4bgpp2rcd13ifvqc3g","pricing_plan_id":"cebpf4jnsgd1na2vs0mg"},{"bike_id":"3a932825-169d-460e-a24c-1a69bcf9e270","system_id":"levelo_inurba_marseille","lat":43.29538,"lon":5.38541,"is_reserved":false,"is_disabled":false,"rental_uris":{"android":"levelo://app?vid=3a932825-169d-460e-a24c-1a69bcf9e270","ios":"levelo://app?vid=3a932825-169d-460e-a24c-1a69bcf9e270"},"vehicle_type_id":"4","last_reported":1744723322,"current_range_meters":17600,"station_id":"ce4bgih2rcd13ifvqba0","pricing_plan_id":"cebpf4jnsgd1na2vs0mg"},{"bike_id":"9a8ed826-f74a-4511-a1ec-98e3e6d13302","system_id":"levelo_inurba_marseille","lat":43.30536,"lon":5.36559,"is_reserved":false,"is_disabled":false,"rental_uris":{"android":"levelo://app?vid=9a8ed826-f74a-4511-a1ec-98e3e6d13302","ios":"levelo://app?vid=9a8ed826-f74a-4511-a1ec-98e3e6d13302"},"vehicle_type_id":"4","last_reported":1744723322,"current_range_meters":18000,"station_id":"ce4bgs12rcd13ifvqcag","pricing_plan_id":"cebpf4jnsgd1na2vs0mg"},{"bike_id":"724f590c-3ddb-4360-b80c-e2943e52002c","system_id":"levelo_inurba_marseille","lat":43.26781,"lon":5.39416,"is_reserved":false,"is_disabled":false,"rental_uris":{"android":"levelo://app?vid=724f590c-3ddb-4360-b80c-e2943e52002c","ios":"levelo://app?vid=724f590c-3ddb-4360-b80c-e2943e52002c"},"vehicle_type_id":"4","last_reported":1744723322,"current_range_meters":18000,"station_id":"ce4bhh12rcd13ifvqfg0","pricing_plan_id":"cebpf4jnsgd1na2vs0mg"},{"bike_id":"c49a4f83-675f-4244-a56b-2ab36d6a6f86","system_id":"levelo_inurba_marseille","lat":43.3246,"lon":5.3658,"is_reserved":false,"is_disabled":false,"rental_uris":{"android":"levelo://app?vid=c49a4f83-675f-4244-a56b-2ab36d6a6f86","ios":"levelo://app?vid=c49a4f83-675f-4244-a56b-2ab36d6a6f86"},"vehicle_type_id":"4","last_reported":1744723322,"current_range_meters":18000,"station_id":"ce4bhs12rcd13ifvqhvg","pricing_plan_id":"cebpf4jnsgd1na2vs0mg"},{"bike_id":"6f23923f-fc67-460a-b0b8-5119c016d5b0","system_id":"levelo_inurba_marseille","lat":43.26943,"lon":5.38921,"is_reserved":false,"is_disabled":true,"rental_uris":{"android":"levelo://app?vid=6f23923f-fc67-460a-b0b8-5119c016d5b0","ios":"levelo://app?vid=6f23923f-fc67-460a-b0b8-5119c016d5b0"},"vehicle_type_id":"4","last_reported":1744723322,"current_range_meters":18000,"station_id":"ce4bhhh2rcd13ifvqfl0","pricing_plan_id":"cebpf4jnsgd1na2vs0mg"},{"bike_id":"4ec60963-2b4d-4b4a-b781-f14705b7793c","system_id":"levelo_inurba_marseille","lat":43.23964,"lon":5.36633,"is_reserved":false,"is_disabled":false,"rental_uris":{"android":"levelo://app?vid=4ec60963-2b4d-4b4a-b781-f14705b7793c","ios":"levelo://app?vid=4ec60963-2b4d-4b4a-b781-f14705b7793c"},"vehicle_type_id":"4","last_reported":1744723322,"current_range_meters":17600,"station_id":"ce4bhi12rcd13ifvqfp0","pricing_plan_id":"cebpf4jnsgd1na2vs0mg"},{"bike_id":"a0ddb0a5-f7f0-4281-aa27-9e82747cc573","system_id":"levelo_inurba_marseille","lat":43.337605,"lon":5.374935,"is_reserved":false,"is_disabled":false,"rental_uris":{"android":"levelo://app?vid=a0ddb0a5-f7f0-4281-aa27-9e82747cc573","ios":"levelo://app?vid=a0ddb0a5-f7f0-4281-aa27-9e82747cc573"},"vehicle_type_id":"4","last_reported":1744723322,"current_range_meters":18000,"station_id":"","pricing_plan_id":"cebpf4jnsgd1na2vs0mg"},{"bike_id":"63c65f78-3abc-4c40-b703-e06effe8936f","system_id":"levelo_inurba_marseille","lat":43.29261,"lon":5.409,"is_reserved":false,"is_disabled":false,"rental_uris":{"android":"levelo://app?vid=63c65f78-3abc-4c40-b703-e06effe8936f","ios":"levelo://app?vid=63c65f78-3abc-4c40-b703-e06effe8936f"},"vehicle_type_id":"4","last_reported":1744723322,"current_range_meters":18800,"station_id":"ce4bh192rcd13ifvqdc0","pricing_plan_id":"cebpf4jnsgd1na2vs0mg"},{"bike_id":"459293c8-0fb9-4a30-8a0a-f2f193fa3db9","system_id":"levelo_inurba_marseille","lat":43.27368,"lon":5.36255,"is_reserved":false,"is_disabled":false,"rental_uris":{"android":"levelo://app?vid=459293c8-0fb9-4a30-8a0a-f2f193fa3db9","ios":"levelo://app?vid=459293c8-0fb9-4a30-8a0a-f2f193fa3db9"},"vehicle_type_id":"4","last_reported":1744723322,"current_range_meters":18800,"station_id":"ce4bhbh2rcd13ifvqeo0","pricing_plan_id":"cebpf4jnsgd1na2vs0mg"},{"bike_id":"8422d098-67fd-4320-85a5-2bb0acedff57","system_id":"levelo_inurba_marseille","lat":43.33769,"lon":5.37424,"is_reserved":false,"is_disabled":false,"rental_uris":{"android":"levelo://app?vid=8422d098-67fd-4320-85a5-2bb0acedff57","ios":"levelo://app?vid=8422d098-67fd-4320-85a5-2bb0acedff57"},"vehicle_type_id":"4","last_reported":1744723322,"current_range_meters":18800,"station_id":"","pricing_plan_id":"cebpf4jnsgd1na2vs0mg"},{"bike_id":"fa4e67c3-2053-4811-98df-214c8e3422c2","system_id":"levelo_inurba_marseille","lat":43.21756,"lon":5.34595,"is_reserved":false,"is_disabled":false,"rental_uris":{"android":"levelo://app?vid=fa4e67c3-2053-4811-98df-214c8e3422c2","ios":"levelo://app?vid=fa4e67c3-2053-4811-98df-214c8e3422c2"},"vehicle_type_id":"4","last_reported":1744723322,"current_range_meters":18800,"station_id":"st_cvj6r9ubvosntc0bgbag","pricing_plan_id":"cebpf4jnsgd1na2vs0mg"},{"bike_id":"889e5f0e-836f-416e-9071-263d48ad5753","system_id":"levelo_inurba_marseille","lat":43.29544,"lon":5.38546,"is_reserved":false,"is_disabled":false,"rental_uris":{"android":"levelo://app?vid=889e5f0e-836f-416e-9071-263d48ad5753","ios":"levelo://app?vid=889e5f0e-836f-416e-9071-263d48ad5753"},"vehicle_type_id":"4","last_reported":1744723322,"current_range_meters":18800,"station_id":"ce4bgih2rcd13ifvqba0","pricing_plan_id":"cebpf4jnsgd1na2vs0mg"},{"bike_id":"834ec9e1-9d50-4bee-85ae-d1db335c55e5","system_id":"levelo_inurba_marseille","lat":43.31799,"lon":5.36817,"is_reserved":false,"is_disabled":false,"rental_uris":{"android":"levelo://app?vid=834ec9e1-9d50-4bee-85ae-d1db335c55e5","ios":"levelo://app?vid=834ec9e1-9d50-4bee-85ae-d1db335c55e5"},"vehicle_type_id":"4","last_reported":1744723322,"current_range_meters":18800,"station_id":"","pricing_plan_id":"cebpf4jnsgd1na2vs0mg"},{"bike_id":"8eab135f-19c1-4bf8-aead-fc6872404fdf","system_id":"levelo_inurba_marseille","lat":43.31219,"lon":5.36853,"is_reserved":false,"is_disabled":false,"rental_uris":{"android":"levelo://app?vid=8eab135f-19c1-4bf8-aead-fc6872404fdf","ios":"levelo://app?vid=8eab135f-19c1-4bf8-aead-fc6872404fdf"},"vehicle_type_id":"4","last_reported":1744723322,"current_range_meters":18800,"station_id":"ce4bgl92rcd13ifvqbq0","pricing_plan_id":"cebpf4jnsgd1na2vs0mg"},{"bike_id":"968eaca9-3c4e-4841-a22a-ea21d3b6c04b","system_id":"levelo_inurba_marseille","lat":43.274123,"lon":5.390749,"is_reserved":false,"is_disabled":false,"rental_uris":{"android":"levelo://app?vid=968eaca9-3c4e-4841-a22a-ea21d3b6c04b","ios":"levelo://app?vid=968eaca9-3c4e-4841-a22a-ea21d3b6c04b"},"vehicle_type_id":"4","last_reported":1744723322,"current_range_meters":18000,"station_id":"ce4bgjh2rcd13ifvqbg0","pricing_plan_id":"cebpf4jnsgd1na2vs0mg"},{"bike_id":"95110ddf-70fb-4bda-ba67-aa01de8786eb","system_id":"levelo_inurba_marseille","lat":43.26209,"lon":5.37453,"is_reserved":false,"is_disabled":false,"rental_uris":{"android":"levelo://app?vid=95110ddf-70fb-4bda-ba67-aa01de8786eb","ios":"levelo://app?vid=95110ddf-70fb-4bda-ba67-aa01de8786eb"},"vehicle_type_id":"4","last_reported":1744723322,"current_range_meters":18800,"station_id":"ce4bhgp2rcd13ifvqfc0","pricing_plan_id":"cebpf4jnsgd1na2vs0mg"},{"bike_id":"846062da-9234-4287-9da7-b9e2f0d486c7","system_id":"levelo_inurba_marseille","lat":43.30554,"lon":5.36547,"is_reserved":false,"is_disabled":false,"rental_uris":{"android":"levelo://app?vid=846062da-9234-4287-9da7-b9e2f0d486c7","ios":"levelo://app?vid=846062da-9234-4287-9da7-b9e2f0d486c7"},"vehicle_type_id":"4","last_reported":1744723322,"current_range_meters":19200,"station_id":"ce4bgs12rcd13ifvqcag","pricing_plan_id":"cebpf4jnsgd1na2vs0mg"},{"bike_id":"dd1691f2-76ed-4c10-9d2e-4c4122ffa1e2","system_id":"levelo_inurba_marseille","lat":43.29708,"lon":5.36612,"is_reserved":false,"is_disabled":false,"rental_uris":{"android":"levelo://app?vid=dd1691f2-76ed-4c10-9d2e-4c4122ffa1e2","ios":"levelo://app?vid=dd1691f2-76ed-4c10-9d2e-4c4122ffa1e2"},"vehicle_type_id":"4","last_reported":1744723322,"current_range_meters":19200,"station_id":"ce4bgn12rcd13ifvqbt0","pricing_plan_id":"cebpf4jnsgd1na2vs0mg"},{"bike_id":"9827e85a-e9b6-4f9e-bc80-5c5f3ac46b0e","system_id":"levelo_inurba_marseille","lat":43.28613,"lon":5.35106,"is_reserved":false,"is_disabled":false,"rental_uris":{"android":"levelo://app?vid=9827e85a-e9b6-4f9e-bc80-5c5f3ac46b0e","ios":"levelo://app?vid=9827e85a-e9b6-4f9e-bc80-5c5f3ac46b0e"},"vehicle_type_id":"4","last_reported":1744723322,"current_range_meters":19200,"station_id":"ce4bhch2rcd13ifvqeug","pricing_plan_id":"cebpf4jnsgd1na2vs0mg"},{"bike_id":"f28ab945-c9df-4b0b-be4c-c2ea61470e17","system_id":"levelo_inurba_marseille","lat":43.32474,"lon":5.36563,"is_reserved":false,"is_disabled":false,"rental_uris":{"android":"levelo://app?vid=f28ab945-c9df-4b0b-be4c-c2ea61470e17","ios":"levelo://app?vid=f28ab945-c9df-4b0b-be4c-c2ea61470e17"},"vehicle_type_id":"4","last_reported":1744723322,"current_range_meters":19200,"station_id":"ce4bhs12rcd13ifvqhvg","pricing_plan_id":"cebpf4jnsgd1na2vs0mg"},{"bike_id":"de241920-3183-41ef-8a90-8bd5aa161323","system_id":"levelo_inurba_marseille","lat":43.249971,"lon":5.389324,"is_reserved":false,"is_disabled":false,"rental_uris":{"android":"levelo://app?vid=de241920-3183-41ef-8a90-8bd5aa161323","ios":"levelo://app?vid=de241920-3183-41ef-8a90-8bd5aa161323"},"vehicle_type_id":"4","last_reported":1744723322,"current_range_meters":19200,"station_id":"ce4bhgp2rcd13ifvqfd0","pricing_plan_id":"cebpf4jnsgd1na2vs0mg"},{"bike_id":"9aaf8cc0-db77-415a-b3d2-818982a73140","system_id":"levelo_inurba_marseille","lat":43.27917,"lon":5.39574,"is_reserved":false,"is_disabled":false,"rental_uris":{"android":"levelo://app?vid=9aaf8cc0-db77-415a-b3d2-818982a73140","ios":"levelo://app?vid=9aaf8cc0-db77-415a-b3d2-818982a73140"},"vehicle_type_id":"4","last_reported":1744723322,"current_range_meters":19600,"station_id":"ce4bhf92rcd13ifvqf40","pricing_plan_id":"cebpf4jnsgd1na2vs0mg"},{"bike_id":"fa8b5d88-c56b-4501-99c1-1b5a6dfd1f66","system_id":"levelo_inurba_marseille","lat":43.21196,"lon":5.35068,"is_reserved":false,"is_disabled":false,"rental_uris":{"android":"levelo://app?vid=fa8b5d88-c56b-4501-99c1-1b5a6dfd1f66","ios":"levelo://app?vid=fa8b5d88-c56b-4501-99c1-1b5a6dfd1f66"},"vehicle_type_id":"4","last_reported":1744723322,"current_range_meters":19600,"station_id":"st_cvj6sg6p6f1abm77japg","pricing_plan_id":"cebpf4jnsgd1na2vs0mg"},{"bike_id":"6bf5a380-400e-4cd6-bc1e-356afac9ee45","system_id":"levelo_inurba_marseille","lat":43.24169,"lon":5.36403,"is_reserved":false,"is_disabled":false,"rental_uris":{"android":"levelo://app?vid=6bf5a380-400e-4cd6-bc1e-356afac9ee45","ios":"levelo://app?vid=6bf5a380-400e-4cd6-bc1e-356afac9ee45"},"vehicle_type_id":"4","last_reported":1744723322,"current_range_meters":20000,"station_id":"cpo36qri1sfpv3e86is0","pricing_plan_id":"cebpf4jnsgd1na2vs0mg"},{"bike_id":"6eaa78ad-9628-4582-b246-3eaaad328820","system_id":"levelo_inurba_marseille","lat":43.30303,"lon":5.39203,"is_reserved":false,"is_disabled":false,"rental_uris":{"android":"levelo://app?vid=6eaa78ad-9628-4582-b246-3eaaad328820","ios":"levelo://app?vid=6eaa78ad-9628-4582-b246-3eaaad328820"},"vehicle_type_id":"4","last_reported":1744723322,"current_range_meters":20000,"station_id":"ce4bgkh2rcd13ifvqbk0","pricing_plan_id":"cebpf4jnsgd1na2vs0mg"},{"bike_id":"4c0ede51-6b22-44f8-8575-b86906a20779","system_id":"levelo_inurba_marseille","lat":43.21761,"lon":5.34608,"is_reserved":false,"is_disabled":false,"rental_uris":{"android":"levelo://app?vid=4c0ede51-6b22-44f8-8575-b86906a20779","ios":"levelo://app?vid=4c0ede51-6b22-44f8-8575-b86906a20779"},"vehicle_type_id":"4","last_reported":1744723322,"current_range_meters":20000,"station_id":"st_cvj6r9ubvosntc0bgbag","pricing_plan_id":"cebpf4jnsgd1na2vs0mg"},{"bike_id":"bc8155ea-2b55-4b48-a522-41c49962bcce","system_id":"levelo_inurba_marseille","lat":43.30616,"lon":5.37221,"is_reserved":false,"is_disabled":false,"rental_uris":{"android":"levelo://app?vid=bc8155ea-2b55-4b48-a522-41c49962bcce","ios":"levelo://app?vid=bc8155ea-2b55-4b48-a522-41c49962bcce"},"vehicle_type_id":"4","last_reported":1744723322,"current_range_meters":20000,"station_id":"ce4bgqh2rcd13ifvqc4g","pricing_plan_id":"cebpf4jnsgd1na2vs0mg"},{"bike_id":"aad7815f-948b-44ab-a2d7-4c843cca007f","system_id":"levelo_inurba_marseille","lat":43.22927,"lon":5.35379,"is_reserved":false,"is_disabled":false,"rental_uris":{"android":"levelo://app?vid=aad7815f-948b-44ab-a2d7-4c843cca007f","ios":"levelo://app?vid=aad7815f-948b-44ab-a2d7-4c843cca007f"},"vehicle_type_id":"4","last_reported":1744723322,"current_range_meters":20000,"station_id":"cpo3532slgdg3j2ikp40","pricing_plan_id":"cebpf4jnsgd1na2vs0mg"},{"bike_id":"31924449-8854-4a95-9e3e-929afdb071d2","system_id":"levelo_inurba_marseille","lat":43.303044,"lon":5.392169,"is_reserved":false,"is_disabled":false,"rental_uris":{"android":"levelo://app?vid=31924449-8854-4a95-9e3e-929afdb071d2","ios":"levelo://app?vid=31924449-8854-4a95-9e3e-929afdb071d2"},"vehicle_type_id":"4","last_reported":1744723322,"current_range_meters":20000,"station_id":"ce4bgkh2rcd13ifvqbl0","pricing_plan_id":"cebpf4jnsgd1na2vs0mg"},{"bike_id":"163c0136-4bcc-4ae3-945b-09cbe6ed9b56","system_id":"levelo_inurba_marseille","lat":43.30326,"lon":5.40431,"is_reserved":false,"is_disabled":false,"rental_uris":{"android":"levelo://app?vid=163c0136-4bcc-4ae3-945b-09cbe6ed9b56","ios":"levelo://app?vid=163c0136-4bcc-4ae3-945b-09cbe6ed9b56"},"vehicle_type_id":"4","last_reported":1744723322,"current_range_meters":20000,"station_id":"ce4bh012rcd13ifvqd10","pricing_plan_id":"cebpf4jnsgd1na2vs0mg"},{"bike_id":"7ad0bf0f-5294-442b-8825-791f1416a999","system_id":"levelo_inurba_marseille","lat":43.24166,"lon":5.39742,"is_reserved":false,"is_disabled":false,"rental_uris":{"android":"levelo://app?vid=7ad0bf0f-5294-442b-8825-791f1416a999","ios":"levelo://app?vid=7ad0bf0f-5294-442b-8825-791f1416a999"},"vehicle_type_id":"4","last_reported":1744723322,"current_range_meters":20000,"station_id":"ce4bhn12rcd13ifvqgpg","pricing_plan_id":"cebpf4jnsgd1na2vs0mg"},{"bike_id":"9c20b392-4433-4ade-a2c5-a00876962919","system_id":"levelo_inurba_marseille","lat":43.27952,"lon":5.41047,"is_reserved":false,"is_disabled":false,"rental_uris":{"android":"levelo://app?vid=9c20b392-4433-4ade-a2c5-a00876962919","ios":"levelo://app?vid=9c20b392-4433-4ade-a2c5-a00876962919"},"vehicle_type_id":"4","last_reported":1744723322,"current_range_meters":20400,"station_id":"ce4bhnp2rcd13ifvqh0g","pricing_plan_id":"cebpf4jnsgd1na2vs0mg"},{"bike_id":"7ada3698-62b7-4c37-8e25-417fb476bfad","system_id":"levelo_inurba_marseille","lat":43.29843,"lon":5.36271,"is_reserved":false,"is_disabled":false,"rental_uris":{"android":"levelo://app?vid=7ada3698-62b7-4c37-8e25-417fb476bfad","ios":"levelo://app?vid=7ada3698-62b7-4c37-8e25-417fb476bfad"},"vehicle_type_id":"4","last_reported":1744723322,"current_range_meters":20400,"station_id":"ce4bgpp2rcd13ifvqc3g","pricing_plan_id":"cebpf4jnsgd1na2vs0mg"},{"bike_id":"c0efea73-9eb0-4187-81b2-7c04483ff9a5","system_id":"levelo_inurba_marseille","lat":43.29866,"lon":5.36258,"is_reserved":false,"is_disabled":false,"rental_uris":{"android":"levelo://app?vid=c0efea73-9eb0-4187-81b2-7c04483ff9a5","ios":"levelo://app?vid=c0efea73-9eb0-4187-81b2-7c04483ff9a5"},"vehicle_type_id":"4","last_reported":1744723322,"current_range_meters":20400,"station_id":"ce4bgpp2rcd13ifvqc3g","pricing_plan_id":"cebpf4jnsgd1na2vs0mg"},{"bike_id":"a97d05b8-cefc-413e-9c42-b793e2850d6b","system_id":"levelo_inurba_marseille","lat":43.28492,"lon":5.38388,"is_reserved":false,"is_disabled":false,"rental_uris":{"android":"levelo://app?vid=a97d05b8-cefc-413e-9c42-b793e2850d6b","ios":"levelo://app?vid=a97d05b8-cefc-413e-9c42-b793e2850d6b"},"vehicle_type_id":"4","last_reported":1744723322,"current_range_meters":20400,"station_id":"ce4bh512rcd13ifvqe3g","pricing_plan_id":"cebpf4jnsgd1na2vs0mg"},{"bike_id":"808095e9-42cf-40cb-ac63-04c1a3daf527","system_id":"levelo_inurba_marseille","lat":43.31363,"lon":5.38492,"is_reserved":false,"is_disabled":false,"rental_uris":{"android":"levelo://app?vid=808095e9-42cf-40cb-ac63-04c1a3daf527","ios":"levelo://app?vid=808095e9-42cf-40cb-ac63-04c1a3daf527"},"vehicle_type_id":"4","last_reported":1744723322,"current_range_meters":20400,"station_id":"ce4bgt92rcd13ifvqcf0","pricing_plan_id":"cebpf4jnsgd1na2vs0mg"},{"bike_id":"21e89a86-2940-4c69-aace-dcbe7010a3d4","system_id":"levelo_inurba_marseille","lat":43.25111,"lon":5.40322,"is_reserved":false,"is_disabled":false,"rental_uris":{"android":"levelo://app?vid=21e89a86-2940-4c69-aace-dcbe7010a3d4","ios":"levelo://app?vid=21e89a86-2940-4c69-aace-dcbe7010a3d4"},"vehicle_type_id":"4","last_reported":1744723322,"current_range_meters":20400,"station_id":"ce4bhlh2rcd13ifvqgig","pricing_plan_id":"cebpf4jnsgd1na2vs0mg"},{"bike_id":"58e5494d-233d-4c65-95cd-9e2f5b7e4012","system_id":"levelo_inurba_marseille","lat":43.29536,"lon":5.39048,"is_reserved":false,"is_disabled":false,"rental_uris":{"android":"levelo://app?vid=58e5494d-233d-4c65-95cd-9e2f5b7e4012","ios":"levelo://app?vid=58e5494d-233d-4c65-95cd-9e2f5b7e4012"},"vehicle_type_id":"4","last_reported":1744723322,"current_range_meters":20000,"station_id":"ce4bh3p2rcd13ifvqdp0","pricing_plan_id":"cebpf4jnsgd1na2vs0mg"},{"bike_id":"344a1806-3f68-4f98-9ec9-f06075cb757a","system_id":"levelo_inurba_marseille","lat":43.30159,"lon":5.38084,"is_reserved":false,"is_disabled":false,"rental_uris":{"android":"levelo://app?vid=344a1806-3f68-4f98-9ec9-f06075cb757a","ios":"levelo://app?vid=344a1806-3f68-4f98-9ec9-f06075cb757a"},"vehicle_type_id":"4","last_reported":1744723322,"current_range_meters":20800,"station_id":"ce4bgjp2rcd13ifvqbh0","pricing_plan_id":"cebpf4jnsgd1na2vs0mg"},{"bike_id":"1d85a354-beac-4fe0-8a06-ae9e757d0025","system_id":"levelo_inurba_marseille","lat":43.24665,"lon":5.38169,"is_reserved":false,"is_disabled":false,"rental_uris":{"android":"levelo://app?vid=1d85a354-beac-4fe0-8a06-ae9e757d0025","ios":"levelo://app?vid=1d85a354-beac-4fe0-8a06-ae9e757d0025"},"vehicle_type_id":"4","last_reported":1744723322,"current_range_meters":20800,"station_id":"ce4bhih2rcd13ifvqfr0","pricing_plan_id":"cebpf4jnsgd1na2vs0mg"},{"bike_id":"415db733-f514-4806-a29d-91dddd76fe1c","system_id":"levelo_inurba_marseille","lat":43.30314,"lon":5.36901,"is_reserved":false,"is_disabled":false,"rental_uris":{"android":"levelo://app?vid=415db733-f514-4806-a29d-91dddd76fe1c","ios":"levelo://app?vid=415db733-f514-4806-a29d-91dddd76fe1c"},"vehicle_type_id":"4","last_reported":1744723322,"current_range_meters":20800,"station_id":"ce4bgqh2rcd13ifvqc5g","pricing_plan_id":"cebpf4jnsgd1na2vs0mg"},{"bike_id":"174c2c9b-2f0a-47fb-998b-9f7260f2f135","system_id":"levelo_inurba_marseille","lat":43.30732,"lon":5.4244,"is_reserved":false,"is_disabled":false,"rental_uris":{"android":"levelo://app?vid=174c2c9b-2f0a-47fb-998b-9f7260f2f135","ios":"levelo://app?vid=174c2c9b-2f0a-47fb-998b-9f7260f2f135"},"vehicle_type_id":"4","last_reported":1744723322,"current_range_meters":20800,"station_id":"st_cvj6ca6bvosntc0bfgr0","pricing_plan_id":"cebpf4jnsgd1na2vs0mg"},{"bike_id":"ed97a721-7aee-47b1-b49b-a65ade99fd09","system_id":"levelo_inurba_marseille","lat":43.34332,"lon":5.37791,"is_reserved":false,"is_disabled":false,"rental_uris":{"android":"levelo://app?vid=ed97a721-7aee-47b1-b49b-a65ade99fd09","ios":"levelo://app?vid=ed97a721-7aee-47b1-b49b-a65ade99fd09"},"vehicle_type_id":"4","last_reported":1744723322,"current_range_meters":20800,"station_id":"","pricing_plan_id":"cebpf4jnsgd1na2vs0mg"},{"bike_id":"b30b4e21-7857-49b8-bc74-77182c7d3aec","system_id":"levelo_inurba_marseille","lat":43.27618,"lon":5.36104,"is_reserved":false,"is_disabled":false,"rental_uris":{"android":"levelo://app?vid=b30b4e21-7857-49b8-bc74-77182c7d3aec","ios":"levelo://app?vid=b30b4e21-7857-49b8-bc74-77182c7d3aec"},"vehicle_type_id":"4","last_reported":1744723322,"current_range_meters":20400,"station_id":"ce4bgj92rcd13ifvqbe0","pricing_plan_id":"cebpf4jnsgd1na2vs0mg"},{"bike_id":"d7968bbb-24c6-4057-aa66-89a0a399a3d4","system_id":"levelo_inurba_marseille","lat":43.25895,"lon":5.39939,"is_reserved":false,"is_disabled":false,"rental_uris":{"android":"levelo://app?vid=d7968bbb-24c6-4057-aa66-89a0a399a3d4","ios":"levelo://app?vid=d7968bbb-24c6-4057-aa66-89a0a399a3d4"},"vehicle_type_id":"4","last_reported":1744723322,"current_range_meters":20400,"station_id":"ce4bhl92rcd13ifvqghg","pricing_plan_id":"cebpf4jnsgd1na2vs0mg"},{"bike_id":"b082caf9-1aa9-41e8-8081-4da72e64e8e4","system_id":"levelo_inurba_marseille","lat":43.30919,"lon":5.40158,"is_reserved":false,"is_disabled":true,"rental_uris":{"android":"levelo://app?vid=b082caf9-1aa9-41e8-8081-4da72e64e8e4","ios":"levelo://app?vid=b082caf9-1aa9-41e8-8081-4da72e64e8e4"},"vehicle_type_id":"4","last_reported":1744723322,"current_range_meters":20800,"station_id":"ce4bgvp2rcd13ifvqct0","pricing_plan_id":"cebpf4jnsgd1na2vs0mg"},{"bike_id":"11267844-79e4-4e74-ad18-2e49bfb13529","system_id":"levelo_inurba_marseille","lat":43.3037,"lon":5.42493,"is_reserved":false,"is_disabled":false,"rental_uris":{"android":"levelo://app?vid=11267844-79e4-4e74-ad18-2e49bfb13529","ios":"levelo://app?vid=11267844-79e4-4e74-ad18-2e49bfb13529"},"vehicle_type_id":"4","last_reported":1744723322,"current_range_meters":20800,"station_id":"ce4bhoh2rcd13ifvqh6g","pricing_plan_id":"cebpf4jnsgd1na2vs0mg"},{"bike_id":"f1128267-4204-4d10-9baf-107803992b8e","system_id":"levelo_inurba_marseille","lat":43.30891,"lon":5.396644,"is_reserved":false,"is_disabled":false,"rental_uris":{"android":"levelo://app?vid=f1128267-4204-4d10-9baf-107803992b8e","ios":"levelo://app?vid=f1128267-4204-4d10-9baf-107803992b8e"},"vehicle_type_id":"4","last_reported":1744723322,"current_range_meters":21600,"station_id":"ce4bh392rcd13ifvqdl0","pricing_plan_id":"cebpf4jnsgd1na2vs0mg"},{"bike_id":"310292d5-bdeb-40f7-a94f-9d2b542d5222","system_id":"levelo_inurba_marseille","lat":43.24167,"lon":5.36393,"is_reserved":false,"is_disabled":false,"rental_uris":{"android":"levelo://app?vid=310292d5-bdeb-40f7-a94f-9d2b542d5222","ios":"levelo://app?vid=310292d5-bdeb-40f7-a94f-9d2b542d5222"},"vehicle_type_id":"4","last_reported":1744723322,"current_range_meters":21600,"station_id":"cpo36qri1sfpv3e86is0","pricing_plan_id":"cebpf4jnsgd1na2vs0mg"},{"bike_id":"1a85f639-2065-4429-9210-abfc0e91712b","system_id":"levelo_inurba_marseille","lat":43.281744,"lon":5.425661,"is_reserved":false,"is_disabled":false,"rental_uris":{"android":"levelo://app?vid=1a85f639-2065-4429-9210-abfc0e91712b","ios":"levelo://app?vid=1a85f639-2065-4429-9210-abfc0e91712b"},"vehicle_type_id":"4","last_reported":1744723322,"current_range_meters":25600,"station_id":"ce4bhnh2rcd13ifvqgug","pricing_plan_id":"cebpf4jnsgd1na2vs0mg"},{"bike_id":"6c103f9f-c959-46ad-a2e8-e44f9660c68e","system_id":"levelo_inurba_marseille","lat":43.21193,"lon":5.35079,"is_reserved":false,"is_disabled":false,"rental_uris":{"android":"levelo://app?vid=6c103f9f-c959-46ad-a2e8-e44f9660c68e","ios":"levelo://app?vid=6c103f9f-c959-46ad-a2e8-e44f9660c68e"},"vehicle_type_id":"4","last_reported":1744723322,"current_range_meters":21600,"station_id":"st_cvj6sg6p6f1abm77japg","pricing_plan_id":"cebpf4jnsgd1na2vs0mg"},{"bike_id":"3cd633cb-d039-4739-9ac2-7db2980e3f3a","system_id":"levelo_inurba_marseille","lat":43.283961,"lon":5.373992,"is_reserved":false,"is_disabled":false,"rental_uris":{"android":"levelo://app?vid=3cd633cb-d039-4739-9ac2-7db2980e3f3a","ios":"levelo://app?vid=3cd633cb-d039-4739-9ac2-7db2980e3f3a"},"vehicle_type_id":"4","last_reported":1744723322,"current_range_meters":21600,"station_id":"ce4bhbp2rcd13ifvqerg","pricing_plan_id":"cebpf4jnsgd1na2vs0mg"},{"bike_id":"60ec4175-4537-435a-95f9-8e40681109c0","system_id":"levelo_inurba_marseille","lat":43.31344,"lon":5.36739,"is_reserved":false,"is_disabled":false,"rental_uris":{"android":"levelo://app?vid=60ec4175-4537-435a-95f9-8e40681109c0","ios":"levelo://app?vid=60ec4175-4537-435a-95f9-8e40681109c0"},"vehicle_type_id":"4","last_reported":1744723322,"current_range_meters":21600,"station_id":"ce4bgr92rcd13ifvqc6g","pricing_plan_id":"cebpf4jnsgd1na2vs0mg"},{"bike_id":"c1f40d4d-60d2-4cae-82db-f0de1c7a4d29","system_id":"levelo_inurba_marseille","lat":43.30951,"lon":5.39029,"is_reserved":false,"is_disabled":false,"rental_uris":{"android":"levelo://app?vid=c1f40d4d-60d2-4cae-82db-f0de1c7a4d29","ios":"levelo://app?vid=c1f40d4d-60d2-4cae-82db-f0de1c7a4d29"},"vehicle_type_id":"4","last_reported":1744723322,"current_range_meters":21600,"station_id":"ce4bgup2rcd13ifvqco0","pricing_plan_id":"cebpf4jnsgd1na2vs0mg"},{"bike_id":"7dd05809-bbfe-4d93-bd1f-bd94f180e570","system_id":"levelo_inurba_marseille","lat":43.28163,"lon":5.42635,"is_reserved":false,"is_disabled":false,"rental_uris":{"android":"levelo://app?vid=7dd05809-bbfe-4d93-bd1f-bd94f180e570","ios":"levelo://app?vid=7dd05809-bbfe-4d93-bd1f-bd94f180e570"},"vehicle_type_id":"4","last_reported":1744723322,"current_range_meters":21600,"station_id":"ce4bhnh2rcd13ifvqgug","pricing_plan_id":"cebpf4jnsgd1na2vs0mg"},{"bike_id":"7ba5fe07-dcb3-418f-b274-49dc3af3b664","system_id":"levelo_inurba_marseille","lat":43.29599,"lon":5.38105,"is_reserved":false,"is_disabled":false,"rental_uris":{"android":"levelo://app?vid=7ba5fe07-dcb3-418f-b274-49dc3af3b664","ios":"levelo://app?vid=7ba5fe07-dcb3-418f-b274-49dc3af3b664"},"vehicle_type_id":"4","last_reported":1744723322,"current_range_meters":21600,"station_id":"ce4bgl12rcd13ifvqbo0","pricing_plan_id":"cebpf4jnsgd1na2vs0mg"},{"bike_id":"20ac4c4e-9240-4d2f-afa9-fdacb295cbdf","system_id":"levelo_inurba_marseille","lat":43.27922,"lon":5.3959,"is_reserved":false,"is_disabled":false,"rental_uris":{"android":"levelo://app?vid=20ac4c4e-9240-4d2f-afa9-fdacb295cbdf","ios":"levelo://app?vid=20ac4c4e-9240-4d2f-afa9-fdacb295cbdf"},"vehicle_type_id":"4","last_reported":1744723322,"current_range_meters":21600,"station_id":"ce4bhf92rcd13ifvqf40","pricing_plan_id":"cebpf4jnsgd1na2vs0mg"},{"bike_id":"71fbd999-fc22-4117-9884-9f890d675c4c","system_id":"levelo_inurba_marseille","lat":43.291008,"lon":5.381317,"is_reserved":false,"is_disabled":false,"rental_uris":{"android":"levelo://app?vid=71fbd999-fc22-4117-9884-9f890d675c4c","ios":"levelo://app?vid=71fbd999-fc22-4117-9884-9f890d675c4c"},"vehicle_type_id":"4","last_reported":1744723322,"current_range_meters":21600,"station_id":"","pricing_plan_id":"cebpf4jnsgd1na2vs0mg"},{"bike_id":"857293f1-5378-4a00-bb4d-21869d33d155","system_id":"levelo_inurba_marseille","lat":43.27923,"lon":5.39595,"is_reserved":false,"is_disabled":false,"rental_uris":{"android":"levelo://app?vid=857293f1-5378-4a00-bb4d-21869d33d155","ios":"levelo://app?vid=857293f1-5378-4a00-bb4d-21869d33d155"},"vehicle_type_id":"4","last_reported":1744723322,"current_range_meters":22000,"station_id":"ce4bhf92rcd13ifvqf40","pricing_plan_id":"cebpf4jnsgd1na2vs0mg"},{"bike_id":"51dcafe7-6d76-4cfb-b8e0-6acfc8f1f9b6","system_id":"levelo_inurba_marseille","lat":43.30548,"lon":5.36505,"is_reserved":false,"is_disabled":false,"rental_uris":{"android":"levelo://app?vid=51dcafe7-6d76-4cfb-b8e0-6acfc8f1f9b6","ios":"levelo://app?vid=51dcafe7-6d76-4cfb-b8e0-6acfc8f1f9b6"},"vehicle_type_id":"4","last_reported":1744723322,"current_range_meters":22000,"station_id":"ce4bgs12rcd13ifvqcag","pricing_plan_id":"cebpf4jnsgd1na2vs0mg"},{"bike_id":"a44c2a83-f7cc-4188-b9c3-535bb880b90c","system_id":"levelo_inurba_marseille","lat":43.25941,"lon":5.40902,"is_reserved":false,"is_disabled":false,"rental_uris":{"android":"levelo://app?vid=a44c2a83-f7cc-4188-b9c3-535bb880b90c","ios":"levelo://app?vid=a44c2a83-f7cc-4188-b9c3-535bb880b90c"},"vehicle_type_id":"4","last_reported":1744723322,"current_range_meters":22000,"station_id":"ce4bhm92rcd13ifvqglg","pricing_plan_id":"cebpf4jnsgd1na2vs0mg"},{"bike_id":"4d331a86-a3cb-4d7d-a2e2-e0d35e11dfb8","system_id":"levelo_inurba_marseille","lat":43.31216,"lon":5.36859,"is_reserved":false,"is_disabled":false,"rental_uris":{"android":"levelo://app?vid=4d331a86-a3cb-4d7d-a2e2-e0d35e11dfb8","ios":"levelo://app?vid=4d331a86-a3cb-4d7d-a2e2-e0d35e11dfb8"},"vehicle_type_id":"4","last_reported":1744723322,"current_range_meters":22000,"station_id":"ce4bgl92rcd13ifvqbq0","pricing_plan_id":"cebpf4jnsgd1na2vs0mg"},{"bike_id":"a7977848-b679-43e5-932f-85fd760cbc60","system_id":"levelo_inurba_marseille","lat":43.31535,"lon":5.38032,"is_reserved":false,"is_disabled":false,"rental_uris":{"android":"levelo://app?vid=a7977848-b679-43e5-932f-85fd760cbc60","ios":"levelo://app?vid=a7977848-b679-43e5-932f-85fd760cbc60"},"vehicle_type_id":"4","last_reported":1744723322,"current_range_meters":21600,"station_id":"ce4bhsp2rcd13ifvqi50","pricing_plan_id":"cebpf4jnsgd1na2vs0mg"},{"bike_id":"6ccb0769-d3e8-4931-aab6-9c24334ab6a3","system_id":"levelo_inurba_marseille","lat":43.31123,"lon":5.37766,"is_reserved":false,"is_disabled":false,"rental_uris":{"android":"levelo://app?vid=6ccb0769-d3e8-4931-aab6-9c24334ab6a3","ios":"levelo://app?vid=6ccb0769-d3e8-4931-aab6-9c24334ab6a3"},"vehicle_type_id":"4","last_reported":1744723322,"current_range_meters":21600,"station_id":"ce4bgt92rcd13ifvqcg0","pricing_plan_id":"cebpf4jnsgd1na2vs0mg"},{"bike_id":"f3a17301-f4cd-4211-8c74-a7b1a492d742","system_id":"levelo_inurba_marseille","lat":43.28082,"lon":5.4079,"is_reserved":false,"is_disabled":false,"rental_uris":{"android":"levelo://app?vid=f3a17301-f4cd-4211-8c74-a7b1a492d742","ios":"levelo://app?vid=f3a17301-f4cd-4211-8c74-a7b1a492d742"},"vehicle_type_id":"4","last_reported":1744723322,"current_range_meters":22000,"station_id":"","pricing_plan_id":"cebpf4jnsgd1na2vs0mg"},{"bike_id":"4c2f3d3d-343a-4849-9d8b-0e632c0ba567","system_id":"levelo_inurba_marseille","lat":43.29867,"lon":5.39726,"is_reserved":false,"is_disabled":false,"rental_uris":{"android":"levelo://app?vid=4c2f3d3d-343a-4849-9d8b-0e632c0ba567","ios":"levelo://app?vid=4c2f3d3d-343a-4849-9d8b-0e632c0ba567"},"vehicle_type_id":"4","last_reported":1744723322,"current_range_meters":21600,"station_id":"ce4bh0h2rcd13ifvqd50","pricing_plan_id":"cebpf4jnsgd1na2vs0mg"},{"bike_id":"8ffeb419-e3e8-4a92-b269-05029231e090","system_id":"levelo_inurba_marseille","lat":43.317333,"lon":5.405227,"is_reserved":false,"is_disabled":false,"rental_uris":{"android":"levelo://app?vid=8ffeb419-e3e8-4a92-b269-05029231e090","ios":"levelo://app?vid=8ffeb419-e3e8-4a92-b269-05029231e090"},"vehicle_type_id":"4","last_reported":1744723322,"current_range_meters":21600,"station_id":"ce4bh012rcd13ifvqd00","pricing_plan_id":"cebpf4jnsgd1na2vs0mg"},{"bike_id":"ea302315-b185-4216-9579-fbabb6fbb376","system_id":"levelo_inurba_marseille","lat":43.30147,"lon":5.38091,"is_reserved":false,"is_disabled":false,"rental_uris":{"android":"levelo://app?vid=ea302315-b185-4216-9579-fbabb6fbb376","ios":"levelo://app?vid=ea302315-b185-4216-9579-fbabb6fbb376"},"vehicle_type_id":"4","last_reported":1744723322,"current_range_meters":22000,"station_id":"ce4bgjp2rcd13ifvqbh0","pricing_plan_id":"cebpf4jnsgd1na2vs0mg"},{"bike_id":"e73130a8-c06c-42a7-ac12-4dde3b328e56","system_id":"levelo_inurba_marseille","lat":43.29866,"lon":5.39728,"is_reserved":false,"is_disabled":false,"rental_uris":{"android":"levelo://app?vid=e73130a8-c06c-42a7-ac12-4dde3b328e56","ios":"levelo://app?vid=e73130a8-c06c-42a7-ac12-4dde3b328e56"},"vehicle_type_id":"4","last_reported":1744723322,"current_range_meters":22000,"station_id":"ce4bh0h2rcd13ifvqd50","pricing_plan_id":"cebpf4jnsgd1na2vs0mg"},{"bike_id":"6a8e9068-2a8d-4c93-8c2d-e30f03079545","system_id":"levelo_inurba_marseille","lat":43.25716,"lon":5.41112,"is_reserved":false,"is_disabled":true,"rental_uris":{"android":"levelo://app?vid=6a8e9068-2a8d-4c93-8c2d-e30f03079545","ios":"levelo://app?vid=6a8e9068-2a8d-4c93-8c2d-e30f03079545"},"vehicle_type_id":"4","last_reported":1744723322,"current_range_meters":22000,"station_id":"ce4bhkp2rcd13ifvqgd0","pricing_plan_id":"cebpf4jnsgd1na2vs0mg"},{"bike_id":"d6fee597-3293-47ae-914e-c48760e9f772","system_id":"levelo_inurba_marseille","lat":43.24064,"lon":5.37776,"is_reserved":false,"is_disabled":false,"rental_uris":{"android":"levelo://app?vid=d6fee597-3293-47ae-914e-c48760e9f772","ios":"levelo://app?vid=d6fee597-3293-47ae-914e-c48760e9f772"},"vehicle_type_id":"4","last_reported":1744723322,"current_range_meters":22000,"station_id":"ce4bhnp2rcd13ifvqgvg","pricing_plan_id":"cebpf4jnsgd1na2vs0mg"},{"bike_id":"c88c9232-d990-4082-ab87-d452c31b2d32","system_id":"levelo_inurba_marseille","lat":43.29241,"lon":5.4089,"is_reserved":false,"is_disabled":false,"rental_uris":{"android":"levelo://app?vid=c88c9232-d990-4082-ab87-d452c31b2d32","ios":"levelo://app?vid=c88c9232-d990-4082-ab87-d452c31b2d32"},"vehicle_type_id":"4","last_reported":1744723322,"current_range_meters":22000,"station_id":"ce4bh192rcd13ifvqdc0","pricing_plan_id":"cebpf4jnsgd1na2vs0mg"},{"bike_id":"ab863a17-a8a2-4073-b516-607cb08fc41a","system_id":"levelo_inurba_marseille","lat":43.27489,"lon":5.42457,"is_reserved":false,"is_disabled":false,"rental_uris":{"android":"levelo://app?vid=ab863a17-a8a2-4073-b516-607cb08fc41a","ios":"levelo://app?vid=ab863a17-a8a2-4073-b516-607cb08fc41a"},"vehicle_type_id":"4","last_reported":1744723322,"current_range_meters":22400,"station_id":"ce4bhn92rcd13ifvqgrg","pricing_plan_id":"cebpf4jnsgd1na2vs0mg"},{"bike_id":"01a8870f-3510-46af-88bf-115c87345b26","system_id":"levelo_inurba_marseille","lat":43.30154,"lon":5.37381,"is_reserved":false,"is_disabled":false,"rental_uris":{"android":"levelo://app?vid=01a8870f-3510-46af-88bf-115c87345b26","ios":"levelo://app?vid=01a8870f-3510-46af-88bf-115c87345b26"},"vehicle_type_id":"4","last_reported":1744723322,"current_range_meters":22400,"station_id":"ce4bgs92rcd13ifvqcc0","pricing_plan_id":"cebpf4jnsgd1na2vs0mg"},{"bike_id":"bf5b1fd2-4b80-40f8-91bb-bbff3b3627cb","system_id":"levelo_inurba_marseille","lat":43.27364,"lon":5.36266,"is_reserved":false,"is_disabled":false,"rental_uris":{"android":"levelo://app?vid=bf5b1fd2-4b80-40f8-91bb-bbff3b3627cb","ios":"levelo://app?vid=bf5b1fd2-4b80-40f8-91bb-bbff3b3627cb"},"vehicle_type_id":"4","last_reported":1744723322,"current_range_meters":22400,"station_id":"ce4bhbh2rcd13ifvqeo0","pricing_plan_id":"cebpf4jnsgd1na2vs0mg"},{"bike_id":"b4cf1055-a2f7-407b-8c18-9b1386f05670","system_id":"levelo_inurba_marseille","lat":43.27659,"lon":5.38905,"is_reserved":false,"is_disabled":false,"rental_uris":{"android":"levelo://app?vid=b4cf1055-a2f7-407b-8c18-9b1386f05670","ios":"levelo://app?vid=b4cf1055-a2f7-407b-8c18-9b1386f05670"},"vehicle_type_id":"4","last_reported":1744723322,"current_range_meters":22400,"station_id":"ce4bhi12rcd13ifvqfo0","pricing_plan_id":"cebpf4jnsgd1na2vs0mg"},{"bike_id":"05c776fa-582c-4030-8f7e-c6d6c0f8de1a","system_id":"levelo_inurba_marseille","lat":43.24664,"lon":5.38165,"is_reserved":false,"is_disabled":false,"rental_uris":{"android":"levelo://app?vid=05c776fa-582c-4030-8f7e-c6d6c0f8de1a","ios":"levelo://app?vid=05c776fa-582c-4030-8f7e-c6d6c0f8de1a"},"vehicle_type_id":"4","last_reported":1744723322,"current_range_meters":22800,"station_id":"ce4bhih2rcd13ifvqfr0","pricing_plan_id":"cebpf4jnsgd1na2vs0mg"},{"bike_id":"5edb970d-3723-4d40-8f50-96e5f8fcd67b","system_id":"levelo_inurba_marseille","lat":43.29411,"lon":5.38619,"is_reserved":false,"is_disabled":false,"rental_uris":{"android":"levelo://app?vid=5edb970d-3723-4d40-8f50-96e5f8fcd67b","ios":"levelo://app?vid=5edb970d-3723-4d40-8f50-96e5f8fcd67b"},"vehicle_type_id":"4","last_reported":1744723322,"current_range_meters":22800,"station_id":"ce4bh2h2rcd13ifvqdh0","pricing_plan_id":"cebpf4jnsgd1na2vs0mg"},{"bike_id":"99e037fb-f8c3-42be-9259-35a03222be60","system_id":"levelo_inurba_marseille","lat":43.30381,"lon":5.42491,"is_reserved":false,"is_disabled":false,"rental_uris":{"android":"levelo://app?vid=99e037fb-f8c3-42be-9259-35a03222be60","ios":"levelo://app?vid=99e037fb-f8c3-42be-9259-35a03222be60"},"vehicle_type_id":"4","last_reported":1744723322,"current_range_meters":22400,"station_id":"ce4bhoh2rcd13ifvqh6g","pricing_plan_id":"cebpf4jnsgd1na2vs0mg"},{"bike_id":"2ab7a00a-ffb4-44de-81d2-9bcb7fd21e1d","system_id":"levelo_inurba_marseille","lat":43.31326,"lon":5.39702,"is_reserved":false,"is_disabled":false,"rental_uris":{"android":"levelo://app?vid=2ab7a00a-ffb4-44de-81d2-9bcb7fd21e1d","ios":"levelo://app?vid=2ab7a00a-ffb4-44de-81d2-9bcb7fd21e1d"},"vehicle_type_id":"4","last_reported":1744723322,"current_range_meters":22800,"station_id":"ce4bgvp2rcd13ifvqcu0","pricing_plan_id":"cebpf4jnsgd1na2vs0mg"},{"bike_id":"f85ddc3c-5ccd-4232-bf64-6e945cd829a3","system_id":"levelo_inurba_marseille","lat":43.24198,"lon":5.39721,"is_reserved":false,"is_disabled":false,"rental_uris":{"android":"levelo://app?vid=f85ddc3c-5ccd-4232-bf64-6e945cd829a3","ios":"levelo://app?vid=f85ddc3c-5ccd-4232-bf64-6e945cd829a3"},"vehicle_type_id":"4","last_reported":1744723322,"current_range_meters":22800,"station_id":"ce4bhn12rcd13ifvqgpg","pricing_plan_id":"cebpf4jnsgd1na2vs0mg"},{"bike_id":"dd2fbc22-3df4-4720-a708-dd6f46ba7212","system_id":"levelo_inurba_marseille","lat":43.21195,"lon":5.35068,"is_reserved":false,"is_disabled":false,"rental_uris":{"android":"levelo://app?vid=dd2fbc22-3df4-4720-a708-dd6f46ba7212","ios":"levelo://app?vid=dd2fbc22-3df4-4720-a708-dd6f46ba7212"},"vehicle_type_id":"4","last_reported":1744723322,"current_range_meters":22800,"station_id":"st_cvj6sg6p6f1abm77japg","pricing_plan_id":"cebpf4jnsgd1na2vs0mg"},{"bike_id":"617546f6-6ff5-4332-ae5e-08ec8ee56757","system_id":"levelo_inurba_marseille","lat":43.29536,"lon":5.3855,"is_reserved":false,"is_disabled":false,"rental_uris":{"android":"levelo://app?vid=617546f6-6ff5-4332-ae5e-08ec8ee56757","ios":"levelo://app?vid=617546f6-6ff5-4332-ae5e-08ec8ee56757"},"vehicle_type_id":"4","last_reported":1744723322,"current_range_meters":22800,"station_id":"ce4bgih2rcd13ifvqba0","pricing_plan_id":"cebpf4jnsgd1na2vs0mg"},{"bike_id":"e7871c6a-f0e1-4147-aeef-571d953b67b2","system_id":"levelo_inurba_marseille","lat":43.26221,"lon":5.37429,"is_reserved":false,"is_disabled":false,"rental_uris":{"android":"levelo://app?vid=e7871c6a-f0e1-4147-aeef-571d953b67b2","ios":"levelo://app?vid=e7871c6a-f0e1-4147-aeef-571d953b67b2"},"vehicle_type_id":"4","last_reported":1744723322,"current_range_meters":23200,"station_id":"ce4bhgp2rcd13ifvqfc0","pricing_plan_id":"cebpf4jnsgd1na2vs0mg"},{"bike_id":"d34a3c03-8b6c-4448-920f-3fd2b1d8ccfc","system_id":"levelo_inurba_marseille","lat":43.30539,"lon":5.38427,"is_reserved":false,"is_disabled":false,"rental_uris":{"android":"levelo://app?vid=d34a3c03-8b6c-4448-920f-3fd2b1d8ccfc","ios":"levelo://app?vid=d34a3c03-8b6c-4448-920f-3fd2b1d8ccfc"},"vehicle_type_id":"4","last_reported":1744723322,"current_range_meters":23200,"station_id":"ce4bgg92rcd13ifvqb30","pricing_plan_id":"cebpf4jnsgd1na2vs0mg"},{"bike_id":"c3c06e79-6d3b-4a09-8841-561d4a04411d","system_id":"levelo_inurba_marseille","lat":43.29717,"lon":5.36607,"is_reserved":false,"is_disabled":false,"rental_uris":{"android":"levelo://app?vid=c3c06e79-6d3b-4a09-8841-561d4a04411d","ios":"levelo://app?vid=c3c06e79-6d3b-4a09-8841-561d4a04411d"},"vehicle_type_id":"4","last_reported":1744723322,"current_range_meters":23200,"station_id":"ce4bgn12rcd13ifvqbt0","pricing_plan_id":"cebpf4jnsgd1na2vs0mg"},{"bike_id":"f26c681f-fdca-4c04-8353-b8dea87784ae","system_id":"levelo_inurba_marseille","lat":43.260601,"lon":5.394046,"is_reserved":false,"is_disabled":false,"rental_uris":{"android":"levelo://app?vid=f26c681f-fdca-4c04-8353-b8dea87784ae","ios":"levelo://app?vid=f26c681f-fdca-4c04-8353-b8dea87784ae"},"vehicle_type_id":"4","last_reported":1744723322,"current_range_meters":23200,"station_id":"ce4bhh92rcd13ifvqfj0","pricing_plan_id":"cebpf4jnsgd1na2vs0mg"},{"bike_id":"7bd1a439-1cb1-4217-b18b-530182294dcc","system_id":"levelo_inurba_marseille","lat":43.28002,"lon":5.40009,"is_reserved":false,"is_disabled":false,"rental_uris":{"android":"levelo://app?vid=7bd1a439-1cb1-4217-b18b-530182294dcc","ios":"levelo://app?vid=7bd1a439-1cb1-4217-b18b-530182294dcc"},"vehicle_type_id":"4","last_reported":1744723322,"current_range_meters":23200,"station_id":"ce4bho92rcd13ifvqh4g","pricing_plan_id":"cebpf4jnsgd1na2vs0mg"},{"bike_id":"8540885f-565c-4db9-8b11-54097c02010b","system_id":"levelo_inurba_marseille","lat":43.30286,"lon":5.37696,"is_reserved":false,"is_disabled":false,"rental_uris":{"android":"levelo://app?vid=8540885f-565c-4db9-8b11-54097c02010b","ios":"levelo://app?vid=8540885f-565c-4db9-8b11-54097c02010b"},"vehicle_type_id":"4","last_reported":1744723322,"current_range_meters":23200,"station_id":"ce4bguh2rcd13ifvqcj0","pricing_plan_id":"cebpf4jnsgd1na2vs0mg"},{"bike_id":"2d03e3c2-09e4-4978-8dbc-31228f7e9fd5","system_id":"levelo_inurba_marseille","lat":43.25581,"lon":5.38232,"is_reserved":false,"is_disabled":false,"rental_uris":{"android":"levelo://app?vid=2d03e3c2-09e4-4978-8dbc-31228f7e9fd5","ios":"levelo://app?vid=2d03e3c2-09e4-4978-8dbc-31228f7e9fd5"},"vehicle_type_id":"4","last_reported":1744723322,"current_range_meters":24000,"station_id":"ce4bhih2rcd13ifvqfs0","pricing_plan_id":"cebpf4jnsgd1na2vs0mg"},{"bike_id":"3f8843a7-e0f0-4bfb-be0d-1d39ca437499","system_id":"levelo_inurba_marseille","lat":43.29849,"lon":5.36284,"is_reserved":false,"is_disabled":false,"rental_uris":{"android":"levelo://app?vid=3f8843a7-e0f0-4bfb-be0d-1d39ca437499","ios":"levelo://app?vid=3f8843a7-e0f0-4bfb-be0d-1d39ca437499"},"vehicle_type_id":"4","last_reported":1744723322,"current_range_meters":24000,"station_id":"ce4bgpp2rcd13ifvqc3g","pricing_plan_id":"cebpf4jnsgd1na2vs0mg"},{"bike_id":"359fdaa0-bf9c-4933-9100-7a68179b70ef","system_id":"levelo_inurba_marseille","lat":43.24181,"lon":5.39735,"is_reserved":false,"is_disabled":false,"rental_uris":{"android":"levelo://app?vid=359fdaa0-bf9c-4933-9100-7a68179b70ef","ios":"levelo://app?vid=359fdaa0-bf9c-4933-9100-7a68179b70ef"},"vehicle_type_id":"4","last_reported":1744723322,"current_range_meters":24000,"station_id":"ce4bhn12rcd13ifvqgpg","pricing_plan_id":"cebpf4jnsgd1na2vs0mg"},{"bike_id":"bc28d542-c960-4fe2-b254-53445df7d948","system_id":"levelo_inurba_marseille","lat":43.30327,"lon":5.40429,"is_reserved":false,"is_disabled":false,"rental_uris":{"android":"levelo://app?vid=bc28d542-c960-4fe2-b254-53445df7d948","ios":"levelo://app?vid=bc28d542-c960-4fe2-b254-53445df7d948"},"vehicle_type_id":"4","last_reported":1744723322,"current_range_meters":24000,"station_id":"ce4bh012rcd13ifvqd10","pricing_plan_id":"cebpf4jnsgd1na2vs0mg"},{"bike_id":"f4f2a3c2-2e88-42f2-a842-4b821963dedc","system_id":"levelo_inurba_marseille","lat":43.22927,"lon":5.35383,"is_reserved":false,"is_disabled":false,"rental_uris":{"android":"levelo://app?vid=f4f2a3c2-2e88-42f2-a842-4b821963dedc","ios":"levelo://app?vid=f4f2a3c2-2e88-42f2-a842-4b821963dedc"},"vehicle_type_id":"4","last_reported":1744723322,"current_range_meters":24000,"station_id":"cpo3532slgdg3j2ikp40","pricing_plan_id":"cebpf4jnsgd1na2vs0mg"},{"bike_id":"7dd5be5d-77b7-4b8d-950c-57ce96b09d37","system_id":"levelo_inurba_marseille","lat":43.29196,"lon":5.39308,"is_reserved":false,"is_disabled":false,"rental_uris":{"android":"levelo://app?vid=7dd5be5d-77b7-4b8d-950c-57ce96b09d37","ios":"levelo://app?vid=7dd5be5d-77b7-4b8d-950c-57ce96b09d37"},"vehicle_type_id":"4","last_reported":1744723322,"current_range_meters":24000,"station_id":"ce4bh192rcd13ifvqdd0","pricing_plan_id":"cebpf4jnsgd1na2vs0mg"},{"bike_id":"6ba75421-2540-4e6c-a03a-7cf0990137a4","system_id":"levelo_inurba_marseille","lat":43.24182,"lon":5.39737,"is_reserved":false,"is_disabled":false,"rental_uris":{"android":"levelo://app?vid=6ba75421-2540-4e6c-a03a-7cf0990137a4","ios":"levelo://app?vid=6ba75421-2540-4e6c-a03a-7cf0990137a4"},"vehicle_type_id":"4","last_reported":1744723322,"current_range_meters":24000,"station_id":"ce4bhn12rcd13ifvqgpg","pricing_plan_id":"cebpf4jnsgd1na2vs0mg"},{"bike_id":"1f7d13ee-e653-4111-a632-455954a98994","system_id":"levelo_inurba_marseille","lat":43.29925,"lon":5.3652,"is_reserved":false,"is_disabled":false,"rental_uris":{"android":"levelo://app?vid=1f7d13ee-e653-4111-a632-455954a98994","ios":"levelo://app?vid=1f7d13ee-e653-4111-a632-455954a98994"},"vehicle_type_id":"4","last_reported":1744723322,"current_range_meters":24000,"station_id":"ce4bgm92rcd13ifvqbr0","pricing_plan_id":"cebpf4jnsgd1na2vs0mg"},{"bike_id":"ad80cb70-89da-4831-bd5b-2cfdaede73b7","system_id":"levelo_inurba_marseille","lat":43.286018,"lon":5.351019,"is_reserved":false,"is_disabled":false,"rental_uris":{"android":"levelo://app?vid=ad80cb70-89da-4831-bd5b-2cfdaede73b7","ios":"levelo://app?vid=ad80cb70-89da-4831-bd5b-2cfdaede73b7"},"vehicle_type_id":"4","last_reported":1744723322,"current_range_meters":24000,"station_id":"ce4bh692rcd13ifvqe90","pricing_plan_id":"cebpf4jnsgd1na2vs0mg"},{"bike_id":"5af3364e-5468-48ae-9348-7647f2393c3e","system_id":"levelo_inurba_marseille","lat":43.26783,"lon":5.39415,"is_reserved":false,"is_disabled":false,"rental_uris":{"android":"levelo://app?vid=5af3364e-5468-48ae-9348-7647f2393c3e","ios":"levelo://app?vid=5af3364e-5468-48ae-9348-7647f2393c3e"},"vehicle_type_id":"4","last_reported":1744723322,"current_range_meters":24000,"station_id":"ce4bhh12rcd13ifvqfg0","pricing_plan_id":"cebpf4jnsgd1na2vs0mg"},{"bike_id":"117e224a-3328-41be-9209-aad6fd786c2a","system_id":"levelo_inurba_marseille","lat":43.268219,"lon":5.393943,"is_reserved":false,"is_disabled":false,"rental_uris":{"android":"levelo://app?vid=117e224a-3328-41be-9209-aad6fd786c2a","ios":"levelo://app?vid=117e224a-3328-41be-9209-aad6fd786c2a"},"vehicle_type_id":"4","last_reported":1744723322,"current_range_meters":24000,"station_id":"ce4bhh12rcd13ifvqfg0","pricing_plan_id":"cebpf4jnsgd1na2vs0mg"},{"bike_id":"c5ea19f0-e800-43bc-ab64-b1caf5c8a6ec","system_id":"levelo_inurba_marseille","lat":43.29005,"lon":5.35614,"is_reserved":false,"is_disabled":false,"rental_uris":{"android":"levelo://app?vid=c5ea19f0-e800-43bc-ab64-b1caf5c8a6ec","ios":"levelo://app?vid=c5ea19f0-e800-43bc-ab64-b1caf5c8a6ec"},"vehicle_type_id":"4","last_reported":1744723322,"current_range_meters":23200,"station_id":"ce4bhb92rcd13ifvqen0","pricing_plan_id":"cebpf4jnsgd1na2vs0mg"},{"bike_id":"d7d4e4b4-21c0-4b90-aa6d-3ed3aaf3ff52","system_id":"levelo_inurba_marseille","lat":43.2837,"lon":5.38639,"is_reserved":false,"is_disabled":false,"rental_uris":{"android":"levelo://app?vid=d7d4e4b4-21c0-4b90-aa6d-3ed3aaf3ff52","ios":"levelo://app?vid=d7d4e4b4-21c0-4b90-aa6d-3ed3aaf3ff52"},"vehicle_type_id":"4","last_reported":1744723322,"current_range_meters":22800,"station_id":"ce4bh492rcd13ifvqdvg","pricing_plan_id":"cebpf4jnsgd1na2vs0mg"},{"bike_id":"ed277671-5069-41be-a386-38170335cdc8","system_id":"levelo_inurba_marseille","lat":43.313445,"lon":5.367108,"is_reserved":false,"is_disabled":false,"rental_uris":{"android":"levelo://app?vid=ed277671-5069-41be-a386-38170335cdc8","ios":"levelo://app?vid=ed277671-5069-41be-a386-38170335cdc8"},"vehicle_type_id":"4","last_reported":1744723322,"current_range_meters":24400,"station_id":"ce4bgr92rcd13ifvqc6g","pricing_plan_id":"cebpf4jnsgd1na2vs0mg"},{"bike_id":"75719a88-06aa-406a-8890-2ef56ceb02fd","system_id":"levelo_inurba_marseille","lat":43.26783,"lon":5.39409,"is_reserved":false,"is_disabled":false,"rental_uris":{"android":"levelo://app?vid=75719a88-06aa-406a-8890-2ef56ceb02fd","ios":"levelo://app?vid=75719a88-06aa-406a-8890-2ef56ceb02fd"},"vehicle_type_id":"4","last_reported":1744723322,"current_range_meters":24000,"station_id":"ce4bhh12rcd13ifvqfg0","pricing_plan_id":"cebpf4jnsgd1na2vs0mg"},{"bike_id":"d07f3575-c570-4366-9138-201949d4b627","system_id":"levelo_inurba_marseille","lat":43.229326,"lon":5.353813,"is_reserved":false,"is_disabled":false,"rental_uris":{"android":"levelo://app?vid=d07f3575-c570-4366-9138-201949d4b627","ios":"levelo://app?vid=d07f3575-c570-4366-9138-201949d4b627"},"vehicle_type_id":"4","last_reported":1744723322,"current_range_meters":24400,"station_id":"cpo3532slgdg3j2ikp40","pricing_plan_id":"cebpf4jnsgd1na2vs0mg"},{"bike_id":"da8b85b7-2e3a-4882-b1b1-00a4494eed2a","system_id":"levelo_inurba_marseille","lat":43.33032,"lon":5.39047,"is_reserved":false,"is_disabled":false,"rental_uris":{"android":"levelo://app?vid=da8b85b7-2e3a-4882-b1b1-00a4494eed2a","ios":"levelo://app?vid=da8b85b7-2e3a-4882-b1b1-00a4494eed2a"},"vehicle_type_id":"4","last_reported":1744723322,"current_range_meters":24400,"station_id":"ce4bhr92rcd13ifvqhrg","pricing_plan_id":"cebpf4jnsgd1na2vs0mg"},{"bike_id":"bb19892b-6aa9-4af0-8c0c-b55c2ce22821","system_id":"levelo_inurba_marseille","lat":43.26784,"lon":5.39431,"is_reserved":false,"is_disabled":false,"rental_uris":{"android":"levelo://app?vid=bb19892b-6aa9-4af0-8c0c-b55c2ce22821","ios":"levelo://app?vid=bb19892b-6aa9-4af0-8c0c-b55c2ce22821"},"vehicle_type_id":"4","last_reported":1744723322,"current_range_meters":24400,"station_id":"ce4bhh12rcd13ifvqfg0","pricing_plan_id":"cebpf4jnsgd1na2vs0mg"},{"bike_id":"6c6fd58d-d251-4fea-8c55-c0a7401c92d2","system_id":"levelo_inurba_marseille","lat":43.24173,"lon":5.39713,"is_reserved":false,"is_disabled":false,"rental_uris":{"android":"levelo://app?vid=6c6fd58d-d251-4fea-8c55-c0a7401c92d2","ios":"levelo://app?vid=6c6fd58d-d251-4fea-8c55-c0a7401c92d2"},"vehicle_type_id":"4","last_reported":1744723322,"current_range_meters":24400,"station_id":"ce4bhn12rcd13ifvqgpg","pricing_plan_id":"cebpf4jnsgd1na2vs0mg"},{"bike_id":"5238a396-9e83-4705-9bc2-a38bb6d395e7","system_id":"levelo_inurba_marseille","lat":43.28099,"lon":5.37831,"is_reserved":false,"is_disabled":false,"rental_uris":{"android":"levelo://app?vid=5238a396-9e83-4705-9bc2-a38bb6d395e7","ios":"levelo://app?vid=5238a396-9e83-4705-9bc2-a38bb6d395e7"},"vehicle_type_id":"4","last_reported":1744723322,"current_range_meters":24400,"station_id":"ce4bha12rcd13ifvqee0","pricing_plan_id":"cebpf4jnsgd1na2vs0mg"},{"bike_id":"84b736d4-04ba-4447-80d6-1f3ea55fe4c1","system_id":"levelo_inurba_marseille","lat":43.27841,"lon":5.39211,"is_reserved":false,"is_disabled":false,"rental_uris":{"android":"levelo://app?vid=84b736d4-04ba-4447-80d6-1f3ea55fe4c1","ios":"levelo://app?vid=84b736d4-04ba-4447-80d6-1f3ea55fe4c1"},"vehicle_type_id":"4","last_reported":1744723322,"current_range_meters":24400,"station_id":"ce4bhjp2rcd13ifvqga0","pricing_plan_id":"cebpf4jnsgd1na2vs0mg"},{"bike_id":"be80037b-027c-4727-b272-19bc9d712f9c","system_id":"levelo_inurba_marseille","lat":43.31347,"lon":5.36741,"is_reserved":false,"is_disabled":false,"rental_uris":{"android":"levelo://app?vid=be80037b-027c-4727-b272-19bc9d712f9c","ios":"levelo://app?vid=be80037b-027c-4727-b272-19bc9d712f9c"},"vehicle_type_id":"4","last_reported":1744723322,"current_range_meters":24400,"station_id":"ce4bgr92rcd13ifvqc6g","pricing_plan_id":"cebpf4jnsgd1na2vs0mg"},{"bike_id":"86d7438f-0eaf-4268-9c89-b70bc6e8d11b","system_id":"levelo_inurba_marseille","lat":43.26568,"lon":5.39012,"is_reserved":false,"is_disabled":false,"rental_uris":{"android":"levelo://app?vid=86d7438f-0eaf-4268-9c89-b70bc6e8d11b","ios":"levelo://app?vid=86d7438f-0eaf-4268-9c89-b70bc6e8d11b"},"vehicle_type_id":"4","last_reported":1744723322,"current_range_meters":24400,"station_id":"ce4bhe12rcd13ifvqf30","pricing_plan_id":"cebpf4jnsgd1na2vs0mg"},{"bike_id":"d750596a-6ac6-4755-84cc-45acd4464f3d","system_id":"levelo_inurba_marseille","lat":43.24393,"lon":5.3707,"is_reserved":false,"is_disabled":false,"rental_uris":{"android":"levelo://app?vid=d750596a-6ac6-4755-84cc-45acd4464f3d","ios":"levelo://app?vid=d750596a-6ac6-4755-84cc-45acd4464f3d"},"vehicle_type_id":"4","last_reported":1744723322,"current_range_meters":24800,"station_id":"ce4bhhh2rcd13ifvqfk0","pricing_plan_id":"cebpf4jnsgd1na2vs0mg"},