{"last_updated":1734610682,"ttl":60,"version":"2.2","data":{"bikes":[{"bike_id":"37db10fd-f58e-4f18-a5b2-5769e0e8c712","system_id":"levelo_inurba_marseille","lat":43.27069,"lon":5.42282,"is_reserved":false,"is_disabled":false,"rental_uris":{"android":"levelo://app?vid=37db10fd-f58e-4f18-a5b2-5769e0e8c712","ios":"levelo://app?vid=37db10fd-f58e-4f18-a5b2-5769e0e8c712"},"vehicle_type_id":"4","last_reported":1734610682,"current_range_meters":14800,"station_id":"ce4bhk92rcd13ifvqgb0","pricing_plan_id":"cebpf4jnsgd1na2vs0mg"},{"bike_id":"74dc27b5-e2a4-4b1e-9dc3-5894ac4bda0a","system_id":"levelo_inurba_marseille","lat":43.29776,"lon":5.37285,"is_reserved":false,"is_disabled":true,"rental_uris":{"android":"levelo://app?vid=74dc27b5-e2a4-4b1e-9dc3-5894ac4bda0a","ios":"levelo://app?vid=74dc27b5-e2a4-4b1e-9dc3-5894ac4bda0a"},"vehicle_type_id":"4","last_reported":1734610682,"current_range_meters":2000,"station_id":"","pricing_plan_id":"cebpf4jnsgd1na2vs0mg"},{"bike_id":"23d53d36-6ec8-4e2e-b484-61e0de626137","system_id":"levelo_inurba_marseille","lat":43.29379,"lon":5.37855,"is_reserved":false,"is_disabled":false,"rental_uris":{"android":"levelo://app?vid=23d53d36-6ec8-4e2e-b484-61e0de626137","ios":"levelo://app?vid=23d53d36-6ec8-4e2e-b484-61e0de626137"},"vehicle_type_id":"4","last_reported":1734610682,"current_range_meters":26800,"station_id":"ce4bgjh2rcd13ifvqbf0","pricing_plan_id":"cebpf4jnsgd1na2vs0mg"},{"bike_id":"8f438070-4379-48f1-b4d7-f27398447f3e","system_id":"levelo_inurba_marseille","lat":43.31271,"lon":5.40179,"is_reserved":false,"is_disabled":false,"rental_uris":{"android":"levelo://app?vid=8f438070-4379-48f1-b4d7-f27398447f3e","ios":"levelo://app?vid=8f438070-4379-48f1-b4d7-f27398447f3e"},"vehicle_type_id":"4","last_reported":1734610682,"current_range_meters":16400,"station_id":"ce4bh092rcd13ifvqd30","pricing_plan_id":"cebpf4jnsgd1na2vs0mg"},{"bike_id":"d11baf8e-015c-40b5-a1e6-f2929fc6cc45","system_id":"levelo_inurba_marseille","lat":43.23181,"lon":5.40012,"is_reserved":false,"is_disabled":false,"rental_uris":{"android":"levelo://app?vid=d11baf8e-015c-40b5-a1e6-f2929fc6cc45","ios":"levelo://app?vid=d11baf8e-015c-40b5-a1e6-f2929fc6cc45"},"vehicle_type_id":"4","last_reported":1734610682,"current_range_meters":38800,"station_id":"ce4bhn12rcd13ifvqgqg","pricing_plan_id":"cebpf4jnsgd1na2vs0mg"},{"bike_id":"0b3c962c-40d1-4375-b60d-644d72aaacf1","system_id":"levelo_inurba_marseille","lat":43.28011,"lon":5.40394,"is_reserved":false,"is_disabled":true,"rental_uris":{"android":"levelo://app?vid=0b3c962c-40d1-4375-b60d-644d72aaacf1","ios":"levelo://app?vid=0b3c962c-40d1-4375-b60d-644d72aaacf1"},"vehicle_type_id":"4","last_reported":1734610682,"current_range_meters":0,"station_id":"","pricing_plan_id":"cebpf4jnsgd1na2vs0mg"},{"bike_id":"ccd561ff-8b1b-4d1b-b7e2-630e582818a9","system_id":"levelo_inurba_marseille","lat":43.29097,"lon":5.38132,"is_reserved":false,"is_disabled":false,"rental_uris":{"android":"levelo://app?vid=ccd561ff-8b1b-4d1b-b7e2-630e582818a9","ios":"levelo://app?vid=ccd561ff-8b1b-4d1b-b7e2-630e582818a9"},"vehicle_type_id":"4","last_reported":1734610682,"current_range_meters":38000,"station_id":"ce4bh512rcd13ifvqe2g","pricing_plan_id":"cebpf4jnsgd1na2vs0mg"},{"bike_id":"4a2f69ca-54b2-4cc9-b9f7-4ad4ba71de44","system_id":"levelo_inurba_marseille","lat":43.30784,"lon":5.37638,"is_reserved":false,"is_disabled":false,"rental_uris":{"android":"levelo://app?vid=4a2f69ca-54b2-4cc9-b9f7-4ad4ba71de44","ios":"levelo://app?vid=4a2f69ca-54b2-4cc9-b9f7-4ad4ba71de44"},"vehicle_type_id":"4","last_reported":1734610682,"current_range_meters":38800,"station_id":"ce4bgv92rcd13ifvqcq0","pricing_plan_id":"cebpf4jnsgd1na2vs0mg"},{"bike_id":"3b5b02e2-92a0-43fc-8f2d-a81d0fb57fe6","system_id":"levelo_inurba_marseille","lat":43.2314,"lon":5.4373,"is_reserved":false,"is_disabled":false,"rental_uris":{"android":"levelo://app?vid=3b5b02e2-92a0-43fc-8f2d-a81d0fb57fe6","ios":"levelo://app?vid=3b5b02e2-92a0-43fc-8f2d-a81d0fb57fe6"},"vehicle_type_id":"4","last_reported":1734610682,"current_range_meters":38800,"station_id":"ce4bhmp2rcd13ifvqgog","pricing_plan_id":"cebpf4jnsgd1na2vs0mg"},{"bike_id":"cdfbb810-d223-40f7-99d6-192db8fd2ec8","system_id":"levelo_inurba_marseille","lat":43.29787,"lon":5.381,"is_reserved":false,"is_disabled":false,"rental_uris":{"android":"levelo://app?vid=cdfbb810-d223-40f7-99d6-192db8fd2ec8","ios":"levelo://app?vid=cdfbb810-d223-40f7-99d6-192db8fd2ec8"},"vehicle_type_id":"4","last_reported":1734610682,"current_range_meters":34000,"station_id":"ce4bgip2rcd13ifvqbb0","pricing_plan_id":"cebpf4jnsgd1na2vs0mg"},{"bike_id":"03f1bdbc-0385-4309-afe2-78693a87e74d","system_id":"levelo_inurba_marseille","lat":43.30436,"lon":5.38894,"is_reserved":false,"is_disabled":true,"rental_uris":{"android":"levelo://app?vid=03f1bdbc-0385-4309-afe2-78693a87e74d","ios":"levelo://app?vid=03f1bdbc-0385-4309-afe2-78693a87e74d"},"vehicle_type_id":"4","last_reported":1734610682,"current_range_meters":38800,"station_id":"ce4bgk12rcd13ifvqbi0","pricing_plan_id":"cebpf4jnsgd1na2vs0mg"},{"bike_id":"53216bc0-db19-436b-803c-24b87a4c95f3","system_id":"levelo_inurba_marseille","lat":43.32471,"lon":5.36575,"is_reserved":false,"is_disabled":false,"rental_uris":{"android":"levelo://app?vid=53216bc0-db19-436b-803c-24b87a4c95f3","ios":"levelo://app?vid=53216bc0-db19-436b-803c-24b87a4c95f3"},"vehicle_type_id":"4","last_reported":1734610682,"current_range_meters":39200,"station_id":"ce4bhs12rcd13ifvqhvg","pricing_plan_id":"cebpf4jnsgd1na2vs0mg"},{"bike_id":"d4562cc7-5e52-4725-88c2-d2ef6c1607c7","system_id":"levelo_inurba_marseille","lat":43.248,"lon":5.37475,"is_reserved":false,"is_disabled":true,"rental_uris":{"android":"levelo://app?vid=d4562cc7-5e52-4725-88c2-d2ef6c1607c7","ios":"levelo://app?vid=d4562cc7-5e52-4725-88c2-d2ef6c1607c7"},"vehicle_type_id":"4","last_reported":1734610682,"current_range_meters":0,"station_id":"ce4bhgh2rcd13ifvqfb0","pricing_plan_id":"cebpf4jnsgd1na2vs0mg"},{"bike_id":"41c99ca9-5ff3-41f8-a3d4-7ec342ed0701","system_id":"levelo_inurba_marseille","lat":43.26948,"lon":5.38638,"is_reserved":false,"is_disabled":false,"rental_uris":{"android":"levelo://app?vid=41c99ca9-5ff3-41f8-a3d4-7ec342ed0701","ios":"levelo://app?vid=41c99ca9-5ff3-41f8-a3d4-7ec342ed0701"},"vehicle_type_id":"4","last_reported":1734610682,"current_range_meters":16400,"station_id":"ce4bhh92rcd13ifvqfh0","pricing_plan_id":"cebpf4jnsgd1na2vs0mg"},{"bike_id":"3417d897-84a9-44ba-81ef-40200cfed818","system_id":"levelo_inurba_marseille","lat":43.25708,"lon":5.41072,"is_reserved":false,"is_disabled":false,"rental_uris":{"android":"levelo://app?vid=3417d897-84a9-44ba-81ef-40200cfed818","ios":"levelo://app?vid=3417d897-84a9-44ba-81ef-40200cfed818"},"vehicle_type_id":"4","last_reported":1734610682,"current_range_meters":38800,"station_id":"ce4bhkp2rcd13ifvqgd0","pricing_plan_id":"cebpf4jnsgd1na2vs0mg"},{"bike_id":"b3a0a937-593c-426c-a8c8-0efad309623d","system_id":"levelo_inurba_marseille","lat":43.29278,"lon":5.40121,"is_reserved":false,"is_disabled":true,"rental_uris":{"android":"levelo://app?vid=b3a0a937-593c-426c-a8c8-0efad309623d","ios":"levelo://app?vid=b3a0a937-593c-426c-a8c8-0efad309623d"},"vehicle_type_id":"4","last_reported":1734610682,"current_range_meters":28800,"station_id":"ce4bh312rcd13ifvqdk0","pricing_plan_id":"cebpf4jnsgd1na2vs0mg"},{"bike_id":"ba009d8e-0840-435f-99ae-ad353dc413fa","system_id":"levelo_inurba_marseille","lat":43.29609,"lon":5.37721,"is_reserved":false,"is_disabled":true,"rental_uris":{"android":"levelo://app?vid=ba009d8e-0840-435f-99ae-ad353dc413fa","ios":"levelo://app?vid=ba009d8e-0840-435f-99ae-ad353dc413fa"},"vehicle_type_id":"4","last_reported":1734610682,"current_range_meters":38800,"station_id":"ce4bgi92rcd13ifvqb90","pricing_plan_id":"cebpf4jnsgd1na2vs0mg"},{"bike_id":"53c5dd90-208e-4b14-9aec-3133385e99e3","system_id":"levelo_inurba_marseille","lat":43.29559,"lon":5.42282,"is_reserved":false,"is_disabled":false,"rental_uris":{"android":"levelo://app?vid=53c5dd90-208e-4b14-9aec-3133385e99e3","ios":"levelo://app?vid=53c5dd90-208e-4b14-9aec-3133385e99e3"},"vehicle_type_id":"4","last_reported":1734610682,"current_range_meters":8400,"station_id":"ce4bhph2rcd13ifvqhdg","pricing_plan_id":"cebpf4jnsgd1na2vs0mg"},{"bike_id":"b8ab8a40-a2b4-425d-a9ba-0fdbe3a77b74","system_id":"levelo_inurba_marseille","lat":43.31699,"lon":5.37746,"is_reserved":false,"is_disabled":false,"rental_uris":{"android":"levelo://app?vid=b8ab8a40-a2b4-425d-a9ba-0fdbe3a77b74","ios":"levelo://app?vid=b8ab8a40-a2b4-425d-a9ba-0fdbe3a77b74"},"vehicle_type_id":"4","last_reported":1734610682,"current_range_meters":32400,"station_id":"ce4bgth2rcd13ifvqch0","pricing_plan_id":"cebpf4jnsgd1na2vs0mg"},{"bike_id":"62cc5a16-2562-4639-85b3-96bc9a8ba745","system_id":"levelo_inurba_marseille","lat":43.29845,"lon":5.36274,"is_reserved":false,"is_disabled":false,"rental_uris":{"android":"levelo://app?vid=62cc5a16-2562-4639-85b3-96bc9a8ba745","ios":"levelo://app?vid=62cc5a16-2562-4639-85b3-96bc9a8ba745"},"vehicle_type_id":"4","last_reported":1734610682,"current_range_meters":10800,"station_id":"ce4bgpp2rcd13ifvqc3g","pricing_plan_id":"cebpf4jnsgd1na2vs0mg"},{"bike_id":"2f0d85a2-56b3-451a-9c7a-7917c578436e","system_id":"levelo_inurba_marseille","lat":43.29531,"lon":5.37502,"is_reserved":false,"is_disabled":false,"rental_uris":{"android":"levelo://app?vid=2f0d85a2-56b3-451a-9c7a-7917c578436e","ios":"levelo://app?vid=2f0d85a2-56b3-451a-9c7a-7917c578436e"},"vehicle_type_id":"4","last_reported":1734610682,"current_range_meters":30400,"station_id":"ce4bgkp2rcd13ifvqbmg","pricing_plan_id":"cebpf4jnsgd1na2vs0mg"},{"bike_id":"c31cf732-fe99-44fa-a22c-037b380881eb","system_id":"levelo_inurba_marseille","lat":43.32656,"lon":5.40995,"is_reserved":false,"is_disabled":false,"rental_uris":{"android":"levelo://app?vid=c31cf732-fe99-44fa-a22c-037b380881eb","ios":"levelo://app?vid=c31cf732-fe99-44fa-a22c-037b380881eb"},"vehicle_type_id":"4","last_reported":1734610682,"current_range_meters":18800,"station_id":"ce4bhpp2rcd13ifvqhgg","pricing_plan_id":"cebpf4jnsgd1na2vs0mg"},{"bike_id":"d34bdf4f-71bc-4ae4-b273-f3852ddc692a","system_id":"levelo_inurba_marseille","lat":43.33762,"lon":5.37473,"is_reserved":false,"is_disabled":false,"rental_uris":{"android":"levelo://app?vid=d34bdf4f-71bc-4ae4-b273-f3852ddc692a","ios":"levelo://app?vid=d34bdf4f-71bc-4ae4-b273-f3852ddc692a"},"vehicle_type_id":"4","last_reported":1734610682,"current_range_meters":37600,"station_id":"","pricing_plan_id":"cebpf4jnsgd1na2vs0mg"},{"bike_id":"7f3f07c8-d5f3-4b95-a0cf-c731d9f0790c","system_id":"levelo_inurba_marseille","lat":43.27946,"lon":5.4105,"is_reserved":false,"is_disabled":false,"rental_uris":{"android":"levelo://app?vid=7f3f07c8-d5f3-4b95-a0cf-c731d9f0790c","ios":"levelo://app?vid=7f3f07c8-d5f3-4b95-a0cf-c731d9f0790c"},"vehicle_type_id":"4","last_reported":1734610682,"current_range_meters":14800,"station_id":"ce4bhnp2rcd13ifvqh0g","pricing_plan_id":"cebpf4jnsgd1na2vs0mg"},{"bike_id":"364c8ece-b245-4176-808b-ceae0c21b59e","system_id":"levelo_inurba_marseille","lat":43.2743,"lon":5.39425,"is_reserved":false,"is_disabled":false,"rental_uris":{"android":"levelo://app?vid=364c8ece-b245-4176-808b-ceae0c21b59e","ios":"levelo://app?vid=364c8ece-b245-4176-808b-ceae0c21b59e"},"vehicle_type_id":"4","last_reported":1734610682,"current_range_meters":26000,"station_id":"ce4bhdp2rcd13ifvqf20","pricing_plan_id":"cebpf4jnsgd1na2vs0mg"},{"bike_id":"312f26c3-4c98-4bb4-bda7-ac70380bf225","system_id":"levelo_inurba_marseille","lat":43.29306,"lon":5.37186,"is_reserved":false,"is_disabled":false,"rental_uris":{"android":"levelo://app?vid=312f26c3-4c98-4bb4-bda7-ac70380bf225","ios":"levelo://app?vid=312f26c3-4c98-4bb4-bda7-ac70380bf225"},"vehicle_type_id":"4","last_reported":1734610682,"current_range_meters":38400,"station_id":"ce4bgh92rcd13ifvqb40","pricing_plan_id":"cebpf4jnsgd1na2vs0mg"},{"bike_id":"85f0faa7-a071-4822-aa17-eec7e9d960df","system_id":"levelo_inurba_marseille","lat":43.29301,"lon":5.37443,"is_reserved":false,"is_disabled":false,"rental_uris":{"android":"levelo://app?vid=85f0faa7-a071-4822-aa17-eec7e9d960df","ios":"levelo://app?vid=85f0faa7-a071-4822-aa17-eec7e9d960df"},"vehicle_type_id":"4","last_reported":1734610682,"current_range_meters":38800,"station_id":"ce4bgi12rcd13ifvqb70","pricing_plan_id":"cebpf4jnsgd1na2vs0mg"},{"bike_id":"cece21bd-76d6-4f19-b3ff-0220eec8a48b","system_id":"levelo_inurba_marseille","lat":43.29191,"lon":5.35778,"is_reserved":false,"is_disabled":false,"rental_uris":{"android":"levelo://app?vid=cece21bd-76d6-4f19-b3ff-0220eec8a48b","ios":"levelo://app?vid=cece21bd-76d6-4f19-b3ff-0220eec8a48b"},"vehicle_type_id":"4","last_reported":1734610682,"current_range_meters":37600,"station_id":"ce4bhb12rcd13ifvqel0","pricing_plan_id":"cebpf4jnsgd1na2vs0mg"},{"bike_id":"bee6ad41-71c0-4070-bc7e-6d7a9dcb70ba","system_id":"levelo_inurba_marseille","lat":43.26549,"lon":5.37294,"is_reserved":false,"is_disabled":false,"rental_uris":{"android":"levelo://app?vid=bee6ad41-71c0-4070-bc7e-6d7a9dcb70ba","ios":"levelo://app?vid=bee6ad41-71c0-4070-bc7e-6d7a9dcb70ba"},"vehicle_type_id":"4","last_reported":1734610682,"current_range_meters":35600,"station_id":"ce4bhg12rcd13ifvqf70","pricing_plan_id":"cebpf4jnsgd1na2vs0mg"},{"bike_id":"771e3a6e-0b87-4cc2-a1a5-bfc9a8a61679","system_id":"levelo_inurba_marseille","lat":43.29843,"lon":5.36273,"is_reserved":false,"is_disabled":false,"rental_uris":{"android":"levelo://app?vid=771e3a6e-0b87-4cc2-a1a5-bfc9a8a61679","ios":"levelo://app?vid=771e3a6e-0b87-4cc2-a1a5-bfc9a8a61679"},"vehicle_type_id":"4","last_reported":1734610682,"current_range_meters":32400,"station_id":"ce4bgpp2rcd13ifvqc3g","pricing_plan_id":"cebpf4jnsgd1na2vs0mg"},{"bike_id":"b042baac-48e3-41d4-beca-2c2cc4a183f1","system_id":"levelo_inurba_marseille","lat":43.23195,"lon":5.35543,"is_reserved":false,"is_disabled":false,"rental_uris":{"android":"levelo://app?vid=b042baac-48e3-41d4-beca-2c2cc4a183f1","ios":"levelo://app?vid=b042baac-48e3-41d4-beca-2c2cc4a183f1"},"vehicle_type_id":"4","last_reported":1734610682,"current_range_meters":20400,"station_id":"ce4bhu92rcd13ifvqi70","pricing_plan_id":"cebpf4jnsgd1na2vs0mg"},{"bike_id":"714b968a-6ecb-4bfa-a210-b7fbcf0c5de1","system_id":"levelo_inurba_marseille","lat":43.29981,"lon":5.37204,"is_reserved":false,"is_disabled":true,"rental_uris":{"android":"levelo://app?vid=714b968a-6ecb-4bfa-a210-b7fbcf0c5de1","ios":"levelo://app?vid=714b968a-6ecb-4bfa-a210-b7fbcf0c5de1"},"vehicle_type_id":"4","last_reported":1734610682,"current_range_meters":38800,"station_id":"ce4bgr92rcd13ifvqc7g","pricing_plan_id":"cebpf4jnsgd1na2vs0mg"},{"bike_id":"69d9cd6b-85b7-47eb-897d-1baccdcbdfe6","system_id":"levelo_inurba_marseille","lat":43.29534,"lon":5.37505,"is_reserved":false,"is_disabled":false,"rental_uris":{"android":"levelo://app?vid=69d9cd6b-85b7-47eb-897d-1baccdcbdfe6","ios":"levelo://app?vid=69d9cd6b-85b7-47eb-897d-1baccdcbdfe6"},"vehicle_type_id":"4","last_reported":1734610682,"current_range_meters":29600,"station_id":"","pricing_plan_id":"cebpf4jnsgd1na2vs0mg"},{"bike_id":"d8f5e76e-f9f7-4677-b4d2-89d449c9f02e","system_id":"levelo_inurba_marseille","lat":43.29879,"lon":5.43632,"is_reserved":false,"is_disabled":false,"rental_uris":{"android":"levelo://app?vid=d8f5e76e-f9f7-4677-b4d2-89d449c9f02e","ios":"levelo://app?vid=d8f5e76e-f9f7-4677-b4d2-89d449c9f02e"},"vehicle_type_id":"4","last_reported":1734610682,"current_range_meters":14000,"station_id":"ce4bhpp2rcd13ifvqhfg","pricing_plan_id":"cebpf4jnsgd1na2vs0mg"},{"bike_id":"ea1ee0a0-f240-4d25-84d9-e6fb6fc7a18c","system_id":"levelo_inurba_marseille","lat":43.33776,"lon":5.42097,"is_reserved":false,"is_disabled":true,"rental_uris":{"android":"levelo://app?vid=ea1ee0a0-f240-4d25-84d9-e6fb6fc7a18c","ios":"levelo://app?vid=ea1ee0a0-f240-4d25-84d9-e6fb6fc7a18c"},"vehicle_type_id":"4","last_reported":1734610682,"current_range_meters":0,"station_id":"","pricing_plan_id":"cebpf4jnsgd1na2vs0mg"},{"bike_id":"d12a911a-6539-4bf1-8790-26cf17b56281","system_id":"levelo_inurba_marseille","lat":43.28703,"lon":5.37927,"is_reserved":false,"is_disabled":false,"rental_uris":{"android":"levelo://app?vid=d12a911a-6539-4bf1-8790-26cf17b56281","ios":"levelo://app?vid=d12a911a-6539-4bf1-8790-26cf17b56281"},"vehicle_type_id":"4","last_reported":1734610682,"current_range_meters":32400,"station_id":"ce4bh9p2rcd13ifvqec0","pricing_plan_id":"cebpf4jnsgd1na2vs0mg"},{"bike_id":"289c725e-dd42-4fa3-b633-9242475cd76d","system_id":"levelo_inurba_marseille","lat":43.29435,"lon":5.39773,"is_reserved":false,"is_disabled":false,"rental_uris":{"android":"levelo://app?vid=289c725e-dd42-4fa3-b633-9242475cd76d","ios":"levelo://app?vid=289c725e-dd42-4fa3-b633-9242475cd76d"},"vehicle_type_id":"4","last_reported":1734610682,"current_range_meters":20400,"station_id":"ce4bh3h2rcd13ifvqdo0","pricing_plan_id":"cebpf4jnsgd1na2vs0mg"},{"bike_id":"ae5c4122-aab5-4827-9724-5c9bea13c730","system_id":"levelo_inurba_marseille","lat":43.29979,"lon":5.38496,"is_reserved":false,"is_disabled":false,"rental_uris":{"android":"levelo://app?vid=ae5c4122-aab5-4827-9724-5c9bea13c730","ios":"levelo://app?vid=ae5c4122-aab5-4827-9724-5c9bea13c730"},"vehicle_type_id":"4","last_reported":1734610682,"current_range_meters":17600,"station_id":"ce4bgj92rcd13ifvqbd0","pricing_plan_id":"cebpf4jnsgd1na2vs0mg"},{"bike_id":"611408f5-e1ff-42a0-9838-fbf241b9929f","system_id":"levelo_inurba_marseille","lat":43.31358,"lon":5.396,"is_reserved":false,"is_disabled":false,"rental_uris":{"android":"levelo://app?vid=611408f5-e1ff-42a0-9838-fbf241b9929f","ios":"levelo://app?vid=611408f5-e1ff-42a0-9838-fbf241b9929f"},"vehicle_type_id":"4","last_reported":1734610682,"current_range_meters":24800,"station_id":"","pricing_plan_id":"cebpf4jnsgd1na2vs0mg"},{"bike_id":"9900f6e3-50cc-4797-afb8-42c1cb0713f3","system_id":"levelo_inurba_marseille","lat":43.28407,"lon":5.37518,"is_reserved":false,"is_disabled":true,"rental_uris":{"android":"levelo://app?vid=9900f6e3-50cc-4797-afb8-42c1cb0713f3","ios":"levelo://app?vid=9900f6e3-50cc-4797-afb8-42c1cb0713f3"},"vehicle_type_id":"4","last_reported":1734610682,"current_range_meters":0,"station_id":"ce4bh412rcd13ifvqds0","pricing_plan_id":"cebpf4jnsgd1na2vs0mg"},{"bike_id":"77592e58-7330-482c-98aa-1362dec7556c","system_id":"levelo_inurba_marseille","lat":43.30527,"lon":5.36546,"is_reserved":false,"is_disabled":false,"rental_uris":{"android":"levelo://app?vid=77592e58-7330-482c-98aa-1362dec7556c","ios":"levelo://app?vid=77592e58-7330-482c-98aa-1362dec7556c"},"vehicle_type_id":"4","last_reported":1734610682,"current_range_meters":39200,"station_id":"ce4bgs12rcd13ifvqcag","pricing_plan_id":"cebpf4jnsgd1na2vs0mg"},{"bike_id":"22024d05-966d-4f39-b3a5-5cbeb77e7464","system_id":"levelo_inurba_marseille","lat":43.28494,"lon":5.38533,"is_reserved":false,"is_disabled":false,"rental_uris":{"android":"levelo://app?vid=22024d05-966d-4f39-b3a5-5cbeb77e7464","ios":"levelo://app?vid=22024d05-966d-4f39-b3a5-5cbeb77e7464"},"vehicle_type_id":"4","last_reported":1734610682,"current_range_meters":8000,"station_id":"ce4bh8p2rcd13ifvqeb0","pricing_plan_id":"cebpf4jnsgd1na2vs0mg"},{"bike_id":"8cd6cfc8-d894-4850-bf59-7eb31e603e98","system_id":"levelo_inurba_marseille","lat":43.30538,"lon":5.36551,"is_reserved":false,"is_disabled":false,"rental_uris":{"android":"levelo://app?vid=8cd6cfc8-d894-4850-bf59-7eb31e603e98","ios":"levelo://app?vid=8cd6cfc8-d894-4850-bf59-7eb31e603e98"},"vehicle_type_id":"4","last_reported":1734610682,"current_range_meters":28400,"station_id":"ce4bgs12rcd13ifvqcag","pricing_plan_id":"cebpf4jnsgd1na2vs0mg"},{"bike_id":"63cff5eb-1415-48a9-b127-707db35946f5","system_id":"levelo_inurba_marseille","lat":43.27822,"lon":5.39207,"is_reserved":false,"is_disabled":true,"rental_uris":{"android":"levelo://app?vid=63cff5eb-1415-48a9-b127-707db35946f5","ios":"levelo://app?vid=63cff5eb-1415-48a9-b127-707db35946f5"},"vehicle_type_id":"4","last_reported":1734610682,"current_range_meters":800,"station_id":"ce4bhjp2rcd13ifvqga0","pricing_plan_id":"cebpf4jnsgd1na2vs0mg"},{"bike_id":"04160c74-0c14-43dc-a1ea-014ddd2d56b6","system_id":"levelo_inurba_marseille","lat":43.295553,"lon":5.422908,"is_reserved":false,"is_disabled":false,"rental_uris":{"android":"levelo://app?vid=04160c74-0c14-43dc-a1ea-014ddd2d56b6","ios":"levelo://app?vid=04160c74-0c14-43dc-a1ea-014ddd2d56b6"},"vehicle_type_id":"4","last_reported":1734610682,"current_range_meters":30400,"station_id":"ce4bhph2rcd13ifvqhdg","pricing_plan_id":"cebpf4jnsgd1na2vs0mg"},{"bike_id":"06b03a71-2c60-49ac-ae36-76d0c0c37129","system_id":"levelo_inurba_marseille","lat":43.29912,"lon":5.37477,"is_reserved":false,"is_disabled":false,"rental_uris":{"android":"levelo://app?vid=06b03a71-2c60-49ac-ae36-76d0c0c37129","ios":"levelo://app?vid=06b03a71-2c60-49ac-ae36-76d0c0c37129"},"vehicle_type_id":"4","last_reported":1734610682,"current_range_meters":26000,"station_id":"ce4bgjh2rcd13ifvqbg0","pricing_plan_id":"cebpf4jnsgd1na2vs0mg"},{"bike_id":"d628b83f-ef62-4203-9ebe-94bf937efc3c","system_id":"levelo_inurba_marseille","lat":43.2396,"lon":5.36641,"is_reserved":false,"is_disabled":false,"rental_uris":{"android":"levelo://app?vid=d628b83f-ef62-4203-9ebe-94bf937efc3c","ios":"levelo://app?vid=d628b83f-ef62-4203-9ebe-94bf937efc3c"},"vehicle_type_id":"4","last_reported":1734610682,"current_range_meters":4800,"station_id":"ce4bhi12rcd13ifvqfp0","pricing_plan_id":"cebpf4jnsgd1na2vs0mg"},{"bike_id":"71e806a8-b121-4f5b-a91d-1973653cb90c","system_id":"levelo_inurba_marseille","lat":43.31265,"lon":5.40167,"is_reserved":false,"is_disabled":false,"rental_uris":{"android":"levelo://app?vid=71e806a8-b121-4f5b-a91d-1973653cb90c","ios":"levelo://app?vid=71e806a8-b121-4f5b-a91d-1973653cb90c"},"vehicle_type_id":"4","last_reported":1734610682,"current_range_meters":38400,"station_id":"ce4bh092rcd13ifvqd30","pricing_plan_id":"cebpf4jnsgd1na2vs0mg"},{"bike_id":"0d4cf357-cd32-43d3-8971-89a7a2f06824","system_id":"levelo_inurba_marseille","lat":43.25579,"lon":5.3824,"is_reserved":false,"is_disabled":false,"rental_uris":{"android":"levelo://app?vid=0d4cf357-cd32-43d3-8971-89a7a2f06824","ios":"levelo://app?vid=0d4cf357-cd32-43d3-8971-89a7a2f06824"},"vehicle_type_id":"4","last_reported":1734610682,"current_range_meters":37600,"station_id":"ce4bhih2rcd13ifvqfs0","pricing_plan_id":"cebpf4jnsgd1na2vs0mg"},{"bike_id":"f37052cc-c232-4cf6-b8bc-daf4876342ee","system_id":"levelo_inurba_marseille","lat":43.31361,"lon":5.38487,"is_reserved":false,"is_disabled":false,"rental_uris":{"android":"levelo://app?vid=f37052cc-c232-4cf6-b8bc-daf4876342ee","ios":"levelo://app?vid=f37052cc-c232-4cf6-b8bc-daf4876342ee"},"vehicle_type_id":"4","last_reported":1734610682,"current_range_meters":31200,"station_id":"ce4bgt92rcd13ifvqcf0","pricing_plan_id":"cebpf4jnsgd1na2vs0mg"},{"bike_id":"b11dec3c-37ae-4e5f-a182-7db8571c22d2","system_id":"levelo_inurba_marseille","lat":43.29897,"lon":5.4366,"is_reserved":false,"is_disabled":false,"rental_uris":{"android":"levelo://app?vid=b11dec3c-37ae-4e5f-a182-7db8571c22d2","ios":"levelo://app?vid=b11dec3c-37ae-4e5f-a182-7db8571c22d2"},"vehicle_type_id":"4","last_reported":1734610682,"current_range_meters":36800,"station_id":"ce4bhpp2rcd13ifvqhfg","pricing_plan_id":"cebpf4jnsgd1na2vs0mg"},{"bike_id":"d4aa1161-b39f-4e04-9b26-9b7a54962176","system_id":"levelo_inurba_marseille","lat":43.27619,"lon":5.36103,"is_reserved":false,"is_disabled":true,"rental_uris":{"android":"levelo://app?vid=d4aa1161-b39f-4e04-9b26-9b7a54962176","ios":"levelo://app?vid=d4aa1161-b39f-4e04-9b26-9b7a54962176"},"vehicle_type_id":"4","last_reported":1734610682,"current_range_meters":0,"station_id":"ce4bgj92rcd13ifvqbe0","pricing_plan_id":"cebpf4jnsgd1na2vs0mg"},{"bike_id":"72492ff3-d3e5-4b81-822b-1d3357339451","system_id":"levelo_inurba_marseille","lat":43.2907,"lon":5.39918,"is_reserved":false,"is_disabled":true,"rental_uris":{"android":"levelo://app?vid=72492ff3-d3e5-4b81-822b-1d3357339451","ios":"levelo://app?vid=72492ff3-d3e5-4b81-822b-1d3357339451"},"vehicle_type_id":"4","last_reported":1734610682,"current_range_meters":36000,"station_id":"ce4bh392rcd13ifvqdm0","pricing_plan_id":"cebpf4jnsgd1na2vs0mg"},{"bike_id":"2f49bd2b-f383-400b-b119-f4f581ef8f34","system_id":"levelo_inurba_marseille","lat":43.30779,"lon":5.37665,"is_reserved":false,"is_disabled":false,"rental_uris":{"android":"levelo://app?vid=2f49bd2b-f383-400b-b119-f4f581ef8f34","ios":"levelo://app?vid=2f49bd2b-f383-400b-b119-f4f581ef8f34"},"vehicle_type_id":"4","last_reported":1734610682,"current_range_meters":39200,"station_id":"ce4bgv92rcd13ifvqcq0","pricing_plan_id":"cebpf4jnsgd1na2vs0mg"},{"bike_id":"f5e4f591-1a27-44a7-bc49-0b0a9cbaeb44","system_id":"levelo_inurba_marseille","lat":43.29787,"lon":5.38107,"is_reserved":false,"is_disabled":false,"rental_uris":{"android":"levelo://app?vid=f5e4f591-1a27-44a7-bc49-0b0a9cbaeb44","ios":"levelo://app?vid=f5e4f591-1a27-44a7-bc49-0b0a9cbaeb44"},"vehicle_type_id":"4","last_reported":1734610682,"current_range_meters":38400,"station_id":"ce4bgip2rcd13ifvqbb0","pricing_plan_id":"cebpf4jnsgd1na2vs0mg"},{"bike_id":"551704b5-8798-4672-95f2-ffc698f4a50e","system_id":"levelo_inurba_marseille","lat":43.29523,"lon":5.37508,"is_reserved":false,"is_disabled":false,"rental_uris":{"android":"levelo://app?vid=551704b5-8798-4672-95f2-ffc698f4a50e","ios":"levelo://app?vid=551704b5-8798-4672-95f2-ffc698f4a50e"},"vehicle_type_id":"4","last_reported":1734610682,"current_range_meters":4800,"station_id":"ce4bgkp2rcd13ifvqbmg","pricing_plan_id":"cebpf4jnsgd1na2vs0mg"},{"bike_id":"11279ee7-29a0-485d-88ca-34d560f11dda","system_id":"levelo_inurba_marseille","lat":43.28145,"lon":5.42656,"is_reserved":false,"is_disabled":false,"rental_uris":{"android":"levelo://app?vid=11279ee7-29a0-485d-88ca-34d560f11dda","ios":"levelo://app?vid=11279ee7-29a0-485d-88ca-34d560f11dda"},"vehicle_type_id":"4","last_reported":1734610682,"current_range_meters":8400,"station_id":"ce4bhnh2rcd13ifvqgug","pricing_plan_id":"cebpf4jnsgd1na2vs0mg"},{"bike_id":"8817d0d5-9eca-431a-a655-80bc815ceaa5","system_id":"levelo_inurba_marseille","lat":43.29557,"lon":5.37539,"is_reserved":false,"is_disabled":false,"rental_uris":{"android":"levelo://app?vid=8817d0d5-9eca-431a-a655-80bc815ceaa5","ios":"levelo://app?vid=8817d0d5-9eca-431a-a655-80bc815ceaa5"},"vehicle_type_id":"4","last_reported":1734610682,"current_range_meters":38800,"station_id":"ce4bgh92rcd13ifvqb50","pricing_plan_id":"cebpf4jnsgd1na2vs0mg"},{"bike_id":"92dbe881-4d12-4807-9474-87af83394dc5","system_id":"levelo_inurba_marseille","lat":43.31351,"lon":5.36703,"is_reserved":false,"is_disabled":false,"rental_uris":{"android":"levelo://app?vid=92dbe881-4d12-4807-9474-87af83394dc5","ios":"levelo://app?vid=92dbe881-4d12-4807-9474-87af83394dc5"},"vehicle_type_id":"4","last_reported":1734610682,"current_range_meters":34000,"station_id":"ce4bgr92rcd13ifvqc6g","pricing_plan_id":"cebpf4jnsgd1na2vs0mg"},{"bike_id":"78471806-92f3-4670-9c4a-cbf55d75e3f8","system_id":"levelo_inurba_marseille","lat":43.32478,"lon":5.36569,"is_reserved":false,"is_disabled":false,"rental_uris":{"android":"levelo://app?vid=78471806-92f3-4670-9c4a-cbf55d75e3f8","ios":"levelo://app?vid=78471806-92f3-4670-9c4a-cbf55d75e3f8"},"vehicle_type_id":"4","last_reported":1734610682,"current_range_meters":38800,"station_id":"ce4bhs12rcd13ifvqhvg","pricing_plan_id":"cebpf4jnsgd1na2vs0mg"},{"bike_id":"795a70ae-fc41-4b7f-ba8d-d51e965a9012","system_id":"levelo_inurba_marseille","lat":43.29599,"lon":5.38096,"is_reserved":false,"is_disabled":false,"rental_uris":{"android":"levelo://app?vid=795a70ae-fc41-4b7f-ba8d-d51e965a9012","ios":"levelo://app?vid=795a70ae-fc41-4b7f-ba8d-d51e965a9012"},"vehicle_type_id":"4","last_reported":1734610682,"current_range_meters":19200,"station_id":"ce4bgl12rcd13ifvqbo0","pricing_plan_id":"cebpf4jnsgd1na2vs0mg"},{"bike_id":"2bbc7d10-3954-4134-8bbc-e39263d18ca1","system_id":"levelo_inurba_marseille","lat":43.27425,"lon":5.39421,"is_reserved":false,"is_disabled":false,"rental_uris":{"android":"levelo://app?vid=2bbc7d10-3954-4134-8bbc-e39263d18ca1","ios":"levelo://app?vid=2bbc7d10-3954-4134-8bbc-e39263d18ca1"},"vehicle_type_id":"4","last_reported":1734610682,"current_range_meters":9600,"station_id":"ce4bhdp2rcd13ifvqf20","pricing_plan_id":"cebpf4jnsgd1na2vs0mg"},{"bike_id":"370b1eb6-4f45-4760-84c5-106172693f5d","system_id":"levelo_inurba_marseille","lat":43.23962,"lon":5.3663,"is_reserved":false,"is_disabled":false,"rental_uris":{"android":"levelo://app?vid=370b1eb6-4f45-4760-84c5-106172693f5d","ios":"levelo://app?vid=370b1eb6-4f45-4760-84c5-106172693f5d"},"vehicle_type_id":"4","last_reported":1734610682,"current_range_meters":28000,"station_id":"ce4bhi12rcd13ifvqfp0","pricing_plan_id":"cebpf4jnsgd1na2vs0mg"},{"bike_id":"3e1d0fc6-d668-4df4-9650-63e151d1989a","system_id":"levelo_inurba_marseille","lat":43.33602,"lon":5.41048,"is_reserved":false,"is_disabled":false,"rental_uris":{"android":"levelo://app?vid=3e1d0fc6-d668-4df4-9650-63e151d1989a","ios":"levelo://app?vid=3e1d0fc6-d668-4df4-9650-63e151d1989a"},"vehicle_type_id":"4","last_reported":1734610682,"current_range_meters":22000,"station_id":"ce4bhqh2rcd13ifvqhmg","pricing_plan_id":"cebpf4jnsgd1na2vs0mg"},{"bike_id":"782bcbf2-b7de-4b04-bebc-aaa0329dd90c","system_id":"levelo_inurba_marseille","lat":43.23192,"lon":5.35562,"is_reserved":false,"is_disabled":false,"rental_uris":{"android":"levelo://app?vid=782bcbf2-b7de-4b04-bebc-aaa0329dd90c","ios":"levelo://app?vid=782bcbf2-b7de-4b04-bebc-aaa0329dd90c"},"vehicle_type_id":"4","last_reported":1734610682,"current_range_meters":38800,"station_id":"ce4bhu92rcd13ifvqi70","pricing_plan_id":"cebpf4jnsgd1na2vs0mg"},{"bike_id":"f5b051f4-e217-4e3b-843c-052a74518124","system_id":"levelo_inurba_marseille","lat":43.29917,"lon":5.37467,"is_reserved":false,"is_disabled":false,"rental_uris":{"android":"levelo://app?vid=f5b051f4-e217-4e3b-843c-052a74518124","ios":"levelo://app?vid=f5b051f4-e217-4e3b-843c-052a74518124"},"vehicle_type_id":"4","last_reported":1734610682,"current_range_meters":23200,"station_id":"ce4bgjh2rcd13ifvqbg0","pricing_plan_id":"cebpf4jnsgd1na2vs0mg"},{"bike_id":"96ff88dc-8cf7-4b0f-a345-fa00220da932","system_id":"levelo_inurba_marseille","lat":43.27419,"lon":5.42399,"is_reserved":false,"is_disabled":true,"rental_uris":{"android":"levelo://app?vid=96ff88dc-8cf7-4b0f-a345-fa00220da932","ios":"levelo://app?vid=96ff88dc-8cf7-4b0f-a345-fa00220da932"},"vehicle_type_id":"4","last_reported":1734610682,"current_range_meters":0,"station_id":"","pricing_plan_id":"cebpf4jnsgd1na2vs0mg"},{"bike_id":"d5c0e746-a9fa-4159-b28f-7d6a3cba6cea","system_id":"levelo_inurba_marseille","lat":43.244,"lon":5.37059,"is_reserved":false,"is_disabled":false,"rental_uris":{"android":"levelo://app?vid=d5c0e746-a9fa-4159-b28f-7d6a3cba6cea","ios":"levelo://app?vid=d5c0e746-a9fa-4159-b28f-7d6a3cba6cea"},"vehicle_type_id":"4","last_reported":1734610682,"current_range_meters":14800,"station_id":"ce4bhhh2rcd13ifvqfk0","pricing_plan_id":"cebpf4jnsgd1na2vs0mg"},{"bike_id":"ae925a06-4711-47f5-9f81-00a52a5f2f26","system_id":"levelo_inurba_marseille","lat":43.28479,"lon":5.38433,"is_reserved":false,"is_disabled":true,"rental_uris":{"android":"levelo://app?vid=ae925a06-4711-47f5-9f81-00a52a5f2f26","ios":"levelo://app?vid=ae925a06-4711-47f5-9f81-00a52a5f2f26"},"vehicle_type_id":"4","last_reported":1734610682,"current_range_meters":1200,"station_id":"ce4bh512rcd13ifvqe3g","pricing_plan_id":"cebpf4jnsgd1na2vs0mg"},{"bike_id":"d3cbdaf1-13ec-4077-9ff5-7a5da76596c1","system_id":"levelo_inurba_marseille","lat":43.337444,"lon":5.374475,"is_reserved":false,"is_disabled":false,"rental_uris":{"android":"levelo://app?vid=d3cbdaf1-13ec-4077-9ff5-7a5da76596c1","ios":"levelo://app?vid=d3cbdaf1-13ec-4077-9ff5-7a5da76596c1"},"vehicle_type_id":"4","last_reported":1734610682,"current_range_meters":37600,"station_id":"","pricing_plan_id":"cebpf4jnsgd1na2vs0mg"},{"bike_id":"f6a0097d-208c-4ed5-9b7e-280c6a0f27f2","system_id":"levelo_inurba_marseille","lat":43.31272,"lon":5.40171,"is_reserved":false,"is_disabled":false,"rental_uris":{"android":"levelo://app?vid=f6a0097d-208c-4ed5-9b7e-280c6a0f27f2","ios":"levelo://app?vid=f6a0097d-208c-4ed5-9b7e-280c6a0f27f2"},"vehicle_type_id":"4","last_reported":1734610682,"current_range_meters":8400,"station_id":"ce4bh092rcd13ifvqd30","pricing_plan_id":"cebpf4jnsgd1na2vs0mg"},{"bike_id":"a2a605c8-f45e-4ab0-8cb5-731c77c85b78","system_id":"levelo_inurba_marseille","lat":43.27919,"lon":5.39585,"is_reserved":false,"is_disabled":false,"rental_uris":{"android":"levelo://app?vid=a2a605c8-f45e-4ab0-8cb5-731c77c85b78","ios":"levelo://app?vid=a2a605c8-f45e-4ab0-8cb5-731c77c85b78"},"vehicle_type_id":"4","last_reported":1734610682,"current_range_meters":24400,"station_id":"ce4bhf92rcd13ifvqf40","pricing_plan_id":"cebpf4jnsgd1na2vs0mg"},{"bike_id":"65332c14-8f41-4f1a-b711-08ad210242f2","system_id":"levelo_inurba_marseille","lat":43.29589,"lon":5.38104,"is_reserved":false,"is_disabled":false,"rental_uris":{"android":"levelo://app?vid=65332c14-8f41-4f1a-b711-08ad210242f2","ios":"levelo://app?vid=65332c14-8f41-4f1a-b711-08ad210242f2"},"vehicle_type_id":"4","last_reported":1734610682,"current_range_meters":36400,"station_id":"ce4bgl12rcd13ifvqbo0","pricing_plan_id":"cebpf4jnsgd1na2vs0mg"},{"bike_id":"e0c58e14-0fb2-48ae-ada1-f5faae476746","system_id":"levelo_inurba_marseille","lat":43.29292,"lon":5.3745,"is_reserved":false,"is_disabled":false,"rental_uris":{"android":"levelo://app?vid=e0c58e14-0fb2-48ae-ada1-f5faae476746","ios":"levelo://app?vid=e0c58e14-0fb2-48ae-ada1-f5faae476746"},"vehicle_type_id":"4","last_reported":1734610682,"current_range_meters":38800,"station_id":"ce4bgi12rcd13ifvqb70","pricing_plan_id":"cebpf4jnsgd1na2vs0mg"},{"bike_id":"dabc11e5-2a8c-408a-bea8-b9245b335168","system_id":"levelo_inurba_marseille","lat":43.24062,"lon":5.37748,"is_reserved":false,"is_disabled":true,"rental_uris":{"android":"levelo://app?vid=dabc11e5-2a8c-408a-bea8-b9245b335168","ios":"levelo://app?vid=dabc11e5-2a8c-408a-bea8-b9245b335168"},"vehicle_type_id":"4","last_reported":1734610682,"current_range_meters":0,"station_id":"ce4bhnp2rcd13ifvqgvg","pricing_plan_id":"cebpf4jnsgd1na2vs0mg"},{"bike_id":"e4abd70d-a829-459f-b974-e058d7a95bac","system_id":"levelo_inurba_marseille","lat":43.33022,"lon":5.39037,"is_reserved":false,"is_disabled":false,"rental_uris":{"android":"levelo://app?vid=e4abd70d-a829-459f-b974-e058d7a95bac","ios":"levelo://app?vid=e4abd70d-a829-459f-b974-e058d7a95bac"},"vehicle_type_id":"4","last_reported":1734610682,"current_range_meters":4800,"station_id":"ce4bhr92rcd13ifvqhrg","pricing_plan_id":"cebpf4jnsgd1na2vs0mg"},{"bike_id":"d13f7cfd-aee1-4e81-ada7-11e1cdeabe60","system_id":"levelo_inurba_marseille","lat":43.3108,"lon":5.42431,"is_reserved":false,"is_disabled":false,"rental_uris":{"android":"levelo://app?vid=d13f7cfd-aee1-4e81-ada7-11e1cdeabe60","ios":"levelo://app?vid=d13f7cfd-aee1-4e81-ada7-11e1cdeabe60"},"vehicle_type_id":"4","last_reported":1734610682,"current_range_meters":38000,"station_id":"ce4bhp92rcd13ifvqhag","pricing_plan_id":"cebpf4jnsgd1na2vs0mg"},{"bike_id":"44127e4e-8e84-4a38-89f7-8f4efb63f7a5","system_id":"levelo_inurba_marseille","lat":43.31198,"lon":5.36778,"is_reserved":false,"is_disabled":true,"rental_uris":{"android":"levelo://app?vid=44127e4e-8e84-4a38-89f7-8f4efb63f7a5","ios":"levelo://app?vid=44127e4e-8e84-4a38-89f7-8f4efb63f7a5"},"vehicle_type_id":"4","last_reported":1734610682,"current_range_meters":1200,"station_id":"","pricing_plan_id":"cebpf4jnsgd1na2vs0mg"},{"bike_id":"f1856f75-e444-483a-ae81-4b55212a6e52","system_id":"levelo_inurba_marseille","lat":43.27054,"lon":5.40263,"is_reserved":false,"is_disabled":false,"rental_uris":{"android":"levelo://app?vid=f1856f75-e444-483a-ae81-4b55212a6e52","ios":"levelo://app?vid=f1856f75-e444-483a-ae81-4b55212a6e52"},"vehicle_type_id":"4","last_reported":1734610682,"current_range_meters":29600,"station_id":"ce4bhk92rcd13ifvqgc0","pricing_plan_id":"cebpf4jnsgd1na2vs0mg"},{"bike_id":"7479d725-59cb-48cf-a084-1b11e8db4e0c","system_id":"levelo_inurba_marseille","lat":43.28152,"lon":5.42646,"is_reserved":false,"is_disabled":false,"rental_uris":{"android":"levelo://app?vid=7479d725-59cb-48cf-a084-1b11e8db4e0c","ios":"levelo://app?vid=7479d725-59cb-48cf-a084-1b11e8db4e0c"},"vehicle_type_id":"4","last_reported":1734610682,"current_range_meters":33200,"station_id":"ce4bhnh2rcd13ifvqgug","pricing_plan_id":"cebpf4jnsgd1na2vs0mg"},{"bike_id":"6754465b-8ec1-4291-a363-dc0c75d1552e","system_id":"levelo_inurba_marseille","lat":43.24398,"lon":5.37069,"is_reserved":false,"is_disabled":false,"rental_uris":{"android":"levelo://app?vid=6754465b-8ec1-4291-a363-dc0c75d1552e","ios":"levelo://app?vid=6754465b-8ec1-4291-a363-dc0c75d1552e"},"vehicle_type_id":"4","last_reported":1734610682,"current_range_meters":35600,"station_id":"ce4bhhh2rcd13ifvqfk0","pricing_plan_id":"cebpf4jnsgd1na2vs0mg"},{"bike_id":"4d4af739-8097-4cfe-8e51-be11f91f941f","system_id":"levelo_inurba_marseille","lat":43.3054,"lon":5.36548,"is_reserved":false,"is_disabled":false,"rental_uris":{"android":"levelo://app?vid=4d4af739-8097-4cfe-8e51-be11f91f941f","ios":"levelo://app?vid=4d4af739-8097-4cfe-8e51-be11f91f941f"},"vehicle_type_id":"4","last_reported":1734610682,"current_range_meters":26800,"station_id":"ce4bgs12rcd13ifvqcag","pricing_plan_id":"cebpf4jnsgd1na2vs0mg"},{"bike_id":"b0cc90db-8bfe-4345-bba1-d43b064d4d18","system_id":"levelo_inurba_marseille","lat":43.29531,"lon":5.38538,"is_reserved":false,"is_disabled":false,"rental_uris":{"android":"levelo://app?vid=b0cc90db-8bfe-4345-bba1-d43b064d4d18","ios":"levelo://app?vid=b0cc90db-8bfe-4345-bba1-d43b064d4d18"},"vehicle_type_id":"4","last_reported":1734610682,"current_range_meters":14000,"station_id":"ce4bgih2rcd13ifvqba0","pricing_plan_id":"cebpf4jnsgd1na2vs0mg"},{"bike_id":"ee39a4ff-b614-4dd2-956c-b384f0742800","system_id":"levelo_inurba_marseille","lat":43.32485,"lon":5.36567,"is_reserved":false,"is_disabled":false,"rental_uris":{"android":"levelo://app?vid=ee39a4ff-b614-4dd2-956c-b384f0742800","ios":"levelo://app?vid=ee39a4ff-b614-4dd2-956c-b384f0742800"},"vehicle_type_id":"4","last_reported":1734610682,"current_range_meters":30800,"station_id":"ce4bhs12rcd13ifvqhvg","pricing_plan_id":"cebpf4jnsgd1na2vs0mg"},{"bike_id":"f60dd430-cd5c-4b35-89af-0ecf9dd5de02","system_id":"levelo_inurba_marseille","lat":43.29974,"lon":5.3718,"is_reserved":false,"is_disabled":false,"rental_uris":{"android":"levelo://app?vid=f60dd430-cd5c-4b35-89af-0ecf9dd5de02","ios":"levelo://app?vid=f60dd430-cd5c-4b35-89af-0ecf9dd5de02"},"vehicle_type_id":"4","last_reported":1734610682,"current_range_meters":10800,"station_id":"ce4bgr92rcd13ifvqc7g","pricing_plan_id":"cebpf4jnsgd1na2vs0mg"},{"bike_id":"b3bec2b2-1f55-4aa9-bf02-40acba001163","system_id":"levelo_inurba_marseille","lat":43.29847,"lon":5.36274,"is_reserved":false,"is_disabled":false,"rental_uris":{"android":"levelo://app?vid=b3bec2b2-1f55-4aa9-bf02-40acba001163","ios":"levelo://app?vid=b3bec2b2-1f55-4aa9-bf02-40acba001163"},"vehicle_type_id":"4","last_reported":1734610682,"current_range_meters":39200,"station_id":"ce4bgpp2rcd13ifvqc3g","pricing_plan_id":"cebpf4jnsgd1na2vs0mg"},{"bike_id":"e9606422-c23d-4f08-b73c-b815fa90e5f8","system_id":"levelo_inurba_marseille","lat":43.32489,"lon":5.36568,"is_reserved":false,"is_disabled":false,"rental_uris":{"android":"levelo://app?vid=e9606422-c23d-4f08-b73c-b815fa90e5f8","ios":"levelo://app?vid=e9606422-c23d-4f08-b73c-b815fa90e5f8"},"vehicle_type_id":"4","last_reported":1734610682,"current_range_meters":24400,"station_id":"ce4bhs12rcd13ifvqhvg","pricing_plan_id":"cebpf4jnsgd1na2vs0mg"},{"bike_id":"0855ccf4-c4bf-4e2d-91fe-d844493d18ce","system_id":"levelo_inurba_marseille","lat":43.27995,"lon":5.40014,"is_reserved":false,"is_disabled":false,"rental_uris":{"android":"levelo://app?vid=0855ccf4-c4bf-4e2d-91fe-d844493d18ce","ios":"levelo://app?vid=0855ccf4-c4bf-4e2d-91fe-d844493d18ce"},"vehicle_type_id":"4","last_reported":1734610682,"current_range_meters":26000,"station_id":"ce4bho92rcd13ifvqh4g","pricing_plan_id":"cebpf4jnsgd1na2vs0mg"},{"bike_id":"df6cd6bf-11c7-4e4d-b19e-d38fb59641a5","system_id":"levelo_inurba_marseille","lat":43.3053,"lon":5.3654,"is_reserved":false,"is_disabled":false,"rental_uris":{"android":"levelo://app?vid=df6cd6bf-11c7-4e4d-b19e-d38fb59641a5","ios":"levelo://app?vid=df6cd6bf-11c7-4e4d-b19e-d38fb59641a5"},"vehicle_type_id":"4","last_reported":1734610682,"current_range_meters":32000,"station_id":"ce4bgs12rcd13ifvqcag","pricing_plan_id":"cebpf4jnsgd1na2vs0mg"},{"bike_id":"e0c2eddf-4ba9-4754-b0b5-efd80badee74","system_id":"levelo_inurba_marseille","lat":43.25867,"lon":5.39445,"is_reserved":false,"is_disabled":true,"rental_uris":{"android":"levelo://app?vid=e0c2eddf-4ba9-4754-b0b5-efd80badee74","ios":"levelo://app?vid=e0c2eddf-4ba9-4754-b0b5-efd80badee74"},"vehicle_type_id":"4","last_reported":1734610682,"current_range_meters":0,"station_id":"","pricing_plan_id":"cebpf4jnsgd1na2vs0mg"},{"bike_id":"171d375c-18ea-47b4-9afc-7b2025b0138d","system_id":"levelo_inurba_marseille","lat":43.27949,"lon":5.41062,"is_reserved":false,"is_disabled":true,"rental_uris":{"android":"levelo://app?vid=171d375c-18ea-47b4-9afc-7b2025b0138d","ios":"levelo://app?vid=171d375c-18ea-47b4-9afc-7b2025b0138d"},"vehicle_type_id":"4","last_reported":1734610682,"current_range_meters":38400,"station_id":"ce4bhnp2rcd13ifvqh0g","pricing_plan_id":"cebpf4jnsgd1na2vs0mg"},{"bike_id":"f3694827-c315-43e2-938b-cca3c1df79cd","system_id":"levelo_inurba_marseille","lat":43.29367,"lon":5.37838,"is_reserved":false,"is_disabled":false,"rental_uris":{"android":"levelo://app?vid=f3694827-c315-43e2-938b-cca3c1df79cd","ios":"levelo://app?vid=f3694827-c315-43e2-938b-cca3c1df79cd"},"vehicle_type_id":"4","last_reported":1734610682,"current_range_meters":8400,"station_id":"ce4bgjh2rcd13ifvqbf0","pricing_plan_id":"cebpf4jnsgd1na2vs0mg"},{"bike_id":"e64ee947-f49f-4ac8-acc9-23f0de33b069","system_id":"levelo_inurba_marseille","lat":43.25827,"lon":5.39437,"is_reserved":false,"is_disabled":false,"rental_uris":{"android":"levelo://app?vid=e64ee947-f49f-4ac8-acc9-23f0de33b069","ios":"levelo://app?vid=e64ee947-f49f-4ac8-acc9-23f0de33b069"},"vehicle_type_id":"4","last_reported":1734610682,"current_range_meters":12400,"station_id":"ce4bhip2rcd13ifvqft0","pricing_plan_id":"cebpf4jnsgd1na2vs0mg"},{"bike_id":"a9245533-f318-4538-96ed-56ac3554f58c","system_id":"levelo_inurba_marseille","lat":43.3053,"lon":5.36694,"is_reserved":false,"is_disabled":false,"rental_uris":{"android":"levelo://app?vid=a9245533-f318-4538-96ed-56ac3554f58c","ios":"levelo://app?vid=a9245533-f318-4538-96ed-56ac3554f58c"},"vehicle_type_id":"4","last_reported":1734610682,"current_range_meters":14800,"station_id":"ce4bgrp2rcd13ifvqc9g","pricing_plan_id":"cebpf4jnsgd1na2vs0mg"},{"bike_id":"298b8445-2c9f-45b2-ac4e-9c28b3d5da22","system_id":"levelo_inurba_marseille","lat":43.3122,"lon":5.36842,"is_reserved":false,"is_disabled":false,"rental_uris":{"android":"levelo://app?vid=298b8445-2c9f-45b2-ac4e-9c28b3d5da22","ios":"levelo://app?vid=298b8445-2c9f-45b2-ac4e-9c28b3d5da22"},"vehicle_type_id":"4","last_reported":1734610682,"current_range_meters":35200,"station_id":"ce4bgl92rcd13ifvqbq0","pricing_plan_id":"cebpf4jnsgd1na2vs0mg"},{"bike_id":"636e65e5-d3d2-4b97-abe3-a1a09202fc7a","system_id":"levelo_inurba_marseille","lat":43.295129,"lon":5.390025,"is_reserved":false,"is_disabled":false,"rental_uris":{"android":"levelo://app?vid=636e65e5-d3d2-4b97-abe3-a1a09202fc7a","ios":"levelo://app?vid=636e65e5-d3d2-4b97-abe3-a1a09202fc7a"},"vehicle_type_id":"4","last_reported":1734610682,"current_range_meters":5600,"station_id":"ce4bh3p2rcd13ifvqdp0","pricing_plan_id":"cebpf4jnsgd1na2vs0mg"},{"bike_id":"0b973181-d92e-4199-b5e4-f787e24045ff","system_id":"levelo_inurba_marseille","lat":43.31085,"lon":5.4243,"is_reserved":false,"is_disabled":false,"rental_uris":{"android":"levelo://app?vid=0b973181-d92e-4199-b5e4-f787e24045ff","ios":"levelo://app?vid=0b973181-d92e-4199-b5e4-f787e24045ff"},"vehicle_type_id":"4","last_reported":1734610682,"current_range_meters":38800,"station_id":"ce4bhp92rcd13ifvqhag","pricing_plan_id":"cebpf4jnsgd1na2vs0mg"},{"bike_id":"bb337245-7c41-4671-900b-a4d92ae562c6","system_id":"levelo_inurba_marseille","lat":43.29532,"lon":5.39022,"is_reserved":false,"is_disabled":true,"rental_uris":{"android":"levelo://app?vid=bb337245-7c41-4671-900b-a4d92ae562c6","ios":"levelo://app?vid=bb337245-7c41-4671-900b-a4d92ae562c6"},"vehicle_type_id":"4","last_reported":1734610682,"current_range_meters":0,"station_id":"ce4bh3p2rcd13ifvqdp0","pricing_plan_id":"cebpf4jnsgd1na2vs0mg"},{"bike_id":"230bd479-cac1-4ef3-966a-e2f300527d57","system_id":"levelo_inurba_marseille","lat":43.31245,"lon":5.36852,"is_reserved":false,"is_disabled":false,"rental_uris":{"android":"levelo://app?vid=230bd479-cac1-4ef3-966a-e2f300527d57","ios":"levelo://app?vid=230bd479-cac1-4ef3-966a-e2f300527d57"},"vehicle_type_id":"4","last_reported":1734610682,"current_range_meters":14800,"station_id":"ce4bgl92rcd13ifvqbq0","pricing_plan_id":"cebpf4jnsgd1na2vs0mg"},{"bike_id":"17317f2c-c2e9-4c2f-a167-5ed25c17ca64","system_id":"levelo_inurba_marseille","lat":43.293686,"lon":5.378529,"is_reserved":false,"is_disabled":false,"rental_uris":{"android":"levelo://app?vid=17317f2c-c2e9-4c2f-a167-5ed25c17ca64","ios":"levelo://app?vid=17317f2c-c2e9-4c2f-a167-5ed25c17ca64"},"vehicle_type_id":"4","last_reported":1734610682,"current_range_meters":26000,"station_id":"ce4bgjh2rcd13ifvqbf0","pricing_plan_id":"cebpf4jnsgd1na2vs0mg"},{"bike_id":"4a3adadd-0dd4-4960-ac68-e41574cc9da6","system_id":"levelo_inurba_marseille","lat":43.30501,"lon":5.36607,"is_reserved":false,"is_disabled":false,"rental_uris":{"android":"levelo://app?vid=4a3adadd-0dd4-4960-ac68-e41574cc9da6","ios":"levelo://app?vid=4a3adadd-0dd4-4960-ac68-e41574cc9da6"},"vehicle_type_id":"4","last_reported":1734610682,"current_range_meters":25600,"station_id":"","pricing_plan_id":"cebpf4jnsgd1na2vs0mg"},{"bike_id":"30cf218e-0565-4b4d-b831-6b6e7547fc40","system_id":"levelo_inurba_marseille","lat":43.26804,"lon":5.40276,"is_reserved":false,"is_disabled":true,"rental_uris":{"android":"levelo://app?vid=30cf218e-0565-4b4d-b831-6b6e7547fc40","ios":"levelo://app?vid=30cf218e-0565-4b4d-b831-6b6e7547fc40"},"vehicle_type_id":"4","last_reported":1734610682,"current_range_meters":1600,"station_id":"ce501612rcd8frsf0b60","pricing_plan_id":"cebpf4jnsgd1na2vs0mg"},{"bike_id":"1d6615fc-a572-4fc0-999b-b46e373450d8","system_id":"levelo_inurba_marseille","lat":43.26999,"lon":5.40217,"is_reserved":false,"is_disabled":false,"rental_uris":{"android":"levelo://app?vid=1d6615fc-a572-4fc0-999b-b46e373450d8","ios":"levelo://app?vid=1d6615fc-a572-4fc0-999b-b46e373450d8"},"vehicle_type_id":"4","last_reported":1734610682,"current_range_meters":38400,"station_id":"cjm6bp8fraef2m0cb0m0","pricing_plan_id":"cebpf4jnsgd1na2vs0mg"},{"bike_id":"fcfca01c-afe6-47d0-97b1-24cd38cf13c3","system_id":"levelo_inurba_marseille","lat":43.25497,"lon":5.37646,"is_reserved":false,"is_disabled":false,"rental_uris":{"android":"levelo://app?vid=fcfca01c-afe6-47d0-97b1-24cd38cf13c3","ios":"levelo://app?vid=fcfca01c-afe6-47d0-97b1-24cd38cf13c3"},"vehicle_type_id":"4","last_reported":1734610682,"current_range_meters":20400,"station_id":"ce4bhh12rcd13ifvqff0","pricing_plan_id":"cebpf4jnsgd1na2vs0mg"},{"bike_id":"566d2fc9-5399-4398-a4c0-8e3a8af2d6ce","system_id":"levelo_inurba_marseille","lat":43.27493,"lon":5.42452,"is_reserved":false,"is_disabled":false,"rental_uris":{"android":"levelo://app?vid=566d2fc9-5399-4398-a4c0-8e3a8af2d6ce","ios":"levelo://app?vid=566d2fc9-5399-4398-a4c0-8e3a8af2d6ce"},"vehicle_type_id":"4","last_reported":1734610682,"current_range_meters":3600,"station_id":"ce4bhn92rcd13ifvqgrg","pricing_plan_id":"cebpf4jnsgd1na2vs0mg"},{"bike_id":"544eaaef-8e7b-4a7a-aa8b-36b3c8e32e15","system_id":"levelo_inurba_marseille","lat":43.29051,"lon":5.3715,"is_reserved":false,"is_disabled":true,"rental_uris":{"android":"levelo://app?vid=544eaaef-8e7b-4a7a-aa8b-36b3c8e32e15","ios":"levelo://app?vid=544eaaef-8e7b-4a7a-aa8b-36b3c8e32e15"},"vehicle_type_id":"4","last_reported":1734610682,"current_range_meters":38800,"station_id":"ce4bh5p2rcd13ifvqe4g","pricing_plan_id":"cebpf4jnsgd1na2vs0mg"},{"bike_id":"5d085a93-b115-4130-b07a-fedf28dcf8ad","system_id":"levelo_inurba_marseille","lat":43.29628,"lon":5.40596,"is_reserved":false,"is_disabled":false,"rental_uris":{"android":"levelo://app?vid=5d085a93-b115-4130-b07a-fedf28dcf8ad","ios":"levelo://app?vid=5d085a93-b115-4130-b07a-fedf28dcf8ad"},"vehicle_type_id":"4","last_reported":1734610682,"current_range_meters":38800,"station_id":"ce4bh0h2rcd13ifvqd60","pricing_plan_id":"cebpf4jnsgd1na2vs0mg"},{"bike_id":"ee541765-428a-4bb1-bc90-f1a524fdccf5","system_id":"levelo_inurba_marseille","lat":43.31711,"lon":5.43696,"is_reserved":false,"is_disabled":false,"rental_uris":{"android":"levelo://app?vid=ee541765-428a-4bb1-bc90-f1a524fdccf5","ios":"levelo://app?vid=ee541765-428a-4bb1-bc90-f1a524fdccf5"},"vehicle_type_id":"4","last_reported":1734610682,"current_range_meters":38800,"station_id":"ce4bhp92rcd13ifvqhcg","pricing_plan_id":"cebpf4jnsgd1na2vs0mg"},{"bike_id":"17b2d2b0-9855-46b4-a478-0bd9c7277056","system_id":"levelo_inurba_marseille","lat":43.30915,"lon":5.37842,"is_reserved":false,"is_disabled":true,"rental_uris":{"android":"levelo://app?vid=17b2d2b0-9855-46b4-a478-0bd9c7277056","ios":"levelo://app?vid=17b2d2b0-9855-46b4-a478-0bd9c7277056"},"vehicle_type_id":"4","last_reported":1734610682,"current_range_meters":0,"station_id":"","pricing_plan_id":"cebpf4jnsgd1na2vs0mg"},{"bike_id":"7448830e-8418-4753-ac56-c801b75e9294","system_id":"levelo_inurba_marseille","lat":43.29653,"lon":5.37757,"is_reserved":false,"is_disabled":false,"rental_uris":{"android":"levelo://app?vid=7448830e-8418-4753-ac56-c801b75e9294","ios":"levelo://app?vid=7448830e-8418-4753-ac56-c801b75e9294"},"vehicle_type_id":"4","last_reported":1734610682,"current_range_meters":38800,"station_id":"ce4bgi92rcd13ifvqb90","pricing_plan_id":"cebpf4jnsgd1na2vs0mg"},{"bike_id":"43a7007a-902e-4ed7-b69c-9436489898bd","system_id":"levelo_inurba_marseille","lat":43.28568,"lon":5.39512,"is_reserved":false,"is_disabled":false,"rental_uris":{"android":"levelo://app?vid=43a7007a-902e-4ed7-b69c-9436489898bd","ios":"levelo://app?vid=43a7007a-902e-4ed7-b69c-9436489898bd"},"vehicle_type_id":"4","last_reported":1734610682,"current_range_meters":38400,"station_id":"ce4bh292rcd13ifvqdg0","pricing_plan_id":"cebpf4jnsgd1na2vs0mg"},{"bike_id":"73be0829-0cdf-4096-a970-87d18d50c523","system_id":"levelo_inurba_marseille","lat":43.29373,"lon":5.37854,"is_reserved":false,"is_disabled":false,"rental_uris":{"android":"levelo://app?vid=73be0829-0cdf-4096-a970-87d18d50c523","ios":"levelo://app?vid=73be0829-0cdf-4096-a970-87d18d50c523"},"vehicle_type_id":"4","last_reported":1734610682,"current_range_meters":36800,"station_id":"ce4bgjh2rcd13ifvqbf0","pricing_plan_id":"cebpf4jnsgd1na2vs0mg"},{"bike_id":"67e28fa1-5c05-45ba-804f-23ff1db322b7","system_id":"levelo_inurba_marseille","lat":43.29619,"lon":5.37727,"is_reserved":false,"is_disabled":false,"rental_uris":{"android":"levelo://app?vid=67e28fa1-5c05-45ba-804f-23ff1db322b7","ios":"levelo://app?vid=67e28fa1-5c05-45ba-804f-23ff1db322b7"},"vehicle_type_id":"4","last_reported":1734610682,"current_range_meters":33200,"station_id":"ce4bgi92rcd13ifvqb90","pricing_plan_id":"cebpf4jnsgd1na2vs0mg"},{"bike_id":"9f97f512-1b19-443a-b67f-86de027e5577","system_id":"levelo_inurba_marseille","lat":43.34549,"lon":5.37605,"is_reserved":false,"is_disabled":true,"rental_uris":{"android":"levelo://app?vid=9f97f512-1b19-443a-b67f-86de027e5577","ios":"levelo://app?vid=9f97f512-1b19-443a-b67f-86de027e5577"},"vehicle_type_id":"4","last_reported":1734610682,"current_range_meters":22800,"station_id":"","pricing_plan_id":"cebpf4jnsgd1na2vs0mg"},{"bike_id":"da4cc445-7208-423d-bbea-6eed42d18866","system_id":"levelo_inurba_marseille","lat":43.29375,"lon":5.37852,"is_reserved":false,"is_disabled":false,"rental_uris":{"android":"levelo://app?vid=da4cc445-7208-423d-bbea-6eed42d18866","ios":"levelo://app?vid=da4cc445-7208-423d-bbea-6eed42d18866"},"vehicle_type_id":"4","last_reported":1734610682,"current_range_meters":38800,"station_id":"ce4bgjh2rcd13ifvqbf0","pricing_plan_id":"cebpf4jnsgd1na2vs0mg"},{"bike_id":"1ea0d22b-5f69-431d-923f-d3e3d5ed886c","system_id":"levelo_inurba_marseille","lat":43.28068,"lon":5.396,"is_reserved":false,"is_disabled":false,"rental_uris":{"android":"levelo://app?vid=1ea0d22b-5f69-431d-923f-d3e3d5ed886c","ios":"levelo://app?vid=1ea0d22b-5f69-431d-923f-d3e3d5ed886c"},"vehicle_type_id":"4","last_reported":1734610682,"current_range_meters":38800,"station_id":"ce4bho12rcd13ifvqh2g","pricing_plan_id":"cebpf4jnsgd1na2vs0mg"},{"bike_id":"a3bb98ec-2be3-4ffd-80c9-b52b251b6e2a","system_id":"levelo_inurba_marseille","lat":43.29972,"lon":5.37176,"is_reserved":false,"is_disabled":false,"rental_uris":{"android":"levelo://app?vid=a3bb98ec-2be3-4ffd-80c9-b52b251b6e2a","ios":"levelo://app?vid=a3bb98ec-2be3-4ffd-80c9-b52b251b6e2a"},"vehicle_type_id":"4","last_reported":1734610682,"current_range_meters":31200,"station_id":"ce4bgr92rcd13ifvqc7g","pricing_plan_id":"cebpf4jnsgd1na2vs0mg"},{"bike_id":"8490459f-1db9-4136-ba98-42b0426b2d32","system_id":"levelo_inurba_marseille","lat":43.29535,"lon":5.37497,"is_reserved":false,"is_disabled":false,"rental_uris":{"android":"levelo://app?vid=8490459f-1db9-4136-ba98-42b0426b2d32","ios":"levelo://app?vid=8490459f-1db9-4136-ba98-42b0426b2d32"},"vehicle_type_id":"4","last_reported":1734610682,"current_range_meters":38000,"station_id":"ce4bgkp2rcd13ifvqbmg","pricing_plan_id":"cebpf4jnsgd1na2vs0mg"},{"bike_id":"43eb1024-3b5b-4817-baab-0a1232de5541","system_id":"levelo_inurba_marseille","lat":43.30543,"lon":5.36531,"is_reserved":false,"is_disabled":false,"rental_uris":{"android":"levelo://app?vid=43eb1024-3b5b-4817-baab-0a1232de5541","ios":"levelo://app?vid=43eb1024-3b5b-4817-baab-0a1232de5541"},"vehicle_type_id":"4","last_reported":1734610682,"current_range_meters":18800,"station_id":"ce4bgs12rcd13ifvqcag","pricing_plan_id":"cebpf4jnsgd1na2vs0mg"},{"bike_id":"37c87e4d-8d3a-425b-965b-b8737ad0c328","system_id":"levelo_inurba_marseille","lat":43.29621,"lon":5.37725,"is_reserved":false,"is_disabled":true,"rental_uris":{"android":"levelo://app?vid=37c87e4d-8d3a-425b-965b-b8737ad0c328","ios":"levelo://app?vid=37c87e4d-8d3a-425b-965b-b8737ad0c328"},"vehicle_type_id":"4","last_reported":1734610682,"current_range_meters":0,"station_id":"ce4bgi92rcd13ifvqb90","pricing_plan_id":"cebpf4jnsgd1na2vs0mg"},{"bike_id":"e66ecf25-0462-4a43-8f8a-e78e4b1c301e","system_id":"levelo_inurba_marseille","lat":43.30182,"lon":5.36611,"is_reserved":false,"is_disabled":false,"rental_uris":{"android":"levelo://app?vid=e66ecf25-0462-4a43-8f8a-e78e4b1c301e","ios":"levelo://app?vid=e66ecf25-0462-4a43-8f8a-e78e4b1c301e"},"vehicle_type_id":"4","last_reported":1734610682,"current_range_meters":35200,"station_id":"ce4bgrh2rcd13ifvqc8g","pricing_plan_id":"cebpf4jnsgd1na2vs0mg"},{"bike_id":"6d90c9d4-0b5c-43bf-b682-e7561e654b2c","system_id":"levelo_inurba_marseille","lat":43.29502,"lon":5.39421,"is_reserved":false,"is_disabled":true,"rental_uris":{"android":"levelo://app?vid=6d90c9d4-0b5c-43bf-b682-e7561e654b2c","ios":"levelo://app?vid=6d90c9d4-0b5c-43bf-b682-e7561e654b2c"},"vehicle_type_id":"4","last_reported":1734610682,"current_range_meters":1600,"station_id":"ce4bh292rcd13ifvqdf0","pricing_plan_id":"cebpf4jnsgd1na2vs0mg"},{"bike_id":"7470e099-131b-4163-b4cf-0fdf8e532471","system_id":"levelo_inurba_marseille","lat":43.29515,"lon":5.37518,"is_reserved":false,"is_disabled":false,"rental_uris":{"android":"levelo://app?vid=7470e099-131b-4163-b4cf-0fdf8e532471","ios":"levelo://app?vid=7470e099-131b-4163-b4cf-0fdf8e532471"},"vehicle_type_id":"4","last_reported":1734610682,"current_range_meters":17600,"station_id":"ce4bgkp2rcd13ifvqbmg","pricing_plan_id":"cebpf4jnsgd1na2vs0mg"},{"bike_id":"63ac9ec0-94d0-4b1e-8838-1ee7b4295fda","system_id":"levelo_inurba_marseille","lat":43.32076,"lon":5.36812,"is_reserved":false,"is_disabled":false,"rental_uris":{"android":"levelo://app?vid=63ac9ec0-94d0-4b1e-8838-1ee7b4295fda","ios":"levelo://app?vid=63ac9ec0-94d0-4b1e-8838-1ee7b4295fda"},"vehicle_type_id":"4","last_reported":1734610682,"current_range_meters":35600,"station_id":"ce4bhrh2rcd13ifvqhug","pricing_plan_id":"cebpf4jnsgd1na2vs0mg"},{"bike_id":"daa0937a-ca4a-44f4-a6ea-7661bcb46844","system_id":"levelo_inurba_marseille","lat":43.29368,"lon":5.37848,"is_reserved":false,"is_disabled":false,"rental_uris":{"android":"levelo://app?vid=daa0937a-ca4a-44f4-a6ea-7661bcb46844","ios":"levelo://app?vid=daa0937a-ca4a-44f4-a6ea-7661bcb46844"},"vehicle_type_id":"4","last_reported":1734610682,"current_range_meters":7200,"station_id":"ce4bgjh2rcd13ifvqbf0","pricing_plan_id":"cebpf4jnsgd1na2vs0mg"},{"bike_id":"016009ff-c5b8-4760-85e7-d9cd55f8086c","system_id":"levelo_inurba_marseille","lat":43.28412,"lon":5.34977,"is_reserved":false,"is_disabled":false,"rental_uris":{"android":"levelo://app?vid=016009ff-c5b8-4760-85e7-d9cd55f8086c","ios":"levelo://app?vid=016009ff-c5b8-4760-85e7-d9cd55f8086c"},"vehicle_type_id":"4","last_reported":1734610682,"current_range_meters":28400,"station_id":"ce4bhbh2rcd13ifvqepg","pricing_plan_id":"cebpf4jnsgd1na2vs0mg"},{"bike_id":"2a12bde8-ca1e-4ca8-8cbb-8dbf9a638106","system_id":"levelo_inurba_marseille","lat":43.23189,"lon":5.35557,"is_reserved":false,"is_disabled":false,"rental_uris":{"android":"levelo://app?vid=2a12bde8-ca1e-4ca8-8cbb-8dbf9a638106","ios":"levelo://app?vid=2a12bde8-ca1e-4ca8-8cbb-8dbf9a638106"},"vehicle_type_id":"4","last_reported":1734610682,"current_range_meters":28400,"station_id":"ce4bhu92rcd13ifvqi70","pricing_plan_id":"cebpf4jnsgd1na2vs0mg"},{"bike_id":"a68aac6d-8b27-4b2e-ad94-dffe7059be67","system_id":"levelo_inurba_marseille","lat":43.30247,"lon":5.4006,"is_reserved":false,"is_disabled":false,"rental_uris":{"android":"levelo://app?vid=a68aac6d-8b27-4b2e-ad94-dffe7059be67","ios":"levelo://app?vid=a68aac6d-8b27-4b2e-ad94-dffe7059be67"},"vehicle_type_id":"4","last_reported":1734610682,"current_range_meters":12800,"station_id":"ce4bgvh2rcd13ifvqcs0","pricing_plan_id":"cebpf4jnsgd1na2vs0mg"},{"bike_id":"53f6cf32-212c-4913-b34e-ecdcfa82e91d","system_id":"levelo_inurba_marseille","lat":43.29518,"lon":5.39412,"is_reserved":false,"is_disabled":false,"rental_uris":{"android":"levelo://app?vid=53f6cf32-212c-4913-b34e-ecdcfa82e91d","ios":"levelo://app?vid=53f6cf32-212c-4913-b34e-ecdcfa82e91d"},"vehicle_type_id":"4","last_reported":1734610682,"current_range_meters":36400,"station_id":"ce4bh292rcd13ifvqdf0","pricing_plan_id":"cebpf4jnsgd1na2vs0mg"},{"bike_id":"72b0eb04-0bef-4c06-92ca-464df8ef6ab3","system_id":"levelo_inurba_marseille","lat":43.29981,"lon":5.37192,"is_reserved":false,"is_disabled":false,"rental_uris":{"android":"levelo://app?vid=72b0eb04-0bef-4c06-92ca-464df8ef6ab3","ios":"levelo://app?vid=72b0eb04-0bef-4c06-92ca-464df8ef6ab3"},"vehicle_type_id":"4","last_reported":1734610682,"current_range_meters":39200,"station_id":"ce4bgr92rcd13ifvqc7g","pricing_plan_id":"cebpf4jnsgd1na2vs0mg"},{"bike_id":"fdeb4ccc-d850-402e-84ed-8ebecff29977","system_id":"levelo_inurba_marseille","lat":43.2972,"lon":5.37694,"is_reserved":false,"is_disabled":false,"rental_uris":{"android":"levelo://app?vid=fdeb4ccc-d850-402e-84ed-8ebecff29977","ios":"levelo://app?vid=fdeb4ccc-d850-402e-84ed-8ebecff29977"},"vehicle_type_id":"4","last_reported":1734610682,"current_range_meters":33600,"station_id":"ce4bgkh2rcd13ifvqbl0","pricing_plan_id":"cebpf4jnsgd1na2vs0mg"},{"bike_id":"b002d028-e42c-46e2-93ce-a18a7a90546e","system_id":"levelo_inurba_marseille","lat":43.32287,"lon":5.38276,"is_reserved":false,"is_disabled":false,"rental_uris":{"android":"levelo://app?vid=b002d028-e42c-46e2-93ce-a18a7a90546e","ios":"levelo://app?vid=b002d028-e42c-46e2-93ce-a18a7a90546e"},"vehicle_type_id":"4","last_reported":1734610682,"current_range_meters":3200,"station_id":"ce4bhr12rcd13ifvqhqg","pricing_plan_id":"cebpf4jnsgd1na2vs0mg"},{"bike_id":"818223ec-bb29-480f-a58a-27b69f29ab09","system_id":"levelo_inurba_marseille","lat":43.30882,"lon":5.39646,"is_reserved":false,"is_disabled":false,"rental_uris":{"android":"levelo://app?vid=818223ec-bb29-480f-a58a-27b69f29ab09","ios":"levelo://app?vid=818223ec-bb29-480f-a58a-27b69f29ab09"},"vehicle_type_id":"4","last_reported":1734610682,"current_range_meters":11200,"station_id":"ce4bh012rcd13ifvqcv0","pricing_plan_id":"cebpf4jnsgd1na2vs0mg"},{"bike_id":"0e228204-fb38-470f-9156-477a9839c956","system_id":"levelo_inurba_marseille","lat":43.27055,"lon":5.40281,"is_reserved":false,"is_disabled":false,"rental_uris":{"android":"levelo://app?vid=0e228204-fb38-470f-9156-477a9839c956","ios":"levelo://app?vid=0e228204-fb38-470f-9156-477a9839c956"},"vehicle_type_id":"4","last_reported":1734610682,"current_range_meters":38800,"station_id":"ce4bhk92rcd13ifvqgc0","pricing_plan_id":"cebpf4jnsgd1na2vs0mg"},{"bike_id":"3481ff2d-0f41-429c-8b12-56b550b4c0a0","system_id":"levelo_inurba_marseille","lat":43.26217,"lon":5.37435,"is_reserved":false,"is_disabled":false,"rental_uris":{"android":"levelo://app?vid=3481ff2d-0f41-429c-8b12-56b550b4c0a0","ios":"levelo://app?vid=3481ff2d-0f41-429c-8b12-56b550b4c0a0"},"vehicle_type_id":"4","last_reported":1734610682,"current_range_meters":38000,"station_id":"ce4bhgp2rcd13ifvqfc0","pricing_plan_id":"cebpf4jnsgd1na2vs0mg"},{"bike_id":"c682b359-6c28-487e-bbfb-3d01dafef5b6","system_id":"levelo_inurba_marseille","lat":43.31491,"lon":5.3731,"is_reserved":false,"is_disabled":false,"rental_uris":{"android":"levelo://app?vid=c682b359-6c28-487e-bbfb-3d01dafef5b6","ios":"levelo://app?vid=c682b359-6c28-487e-bbfb-3d01dafef5b6"},"vehicle_type_id":"4","last_reported":1734610682,"current_range_meters":22800,"station_id":"ce4bgt12rcd13ifvqcd0","pricing_plan_id":"cebpf4jnsgd1na2vs0mg"},{"bike_id":"052fcf53-dddd-438b-8be9-eb97032f8828","system_id":"levelo_inurba_marseille","lat":43.30882,"lon":5.39654,"is_reserved":false,"is_disabled":false,"rental_uris":{"android":"levelo://app?vid=052fcf53-dddd-438b-8be9-eb97032f8828","ios":"levelo://app?vid=052fcf53-dddd-438b-8be9-eb97032f8828"},"vehicle_type_id":"4","last_reported":1734610682,"current_range_meters":36800,"station_id":"ce4bh012rcd13ifvqcv0","pricing_plan_id":"cebpf4jnsgd1na2vs0mg"},{"bike_id":"f0f98e1e-00ea-404a-8ec2-c3d3f0edd605","system_id":"levelo_inurba_marseille","lat":43.33596,"lon":5.41027,"is_reserved":false,"is_disabled":false,"rental_uris":{"android":"levelo://app?vid=f0f98e1e-00ea-404a-8ec2-c3d3f0edd605","ios":"levelo://app?vid=f0f98e1e-00ea-404a-8ec2-c3d3f0edd605"},"vehicle_type_id":"4","last_reported":1734610682,"current_range_meters":9600,"station_id":"ce4bhqh2rcd13ifvqhmg","pricing_plan_id":"cebpf4jnsgd1na2vs0mg"},{"bike_id":"b44f9236-c33f-43b3-ab7e-0f32e9951c9e","system_id":"levelo_inurba_marseille","lat":43.2319,"lon":5.35566,"is_reserved":false,"is_disabled":false,"rental_uris":{"android":"levelo://app?vid=b44f9236-c33f-43b3-ab7e-0f32e9951c9e","ios":"levelo://app?vid=b44f9236-c33f-43b3-ab7e-0f32e9951c9e"},"vehicle_type_id":"4","last_reported":1734610682,"current_range_meters":11200,"station_id":"ce4bhu92rcd13ifvqi70","pricing_plan_id":"cebpf4jnsgd1na2vs0mg"},{"bike_id":"4620dcd9-c3a6-4871-8162-c4a28f6d33ca","system_id":"levelo_inurba_marseille","lat":43.31891,"lon":5.4073,"is_reserved":false,"is_disabled":true,"rental_uris":{"android":"levelo://app?vid=4620dcd9-c3a6-4871-8162-c4a28f6d33ca","ios":"levelo://app?vid=4620dcd9-c3a6-4871-8162-c4a28f6d33ca"},"vehicle_type_id":"4","last_reported":1734610682,"current_range_meters":9600,"station_id":"ce4bhq12rcd13ifvqhig","pricing_plan_id":"cebpf4jnsgd1na2vs0mg"},{"bike_id":"c0d2d818-b8fd-4b06-955f-7e11d862b115","system_id":"levelo_inurba_marseille","lat":43.31322,"lon":5.3969,"is_reserved":false,"is_disabled":false,"rental_uris":{"android":"levelo://app?vid=c0d2d818-b8fd-4b06-955f-7e11d862b115","ios":"levelo://app?vid=c0d2d818-b8fd-4b06-955f-7e11d862b115"},"vehicle_type_id":"4","last_reported":1734610682,"current_range_meters":38800,"station_id":"ce4bgvp2rcd13ifvqcu0","pricing_plan_id":"cebpf4jnsgd1na2vs0mg"},{"bike_id":"a8906884-1592-4559-be8b-f1e3cd20d6b1","system_id":"levelo_inurba_marseille","lat":43.2953,"lon":5.37497,"is_reserved":false,"is_disabled":false,"rental_uris":{"android":"levelo://app?vid=a8906884-1592-4559-be8b-f1e3cd20d6b1","ios":"levelo://app?vid=a8906884-1592-4559-be8b-f1e3cd20d6b1"},"vehicle_type_id":"4","last_reported":1734610682,"current_range_meters":34800,"station_id":"ce4bgkp2rcd13ifvqbmg","pricing_plan_id":"cebpf4jnsgd1na2vs0mg"},{"bike_id":"c827e74c-bfe0-464f-a6aa-7f420d99d552","system_id":"levelo_inurba_marseille","lat":43.30132,"lon":5.38772,"is_reserved":false,"is_disabled":false,"rental_uris":{"android":"levelo://app?vid=c827e74c-bfe0-464f-a6aa-7f420d99d552","ios":"levelo://app?vid=c827e74c-bfe0-464f-a6aa-7f420d99d552"},"vehicle_type_id":"4","last_reported":1734610682,"current_range_meters":14000,"station_id":"ce4bhoh2rcd13ifvqh6g","pricing_plan_id":"cebpf4jnsgd1na2vs0mg"},{"bike_id":"a6507411-9c66-4600-a27b-20c00afbcb30","system_id":"levelo_inurba_marseille","lat":43.24802,"lon":5.37452,"is_reserved":false,"is_disabled":false,"rental_uris":{"android":"levelo://app?vid=a6507411-9c66-4600-a27b-20c00afbcb30","ios":"levelo://app?vid=a6507411-9c66-4600-a27b-20c00afbcb30"},"vehicle_type_id":"4","last_reported":1734610682,"current_range_meters":38800,"station_id":"ce4bhgh2rcd13ifvqfb0","pricing_plan_id":"cebpf4jnsgd1na2vs0mg"},{"bike_id":"53586763-e6eb-40b6-bde6-7786af1effe6","system_id":"levelo_inurba_marseille","lat":43.31202,"lon":5.3677,"is_reserved":false,"is_disabled":false,"rental_uris":{"android":"levelo://app?vid=53586763-e6eb-40b6-bde6-7786af1effe6","ios":"levelo://app?vid=53586763-e6eb-40b6-bde6-7786af1effe6"},"vehicle_type_id":"4","last_reported":1734610682,"current_range_meters":23200,"station_id":"","pricing_plan_id":"cebpf4jnsgd1na2vs0mg"},{"bike_id":"c0a749b2-4020-489b-a475-491b74de7a33","system_id":"levelo_inurba_marseille","lat":43.305417,"lon":5.36536,"is_reserved":false,"is_disabled":false,"rental_uris":{"android":"levelo://app?vid=c0a749b2-4020-489b-a475-491b74de7a33","ios":"levelo://app?vid=c0a749b2-4020-489b-a475-491b74de7a33"},"vehicle_type_id":"4","last_reported":1734610682,"current_range_meters":36800,"station_id":"ce4bgs12rcd13ifvqcag","pricing_plan_id":"cebpf4jnsgd1na2vs0mg"},{"bike_id":"699be605-c3f4-4276-babe-4ba137c46c01","system_id":"levelo_inurba_marseille","lat":43.26683,"lon":5.38272,"is_reserved":false,"is_disabled":false,"rental_uris":{"android":"levelo://app?vid=699be605-c3f4-4276-babe-4ba137c46c01","ios":"levelo://app?vid=699be605-c3f4-4276-babe-4ba137c46c01"},"vehicle_type_id":"4","last_reported":1734610682,"current_range_meters":24800,"station_id":"ce4bhg92rcd13ifvqf90","pricing_plan_id":"cebpf4jnsgd1na2vs0mg"},{"bike_id":"af958579-cc4d-44df-853f-d995a1a776b5","system_id":"levelo_inurba_marseille","lat":43.29847,"lon":5.36282,"is_reserved":false,"is_disabled":false,"rental_uris":{"android":"levelo://app?vid=af958579-cc4d-44df-853f-d995a1a776b5","ios":"levelo://app?vid=af958579-cc4d-44df-853f-d995a1a776b5"},"vehicle_type_id":"4","last_reported":1734610682,"current_range_meters":25600,"station_id":"ce4bgpp2rcd13ifvqc3g","pricing_plan_id":"cebpf4jnsgd1na2vs0mg"},{"bike_id":"5d229ec1-843c-42dd-b2d5-c6bbdc4852c3","system_id":"levelo_inurba_marseille","lat":43.33603,"lon":5.4103,"is_reserved":false,"is_disabled":true,"rental_uris":{"android":"levelo://app?vid=5d229ec1-843c-42dd-b2d5-c6bbdc4852c3","ios":"levelo://app?vid=5d229ec1-843c-42dd-b2d5-c6bbdc4852c3"},"vehicle_type_id":"4","last_reported":1734610682,"current_range_meters":24800,"station_id":"ce4bhqh2rcd13ifvqhmg","pricing_plan_id":"cebpf4jnsgd1na2vs0mg"},{"bike_id":"64c5bd7b-3e97-4998-8608-3a667353960a","system_id":"levelo_inurba_marseille","lat":43.31709,"lon":5.3774,"is_reserved":false,"is_disabled":false,"rental_uris":{"android":"levelo://app?vid=64c5bd7b-3e97-4998-8608-3a667353960a","ios":"levelo://app?vid=64c5bd7b-3e97-4998-8608-3a667353960a"},"vehicle_type_id":"4","last_reported":1734610682,"current_range_meters":33200,"station_id":"ce4bgth2rcd13ifvqch0","pricing_plan_id":"cebpf4jnsgd1na2vs0mg"},{"bike_id":"d80bf4a8-fe39-46b8-a417-4559ce6bd522","system_id":"levelo_inurba_marseille","lat":43.30135,"lon":5.3742,"is_reserved":false,"is_disabled":false,"rental_uris":{"android":"levelo://app?vid=d80bf4a8-fe39-46b8-a417-4559ce6bd522","ios":"levelo://app?vid=d80bf4a8-fe39-46b8-a417-4559ce6bd522"},"vehicle_type_id":"4","last_reported":1734610682,"current_range_meters":38000,"station_id":"ce4bgs92rcd13ifvqcc0","pricing_plan_id":"cebpf4jnsgd1na2vs0mg"},{"bike_id":"43a9f18b-8b7f-4bc8-9a69-0b0408b4f3dd","system_id":"levelo_inurba_marseille","lat":43.30879,"lon":5.39645,"is_reserved":false,"is_disabled":false,"rental_uris":{"android":"levelo://app?vid=43a9f18b-8b7f-4bc8-9a69-0b0408b4f3dd","ios":"levelo://app?vid=43a9f18b-8b7f-4bc8-9a69-0b0408b4f3dd"},"vehicle_type_id":"4","last_reported":1734610682,"current_range_meters":24000,"station_id":"ce4bh012rcd13ifvqcv0","pricing_plan_id":"cebpf4jnsgd1na2vs0mg"},{"bike_id":"bbb3dfe8-d87c-4f9e-bbfd-1ece35f37891","system_id":"levelo_inurba_marseille","lat":43.27614,"lon":5.36123,"is_reserved":false,"is_disabled":false,"rental_uris":{"android":"levelo://app?vid=bbb3dfe8-d87c-4f9e-bbfd-1ece35f37891","ios":"levelo://app?vid=bbb3dfe8-d87c-4f9e-bbfd-1ece35f37891"},"vehicle_type_id":"4","last_reported":1734610682,"current_range_meters":39200,"station_id":"ce4bgj92rcd13ifvqbe0","pricing_plan_id":"cebpf4jnsgd1na2vs0mg"},{"bike_id":"9294b7c4-f950-43f8-8e30-fdbb56a51003","system_id":"levelo_inurba_marseille","lat":43.3148,"lon":5.36879,"is_reserved":false,"is_disabled":false,"rental_uris":{"android":"levelo://app?vid=9294b7c4-f950-43f8-8e30-fdbb56a51003","ios":"levelo://app?vid=9294b7c4-f950-43f8-8e30-fdbb56a51003"},"vehicle_type_id":"4","last_reported":1734610682,"current_range_meters":6400,"station_id":"","pricing_plan_id":"cebpf4jnsgd1na2vs0mg"},{"bike_id":"777d1d73-fb13-4912-a24f-45375b2ad602","system_id":"levelo_inurba_marseille","lat":43.30156,"lon":5.38084,"is_reserved":false,"is_disabled":false,"rental_uris":{"android":"levelo://app?vid=777d1d73-fb13-4912-a24f-45375b2ad602","ios":"levelo://app?vid=777d1d73-fb13-4912-a24f-45375b2ad602"},"vehicle_type_id":"4","last_reported":1734610682,"current_range_meters":31200,"station_id":"ce4bgjp2rcd13ifvqbh0","pricing_plan_id":"cebpf4jnsgd1na2vs0mg"},{"bike_id":"f54f0160-4583-42cd-8488-12c318c2c19d","system_id":"levelo_inurba_marseille","lat":43.29261,"lon":5.38437,"is_reserved":false,"is_disabled":false,"rental_uris":{"android":"levelo://app?vid=f54f0160-4583-42cd-8488-12c318c2c19d","ios":"levelo://app?vid=f54f0160-4583-42cd-8488-12c318c2c19d"},"vehicle_type_id":"4","last_reported":1734610682,"current_range_meters":39200,"station_id":"ce4bh692rcd13ifvqea0","pricing_plan_id":"cebpf4jnsgd1na2vs0mg"},{"bike_id":"b15d1b59-6d80-40bf-a123-535f5d7797d9","system_id":"levelo_inurba_marseille","lat":43.27614,"lon":5.36117,"is_reserved":false,"is_disabled":false,"rental_uris":{"android":"levelo://app?vid=b15d1b59-6d80-40bf-a123-535f5d7797d9","ios":"levelo://app?vid=b15d1b59-6d80-40bf-a123-535f5d7797d9"},"vehicle_type_id":"4","last_reported":1734610682,"current_range_meters":36400,"station_id":"ce4bgj92rcd13ifvqbe0","pricing_plan_id":"cebpf4jnsgd1na2vs0mg"},{"bike_id":"6ac937f1-6de1-4008-9e5e-4856e540182e","system_id":"levelo_inurba_marseille","lat":43.26677,"lon":5.38258,"is_reserved":false,"is_disabled":false,"rental_uris":{"android":"levelo://app?vid=6ac937f1-6de1-4008-9e5e-4856e540182e","ios":"levelo://app?vid=6ac937f1-6de1-4008-9e5e-4856e540182e"},"vehicle_type_id":"4","last_reported":1734610682,"current_range_meters":38800,"station_id":"ce4bhg92rcd13ifvqf90","pricing_plan_id":"cebpf4jnsgd1na2vs0mg"},{"bike_id":"f957ffa3-7b76-4b18-bb62-81627d313cf8","system_id":"levelo_inurba_marseille","lat":43.23192,"lon":5.35562,"is_reserved":false,"is_disabled":false,"rental_uris":{"android":"levelo://app?vid=f957ffa3-7b76-4b18-bb62-81627d313cf8","ios":"levelo://app?vid=f957ffa3-7b76-4b18-bb62-81627d313cf8"},"vehicle_type_id":"4","last_reported":1734610682,"current_range_meters":34000,"station_id":"ce4bhu92rcd13ifvqi70","pricing_plan_id":"cebpf4jnsgd1na2vs0mg"},{"bike_id":"79cf05f6-3397-40b7-b4a4-0fb5d32312ee","system_id":"levelo_inurba_marseille","lat":43.25106,"lon":5.40324,"is_reserved":false,"is_disabled":false,"rental_uris":{"android":"levelo://app?vid=79cf05f6-3397-40b7-b4a4-0fb5d32312ee","ios":"levelo://app?vid=79cf05f6-3397-40b7-b4a4-0fb5d32312ee"},"vehicle_type_id":"4","last_reported":1734610682,"current_range_meters":25600,"station_id":"ce4bhlh2rcd13ifvqgig","pricing_plan_id":"cebpf4jnsgd1na2vs0mg"},{"bike_id":"8418e734-4fcd-4b94-951b-0d0ce81a5b83","system_id":"levelo_inurba_marseille","lat":43.29675,"lon":5.37309,"is_reserved":false,"is_disabled":false,"rental_uris":{"android":"levelo://app?vid=8418e734-4fcd-4b94-951b-0d0ce81a5b83","ios":"levelo://app?vid=8418e734-4fcd-4b94-951b-0d0ce81a5b83"},"vehicle_type_id":"4","last_reported":1734610682,"current_range_meters":37600,"station_id":"ce4bgk12rcd13ifvqbj0","pricing_plan_id":"cebpf4jnsgd1na2vs0mg"},{"bike_id":"0daef648-edc6-48d2-bc02-d352a3491ad9","system_id":"levelo_inurba_marseille","lat":43.280566,"lon":5.385939,"is_reserved":false,"is_disabled":false,"rental_uris":{"android":"levelo://app?vid=0daef648-edc6-48d2-bc02-d352a3491ad9","ios":"levelo://app?vid=0daef648-edc6-48d2-bc02-d352a3491ad9"},"vehicle_type_id":"4","last_reported":1734610682,"current_range_meters":31200,"station_id":"ce4bhg12rcd13ifvqf80","pricing_plan_id":"cebpf4jnsgd1na2vs0mg"},{"bike_id":"35f2ef94-4eff-4a04-82c0-7820c4083925","system_id":"levelo_inurba_marseille","lat":43.29742,"lon":5.3711,"is_reserved":false,"is_disabled":false,"rental_uris":{"android":"levelo://app?vid=35f2ef94-4eff-4a04-82c0-7820c4083925","ios":"levelo://app?vid=35f2ef94-4eff-4a04-82c0-7820c4083925"},"vehicle_type_id":"4","last_reported":1734610682,"current_range_meters":22000,"station_id":"ce4bgop2rcd13ifvqc1g","pricing_plan_id":"cebpf4jnsgd1na2vs0mg"},{"bike_id":"24052f40-7670-402f-ba56-417b6916e2ff","system_id":"levelo_inurba_marseille","lat":43.30524,"lon":5.36542,"is_reserved":false,"is_disabled":false,"rental_uris":{"android":"levelo://app?vid=24052f40-7670-402f-ba56-417b6916e2ff","ios":"levelo://app?vid=24052f40-7670-402f-ba56-417b6916e2ff"},"vehicle_type_id":"4","last_reported":1734610682,"current_range_meters":35600,"station_id":"ce4bgs12rcd13ifvqcag","pricing_plan_id":"cebpf4jnsgd1na2vs0mg"},{"bike_id":"55908842-5677-4a26-9838-98b487742c62","system_id":"levelo_inurba_marseille","lat":43.29297,"lon":5.37432,"is_reserved":false,"is_disabled":false,"rental_uris":{"android":"levelo://app?vid=55908842-5677-4a26-9838-98b487742c62","ios":"levelo://app?vid=55908842-5677-4a26-9838-98b487742c62"},"vehicle_type_id":"4","last_reported":1734610682,"current_range_meters":6400,"station_id":"ce4bgi12rcd13ifvqb70","pricing_plan_id":"cebpf4jnsgd1na2vs0mg"},{"bike_id":"a0ab432f-da66-45ee-bd4e-3bd41460fc75","system_id":"levelo_inurba_marseille","lat":43.31205,"lon":5.36842,"is_reserved":false,"is_disabled":false,"rental_uris":{"android":"levelo://app?vid=a0ab432f-da66-45ee-bd4e-3bd41460fc75","ios":"levelo://app?vid=a0ab432f-da66-45ee-bd4e-3bd41460fc75"},"vehicle_type_id":"4","last_reported":1734610682,"current_range_meters":29600,"station_id":"ce4bgl92rcd13ifvqbq0","pricing_plan_id":"cebpf4jnsgd1na2vs0mg"},{"bike_id":"f5c894fa-8ab9-469e-9f79-8e652d96deb0","system_id":"levelo_inurba_marseille","lat":43.26941,"lon":5.38645,"is_reserved":false,"is_disabled":false,"rental_uris":{"android":"levelo://app?vid=f5c894fa-8ab9-469e-9f79-8e652d96deb0","ios":"levelo://app?vid=f5c894fa-8ab9-469e-9f79-8e652d96deb0"},"vehicle_type_id":"4","last_reported":1734610682,"current_range_meters":37600,"station_id":"ce4bhh92rcd13ifvqfh0","pricing_plan_id":"cebpf4jnsgd1na2vs0mg"},{"bike_id":"83ca2239-1d6b-4fa5-a63b-1042cc5eee1f","system_id":"levelo_inurba_marseille","lat":43.2925,"lon":5.40911,"is_reserved":false,"is_disabled":false,"rental_uris":{"android":"levelo://app?vid=83ca2239-1d6b-4fa5-a63b-1042cc5eee1f","ios":"levelo://app?vid=83ca2239-1d6b-4fa5-a63b-1042cc5eee1f"},"vehicle_type_id":"4","last_reported":1734610682,"current_range_meters":32000,"station_id":"ce4bh192rcd13ifvqdc0","pricing_plan_id":"cebpf4jnsgd1na2vs0mg"},{"bike_id":"ffd50738-4963-47aa-ab7d-955fbc933618","system_id":"levelo_inurba_marseille","lat":43.30547,"lon":5.36534,"is_reserved":false,"is_disabled":false,"rental_uris":{"android":"levelo://app?vid=ffd50738-4963-47aa-ab7d-955fbc933618","ios":"levelo://app?vid=ffd50738-4963-47aa-ab7d-955fbc933618"},"vehicle_type_id":"4","last_reported":1734610682,"current_range_meters":38800,"station_id":"ce4bgs12rcd13ifvqcag","pricing_plan_id":"cebpf4jnsgd1na2vs0mg"},{"bike_id":"9d922ea0-81e1-443a-89af-8bd940af6d00","system_id":"levelo_inurba_marseille","lat":43.31287,"lon":5.40173,"is_reserved":false,"is_disabled":false,"rental_uris":{"android":"levelo://app?vid=9d922ea0-81e1-443a-89af-8bd940af6d00","ios":"levelo://app?vid=9d922ea0-81e1-443a-89af-8bd940af6d00"},"vehicle_type_id":"4","last_reported":1734610682,"current_range_meters":36000,"station_id":"ce4bh092rcd13ifvqd30","pricing_plan_id":"cebpf4jnsgd1na2vs0mg"},{"bike_id":"9aed28d6-2cfa-4159-b544-fc7437958c77","system_id":"levelo_inurba_marseille","lat":43.27618,"lon":5.36127,"is_reserved":false,"is_disabled":false,"rental_uris":{"android":"levelo://app?vid=9aed28d6-2cfa-4159-b544-fc7437958c77","ios":"levelo://app?vid=9aed28d6-2cfa-4159-b544-fc7437958c77"},"vehicle_type_id":"4","last_reported":1734610682,"current_range_meters":38800,"station_id":"ce4bgj92rcd13ifvqbe0","pricing_plan_id":"cebpf4jnsgd1na2vs0mg"},{"bike_id":"c6fc1f35-949d-4dc4-925e-046f798f5cdb","system_id":"levelo_inurba_marseille","lat":43.30417,"lon":5.4128,"is_reserved":false,"is_disabled":true,"rental_uris":{"android":"levelo://app?vid=c6fc1f35-949d-4dc4-925e-046f798f5cdb","ios":"levelo://app?vid=c6fc1f35-949d-4dc4-925e-046f798f5cdb"},"vehicle_type_id":"4","last_reported":1734610682,"current_range_meters":39200,"station_id":"ce4bhop2rcd13ifvqh8g","pricing_plan_id":"cebpf4jnsgd1na2vs0mg"},{"bike_id":"42129a4f-5428-4e3d-b2e8-6714dd4325db","system_id":"levelo_inurba_marseille","lat":43.2894,"lon":5.36635,"is_reserved":false,"is_disabled":false,"rental_uris":{"android":"levelo://app?vid=42129a4f-5428-4e3d-b2e8-6714dd4325db","ios":"levelo://app?vid=42129a4f-5428-4e3d-b2e8-6714dd4325db"},"vehicle_type_id":"4","last_reported":1734610682,"current_range_meters":6400,"station_id":"ce4bhap2rcd13ifvqek0","pricing_plan_id":"cebpf4jnsgd1na2vs0mg"},{"bike_id":"4a208263-5683-4c02-b8c0-8842a35d3fff","system_id":"levelo_inurba_marseille","lat":43.30533,"lon":5.3655,"is_reserved":false,"is_disabled":false,"rental_uris":{"android":"levelo://app?vid=4a208263-5683-4c02-b8c0-8842a35d3fff","ios":"levelo://app?vid=4a208263-5683-4c02-b8c0-8842a35d3fff"},"vehicle_type_id":"4","last_reported":1734610682,"current_range_meters":38400,"station_id":"ce4bgs12rcd13ifvqcag","pricing_plan_id":"cebpf4jnsgd1na2vs0mg"},{"bike_id":"d5704c77-c7ee-4cf1-9018-5973ca11518d","system_id":"levelo_inurba_marseille","lat":43.28426,"lon":5.39196,"is_reserved":false,"is_disabled":false,"rental_uris":{"android":"levelo://app?vid=d5704c77-c7ee-4cf1-9018-5973ca11518d","ios":"levelo://app?vid=d5704c77-c7ee-4cf1-9018-5973ca11518d"},"vehicle_type_id":"4","last_reported":1734610682,"current_range_meters":31200,"station_id":"ce4bhoh2rcd13ifvqh5g","pricing_plan_id":"cebpf4jnsgd1na2vs0mg"},{"bike_id":"0e539fde-1e0e-45bb-9aeb-c829912b7b87","system_id":"levelo_inurba_marseille","lat":43.29567,"lon":5.37514,"is_reserved":false,"is_disabled":false,"rental_uris":{"android":"levelo://app?vid=0e539fde-1e0e-45bb-9aeb-c829912b7b87","ios":"levelo://app?vid=0e539fde-1e0e-45bb-9aeb-c829912b7b87"},"vehicle_type_id":"4","last_reported":1734610682,"current_range_meters":38800,"station_id":"ce4bgh92rcd13ifvqb50","pricing_plan_id":"cebpf4jnsgd1na2vs0mg"},{"bike_id":"a19b3630-daeb-47a7-b396-cba8139ba476","system_id":"levelo_inurba_marseille","lat":43.32552,"lon":5.4144,"is_reserved":false,"is_disabled":false,"rental_uris":{"android":"levelo://app?vid=a19b3630-daeb-47a7-b396-cba8139ba476","ios":"levelo://app?vid=a19b3630-daeb-47a7-b396-cba8139ba476"},"vehicle_type_id":"4","last_reported":1734610682,"current_range_meters":20000,"station_id":"ce4bhq12rcd13ifvqhhg","pricing_plan_id":"cebpf4jnsgd1na2vs0mg"},{"bike_id":"6118b054-9ea6-4b9d-8593-36a69758efff","system_id":"levelo_inurba_marseille","lat":43.23203,"lon":5.35555,"is_reserved":false,"is_disabled":false,"rental_uris":{"android":"levelo://app?vid=6118b054-9ea6-4b9d-8593-36a69758efff","ios":"levelo://app?vid=6118b054-9ea6-4b9d-8593-36a69758efff"},"vehicle_type_id":"4","last_reported":1734610682,"current_range_meters":38800,"station_id":"ce4bhu92rcd13ifvqi70","pricing_plan_id":"cebpf4jnsgd1na2vs0mg"},{"bike_id":"b8e93dba-3edc-467e-9eec-d0acf097b01e","system_id":"levelo_inurba_marseille","lat":43.25574,"lon":5.3824,"is_reserved":false,"is_disabled":false,"rental_uris":{"android":"levelo://app?vid=b8e93dba-3edc-467e-9eec-d0acf097b01e","ios":"levelo://app?vid=b8e93dba-3edc-467e-9eec-d0acf097b01e"},"vehicle_type_id":"4","last_reported":1734610682,"current_range_meters":4400,"station_id":"ce4bhih2rcd13ifvqfs0","pricing_plan_id":"cebpf4jnsgd1na2vs0mg"},{"bike_id":"82784db9-6360-4161-bacd-e23667eb9c3e","system_id":"levelo_inurba_marseille","lat":43.303267,"lon":5.38525,"is_reserved":false,"is_disabled":true,"rental_uris":{"android":"levelo://app?vid=82784db9-6360-4161-bacd-e23667eb9c3e","ios":"levelo://app?vid=82784db9-6360-4161-bacd-e23667eb9c3e"},"vehicle_type_id":"4","last_reported":1734610682,"current_range_meters":6000,"station_id":"","pricing_plan_id":"cebpf4jnsgd1na2vs0mg"},{"bike_id":"9d2aefec-f4a3-4a23-a13a-c09b46ffe2e4","system_id":"levelo_inurba_marseille","lat":43.31164,"lon":5.36709,"is_reserved":false,"is_disabled":false,"rental_uris":{"android":"levelo://app?vid=9d2aefec-f4a3-4a23-a13a-c09b46ffe2e4","ios":"levelo://app?vid=9d2aefec-f4a3-4a23-a13a-c09b46ffe2e4"},"vehicle_type_id":"4","last_reported":1734610682,"current_range_meters":31200,"station_id":"","pricing_plan_id":"cebpf4jnsgd1na2vs0mg"},{"bike_id":"cd18d2e6-81cf-4e60-aa15-2ac8966c82fc","system_id":"levelo_inurba_marseille","lat":43.23152,"lon":5.43719,"is_reserved":false,"is_disabled":false,"rental_uris":{"android":"levelo://app?vid=cd18d2e6-81cf-4e60-aa15-2ac8966c82fc","ios":"levelo://app?vid=cd18d2e6-81cf-4e60-aa15-2ac8966c82fc"},"vehicle_type_id":"4","last_reported":1734610682,"current_range_meters":33600,"station_id":"ce4bhmp2rcd13ifvqgog","pricing_plan_id":"cebpf4jnsgd1na2vs0mg"},{"bike_id":"fdb00e72-6d85-4d61-9e62-d139d7971bf0","system_id":"levelo_inurba_marseille","lat":43.26954,"lon":5.38624,"is_reserved":false,"is_disabled":false,"rental_uris":{"android":"levelo://app?vid=fdb00e72-6d85-4d61-9e62-d139d7971bf0","ios":"levelo://app?vid=fdb00e72-6d85-4d61-9e62-d139d7971bf0"},"vehicle_type_id":"4","last_reported":1734610682,"current_range_meters":38800,"station_id":"ce4bhh92rcd13ifvqfh0","pricing_plan_id":"cebpf4jnsgd1na2vs0mg"},{"bike_id":"41360683-0f69-4c62-8b87-4868ce57f8d5","system_id":"levelo_inurba_marseille","lat":43.31491,"lon":5.37313,"is_reserved":false,"is_disabled":false,"rental_uris":{"android":"levelo://app?vid=41360683-0f69-4c62-8b87-4868ce57f8d5","ios":"levelo://app?vid=41360683-0f69-4c62-8b87-4868ce57f8d5"},"vehicle_type_id":"4","last_reported":1734610682,"current_range_meters":38800,"station_id":"ce4bgt12rcd13ifvqcd0","pricing_plan_id":"cebpf4jnsgd1na2vs0mg"},{"bike_id":"a2eba22b-b0ee-4005-9bf3-576bb458d391","system_id":"levelo_inurba_marseille","lat":43.279651,"lon":5.387544,"is_reserved":false,"is_disabled":true,"rental_uris":{"android":"levelo://app?vid=a2eba22b-b0ee-4005-9bf3-576bb458d391","ios":"levelo://app?vid=a2eba22b-b0ee-4005-9bf3-576bb458d391"},"vehicle_type_id":"4","last_reported":1734610682,"current_range_meters":0,"station_id":"","pricing_plan_id":"cebpf4jnsgd1na2vs0mg"},{"bike_id":"421f1554-97bf-48ae-b626-cc958dd2d6e8","system_id":"levelo_inurba_marseille","lat":43.27619,"lon":5.36117,"is_reserved":false,"is_disabled":false,"rental_uris":{"android":"levelo://app?vid=421f1554-97bf-48ae-b626-cc958dd2d6e8","ios":"levelo://app?vid=421f1554-97bf-48ae-b626-cc958dd2d6e8"},"vehicle_type_id":"4","last_reported":1734610682,"current_range_meters":18800,"station_id":"ce4bgj92rcd13ifvqbe0","pricing_plan_id":"cebpf4jnsgd1na2vs0mg"},{"bike_id":"54814c62-8dc3-432e-883f-d4f0044ef82b","system_id":"levelo_inurba_marseille","lat":43.29299,"lon":5.37455,"is_reserved":false,"is_disabled":false,"rental_uris":{"android":"levelo://app?vid=54814c62-8dc3-432e-883f-d4f0044ef82b","ios":"levelo://app?vid=54814c62-8dc3-432e-883f-d4f0044ef82b"},"vehicle_type_id":"4","last_reported":1734610682,"current_range_meters":17200,"station_id":"ce4bgi12rcd13ifvqb70","pricing_plan_id":"cebpf4jnsgd1na2vs0mg"},{"bike_id":"f0377741-7cf6-450d-a6fd-153237b93a8a","system_id":"levelo_inurba_marseille","lat":43.25931,"lon":5.40898,"is_reserved":false,"is_disabled":false,"rental_uris":{"android":"levelo://app?vid=f0377741-7cf6-450d-a6fd-153237b93a8a","ios":"levelo://app?vid=f0377741-7cf6-450d-a6fd-153237b93a8a"},"vehicle_type_id":"4","last_reported":1734610682,"current_range_meters":18000,"station_id":"ce4bhm92rcd13ifvqglg","pricing_plan_id":"cebpf4jnsgd1na2vs0mg"},{"bike_id":"ffc236af-b009-42f9-9931-5439be7b7cf3","system_id":"levelo_inurba_marseille","lat":43.29266,"lon":5.38438,"is_reserved":false,"is_disabled":false,"rental_uris":{"android":"levelo://app?vid=ffc236af-b009-42f9-9931-5439be7b7cf3","ios":"levelo://app?vid=ffc236af-b009-42f9-9931-5439be7b7cf3"},"vehicle_type_id":"4","last_reported":1734610682,"current_range_meters":17600,"station_id":"ce4bh692rcd13ifvqea0","pricing_plan_id":"cebpf4jnsgd1na2vs0mg"},{"bike_id":"0a1355fb-d7a2-40da-93d7-05d9957a15d0","system_id":"levelo_inurba_marseille","lat":43.26099,"lon":5.38279,"is_reserved":false,"is_disabled":false,"rental_uris":{"android":"levelo://app?vid=0a1355fb-d7a2-40da-93d7-05d9957a15d0","ios":"levelo://app?vid=0a1355fb-d7a2-40da-93d7-05d9957a15d0"},"vehicle_type_id":"4","last_reported":1734610682,"current_range_meters":30800,"station_id":"","pricing_plan_id":"cebpf4jnsgd1na2vs0mg"},{"bike_id":"8b61a505-6689-4d59-bdbd-c2bc04b25a7f","system_id":"levelo_inurba_marseille","lat":43.30545,"lon":5.36535,"is_reserved":false,"is_disabled":false,"rental_uris":{"android":"levelo://app?vid=8b61a505-6689-4d59-bdbd-c2bc04b25a7f","ios":"levelo://app?vid=8b61a505-6689-4d59-bdbd-c2bc04b25a7f"},"vehicle_type_id":"4","last_reported":1734610682,"current_range_meters":25600,"station_id":"ce4bgs12rcd13ifvqcag","pricing_plan_id":"cebpf4jnsgd1na2vs0mg"},{"bike_id":"bcba2c13-fd7b-4d65-a255-388b54aedd85","system_id":"levelo_inurba_marseille","lat":43.336056,"lon":5.410054,"is_reserved":false,"is_disabled":false,"rental_uris":{"android":"levelo://app?vid=bcba2c13-fd7b-4d65-a255-388b54aedd85","ios":"levelo://app?vid=bcba2c13-fd7b-4d65-a255-388b54aedd85"},"vehicle_type_id":"4","last_reported":1734610682,"current_range_meters":37600,"station_id":"ce4bhqh2rcd13ifvqhmg","pricing_plan_id":"cebpf4jnsgd1na2vs0mg"},{"bike_id":"ac7c5f56-daad-496c-965f-9103737000e8","system_id":"levelo_inurba_marseille","lat":43.23965,"lon":5.36644,"is_reserved":false,"is_disabled":false,"rental_uris":{"android":"levelo://app?vid=ac7c5f56-daad-496c-965f-9103737000e8","ios":"levelo://app?vid=ac7c5f56-daad-496c-965f-9103737000e8"},"vehicle_type_id":"4","last_reported":1734610682,"current_range_meters":38800,"station_id":"ce4bhi12rcd13ifvqfp0","pricing_plan_id":"cebpf4jnsgd1na2vs0mg"},{"bike_id":"50f3ea1e-8d3a-452b-9061-37af2efe02cc","system_id":"levelo_inurba_marseille","lat":43.31253,"lon":5.40202,"is_reserved":false,"is_disabled":false,"rental_uris":{"android":"levelo://app?vid=50f3ea1e-8d3a-452b-9061-37af2efe02cc","ios":"levelo://app?vid=50f3ea1e-8d3a-452b-9061-37af2efe02cc"},"vehicle_type_id":"4","last_reported":1734610682,"current_range_meters":30000,"station_id":"ce4bh092rcd13ifvqd30","pricing_plan_id":"cebpf4jnsgd1na2vs0mg"},{"bike_id":"4feace51-ad76-46c2-bf1e-a105911eef0c","system_id":"levelo_inurba_marseille","lat":43.27206,"lon":5.39179,"is_reserved":false,"is_disabled":false,"rental_uris":{"android":"levelo://app?vid=4feace51-ad76-46c2-bf1e-a105911eef0c","ios":"levelo://app?vid=4feace51-ad76-46c2-bf1e-a105911eef0c"},"vehicle_type_id":"4","last_reported":1734610682,"current_range_meters":38400,"station_id":"ce4bhhp2rcd13ifvqfm0","pricing_plan_id":"cebpf4jnsgd1na2vs0mg"},{"bike_id":"0cef6d55-09da-4dff-80ee-facea058c7a5","system_id":"levelo_inurba_marseille","lat":43.30055,"lon":5.36969,"is_reserved":false,"is_disabled":false,"rental_uris":{"android":"levelo://app?vid=0cef6d55-09da-4dff-80ee-facea058c7a5","ios":"levelo://app?vid=0cef6d55-09da-4dff-80ee-facea058c7a5"},"vehicle_type_id":"4","last_reported":1734610682,"current_range_meters":33200,"station_id":"","pricing_plan_id":"cebpf4jnsgd1na2vs0mg"},{"bike_id":"58d7b14c-b4c0-41e0-8bb7-88462cec4a71","system_id":"levelo_inurba_marseille","lat":43.3013,"lon":5.38793,"is_reserved":false,"is_disabled":true,"rental_uris":{"android":"levelo://app?vid=58d7b14c-b4c0-41e0-8bb7-88462cec4a71","ios":"levelo://app?vid=58d7b14c-b4c0-41e0-8bb7-88462cec4a71"},"vehicle_type_id":"4","last_reported":1734610682,"current_range_meters":1200,"station_id":"ce4bghh2rcd13ifvqb60","pricing_plan_id":"cebpf4jnsgd1na2vs0mg"},{"bike_id":"23a049cd-2a20-411e-a25c-f3e09482729c","system_id":"levelo_inurba_marseille","lat":43.30432,"lon":5.37346,"is_reserved":false,"is_disabled":false,"rental_uris":{"android":"levelo://app?vid=23a049cd-2a20-411e-a25c-f3e09482729c","ios":"levelo://app?vid=23a049cd-2a20-411e-a25c-f3e09482729c"},"vehicle_type_id":"4","last_reported":1734610682,"current_range_meters":38000,"station_id":"","pricing_plan_id":"cebpf4jnsgd1na2vs0mg"},{"bike_id":"e7e7a15d-4c16-401a-ab98-21b19d3aa69c","system_id":"levelo_inurba_marseille","lat":43.30093,"lon":5.39077,"is_reserved":false,"is_disabled":false,"rental_uris":{"android":"levelo://app?vid=e7e7a15d-4c16-401a-ab98-21b19d3aa69c","ios":"levelo://app?vid=e7e7a15d-4c16-401a-ab98-21b19d3aa69c"},"vehicle_type_id":"4","last_reported":1734610682,"current_range_meters":38400,"station_id":"ce4bh192rcd13ifvqdb0","pricing_plan_id":"cebpf4jnsgd1na2vs0mg"},{"bike_id":"b9e0dcf9-3bb4-4708-81c1-daf6a6b0f76c","system_id":"levelo_inurba_marseille","lat":43.321104,"lon":5.367914,"is_reserved":false,"is_disabled":true,"rental_uris":{"android":"levelo://app?vid=b9e0dcf9-3bb4-4708-81c1-daf6a6b0f76c","ios":"levelo://app?vid=b9e0dcf9-3bb4-4708-81c1-daf6a6b0f76c"},"vehicle_type_id":"4","last_reported":1734610682,"current_range_meters":30400,"station_id":"ce4bhrh2rcd13ifvqhug","pricing_plan_id":"cebpf4jnsgd1na2vs0mg"},{"bike_id":"08cd978d-a154-489b-88f9-55e885485e2d","system_id":"levelo_inurba_marseille","lat":43.25499,"lon":5.37649,"is_reserved":false,"is_disabled":false,"rental_uris":{"android":"levelo://app?vid=08cd978d-a154-489b-88f9-55e885485e2d","ios":"levelo://app?vid=08cd978d-a154-489b-88f9-55e885485e2d"},"vehicle_type_id":"4","last_reported":1734610682,"current_range_meters":30400,"station_id":"ce4bhh12rcd13ifvqff0","pricing_plan_id":"cebpf4jnsgd1na2vs0mg"},{"bike_id":"11de9416-df88-417e-aee7-4f564b6022ac","system_id":"levelo_inurba_marseille","lat":43.28465,"lon":5.3842,"is_reserved":false,"is_disabled":false,"rental_uris":{"android":"levelo://app?vid=11de9416-df88-417e-aee7-4f564b6022ac","ios":"levelo://app?vid=11de9416-df88-417e-aee7-4f564b6022ac"},"vehicle_type_id":"4","last_reported":1734610682,"current_range_meters":9600,"station_id":"ce4bh512rcd13ifvqe3g","pricing_plan_id":"cebpf4jnsgd1na2vs0mg"},{"bike_id":"e0115797-776e-4c4d-ae87-186298325bc7","system_id":"levelo_inurba_marseille","lat":43.31992,"lon":5.38158,"is_reserved":false,"is_disabled":false,"rental_uris":{"android":"levelo://app?vid=e0115797-776e-4c4d-ae87-186298325bc7","ios":"levelo://app?vid=e0115797-776e-4c4d-ae87-186298325bc7"},"vehicle_type_id":"4","last_reported":1734610682,"current_range_meters":28800,"station_id":"ce4bhr12rcd13ifvqhpg","pricing_plan_id":"cebpf4jnsgd1na2vs0mg"},{"bike_id":"97f7d6cd-a7d5-4ab6-a0d2-106ac049c6eb","system_id":"levelo_inurba_marseille","lat":43.337663,"lon":5.374384,"is_reserved":false,"is_disabled":false,"rental_uris":{"android":"levelo://app?vid=97f7d6cd-a7d5-4ab6-a0d2-106ac049c6eb","ios":"levelo://app?vid=97f7d6cd-a7d5-4ab6-a0d2-106ac049c6eb"},"vehicle_type_id":"4","last_reported":1734610682,"current_range_meters":38800,"station_id":"","pricing_plan_id":"cebpf4jnsgd1na2vs0mg"},{"bike_id":"1f4b4904-898b-4a75-a88e-11b4de7cbd92","system_id":"levelo_inurba_marseille","lat":43.29554,"lon":5.37527,"is_reserved":false,"is_disabled":true,"rental_uris":{"android":"levelo://app?vid=1f4b4904-898b-4a75-a88e-11b4de7cbd92","ios":"levelo://app?vid=1f4b4904-898b-4a75-a88e-11b4de7cbd92"},"vehicle_type_id":"4","last_reported":1734610682,"current_range_meters":400,"station_id":"ce4bgh92rcd13ifvqb50","pricing_plan_id":"cebpf4jnsgd1na2vs0mg"},{"bike_id":"5e5e3ca7-520a-412b-a9af-f152617fdf1b","system_id":"levelo_inurba_marseille","lat":43.29359,"lon":5.37834,"is_reserved":false,"is_disabled":false,"rental_uris":{"android":"levelo://app?vid=5e5e3ca7-520a-412b-a9af-f152617fdf1b","ios":"levelo://app?vid=5e5e3ca7-520a-412b-a9af-f152617fdf1b"},"vehicle_type_id":"4","last_reported":1734610682,"current_range_meters":21600,"station_id":"ce4bgjh2rcd13ifvqbf0","pricing_plan_id":"cebpf4jnsgd1na2vs0mg"},{"bike_id":"b207cf12-ea4a-4bd9-b148-c33fd4a2db80","system_id":"levelo_inurba_marseille","lat":43.28429,"lon":5.39201,"is_reserved":false,"is_disabled":false,"rental_uris":{"android":"levelo://app?vid=b207cf12-ea4a-4bd9-b148-c33fd4a2db80","ios":"levelo://app?vid=b207cf12-ea4a-4bd9-b148-c33fd4a2db80"},"vehicle_type_id":"4","last_reported":1734610682,"current_range_meters":39200,"station_id":"ce4bhoh2rcd13ifvqh5g","pricing_plan_id":"cebpf4jnsgd1na2vs0mg"},{"bike_id":"7b305c6f-361b-46c6-bcc8-6b2d9fd084fa","system_id":"levelo_inurba_marseille","lat":43.28119,"lon":5.4422,"is_reserved":false,"is_disabled":true,"rental_uris":{"android":"levelo://app?vid=7b305c6f-361b-46c6-bcc8-6b2d9fd084fa","ios":"levelo://app?vid=7b305c6f-361b-46c6-bcc8-6b2d9fd084fa"},"vehicle_type_id":"4","last_reported":1734610682,"current_range_meters":0,"station_id":"","pricing_plan_id":"cebpf4jnsgd1na2vs0mg"},{"bike_id":"741ea4b3-763d-4684-9cc9-4d777e722653","system_id":"levelo_inurba_marseille","lat":43.31346,"lon":5.36719,"is_reserved":false,"is_disabled":false,"rental_uris":{"android":"levelo://app?vid=741ea4b3-763d-4684-9cc9-4d777e722653","ios":"levelo://app?vid=741ea4b3-763d-4684-9cc9-4d777e722653"},"vehicle_type_id":"4","last_reported":1734610682,"current_range_meters":35600,"station_id":"ce4bgr92rcd13ifvqc6g","pricing_plan_id":"cebpf4jnsgd1na2vs0mg"},{"bike_id":"0f7eae8d-dcd7-4c45-b555-1781765e6054","system_id":"levelo_inurba_marseille","lat":43.29783,"lon":5.37097,"is_reserved":false,"is_disabled":false,"rental_uris":{"android":"levelo://app?vid=0f7eae8d-dcd7-4c45-b555-1781765e6054","ios":"levelo://app?vid=0f7eae8d-dcd7-4c45-b555-1781765e6054"},"vehicle_type_id":"4","last_reported":1734610682,"current_range_meters":24400,"station_id":"ce4bgop2rcd13ifvqc1g","pricing_plan_id":"cebpf4jnsgd1na2vs0mg"},{"bike_id":"c81d12c0-b3b4-4b91-a004-bb72046d4aaa","system_id":"levelo_inurba_marseille","lat":43.29936,"lon":5.37522,"is_reserved":false,"is_disabled":false,"rental_uris":{"android":"levelo://app?vid=c81d12c0-b3b4-4b91-a004-bb72046d4aaa","ios":"levelo://app?vid=c81d12c0-b3b4-4b91-a004-bb72046d4aaa"},"vehicle_type_id":"4","last_reported":1734610682,"current_range_meters":24800,"station_id":"ce4bgjh2rcd13ifvqbg0","pricing_plan_id":"cebpf4jnsgd1na2vs0mg"},{"bike_id":"c1b6203c-0b41-4e21-9b9d-984608f33fe2","system_id":"levelo_inurba_marseille","lat":43.29298,"lon":5.37451,"is_reserved":false,"is_disabled":false,"rental_uris":{"android":"levelo://app?vid=c1b6203c-0b41-4e21-9b9d-984608f33fe2","ios":"levelo://app?vid=c1b6203c-0b41-4e21-9b9d-984608f33fe2"},"vehicle_type_id":"4","last_reported":1734610682,"current_range_meters":35600,"station_id":"ce4bgi12rcd13ifvqb70","pricing_plan_id":"cebpf4jnsgd1na2vs0mg"},{"bike_id":"58460439-34c4-4ffd-a810-879458f6621a","system_id":"levelo_inurba_marseille","lat":43.23177,"lon":5.39963,"is_reserved":false,"is_disabled":false,"rental_uris":{"android":"levelo://app?vid=58460439-34c4-4ffd-a810-879458f6621a","ios":"levelo://app?vid=58460439-34c4-4ffd-a810-879458f6621a"},"vehicle_type_id":"4","last_reported":1734610682,"current_range_meters":25200,"station_id":"ce4bhn12rcd13ifvqgqg","pricing_plan_id":"cebpf4jnsgd1na2vs0mg"},{"bike_id":"ee01a507-8893-4440-bbe0-75da356e3a4f","system_id":"levelo_inurba_marseille","lat":43.29901,"lon":5.38127,"is_reserved":false,"is_disabled":true,"rental_uris":{"android":"levelo://app?vid=ee01a507-8893-4440-bbe0-75da356e3a4f","ios":"levelo://app?vid=ee01a507-8893-4440-bbe0-75da356e3a4f"},"vehicle_type_id":"4","last_reported":1734610682,"current_range_meters":0,"station_id":"ce4bgj12rcd13ifvqbc0","pricing_plan_id":"cebpf4jnsgd1na2vs0mg"},{"bike_id":"065296b9-c1b1-4295-be5f-ba6a4ae67e1e","system_id":"levelo_inurba_marseille","lat":43.27368,"lon":5.36255,"is_reserved":false,"is_disabled":false,"rental_uris":{"android":"levelo://app?vid=065296b9-c1b1-4295-be5f-ba6a4ae67e1e","ios":"levelo://app?vid=065296b9-c1b1-4295-be5f-ba6a4ae67e1e"},"vehicle_type_id":"4","last_reported":1734610682,"current_range_meters":36800,"station_id":"ce4bhbh2rcd13ifvqeo0","pricing_plan_id":"cebpf4jnsgd1na2vs0mg"},{"bike_id":"df2bf2aa-dff9-475f-91c3-5688aec4bd4e","system_id":"levelo_inurba_marseille","lat":43.29845,"lon":5.36275,"is_reserved":false,"is_disabled":false,"rental_uris":{"android":"levelo://app?vid=df2bf2aa-dff9-475f-91c3-5688aec4bd4e","ios":"levelo://app?vid=df2bf2aa-dff9-475f-91c3-5688aec4bd4e"},"vehicle_type_id":"4","last_reported":1734610682,"current_range_meters":20800,"station_id":"ce4bgpp2rcd13ifvqc3g","pricing_plan_id":"cebpf4jnsgd1na2vs0mg"},{"bike_id":"73946f2e-ca00-4729-85d8-d60d86703317","system_id":"levelo_inurba_marseille","lat":43.28645,"lon":5.35088,"is_reserved":false,"is_disabled":false,"rental_uris":{"android":"levelo://app?vid=73946f2e-ca00-4729-85d8-d60d86703317","ios":"levelo://app?vid=73946f2e-ca00-4729-85d8-d60d86703317"},"vehicle_type_id":"4","last_reported":1734610682,"current_range_meters":38000,"station_id":"ce4bhch2rcd13ifvqeug","pricing_plan_id":"cebpf4jnsgd1na2vs0mg"},{"bike_id":"527ec629-8c1b-48a8-8d11-c4652f8bd9de","system_id":"levelo_inurba_marseille","lat":43.29031,"lon":5.39963,"is_reserved":false,"is_disabled":false,"rental_uris":{"android":"levelo://app?vid=527ec629-8c1b-48a8-8d11-c4652f8bd9de","ios":"levelo://app?vid=527ec629-8c1b-48a8-8d11-c4652f8bd9de"},"vehicle_type_id":"4","last_reported":1734610682,"current_range_meters":38000,"station_id":"ce4bh392rcd13ifvqdm0","pricing_plan_id":"cebpf4jnsgd1na2vs0mg"},{"bike_id":"76975834-f71a-46ed-b326-a36c82696bf1","system_id":"levelo_inurba_marseille","lat":43.31273,"lon":5.40166,"is_reserved":false,"is_disabled":false,"rental_uris":{"android":"levelo://app?vid=76975834-f71a-46ed-b326-a36c82696bf1","ios":"levelo://app?vid=76975834-f71a-46ed-b326-a36c82696bf1"},"vehicle_type_id":"4","last_reported":1734610682,"current_range_meters":38800,"station_id":"ce4bh092rcd13ifvqd30","pricing_plan_id":"cebpf4jnsgd1na2vs0mg"},{"bike_id":"da6dc8d4-614c-4255-b2b3-a979754bf4d5","system_id":"levelo_inurba_marseille","lat":43.29982,"lon":5.37371,"is_reserved":false,"is_disabled":false,"rental_uris":{"android":"levelo://app?vid=da6dc8d4-614c-4255-b2b3-a979754bf4d5","ios":"levelo://app?vid=da6dc8d4-614c-4255-b2b3-a979754bf4d5"},"vehicle_type_id":"4","last_reported":1734610682,"current_range_meters":36800,"station_id":"","pricing_plan_id":"cebpf4jnsgd1na2vs0mg"},