{"last_updated":1781276375,"ttl":60,"version":"2.2","data":{"bikes":[{"bike_id":"ec12d144-24c8-4071-abf6-197e520eae96","system_id":"levelo_inurba_marseille","lat":43.337444,"lon":5.374475,"is_reserved":false,"is_disabled":false,"rental_uris":{"android":"levelo://app?vid=ec12d144-24c8-4071-abf6-197e520eae96","ios":"levelo://app?vid=ec12d144-24c8-4071-abf6-197e520eae96"},"vehicle_type_id":"4","last_reported":1781276376,"current_range_meters":0,"station_id":"","pricing_plan_id":"cebpf4jnsgd1na2vs0mg"},{"bike_id":"06b2cb1b-fff0-4271-b6c4-26074e1131c2","system_id":"levelo_inurba_marseille","lat":43.29118,"lon":5.38131,"is_reserved":false,"is_disabled":false,"rental_uris":{"android":"levelo://app?vid=06b2cb1b-fff0-4271-b6c4-26074e1131c2","ios":"levelo://app?vid=06b2cb1b-fff0-4271-b6c4-26074e1131c2"},"vehicle_type_id":"4","last_reported":1781276376,"current_range_meters":1200,"station_id":"ce4bh512rcd13ifvqe2g","pricing_plan_id":"cebpf4jnsgd1na2vs0mg"},{"bike_id":"7c131e63-4882-494d-814c-185065bffc7c","system_id":"levelo_inurba_marseille","lat":43.28478,"lon":5.484,"is_reserved":false,"is_disabled":false,"rental_uris":{"android":"levelo://app?vid=7c131e63-4882-494d-814c-185065bffc7c","ios":"levelo://app?vid=7c131e63-4882-494d-814c-185065bffc7c"},"vehicle_type_id":"4","last_reported":1781276376,"current_range_meters":2000,"station_id":"st_d3svhcjqgbts73a3dn0g","pricing_plan_id":"cebpf4jnsgd1na2vs0mg"},{"bike_id":"ead06185-83ad-46af-bbf8-3154a394a502","system_id":"levelo_inurba_marseille","lat":43.28863,"lon":5.3824,"is_reserved":false,"is_disabled":false,"rental_uris":{"android":"levelo://app?vid=ead06185-83ad-46af-bbf8-3154a394a502","ios":"levelo://app?vid=ead06185-83ad-46af-bbf8-3154a394a502"},"vehicle_type_id":"4","last_reported":1781276376,"current_range_meters":2800,"station_id":"","pricing_plan_id":"cebpf4jnsgd1na2vs0mg"},{"bike_id":"c2738aee-04ae-4a08-a244-46ec9d6d89b2","system_id":"levelo_inurba_marseille","lat":43.283015,"lon":5.436394,"is_reserved":false,"is_disabled":false,"rental_uris":{"android":"levelo://app?vid=c2738aee-04ae-4a08-a244-46ec9d6d89b2","ios":"levelo://app?vid=c2738aee-04ae-4a08-a244-46ec9d6d89b2"},"vehicle_type_id":"4","last_reported":1781276376,"current_range_meters":2800,"station_id":"","pricing_plan_id":"cebpf4jnsgd1na2vs0mg"},{"bike_id":"581eb976-4601-4f87-b521-f567cf030906","system_id":"levelo_inurba_marseille","lat":43.23936,"lon":5.43795,"is_reserved":false,"is_disabled":false,"rental_uris":{"android":"levelo://app?vid=581eb976-4601-4f87-b521-f567cf030906","ios":"levelo://app?vid=581eb976-4601-4f87-b521-f567cf030906"},"vehicle_type_id":"4","last_reported":1781276376,"current_range_meters":2800,"station_id":"","pricing_plan_id":"cebpf4jnsgd1na2vs0mg"},{"bike_id":"6bcc356f-7f69-45b4-a42f-c8af24594173","system_id":"levelo_inurba_marseille","lat":43.29639,"lon":5.38109,"is_reserved":false,"is_disabled":false,"rental_uris":{"android":"levelo://app?vid=6bcc356f-7f69-45b4-a42f-c8af24594173","ios":"levelo://app?vid=6bcc356f-7f69-45b4-a42f-c8af24594173"},"vehicle_type_id":"4","last_reported":1781276376,"current_range_meters":2800,"station_id":"ce4bgl12rcd13ifvqbo0","pricing_plan_id":"cebpf4jnsgd1na2vs0mg"},{"bike_id":"d41058f5-ac34-4dcb-a344-1cd03c388f49","system_id":"levelo_inurba_marseille","lat":43.27331,"lon":5.36253,"is_reserved":false,"is_disabled":false,"rental_uris":{"android":"levelo://app?vid=d41058f5-ac34-4dcb-a344-1cd03c388f49","ios":"levelo://app?vid=d41058f5-ac34-4dcb-a344-1cd03c388f49"},"vehicle_type_id":"4","last_reported":1781276376,"current_range_meters":2800,"station_id":"ce4bhbh2rcd13ifvqeo0","pricing_plan_id":"cebpf4jnsgd1na2vs0mg"},{"bike_id":"7d697069-780e-4659-8b0f-5679ab0c3df7","system_id":"levelo_inurba_marseille","lat":43.22566,"lon":5.41628,"is_reserved":false,"is_disabled":false,"rental_uris":{"android":"levelo://app?vid=7d697069-780e-4659-8b0f-5679ab0c3df7","ios":"levelo://app?vid=7d697069-780e-4659-8b0f-5679ab0c3df7"},"vehicle_type_id":"4","last_reported":1781276376,"current_range_meters":2800,"station_id":"st_d2o4gvlbi1j2169b742g","pricing_plan_id":"cebpf4jnsgd1na2vs0mg"},{"bike_id":"c7e4dd65-c36b-4bdd-a7ed-7a1a867cae26","system_id":"levelo_inurba_marseille","lat":43.29041,"lon":5.3593,"is_reserved":false,"is_disabled":true,"rental_uris":{"android":"levelo://app?vid=c7e4dd65-c36b-4bdd-a7ed-7a1a867cae26","ios":"levelo://app?vid=c7e4dd65-c36b-4bdd-a7ed-7a1a867cae26"},"vehicle_type_id":"4","last_reported":1781276376,"current_range_meters":2800,"station_id":"ce4bha92rcd13ifvqeg0","pricing_plan_id":"cebpf4jnsgd1na2vs0mg"},{"bike_id":"b583b97e-3469-46c4-bc4b-6cb37fe7a28a","system_id":"levelo_inurba_marseille","lat":43.26193,"lon":5.37457,"is_reserved":false,"is_disabled":false,"rental_uris":{"android":"levelo://app?vid=b583b97e-3469-46c4-bc4b-6cb37fe7a28a","ios":"levelo://app?vid=b583b97e-3469-46c4-bc4b-6cb37fe7a28a"},"vehicle_type_id":"4","last_reported":1781276376,"current_range_meters":2800,"station_id":"","pricing_plan_id":"cebpf4jnsgd1na2vs0mg"},{"bike_id":"974a9ad2-b282-491d-a269-2cdd0ca757a3","system_id":"levelo_inurba_marseille","lat":43.299855,"lon":5.384902,"is_reserved":false,"is_disabled":false,"rental_uris":{"android":"levelo://app?vid=974a9ad2-b282-491d-a269-2cdd0ca757a3","ios":"levelo://app?vid=974a9ad2-b282-491d-a269-2cdd0ca757a3"},"vehicle_type_id":"4","last_reported":1781276376,"current_range_meters":2800,"station_id":"ce4bgj92rcd13ifvqbd0","pricing_plan_id":"cebpf4jnsgd1na2vs0mg"},{"bike_id":"464ab973-7dfe-40f2-ae4e-9602b854a492","system_id":"levelo_inurba_marseille","lat":43.23953,"lon":5.36632,"is_reserved":false,"is_disabled":false,"rental_uris":{"android":"levelo://app?vid=464ab973-7dfe-40f2-ae4e-9602b854a492","ios":"levelo://app?vid=464ab973-7dfe-40f2-ae4e-9602b854a492"},"vehicle_type_id":"4","last_reported":1781276376,"current_range_meters":2800,"station_id":"ce4bhi12rcd13ifvqfp0","pricing_plan_id":"cebpf4jnsgd1na2vs0mg"},{"bike_id":"a5738529-d6fe-4d63-b356-4ef3c5027584","system_id":"levelo_inurba_marseille","lat":43.24932,"lon":5.39034,"is_reserved":false,"is_disabled":false,"rental_uris":{"android":"levelo://app?vid=a5738529-d6fe-4d63-b356-4ef3c5027584","ios":"levelo://app?vid=a5738529-d6fe-4d63-b356-4ef3c5027584"},"vehicle_type_id":"4","last_reported":1781276376,"current_range_meters":2800,"station_id":"","pricing_plan_id":"cebpf4jnsgd1na2vs0mg"},{"bike_id":"69e571ed-accb-4cb8-8afe-5973dee3773d","system_id":"levelo_inurba_marseille","lat":43.29254,"lon":5.36849,"is_reserved":false,"is_disabled":false,"rental_uris":{"android":"levelo://app?vid=69e571ed-accb-4cb8-8afe-5973dee3773d","ios":"levelo://app?vid=69e571ed-accb-4cb8-8afe-5973dee3773d"},"vehicle_type_id":"4","last_reported":1781276376,"current_range_meters":2800,"station_id":"ce4bhbp2rcd13ifvqesg","pricing_plan_id":"cebpf4jnsgd1na2vs0mg"},{"bike_id":"4d556a12-1abd-43fa-8ee8-9317a39a7eb1","system_id":"levelo_inurba_marseille","lat":43.29291,"lon":5.37454,"is_reserved":false,"is_disabled":false,"rental_uris":{"android":"levelo://app?vid=4d556a12-1abd-43fa-8ee8-9317a39a7eb1","ios":"levelo://app?vid=4d556a12-1abd-43fa-8ee8-9317a39a7eb1"},"vehicle_type_id":"4","last_reported":1781276376,"current_range_meters":2800,"station_id":"ce4bgi12rcd13ifvqb70","pricing_plan_id":"cebpf4jnsgd1na2vs0mg"},{"bike_id":"6c60a843-f223-41b6-9b29-5dc35647a7ad","system_id":"levelo_inurba_marseille","lat":43.29298,"lon":5.37454,"is_reserved":false,"is_disabled":false,"rental_uris":{"android":"levelo://app?vid=6c60a843-f223-41b6-9b29-5dc35647a7ad","ios":"levelo://app?vid=6c60a843-f223-41b6-9b29-5dc35647a7ad"},"vehicle_type_id":"4","last_reported":1781276376,"current_range_meters":2800,"station_id":"ce4bgi12rcd13ifvqb70","pricing_plan_id":"cebpf4jnsgd1na2vs0mg"},{"bike_id":"75daba83-c0c4-4db9-b8c5-28da1b9b8fa8","system_id":"levelo_inurba_marseille","lat":43.28605,"lon":5.35122,"is_reserved":false,"is_disabled":false,"rental_uris":{"android":"levelo://app?vid=75daba83-c0c4-4db9-b8c5-28da1b9b8fa8","ios":"levelo://app?vid=75daba83-c0c4-4db9-b8c5-28da1b9b8fa8"},"vehicle_type_id":"4","last_reported":1781276376,"current_range_meters":2800,"station_id":"ce4bhch2rcd13ifvqeug","pricing_plan_id":"cebpf4jnsgd1na2vs0mg"},{"bike_id":"b2ad6388-0d4f-4e9c-8ff3-f1ad38b97382","system_id":"levelo_inurba_marseille","lat":43.27676,"lon":5.42441,"is_reserved":false,"is_disabled":false,"rental_uris":{"android":"levelo://app?vid=b2ad6388-0d4f-4e9c-8ff3-f1ad38b97382","ios":"levelo://app?vid=b2ad6388-0d4f-4e9c-8ff3-f1ad38b97382"},"vehicle_type_id":"4","last_reported":1781276376,"current_range_meters":3200,"station_id":"","pricing_plan_id":"cebpf4jnsgd1na2vs0mg"},{"bike_id":"89045bac-5db9-4edf-ae8e-f81a7bc39e2d","system_id":"levelo_inurba_marseille","lat":43.27633,"lon":5.36101,"is_reserved":false,"is_disabled":false,"rental_uris":{"android":"levelo://app?vid=89045bac-5db9-4edf-ae8e-f81a7bc39e2d","ios":"levelo://app?vid=89045bac-5db9-4edf-ae8e-f81a7bc39e2d"},"vehicle_type_id":"4","last_reported":1781276376,"current_range_meters":3200,"station_id":"ce4bgj92rcd13ifvqbe0","pricing_plan_id":"cebpf4jnsgd1na2vs0mg"},{"bike_id":"1bc3d913-636b-4a3d-bdfd-83126cd6b142","system_id":"levelo_inurba_marseille","lat":43.25505,"lon":5.37628,"is_reserved":false,"is_disabled":false,"rental_uris":{"android":"levelo://app?vid=1bc3d913-636b-4a3d-bdfd-83126cd6b142","ios":"levelo://app?vid=1bc3d913-636b-4a3d-bdfd-83126cd6b142"},"vehicle_type_id":"4","last_reported":1781276376,"current_range_meters":3200,"station_id":"ce4bhh12rcd13ifvqff0","pricing_plan_id":"cebpf4jnsgd1na2vs0mg"},{"bike_id":"aad626b2-6f57-4878-b908-8561b610d50e","system_id":"levelo_inurba_marseille","lat":43.27622,"lon":5.36109,"is_reserved":false,"is_disabled":true,"rental_uris":{"android":"levelo://app?vid=aad626b2-6f57-4878-b908-8561b610d50e","ios":"levelo://app?vid=aad626b2-6f57-4878-b908-8561b610d50e"},"vehicle_type_id":"4","last_reported":1781276376,"current_range_meters":3200,"station_id":"ce4bgj92rcd13ifvqbe0","pricing_plan_id":"cebpf4jnsgd1na2vs0mg"},{"bike_id":"1344e19f-abb8-4038-9458-038ddbf926ba","system_id":"levelo_inurba_marseille","lat":43.28068,"lon":5.36928,"is_reserved":false,"is_disabled":false,"rental_uris":{"android":"levelo://app?vid=1344e19f-abb8-4038-9458-038ddbf926ba","ios":"levelo://app?vid=1344e19f-abb8-4038-9458-038ddbf926ba"},"vehicle_type_id":"4","last_reported":1781276376,"current_range_meters":3200,"station_id":"ce4bha12rcd13ifvqef0","pricing_plan_id":"cebpf4jnsgd1na2vs0mg"},{"bike_id":"136f22dd-7519-4f19-a44c-ea3115340aea","system_id":"levelo_inurba_marseille","lat":43.30455,"lon":5.37903,"is_reserved":false,"is_disabled":false,"rental_uris":{"android":"levelo://app?vid=136f22dd-7519-4f19-a44c-ea3115340aea","ios":"levelo://app?vid=136f22dd-7519-4f19-a44c-ea3115340aea"},"vehicle_type_id":"4","last_reported":1781276376,"current_range_meters":3200,"station_id":"ce4bgup2rcd13ifvqcn0","pricing_plan_id":"cebpf4jnsgd1na2vs0mg"},{"bike_id":"51870420-989f-4663-9ff0-781a68656ef4","system_id":"levelo_inurba_marseille","lat":43.27366,"lon":5.36261,"is_reserved":false,"is_disabled":false,"rental_uris":{"android":"levelo://app?vid=51870420-989f-4663-9ff0-781a68656ef4","ios":"levelo://app?vid=51870420-989f-4663-9ff0-781a68656ef4"},"vehicle_type_id":"4","last_reported":1781276376,"current_range_meters":3200,"station_id":"ce4bhbh2rcd13ifvqeo0","pricing_plan_id":"cebpf4jnsgd1na2vs0mg"},{"bike_id":"6f3ebf44-02ae-4670-a514-ba85d8341547","system_id":"levelo_inurba_marseille","lat":43.302509,"lon":5.400607,"is_reserved":false,"is_disabled":false,"rental_uris":{"android":"levelo://app?vid=6f3ebf44-02ae-4670-a514-ba85d8341547","ios":"levelo://app?vid=6f3ebf44-02ae-4670-a514-ba85d8341547"},"vehicle_type_id":"4","last_reported":1781276376,"current_range_meters":3200,"station_id":"ce4bgvh2rcd13ifvqcs0","pricing_plan_id":"cebpf4jnsgd1na2vs0mg"},{"bike_id":"548ca3f8-bc2d-46ba-bbc0-fa615c1c43dc","system_id":"levelo_inurba_marseille","lat":43.27663,"lon":5.38888,"is_reserved":false,"is_disabled":true,"rental_uris":{"android":"levelo://app?vid=548ca3f8-bc2d-46ba-bbc0-fa615c1c43dc","ios":"levelo://app?vid=548ca3f8-bc2d-46ba-bbc0-fa615c1c43dc"},"vehicle_type_id":"4","last_reported":1781276376,"current_range_meters":3200,"station_id":"ce4bhi12rcd13ifvqfo0","pricing_plan_id":"cebpf4jnsgd1na2vs0mg"},{"bike_id":"27a8334a-9bf9-4413-b03a-73253ccbfa22","system_id":"levelo_inurba_marseille","lat":43.24382,"lon":5.37085,"is_reserved":false,"is_disabled":false,"rental_uris":{"android":"levelo://app?vid=27a8334a-9bf9-4413-b03a-73253ccbfa22","ios":"levelo://app?vid=27a8334a-9bf9-4413-b03a-73253ccbfa22"},"vehicle_type_id":"4","last_reported":1781276376,"current_range_meters":3200,"station_id":"ce4bhhh2rcd13ifvqfk0","pricing_plan_id":"cebpf4jnsgd1na2vs0mg"},{"bike_id":"b4991190-20f6-42f0-937c-e415fc7e90dd","system_id":"levelo_inurba_marseille","lat":43.30929,"lon":5.40151,"is_reserved":false,"is_disabled":false,"rental_uris":{"android":"levelo://app?vid=b4991190-20f6-42f0-937c-e415fc7e90dd","ios":"levelo://app?vid=b4991190-20f6-42f0-937c-e415fc7e90dd"},"vehicle_type_id":"4","last_reported":1781276376,"current_range_meters":3200,"station_id":"ce4bgvp2rcd13ifvqct0","pricing_plan_id":"cebpf4jnsgd1na2vs0mg"},{"bike_id":"9f78c3d6-f61a-4b81-ae6f-53563c8463a8","system_id":"levelo_inurba_marseille","lat":43.28805,"lon":5.35865,"is_reserved":false,"is_disabled":false,"rental_uris":{"android":"levelo://app?vid=9f78c3d6-f61a-4b81-ae6f-53563c8463a8","ios":"levelo://app?vid=9f78c3d6-f61a-4b81-ae6f-53563c8463a8"},"vehicle_type_id":"4","last_reported":1781276376,"current_range_meters":3200,"station_id":"","pricing_plan_id":"cebpf4jnsgd1na2vs0mg"},{"bike_id":"ce06da4f-0abb-4844-94c0-6480ea5d9ebc","system_id":"levelo_inurba_marseille","lat":43.27644,"lon":5.36089,"is_reserved":false,"is_disabled":false,"rental_uris":{"android":"levelo://app?vid=ce06da4f-0abb-4844-94c0-6480ea5d9ebc","ios":"levelo://app?vid=ce06da4f-0abb-4844-94c0-6480ea5d9ebc"},"vehicle_type_id":"4","last_reported":1781276376,"current_range_meters":3200,"station_id":"ce4bgj92rcd13ifvqbe0","pricing_plan_id":"cebpf4jnsgd1na2vs0mg"},{"bike_id":"32e65dbb-64c4-4911-9176-a4e011b0a593","system_id":"levelo_inurba_marseille","lat":43.28662,"lon":5.42646,"is_reserved":false,"is_disabled":false,"rental_uris":{"android":"levelo://app?vid=32e65dbb-64c4-4911-9176-a4e011b0a593","ios":"levelo://app?vid=32e65dbb-64c4-4911-9176-a4e011b0a593"},"vehicle_type_id":"4","last_reported":1781276376,"current_range_meters":3200,"station_id":"","pricing_plan_id":"cebpf4jnsgd1na2vs0mg"},{"bike_id":"187f391b-4b33-488e-9d94-27999b863b0c","system_id":"levelo_inurba_marseille","lat":43.25496,"lon":5.37647,"is_reserved":false,"is_disabled":false,"rental_uris":{"android":"levelo://app?vid=187f391b-4b33-488e-9d94-27999b863b0c","ios":"levelo://app?vid=187f391b-4b33-488e-9d94-27999b863b0c"},"vehicle_type_id":"4","last_reported":1781276376,"current_range_meters":3200,"station_id":"ce4bhh12rcd13ifvqff0","pricing_plan_id":"cebpf4jnsgd1na2vs0mg"},{"bike_id":"dbbedb1b-931f-4a09-acff-e8e913774b7f","system_id":"levelo_inurba_marseille","lat":43.24797,"lon":5.37446,"is_reserved":false,"is_disabled":false,"rental_uris":{"android":"levelo://app?vid=dbbedb1b-931f-4a09-acff-e8e913774b7f","ios":"levelo://app?vid=dbbedb1b-931f-4a09-acff-e8e913774b7f"},"vehicle_type_id":"4","last_reported":1781276376,"current_range_meters":3200,"station_id":"ce4bhgh2rcd13ifvqfb0","pricing_plan_id":"cebpf4jnsgd1na2vs0mg"},{"bike_id":"cdb51552-946c-4f57-8807-f1cfa55d450c","system_id":"levelo_inurba_marseille","lat":43.31504,"lon":5.37307,"is_reserved":false,"is_disabled":true,"rental_uris":{"android":"levelo://app?vid=cdb51552-946c-4f57-8807-f1cfa55d450c","ios":"levelo://app?vid=cdb51552-946c-4f57-8807-f1cfa55d450c"},"vehicle_type_id":"4","last_reported":1781276376,"current_range_meters":3200,"station_id":"ce4bgt12rcd13ifvqcd0","pricing_plan_id":"cebpf4jnsgd1na2vs0mg"},{"bike_id":"4904fcb2-7f2f-4e61-9c98-65bd0fa28d7e","system_id":"levelo_inurba_marseille","lat":43.283487,"lon":5.381089,"is_reserved":false,"is_disabled":false,"rental_uris":{"android":"levelo://app?vid=4904fcb2-7f2f-4e61-9c98-65bd0fa28d7e","ios":"levelo://app?vid=4904fcb2-7f2f-4e61-9c98-65bd0fa28d7e"},"vehicle_type_id":"4","last_reported":1781276376,"current_range_meters":3200,"station_id":"ce4bh412rcd13ifvqdr0","pricing_plan_id":"cebpf4jnsgd1na2vs0mg"},{"bike_id":"e936ce68-07d5-4b29-94c8-6fc84b32f351","system_id":"levelo_inurba_marseille","lat":43.29391,"lon":5.39655,"is_reserved":false,"is_disabled":false,"rental_uris":{"android":"levelo://app?vid=e936ce68-07d5-4b29-94c8-6fc84b32f351","ios":"levelo://app?vid=e936ce68-07d5-4b29-94c8-6fc84b32f351"},"vehicle_type_id":"4","last_reported":1781276376,"current_range_meters":3200,"station_id":"","pricing_plan_id":"cebpf4jnsgd1na2vs0mg"},{"bike_id":"ec3871a7-fb68-40be-a633-843cae03923e","system_id":"levelo_inurba_marseille","lat":43.24137,"lon":5.36441,"is_reserved":false,"is_disabled":false,"rental_uris":{"android":"levelo://app?vid=ec3871a7-fb68-40be-a633-843cae03923e","ios":"levelo://app?vid=ec3871a7-fb68-40be-a633-843cae03923e"},"vehicle_type_id":"4","last_reported":1781276376,"current_range_meters":3200,"station_id":"","pricing_plan_id":"cebpf4jnsgd1na2vs0mg"},{"bike_id":"643a5108-6712-460c-84ac-96a9e310c2a1","system_id":"levelo_inurba_marseille","lat":43.32335,"lon":5.36766,"is_reserved":false,"is_disabled":false,"rental_uris":{"android":"levelo://app?vid=643a5108-6712-460c-84ac-96a9e310c2a1","ios":"levelo://app?vid=643a5108-6712-460c-84ac-96a9e310c2a1"},"vehicle_type_id":"4","last_reported":1781276376,"current_range_meters":3600,"station_id":"","pricing_plan_id":"cebpf4jnsgd1na2vs0mg"},{"bike_id":"0a743a51-5728-422c-8a96-f69476a8f4cb","system_id":"levelo_inurba_marseille","lat":43.2762,"lon":5.36108,"is_reserved":false,"is_disabled":false,"rental_uris":{"android":"levelo://app?vid=0a743a51-5728-422c-8a96-f69476a8f4cb","ios":"levelo://app?vid=0a743a51-5728-422c-8a96-f69476a8f4cb"},"vehicle_type_id":"4","last_reported":1781276376,"current_range_meters":3600,"station_id":"ce4bgj92rcd13ifvqbe0","pricing_plan_id":"cebpf4jnsgd1na2vs0mg"},{"bike_id":"7d670955-2936-440c-bd70-613ec77c1cc0","system_id":"levelo_inurba_marseille","lat":43.26217,"lon":5.37419,"is_reserved":false,"is_disabled":true,"rental_uris":{"android":"levelo://app?vid=7d670955-2936-440c-bd70-613ec77c1cc0","ios":"levelo://app?vid=7d670955-2936-440c-bd70-613ec77c1cc0"},"vehicle_type_id":"4","last_reported":1781276376,"current_range_meters":3600,"station_id":"","pricing_plan_id":"cebpf4jnsgd1na2vs0mg"},{"bike_id":"5ac28b06-af05-4d8b-a509-2f5043908588","system_id":"levelo_inurba_marseille","lat":43.23444,"lon":5.36847,"is_reserved":false,"is_disabled":false,"rental_uris":{"android":"levelo://app?vid=5ac28b06-af05-4d8b-a509-2f5043908588","ios":"levelo://app?vid=5ac28b06-af05-4d8b-a509-2f5043908588"},"vehicle_type_id":"4","last_reported":1781276376,"current_range_meters":3600,"station_id":"","pricing_plan_id":"cebpf4jnsgd1na2vs0mg"},{"bike_id":"17be60fe-ff7f-4ced-b2c5-f100be112574","system_id":"levelo_inurba_marseille","lat":43.31352,"lon":5.38499,"is_reserved":false,"is_disabled":true,"rental_uris":{"android":"levelo://app?vid=17be60fe-ff7f-4ced-b2c5-f100be112574","ios":"levelo://app?vid=17be60fe-ff7f-4ced-b2c5-f100be112574"},"vehicle_type_id":"4","last_reported":1781276376,"current_range_meters":3600,"station_id":"ce4bgt92rcd13ifvqcf0","pricing_plan_id":"cebpf4jnsgd1na2vs0mg"},{"bike_id":"39008bdd-ec06-4509-aef5-6005174c0c03","system_id":"levelo_inurba_marseille","lat":43.27948,"lon":5.38512,"is_reserved":false,"is_disabled":false,"rental_uris":{"android":"levelo://app?vid=39008bdd-ec06-4509-aef5-6005174c0c03","ios":"levelo://app?vid=39008bdd-ec06-4509-aef5-6005174c0c03"},"vehicle_type_id":"4","last_reported":1781276376,"current_range_meters":3600,"station_id":"","pricing_plan_id":"cebpf4jnsgd1na2vs0mg"},{"bike_id":"758b8575-bd39-4c4b-83ba-b708bb22f91d","system_id":"levelo_inurba_marseille","lat":43.2757,"lon":5.35952,"is_reserved":false,"is_disabled":false,"rental_uris":{"android":"levelo://app?vid=758b8575-bd39-4c4b-83ba-b708bb22f91d","ios":"levelo://app?vid=758b8575-bd39-4c4b-83ba-b708bb22f91d"},"vehicle_type_id":"4","last_reported":1781276376,"current_range_meters":3600,"station_id":"","pricing_plan_id":"cebpf4jnsgd1na2vs0mg"},{"bike_id":"3fffbc78-e8ac-41bd-84e9-8c674976bff2","system_id":"levelo_inurba_marseille","lat":43.2803,"lon":5.36934,"is_reserved":false,"is_disabled":false,"rental_uris":{"android":"levelo://app?vid=3fffbc78-e8ac-41bd-84e9-8c674976bff2","ios":"levelo://app?vid=3fffbc78-e8ac-41bd-84e9-8c674976bff2"},"vehicle_type_id":"4","last_reported":1781276376,"current_range_meters":3600,"station_id":"ce4bha12rcd13ifvqef0","pricing_plan_id":"cebpf4jnsgd1na2vs0mg"},{"bike_id":"f165abb2-7744-4ffb-b278-55e94862d529","system_id":"levelo_inurba_marseille","lat":43.25547,"lon":5.39177,"is_reserved":false,"is_disabled":false,"rental_uris":{"android":"levelo://app?vid=f165abb2-7744-4ffb-b278-55e94862d529","ios":"levelo://app?vid=f165abb2-7744-4ffb-b278-55e94862d529"},"vehicle_type_id":"4","last_reported":1781276376,"current_range_meters":3600,"station_id":"","pricing_plan_id":"cebpf4jnsgd1na2vs0mg"},{"bike_id":"f1ca9858-81af-4e34-9985-71791eff7ace","system_id":"levelo_inurba_marseille","lat":43.21756,"lon":5.34594,"is_reserved":false,"is_disabled":false,"rental_uris":{"android":"levelo://app?vid=f1ca9858-81af-4e34-9985-71791eff7ace","ios":"levelo://app?vid=f1ca9858-81af-4e34-9985-71791eff7ace"},"vehicle_type_id":"4","last_reported":1781276376,"current_range_meters":3600,"station_id":"st_cvj6r9ubvosntc0bgbag","pricing_plan_id":"cebpf4jnsgd1na2vs0mg"},{"bike_id":"b855a78c-e866-4ac9-af9e-4323743f054f","system_id":"levelo_inurba_marseille","lat":43.29524,"lon":5.38541,"is_reserved":false,"is_disabled":false,"rental_uris":{"android":"levelo://app?vid=b855a78c-e866-4ac9-af9e-4323743f054f","ios":"levelo://app?vid=b855a78c-e866-4ac9-af9e-4323743f054f"},"vehicle_type_id":"4","last_reported":1781276376,"current_range_meters":3600,"station_id":"ce4bgih2rcd13ifvqba0","pricing_plan_id":"cebpf4jnsgd1na2vs0mg"},{"bike_id":"8682f4e8-0798-4b4f-8fef-c4dc002ea1c8","system_id":"levelo_inurba_marseille","lat":43.29134,"lon":5.46096,"is_reserved":false,"is_disabled":false,"rental_uris":{"android":"levelo://app?vid=8682f4e8-0798-4b4f-8fef-c4dc002ea1c8","ios":"levelo://app?vid=8682f4e8-0798-4b4f-8fef-c4dc002ea1c8"},"vehicle_type_id":"4","last_reported":1781276376,"current_range_meters":3600,"station_id":"","pricing_plan_id":"cebpf4jnsgd1na2vs0mg"},{"bike_id":"46fa54df-b877-4d49-920a-116ba71b8b31","system_id":"levelo_inurba_marseille","lat":43.3267,"lon":5.41004,"is_reserved":false,"is_disabled":false,"rental_uris":{"android":"levelo://app?vid=46fa54df-b877-4d49-920a-116ba71b8b31","ios":"levelo://app?vid=46fa54df-b877-4d49-920a-116ba71b8b31"},"vehicle_type_id":"4","last_reported":1781276376,"current_range_meters":3600,"station_id":"ce4bhpp2rcd13ifvqhgg","pricing_plan_id":"cebpf4jnsgd1na2vs0mg"},{"bike_id":"75248494-6e46-4c4b-92d2-9db9ddbe9016","system_id":"levelo_inurba_marseille","lat":43.28462,"lon":5.48401,"is_reserved":false,"is_disabled":false,"rental_uris":{"android":"levelo://app?vid=75248494-6e46-4c4b-92d2-9db9ddbe9016","ios":"levelo://app?vid=75248494-6e46-4c4b-92d2-9db9ddbe9016"},"vehicle_type_id":"4","last_reported":1781276376,"current_range_meters":3600,"station_id":"st_d3svhcjqgbts73a3dn0g","pricing_plan_id":"cebpf4jnsgd1na2vs0mg"},{"bike_id":"febe24ba-ed7f-4a35-a936-4be5afd1552f","system_id":"levelo_inurba_marseille","lat":43.24072,"lon":5.37775,"is_reserved":false,"is_disabled":false,"rental_uris":{"android":"levelo://app?vid=febe24ba-ed7f-4a35-a936-4be5afd1552f","ios":"levelo://app?vid=febe24ba-ed7f-4a35-a936-4be5afd1552f"},"vehicle_type_id":"4","last_reported":1781276376,"current_range_meters":3600,"station_id":"ce4bhnp2rcd13ifvqgvg","pricing_plan_id":"cebpf4jnsgd1na2vs0mg"},{"bike_id":"7541eafb-8397-4675-a586-67a033cebbbb","system_id":"levelo_inurba_marseille","lat":43.30591,"lon":5.37222,"is_reserved":false,"is_disabled":false,"rental_uris":{"android":"levelo://app?vid=7541eafb-8397-4675-a586-67a033cebbbb","ios":"levelo://app?vid=7541eafb-8397-4675-a586-67a033cebbbb"},"vehicle_type_id":"4","last_reported":1781276376,"current_range_meters":3600,"station_id":"ce4bgqh2rcd13ifvqc4g","pricing_plan_id":"cebpf4jnsgd1na2vs0mg"},{"bike_id":"977075a4-40dc-4723-a526-d5ddfecea214","system_id":"levelo_inurba_marseille","lat":43.24936,"lon":5.40506,"is_reserved":false,"is_disabled":false,"rental_uris":{"android":"levelo://app?vid=977075a4-40dc-4723-a526-d5ddfecea214","ios":"levelo://app?vid=977075a4-40dc-4723-a526-d5ddfecea214"},"vehicle_type_id":"4","last_reported":1781276376,"current_range_meters":4000,"station_id":"st_d2ngiaodas8pm72gd1h0","pricing_plan_id":"cebpf4jnsgd1na2vs0mg"},{"bike_id":"2e41d0d3-9e86-4c08-89a6-e0a70cc8ae89","system_id":"levelo_inurba_marseille","lat":43.29248,"lon":5.38251,"is_reserved":false,"is_disabled":true,"rental_uris":{"android":"levelo://app?vid=2e41d0d3-9e86-4c08-89a6-e0a70cc8ae89","ios":"levelo://app?vid=2e41d0d3-9e86-4c08-89a6-e0a70cc8ae89"},"vehicle_type_id":"4","last_reported":1781276376,"current_range_meters":4000,"station_id":"","pricing_plan_id":"cebpf4jnsgd1na2vs0mg"},{"bike_id":"86980992-c341-4d42-9003-5f417602c220","system_id":"levelo_inurba_marseille","lat":43.29612,"lon":5.38011,"is_reserved":false,"is_disabled":false,"rental_uris":{"android":"levelo://app?vid=86980992-c341-4d42-9003-5f417602c220","ios":"levelo://app?vid=86980992-c341-4d42-9003-5f417602c220"},"vehicle_type_id":"4","last_reported":1781276376,"current_range_meters":4000,"station_id":"","pricing_plan_id":"cebpf4jnsgd1na2vs0mg"},{"bike_id":"f0818b5d-42d0-4804-9926-1b5efffc7a77","system_id":"levelo_inurba_marseille","lat":43.26214,"lon":5.37481,"is_reserved":false,"is_disabled":false,"rental_uris":{"android":"levelo://app?vid=f0818b5d-42d0-4804-9926-1b5efffc7a77","ios":"levelo://app?vid=f0818b5d-42d0-4804-9926-1b5efffc7a77"},"vehicle_type_id":"4","last_reported":1781276376,"current_range_meters":4000,"station_id":"ce4bhgp2rcd13ifvqfc0","pricing_plan_id":"cebpf4jnsgd1na2vs0mg"},{"bike_id":"f63e0e69-6a54-4e19-8d8e-f67680de3ed1","system_id":"levelo_inurba_marseille","lat":43.24649,"lon":5.43121,"is_reserved":false,"is_disabled":false,"rental_uris":{"android":"levelo://app?vid=f63e0e69-6a54-4e19-8d8e-f67680de3ed1","ios":"levelo://app?vid=f63e0e69-6a54-4e19-8d8e-f67680de3ed1"},"vehicle_type_id":"4","last_reported":1781276376,"current_range_meters":4000,"station_id":"st_d2m6c4gdas8pm72e190g","pricing_plan_id":"cebpf4jnsgd1na2vs0mg"},{"bike_id":"8859d173-9f5d-4e39-86ed-34ec86a90175","system_id":"levelo_inurba_marseille","lat":43.29909,"lon":5.42791,"is_reserved":false,"is_disabled":false,"rental_uris":{"android":"levelo://app?vid=8859d173-9f5d-4e39-86ed-34ec86a90175","ios":"levelo://app?vid=8859d173-9f5d-4e39-86ed-34ec86a90175"},"vehicle_type_id":"4","last_reported":1781276376,"current_range_meters":4000,"station_id":"","pricing_plan_id":"cebpf4jnsgd1na2vs0mg"},{"bike_id":"95936fb9-6643-4bdd-8b1f-c4ea9a60a36a","system_id":"levelo_inurba_marseille","lat":43.26216,"lon":5.38768,"is_reserved":false,"is_disabled":false,"rental_uris":{"android":"levelo://app?vid=95936fb9-6643-4bdd-8b1f-c4ea9a60a36a","ios":"levelo://app?vid=95936fb9-6643-4bdd-8b1f-c4ea9a60a36a"},"vehicle_type_id":"4","last_reported":1781276376,"current_range_meters":4000,"station_id":"st_d8gjfg747rts73coq3b0","pricing_plan_id":"cebpf4jnsgd1na2vs0mg"},{"bike_id":"4e0b615e-312c-4057-9a07-9db50c738a53","system_id":"levelo_inurba_marseille","lat":43.28669,"lon":5.36345,"is_reserved":false,"is_disabled":true,"rental_uris":{"android":"levelo://app?vid=4e0b615e-312c-4057-9a07-9db50c738a53","ios":"levelo://app?vid=4e0b615e-312c-4057-9a07-9db50c738a53"},"vehicle_type_id":"4","last_reported":1781276376,"current_range_meters":4000,"station_id":"ce4bhah2rcd13ifvqej0","pricing_plan_id":"cebpf4jnsgd1na2vs0mg"},{"bike_id":"2507d607-3822-4c87-a669-ab9b0690fc01","system_id":"levelo_inurba_marseille","lat":43.28617,"lon":5.35094,"is_reserved":false,"is_disabled":false,"rental_uris":{"android":"levelo://app?vid=2507d607-3822-4c87-a669-ab9b0690fc01","ios":"levelo://app?vid=2507d607-3822-4c87-a669-ab9b0690fc01"},"vehicle_type_id":"4","last_reported":1781276376,"current_range_meters":4000,"station_id":"ce4bhch2rcd13ifvqeug","pricing_plan_id":"cebpf4jnsgd1na2vs0mg"},{"bike_id":"2af269df-32bd-44f3-8103-7b38dd9c1830","system_id":"levelo_inurba_marseille","lat":43.25866,"lon":5.39894,"is_reserved":false,"is_disabled":false,"rental_uris":{"android":"levelo://app?vid=2af269df-32bd-44f3-8103-7b38dd9c1830","ios":"levelo://app?vid=2af269df-32bd-44f3-8103-7b38dd9c1830"},"vehicle_type_id":"4","last_reported":1781276376,"current_range_meters":4000,"station_id":"ce4bhl92rcd13ifvqghg","pricing_plan_id":"cebpf4jnsgd1na2vs0mg"},{"bike_id":"03dc5480-e687-466e-8f4b-f08bf4766fe6","system_id":"levelo_inurba_marseille","lat":43.31715,"lon":5.40474,"is_reserved":false,"is_disabled":false,"rental_uris":{"android":"levelo://app?vid=03dc5480-e687-466e-8f4b-f08bf4766fe6","ios":"levelo://app?vid=03dc5480-e687-466e-8f4b-f08bf4766fe6"},"vehicle_type_id":"4","last_reported":1781276376,"current_range_meters":4000,"station_id":"ce4bh012rcd13ifvqd00","pricing_plan_id":"cebpf4jnsgd1na2vs0mg"},{"bike_id":"cd96002d-2d10-40e5-9ddf-f0850a393e6e","system_id":"levelo_inurba_marseille","lat":43.26395,"lon":5.37823,"is_reserved":false,"is_disabled":false,"rental_uris":{"android":"levelo://app?vid=cd96002d-2d10-40e5-9ddf-f0850a393e6e","ios":"levelo://app?vid=cd96002d-2d10-40e5-9ddf-f0850a393e6e"},"vehicle_type_id":"4","last_reported":1781276376,"current_range_meters":4000,"station_id":"","pricing_plan_id":"cebpf4jnsgd1na2vs0mg"},{"bike_id":"216e856e-229a-4998-9698-f2699480ab86","system_id":"levelo_inurba_marseille","lat":43.31039,"lon":5.37185,"is_reserved":false,"is_disabled":false,"rental_uris":{"android":"levelo://app?vid=216e856e-229a-4998-9698-f2699480ab86","ios":"levelo://app?vid=216e856e-229a-4998-9698-f2699480ab86"},"vehicle_type_id":"4","last_reported":1781276376,"current_range_meters":4000,"station_id":"st_d4kl2rp97mjs73e7tdfg","pricing_plan_id":"cebpf4jnsgd1na2vs0mg"},{"bike_id":"01aba978-2b0d-48ac-83cb-dbf9c6c59825","system_id":"levelo_inurba_marseille","lat":43.28622,"lon":5.35113,"is_reserved":false,"is_disabled":false,"rental_uris":{"android":"levelo://app?vid=01aba978-2b0d-48ac-83cb-dbf9c6c59825","ios":"levelo://app?vid=01aba978-2b0d-48ac-83cb-dbf9c6c59825"},"vehicle_type_id":"4","last_reported":1781276376,"current_range_meters":4400,"station_id":"ce4bhch2rcd13ifvqeug","pricing_plan_id":"cebpf4jnsgd1na2vs0mg"},{"bike_id":"2a192182-021b-439d-a0e2-993561972500","system_id":"levelo_inurba_marseille","lat":43.225345,"lon":5.348271,"is_reserved":false,"is_disabled":false,"rental_uris":{"android":"levelo://app?vid=2a192182-021b-439d-a0e2-993561972500","ios":"levelo://app?vid=2a192182-021b-439d-a0e2-993561972500"},"vehicle_type_id":"4","last_reported":1781276376,"current_range_meters":4400,"station_id":"st_cvj5dfep6f1abm77gieg","pricing_plan_id":"cebpf4jnsgd1na2vs0mg"},{"bike_id":"40877921-cf64-4231-b6a7-7f65220da3fe","system_id":"levelo_inurba_marseille","lat":43.29594,"lon":5.38075,"is_reserved":false,"is_disabled":true,"rental_uris":{"android":"levelo://app?vid=40877921-cf64-4231-b6a7-7f65220da3fe","ios":"levelo://app?vid=40877921-cf64-4231-b6a7-7f65220da3fe"},"vehicle_type_id":"4","last_reported":1781276376,"current_range_meters":4400,"station_id":"ce4bgl12rcd13ifvqbo0","pricing_plan_id":"cebpf4jnsgd1na2vs0mg"},{"bike_id":"06767081-05f6-4a8c-98f4-4be661197b4b","system_id":"levelo_inurba_marseille","lat":43.29267,"lon":5.38443,"is_reserved":false,"is_disabled":false,"rental_uris":{"android":"levelo://app?vid=06767081-05f6-4a8c-98f4-4be661197b4b","ios":"levelo://app?vid=06767081-05f6-4a8c-98f4-4be661197b4b"},"vehicle_type_id":"4","last_reported":1781276376,"current_range_meters":4400,"station_id":"ce4bh692rcd13ifvqea0","pricing_plan_id":"cebpf4jnsgd1na2vs0mg"},{"bike_id":"9bf32968-1f36-4b05-b517-f25edf405240","system_id":"levelo_inurba_marseille","lat":43.28713,"lon":5.37934,"is_reserved":false,"is_disabled":false,"rental_uris":{"android":"levelo://app?vid=9bf32968-1f36-4b05-b517-f25edf405240","ios":"levelo://app?vid=9bf32968-1f36-4b05-b517-f25edf405240"},"vehicle_type_id":"4","last_reported":1781276376,"current_range_meters":4400,"station_id":"ce4bh9p2rcd13ifvqec0","pricing_plan_id":"cebpf4jnsgd1na2vs0mg"},{"bike_id":"3643eb2e-b0e4-40f6-9aa2-b567c4963540","system_id":"levelo_inurba_marseille","lat":43.3211,"lon":5.36764,"is_reserved":false,"is_disabled":false,"rental_uris":{"android":"levelo://app?vid=3643eb2e-b0e4-40f6-9aa2-b567c4963540","ios":"levelo://app?vid=3643eb2e-b0e4-40f6-9aa2-b567c4963540"},"vehicle_type_id":"4","last_reported":1781276376,"current_range_meters":4400,"station_id":"ce4bhrh2rcd13ifvqhug","pricing_plan_id":"cebpf4jnsgd1na2vs0mg"},{"bike_id":"2e26d0e9-aca9-4cbe-acea-6ca83db1a561","system_id":"levelo_inurba_marseille","lat":43.297053,"lon":5.376977,"is_reserved":false,"is_disabled":false,"rental_uris":{"android":"levelo://app?vid=2e26d0e9-aca9-4cbe-acea-6ca83db1a561","ios":"levelo://app?vid=2e26d0e9-aca9-4cbe-acea-6ca83db1a561"},"vehicle_type_id":"4","last_reported":1781276376,"current_range_meters":4400,"station_id":"ce4bh392rcd13ifvqdm0","pricing_plan_id":"cebpf4jnsgd1na2vs0mg"},{"bike_id":"40de0209-043c-4ed6-84c3-7ac1da5cf58d","system_id":"levelo_inurba_marseille","lat":43.32108,"lon":5.36768,"is_reserved":false,"is_disabled":false,"rental_uris":{"android":"levelo://app?vid=40de0209-043c-4ed6-84c3-7ac1da5cf58d","ios":"levelo://app?vid=40de0209-043c-4ed6-84c3-7ac1da5cf58d"},"vehicle_type_id":"4","last_reported":1781276376,"current_range_meters":4400,"station_id":"ce4bhrh2rcd13ifvqhug","pricing_plan_id":"cebpf4jnsgd1na2vs0mg"},{"bike_id":"fe2df644-7bea-4dc1-8da3-287677d6e6bf","system_id":"levelo_inurba_marseille","lat":43.28404,"lon":5.35264,"is_reserved":false,"is_disabled":false,"rental_uris":{"android":"levelo://app?vid=fe2df644-7bea-4dc1-8da3-287677d6e6bf","ios":"levelo://app?vid=fe2df644-7bea-4dc1-8da3-287677d6e6bf"},"vehicle_type_id":"4","last_reported":1781276376,"current_range_meters":4400,"station_id":"","pricing_plan_id":"cebpf4jnsgd1na2vs0mg"},{"bike_id":"2e6388d4-c3db-4d7e-abae-479608ecbfc7","system_id":"levelo_inurba_marseille","lat":43.30479,"lon":5.37902,"is_reserved":false,"is_disabled":false,"rental_uris":{"android":"levelo://app?vid=2e6388d4-c3db-4d7e-abae-479608ecbfc7","ios":"levelo://app?vid=2e6388d4-c3db-4d7e-abae-479608ecbfc7"},"vehicle_type_id":"4","last_reported":1781276376,"current_range_meters":4400,"station_id":"ce4bgup2rcd13ifvqcn0","pricing_plan_id":"cebpf4jnsgd1na2vs0mg"},{"bike_id":"3371e92b-963a-4ab0-918d-9217e8fd09be","system_id":"levelo_inurba_marseille","lat":43.28371,"lon":5.36732,"is_reserved":false,"is_disabled":false,"rental_uris":{"android":"levelo://app?vid=3371e92b-963a-4ab0-918d-9217e8fd09be","ios":"levelo://app?vid=3371e92b-963a-4ab0-918d-9217e8fd09be"},"vehicle_type_id":"4","last_reported":1781276376,"current_range_meters":4400,"station_id":"","pricing_plan_id":"cebpf4jnsgd1na2vs0mg"},{"bike_id":"3a44773b-a64a-45f6-9197-56969bf49878","system_id":"levelo_inurba_marseille","lat":43.29724,"lon":5.37028,"is_reserved":false,"is_disabled":false,"rental_uris":{"android":"levelo://app?vid=3a44773b-a64a-45f6-9197-56969bf49878","ios":"levelo://app?vid=3a44773b-a64a-45f6-9197-56969bf49878"},"vehicle_type_id":"4","last_reported":1781276376,"current_range_meters":4400,"station_id":"","pricing_plan_id":"cebpf4jnsgd1na2vs0mg"},{"bike_id":"8784c821-b8dd-453c-859a-42e09f4385aa","system_id":"levelo_inurba_marseille","lat":43.28666,"lon":5.36344,"is_reserved":false,"is_disabled":false,"rental_uris":{"android":"levelo://app?vid=8784c821-b8dd-453c-859a-42e09f4385aa","ios":"levelo://app?vid=8784c821-b8dd-453c-859a-42e09f4385aa"},"vehicle_type_id":"4","last_reported":1781276376,"current_range_meters":4400,"station_id":"ce4bhah2rcd13ifvqej0","pricing_plan_id":"cebpf4jnsgd1na2vs0mg"},{"bike_id":"2ca137e5-3ca8-4479-9cac-39265871a0b1","system_id":"levelo_inurba_marseille","lat":43.27845,"lon":5.42445,"is_reserved":false,"is_disabled":false,"rental_uris":{"android":"levelo://app?vid=2ca137e5-3ca8-4479-9cac-39265871a0b1","ios":"levelo://app?vid=2ca137e5-3ca8-4479-9cac-39265871a0b1"},"vehicle_type_id":"4","last_reported":1781276376,"current_range_meters":4400,"station_id":"","pricing_plan_id":"cebpf4jnsgd1na2vs0mg"},{"bike_id":"65a2a5a4-d407-4bc0-bb5b-7b368feae404","system_id":"levelo_inurba_marseille","lat":43.30463,"lon":5.37911,"is_reserved":false,"is_disabled":false,"rental_uris":{"android":"levelo://app?vid=65a2a5a4-d407-4bc0-bb5b-7b368feae404","ios":"levelo://app?vid=65a2a5a4-d407-4bc0-bb5b-7b368feae404"},"vehicle_type_id":"4","last_reported":1781276376,"current_range_meters":4800,"station_id":"ce4bgup2rcd13ifvqcn0","pricing_plan_id":"cebpf4jnsgd1na2vs0mg"},{"bike_id":"289835d9-46f7-4d5a-b391-e75e9ec87e86","system_id":"levelo_inurba_marseille","lat":43.28349,"lon":5.381,"is_reserved":false,"is_disabled":false,"rental_uris":{"android":"levelo://app?vid=289835d9-46f7-4d5a-b391-e75e9ec87e86","ios":"levelo://app?vid=289835d9-46f7-4d5a-b391-e75e9ec87e86"},"vehicle_type_id":"4","last_reported":1781276376,"current_range_meters":4800,"station_id":"ce4bh412rcd13ifvqdr0","pricing_plan_id":"cebpf4jnsgd1na2vs0mg"},{"bike_id":"1f7fcf63-ab0d-42b0-8188-1aca69b700b7","system_id":"levelo_inurba_marseille","lat":43.28849,"lon":5.39295,"is_reserved":false,"is_disabled":false,"rental_uris":{"android":"levelo://app?vid=1f7fcf63-ab0d-42b0-8188-1aca69b700b7","ios":"levelo://app?vid=1f7fcf63-ab0d-42b0-8188-1aca69b700b7"},"vehicle_type_id":"4","last_reported":1781276376,"current_range_meters":4800,"station_id":"ce4bh2p2rcd13ifvqdi0","pricing_plan_id":"cebpf4jnsgd1na2vs0mg"},{"bike_id":"8b6b68f1-e508-4aca-8408-2e25b4d6ced5","system_id":"levelo_inurba_marseille","lat":43.21196,"lon":5.35083,"is_reserved":false,"is_disabled":false,"rental_uris":{"android":"levelo://app?vid=8b6b68f1-e508-4aca-8408-2e25b4d6ced5","ios":"levelo://app?vid=8b6b68f1-e508-4aca-8408-2e25b4d6ced5"},"vehicle_type_id":"4","last_reported":1781276376,"current_range_meters":4800,"station_id":"st_cvj6sg6p6f1abm77japg","pricing_plan_id":"cebpf4jnsgd1na2vs0mg"},{"bike_id":"dfdc7236-bc3f-43d3-a1d1-c109f5d1209d","system_id":"levelo_inurba_marseille","lat":43.28713,"lon":5.36081,"is_reserved":false,"is_disabled":false,"rental_uris":{"android":"levelo://app?vid=dfdc7236-bc3f-43d3-a1d1-c109f5d1209d","ios":"levelo://app?vid=dfdc7236-bc3f-43d3-a1d1-c109f5d1209d"},"vehicle_type_id":"4","last_reported":1781276376,"current_range_meters":4800,"station_id":"cki0cbj6b192h4jlfktg","pricing_plan_id":"cebpf4jnsgd1na2vs0mg"},{"bike_id":"fdc21814-149a-410f-b193-382784505a0f","system_id":"levelo_inurba_marseille","lat":43.2379,"lon":5.36629,"is_reserved":false,"is_disabled":false,"rental_uris":{"android":"levelo://app?vid=fdc21814-149a-410f-b193-382784505a0f","ios":"levelo://app?vid=fdc21814-149a-410f-b193-382784505a0f"},"vehicle_type_id":"4","last_reported":1781276376,"current_range_meters":4800,"station_id":"st_d3nk18o9ro0c73en2l3g","pricing_plan_id":"cebpf4jnsgd1na2vs0mg"},{"bike_id":"12c4d417-faae-4b7e-ad45-f6ed3d2413d1","system_id":"levelo_inurba_marseille","lat":43.27622,"lon":5.36105,"is_reserved":false,"is_disabled":false,"rental_uris":{"android":"levelo://app?vid=12c4d417-faae-4b7e-ad45-f6ed3d2413d1","ios":"levelo://app?vid=12c4d417-faae-4b7e-ad45-f6ed3d2413d1"},"vehicle_type_id":"4","last_reported":1781276376,"current_range_meters":4800,"station_id":"ce4bgj92rcd13ifvqbe0","pricing_plan_id":"cebpf4jnsgd1na2vs0mg"},{"bike_id":"b7974c8d-c7bf-4090-b58a-47fbc83a3c0b","system_id":"levelo_inurba_marseille","lat":43.25409,"lon":5.42803,"is_reserved":false,"is_disabled":false,"rental_uris":{"android":"levelo://app?vid=b7974c8d-c7bf-4090-b58a-47fbc83a3c0b","ios":"levelo://app?vid=b7974c8d-c7bf-4090-b58a-47fbc83a3c0b"},"vehicle_type_id":"4","last_reported":1781276376,"current_range_meters":4800,"station_id":"","pricing_plan_id":"cebpf4jnsgd1na2vs0mg"},{"bike_id":"df0910d2-98e4-41b7-80c0-bc63c01fde5e","system_id":"levelo_inurba_marseille","lat":43.31346,"lon":5.43271,"is_reserved":false,"is_disabled":false,"rental_uris":{"android":"levelo://app?vid=df0910d2-98e4-41b7-80c0-bc63c01fde5e","ios":"levelo://app?vid=df0910d2-98e4-41b7-80c0-bc63c01fde5e"},"vehicle_type_id":"4","last_reported":1781276376,"current_range_meters":4800,"station_id":"","pricing_plan_id":"cebpf4jnsgd1na2vs0mg"},{"bike_id":"b28131f8-5d4a-4ae7-b5f4-de11a95f6dc8","system_id":"levelo_inurba_marseille","lat":43.225346,"lon":5.348337,"is_reserved":false,"is_disabled":false,"rental_uris":{"android":"levelo://app?vid=b28131f8-5d4a-4ae7-b5f4-de11a95f6dc8","ios":"levelo://app?vid=b28131f8-5d4a-4ae7-b5f4-de11a95f6dc8"},"vehicle_type_id":"4","last_reported":1781276376,"current_range_meters":4800,"station_id":"st_cvj5dfep6f1abm77gieg","pricing_plan_id":"cebpf4jnsgd1na2vs0mg"},{"bike_id":"088a5444-f5d5-4beb-9db7-274b2519a022","system_id":"levelo_inurba_marseille","lat":43.31877,"lon":5.39996,"is_reserved":false,"is_disabled":false,"rental_uris":{"android":"levelo://app?vid=088a5444-f5d5-4beb-9db7-274b2519a022","ios":"levelo://app?vid=088a5444-f5d5-4beb-9db7-274b2519a022"},"vehicle_type_id":"4","last_reported":1781276376,"current_range_meters":4800,"station_id":"","pricing_plan_id":"cebpf4jnsgd1na2vs0mg"},{"bike_id":"30046d34-eca3-4fba-bf41-b633dac1b4c8","system_id":"levelo_inurba_marseille","lat":43.31875,"lon":5.39985,"is_reserved":false,"is_disabled":false,"rental_uris":{"android":"levelo://app?vid=30046d34-eca3-4fba-bf41-b633dac1b4c8","ios":"levelo://app?vid=30046d34-eca3-4fba-bf41-b633dac1b4c8"},"vehicle_type_id":"4","last_reported":1781276376,"current_range_meters":4800,"station_id":"","pricing_plan_id":"cebpf4jnsgd1na2vs0mg"},{"bike_id":"dd29af7c-1855-4476-bc4e-64c598539321","system_id":"levelo_inurba_marseille","lat":43.29001,"lon":5.35609,"is_reserved":false,"is_disabled":false,"rental_uris":{"android":"levelo://app?vid=dd29af7c-1855-4476-bc4e-64c598539321","ios":"levelo://app?vid=dd29af7c-1855-4476-bc4e-64c598539321"},"vehicle_type_id":"4","last_reported":1781276376,"current_range_meters":4800,"station_id":"ce4bhb92rcd13ifvqen0","pricing_plan_id":"cebpf4jnsgd1na2vs0mg"},{"bike_id":"b71af7c2-4d98-4630-86ae-a4a165ba23e9","system_id":"levelo_inurba_marseille","lat":43.28872,"lon":5.37664,"is_reserved":false,"is_disabled":false,"rental_uris":{"android":"levelo://app?vid=b71af7c2-4d98-4630-86ae-a4a165ba23e9","ios":"levelo://app?vid=b71af7c2-4d98-4630-86ae-a4a165ba23e9"},"vehicle_type_id":"4","last_reported":1781276376,"current_range_meters":5600,"station_id":"","pricing_plan_id":"cebpf4jnsgd1na2vs0mg"},{"bike_id":"52e0ca30-f6db-4b40-a595-fe3e1b7ca10e","system_id":"levelo_inurba_marseille","lat":43.26196,"lon":5.37453,"is_reserved":false,"is_disabled":true,"rental_uris":{"android":"levelo://app?vid=52e0ca30-f6db-4b40-a595-fe3e1b7ca10e","ios":"levelo://app?vid=52e0ca30-f6db-4b40-a595-fe3e1b7ca10e"},"vehicle_type_id":"4","last_reported":1781276376,"current_range_meters":5600,"station_id":"ce4bhgp2rcd13ifvqfc0","pricing_plan_id":"cebpf4jnsgd1na2vs0mg"},{"bike_id":"8808880d-833a-4356-9e36-512138b411a8","system_id":"levelo_inurba_marseille","lat":43.28467,"lon":5.35886,"is_reserved":false,"is_disabled":false,"rental_uris":{"android":"levelo://app?vid=8808880d-833a-4356-9e36-512138b411a8","ios":"levelo://app?vid=8808880d-833a-4356-9e36-512138b411a8"},"vehicle_type_id":"4","last_reported":1781276376,"current_range_meters":5600,"station_id":"ce4bhah2rcd13ifvqei0","pricing_plan_id":"cebpf4jnsgd1na2vs0mg"},{"bike_id":"951d7205-ac7e-4c95-b504-6e012df35357","system_id":"levelo_inurba_marseille","lat":43.25116,"lon":5.40314,"is_reserved":false,"is_disabled":false,"rental_uris":{"android":"levelo://app?vid=951d7205-ac7e-4c95-b504-6e012df35357","ios":"levelo://app?vid=951d7205-ac7e-4c95-b504-6e012df35357"},"vehicle_type_id":"4","last_reported":1781276376,"current_range_meters":5600,"station_id":"ce4bhlh2rcd13ifvqgig","pricing_plan_id":"cebpf4jnsgd1na2vs0mg"},{"bike_id":"cb4a87f1-ecd2-4522-a840-5c2028883f08","system_id":"levelo_inurba_marseille","lat":43.2863,"lon":5.34994,"is_reserved":false,"is_disabled":false,"rental_uris":{"android":"levelo://app?vid=cb4a87f1-ecd2-4522-a840-5c2028883f08","ios":"levelo://app?vid=cb4a87f1-ecd2-4522-a840-5c2028883f08"},"vehicle_type_id":"4","last_reported":1781276376,"current_range_meters":5600,"station_id":"","pricing_plan_id":"cebpf4jnsgd1na2vs0mg"},{"bike_id":"bcc2a6a2-c42a-47bb-8979-08f26e43bdce","system_id":"levelo_inurba_marseille","lat":43.26562,"lon":5.39013,"is_reserved":false,"is_disabled":false,"rental_uris":{"android":"levelo://app?vid=bcc2a6a2-c42a-47bb-8979-08f26e43bdce","ios":"levelo://app?vid=bcc2a6a2-c42a-47bb-8979-08f26e43bdce"},"vehicle_type_id":"4","last_reported":1781276376,"current_range_meters":5600,"station_id":"ce4bhe12rcd13ifvqf30","pricing_plan_id":"cebpf4jnsgd1na2vs0mg"},{"bike_id":"2569d490-0385-4986-85ff-b9b3c90c4a98","system_id":"levelo_inurba_marseille","lat":43.25369,"lon":5.42162,"is_reserved":false,"is_disabled":false,"rental_uris":{"android":"levelo://app?vid=2569d490-0385-4986-85ff-b9b3c90c4a98","ios":"levelo://app?vid=2569d490-0385-4986-85ff-b9b3c90c4a98"},"vehicle_type_id":"4","last_reported":1781276376,"current_range_meters":5600,"station_id":"st_d2m65c5bi1j21697t3ng","pricing_plan_id":"cebpf4jnsgd1na2vs0mg"},{"bike_id":"1b1c9feb-b877-4239-a6c6-357a5d7c05ce","system_id":"levelo_inurba_marseille","lat":43.268675,"lon":5.401487,"is_reserved":false,"is_disabled":false,"rental_uris":{"android":"levelo://app?vid=1b1c9feb-b877-4239-a6c6-357a5d7c05ce","ios":"levelo://app?vid=1b1c9feb-b877-4239-a6c6-357a5d7c05ce"},"vehicle_type_id":"4","last_reported":1781276376,"current_range_meters":5600,"station_id":"cjm6bp8fraef2m0cb0m0","pricing_plan_id":"cebpf4jnsgd1na2vs0mg"},{"bike_id":"794f201a-435b-44a5-8c05-660ec1ae7766","system_id":"levelo_inurba_marseille","lat":43.25583,"lon":5.38228,"is_reserved":false,"is_disabled":false,"rental_uris":{"android":"levelo://app?vid=794f201a-435b-44a5-8c05-660ec1ae7766","ios":"levelo://app?vid=794f201a-435b-44a5-8c05-660ec1ae7766"},"vehicle_type_id":"4","last_reported":1781276376,"current_range_meters":5600,"station_id":"ce4bhih2rcd13ifvqfs0","pricing_plan_id":"cebpf4jnsgd1na2vs0mg"},{"bike_id":"05c5e9d8-fd93-42d8-8559-4711e0e28097","system_id":"levelo_inurba_marseille","lat":43.27839,"lon":5.39215,"is_reserved":false,"is_disabled":false,"rental_uris":{"android":"levelo://app?vid=05c5e9d8-fd93-42d8-8559-4711e0e28097","ios":"levelo://app?vid=05c5e9d8-fd93-42d8-8559-4711e0e28097"},"vehicle_type_id":"4","last_reported":1781276376,"current_range_meters":5600,"station_id":"ce4bhjp2rcd13ifvqga0","pricing_plan_id":"cebpf4jnsgd1na2vs0mg"},{"bike_id":"f7698676-1932-4dbf-ab9d-6c907c9bbe14","system_id":"levelo_inurba_marseille","lat":43.31886,"lon":5.37143,"is_reserved":false,"is_disabled":false,"rental_uris":{"android":"levelo://app?vid=f7698676-1932-4dbf-ab9d-6c907c9bbe14","ios":"levelo://app?vid=f7698676-1932-4dbf-ab9d-6c907c9bbe14"},"vehicle_type_id":"4","last_reported":1781276376,"current_range_meters":5600,"station_id":"","pricing_plan_id":"cebpf4jnsgd1na2vs0mg"},{"bike_id":"8afeb7a8-b686-4611-8220-2ade2d33c717","system_id":"levelo_inurba_marseille","lat":43.2963,"lon":5.37658,"is_reserved":false,"is_disabled":true,"rental_uris":{"android":"levelo://app?vid=8afeb7a8-b686-4611-8220-2ade2d33c717","ios":"levelo://app?vid=8afeb7a8-b686-4611-8220-2ade2d33c717"},"vehicle_type_id":"4","last_reported":1781276376,"current_range_meters":5600,"station_id":"ce4bgi92rcd13ifvqb90","pricing_plan_id":"cebpf4jnsgd1na2vs0mg"},{"bike_id":"edd7f6cf-c00d-4334-ba4f-ddda86c6a12e","system_id":"levelo_inurba_marseille","lat":43.30275,"lon":5.37663,"is_reserved":false,"is_disabled":false,"rental_uris":{"android":"levelo://app?vid=edd7f6cf-c00d-4334-ba4f-ddda86c6a12e","ios":"levelo://app?vid=edd7f6cf-c00d-4334-ba4f-ddda86c6a12e"},"vehicle_type_id":"4","last_reported":1781276376,"current_range_meters":5600,"station_id":"ce4bguh2rcd13ifvqcj0","pricing_plan_id":"cebpf4jnsgd1na2vs0mg"},{"bike_id":"7bf84d7a-fc7e-4e6c-a428-254a31cd9a85","system_id":"levelo_inurba_marseille","lat":43.26194,"lon":5.37444,"is_reserved":false,"is_disabled":false,"rental_uris":{"android":"levelo://app?vid=7bf84d7a-fc7e-4e6c-a428-254a31cd9a85","ios":"levelo://app?vid=7bf84d7a-fc7e-4e6c-a428-254a31cd9a85"},"vehicle_type_id":"4","last_reported":1781276376,"current_range_meters":5600,"station_id":"","pricing_plan_id":"cebpf4jnsgd1na2vs0mg"},{"bike_id":"e32791e5-3092-4e3e-b608-267a5ebdc08d","system_id":"levelo_inurba_marseille","lat":43.29187,"lon":5.35798,"is_reserved":false,"is_disabled":false,"rental_uris":{"android":"levelo://app?vid=e32791e5-3092-4e3e-b608-267a5ebdc08d","ios":"levelo://app?vid=e32791e5-3092-4e3e-b608-267a5ebdc08d"},"vehicle_type_id":"4","last_reported":1781276376,"current_range_meters":5600,"station_id":"ce4bhb12rcd13ifvqel0","pricing_plan_id":"cebpf4jnsgd1na2vs0mg"},{"bike_id":"3445745d-81b3-4fee-afeb-2fe7df96aa8d","system_id":"levelo_inurba_marseille","lat":43.27358,"lon":5.36251,"is_reserved":false,"is_disabled":false,"rental_uris":{"android":"levelo://app?vid=3445745d-81b3-4fee-afeb-2fe7df96aa8d","ios":"levelo://app?vid=3445745d-81b3-4fee-afeb-2fe7df96aa8d"},"vehicle_type_id":"4","last_reported":1781276376,"current_range_meters":5600,"station_id":"ce4bhbh2rcd13ifvqeo0","pricing_plan_id":"cebpf4jnsgd1na2vs0mg"},{"bike_id":"31e2ad24-3edc-483e-9c48-bdf3d89974f0","system_id":"levelo_inurba_marseille","lat":43.28134,"lon":5.38282,"is_reserved":false,"is_disabled":false,"rental_uris":{"android":"levelo://app?vid=31e2ad24-3edc-483e-9c48-bdf3d89974f0","ios":"levelo://app?vid=31e2ad24-3edc-483e-9c48-bdf3d89974f0"},"vehicle_type_id":"4","last_reported":1781276376,"current_range_meters":5600,"station_id":"","pricing_plan_id":"cebpf4jnsgd1na2vs0mg"},{"bike_id":"0b2b8bfa-1ef2-4f98-945f-5aedc9349ca5","system_id":"levelo_inurba_marseille","lat":43.29017,"lon":5.38131,"is_reserved":false,"is_disabled":false,"rental_uris":{"android":"levelo://app?vid=0b2b8bfa-1ef2-4f98-945f-5aedc9349ca5","ios":"levelo://app?vid=0b2b8bfa-1ef2-4f98-945f-5aedc9349ca5"},"vehicle_type_id":"4","last_reported":1781276376,"current_range_meters":5600,"station_id":"ce4bh4p2rcd13ifvqe1g","pricing_plan_id":"cebpf4jnsgd1na2vs0mg"},{"bike_id":"5332e610-97b6-4691-8427-65ce033fe0b3","system_id":"levelo_inurba_marseille","lat":43.304624,"lon":5.379045,"is_reserved":false,"is_disabled":false,"rental_uris":{"android":"levelo://app?vid=5332e610-97b6-4691-8427-65ce033fe0b3","ios":"levelo://app?vid=5332e610-97b6-4691-8427-65ce033fe0b3"},"vehicle_type_id":"4","last_reported":1781276376,"current_range_meters":5600,"station_id":"ce4bgup2rcd13ifvqcn0","pricing_plan_id":"cebpf4jnsgd1na2vs0mg"},{"bike_id":"bffb5bc9-add3-49eb-8545-6c9e27e1c437","system_id":"levelo_inurba_marseille","lat":43.28074,"lon":5.34768,"is_reserved":false,"is_disabled":false,"rental_uris":{"android":"levelo://app?vid=bffb5bc9-add3-49eb-8545-6c9e27e1c437","ios":"levelo://app?vid=bffb5bc9-add3-49eb-8545-6c9e27e1c437"},"vehicle_type_id":"4","last_reported":1781276376,"current_range_meters":6000,"station_id":"","pricing_plan_id":"cebpf4jnsgd1na2vs0mg"},{"bike_id":"d75e090a-1cd2-42dc-bf69-aca361b8bab1","system_id":"levelo_inurba_marseille","lat":43.25492,"lon":5.37644,"is_reserved":false,"is_disabled":false,"rental_uris":{"android":"levelo://app?vid=d75e090a-1cd2-42dc-bf69-aca361b8bab1","ios":"levelo://app?vid=d75e090a-1cd2-42dc-bf69-aca361b8bab1"},"vehicle_type_id":"4","last_reported":1781276376,"current_range_meters":6000,"station_id":"ce4bhh12rcd13ifvqff0","pricing_plan_id":"cebpf4jnsgd1na2vs0mg"},{"bike_id":"c48d0cd6-9afd-4f24-97bc-cfac1a2467e0","system_id":"levelo_inurba_marseille","lat":43.3126,"lon":5.42802,"is_reserved":false,"is_disabled":false,"rental_uris":{"android":"levelo://app?vid=c48d0cd6-9afd-4f24-97bc-cfac1a2467e0","ios":"levelo://app?vid=c48d0cd6-9afd-4f24-97bc-cfac1a2467e0"},"vehicle_type_id":"4","last_reported":1781276376,"current_range_meters":6000,"station_id":"","pricing_plan_id":"cebpf4jnsgd1na2vs0mg"},{"bike_id":"4b0cb07d-e308-4c79-9d49-47a97935ccf7","system_id":"levelo_inurba_marseille","lat":43.287033,"lon":5.373906,"is_reserved":false,"is_disabled":false,"rental_uris":{"android":"levelo://app?vid=4b0cb07d-e308-4c79-9d49-47a97935ccf7","ios":"levelo://app?vid=4b0cb07d-e308-4c79-9d49-47a97935ccf7"},"vehicle_type_id":"4","last_reported":1781276376,"current_range_meters":6000,"station_id":"ce4bh3p2rcd13ifvqdq0","pricing_plan_id":"cebpf4jnsgd1na2vs0mg"},{"bike_id":"116e7e79-df73-459e-bb6d-922ab4ccb8bd","system_id":"levelo_inurba_marseille","lat":43.21184,"lon":5.35104,"is_reserved":false,"is_disabled":false,"rental_uris":{"android":"levelo://app?vid=116e7e79-df73-459e-bb6d-922ab4ccb8bd","ios":"levelo://app?vid=116e7e79-df73-459e-bb6d-922ab4ccb8bd"},"vehicle_type_id":"4","last_reported":1781276376,"current_range_meters":6000,"station_id":"st_cvj6sg6p6f1abm77japg","pricing_plan_id":"cebpf4jnsgd1na2vs0mg"},{"bike_id":"1370b5da-1367-4bd9-93b9-441df665645e","system_id":"levelo_inurba_marseille","lat":43.29933,"lon":5.37478,"is_reserved":false,"is_disabled":false,"rental_uris":{"android":"levelo://app?vid=1370b5da-1367-4bd9-93b9-441df665645e","ios":"levelo://app?vid=1370b5da-1367-4bd9-93b9-441df665645e"},"vehicle_type_id":"4","last_reported":1781276376,"current_range_meters":6000,"station_id":"ce4bgjh2rcd13ifvqbg0","pricing_plan_id":"cebpf4jnsgd1na2vs0mg"},{"bike_id":"e0e3cf21-5217-45f7-b35b-50cc9adf67d6","system_id":"levelo_inurba_marseille","lat":43.27619,"lon":5.36088,"is_reserved":false,"is_disabled":false,"rental_uris":{"android":"levelo://app?vid=e0e3cf21-5217-45f7-b35b-50cc9adf67d6","ios":"levelo://app?vid=e0e3cf21-5217-45f7-b35b-50cc9adf67d6"},"vehicle_type_id":"4","last_reported":1781276376,"current_range_meters":6000,"station_id":"ce4bgj92rcd13ifvqbe0","pricing_plan_id":"cebpf4jnsgd1na2vs0mg"},{"bike_id":"b9ff2d08-a3bd-480d-a078-4ce9973bc4f4","system_id":"levelo_inurba_marseille","lat":43.288441,"lon":5.393049,"is_reserved":false,"is_disabled":false,"rental_uris":{"android":"levelo://app?vid=b9ff2d08-a3bd-480d-a078-4ce9973bc4f4","ios":"levelo://app?vid=b9ff2d08-a3bd-480d-a078-4ce9973bc4f4"},"vehicle_type_id":"4","last_reported":1781276376,"current_range_meters":6000,"station_id":"ce4bh2p2rcd13ifvqdi0","pricing_plan_id":"cebpf4jnsgd1na2vs0mg"},{"bike_id":"b83be4d3-06f4-4b3e-9ba2-a6d47abaf96e","system_id":"levelo_inurba_marseille","lat":43.29277,"lon":5.37609,"is_reserved":false,"is_disabled":true,"rental_uris":{"android":"levelo://app?vid=b83be4d3-06f4-4b3e-9ba2-a6d47abaf96e","ios":"levelo://app?vid=b83be4d3-06f4-4b3e-9ba2-a6d47abaf96e"},"vehicle_type_id":"4","last_reported":1781276376,"current_range_meters":6000,"station_id":"ce4bgi12rcd13ifvqb80","pricing_plan_id":"cebpf4jnsgd1na2vs0mg"},{"bike_id":"6d3f63cb-a28f-48c4-9bd2-acdc23f51035","system_id":"levelo_inurba_marseille","lat":43.2552,"lon":5.37635,"is_reserved":false,"is_disabled":false,"rental_uris":{"android":"levelo://app?vid=6d3f63cb-a28f-48c4-9bd2-acdc23f51035","ios":"levelo://app?vid=6d3f63cb-a28f-48c4-9bd2-acdc23f51035"},"vehicle_type_id":"4","last_reported":1781276376,"current_range_meters":6000,"station_id":"ce4bhh12rcd13ifvqff0","pricing_plan_id":"cebpf4jnsgd1na2vs0mg"},{"bike_id":"318c2327-cd61-4b3a-8efa-5ff92eb9038b","system_id":"levelo_inurba_marseille","lat":43.33098,"lon":5.36633,"is_reserved":false,"is_disabled":false,"rental_uris":{"android":"levelo://app?vid=318c2327-cd61-4b3a-8efa-5ff92eb9038b","ios":"levelo://app?vid=318c2327-cd61-4b3a-8efa-5ff92eb9038b"},"vehicle_type_id":"4","last_reported":1781276376,"current_range_meters":6000,"station_id":"","pricing_plan_id":"cebpf4jnsgd1na2vs0mg"},{"bike_id":"5c4c7c29-d67c-425c-b25c-05cae9e3f92c","system_id":"levelo_inurba_marseille","lat":43.28471,"lon":5.38426,"is_reserved":false,"is_disabled":true,"rental_uris":{"android":"levelo://app?vid=5c4c7c29-d67c-425c-b25c-05cae9e3f92c","ios":"levelo://app?vid=5c4c7c29-d67c-425c-b25c-05cae9e3f92c"},"vehicle_type_id":"4","last_reported":1781276376,"current_range_meters":6000,"station_id":"ce4bh512rcd13ifvqe3g","pricing_plan_id":"cebpf4jnsgd1na2vs0mg"},{"bike_id":"d9bbcfa4-a44d-4020-b0df-d2651b3bdf41","system_id":"levelo_inurba_marseille","lat":43.21191,"lon":5.3508,"is_reserved":false,"is_disabled":false,"rental_uris":{"android":"levelo://app?vid=d9bbcfa4-a44d-4020-b0df-d2651b3bdf41","ios":"levelo://app?vid=d9bbcfa4-a44d-4020-b0df-d2651b3bdf41"},"vehicle_type_id":"4","last_reported":1781276376,"current_range_meters":6000,"station_id":"st_cvj6sg6p6f1abm77japg","pricing_plan_id":"cebpf4jnsgd1na2vs0mg"},{"bike_id":"79b613ed-d220-4868-8d82-240855be2e21","system_id":"levelo_inurba_marseille","lat":43.24647,"lon":5.38888,"is_reserved":false,"is_disabled":false,"rental_uris":{"android":"levelo://app?vid=79b613ed-d220-4868-8d82-240855be2e21","ios":"levelo://app?vid=79b613ed-d220-4868-8d82-240855be2e21"},"vehicle_type_id":"4","last_reported":1781276376,"current_range_meters":6000,"station_id":"ce4bhg12rcd13ifvqf60","pricing_plan_id":"cebpf4jnsgd1na2vs0mg"},{"bike_id":"24f02d56-4cb2-4734-b396-c4353be9b86c","system_id":"levelo_inurba_marseille","lat":43.32091,"lon":5.36792,"is_reserved":false,"is_disabled":false,"rental_uris":{"android":"levelo://app?vid=24f02d56-4cb2-4734-b396-c4353be9b86c","ios":"levelo://app?vid=24f02d56-4cb2-4734-b396-c4353be9b86c"},"vehicle_type_id":"4","last_reported":1781276376,"current_range_meters":6000,"station_id":"ce4bhrh2rcd13ifvqhug","pricing_plan_id":"cebpf4jnsgd1na2vs0mg"},{"bike_id":"f13dc077-36d7-4cb8-ba17-e6c89ffff0a7","system_id":"levelo_inurba_marseille","lat":43.29003,"lon":5.35612,"is_reserved":false,"is_disabled":false,"rental_uris":{"android":"levelo://app?vid=f13dc077-36d7-4cb8-ba17-e6c89ffff0a7","ios":"levelo://app?vid=f13dc077-36d7-4cb8-ba17-e6c89ffff0a7"},"vehicle_type_id":"4","last_reported":1781276376,"current_range_meters":6000,"station_id":"ce4bhb92rcd13ifvqen0","pricing_plan_id":"cebpf4jnsgd1na2vs0mg"},{"bike_id":"a848a5d1-feb4-4560-89e7-b2ad298b123f","system_id":"levelo_inurba_marseille","lat":43.24635,"lon":5.43151,"is_reserved":false,"is_disabled":false,"rental_uris":{"android":"levelo://app?vid=a848a5d1-feb4-4560-89e7-b2ad298b123f","ios":"levelo://app?vid=a848a5d1-feb4-4560-89e7-b2ad298b123f"},"vehicle_type_id":"4","last_reported":1781276376,"current_range_meters":6000,"station_id":"st_d2m6c4gdas8pm72e190g","pricing_plan_id":"cebpf4jnsgd1na2vs0mg"},{"bike_id":"b4c0f195-58a3-456c-9ed4-e0663f1468e6","system_id":"levelo_inurba_marseille","lat":43.28259,"lon":5.37405,"is_reserved":false,"is_disabled":false,"rental_uris":{"android":"levelo://app?vid=b4c0f195-58a3-456c-9ed4-e0663f1468e6","ios":"levelo://app?vid=b4c0f195-58a3-456c-9ed4-e0663f1468e6"},"vehicle_type_id":"4","last_reported":1781276376,"current_range_meters":6000,"station_id":"","pricing_plan_id":"cebpf4jnsgd1na2vs0mg"},{"bike_id":"82f9b026-9025-4c4c-8ec8-6fc3e215892a","system_id":"levelo_inurba_marseille","lat":43.291931,"lon":5.358033,"is_reserved":false,"is_disabled":false,"rental_uris":{"android":"levelo://app?vid=82f9b026-9025-4c4c-8ec8-6fc3e215892a","ios":"levelo://app?vid=82f9b026-9025-4c4c-8ec8-6fc3e215892a"},"vehicle_type_id":"4","last_reported":1781276376,"current_range_meters":6000,"station_id":"ce4bhb12rcd13ifvqel0","pricing_plan_id":"cebpf4jnsgd1na2vs0mg"},{"bike_id":"95a6a820-080c-4047-9edc-2eab85cc3ea0","system_id":"levelo_inurba_marseille","lat":43.31234,"lon":5.37292,"is_reserved":false,"is_disabled":false,"rental_uris":{"android":"levelo://app?vid=95a6a820-080c-4047-9edc-2eab85cc3ea0","ios":"levelo://app?vid=95a6a820-080c-4047-9edc-2eab85cc3ea0"},"vehicle_type_id":"4","last_reported":1781276376,"current_range_meters":6000,"station_id":"","pricing_plan_id":"cebpf4jnsgd1na2vs0mg"},{"bike_id":"d4fcbc37-9810-4fa1-96da-f8c1faf0c2c5","system_id":"levelo_inurba_marseille","lat":43.30847,"lon":5.38275,"is_reserved":false,"is_disabled":false,"rental_uris":{"android":"levelo://app?vid=d4fcbc37-9810-4fa1-96da-f8c1faf0c2c5","ios":"levelo://app?vid=d4fcbc37-9810-4fa1-96da-f8c1faf0c2c5"},"vehicle_type_id":"4","last_reported":1781276376,"current_range_meters":6000,"station_id":"","pricing_plan_id":"cebpf4jnsgd1na2vs0mg"},{"bike_id":"aaa66412-2aa3-4106-bf51-3d316dbc10b4","system_id":"levelo_inurba_marseille","lat":43.22552,"lon":5.41635,"is_reserved":false,"is_disabled":false,"rental_uris":{"android":"levelo://app?vid=aaa66412-2aa3-4106-bf51-3d316dbc10b4","ios":"levelo://app?vid=aaa66412-2aa3-4106-bf51-3d316dbc10b4"},"vehicle_type_id":"4","last_reported":1781276376,"current_range_meters":6400,"station_id":"st_d2o4gvlbi1j2169b742g","pricing_plan_id":"cebpf4jnsgd1na2vs0mg"},{"bike_id":"0196053b-37f4-4b5e-b6e7-610525123d45","system_id":"levelo_inurba_marseille","lat":43.27371,"lon":5.36256,"is_reserved":false,"is_disabled":false,"rental_uris":{"android":"levelo://app?vid=0196053b-37f4-4b5e-b6e7-610525123d45","ios":"levelo://app?vid=0196053b-37f4-4b5e-b6e7-610525123d45"},"vehicle_type_id":"4","last_reported":1781276376,"current_range_meters":6400,"station_id":"ce4bhbh2rcd13ifvqeo0","pricing_plan_id":"cebpf4jnsgd1na2vs0mg"},{"bike_id":"1117c25d-a5b2-4343-8aeb-6dcff2dfbd0c","system_id":"levelo_inurba_marseille","lat":43.28466,"lon":5.38419,"is_reserved":false,"is_disabled":false,"rental_uris":{"android":"levelo://app?vid=1117c25d-a5b2-4343-8aeb-6dcff2dfbd0c","ios":"levelo://app?vid=1117c25d-a5b2-4343-8aeb-6dcff2dfbd0c"},"vehicle_type_id":"4","last_reported":1781276376,"current_range_meters":6400,"station_id":"ce4bh512rcd13ifvqe3g","pricing_plan_id":"cebpf4jnsgd1na2vs0mg"},{"bike_id":"a5fe7e0e-bd7a-41d3-a96b-57f5c8a201f7","system_id":"levelo_inurba_marseille","lat":43.229297,"lon":5.353769,"is_reserved":false,"is_disabled":false,"rental_uris":{"android":"levelo://app?vid=a5fe7e0e-bd7a-41d3-a96b-57f5c8a201f7","ios":"levelo://app?vid=a5fe7e0e-bd7a-41d3-a96b-57f5c8a201f7"},"vehicle_type_id":"4","last_reported":1781276376,"current_range_meters":6400,"station_id":"cpo3532slgdg3j2ikp40","pricing_plan_id":"cebpf4jnsgd1na2vs0mg"},{"bike_id":"3c7b210d-2af2-47fe-b21c-238660316de9","system_id":"levelo_inurba_marseille","lat":43.24379,"lon":5.37055,"is_reserved":false,"is_disabled":false,"rental_uris":{"android":"levelo://app?vid=3c7b210d-2af2-47fe-b21c-238660316de9","ios":"levelo://app?vid=3c7b210d-2af2-47fe-b21c-238660316de9"},"vehicle_type_id":"4","last_reported":1781276376,"current_range_meters":6400,"station_id":"ce4bhhh2rcd13ifvqfk0","pricing_plan_id":"cebpf4jnsgd1na2vs0mg"},{"bike_id":"aa090de1-3d16-4635-9f4b-f71ba42ea92b","system_id":"levelo_inurba_marseille","lat":43.30958,"lon":5.41046,"is_reserved":false,"is_disabled":false,"rental_uris":{"android":"levelo://app?vid=aa090de1-3d16-4635-9f4b-f71ba42ea92b","ios":"levelo://app?vid=aa090de1-3d16-4635-9f4b-f71ba42ea92b"},"vehicle_type_id":"4","last_reported":1781276376,"current_range_meters":6400,"station_id":"","pricing_plan_id":"cebpf4jnsgd1na2vs0mg"},{"bike_id":"21c7c68e-9f6b-44e1-82ea-374ab6ba73e8","system_id":"levelo_inurba_marseille","lat":43.23147,"lon":5.4371,"is_reserved":false,"is_disabled":false,"rental_uris":{"android":"levelo://app?vid=21c7c68e-9f6b-44e1-82ea-374ab6ba73e8","ios":"levelo://app?vid=21c7c68e-9f6b-44e1-82ea-374ab6ba73e8"},"vehicle_type_id":"4","last_reported":1781276376,"current_range_meters":6400,"station_id":"ce4bhmp2rcd13ifvqgog","pricing_plan_id":"cebpf4jnsgd1na2vs0mg"},{"bike_id":"6edb1571-ff0e-41be-86f6-ab57a8172f99","system_id":"levelo_inurba_marseille","lat":43.32101,"lon":5.36755,"is_reserved":false,"is_disabled":false,"rental_uris":{"android":"levelo://app?vid=6edb1571-ff0e-41be-86f6-ab57a8172f99","ios":"levelo://app?vid=6edb1571-ff0e-41be-86f6-ab57a8172f99"},"vehicle_type_id":"4","last_reported":1781276376,"current_range_meters":6400,"station_id":"ce4bhrh2rcd13ifvqhug","pricing_plan_id":"cebpf4jnsgd1na2vs0mg"},{"bike_id":"c4c8f592-2f0a-488a-9059-30a67bfcfd66","system_id":"levelo_inurba_marseille","lat":43.24797,"lon":5.37468,"is_reserved":false,"is_disabled":false,"rental_uris":{"android":"levelo://app?vid=c4c8f592-2f0a-488a-9059-30a67bfcfd66","ios":"levelo://app?vid=c4c8f592-2f0a-488a-9059-30a67bfcfd66"},"vehicle_type_id":"4","last_reported":1781276376,"current_range_meters":6400,"station_id":"ce4bhgh2rcd13ifvqfb0","pricing_plan_id":"cebpf4jnsgd1na2vs0mg"},{"bike_id":"8148c0e0-aa12-45e8-903a-433ca8b036d1","system_id":"levelo_inurba_marseille","lat":43.28673,"lon":5.38298,"is_reserved":false,"is_disabled":false,"rental_uris":{"android":"levelo://app?vid=8148c0e0-aa12-45e8-903a-433ca8b036d1","ios":"levelo://app?vid=8148c0e0-aa12-45e8-903a-433ca8b036d1"},"vehicle_type_id":"4","last_reported":1781276376,"current_range_meters":6400,"station_id":"","pricing_plan_id":"cebpf4jnsgd1na2vs0mg"},{"bike_id":"3124ce88-1f05-4fdb-a8ce-ab2d7e6b47b0","system_id":"levelo_inurba_marseille","lat":43.26226,"lon":5.38755,"is_reserved":false,"is_disabled":false,"rental_uris":{"android":"levelo://app?vid=3124ce88-1f05-4fdb-a8ce-ab2d7e6b47b0","ios":"levelo://app?vid=3124ce88-1f05-4fdb-a8ce-ab2d7e6b47b0"},"vehicle_type_id":"4","last_reported":1781276376,"current_range_meters":6400,"station_id":"st_d8gjfg747rts73coq3b0","pricing_plan_id":"cebpf4jnsgd1na2vs0mg"},{"bike_id":"c3b6afa1-ea6f-4696-bd7c-80ca8846d2ed","system_id":"levelo_inurba_marseille","lat":43.24816,"lon":5.37457,"is_reserved":false,"is_disabled":false,"rental_uris":{"android":"levelo://app?vid=c3b6afa1-ea6f-4696-bd7c-80ca8846d2ed","ios":"levelo://app?vid=c3b6afa1-ea6f-4696-bd7c-80ca8846d2ed"},"vehicle_type_id":"4","last_reported":1781276376,"current_range_meters":6400,"station_id":"ce4bhgh2rcd13ifvqfb0","pricing_plan_id":"cebpf4jnsgd1na2vs0mg"},{"bike_id":"a3859580-3d94-4e0f-bc2d-7d27e8f734fb","system_id":"levelo_inurba_marseille","lat":43.29272,"lon":5.36837,"is_reserved":false,"is_disabled":false,"rental_uris":{"android":"levelo://app?vid=a3859580-3d94-4e0f-bc2d-7d27e8f734fb","ios":"levelo://app?vid=a3859580-3d94-4e0f-bc2d-7d27e8f734fb"},"vehicle_type_id":"4","last_reported":1781276376,"current_range_meters":6400,"station_id":"ce4bhbp2rcd13ifvqesg","pricing_plan_id":"cebpf4jnsgd1na2vs0mg"},{"bike_id":"4c96a7e9-356f-45d8-ae5b-677a0d93c0c5","system_id":"levelo_inurba_marseille","lat":43.31323,"lon":5.39693,"is_reserved":false,"is_disabled":false,"rental_uris":{"android":"levelo://app?vid=4c96a7e9-356f-45d8-ae5b-677a0d93c0c5","ios":"levelo://app?vid=4c96a7e9-356f-45d8-ae5b-677a0d93c0c5"},"vehicle_type_id":"4","last_reported":1781276376,"current_range_meters":6400,"station_id":"ce4bgvp2rcd13ifvqcu0","pricing_plan_id":"cebpf4jnsgd1na2vs0mg"},{"bike_id":"c7003374-df0a-4adf-a763-b7ffcb27c463","system_id":"levelo_inurba_marseille","lat":43.28478,"lon":5.48392,"is_reserved":false,"is_disabled":false,"rental_uris":{"android":"levelo://app?vid=c7003374-df0a-4adf-a763-b7ffcb27c463","ios":"levelo://app?vid=c7003374-df0a-4adf-a763-b7ffcb27c463"},"vehicle_type_id":"4","last_reported":1781276376,"current_range_meters":6400,"station_id":"st_d3svhcjqgbts73a3dn0g","pricing_plan_id":"cebpf4jnsgd1na2vs0mg"},{"bike_id":"f6c360ef-74d5-49fb-8431-cc252651020e","system_id":"levelo_inurba_marseille","lat":43.28399,"lon":5.34997,"is_reserved":false,"is_disabled":false,"rental_uris":{"android":"levelo://app?vid=f6c360ef-74d5-49fb-8431-cc252651020e","ios":"levelo://app?vid=f6c360ef-74d5-49fb-8431-cc252651020e"},"vehicle_type_id":"4","last_reported":1781276376,"current_range_meters":6400,"station_id":"ce4bhbh2rcd13ifvqepg","pricing_plan_id":"cebpf4jnsgd1na2vs0mg"},{"bike_id":"750d545d-9962-42b9-9a8e-d0d1cf1bbc44","system_id":"levelo_inurba_marseille","lat":43.25511,"lon":5.37667,"is_reserved":false,"is_disabled":false,"rental_uris":{"android":"levelo://app?vid=750d545d-9962-42b9-9a8e-d0d1cf1bbc44","ios":"levelo://app?vid=750d545d-9962-42b9-9a8e-d0d1cf1bbc44"},"vehicle_type_id":"4","last_reported":1781276376,"current_range_meters":6400,"station_id":"ce4bhh12rcd13ifvqff0","pricing_plan_id":"cebpf4jnsgd1na2vs0mg"},{"bike_id":"a8686ad3-d895-47c2-a3a4-a171b60d5411","system_id":"levelo_inurba_marseille","lat":43.269456,"lon":5.402654,"is_reserved":false,"is_disabled":false,"rental_uris":{"android":"levelo://app?vid=a8686ad3-d895-47c2-a3a4-a171b60d5411","ios":"levelo://app?vid=a8686ad3-d895-47c2-a3a4-a171b60d5411"},"vehicle_type_id":"4","last_reported":1781276376,"current_range_meters":6400,"station_id":"cjm6bp8fraef2m0cb0m0","pricing_plan_id":"cebpf4jnsgd1na2vs0mg"},{"bike_id":"ee494397-ad1c-4b5e-80ed-9cc6e888762d","system_id":"levelo_inurba_marseille","lat":43.31865,"lon":5.42495,"is_reserved":false,"is_disabled":false,"rental_uris":{"android":"levelo://app?vid=ee494397-ad1c-4b5e-80ed-9cc6e888762d","ios":"levelo://app?vid=ee494397-ad1c-4b5e-80ed-9cc6e888762d"},"vehicle_type_id":"4","last_reported":1781276376,"current_range_meters":6400,"station_id":"","pricing_plan_id":"cebpf4jnsgd1na2vs0mg"},{"bike_id":"5e20b6ec-adf9-40ea-8dde-967cec3019c1","system_id":"levelo_inurba_marseille","lat":43.28722,"lon":5.36084,"is_reserved":false,"is_disabled":false,"rental_uris":{"android":"levelo://app?vid=5e20b6ec-adf9-40ea-8dde-967cec3019c1","ios":"levelo://app?vid=5e20b6ec-adf9-40ea-8dde-967cec3019c1"},"vehicle_type_id":"4","last_reported":1781276376,"current_range_meters":6400,"station_id":"cki0cbj6b192h4jlfktg","pricing_plan_id":"cebpf4jnsgd1na2vs0mg"},{"bike_id":"099f957c-39da-4f02-a659-472d5baab762","system_id":"levelo_inurba_marseille","lat":43.27372,"lon":5.3626,"is_reserved":false,"is_disabled":false,"rental_uris":{"android":"levelo://app?vid=099f957c-39da-4f02-a659-472d5baab762","ios":"levelo://app?vid=099f957c-39da-4f02-a659-472d5baab762"},"vehicle_type_id":"4","last_reported":1781276376,"current_range_meters":6800,"station_id":"ce4bhbh2rcd13ifvqeo0","pricing_plan_id":"cebpf4jnsgd1na2vs0mg"},{"bike_id":"3e4303bd-4e13-42f8-ae0c-25a66192c901","system_id":"levelo_inurba_marseille","lat":43.31541,"lon":5.38802,"is_reserved":false,"is_disabled":false,"rental_uris":{"android":"levelo://app?vid=3e4303bd-4e13-42f8-ae0c-25a66192c901","ios":"levelo://app?vid=3e4303bd-4e13-42f8-ae0c-25a66192c901"},"vehicle_type_id":"4","last_reported":1781276376,"current_range_meters":6800,"station_id":"","pricing_plan_id":"cebpf4jnsgd1na2vs0mg"},{"bike_id":"4865a1c5-afe2-4dda-8194-f69b08d22f31","system_id":"levelo_inurba_marseille","lat":43.25582,"lon":5.3824,"is_reserved":false,"is_disabled":false,"rental_uris":{"android":"levelo://app?vid=4865a1c5-afe2-4dda-8194-f69b08d22f31","ios":"levelo://app?vid=4865a1c5-afe2-4dda-8194-f69b08d22f31"},"vehicle_type_id":"4","last_reported":1781276376,"current_range_meters":6800,"station_id":"ce4bhih2rcd13ifvqfs0","pricing_plan_id":"cebpf4jnsgd1na2vs0mg"},{"bike_id":"5337844c-a149-4bd9-abd0-936c0853b9ae","system_id":"levelo_inurba_marseille","lat":43.24077,"lon":5.37755,"is_reserved":false,"is_disabled":false,"rental_uris":{"android":"levelo://app?vid=5337844c-a149-4bd9-abd0-936c0853b9ae","ios":"levelo://app?vid=5337844c-a149-4bd9-abd0-936c0853b9ae"},"vehicle_type_id":"4","last_reported":1781276376,"current_range_meters":6800,"station_id":"ce4bhnp2rcd13ifvqgvg","pricing_plan_id":"cebpf4jnsgd1na2vs0mg"},{"bike_id":"1ec1f951-3e50-4526-bc30-3eb04a334862","system_id":"levelo_inurba_marseille","lat":43.28704,"lon":5.39994,"is_reserved":false,"is_disabled":false,"rental_uris":{"android":"levelo://app?vid=1ec1f951-3e50-4526-bc30-3eb04a334862","ios":"levelo://app?vid=1ec1f951-3e50-4526-bc30-3eb04a334862"},"vehicle_type_id":"4","last_reported":1781276376,"current_range_meters":6800,"station_id":"ce4bho92rcd13ifvqh3g","pricing_plan_id":"cebpf4jnsgd1na2vs0mg"},{"bike_id":"88d88840-9fc2-4a2e-b363-e13f413fcb82","system_id":"levelo_inurba_marseille","lat":43.31052,"lon":5.37164,"is_reserved":false,"is_disabled":false,"rental_uris":{"android":"levelo://app?vid=88d88840-9fc2-4a2e-b363-e13f413fcb82","ios":"levelo://app?vid=88d88840-9fc2-4a2e-b363-e13f413fcb82"},"vehicle_type_id":"4","last_reported":1781276376,"current_range_meters":6800,"station_id":"st_d4kl2rp97mjs73e7tdfg","pricing_plan_id":"cebpf4jnsgd1na2vs0mg"},{"bike_id":"1092cd7f-d680-45ee-8ff2-7815bf031c7e","system_id":"levelo_inurba_marseille","lat":43.31723,"lon":5.37778,"is_reserved":false,"is_disabled":false,"rental_uris":{"android":"levelo://app?vid=1092cd7f-d680-45ee-8ff2-7815bf031c7e","ios":"levelo://app?vid=1092cd7f-d680-45ee-8ff2-7815bf031c7e"},"vehicle_type_id":"4","last_reported":1781276376,"current_range_meters":6800,"station_id":"ce4bgth2rcd13ifvqch0","pricing_plan_id":"cebpf4jnsgd1na2vs0mg"},{"bike_id":"ed3e8b0d-e835-4eed-8466-56c89cc863d7","system_id":"levelo_inurba_marseille","lat":43.25576,"lon":5.38257,"is_reserved":false,"is_disabled":false,"rental_uris":{"android":"levelo://app?vid=ed3e8b0d-e835-4eed-8466-56c89cc863d7","ios":"levelo://app?vid=ed3e8b0d-e835-4eed-8466-56c89cc863d7"},"vehicle_type_id":"4","last_reported":1781276376,"current_range_meters":6800,"station_id":"ce4bhih2rcd13ifvqfs0","pricing_plan_id":"cebpf4jnsgd1na2vs0mg"},{"bike_id":"bde0745f-8bed-46f9-9719-ec52cdf00334","system_id":"levelo_inurba_marseille","lat":43.28407,"lon":5.34988,"is_reserved":false,"is_disabled":false,"rental_uris":{"android":"levelo://app?vid=bde0745f-8bed-46f9-9719-ec52cdf00334","ios":"levelo://app?vid=bde0745f-8bed-46f9-9719-ec52cdf00334"},"vehicle_type_id":"4","last_reported":1781276376,"current_range_meters":6800,"station_id":"ce4bhbh2rcd13ifvqepg","pricing_plan_id":"cebpf4jnsgd1na2vs0mg"},{"bike_id":"b105e559-ad92-41ad-9bdf-4bd2f454dd68","system_id":"levelo_inurba_marseille","lat":43.30151,"lon":5.44956,"is_reserved":false,"is_disabled":false,"rental_uris":{"android":"levelo://app?vid=b105e559-ad92-41ad-9bdf-4bd2f454dd68","ios":"levelo://app?vid=b105e559-ad92-41ad-9bdf-4bd2f454dd68"},"vehicle_type_id":"4","last_reported":1781276376,"current_range_meters":6800,"station_id":"","pricing_plan_id":"cebpf4jnsgd1na2vs0mg"},{"bike_id":"e3282d76-32fe-4d9c-a7cf-bdec093f9f7f","system_id":"levelo_inurba_marseille","lat":43.22569,"lon":5.41626,"is_reserved":false,"is_disabled":false,"rental_uris":{"android":"levelo://app?vid=e3282d76-32fe-4d9c-a7cf-bdec093f9f7f","ios":"levelo://app?vid=e3282d76-32fe-4d9c-a7cf-bdec093f9f7f"},"vehicle_type_id":"4","last_reported":1781276376,"current_range_meters":6800,"station_id":"st_d2o4gvlbi1j2169b742g","pricing_plan_id":"cebpf4jnsgd1na2vs0mg"},{"bike_id":"053da4ad-0e65-446d-a318-557af5f87dd1","system_id":"levelo_inurba_marseille","lat":43.22571,"lon":5.41616,"is_reserved":false,"is_disabled":false,"rental_uris":{"android":"levelo://app?vid=053da4ad-0e65-446d-a318-557af5f87dd1","ios":"levelo://app?vid=053da4ad-0e65-446d-a318-557af5f87dd1"},"vehicle_type_id":"4","last_reported":1781276376,"current_range_meters":6800,"station_id":"st_d2o4gvlbi1j2169b742g","pricing_plan_id":"cebpf4jnsgd1na2vs0mg"},{"bike_id":"9dc9b135-8b58-4422-a60e-e87f851a5d9f","system_id":"levelo_inurba_marseille","lat":43.260665,"lon":5.393973,"is_reserved":false,"is_disabled":false,"rental_uris":{"android":"levelo://app?vid=9dc9b135-8b58-4422-a60e-e87f851a5d9f","ios":"levelo://app?vid=9dc9b135-8b58-4422-a60e-e87f851a5d9f"},"vehicle_type_id":"4","last_reported":1781276376,"current_range_meters":6800,"station_id":"ce4bhh92rcd13ifvqfj0","pricing_plan_id":"cebpf4jnsgd1na2vs0mg"},{"bike_id":"9aecf177-bf2d-4195-9d61-c57d3babaf2e","system_id":"levelo_inurba_marseille","lat":43.2175,"lon":5.34609,"is_reserved":false,"is_disabled":false,"rental_uris":{"android":"levelo://app?vid=9aecf177-bf2d-4195-9d61-c57d3babaf2e","ios":"levelo://app?vid=9aecf177-bf2d-4195-9d61-c57d3babaf2e"},"vehicle_type_id":"4","last_reported":1781276376,"current_range_meters":6800,"station_id":"st_cvj6r9ubvosntc0bgbag","pricing_plan_id":"cebpf4jnsgd1na2vs0mg"},{"bike_id":"5959399d-2a5a-4619-a6df-91439cbfbae4","system_id":"levelo_inurba_marseille","lat":43.27068,"lon":5.38301,"is_reserved":false,"is_disabled":false,"rental_uris":{"android":"levelo://app?vid=5959399d-2a5a-4619-a6df-91439cbfbae4","ios":"levelo://app?vid=5959399d-2a5a-4619-a6df-91439cbfbae4"},"vehicle_type_id":"4","last_reported":1781276376,"current_range_meters":6800,"station_id":"st_d3n2fo6cfp8s73cte1j0","pricing_plan_id":"cebpf4jnsgd1na2vs0mg"},{"bike_id":"ab74a032-1b11-434e-90d8-6f4ff787aed5","system_id":"levelo_inurba_marseille","lat":43.28236,"lon":5.35067,"is_reserved":false,"is_disabled":false,"rental_uris":{"android":"levelo://app?vid=ab74a032-1b11-434e-90d8-6f4ff787aed5","ios":"levelo://app?vid=ab74a032-1b11-434e-90d8-6f4ff787aed5"},"vehicle_type_id":"4","last_reported":1781276376,"current_range_meters":6800,"station_id":"ce4bhbp2rcd13ifvqerg","pricing_plan_id":"cebpf4jnsgd1na2vs0mg"},{"bike_id":"a4b5c841-081f-4864-9ad4-e1c7a6e60416","system_id":"levelo_inurba_marseille","lat":43.23791,"lon":5.36631,"is_reserved":false,"is_disabled":true,"rental_uris":{"android":"levelo://app?vid=a4b5c841-081f-4864-9ad4-e1c7a6e60416","ios":"levelo://app?vid=a4b5c841-081f-4864-9ad4-e1c7a6e60416"},"vehicle_type_id":"4","last_reported":1781276376,"current_range_meters":6800,"station_id":"st_d3nk18o9ro0c73en2l3g","pricing_plan_id":"cebpf4jnsgd1na2vs0mg"},{"bike_id":"cc50511c-e053-4cb8-9948-97e082e930dc","system_id":"levelo_inurba_marseille","lat":43.26366,"lon":5.41087,"is_reserved":false,"is_disabled":false,"rental_uris":{"android":"levelo://app?vid=cc50511c-e053-4cb8-9948-97e082e930dc","ios":"levelo://app?vid=cc50511c-e053-4cb8-9948-97e082e930dc"},"vehicle_type_id":"4","last_reported":1781276376,"current_range_meters":6800,"station_id":"st_d4e5ca6na9uc73bfl5fg","pricing_plan_id":"cebpf4jnsgd1na2vs0mg"},{"bike_id":"dd60785d-8896-4a2e-ae51-f8ac5a078eb9","system_id":"levelo_inurba_marseille","lat":43.27632,"lon":5.36106,"is_reserved":false,"is_disabled":false,"rental_uris":{"android":"levelo://app?vid=dd60785d-8896-4a2e-ae51-f8ac5a078eb9","ios":"levelo://app?vid=dd60785d-8896-4a2e-ae51-f8ac5a078eb9"},"vehicle_type_id":"4","last_reported":1781276376,"current_range_meters":6800,"station_id":"ce4bgj92rcd13ifvqbe0","pricing_plan_id":"cebpf4jnsgd1na2vs0mg"},{"bike_id":"f94d7056-f5b7-4e78-9ece-1ab8052e2718","system_id":"levelo_inurba_marseille","lat":43.27573,"lon":5.38421,"is_reserved":false,"is_disabled":false,"rental_uris":{"android":"levelo://app?vid=f94d7056-f5b7-4e78-9ece-1ab8052e2718","ios":"levelo://app?vid=f94d7056-f5b7-4e78-9ece-1ab8052e2718"},"vehicle_type_id":"4","last_reported":1781276376,"current_range_meters":7200,"station_id":"ce4bhh92rcd13ifvqfi0","pricing_plan_id":"cebpf4jnsgd1na2vs0mg"},{"bike_id":"e8f9fd31-b103-4801-8f05-1aa2e372d8df","system_id":"levelo_inurba_marseille","lat":43.30144,"lon":5.37424,"is_reserved":false,"is_disabled":false,"rental_uris":{"android":"levelo://app?vid=e8f9fd31-b103-4801-8f05-1aa2e372d8df","ios":"levelo://app?vid=e8f9fd31-b103-4801-8f05-1aa2e372d8df"},"vehicle_type_id":"4","last_reported":1781276376,"current_range_meters":7200,"station_id":"ce4bgs92rcd13ifvqcc0","pricing_plan_id":"cebpf4jnsgd1na2vs0mg"},{"bike_id":"67fc2852-31da-43ad-9cad-f700a226adad","system_id":"levelo_inurba_marseille","lat":43.28617,"lon":5.35121,"is_reserved":false,"is_disabled":false,"rental_uris":{"android":"levelo://app?vid=67fc2852-31da-43ad-9cad-f700a226adad","ios":"levelo://app?vid=67fc2852-31da-43ad-9cad-f700a226adad"},"vehicle_type_id":"4","last_reported":1781276376,"current_range_meters":7200,"station_id":"ce4bhch2rcd13ifvqeug","pricing_plan_id":"cebpf4jnsgd1na2vs0mg"},{"bike_id":"f312a474-3688-43e4-8515-a784a5c48528","system_id":"levelo_inurba_marseille","lat":43.211922,"lon":5.350715,"is_reserved":false,"is_disabled":true,"rental_uris":{"android":"levelo://app?vid=f312a474-3688-43e4-8515-a784a5c48528","ios":"levelo://app?vid=f312a474-3688-43e4-8515-a784a5c48528"},"vehicle_type_id":"4","last_reported":1781276376,"current_range_meters":7200,"station_id":"st_cvj6sg6p6f1abm77japg","pricing_plan_id":"cebpf4jnsgd1na2vs0mg"},{"bike_id":"d39db183-6bf7-420a-96f5-b25822544857","system_id":"levelo_inurba_marseille","lat":43.32348,"lon":5.36733,"is_reserved":false,"is_disabled":false,"rental_uris":{"android":"levelo://app?vid=d39db183-6bf7-420a-96f5-b25822544857","ios":"levelo://app?vid=d39db183-6bf7-420a-96f5-b25822544857"},"vehicle_type_id":"4","last_reported":1781276376,"current_range_meters":7200,"station_id":"ce4bhsh2rcd13ifvqi2g","pricing_plan_id":"cebpf4jnsgd1na2vs0mg"},{"bike_id":"e709d536-92d3-4ca3-8221-f3eccb7a50dc","system_id":"levelo_inurba_marseille","lat":43.3354,"lon":5.37461,"is_reserved":false,"is_disabled":false,"rental_uris":{"android":"levelo://app?vid=e709d536-92d3-4ca3-8221-f3eccb7a50dc","ios":"levelo://app?vid=e709d536-92d3-4ca3-8221-f3eccb7a50dc"},"vehicle_type_id":"4","last_reported":1781276376,"current_range_meters":7200,"station_id":"st_d46tts09ee8s73dlu43g","pricing_plan_id":"cebpf4jnsgd1na2vs0mg"},{"bike_id":"a4fb5a2a-5e65-4ce4-81d2-ea0f90918e5a","system_id":"levelo_inurba_marseille","lat":43.28841,"lon":5.35853,"is_reserved":false,"is_disabled":false,"rental_uris":{"android":"levelo://app?vid=a4fb5a2a-5e65-4ce4-81d2-ea0f90918e5a","ios":"levelo://app?vid=a4fb5a2a-5e65-4ce4-81d2-ea0f90918e5a"},"vehicle_type_id":"4","last_reported":1781276376,"current_range_meters":7200,"station_id":"ce4bhb12rcd13ifvqem0","pricing_plan_id":"cebpf4jnsgd1na2vs0mg"},{"bike_id":"0a498362-6055-45b2-b20e-22d7fcb34656","system_id":"levelo_inurba_marseille","lat":43.248,"lon":5.37458,"is_reserved":false,"is_disabled":false,"rental_uris":{"android":"levelo://app?vid=0a498362-6055-45b2-b20e-22d7fcb34656","ios":"levelo://app?vid=0a498362-6055-45b2-b20e-22d7fcb34656"},"vehicle_type_id":"4","last_reported":1781276376,"current_range_meters":7200,"station_id":"ce4bhgh2rcd13ifvqfb0","pricing_plan_id":"cebpf4jnsgd1na2vs0mg"},{"bike_id":"b2fb704a-3d45-4252-a687-c293b9163c1e","system_id":"levelo_inurba_marseille","lat":43.26553,"lon":5.38991,"is_reserved":false,"is_disabled":false,"rental_uris":{"android":"levelo://app?vid=b2fb704a-3d45-4252-a687-c293b9163c1e","ios":"levelo://app?vid=b2fb704a-3d45-4252-a687-c293b9163c1e"},"vehicle_type_id":"4","last_reported":1781276376,"current_range_meters":7200,"station_id":"ce4bhe12rcd13ifvqf30","pricing_plan_id":"cebpf4jnsgd1na2vs0mg"},{"bike_id":"e68b07e2-284d-4bfe-823c-4e05694c65af","system_id":"levelo_inurba_marseille","lat":43.27821,"lon":5.4071,"is_reserved":false,"is_disabled":false,"rental_uris":{"android":"levelo://app?vid=e68b07e2-284d-4bfe-823c-4e05694c65af","ios":"levelo://app?vid=e68b07e2-284d-4bfe-823c-4e05694c65af"},"vehicle_type_id":"4","last_reported":1781276376,"current_range_meters":7200,"station_id":"ce4bhnh2rcd13ifvqgtg","pricing_plan_id":"cebpf4jnsgd1na2vs0mg"},{"bike_id":"c925db99-babd-480c-b0a2-e997eb3a084f","system_id":"levelo_inurba_marseille","lat":43.25766,"lon":5.38617,"is_reserved":false,"is_disabled":false,"rental_uris":{"android":"levelo://app?vid=c925db99-babd-480c-b0a2-e997eb3a084f","ios":"levelo://app?vid=c925db99-babd-480c-b0a2-e997eb3a084f"},"vehicle_type_id":"4","last_reported":1781276376,"current_range_meters":7200,"station_id":"","pricing_plan_id":"cebpf4jnsgd1na2vs0mg"},{"bike_id":"a0d2ac5f-fff6-43f6-831d-dfa81e9c3981","system_id":"levelo_inurba_marseille","lat":43.29591,"lon":5.36435,"is_reserved":false,"is_disabled":false,"rental_uris":{"android":"levelo://app?vid=a0d2ac5f-fff6-43f6-831d-dfa81e9c3981","ios":"levelo://app?vid=a0d2ac5f-fff6-43f6-831d-dfa81e9c3981"},"vehicle_type_id":"4","last_reported":1781276376,"current_range_meters":7200,"station_id":"","pricing_plan_id":"cebpf4jnsgd1na2vs0mg"},{"bike_id":"c77e711e-e141-4d52-870e-72ea26fee60b","system_id":"levelo_inurba_marseille","lat":43.28392,"lon":5.35005,"is_reserved":false,"is_disabled":false,"rental_uris":{"android":"levelo://app?vid=c77e711e-e141-4d52-870e-72ea26fee60b","ios":"levelo://app?vid=c77e711e-e141-4d52-870e-72ea26fee60b"},"vehicle_type_id":"4","last_reported":1781276376,"current_range_meters":7200,"station_id":"ce4bhbh2rcd13ifvqepg","pricing_plan_id":"cebpf4jnsgd1na2vs0mg"},{"bike_id":"c3693f94-d02b-4f7d-908c-1f1186cacdea","system_id":"levelo_inurba_marseille","lat":43.29096,"lon":5.38165,"is_reserved":false,"is_disabled":false,"rental_uris":{"android":"levelo://app?vid=c3693f94-d02b-4f7d-908c-1f1186cacdea","ios":"levelo://app?vid=c3693f94-d02b-4f7d-908c-1f1186cacdea"},"vehicle_type_id":"4","last_reported":1781276376,"current_range_meters":7200,"station_id":"ce4bh512rcd13ifvqe2g","pricing_plan_id":"cebpf4jnsgd1na2vs0mg"},{"bike_id":"3171beed-ba41-4290-affc-9ea88eff5208","system_id":"levelo_inurba_marseille","lat":43.24967,"lon":5.40488,"is_reserved":false,"is_disabled":false,"rental_uris":{"android":"levelo://app?vid=3171beed-ba41-4290-affc-9ea88eff5208","ios":"levelo://app?vid=3171beed-ba41-4290-affc-9ea88eff5208"},"vehicle_type_id":"4","last_reported":1781276376,"current_range_meters":7200,"station_id":"st_d2ngiaodas8pm72gd1h0","pricing_plan_id":"cebpf4jnsgd1na2vs0mg"},{"bike_id":"86880dc8-1f87-41c7-af62-3f6a8077ef2d","system_id":"levelo_inurba_marseille","lat":43.21745,"lon":5.34606,"is_reserved":false,"is_disabled":false,"rental_uris":{"android":"levelo://app?vid=86880dc8-1f87-41c7-af62-3f6a8077ef2d","ios":"levelo://app?vid=86880dc8-1f87-41c7-af62-3f6a8077ef2d"},"vehicle_type_id":"4","last_reported":1781276376,"current_range_meters":7200,"station_id":"st_cvj6r9ubvosntc0bgbag","pricing_plan_id":"cebpf4jnsgd1na2vs0mg"},{"bike_id":"76b5dbf6-4dec-4e15-b75c-64bfd5286ab8","system_id":"levelo_inurba_marseille","lat":43.33544,"lon":5.3746,"is_reserved":false,"is_disabled":false,"rental_uris":{"android":"levelo://app?vid=76b5dbf6-4dec-4e15-b75c-64bfd5286ab8","ios":"levelo://app?vid=76b5dbf6-4dec-4e15-b75c-64bfd5286ab8"},"vehicle_type_id":"4","last_reported":1781276376,"current_range_meters":7200,"station_id":"st_d46tts09ee8s73dlu43g","pricing_plan_id":"cebpf4jnsgd1na2vs0mg"},{"bike_id":"1ca3a914-a55c-4637-a9ca-4ffd36fbecad","system_id":"levelo_inurba_marseille","lat":43.262214,"lon":5.387661,"is_reserved":false,"is_disabled":true,"rental_uris":{"android":"levelo://app?vid=1ca3a914-a55c-4637-a9ca-4ffd36fbecad","ios":"levelo://app?vid=1ca3a914-a55c-4637-a9ca-4ffd36fbecad"},"vehicle_type_id":"4","last_reported":1781276376,"current_range_meters":7200,"station_id":"st_d8gjfg747rts73coq3b0","pricing_plan_id":"cebpf4jnsgd1na2vs0mg"},{"bike_id":"7af5dc62-7a31-4d7c-a26c-927a2cb82321","system_id":"levelo_inurba_marseille","lat":43.32126,"lon":5.36746,"is_reserved":false,"is_disabled":false,"rental_uris":{"android":"levelo://app?vid=7af5dc62-7a31-4d7c-a26c-927a2cb82321","ios":"levelo://app?vid=7af5dc62-7a31-4d7c-a26c-927a2cb82321"},"vehicle_type_id":"4","last_reported":1781276376,"current_range_meters":7200,"station_id":"ce4bhrh2rcd13ifvqhug","pricing_plan_id":"cebpf4jnsgd1na2vs0mg"},{"bike_id":"01ad870b-01de-4926-b3dd-021d38ea273d","system_id":"levelo_inurba_marseille","lat":43.30462,"lon":5.37917,"is_reserved":false,"is_disabled":false,"rental_uris":{"android":"levelo://app?vid=01ad870b-01de-4926-b3dd-021d38ea273d","ios":"levelo://app?vid=01ad870b-01de-4926-b3dd-021d38ea273d"},"vehicle_type_id":"4","last_reported":1781276376,"current_range_meters":7200,"station_id":"ce4bgup2rcd13ifvqcn0","pricing_plan_id":"cebpf4jnsgd1na2vs0mg"},{"bike_id":"bf5b0c3c-e340-4dd8-976d-137f40bb17d3","system_id":"levelo_inurba_marseille","lat":43.31261,"lon":5.4016,"is_reserved":false,"is_disabled":false,"rental_uris":{"android":"levelo://app?vid=bf5b0c3c-e340-4dd8-976d-137f40bb17d3","ios":"levelo://app?vid=bf5b0c3c-e340-4dd8-976d-137f40bb17d3"},"vehicle_type_id":"4","last_reported":1781276376,"current_range_meters":7200,"station_id":"ce4bh092rcd13ifvqd30","pricing_plan_id":"cebpf4jnsgd1na2vs0mg"},{"bike_id":"a318bc01-9889-445e-ad9e-b36118278119","system_id":"levelo_inurba_marseille","lat":43.28606,"lon":5.35108,"is_reserved":false,"is_disabled":true,"rental_uris":{"android":"levelo://app?vid=a318bc01-9889-445e-ad9e-b36118278119","ios":"levelo://app?vid=a318bc01-9889-445e-ad9e-b36118278119"},"vehicle_type_id":"4","last_reported":1781276376,"current_range_meters":7200,"station_id":"ce4bhch2rcd13ifvqeug","pricing_plan_id":"cebpf4jnsgd1na2vs0mg"},{"bike_id":"afbe0fda-b03e-4d81-bee2-f21cf5c8355d","system_id":"levelo_inurba_marseille","lat":43.24169,"lon":5.36382,"is_reserved":false,"is_disabled":false,"rental_uris":{"android":"levelo://app?vid=afbe0fda-b03e-4d81-bee2-f21cf5c8355d","ios":"levelo://app?vid=afbe0fda-b03e-4d81-bee2-f21cf5c8355d"},"vehicle_type_id":"4","last_reported":1781276376,"current_range_meters":7200,"station_id":"cpo36qri1sfpv3e86is0","pricing_plan_id":"cebpf4jnsgd1na2vs0mg"},{"bike_id":"9ce63071-da40-4e22-a330-b834400704a3","system_id":"levelo_inurba_marseille","lat":43.29309,"lon":5.37178,"is_reserved":false,"is_disabled":false,"rental_uris":{"android":"levelo://app?vid=9ce63071-da40-4e22-a330-b834400704a3","ios":"levelo://app?vid=9ce63071-da40-4e22-a330-b834400704a3"},"vehicle_type_id":"4","last_reported":1781276376,"current_range_meters":7200,"station_id":"ce4bgh92rcd13ifvqb40","pricing_plan_id":"cebpf4jnsgd1na2vs0mg"},{"bike_id":"b154e503-5e6b-4b2c-aea8-7afe1c19122c","system_id":"levelo_inurba_marseille","lat":43.28118,"lon":5.42639,"is_reserved":false,"is_disabled":false,"rental_uris":{"android":"levelo://app?vid=b154e503-5e6b-4b2c-aea8-7afe1c19122c","ios":"levelo://app?vid=b154e503-5e6b-4b2c-aea8-7afe1c19122c"},"vehicle_type_id":"4","last_reported":1781276376,"current_range_meters":7200,"station_id":"ce4bhnh2rcd13ifvqgug","pricing_plan_id":"cebpf4jnsgd1na2vs0mg"},{"bike_id":"51893efd-b6bd-444e-ba0c-31972e9fa473","system_id":"levelo_inurba_marseille","lat":43.28425,"lon":5.34993,"is_reserved":false,"is_disabled":false,"rental_uris":{"android":"levelo://app?vid=51893efd-b6bd-444e-ba0c-31972e9fa473","ios":"levelo://app?vid=51893efd-b6bd-444e-ba0c-31972e9fa473"},"vehicle_type_id":"4","last_reported":1781276376,"current_range_meters":7200,"station_id":"ce4bhbh2rcd13ifvqepg","pricing_plan_id":"cebpf4jnsgd1na2vs0mg"},{"bike_id":"cc5a6a88-257f-41d3-88f1-8efc3da98b6b","system_id":"levelo_inurba_marseille","lat":43.245553,"lon":5.395186,"is_reserved":false,"is_disabled":false,"rental_uris":{"android":"levelo://app?vid=cc5a6a88-257f-41d3-88f1-8efc3da98b6b","ios":"levelo://app?vid=cc5a6a88-257f-41d3-88f1-8efc3da98b6b"},"vehicle_type_id":"4","last_reported":1781276376,"current_range_meters":8000,"station_id":"ce4bhlp2rcd13ifvqgjg","pricing_plan_id":"cebpf4jnsgd1na2vs0mg"},{"bike_id":"1c088a56-c389-4146-b2df-78ef2395fc5b","system_id":"levelo_inurba_marseille","lat":43.26244,"lon":5.38954,"is_reserved":false,"is_disabled":false,"rental_uris":{"android":"levelo://app?vid=1c088a56-c389-4146-b2df-78ef2395fc5b","ios":"levelo://app?vid=1c088a56-c389-4146-b2df-78ef2395fc5b"},"vehicle_type_id":"4","last_reported":1781276376,"current_range_meters":8000,"station_id":"","pricing_plan_id":"cebpf4jnsgd1na2vs0mg"},{"bike_id":"9355951e-b041-446b-b93e-73dce11071c1","system_id":"levelo_inurba_marseille","lat":43.30319,"lon":5.37322,"is_reserved":false,"is_disabled":false,"rental_uris":{"android":"levelo://app?vid=9355951e-b041-446b-b93e-73dce11071c1","ios":"levelo://app?vid=9355951e-b041-446b-b93e-73dce11071c1"},"vehicle_type_id":"4","last_reported":1781276376,"current_range_meters":8000,"station_id":"","pricing_plan_id":"cebpf4jnsgd1na2vs0mg"},{"bike_id":"7ec5ac6c-1ad1-484e-b1ac-0dd6240aeac8","system_id":"levelo_inurba_marseille","lat":43.32107,"lon":5.36769,"is_reserved":false,"is_disabled":false,"rental_uris":{"android":"levelo://app?vid=7ec5ac6c-1ad1-484e-b1ac-0dd6240aeac8","ios":"levelo://app?vid=7ec5ac6c-1ad1-484e-b1ac-0dd6240aeac8"},"vehicle_type_id":"4","last_reported":1781276376,"current_range_meters":8000,"station_id":"ce4bhrh2rcd13ifvqhug","pricing_plan_id":"cebpf4jnsgd1na2vs0mg"},{"bike_id":"7c56fbf2-b06b-4ad4-bd6e-fb0ad9ba401c","system_id":"levelo_inurba_marseille","lat":43.28701,"lon":5.37945,"is_reserved":false,"is_disabled":true,"rental_uris":{"android":"levelo://app?vid=7c56fbf2-b06b-4ad4-bd6e-fb0ad9ba401c","ios":"levelo://app?vid=7c56fbf2-b06b-4ad4-bd6e-fb0ad9ba401c"},"vehicle_type_id":"4","last_reported":1781276376,"current_range_meters":8000,"station_id":"ce4bh9p2rcd13ifvqec0","pricing_plan_id":"cebpf4jnsgd1na2vs0mg"},{"bike_id":"315d3cd3-9556-47d2-bf87-42573b9faa84","system_id":"levelo_inurba_marseille","lat":43.29893,"lon":5.3837,"is_reserved":false,"is_disabled":false,"rental_uris":{"android":"levelo://app?vid=315d3cd3-9556-47d2-bf87-42573b9faa84","ios":"levelo://app?vid=315d3cd3-9556-47d2-bf87-42573b9faa84"},"vehicle_type_id":"4","last_reported":1781276376,"current_range_meters":8000,"station_id":"","pricing_plan_id":"cebpf4jnsgd1na2vs0mg"},{"bike_id":"5e91578c-c3d4-48c0-b561-da17b5977358","system_id":"levelo_inurba_marseille","lat":43.27374,"lon":5.3626,"is_reserved":false,"is_disabled":false,"rental_uris":{"android":"levelo://app?vid=5e91578c-c3d4-48c0-b561-da17b5977358","ios":"levelo://app?vid=5e91578c-c3d4-48c0-b561-da17b5977358"},"vehicle_type_id":"4","last_reported":1781276376,"current_range_meters":8000,"station_id":"ce4bhbh2rcd13ifvqeo0","pricing_plan_id":"cebpf4jnsgd1na2vs0mg"},{"bike_id":"7cbe8865-7149-47f1-b1e7-41179a36c783","system_id":"levelo_inurba_marseille","lat":43.23087,"lon":5.3551,"is_reserved":false,"is_disabled":false,"rental_uris":{"android":"levelo://app?vid=7cbe8865-7149-47f1-b1e7-41179a36c783","ios":"levelo://app?vid=7cbe8865-7149-47f1-b1e7-41179a36c783"},"vehicle_type_id":"4","last_reported":1781276376,"current_range_meters":8000,"station_id":"cpo3342slgdg3j2ifvpg","pricing_plan_id":"cebpf4jnsgd1na2vs0mg"},{"bike_id":"de2c62c7-58f3-4738-8253-2aa9334eb0ee","system_id":"levelo_inurba_marseille","lat":43.30551,"lon":5.3673,"is_reserved":false,"is_disabled":false,"rental_uris":{"android":"levelo://app?vid=de2c62c7-58f3-4738-8253-2aa9334eb0ee","ios":"levelo://app?vid=de2c62c7-58f3-4738-8253-2aa9334eb0ee"},"vehicle_type_id":"4","last_reported":1781276376,"current_range_meters":8000,"station_id":"ce4bgrp2rcd13ifvqc9g","pricing_plan_id":"cebpf4jnsgd1na2vs0mg"},{"bike_id":"ee891ccb-7308-4a8c-85b3-a0ce18360c01","system_id":"levelo_inurba_marseille","lat":43.29135,"lon":5.38695,"is_reserved":false,"is_disabled":false,"rental_uris":{"android":"levelo://app?vid=ee891ccb-7308-4a8c-85b3-a0ce18360c01","ios":"levelo://app?vid=ee891ccb-7308-4a8c-85b3-a0ce18360c01"},"vehicle_type_id":"4","last_reported":1781276376,"current_range_meters":8000,"station_id":"","pricing_plan_id":"cebpf4jnsgd1na2vs0mg"},{"bike_id":"5a79a05b-a641-4d43-8e84-1d65bf0783c1","system_id":"levelo_inurba_marseille","lat":43.26211,"lon":5.37445,"is_reserved":false,"is_disabled":false,"rental_uris":{"android":"levelo://app?vid=5a79a05b-a641-4d43-8e84-1d65bf0783c1","ios":"levelo://app?vid=5a79a05b-a641-4d43-8e84-1d65bf0783c1"},"vehicle_type_id":"4","last_reported":1781276376,"current_range_meters":8000,"station_id":"ce4bhgp2rcd13ifvqfc0","pricing_plan_id":"cebpf4jnsgd1na2vs0mg"},{"bike_id":"b642b880-37da-4104-9320-d842e35465fd","system_id":"levelo_inurba_marseille","lat":43.28622,"lon":5.35103,"is_reserved":false,"is_disabled":false,"rental_uris":{"android":"levelo://app?vid=b642b880-37da-4104-9320-d842e35465fd","ios":"levelo://app?vid=b642b880-37da-4104-9320-d842e35465fd"},"vehicle_type_id":"4","last_reported":1781276376,"current_range_meters":8000,"station_id":"ce4bhch2rcd13ifvqeug","pricing_plan_id":"cebpf4jnsgd1na2vs0mg"},{"bike_id":"2f3f6d36-c9de-44dc-a81d-d127b7e8fd12","system_id":"levelo_inurba_marseille","lat":43.24814,"lon":5.37463,"is_reserved":false,"is_disabled":false,"rental_uris":{"android":"levelo://app?vid=2f3f6d36-c9de-44dc-a81d-d127b7e8fd12","ios":"levelo://app?vid=2f3f6d36-c9de-44dc-a81d-d127b7e8fd12"},"vehicle_type_id":"4","last_reported":1781276376,"current_range_meters":8000,"station_id":"ce4bhgh2rcd13ifvqfb0","pricing_plan_id":"cebpf4jnsgd1na2vs0mg"},{"bike_id":"ab96553f-a6fa-4bd2-b6f7-3219e86c5658","system_id":"levelo_inurba_marseille","lat":43.22565,"lon":5.41633,"is_reserved":false,"is_disabled":false,"rental_uris":{"android":"levelo://app?vid=ab96553f-a6fa-4bd2-b6f7-3219e86c5658","ios":"levelo://app?vid=ab96553f-a6fa-4bd2-b6f7-3219e86c5658"},"vehicle_type_id":"4","last_reported":1781276376,"current_range_meters":8000,"station_id":"st_d2o4gvlbi1j2169b742g","pricing_plan_id":"cebpf4jnsgd1na2vs0mg"},{"bike_id":"f57ddc5d-b3ad-43f3-bbc4-226ea7be866d","system_id":"levelo_inurba_marseille","lat":43.29853,"lon":5.42272,"is_reserved":false,"is_disabled":false,"rental_uris":{"android":"levelo://app?vid=f57ddc5d-b3ad-43f3-bbc4-226ea7be866d","ios":"levelo://app?vid=f57ddc5d-b3ad-43f3-bbc4-226ea7be866d"},"vehicle_type_id":"4","last_reported":1781276376,"current_range_meters":8000,"station_id":"","pricing_plan_id":"cebpf4jnsgd1na2vs0mg"},{"bike_id":"0e270971-144a-4b81-96c3-837805f60e9b","system_id":"levelo_inurba_marseille","lat":43.25498,"lon":5.37648,"is_reserved":false,"is_disabled":false,"rental_uris":{"android":"levelo://app?vid=0e270971-144a-4b81-96c3-837805f60e9b","ios":"levelo://app?vid=0e270971-144a-4b81-96c3-837805f60e9b"},"vehicle_type_id":"4","last_reported":1781276376,"current_range_meters":8000,"station_id":"ce4bhh12rcd13ifvqff0","pricing_plan_id":"cebpf4jnsgd1na2vs0mg"},{"bike_id":"c4c0f73b-4845-4223-80c6-bd9a180245b9","system_id":"levelo_inurba_marseille","lat":43.29203,"lon":5.35793,"is_reserved":false,"is_disabled":false,"rental_uris":{"android":"levelo://app?vid=c4c0f73b-4845-4223-80c6-bd9a180245b9","ios":"levelo://app?vid=c4c0f73b-4845-4223-80c6-bd9a180245b9"},"vehicle_type_id":"4","last_reported":1781276376,"current_range_meters":8000,"station_id":"ce4bhb12rcd13ifvqel0","pricing_plan_id":"cebpf4jnsgd1na2vs0mg"},{"bike_id":"fb2a1f7d-f7e9-4d12-bb3c-32e8cd55f82d","system_id":"levelo_inurba_marseille","lat":43.29068,"lon":5.4426,"is_reserved":false,"is_disabled":false,"rental_uris":{"android":"levelo://app?vid=fb2a1f7d-f7e9-4d12-bb3c-32e8cd55f82d","ios":"levelo://app?vid=fb2a1f7d-f7e9-4d12-bb3c-32e8cd55f82d"},"vehicle_type_id":"4","last_reported":1781276376,"current_range_meters":8000,"station_id":"","pricing_plan_id":"cebpf4jnsgd1na2vs0mg"},{"bike_id":"40c7cd64-b83e-4a36-91bd-b34b9f2a8828","system_id":"levelo_inurba_marseille","lat":43.23153,"lon":5.43712,"is_reserved":false,"is_disabled":false,"rental_uris":{"android":"levelo://app?vid=40c7cd64-b83e-4a36-91bd-b34b9f2a8828","ios":"levelo://app?vid=40c7cd64-b83e-4a36-91bd-b34b9f2a8828"},"vehicle_type_id":"4","last_reported":1781276376,"current_range_meters":8000,"station_id":"ce4bhmp2rcd13ifvqgog","pricing_plan_id":"cebpf4jnsgd1na2vs0mg"},{"bike_id":"d1041ac1-d73b-45e8-b4a1-00d60a610480","system_id":"levelo_inurba_marseille","lat":43.30137,"lon":5.38079,"is_reserved":false,"is_disabled":false,"rental_uris":{"android":"levelo://app?vid=d1041ac1-d73b-45e8-b4a1-00d60a610480","ios":"levelo://app?vid=d1041ac1-d73b-45e8-b4a1-00d60a610480"},"vehicle_type_id":"4","last_reported":1781276376,"current_range_meters":8000,"station_id":"ce4bgjp2rcd13ifvqbh0","pricing_plan_id":"cebpf4jnsgd1na2vs0mg"},{"bike_id":"11b3084a-10a1-4df1-a3fb-88c609563994","system_id":"levelo_inurba_marseille","lat":43.31329,"lon":5.39729,"is_reserved":false,"is_disabled":false,"rental_uris":{"android":"levelo://app?vid=11b3084a-10a1-4df1-a3fb-88c609563994","ios":"levelo://app?vid=11b3084a-10a1-4df1-a3fb-88c609563994"},"vehicle_type_id":"4","last_reported":1781276376,"current_range_meters":8000,"station_id":"ce4bgvp2rcd13ifvqcu0","pricing_plan_id":"cebpf4jnsgd1na2vs0mg"},{"bike_id":"179f6131-262d-4975-aec7-0fca2eed6ca4","system_id":"levelo_inurba_marseille","lat":43.24379,"lon":5.37036,"is_reserved":false,"is_disabled":false,"rental_uris":{"android":"levelo://app?vid=179f6131-262d-4975-aec7-0fca2eed6ca4","ios":"levelo://app?vid=179f6131-262d-4975-aec7-0fca2eed6ca4"},"vehicle_type_id":"4","last_reported":1781276376,"current_range_meters":8000,"station_id":"ce4bhhh2rcd13ifvqfk0","pricing_plan_id":"cebpf4jnsgd1na2vs0mg"},