{"last_updated":1742822434,"ttl":60,"version":"2.2","data":{"bikes":[{"bike_id":"1d644bea-0f81-4ace-9412-fe420a11a6e7","system_id":"levelo_inurba_marseille","lat":43.29803,"lon":5.40414,"is_reserved":false,"is_disabled":false,"rental_uris":{"android":"levelo://app?vid=1d644bea-0f81-4ace-9412-fe420a11a6e7","ios":"levelo://app?vid=1d644bea-0f81-4ace-9412-fe420a11a6e7"},"vehicle_type_id":"4","last_reported":1742822434,"current_range_meters":2800,"station_id":"ce4bh112rcd13ifvqd90","pricing_plan_id":"cebpf4jnsgd1na2vs0mg"},{"bike_id":"b1b0b857-8d11-4750-beaa-5411f0711b61","system_id":"levelo_inurba_marseille","lat":43.29972,"lon":5.38496,"is_reserved":false,"is_disabled":true,"rental_uris":{"android":"levelo://app?vid=b1b0b857-8d11-4750-beaa-5411f0711b61","ios":"levelo://app?vid=b1b0b857-8d11-4750-beaa-5411f0711b61"},"vehicle_type_id":"4","last_reported":1742822434,"current_range_meters":2800,"station_id":"ce4bgj92rcd13ifvqbd0","pricing_plan_id":"cebpf4jnsgd1na2vs0mg"},{"bike_id":"fbaba96f-fff3-42d8-8786-f6a72f5041a3","system_id":"levelo_inurba_marseille","lat":43.30982,"lon":5.39034,"is_reserved":false,"is_disabled":true,"rental_uris":{"android":"levelo://app?vid=fbaba96f-fff3-42d8-8786-f6a72f5041a3","ios":"levelo://app?vid=fbaba96f-fff3-42d8-8786-f6a72f5041a3"},"vehicle_type_id":"4","last_reported":1742822434,"current_range_meters":2800,"station_id":"ce4bgup2rcd13ifvqco0","pricing_plan_id":"cebpf4jnsgd1na2vs0mg"},{"bike_id":"21d0ac92-0d3d-4873-ac7c-79aac4e52dbc","system_id":"levelo_inurba_marseille","lat":43.29307,"lon":5.37485,"is_reserved":false,"is_disabled":false,"rental_uris":{"android":"levelo://app?vid=21d0ac92-0d3d-4873-ac7c-79aac4e52dbc","ios":"levelo://app?vid=21d0ac92-0d3d-4873-ac7c-79aac4e52dbc"},"vehicle_type_id":"4","last_reported":1742822434,"current_range_meters":3200,"station_id":"ce4bgi12rcd13ifvqb70","pricing_plan_id":"cebpf4jnsgd1na2vs0mg"},{"bike_id":"c16b4fe6-8557-4b32-8af9-1a3c6f8f62ec","system_id":"levelo_inurba_marseille","lat":43.30272,"lon":5.37712,"is_reserved":false,"is_disabled":false,"rental_uris":{"android":"levelo://app?vid=c16b4fe6-8557-4b32-8af9-1a3c6f8f62ec","ios":"levelo://app?vid=c16b4fe6-8557-4b32-8af9-1a3c6f8f62ec"},"vehicle_type_id":"4","last_reported":1742822434,"current_range_meters":12000,"station_id":"ce4bguh2rcd13ifvqcj0","pricing_plan_id":"cebpf4jnsgd1na2vs0mg"},{"bike_id":"460e9d34-dd4f-4996-b7cd-d16b7b25a465","system_id":"levelo_inurba_marseille","lat":43.30354,"lon":5.41883,"is_reserved":false,"is_disabled":false,"rental_uris":{"android":"levelo://app?vid=460e9d34-dd4f-4996-b7cd-d16b7b25a465","ios":"levelo://app?vid=460e9d34-dd4f-4996-b7cd-d16b7b25a465"},"vehicle_type_id":"4","last_reported":1742822434,"current_range_meters":3200,"station_id":"ce4bhop2rcd13ifvqh7g","pricing_plan_id":"cebpf4jnsgd1na2vs0mg"},{"bike_id":"7878c4b5-0aca-43f0-bcf2-2dd3c69189fb","system_id":"levelo_inurba_marseille","lat":43.26789,"lon":5.39418,"is_reserved":false,"is_disabled":false,"rental_uris":{"android":"levelo://app?vid=7878c4b5-0aca-43f0-bcf2-2dd3c69189fb","ios":"levelo://app?vid=7878c4b5-0aca-43f0-bcf2-2dd3c69189fb"},"vehicle_type_id":"4","last_reported":1742822434,"current_range_meters":3200,"station_id":"ce4bhh12rcd13ifvqfg0","pricing_plan_id":"cebpf4jnsgd1na2vs0mg"},{"bike_id":"1da1d766-b310-48be-8cd1-55d7964d3d02","system_id":"levelo_inurba_marseille","lat":43.27078,"lon":5.42273,"is_reserved":false,"is_disabled":true,"rental_uris":{"android":"levelo://app?vid=1da1d766-b310-48be-8cd1-55d7964d3d02","ios":"levelo://app?vid=1da1d766-b310-48be-8cd1-55d7964d3d02"},"vehicle_type_id":"4","last_reported":1742822434,"current_range_meters":3600,"station_id":"ce4bhk92rcd13ifvqgb0","pricing_plan_id":"cebpf4jnsgd1na2vs0mg"},{"bike_id":"b4fe017e-054c-4371-a0e5-2283eb07af54","system_id":"levelo_inurba_marseille","lat":43.30325,"lon":5.40436,"is_reserved":false,"is_disabled":false,"rental_uris":{"android":"levelo://app?vid=b4fe017e-054c-4371-a0e5-2283eb07af54","ios":"levelo://app?vid=b4fe017e-054c-4371-a0e5-2283eb07af54"},"vehicle_type_id":"4","last_reported":1742822434,"current_range_meters":3600,"station_id":"ce4bh012rcd13ifvqd10","pricing_plan_id":"cebpf4jnsgd1na2vs0mg"},{"bike_id":"dd95f51e-57c7-435d-b2d1-f08d42de1c7c","system_id":"levelo_inurba_marseille","lat":43.23155,"lon":5.43708,"is_reserved":false,"is_disabled":false,"rental_uris":{"android":"levelo://app?vid=dd95f51e-57c7-435d-b2d1-f08d42de1c7c","ios":"levelo://app?vid=dd95f51e-57c7-435d-b2d1-f08d42de1c7c"},"vehicle_type_id":"4","last_reported":1742822434,"current_range_meters":3600,"station_id":"ce4bhmp2rcd13ifvqgog","pricing_plan_id":"cebpf4jnsgd1na2vs0mg"},{"bike_id":"8ed1ac19-a2dd-4532-af16-423d1df5a6d4","system_id":"levelo_inurba_marseille","lat":43.231222,"lon":5.413958,"is_reserved":false,"is_disabled":false,"rental_uris":{"android":"levelo://app?vid=8ed1ac19-a2dd-4532-af16-423d1df5a6d4","ios":"levelo://app?vid=8ed1ac19-a2dd-4532-af16-423d1df5a6d4"},"vehicle_type_id":"4","last_reported":1742822434,"current_range_meters":3600,"station_id":"","pricing_plan_id":"cebpf4jnsgd1na2vs0mg"},{"bike_id":"32d529b4-10cc-4a3c-a585-d2b3faf345e2","system_id":"levelo_inurba_marseille","lat":43.27403,"lon":5.42394,"is_reserved":false,"is_disabled":false,"rental_uris":{"android":"levelo://app?vid=32d529b4-10cc-4a3c-a585-d2b3faf345e2","ios":"levelo://app?vid=32d529b4-10cc-4a3c-a585-d2b3faf345e2"},"vehicle_type_id":"4","last_reported":1742822434,"current_range_meters":4000,"station_id":"","pricing_plan_id":"cebpf4jnsgd1na2vs0mg"},{"bike_id":"f249eb60-6818-4e6d-a1d3-728aa159a811","system_id":"levelo_inurba_marseille","lat":43.265,"lon":5.39551,"is_reserved":false,"is_disabled":false,"rental_uris":{"android":"levelo://app?vid=f249eb60-6818-4e6d-a1d3-728aa159a811","ios":"levelo://app?vid=f249eb60-6818-4e6d-a1d3-728aa159a811"},"vehicle_type_id":"4","last_reported":1742822434,"current_range_meters":4400,"station_id":"ce4bhi12rcd13ifvqfq0","pricing_plan_id":"cebpf4jnsgd1na2vs0mg"},{"bike_id":"f0b8e378-3775-4d56-852d-dd8ef1611442","system_id":"levelo_inurba_marseille","lat":43.25136,"lon":5.40314,"is_reserved":false,"is_disabled":false,"rental_uris":{"android":"levelo://app?vid=f0b8e378-3775-4d56-852d-dd8ef1611442","ios":"levelo://app?vid=f0b8e378-3775-4d56-852d-dd8ef1611442"},"vehicle_type_id":"4","last_reported":1742822434,"current_range_meters":4400,"station_id":"ce4bhlh2rcd13ifvqgig","pricing_plan_id":"cebpf4jnsgd1na2vs0mg"},{"bike_id":"721ba561-54ac-4548-8df8-dfb5a4ff8561","system_id":"levelo_inurba_marseille","lat":43.32357,"lon":5.36758,"is_reserved":false,"is_disabled":false,"rental_uris":{"android":"levelo://app?vid=721ba561-54ac-4548-8df8-dfb5a4ff8561","ios":"levelo://app?vid=721ba561-54ac-4548-8df8-dfb5a4ff8561"},"vehicle_type_id":"4","last_reported":1742822434,"current_range_meters":4400,"station_id":"ce4bhsh2rcd13ifvqi2g","pricing_plan_id":"cebpf4jnsgd1na2vs0mg"},{"bike_id":"7fcd2edc-0cc0-40eb-a5e9-2882451e8a23","system_id":"levelo_inurba_marseille","lat":43.28268,"lon":5.35065,"is_reserved":false,"is_disabled":false,"rental_uris":{"android":"levelo://app?vid=7fcd2edc-0cc0-40eb-a5e9-2882451e8a23","ios":"levelo://app?vid=7fcd2edc-0cc0-40eb-a5e9-2882451e8a23"},"vehicle_type_id":"4","last_reported":1742822434,"current_range_meters":4800,"station_id":"ce4bhbp2rcd13ifvqerg","pricing_plan_id":"cebpf4jnsgd1na2vs0mg"},{"bike_id":"29d1d332-8a34-4cb8-8d6c-26b46b6da8c9","system_id":"levelo_inurba_marseille","lat":43.29175,"lon":5.39301,"is_reserved":false,"is_disabled":false,"rental_uris":{"android":"levelo://app?vid=29d1d332-8a34-4cb8-8d6c-26b46b6da8c9","ios":"levelo://app?vid=29d1d332-8a34-4cb8-8d6c-26b46b6da8c9"},"vehicle_type_id":"4","last_reported":1742822434,"current_range_meters":4800,"station_id":"ce4bh192rcd13ifvqdd0","pricing_plan_id":"cebpf4jnsgd1na2vs0mg"},{"bike_id":"73df5009-8c69-4d32-b702-8e047109578a","system_id":"levelo_inurba_marseille","lat":43.31273,"lon":5.40173,"is_reserved":false,"is_disabled":false,"rental_uris":{"android":"levelo://app?vid=73df5009-8c69-4d32-b702-8e047109578a","ios":"levelo://app?vid=73df5009-8c69-4d32-b702-8e047109578a"},"vehicle_type_id":"4","last_reported":1742822434,"current_range_meters":4800,"station_id":"ce4bh092rcd13ifvqd30","pricing_plan_id":"cebpf4jnsgd1na2vs0mg"},{"bike_id":"abbabf8b-80e6-43c6-9364-5564071dcd59","system_id":"levelo_inurba_marseille","lat":43.27179,"lon":5.40999,"is_reserved":false,"is_disabled":false,"rental_uris":{"android":"levelo://app?vid=abbabf8b-80e6-43c6-9364-5564071dcd59","ios":"levelo://app?vid=abbabf8b-80e6-43c6-9364-5564071dcd59"},"vehicle_type_id":"4","last_reported":1742822434,"current_range_meters":4800,"station_id":"ce4bhl12rcd13ifvqgf0","pricing_plan_id":"cebpf4jnsgd1na2vs0mg"},{"bike_id":"ef636f84-1c64-460a-bf7a-33330a42f8ca","system_id":"levelo_inurba_marseille","lat":43.27951,"lon":5.41041,"is_reserved":false,"is_disabled":false,"rental_uris":{"android":"levelo://app?vid=ef636f84-1c64-460a-bf7a-33330a42f8ca","ios":"levelo://app?vid=ef636f84-1c64-460a-bf7a-33330a42f8ca"},"vehicle_type_id":"4","last_reported":1742822434,"current_range_meters":5600,"station_id":"ce4bhnp2rcd13ifvqh0g","pricing_plan_id":"cebpf4jnsgd1na2vs0mg"},{"bike_id":"7b53ab83-0782-408d-84de-1f66872c323b","system_id":"levelo_inurba_marseille","lat":43.29039,"lon":5.37572,"is_reserved":false,"is_disabled":false,"rental_uris":{"android":"levelo://app?vid=7b53ab83-0782-408d-84de-1f66872c323b","ios":"levelo://app?vid=7b53ab83-0782-408d-84de-1f66872c323b"},"vehicle_type_id":"4","last_reported":1742822434,"current_range_meters":5600,"station_id":"ce4bh692rcd13ifvqe90","pricing_plan_id":"cebpf4jnsgd1na2vs0mg"},{"bike_id":"3dc255a4-229f-4e25-a8b4-e1c4459d7c84","system_id":"levelo_inurba_marseille","lat":43.25934,"lon":5.4089,"is_reserved":false,"is_disabled":false,"rental_uris":{"android":"levelo://app?vid=3dc255a4-229f-4e25-a8b4-e1c4459d7c84","ios":"levelo://app?vid=3dc255a4-229f-4e25-a8b4-e1c4459d7c84"},"vehicle_type_id":"4","last_reported":1742822434,"current_range_meters":5600,"station_id":"ce4bhm92rcd13ifvqglg","pricing_plan_id":"cebpf4jnsgd1na2vs0mg"},{"bike_id":"3c4613d7-e6d3-483c-b535-86ecd575b38e","system_id":"levelo_inurba_marseille","lat":43.26902,"lon":5.40179,"is_reserved":false,"is_disabled":false,"rental_uris":{"android":"levelo://app?vid=3c4613d7-e6d3-483c-b535-86ecd575b38e","ios":"levelo://app?vid=3c4613d7-e6d3-483c-b535-86ecd575b38e"},"vehicle_type_id":"4","last_reported":1742822434,"current_range_meters":6000,"station_id":"cjm6bp8fraef2m0cb0m0","pricing_plan_id":"cebpf4jnsgd1na2vs0mg"},{"bike_id":"870f505c-4634-4f93-9b8b-17c0c8ea54b8","system_id":"levelo_inurba_marseille","lat":43.26784,"lon":5.39426,"is_reserved":false,"is_disabled":true,"rental_uris":{"android":"levelo://app?vid=870f505c-4634-4f93-9b8b-17c0c8ea54b8","ios":"levelo://app?vid=870f505c-4634-4f93-9b8b-17c0c8ea54b8"},"vehicle_type_id":"4","last_reported":1742822434,"current_range_meters":6000,"station_id":"ce4bhh12rcd13ifvqfg0","pricing_plan_id":"cebpf4jnsgd1na2vs0mg"},{"bike_id":"785b8546-85d8-481b-875c-0a9a59c2f868","system_id":"levelo_inurba_marseille","lat":43.30272,"lon":5.37692,"is_reserved":false,"is_disabled":false,"rental_uris":{"android":"levelo://app?vid=785b8546-85d8-481b-875c-0a9a59c2f868","ios":"levelo://app?vid=785b8546-85d8-481b-875c-0a9a59c2f868"},"vehicle_type_id":"4","last_reported":1742822434,"current_range_meters":6000,"station_id":"ce4bguh2rcd13ifvqcj0","pricing_plan_id":"cebpf4jnsgd1na2vs0mg"},{"bike_id":"83b62d0b-72b9-497e-bf4f-d4241789b0a2","system_id":"levelo_inurba_marseille","lat":43.31686,"lon":5.4048,"is_reserved":false,"is_disabled":false,"rental_uris":{"android":"levelo://app?vid=83b62d0b-72b9-497e-bf4f-d4241789b0a2","ios":"levelo://app?vid=83b62d0b-72b9-497e-bf4f-d4241789b0a2"},"vehicle_type_id":"4","last_reported":1742822434,"current_range_meters":6400,"station_id":"ce4bh012rcd13ifvqd00","pricing_plan_id":"cebpf4jnsgd1na2vs0mg"},{"bike_id":"6843f033-5b41-4b02-9b5a-9253b00e2665","system_id":"levelo_inurba_marseille","lat":43.30941,"lon":5.39038,"is_reserved":false,"is_disabled":false,"rental_uris":{"android":"levelo://app?vid=6843f033-5b41-4b02-9b5a-9253b00e2665","ios":"levelo://app?vid=6843f033-5b41-4b02-9b5a-9253b00e2665"},"vehicle_type_id":"4","last_reported":1742822434,"current_range_meters":6400,"station_id":"ce4bgup2rcd13ifvqco0","pricing_plan_id":"cebpf4jnsgd1na2vs0mg"},{"bike_id":"41df3a31-33ea-4040-995c-6a70579c4ca3","system_id":"levelo_inurba_marseille","lat":43.28708,"lon":5.39993,"is_reserved":false,"is_disabled":false,"rental_uris":{"android":"levelo://app?vid=41df3a31-33ea-4040-995c-6a70579c4ca3","ios":"levelo://app?vid=41df3a31-33ea-4040-995c-6a70579c4ca3"},"vehicle_type_id":"4","last_reported":1742822434,"current_range_meters":6400,"station_id":"ce4bho92rcd13ifvqh3g","pricing_plan_id":"cebpf4jnsgd1na2vs0mg"},{"bike_id":"6affd26d-3c2f-4482-bc96-2275240556ec","system_id":"levelo_inurba_marseille","lat":43.26232,"lon":5.40448,"is_reserved":false,"is_disabled":false,"rental_uris":{"android":"levelo://app?vid=6affd26d-3c2f-4482-bc96-2275240556ec","ios":"levelo://app?vid=6affd26d-3c2f-4482-bc96-2275240556ec"},"vehicle_type_id":"4","last_reported":1742822434,"current_range_meters":6400,"station_id":"ce4bhmh2rcd13ifvqgmg","pricing_plan_id":"cebpf4jnsgd1na2vs0mg"},{"bike_id":"612a0c17-962e-4e78-b8bf-84b6c93d4dc8","system_id":"levelo_inurba_marseille","lat":43.32484,"lon":5.36592,"is_reserved":false,"is_disabled":false,"rental_uris":{"android":"levelo://app?vid=612a0c17-962e-4e78-b8bf-84b6c93d4dc8","ios":"levelo://app?vid=612a0c17-962e-4e78-b8bf-84b6c93d4dc8"},"vehicle_type_id":"4","last_reported":1742822434,"current_range_meters":6400,"station_id":"ce4bhs12rcd13ifvqhvg","pricing_plan_id":"cebpf4jnsgd1na2vs0mg"},{"bike_id":"ca7ca978-1fef-4a0e-9aa2-95e430214d5b","system_id":"levelo_inurba_marseille","lat":43.2418,"lon":5.36391,"is_reserved":false,"is_disabled":false,"rental_uris":{"android":"levelo://app?vid=ca7ca978-1fef-4a0e-9aa2-95e430214d5b","ios":"levelo://app?vid=ca7ca978-1fef-4a0e-9aa2-95e430214d5b"},"vehicle_type_id":"4","last_reported":1742822434,"current_range_meters":6400,"station_id":"cpo36qri1sfpv3e86is0","pricing_plan_id":"cebpf4jnsgd1na2vs0mg"},{"bike_id":"47fb3c27-d932-4ff3-a2e4-4a8d1398182e","system_id":"levelo_inurba_marseille","lat":43.29586,"lon":5.36747,"is_reserved":false,"is_disabled":false,"rental_uris":{"android":"levelo://app?vid=47fb3c27-d932-4ff3-a2e4-4a8d1398182e","ios":"levelo://app?vid=47fb3c27-d932-4ff3-a2e4-4a8d1398182e"},"vehicle_type_id":"4","last_reported":1742822434,"current_range_meters":6400,"station_id":"ce4bgph2rcd13ifvqc2g","pricing_plan_id":"cebpf4jnsgd1na2vs0mg"},{"bike_id":"217589cc-6d6b-4c93-be2c-3a260f0ed08c","system_id":"levelo_inurba_marseille","lat":43.25946,"lon":5.40903,"is_reserved":false,"is_disabled":false,"rental_uris":{"android":"levelo://app?vid=217589cc-6d6b-4c93-be2c-3a260f0ed08c","ios":"levelo://app?vid=217589cc-6d6b-4c93-be2c-3a260f0ed08c"},"vehicle_type_id":"4","last_reported":1742822434,"current_range_meters":6400,"station_id":"ce4bhm92rcd13ifvqglg","pricing_plan_id":"cebpf4jnsgd1na2vs0mg"},{"bike_id":"785a399d-c218-46a3-9a25-f2de4b702f01","system_id":"levelo_inurba_marseille","lat":43.26211,"lon":5.37451,"is_reserved":false,"is_disabled":false,"rental_uris":{"android":"levelo://app?vid=785a399d-c218-46a3-9a25-f2de4b702f01","ios":"levelo://app?vid=785a399d-c218-46a3-9a25-f2de4b702f01"},"vehicle_type_id":"4","last_reported":1742822434,"current_range_meters":6400,"station_id":"ce4bhgp2rcd13ifvqfc0","pricing_plan_id":"cebpf4jnsgd1na2vs0mg"},{"bike_id":"2ba46124-a093-4345-928b-13702ad74f31","system_id":"levelo_inurba_marseille","lat":43.23077,"lon":5.35498,"is_reserved":false,"is_disabled":false,"rental_uris":{"android":"levelo://app?vid=2ba46124-a093-4345-928b-13702ad74f31","ios":"levelo://app?vid=2ba46124-a093-4345-928b-13702ad74f31"},"vehicle_type_id":"4","last_reported":1742822434,"current_range_meters":6800,"station_id":"cpo3342slgdg3j2ifvpg","pricing_plan_id":"cebpf4jnsgd1na2vs0mg"},{"bike_id":"a8054457-ef9c-4293-879f-1eab83000740","system_id":"levelo_inurba_marseille","lat":43.24171,"lon":5.36402,"is_reserved":false,"is_disabled":false,"rental_uris":{"android":"levelo://app?vid=a8054457-ef9c-4293-879f-1eab83000740","ios":"levelo://app?vid=a8054457-ef9c-4293-879f-1eab83000740"},"vehicle_type_id":"4","last_reported":1742822434,"current_range_meters":6800,"station_id":"cpo36qri1sfpv3e86is0","pricing_plan_id":"cebpf4jnsgd1na2vs0mg"},{"bike_id":"2fd4d927-0f70-4f4e-9269-8cd3b232bcd8","system_id":"levelo_inurba_marseille","lat":43.25924,"lon":5.40901,"is_reserved":false,"is_disabled":false,"rental_uris":{"android":"levelo://app?vid=2fd4d927-0f70-4f4e-9269-8cd3b232bcd8","ios":"levelo://app?vid=2fd4d927-0f70-4f4e-9269-8cd3b232bcd8"},"vehicle_type_id":"4","last_reported":1742822434,"current_range_meters":6800,"station_id":"ce4bhm92rcd13ifvqglg","pricing_plan_id":"cebpf4jnsgd1na2vs0mg"},{"bike_id":"7dcbad61-3b33-46e3-8647-53d21cd82079","system_id":"levelo_inurba_marseille","lat":43.30885,"lon":5.39665,"is_reserved":false,"is_disabled":false,"rental_uris":{"android":"levelo://app?vid=7dcbad61-3b33-46e3-8647-53d21cd82079","ios":"levelo://app?vid=7dcbad61-3b33-46e3-8647-53d21cd82079"},"vehicle_type_id":"4","last_reported":1742822434,"current_range_meters":6800,"station_id":"ce4bh012rcd13ifvqcv0","pricing_plan_id":"cebpf4jnsgd1na2vs0mg"},{"bike_id":"3139b39d-c4b4-4380-a511-1b4e3bcf0669","system_id":"levelo_inurba_marseille","lat":43.24185,"lon":5.39679,"is_reserved":false,"is_disabled":false,"rental_uris":{"android":"levelo://app?vid=3139b39d-c4b4-4380-a511-1b4e3bcf0669","ios":"levelo://app?vid=3139b39d-c4b4-4380-a511-1b4e3bcf0669"},"vehicle_type_id":"4","last_reported":1742822434,"current_range_meters":7200,"station_id":"ce4bhn12rcd13ifvqgpg","pricing_plan_id":"cebpf4jnsgd1na2vs0mg"},{"bike_id":"2aa452bf-48c2-4a4d-8014-49cd39fbd6c8","system_id":"levelo_inurba_marseille","lat":43.27943,"lon":5.41045,"is_reserved":false,"is_disabled":false,"rental_uris":{"android":"levelo://app?vid=2aa452bf-48c2-4a4d-8014-49cd39fbd6c8","ios":"levelo://app?vid=2aa452bf-48c2-4a4d-8014-49cd39fbd6c8"},"vehicle_type_id":"4","last_reported":1742822434,"current_range_meters":7200,"station_id":"ce4bhnp2rcd13ifvqh0g","pricing_plan_id":"cebpf4jnsgd1na2vs0mg"},{"bike_id":"662a07ef-a115-47fb-b3e8-c00f6f6a4082","system_id":"levelo_inurba_marseille","lat":43.303819,"lon":5.400932,"is_reserved":false,"is_disabled":false,"rental_uris":{"android":"levelo://app?vid=662a07ef-a115-47fb-b3e8-c00f6f6a4082","ios":"levelo://app?vid=662a07ef-a115-47fb-b3e8-c00f6f6a4082"},"vehicle_type_id":"4","last_reported":1742822434,"current_range_meters":7200,"station_id":"ce4bh112rcd13ifvqda0","pricing_plan_id":"cebpf4jnsgd1na2vs0mg"},{"bike_id":"fd71515f-8533-4716-babe-e5fc67610b94","system_id":"levelo_inurba_marseille","lat":43.302835,"lon":5.37707,"is_reserved":false,"is_disabled":false,"rental_uris":{"android":"levelo://app?vid=fd71515f-8533-4716-babe-e5fc67610b94","ios":"levelo://app?vid=fd71515f-8533-4716-babe-e5fc67610b94"},"vehicle_type_id":"4","last_reported":1742822434,"current_range_meters":7200,"station_id":"ce4bguh2rcd13ifvqcj0","pricing_plan_id":"cebpf4jnsgd1na2vs0mg"},{"bike_id":"d954b141-3cee-4de0-9c29-d5babd11cd82","system_id":"levelo_inurba_marseille","lat":43.25092,"lon":5.39533,"is_reserved":false,"is_disabled":false,"rental_uris":{"android":"levelo://app?vid=d954b141-3cee-4de0-9c29-d5babd11cd82","ios":"levelo://app?vid=d954b141-3cee-4de0-9c29-d5babd11cd82"},"vehicle_type_id":"4","last_reported":1742822434,"current_range_meters":7200,"station_id":"ce4bhm12rcd13ifvqgkg","pricing_plan_id":"cebpf4jnsgd1na2vs0mg"},{"bike_id":"3bb33489-a82f-4739-bc09-2fe3082e2e8c","system_id":"levelo_inurba_marseille","lat":43.30798,"lon":5.37361,"is_reserved":false,"is_disabled":false,"rental_uris":{"android":"levelo://app?vid=3bb33489-a82f-4739-bc09-2fe3082e2e8c","ios":"levelo://app?vid=3bb33489-a82f-4739-bc09-2fe3082e2e8c"},"vehicle_type_id":"4","last_reported":1742822434,"current_range_meters":7200,"station_id":"","pricing_plan_id":"cebpf4jnsgd1na2vs0mg"},{"bike_id":"0bdcf116-4ba9-495a-860f-b8bd175bed9c","system_id":"levelo_inurba_marseille","lat":43.25947,"lon":5.40925,"is_reserved":false,"is_disabled":false,"rental_uris":{"android":"levelo://app?vid=0bdcf116-4ba9-495a-860f-b8bd175bed9c","ios":"levelo://app?vid=0bdcf116-4ba9-495a-860f-b8bd175bed9c"},"vehicle_type_id":"4","last_reported":1742822434,"current_range_meters":8000,"station_id":"ce4bhm92rcd13ifvqglg","pricing_plan_id":"cebpf4jnsgd1na2vs0mg"},{"bike_id":"009e6f9a-fcff-48c9-b999-b00f9b9b1c10","system_id":"levelo_inurba_marseille","lat":43.24667,"lon":5.38172,"is_reserved":false,"is_disabled":false,"rental_uris":{"android":"levelo://app?vid=009e6f9a-fcff-48c9-b999-b00f9b9b1c10","ios":"levelo://app?vid=009e6f9a-fcff-48c9-b999-b00f9b9b1c10"},"vehicle_type_id":"4","last_reported":1742822434,"current_range_meters":8000,"station_id":"ce4bhih2rcd13ifvqfr0","pricing_plan_id":"cebpf4jnsgd1na2vs0mg"},{"bike_id":"ec409097-2e65-4ae8-81c9-500240160591","system_id":"levelo_inurba_marseille","lat":43.29785,"lon":5.39344,"is_reserved":false,"is_disabled":false,"rental_uris":{"android":"levelo://app?vid=ec409097-2e65-4ae8-81c9-500240160591","ios":"levelo://app?vid=ec409097-2e65-4ae8-81c9-500240160591"},"vehicle_type_id":"4","last_reported":1742822434,"current_range_meters":8000,"station_id":"chh1huq6cuj3fo74tm60","pricing_plan_id":"cebpf4jnsgd1na2vs0mg"},{"bike_id":"5932f5b5-0803-41be-ad57-2c62bb691349","system_id":"levelo_inurba_marseille","lat":43.24695,"lon":5.38185,"is_reserved":false,"is_disabled":false,"rental_uris":{"android":"levelo://app?vid=5932f5b5-0803-41be-ad57-2c62bb691349","ios":"levelo://app?vid=5932f5b5-0803-41be-ad57-2c62bb691349"},"vehicle_type_id":"4","last_reported":1742822434,"current_range_meters":8000,"station_id":"ce4bhih2rcd13ifvqfr0","pricing_plan_id":"cebpf4jnsgd1na2vs0mg"},{"bike_id":"141983d1-11a2-4b8e-ba40-0a57758a27c1","system_id":"levelo_inurba_marseille","lat":43.33015,"lon":5.39035,"is_reserved":false,"is_disabled":false,"rental_uris":{"android":"levelo://app?vid=141983d1-11a2-4b8e-ba40-0a57758a27c1","ios":"levelo://app?vid=141983d1-11a2-4b8e-ba40-0a57758a27c1"},"vehicle_type_id":"4","last_reported":1742822434,"current_range_meters":8000,"station_id":"ce4bhr92rcd13ifvqhrg","pricing_plan_id":"cebpf4jnsgd1na2vs0mg"},{"bike_id":"07541760-82c4-4d38-b58c-85ffff07e965","system_id":"levelo_inurba_marseille","lat":43.2398,"lon":5.36596,"is_reserved":false,"is_disabled":false,"rental_uris":{"android":"levelo://app?vid=07541760-82c4-4d38-b58c-85ffff07e965","ios":"levelo://app?vid=07541760-82c4-4d38-b58c-85ffff07e965"},"vehicle_type_id":"4","last_reported":1742822434,"current_range_meters":8000,"station_id":"ce4bhi12rcd13ifvqfp0","pricing_plan_id":"cebpf4jnsgd1na2vs0mg"},{"bike_id":"bfa57409-1ea1-426d-8bb5-40ecf173be2e","system_id":"levelo_inurba_marseille","lat":43.30136,"lon":5.39869,"is_reserved":false,"is_disabled":false,"rental_uris":{"android":"levelo://app?vid=bfa57409-1ea1-426d-8bb5-40ecf173be2e","ios":"levelo://app?vid=bfa57409-1ea1-426d-8bb5-40ecf173be2e"},"vehicle_type_id":"4","last_reported":1742822434,"current_range_meters":8000,"station_id":"ce4bh0h2rcd13ifvqd40","pricing_plan_id":"cebpf4jnsgd1na2vs0mg"},{"bike_id":"f953ed5e-1b9c-420a-be71-70e8e6c905d5","system_id":"levelo_inurba_marseille","lat":43.2992,"lon":5.38156,"is_reserved":false,"is_disabled":false,"rental_uris":{"android":"levelo://app?vid=f953ed5e-1b9c-420a-be71-70e8e6c905d5","ios":"levelo://app?vid=f953ed5e-1b9c-420a-be71-70e8e6c905d5"},"vehicle_type_id":"4","last_reported":1742822434,"current_range_meters":8400,"station_id":"ce4bgj12rcd13ifvqbc0","pricing_plan_id":"cebpf4jnsgd1na2vs0mg"},{"bike_id":"185b4743-1f1a-4c3b-98fe-e75edd70f227","system_id":"levelo_inurba_marseille","lat":43.28734,"lon":5.37949,"is_reserved":false,"is_disabled":false,"rental_uris":{"android":"levelo://app?vid=185b4743-1f1a-4c3b-98fe-e75edd70f227","ios":"levelo://app?vid=185b4743-1f1a-4c3b-98fe-e75edd70f227"},"vehicle_type_id":"4","last_reported":1742822434,"current_range_meters":8400,"station_id":"ce4bh9p2rcd13ifvqec0","pricing_plan_id":"cebpf4jnsgd1na2vs0mg"},{"bike_id":"b11bd984-001e-4d91-ab77-4081da90830d","system_id":"levelo_inurba_marseille","lat":43.26574,"lon":5.38998,"is_reserved":false,"is_disabled":false,"rental_uris":{"android":"levelo://app?vid=b11bd984-001e-4d91-ab77-4081da90830d","ios":"levelo://app?vid=b11bd984-001e-4d91-ab77-4081da90830d"},"vehicle_type_id":"4","last_reported":1742822434,"current_range_meters":8400,"station_id":"ce4bhe12rcd13ifvqf30","pricing_plan_id":"cebpf4jnsgd1na2vs0mg"},{"bike_id":"bcf6d22c-c416-452d-8b26-b79c86feb697","system_id":"levelo_inurba_marseille","lat":43.26201,"lon":5.37934,"is_reserved":false,"is_disabled":false,"rental_uris":{"android":"levelo://app?vid=bcf6d22c-c416-452d-8b26-b79c86feb697","ios":"levelo://app?vid=bcf6d22c-c416-452d-8b26-b79c86feb697"},"vehicle_type_id":"4","last_reported":1742822434,"current_range_meters":8400,"station_id":"ce4bhjp2rcd13ifvqg90","pricing_plan_id":"cebpf4jnsgd1na2vs0mg"},{"bike_id":"5cdc8471-04c3-43c8-b0c2-0b51cf5f5a85","system_id":"levelo_inurba_marseille","lat":43.27367,"lon":5.36235,"is_reserved":false,"is_disabled":false,"rental_uris":{"android":"levelo://app?vid=5cdc8471-04c3-43c8-b0c2-0b51cf5f5a85","ios":"levelo://app?vid=5cdc8471-04c3-43c8-b0c2-0b51cf5f5a85"},"vehicle_type_id":"4","last_reported":1742822434,"current_range_meters":8400,"station_id":"ce4bhbh2rcd13ifvqeo0","pricing_plan_id":"cebpf4jnsgd1na2vs0mg"},{"bike_id":"8ac76298-3375-4b96-8a90-9315b1510fa4","system_id":"levelo_inurba_marseille","lat":43.27833,"lon":5.40724,"is_reserved":false,"is_disabled":false,"rental_uris":{"android":"levelo://app?vid=8ac76298-3375-4b96-8a90-9315b1510fa4","ios":"levelo://app?vid=8ac76298-3375-4b96-8a90-9315b1510fa4"},"vehicle_type_id":"4","last_reported":1742822434,"current_range_meters":8400,"station_id":"ce4bhnh2rcd13ifvqgtg","pricing_plan_id":"cebpf4jnsgd1na2vs0mg"},{"bike_id":"901ad870-67db-4efd-a3cc-2d5ce9510114","system_id":"levelo_inurba_marseille","lat":43.26818,"lon":5.39401,"is_reserved":false,"is_disabled":false,"rental_uris":{"android":"levelo://app?vid=901ad870-67db-4efd-a3cc-2d5ce9510114","ios":"levelo://app?vid=901ad870-67db-4efd-a3cc-2d5ce9510114"},"vehicle_type_id":"4","last_reported":1742822434,"current_range_meters":8400,"station_id":"ce4bhh12rcd13ifvqfg0","pricing_plan_id":"cebpf4jnsgd1na2vs0mg"},{"bike_id":"daf705b5-817b-4bbc-bd5a-5101c6aa000f","system_id":"levelo_inurba_marseille","lat":43.27822,"lon":5.407332,"is_reserved":false,"is_disabled":true,"rental_uris":{"android":"levelo://app?vid=daf705b5-817b-4bbc-bd5a-5101c6aa000f","ios":"levelo://app?vid=daf705b5-817b-4bbc-bd5a-5101c6aa000f"},"vehicle_type_id":"4","last_reported":1742822434,"current_range_meters":8400,"station_id":"ce4bhnh2rcd13ifvqgtg","pricing_plan_id":"cebpf4jnsgd1na2vs0mg"},{"bike_id":"645e7a53-5c0a-4650-ae71-3a3cb7508395","system_id":"levelo_inurba_marseille","lat":43.28717,"lon":5.37948,"is_reserved":false,"is_disabled":false,"rental_uris":{"android":"levelo://app?vid=645e7a53-5c0a-4650-ae71-3a3cb7508395","ios":"levelo://app?vid=645e7a53-5c0a-4650-ae71-3a3cb7508395"},"vehicle_type_id":"4","last_reported":1742822434,"current_range_meters":8400,"station_id":"ce4bh9p2rcd13ifvqec0","pricing_plan_id":"cebpf4jnsgd1na2vs0mg"},{"bike_id":"713ab737-c234-4d46-8112-2057b4371ffd","system_id":"levelo_inurba_marseille","lat":43.29566,"lon":5.39965,"is_reserved":false,"is_disabled":false,"rental_uris":{"android":"levelo://app?vid=713ab737-c234-4d46-8112-2057b4371ffd","ios":"levelo://app?vid=713ab737-c234-4d46-8112-2057b4371ffd"},"vehicle_type_id":"4","last_reported":1742822434,"current_range_meters":8400,"station_id":"ce4bh312rcd13ifvqdj0","pricing_plan_id":"cebpf4jnsgd1na2vs0mg"},{"bike_id":"e49a6b7e-50dc-4535-9de0-73370bd3d472","system_id":"levelo_inurba_marseille","lat":43.28141,"lon":5.446,"is_reserved":false,"is_disabled":false,"rental_uris":{"android":"levelo://app?vid=e49a6b7e-50dc-4535-9de0-73370bd3d472","ios":"levelo://app?vid=e49a6b7e-50dc-4535-9de0-73370bd3d472"},"vehicle_type_id":"4","last_reported":1742822434,"current_range_meters":8400,"station_id":"","pricing_plan_id":"cebpf4jnsgd1na2vs0mg"},{"bike_id":"d56adfe4-71b8-4296-a347-e43ee3f50c5b","system_id":"levelo_inurba_marseille","lat":43.29188,"lon":5.39352,"is_reserved":false,"is_disabled":true,"rental_uris":{"android":"levelo://app?vid=d56adfe4-71b8-4296-a347-e43ee3f50c5b","ios":"levelo://app?vid=d56adfe4-71b8-4296-a347-e43ee3f50c5b"},"vehicle_type_id":"4","last_reported":1742822434,"current_range_meters":8800,"station_id":"ce4bh192rcd13ifvqdd0","pricing_plan_id":"cebpf4jnsgd1na2vs0mg"},{"bike_id":"0f695239-c866-4a2b-88c6-8844266ee6b8","system_id":"levelo_inurba_marseille","lat":43.33737,"lon":5.39181,"is_reserved":false,"is_disabled":false,"rental_uris":{"android":"levelo://app?vid=0f695239-c866-4a2b-88c6-8844266ee6b8","ios":"levelo://app?vid=0f695239-c866-4a2b-88c6-8844266ee6b8"},"vehicle_type_id":"4","last_reported":1742822434,"current_range_meters":8800,"station_id":"ce4bhr92rcd13ifvqhsg","pricing_plan_id":"cebpf4jnsgd1na2vs0mg"},{"bike_id":"bb0a4a5f-6373-4b21-8807-70f0bc0a65c7","system_id":"levelo_inurba_marseille","lat":43.32514,"lon":5.36413,"is_reserved":false,"is_disabled":false,"rental_uris":{"android":"levelo://app?vid=bb0a4a5f-6373-4b21-8807-70f0bc0a65c7","ios":"levelo://app?vid=bb0a4a5f-6373-4b21-8807-70f0bc0a65c7"},"vehicle_type_id":"4","last_reported":1742822434,"current_range_meters":8800,"station_id":"ce4bhs12rcd13ifvqhvg","pricing_plan_id":"cebpf4jnsgd1na2vs0mg"},{"bike_id":"034718de-67f9-4b03-9b14-13a8fc4858ac","system_id":"levelo_inurba_marseille","lat":43.231877,"lon":5.355519,"is_reserved":false,"is_disabled":false,"rental_uris":{"android":"levelo://app?vid=034718de-67f9-4b03-9b14-13a8fc4858ac","ios":"levelo://app?vid=034718de-67f9-4b03-9b14-13a8fc4858ac"},"vehicle_type_id":"4","last_reported":1742822434,"current_range_meters":8800,"station_id":"ce4bhu92rcd13ifvqi70","pricing_plan_id":"cebpf4jnsgd1na2vs0mg"},{"bike_id":"184fbd4c-5a2e-4865-b1ab-0f65577b7822","system_id":"levelo_inurba_marseille","lat":43.26498,"lon":5.39554,"is_reserved":false,"is_disabled":false,"rental_uris":{"android":"levelo://app?vid=184fbd4c-5a2e-4865-b1ab-0f65577b7822","ios":"levelo://app?vid=184fbd4c-5a2e-4865-b1ab-0f65577b7822"},"vehicle_type_id":"4","last_reported":1742822434,"current_range_meters":8800,"station_id":"ce4bhi12rcd13ifvqfq0","pricing_plan_id":"cebpf4jnsgd1na2vs0mg"},{"bike_id":"2327e824-d17a-4c66-a44c-5451841d01f4","system_id":"levelo_inurba_marseille","lat":43.29928,"lon":5.37471,"is_reserved":false,"is_disabled":false,"rental_uris":{"android":"levelo://app?vid=2327e824-d17a-4c66-a44c-5451841d01f4","ios":"levelo://app?vid=2327e824-d17a-4c66-a44c-5451841d01f4"},"vehicle_type_id":"4","last_reported":1742822434,"current_range_meters":4400,"station_id":"ce4bgjh2rcd13ifvqbg0","pricing_plan_id":"cebpf4jnsgd1na2vs0mg"},{"bike_id":"4baf8c5d-e0fe-4a6c-97de-a71e960c5338","system_id":"levelo_inurba_marseille","lat":43.2417,"lon":5.36398,"is_reserved":false,"is_disabled":false,"rental_uris":{"android":"levelo://app?vid=4baf8c5d-e0fe-4a6c-97de-a71e960c5338","ios":"levelo://app?vid=4baf8c5d-e0fe-4a6c-97de-a71e960c5338"},"vehicle_type_id":"4","last_reported":1742822434,"current_range_meters":8800,"station_id":"cpo36qri1sfpv3e86is0","pricing_plan_id":"cebpf4jnsgd1na2vs0mg"},{"bike_id":"90cda2f0-22fd-43de-9112-912f036781a7","system_id":"levelo_inurba_marseille","lat":43.26197,"lon":5.37922,"is_reserved":false,"is_disabled":false,"rental_uris":{"android":"levelo://app?vid=90cda2f0-22fd-43de-9112-912f036781a7","ios":"levelo://app?vid=90cda2f0-22fd-43de-9112-912f036781a7"},"vehicle_type_id":"4","last_reported":1742822434,"current_range_meters":8800,"station_id":"ce4bhjp2rcd13ifvqg90","pricing_plan_id":"cebpf4jnsgd1na2vs0mg"},{"bike_id":"9295d75b-addf-47bf-a384-c5a21ac97a85","system_id":"levelo_inurba_marseille","lat":43.32544,"lon":5.41447,"is_reserved":false,"is_disabled":false,"rental_uris":{"android":"levelo://app?vid=9295d75b-addf-47bf-a384-c5a21ac97a85","ios":"levelo://app?vid=9295d75b-addf-47bf-a384-c5a21ac97a85"},"vehicle_type_id":"4","last_reported":1742822434,"current_range_meters":8800,"station_id":"ce4bhq12rcd13ifvqhhg","pricing_plan_id":"cebpf4jnsgd1na2vs0mg"},{"bike_id":"598195f6-491a-403e-865b-529e114a6746","system_id":"levelo_inurba_marseille","lat":43.30434,"lon":5.39735,"is_reserved":false,"is_disabled":false,"rental_uris":{"android":"levelo://app?vid=598195f6-491a-403e-865b-529e114a6746","ios":"levelo://app?vid=598195f6-491a-403e-865b-529e114a6746"},"vehicle_type_id":"4","last_reported":1742822434,"current_range_meters":8800,"station_id":"ce4bh092rcd13ifvqd20","pricing_plan_id":"cebpf4jnsgd1na2vs0mg"},{"bike_id":"b9379432-0e96-4d9f-a7ed-12d7d124db3e","system_id":"levelo_inurba_marseille","lat":43.25914,"lon":5.40901,"is_reserved":false,"is_disabled":false,"rental_uris":{"android":"levelo://app?vid=b9379432-0e96-4d9f-a7ed-12d7d124db3e","ios":"levelo://app?vid=b9379432-0e96-4d9f-a7ed-12d7d124db3e"},"vehicle_type_id":"4","last_reported":1742822434,"current_range_meters":9200,"station_id":"ce4bhm92rcd13ifvqglg","pricing_plan_id":"cebpf4jnsgd1na2vs0mg"},{"bike_id":"73f24004-486a-42ce-8b4c-437345158989","system_id":"levelo_inurba_marseille","lat":43.25924,"lon":5.40903,"is_reserved":false,"is_disabled":false,"rental_uris":{"android":"levelo://app?vid=73f24004-486a-42ce-8b4c-437345158989","ios":"levelo://app?vid=73f24004-486a-42ce-8b4c-437345158989"},"vehicle_type_id":"4","last_reported":1742822434,"current_range_meters":9200,"station_id":"ce4bhm92rcd13ifvqglg","pricing_plan_id":"cebpf4jnsgd1na2vs0mg"},{"bike_id":"83749387-4504-4259-a6ca-3b74b7ae7717","system_id":"levelo_inurba_marseille","lat":43.2315,"lon":5.43707,"is_reserved":false,"is_disabled":false,"rental_uris":{"android":"levelo://app?vid=83749387-4504-4259-a6ca-3b74b7ae7717","ios":"levelo://app?vid=83749387-4504-4259-a6ca-3b74b7ae7717"},"vehicle_type_id":"4","last_reported":1742822434,"current_range_meters":9200,"station_id":"ce4bhmp2rcd13ifvqgog","pricing_plan_id":"cebpf4jnsgd1na2vs0mg"},{"bike_id":"b4033be0-5b35-45ca-9979-c7890f6c888e","system_id":"levelo_inurba_marseille","lat":43.311677,"lon":5.387185,"is_reserved":false,"is_disabled":false,"rental_uris":{"android":"levelo://app?vid=b4033be0-5b35-45ca-9979-c7890f6c888e","ios":"levelo://app?vid=b4033be0-5b35-45ca-9979-c7890f6c888e"},"vehicle_type_id":"4","last_reported":1742822434,"current_range_meters":9200,"station_id":"ce4bgv12rcd13ifvqcp0","pricing_plan_id":"cebpf4jnsgd1na2vs0mg"},{"bike_id":"c29943e4-d05b-4bb3-9ff0-70ddef36f620","system_id":"levelo_inurba_marseille","lat":43.27994,"lon":5.40012,"is_reserved":false,"is_disabled":false,"rental_uris":{"android":"levelo://app?vid=c29943e4-d05b-4bb3-9ff0-70ddef36f620","ios":"levelo://app?vid=c29943e4-d05b-4bb3-9ff0-70ddef36f620"},"vehicle_type_id":"4","last_reported":1742822434,"current_range_meters":9200,"station_id":"ce4bho92rcd13ifvqh4g","pricing_plan_id":"cebpf4jnsgd1na2vs0mg"},{"bike_id":"a0d35c22-9747-4009-b077-f71b7595a0a7","system_id":"levelo_inurba_marseille","lat":43.30944,"lon":5.36859,"is_reserved":false,"is_disabled":false,"rental_uris":{"android":"levelo://app?vid=a0d35c22-9747-4009-b077-f71b7595a0a7","ios":"levelo://app?vid=a0d35c22-9747-4009-b077-f71b7595a0a7"},"vehicle_type_id":"4","last_reported":1742822434,"current_range_meters":9200,"station_id":"ce4bgn92rcd13ifvqbvg","pricing_plan_id":"cebpf4jnsgd1na2vs0mg"},{"bike_id":"f1f3f650-3b0c-4133-b7ab-357fbdea8d83","system_id":"levelo_inurba_marseille","lat":43.290448,"lon":5.369668,"is_reserved":false,"is_disabled":false,"rental_uris":{"android":"levelo://app?vid=f1f3f650-3b0c-4133-b7ab-357fbdea8d83","ios":"levelo://app?vid=f1f3f650-3b0c-4133-b7ab-357fbdea8d83"},"vehicle_type_id":"4","last_reported":1742822434,"current_range_meters":9600,"station_id":"ce4bh2h2rcd13ifvqdh0","pricing_plan_id":"cebpf4jnsgd1na2vs0mg"},{"bike_id":"363fc430-8048-4ed2-bc56-882efd50c6a6","system_id":"levelo_inurba_marseille","lat":43.29712,"lon":5.36611,"is_reserved":false,"is_disabled":false,"rental_uris":{"android":"levelo://app?vid=363fc430-8048-4ed2-bc56-882efd50c6a6","ios":"levelo://app?vid=363fc430-8048-4ed2-bc56-882efd50c6a6"},"vehicle_type_id":"4","last_reported":1742822434,"current_range_meters":9200,"station_id":"ce4bgn12rcd13ifvqbt0","pricing_plan_id":"cebpf4jnsgd1na2vs0mg"},{"bike_id":"852c7ab4-befe-4a3d-aff6-4bbcf658193c","system_id":"levelo_inurba_marseille","lat":43.23968,"lon":5.36626,"is_reserved":false,"is_disabled":false,"rental_uris":{"android":"levelo://app?vid=852c7ab4-befe-4a3d-aff6-4bbcf658193c","ios":"levelo://app?vid=852c7ab4-befe-4a3d-aff6-4bbcf658193c"},"vehicle_type_id":"4","last_reported":1742822434,"current_range_meters":9600,"station_id":"ce4bhi12rcd13ifvqfp0","pricing_plan_id":"cebpf4jnsgd1na2vs0mg"},{"bike_id":"311afd1c-19fc-4a0a-801b-ddc2ed0a66c3","system_id":"levelo_inurba_marseille","lat":43.26498,"lon":5.39542,"is_reserved":false,"is_disabled":false,"rental_uris":{"android":"levelo://app?vid=311afd1c-19fc-4a0a-801b-ddc2ed0a66c3","ios":"levelo://app?vid=311afd1c-19fc-4a0a-801b-ddc2ed0a66c3"},"vehicle_type_id":"4","last_reported":1742822434,"current_range_meters":9600,"station_id":"ce4bhi12rcd13ifvqfq0","pricing_plan_id":"cebpf4jnsgd1na2vs0mg"},{"bike_id":"f52d578c-2e92-468c-8d0d-6b48faf8734d","system_id":"levelo_inurba_marseille","lat":43.29864,"lon":5.3892,"is_reserved":false,"is_disabled":true,"rental_uris":{"android":"levelo://app?vid=f52d578c-2e92-468c-8d0d-6b48faf8734d","ios":"levelo://app?vid=f52d578c-2e92-468c-8d0d-6b48faf8734d"},"vehicle_type_id":"4","last_reported":1742822434,"current_range_meters":9600,"station_id":"ce4bh392rcd13ifvqdl0","pricing_plan_id":"cebpf4jnsgd1na2vs0mg"},{"bike_id":"6a8fb34b-1c2c-4e30-9fa4-a23fcf3c6317","system_id":"levelo_inurba_marseille","lat":43.25935,"lon":5.40906,"is_reserved":false,"is_disabled":false,"rental_uris":{"android":"levelo://app?vid=6a8fb34b-1c2c-4e30-9fa4-a23fcf3c6317","ios":"levelo://app?vid=6a8fb34b-1c2c-4e30-9fa4-a23fcf3c6317"},"vehicle_type_id":"4","last_reported":1742822434,"current_range_meters":9600,"station_id":"ce4bhm92rcd13ifvqglg","pricing_plan_id":"cebpf4jnsgd1na2vs0mg"},{"bike_id":"5cc87d66-2226-4fa1-87e7-ca4951166f3b","system_id":"levelo_inurba_marseille","lat":43.2893,"lon":5.38412,"is_reserved":false,"is_disabled":false,"rental_uris":{"android":"levelo://app?vid=5cc87d66-2226-4fa1-87e7-ca4951166f3b","ios":"levelo://app?vid=5cc87d66-2226-4fa1-87e7-ca4951166f3b"},"vehicle_type_id":"4","last_reported":1742822434,"current_range_meters":9600,"station_id":"ce4bh612rcd13ifvqe6g","pricing_plan_id":"cebpf4jnsgd1na2vs0mg"},{"bike_id":"56fd0564-fd02-40a7-b424-21021436cc20","system_id":"levelo_inurba_marseille","lat":43.29526,"lon":5.37506,"is_reserved":false,"is_disabled":false,"rental_uris":{"android":"levelo://app?vid=56fd0564-fd02-40a7-b424-21021436cc20","ios":"levelo://app?vid=56fd0564-fd02-40a7-b424-21021436cc20"},"vehicle_type_id":"4","last_reported":1742822434,"current_range_meters":9600,"station_id":"ce4bgkp2rcd13ifvqbmg","pricing_plan_id":"cebpf4jnsgd1na2vs0mg"},{"bike_id":"df71e60d-9738-4a38-9a53-57e77ee84d52","system_id":"levelo_inurba_marseille","lat":43.25588,"lon":5.38251,"is_reserved":false,"is_disabled":false,"rental_uris":{"android":"levelo://app?vid=df71e60d-9738-4a38-9a53-57e77ee84d52","ios":"levelo://app?vid=df71e60d-9738-4a38-9a53-57e77ee84d52"},"vehicle_type_id":"4","last_reported":1742822434,"current_range_meters":9600,"station_id":"ce4bhih2rcd13ifvqfs0","pricing_plan_id":"cebpf4jnsgd1na2vs0mg"},{"bike_id":"587c4b09-c6c3-4755-8011-d820e3904490","system_id":"levelo_inurba_marseille","lat":43.23964,"lon":5.36629,"is_reserved":false,"is_disabled":false,"rental_uris":{"android":"levelo://app?vid=587c4b09-c6c3-4755-8011-d820e3904490","ios":"levelo://app?vid=587c4b09-c6c3-4755-8011-d820e3904490"},"vehicle_type_id":"4","last_reported":1742822434,"current_range_meters":9600,"station_id":"ce4bhi12rcd13ifvqfp0","pricing_plan_id":"cebpf4jnsgd1na2vs0mg"},{"bike_id":"afe2db97-ab90-4bfa-b8db-6ef775254773","system_id":"levelo_inurba_marseille","lat":43.28151,"lon":5.42652,"is_reserved":false,"is_disabled":false,"rental_uris":{"android":"levelo://app?vid=afe2db97-ab90-4bfa-b8db-6ef775254773","ios":"levelo://app?vid=afe2db97-ab90-4bfa-b8db-6ef775254773"},"vehicle_type_id":"4","last_reported":1742822434,"current_range_meters":10000,"station_id":"ce4bhnh2rcd13ifvqgug","pricing_plan_id":"cebpf4jnsgd1na2vs0mg"},{"bike_id":"fee39e01-d6bc-47a1-8d0e-c44fd363a305","system_id":"levelo_inurba_marseille","lat":43.23963,"lon":5.36633,"is_reserved":false,"is_disabled":false,"rental_uris":{"android":"levelo://app?vid=fee39e01-d6bc-47a1-8d0e-c44fd363a305","ios":"levelo://app?vid=fee39e01-d6bc-47a1-8d0e-c44fd363a305"},"vehicle_type_id":"4","last_reported":1742822434,"current_range_meters":10000,"station_id":"ce4bhi12rcd13ifvqfp0","pricing_plan_id":"cebpf4jnsgd1na2vs0mg"},{"bike_id":"d54fce52-f82e-4a94-a977-1be2ef40cbfd","system_id":"levelo_inurba_marseille","lat":43.26791,"lon":5.39413,"is_reserved":false,"is_disabled":false,"rental_uris":{"android":"levelo://app?vid=d54fce52-f82e-4a94-a977-1be2ef40cbfd","ios":"levelo://app?vid=d54fce52-f82e-4a94-a977-1be2ef40cbfd"},"vehicle_type_id":"4","last_reported":1742822434,"current_range_meters":10000,"station_id":"ce4bhh12rcd13ifvqfg0","pricing_plan_id":"cebpf4jnsgd1na2vs0mg"},{"bike_id":"c4013add-d7af-4066-b395-78f0f58d3d13","system_id":"levelo_inurba_marseille","lat":43.28984,"lon":5.40006,"is_reserved":false,"is_disabled":false,"rental_uris":{"android":"levelo://app?vid=c4013add-d7af-4066-b395-78f0f58d3d13","ios":"levelo://app?vid=c4013add-d7af-4066-b395-78f0f58d3d13"},"vehicle_type_id":"4","last_reported":1742822434,"current_range_meters":10000,"station_id":"","pricing_plan_id":"cebpf4jnsgd1na2vs0mg"},{"bike_id":"80b224a5-1712-4bf2-9bd5-a9ebac5e5a98","system_id":"levelo_inurba_marseille","lat":43.27565,"lon":5.38427,"is_reserved":false,"is_disabled":false,"rental_uris":{"android":"levelo://app?vid=80b224a5-1712-4bf2-9bd5-a9ebac5e5a98","ios":"levelo://app?vid=80b224a5-1712-4bf2-9bd5-a9ebac5e5a98"},"vehicle_type_id":"4","last_reported":1742822434,"current_range_meters":10000,"station_id":"ce4bhh92rcd13ifvqfi0","pricing_plan_id":"cebpf4jnsgd1na2vs0mg"},{"bike_id":"d1f7ca60-4bb4-4dd9-9c90-e8069ceefa40","system_id":"levelo_inurba_marseille","lat":43.2417,"lon":5.36401,"is_reserved":false,"is_disabled":false,"rental_uris":{"android":"levelo://app?vid=d1f7ca60-4bb4-4dd9-9c90-e8069ceefa40","ios":"levelo://app?vid=d1f7ca60-4bb4-4dd9-9c90-e8069ceefa40"},"vehicle_type_id":"4","last_reported":1742822434,"current_range_meters":10800,"station_id":"cpo36qri1sfpv3e86is0","pricing_plan_id":"cebpf4jnsgd1na2vs0mg"},{"bike_id":"76757220-d8a3-400d-93c0-947089c24c8c","system_id":"levelo_inurba_marseille","lat":43.29906,"lon":5.43675,"is_reserved":false,"is_disabled":false,"rental_uris":{"android":"levelo://app?vid=76757220-d8a3-400d-93c0-947089c24c8c","ios":"levelo://app?vid=76757220-d8a3-400d-93c0-947089c24c8c"},"vehicle_type_id":"4","last_reported":1742822434,"current_range_meters":10800,"station_id":"ce4bhpp2rcd13ifvqhfg","pricing_plan_id":"cebpf4jnsgd1na2vs0mg"},{"bike_id":"f30771e1-73d8-4d02-b97c-d48620cc6958","system_id":"levelo_inurba_marseille","lat":43.305483,"lon":5.365504,"is_reserved":false,"is_disabled":false,"rental_uris":{"android":"levelo://app?vid=f30771e1-73d8-4d02-b97c-d48620cc6958","ios":"levelo://app?vid=f30771e1-73d8-4d02-b97c-d48620cc6958"},"vehicle_type_id":"4","last_reported":1742822434,"current_range_meters":10800,"station_id":"ce4bgs12rcd13ifvqcag","pricing_plan_id":"cebpf4jnsgd1na2vs0mg"},{"bike_id":"2ce2029b-4cb6-4887-9b95-9dbf07c99a19","system_id":"levelo_inurba_marseille","lat":43.3031,"lon":5.36899,"is_reserved":false,"is_disabled":false,"rental_uris":{"android":"levelo://app?vid=2ce2029b-4cb6-4887-9b95-9dbf07c99a19","ios":"levelo://app?vid=2ce2029b-4cb6-4887-9b95-9dbf07c99a19"},"vehicle_type_id":"4","last_reported":1742822434,"current_range_meters":10800,"station_id":"ce4bgqh2rcd13ifvqc5g","pricing_plan_id":"cebpf4jnsgd1na2vs0mg"},{"bike_id":"b07ecbce-1301-4838-bb41-af7073924d4d","system_id":"levelo_inurba_marseille","lat":43.30151,"lon":5.37424,"is_reserved":false,"is_disabled":false,"rental_uris":{"android":"levelo://app?vid=b07ecbce-1301-4838-bb41-af7073924d4d","ios":"levelo://app?vid=b07ecbce-1301-4838-bb41-af7073924d4d"},"vehicle_type_id":"4","last_reported":1742822434,"current_range_meters":10800,"station_id":"ce4bgs92rcd13ifvqcc0","pricing_plan_id":"cebpf4jnsgd1na2vs0mg"},{"bike_id":"80f1c1d9-9a7b-4100-b3e0-90bd58333ebf","system_id":"levelo_inurba_marseille","lat":43.30603,"lon":5.39364,"is_reserved":false,"is_disabled":false,"rental_uris":{"android":"levelo://app?vid=80f1c1d9-9a7b-4100-b3e0-90bd58333ebf","ios":"levelo://app?vid=80f1c1d9-9a7b-4100-b3e0-90bd58333ebf"},"vehicle_type_id":"4","last_reported":1742822434,"current_range_meters":10800,"station_id":"ce4bh0p2rcd13ifvqd80","pricing_plan_id":"cebpf4jnsgd1na2vs0mg"},{"bike_id":"5b325468-7d7e-43bf-ad8c-857e76615080","system_id":"levelo_inurba_marseille","lat":43.26689,"lon":5.3827,"is_reserved":false,"is_disabled":false,"rental_uris":{"android":"levelo://app?vid=5b325468-7d7e-43bf-ad8c-857e76615080","ios":"levelo://app?vid=5b325468-7d7e-43bf-ad8c-857e76615080"},"vehicle_type_id":"4","last_reported":1742822434,"current_range_meters":11200,"station_id":"ce4bhg92rcd13ifvqf90","pricing_plan_id":"cebpf4jnsgd1na2vs0mg"},{"bike_id":"7e55023a-5c14-46f7-a77e-e51714b1785e","system_id":"levelo_inurba_marseille","lat":43.24073,"lon":5.37765,"is_reserved":false,"is_disabled":false,"rental_uris":{"android":"levelo://app?vid=7e55023a-5c14-46f7-a77e-e51714b1785e","ios":"levelo://app?vid=7e55023a-5c14-46f7-a77e-e51714b1785e"},"vehicle_type_id":"4","last_reported":1742822434,"current_range_meters":11200,"station_id":"ce4bhnp2rcd13ifvqgvg","pricing_plan_id":"cebpf4jnsgd1na2vs0mg"},{"bike_id":"6b388bab-d485-44f0-9b55-57c9fcd1ba07","system_id":"levelo_inurba_marseille","lat":43.24169,"lon":5.36397,"is_reserved":false,"is_disabled":false,"rental_uris":{"android":"levelo://app?vid=6b388bab-d485-44f0-9b55-57c9fcd1ba07","ios":"levelo://app?vid=6b388bab-d485-44f0-9b55-57c9fcd1ba07"},"vehicle_type_id":"4","last_reported":1742822434,"current_range_meters":11200,"station_id":"cpo36qri1sfpv3e86is0","pricing_plan_id":"cebpf4jnsgd1na2vs0mg"},{"bike_id":"55b86800-4bfb-4509-b486-5706fe5277fd","system_id":"levelo_inurba_marseille","lat":43.28737,"lon":5.39984,"is_reserved":false,"is_disabled":true,"rental_uris":{"android":"levelo://app?vid=55b86800-4bfb-4509-b486-5706fe5277fd","ios":"levelo://app?vid=55b86800-4bfb-4509-b486-5706fe5277fd"},"vehicle_type_id":"4","last_reported":1742822434,"current_range_meters":11200,"station_id":"ce4bho92rcd13ifvqh3g","pricing_plan_id":"cebpf4jnsgd1na2vs0mg"},{"bike_id":"e68f39a4-b1c9-4500-a984-f338c20cee46","system_id":"levelo_inurba_marseille","lat":43.24173,"lon":5.39726,"is_reserved":false,"is_disabled":false,"rental_uris":{"android":"levelo://app?vid=e68f39a4-b1c9-4500-a984-f338c20cee46","ios":"levelo://app?vid=e68f39a4-b1c9-4500-a984-f338c20cee46"},"vehicle_type_id":"4","last_reported":1742822434,"current_range_meters":11200,"station_id":"ce4bhn12rcd13ifvqgpg","pricing_plan_id":"cebpf4jnsgd1na2vs0mg"},{"bike_id":"c460cb60-3591-4b3b-a81d-8509f802e1c6","system_id":"levelo_inurba_marseille","lat":43.25933,"lon":5.4091,"is_reserved":false,"is_disabled":false,"rental_uris":{"android":"levelo://app?vid=c460cb60-3591-4b3b-a81d-8509f802e1c6","ios":"levelo://app?vid=c460cb60-3591-4b3b-a81d-8509f802e1c6"},"vehicle_type_id":"4","last_reported":1742822434,"current_range_meters":11200,"station_id":"ce4bhm92rcd13ifvqglg","pricing_plan_id":"cebpf4jnsgd1na2vs0mg"},{"bike_id":"86e2856f-9e3e-472a-8496-7868264c0cc4","system_id":"levelo_inurba_marseille","lat":43.27377,"lon":5.36265,"is_reserved":false,"is_disabled":false,"rental_uris":{"android":"levelo://app?vid=86e2856f-9e3e-472a-8496-7868264c0cc4","ios":"levelo://app?vid=86e2856f-9e3e-472a-8496-7868264c0cc4"},"vehicle_type_id":"4","last_reported":1742822434,"current_range_meters":11200,"station_id":"ce4bhbh2rcd13ifvqeo0","pricing_plan_id":"cebpf4jnsgd1na2vs0mg"},{"bike_id":"1ddc70ec-e444-4841-84e9-456f7aeb224f","system_id":"levelo_inurba_marseille","lat":43.29963,"lon":5.38279,"is_reserved":false,"is_disabled":false,"rental_uris":{"android":"levelo://app?vid=1ddc70ec-e444-4841-84e9-456f7aeb224f","ios":"levelo://app?vid=1ddc70ec-e444-4841-84e9-456f7aeb224f"},"vehicle_type_id":"4","last_reported":1742822434,"current_range_meters":11600,"station_id":"ce4bgj12rcd13ifvqbc0","pricing_plan_id":"cebpf4jnsgd1na2vs0mg"},{"bike_id":"107c6f44-01b2-4f25-8b8b-a0e37baf4560","system_id":"levelo_inurba_marseille","lat":43.27843,"lon":5.39219,"is_reserved":false,"is_disabled":false,"rental_uris":{"android":"levelo://app?vid=107c6f44-01b2-4f25-8b8b-a0e37baf4560","ios":"levelo://app?vid=107c6f44-01b2-4f25-8b8b-a0e37baf4560"},"vehicle_type_id":"4","last_reported":1742822434,"current_range_meters":11200,"station_id":"ce4bhjp2rcd13ifvqga0","pricing_plan_id":"cebpf4jnsgd1na2vs0mg"},{"bike_id":"d258145d-4465-4b1f-90f8-c30e5b854715","system_id":"levelo_inurba_marseille","lat":43.24095,"lon":5.37761,"is_reserved":false,"is_disabled":false,"rental_uris":{"android":"levelo://app?vid=d258145d-4465-4b1f-90f8-c30e5b854715","ios":"levelo://app?vid=d258145d-4465-4b1f-90f8-c30e5b854715"},"vehicle_type_id":"4","last_reported":1742822434,"current_range_meters":11600,"station_id":"ce4bhnp2rcd13ifvqgvg","pricing_plan_id":"cebpf4jnsgd1na2vs0mg"},{"bike_id":"41c8b74c-362a-4ace-a8be-a871abb3ef89","system_id":"levelo_inurba_marseille","lat":43.26162,"lon":5.40549,"is_reserved":false,"is_disabled":false,"rental_uris":{"android":"levelo://app?vid=41c8b74c-362a-4ace-a8be-a871abb3ef89","ios":"levelo://app?vid=41c8b74c-362a-4ace-a8be-a871abb3ef89"},"vehicle_type_id":"4","last_reported":1742822434,"current_range_meters":11600,"station_id":"","pricing_plan_id":"cebpf4jnsgd1na2vs0mg"},{"bike_id":"fc88defb-c5ea-48ea-aa23-da6f0532c57b","system_id":"levelo_inurba_marseille","lat":43.30827,"lon":5.36964,"is_reserved":false,"is_disabled":false,"rental_uris":{"android":"levelo://app?vid=fc88defb-c5ea-48ea-aa23-da6f0532c57b","ios":"levelo://app?vid=fc88defb-c5ea-48ea-aa23-da6f0532c57b"},"vehicle_type_id":"4","last_reported":1742822434,"current_range_meters":12000,"station_id":"","pricing_plan_id":"cebpf4jnsgd1na2vs0mg"},{"bike_id":"11f4a5ee-676e-429f-8679-1776cbfb5777","system_id":"levelo_inurba_marseille","lat":43.23953,"lon":5.36626,"is_reserved":false,"is_disabled":false,"rental_uris":{"android":"levelo://app?vid=11f4a5ee-676e-429f-8679-1776cbfb5777","ios":"levelo://app?vid=11f4a5ee-676e-429f-8679-1776cbfb5777"},"vehicle_type_id":"4","last_reported":1742822434,"current_range_meters":12000,"station_id":"ce4bhi12rcd13ifvqfp0","pricing_plan_id":"cebpf4jnsgd1na2vs0mg"},{"bike_id":"8c5b0857-6c45-43e2-99cf-c1b2ba185ae8","system_id":"levelo_inurba_marseille","lat":43.28349,"lon":5.38107,"is_reserved":false,"is_disabled":false,"rental_uris":{"android":"levelo://app?vid=8c5b0857-6c45-43e2-99cf-c1b2ba185ae8","ios":"levelo://app?vid=8c5b0857-6c45-43e2-99cf-c1b2ba185ae8"},"vehicle_type_id":"4","last_reported":1742822434,"current_range_meters":12000,"station_id":"ce4bh412rcd13ifvqdr0","pricing_plan_id":"cebpf4jnsgd1na2vs0mg"},{"bike_id":"970d529d-4367-470d-9fea-8f86ec8f95a0","system_id":"levelo_inurba_marseille","lat":43.30294,"lon":5.37706,"is_reserved":false,"is_disabled":false,"rental_uris":{"android":"levelo://app?vid=970d529d-4367-470d-9fea-8f86ec8f95a0","ios":"levelo://app?vid=970d529d-4367-470d-9fea-8f86ec8f95a0"},"vehicle_type_id":"4","last_reported":1742822434,"current_range_meters":12000,"station_id":"ce4bguh2rcd13ifvqcj0","pricing_plan_id":"cebpf4jnsgd1na2vs0mg"},{"bike_id":"7d6193e3-915e-44a9-ae35-c9faba27c9f0","system_id":"levelo_inurba_marseille","lat":43.24569,"lon":5.39557,"is_reserved":false,"is_disabled":false,"rental_uris":{"android":"levelo://app?vid=7d6193e3-915e-44a9-ae35-c9faba27c9f0","ios":"levelo://app?vid=7d6193e3-915e-44a9-ae35-c9faba27c9f0"},"vehicle_type_id":"4","last_reported":1742822434,"current_range_meters":12000,"station_id":"ce4bhlp2rcd13ifvqgjg","pricing_plan_id":"cebpf4jnsgd1na2vs0mg"},{"bike_id":"ba298775-8350-4b57-9be0-99308773b5b4","system_id":"levelo_inurba_marseille","lat":43.28175,"lon":5.42667,"is_reserved":false,"is_disabled":false,"rental_uris":{"android":"levelo://app?vid=ba298775-8350-4b57-9be0-99308773b5b4","ios":"levelo://app?vid=ba298775-8350-4b57-9be0-99308773b5b4"},"vehicle_type_id":"4","last_reported":1742822434,"current_range_meters":12000,"station_id":"ce4bhnh2rcd13ifvqgug","pricing_plan_id":"cebpf4jnsgd1na2vs0mg"},{"bike_id":"21db35bd-28c0-47ca-9ddd-495b055b5dc3","system_id":"levelo_inurba_marseille","lat":43.27377,"lon":5.36261,"is_reserved":false,"is_disabled":false,"rental_uris":{"android":"levelo://app?vid=21db35bd-28c0-47ca-9ddd-495b055b5dc3","ios":"levelo://app?vid=21db35bd-28c0-47ca-9ddd-495b055b5dc3"},"vehicle_type_id":"4","last_reported":1742822434,"current_range_meters":12000,"station_id":"ce4bhbh2rcd13ifvqeo0","pricing_plan_id":"cebpf4jnsgd1na2vs0mg"},{"bike_id":"5007369b-251d-4e37-a32d-438f1f1421e9","system_id":"levelo_inurba_marseille","lat":43.32537,"lon":5.41507,"is_reserved":false,"is_disabled":false,"rental_uris":{"android":"levelo://app?vid=5007369b-251d-4e37-a32d-438f1f1421e9","ios":"levelo://app?vid=5007369b-251d-4e37-a32d-438f1f1421e9"},"vehicle_type_id":"4","last_reported":1742822434,"current_range_meters":12000,"station_id":"ce4bhq12rcd13ifvqhhg","pricing_plan_id":"cebpf4jnsgd1na2vs0mg"},{"bike_id":"e1fc9ca8-9269-43f4-b8da-2d1a0edba88e","system_id":"levelo_inurba_marseille","lat":43.30181,"lon":5.36629,"is_reserved":false,"is_disabled":false,"rental_uris":{"android":"levelo://app?vid=e1fc9ca8-9269-43f4-b8da-2d1a0edba88e","ios":"levelo://app?vid=e1fc9ca8-9269-43f4-b8da-2d1a0edba88e"},"vehicle_type_id":"4","last_reported":1742822434,"current_range_meters":12000,"station_id":"ce4bgrh2rcd13ifvqc8g","pricing_plan_id":"cebpf4jnsgd1na2vs0mg"},{"bike_id":"736c91b9-55e3-4321-94ab-405f5857da07","system_id":"levelo_inurba_marseille","lat":43.30606,"lon":5.39379,"is_reserved":false,"is_disabled":false,"rental_uris":{"android":"levelo://app?vid=736c91b9-55e3-4321-94ab-405f5857da07","ios":"levelo://app?vid=736c91b9-55e3-4321-94ab-405f5857da07"},"vehicle_type_id":"4","last_reported":1742822434,"current_range_meters":12000,"station_id":"ce4bh0p2rcd13ifvqd80","pricing_plan_id":"cebpf4jnsgd1na2vs0mg"},{"bike_id":"64da6105-406b-402f-b4c9-ed2c19fbf402","system_id":"levelo_inurba_marseille","lat":43.292725,"lon":5.384452,"is_reserved":false,"is_disabled":true,"rental_uris":{"android":"levelo://app?vid=64da6105-406b-402f-b4c9-ed2c19fbf402","ios":"levelo://app?vid=64da6105-406b-402f-b4c9-ed2c19fbf402"},"vehicle_type_id":"4","last_reported":1742822434,"current_range_meters":12400,"station_id":"","pricing_plan_id":"cebpf4jnsgd1na2vs0mg"},{"bike_id":"95020bc4-f783-47bf-819a-a5bfd2aaa3a5","system_id":"levelo_inurba_marseille","lat":43.29537,"lon":5.39408,"is_reserved":false,"is_disabled":false,"rental_uris":{"android":"levelo://app?vid=95020bc4-f783-47bf-819a-a5bfd2aaa3a5","ios":"levelo://app?vid=95020bc4-f783-47bf-819a-a5bfd2aaa3a5"},"vehicle_type_id":"4","last_reported":1742822434,"current_range_meters":12400,"station_id":"ce4bh292rcd13ifvqdf0","pricing_plan_id":"cebpf4jnsgd1na2vs0mg"},{"bike_id":"c805e8a3-02c9-4d91-a54e-4039e7d9ffbb","system_id":"levelo_inurba_marseille","lat":43.30796,"lon":5.38172,"is_reserved":false,"is_disabled":false,"rental_uris":{"android":"levelo://app?vid=c805e8a3-02c9-4d91-a54e-4039e7d9ffbb","ios":"levelo://app?vid=c805e8a3-02c9-4d91-a54e-4039e7d9ffbb"},"vehicle_type_id":"4","last_reported":1742822434,"current_range_meters":12400,"station_id":"ce4bgt12rcd13ifvqce0","pricing_plan_id":"cebpf4jnsgd1na2vs0mg"},{"bike_id":"f8a3bc10-5deb-4e67-b0b6-41657ff99e83","system_id":"levelo_inurba_marseille","lat":43.25119,"lon":5.40319,"is_reserved":false,"is_disabled":false,"rental_uris":{"android":"levelo://app?vid=f8a3bc10-5deb-4e67-b0b6-41657ff99e83","ios":"levelo://app?vid=f8a3bc10-5deb-4e67-b0b6-41657ff99e83"},"vehicle_type_id":"4","last_reported":1742822434,"current_range_meters":12400,"station_id":"ce4bhlh2rcd13ifvqgig","pricing_plan_id":"cebpf4jnsgd1na2vs0mg"},{"bike_id":"b8c55d8a-dbd2-455d-921a-196c9c89183e","system_id":"levelo_inurba_marseille","lat":43.30949,"lon":5.39048,"is_reserved":false,"is_disabled":true,"rental_uris":{"android":"levelo://app?vid=b8c55d8a-dbd2-455d-921a-196c9c89183e","ios":"levelo://app?vid=b8c55d8a-dbd2-455d-921a-196c9c89183e"},"vehicle_type_id":"4","last_reported":1742822434,"current_range_meters":12400,"station_id":"ce4bgup2rcd13ifvqco0","pricing_plan_id":"cebpf4jnsgd1na2vs0mg"},{"bike_id":"d68dd08e-fa23-4565-a7b6-7a97edfe2ce9","system_id":"levelo_inurba_marseille","lat":43.28914,"lon":5.38396,"is_reserved":false,"is_disabled":true,"rental_uris":{"android":"levelo://app?vid=d68dd08e-fa23-4565-a7b6-7a97edfe2ce9","ios":"levelo://app?vid=d68dd08e-fa23-4565-a7b6-7a97edfe2ce9"},"vehicle_type_id":"4","last_reported":1742822434,"current_range_meters":12800,"station_id":"ce4bh612rcd13ifvqe6g","pricing_plan_id":"cebpf4jnsgd1na2vs0mg"},{"bike_id":"5ec601f7-f8cd-4f64-b783-c78aa45776ec","system_id":"levelo_inurba_marseille","lat":43.24554,"lon":5.39537,"is_reserved":false,"is_disabled":false,"rental_uris":{"android":"levelo://app?vid=5ec601f7-f8cd-4f64-b783-c78aa45776ec","ios":"levelo://app?vid=5ec601f7-f8cd-4f64-b783-c78aa45776ec"},"vehicle_type_id":"4","last_reported":1742822434,"current_range_meters":12800,"station_id":"ce4bhlp2rcd13ifvqgjg","pricing_plan_id":"cebpf4jnsgd1na2vs0mg"},{"bike_id":"ecce5ef5-fffb-4551-b35f-ad8ad47e8d82","system_id":"levelo_inurba_marseille","lat":43.26833,"lon":5.40249,"is_reserved":false,"is_disabled":false,"rental_uris":{"android":"levelo://app?vid=ecce5ef5-fffb-4551-b35f-ad8ad47e8d82","ios":"levelo://app?vid=ecce5ef5-fffb-4551-b35f-ad8ad47e8d82"},"vehicle_type_id":"4","last_reported":1742822434,"current_range_meters":12800,"station_id":"ce501612rcd8frsf0b60","pricing_plan_id":"cebpf4jnsgd1na2vs0mg"},{"bike_id":"1f1dd20b-fe66-4fc7-8ce7-b5754801904f","system_id":"levelo_inurba_marseille","lat":43.30962,"lon":5.39024,"is_reserved":false,"is_disabled":false,"rental_uris":{"android":"levelo://app?vid=1f1dd20b-fe66-4fc7-8ce7-b5754801904f","ios":"levelo://app?vid=1f1dd20b-fe66-4fc7-8ce7-b5754801904f"},"vehicle_type_id":"4","last_reported":1742822434,"current_range_meters":12800,"station_id":"ce4bgup2rcd13ifvqco0","pricing_plan_id":"cebpf4jnsgd1na2vs0mg"},{"bike_id":"074ef621-2343-421e-9821-ea27910008f6","system_id":"levelo_inurba_marseille","lat":43.236667,"lon":5.377718,"is_reserved":false,"is_disabled":false,"rental_uris":{"android":"levelo://app?vid=074ef621-2343-421e-9821-ea27910008f6","ios":"levelo://app?vid=074ef621-2343-421e-9821-ea27910008f6"},"vehicle_type_id":"4","last_reported":1742822434,"current_range_meters":12800,"station_id":"","pricing_plan_id":"cebpf4jnsgd1na2vs0mg"},{"bike_id":"9a6229cb-7202-465e-a58e-78368c822b0b","system_id":"levelo_inurba_marseille","lat":43.31117,"lon":5.37775,"is_reserved":false,"is_disabled":false,"rental_uris":{"android":"levelo://app?vid=9a6229cb-7202-465e-a58e-78368c822b0b","ios":"levelo://app?vid=9a6229cb-7202-465e-a58e-78368c822b0b"},"vehicle_type_id":"4","last_reported":1742822434,"current_range_meters":12800,"station_id":"ce4bgt92rcd13ifvqcg0","pricing_plan_id":"cebpf4jnsgd1na2vs0mg"},{"bike_id":"dbbd636e-a5cb-462f-9394-b160e90ed820","system_id":"levelo_inurba_marseille","lat":43.2594,"lon":5.40892,"is_reserved":false,"is_disabled":false,"rental_uris":{"android":"levelo://app?vid=dbbd636e-a5cb-462f-9394-b160e90ed820","ios":"levelo://app?vid=dbbd636e-a5cb-462f-9394-b160e90ed820"},"vehicle_type_id":"4","last_reported":1742822434,"current_range_meters":12800,"station_id":"ce4bhm92rcd13ifvqglg","pricing_plan_id":"cebpf4jnsgd1na2vs0mg"},{"bike_id":"32c52765-d7d0-4271-9921-e60cde98e516","system_id":"levelo_inurba_marseille","lat":43.30924,"lon":5.40141,"is_reserved":false,"is_disabled":true,"rental_uris":{"android":"levelo://app?vid=32c52765-d7d0-4271-9921-e60cde98e516","ios":"levelo://app?vid=32c52765-d7d0-4271-9921-e60cde98e516"},"vehicle_type_id":"4","last_reported":1742822434,"current_range_meters":12800,"station_id":"ce4bgvp2rcd13ifvqct0","pricing_plan_id":"cebpf4jnsgd1na2vs0mg"},{"bike_id":"3bdebdf2-56ae-437c-b382-19775de32079","system_id":"levelo_inurba_marseille","lat":43.29858,"lon":5.36303,"is_reserved":false,"is_disabled":false,"rental_uris":{"android":"levelo://app?vid=3bdebdf2-56ae-437c-b382-19775de32079","ios":"levelo://app?vid=3bdebdf2-56ae-437c-b382-19775de32079"},"vehicle_type_id":"4","last_reported":1742822434,"current_range_meters":12800,"station_id":"ce4bgpp2rcd13ifvqc3g","pricing_plan_id":"cebpf4jnsgd1na2vs0mg"},{"bike_id":"2f7b72eb-9b7b-4bff-b859-07ea9fe6bf90","system_id":"levelo_inurba_marseille","lat":43.29789,"lon":5.38114,"is_reserved":false,"is_disabled":false,"rental_uris":{"android":"levelo://app?vid=2f7b72eb-9b7b-4bff-b859-07ea9fe6bf90","ios":"levelo://app?vid=2f7b72eb-9b7b-4bff-b859-07ea9fe6bf90"},"vehicle_type_id":"4","last_reported":1742822434,"current_range_meters":12800,"station_id":"ce4bgip2rcd13ifvqbb0","pricing_plan_id":"cebpf4jnsgd1na2vs0mg"},{"bike_id":"7b58c827-e83f-40f0-b79a-0785e3db7804","system_id":"levelo_inurba_marseille","lat":43.3054,"lon":5.36555,"is_reserved":false,"is_disabled":false,"rental_uris":{"android":"levelo://app?vid=7b58c827-e83f-40f0-b79a-0785e3db7804","ios":"levelo://app?vid=7b58c827-e83f-40f0-b79a-0785e3db7804"},"vehicle_type_id":"4","last_reported":1742822434,"current_range_meters":12800,"station_id":"ce4bgs12rcd13ifvqcag","pricing_plan_id":"cebpf4jnsgd1na2vs0mg"},{"bike_id":"5834dfcf-f290-419a-acc0-1e4a34af5222","system_id":"levelo_inurba_marseille","lat":43.2397,"lon":5.36619,"is_reserved":false,"is_disabled":false,"rental_uris":{"android":"levelo://app?vid=5834dfcf-f290-419a-acc0-1e4a34af5222","ios":"levelo://app?vid=5834dfcf-f290-419a-acc0-1e4a34af5222"},"vehicle_type_id":"4","last_reported":1742822434,"current_range_meters":12800,"station_id":"ce4bhi12rcd13ifvqfp0","pricing_plan_id":"cebpf4jnsgd1na2vs0mg"},{"bike_id":"b97b8876-d969-4576-b7ab-db9b2177d974","system_id":"levelo_inurba_marseille","lat":43.27645,"lon":5.38909,"is_reserved":false,"is_disabled":false,"rental_uris":{"android":"levelo://app?vid=b97b8876-d969-4576-b7ab-db9b2177d974","ios":"levelo://app?vid=b97b8876-d969-4576-b7ab-db9b2177d974"},"vehicle_type_id":"4","last_reported":1742822434,"current_range_meters":12800,"station_id":"ce4bhi12rcd13ifvqfo0","pricing_plan_id":"cebpf4jnsgd1na2vs0mg"},{"bike_id":"e4b0a732-75d2-477a-aeb0-496098e57ee6","system_id":"levelo_inurba_marseille","lat":43.29913,"lon":5.37484,"is_reserved":false,"is_disabled":false,"rental_uris":{"android":"levelo://app?vid=e4b0a732-75d2-477a-aeb0-496098e57ee6","ios":"levelo://app?vid=e4b0a732-75d2-477a-aeb0-496098e57ee6"},"vehicle_type_id":"4","last_reported":1742822434,"current_range_meters":12800,"station_id":"ce4bgjh2rcd13ifvqbg0","pricing_plan_id":"cebpf4jnsgd1na2vs0mg"},{"bike_id":"7693ecee-8d6e-455f-b5ec-ea4ac1b115de","system_id":"levelo_inurba_marseille","lat":43.31208,"lon":5.36865,"is_reserved":false,"is_disabled":false,"rental_uris":{"android":"levelo://app?vid=7693ecee-8d6e-455f-b5ec-ea4ac1b115de","ios":"levelo://app?vid=7693ecee-8d6e-455f-b5ec-ea4ac1b115de"},"vehicle_type_id":"4","last_reported":1742822434,"current_range_meters":12800,"station_id":"ce4bgl92rcd13ifvqbq0","pricing_plan_id":"cebpf4jnsgd1na2vs0mg"},{"bike_id":"45b24853-412b-406f-a456-c930caa99d0b","system_id":"levelo_inurba_marseille","lat":43.32111,"lon":5.36783,"is_reserved":false,"is_disabled":false,"rental_uris":{"android":"levelo://app?vid=45b24853-412b-406f-a456-c930caa99d0b","ios":"levelo://app?vid=45b24853-412b-406f-a456-c930caa99d0b"},"vehicle_type_id":"4","last_reported":1742822434,"current_range_meters":12800,"station_id":"ce4bhrh2rcd13ifvqhug","pricing_plan_id":"cebpf4jnsgd1na2vs0mg"},{"bike_id":"5362e564-49a1-4afb-a12b-05ced5661eaa","system_id":"levelo_inurba_marseille","lat":43.30527,"lon":5.36529,"is_reserved":false,"is_disabled":false,"rental_uris":{"android":"levelo://app?vid=5362e564-49a1-4afb-a12b-05ced5661eaa","ios":"levelo://app?vid=5362e564-49a1-4afb-a12b-05ced5661eaa"},"vehicle_type_id":"4","last_reported":1742822434,"current_range_meters":12800,"station_id":"ce4bgs12rcd13ifvqcag","pricing_plan_id":"cebpf4jnsgd1na2vs0mg"},{"bike_id":"8a09d984-62ea-469b-aa65-5ab471a51363","system_id":"levelo_inurba_marseille","lat":43.29789,"lon":5.37106,"is_reserved":false,"is_disabled":false,"rental_uris":{"android":"levelo://app?vid=8a09d984-62ea-469b-aa65-5ab471a51363","ios":"levelo://app?vid=8a09d984-62ea-469b-aa65-5ab471a51363"},"vehicle_type_id":"4","last_reported":1742822434,"current_range_meters":13600,"station_id":"ce4bgop2rcd13ifvqc1g","pricing_plan_id":"cebpf4jnsgd1na2vs0mg"},{"bike_id":"b2909559-40bf-409b-bdb6-84866edafb00","system_id":"levelo_inurba_marseille","lat":43.25927,"lon":5.40906,"is_reserved":false,"is_disabled":false,"rental_uris":{"android":"levelo://app?vid=b2909559-40bf-409b-bdb6-84866edafb00","ios":"levelo://app?vid=b2909559-40bf-409b-bdb6-84866edafb00"},"vehicle_type_id":"4","last_reported":1742822434,"current_range_meters":13600,"station_id":"ce4bhm92rcd13ifvqglg","pricing_plan_id":"cebpf4jnsgd1na2vs0mg"},{"bike_id":"5aa0b45f-be4e-4023-b733-8ed860543228","system_id":"levelo_inurba_marseille","lat":43.23076,"lon":5.35489,"is_reserved":false,"is_disabled":false,"rental_uris":{"android":"levelo://app?vid=5aa0b45f-be4e-4023-b733-8ed860543228","ios":"levelo://app?vid=5aa0b45f-be4e-4023-b733-8ed860543228"},"vehicle_type_id":"4","last_reported":1742822434,"current_range_meters":13600,"station_id":"cpo3342slgdg3j2ifvpg","pricing_plan_id":"cebpf4jnsgd1na2vs0mg"},{"bike_id":"09970276-bc89-434d-91a0-c6dee7402bba","system_id":"levelo_inurba_marseille","lat":43.24187,"lon":5.39731,"is_reserved":false,"is_disabled":false,"rental_uris":{"android":"levelo://app?vid=09970276-bc89-434d-91a0-c6dee7402bba","ios":"levelo://app?vid=09970276-bc89-434d-91a0-c6dee7402bba"},"vehicle_type_id":"4","last_reported":1742822434,"current_range_meters":13600,"station_id":"ce4bhn12rcd13ifvqgpg","pricing_plan_id":"cebpf4jnsgd1na2vs0mg"},{"bike_id":"561c82d6-96fd-473d-9e40-b8bb9c90056b","system_id":"levelo_inurba_marseille","lat":43.30598,"lon":5.39365,"is_reserved":false,"is_disabled":false,"rental_uris":{"android":"levelo://app?vid=561c82d6-96fd-473d-9e40-b8bb9c90056b","ios":"levelo://app?vid=561c82d6-96fd-473d-9e40-b8bb9c90056b"},"vehicle_type_id":"4","last_reported":1742822434,"current_range_meters":13600,"station_id":"ce4bh0p2rcd13ifvqd80","pricing_plan_id":"cebpf4jnsgd1na2vs0mg"},{"bike_id":"989306f0-ec00-4c5a-a143-c730bd5bb983","system_id":"levelo_inurba_marseille","lat":43.26525,"lon":5.37299,"is_reserved":false,"is_disabled":false,"rental_uris":{"android":"levelo://app?vid=989306f0-ec00-4c5a-a143-c730bd5bb983","ios":"levelo://app?vid=989306f0-ec00-4c5a-a143-c730bd5bb983"},"vehicle_type_id":"4","last_reported":1742822434,"current_range_meters":13600,"station_id":"","pricing_plan_id":"cebpf4jnsgd1na2vs0mg"},{"bike_id":"29e912ac-0d47-4410-96d1-4b643a1b9031","system_id":"levelo_inurba_marseille","lat":43.30281,"lon":5.37717,"is_reserved":false,"is_disabled":false,"rental_uris":{"android":"levelo://app?vid=29e912ac-0d47-4410-96d1-4b643a1b9031","ios":"levelo://app?vid=29e912ac-0d47-4410-96d1-4b643a1b9031"},"vehicle_type_id":"4","last_reported":1742822434,"current_range_meters":13600,"station_id":"ce4bguh2rcd13ifvqcj0","pricing_plan_id":"cebpf4jnsgd1na2vs0mg"},{"bike_id":"ce942f3c-c8bc-45ca-9166-50ef7d5bca2c","system_id":"levelo_inurba_marseille","lat":43.230683,"lon":5.354904,"is_reserved":false,"is_disabled":false,"rental_uris":{"android":"levelo://app?vid=ce942f3c-c8bc-45ca-9166-50ef7d5bca2c","ios":"levelo://app?vid=ce942f3c-c8bc-45ca-9166-50ef7d5bca2c"},"vehicle_type_id":"4","last_reported":1742822434,"current_range_meters":14000,"station_id":"cpo3342slgdg3j2ifvpg","pricing_plan_id":"cebpf4jnsgd1na2vs0mg"},{"bike_id":"de5ee395-27b0-47e4-ad82-2ba579efa4a0","system_id":"levelo_inurba_marseille","lat":43.24548,"lon":5.39535,"is_reserved":false,"is_disabled":false,"rental_uris":{"android":"levelo://app?vid=de5ee395-27b0-47e4-ad82-2ba579efa4a0","ios":"levelo://app?vid=de5ee395-27b0-47e4-ad82-2ba579efa4a0"},"vehicle_type_id":"4","last_reported":1742822434,"current_range_meters":14000,"station_id":"ce4bhlp2rcd13ifvqgjg","pricing_plan_id":"cebpf4jnsgd1na2vs0mg"},{"bike_id":"b91e64e7-d25b-41c3-a6a4-73a829fb9e24","system_id":"levelo_inurba_marseille","lat":43.2416,"lon":5.39703,"is_reserved":false,"is_disabled":false,"rental_uris":{"android":"levelo://app?vid=b91e64e7-d25b-41c3-a6a4-73a829fb9e24","ios":"levelo://app?vid=b91e64e7-d25b-41c3-a6a4-73a829fb9e24"},"vehicle_type_id":"4","last_reported":1742822434,"current_range_meters":14000,"station_id":"ce4bhn12rcd13ifvqgpg","pricing_plan_id":"cebpf4jnsgd1na2vs0mg"},{"bike_id":"8b0044fa-37e4-42fc-bb47-64dd5d739dae","system_id":"levelo_inurba_marseille","lat":43.23065,"lon":5.35493,"is_reserved":false,"is_disabled":false,"rental_uris":{"android":"levelo://app?vid=8b0044fa-37e4-42fc-bb47-64dd5d739dae","ios":"levelo://app?vid=8b0044fa-37e4-42fc-bb47-64dd5d739dae"},"vehicle_type_id":"4","last_reported":1742822434,"current_range_meters":14000,"station_id":"cpo3342slgdg3j2ifvpg","pricing_plan_id":"cebpf4jnsgd1na2vs0mg"},{"bike_id":"7273206e-33c7-427f-8bc4-129346bd94ce","system_id":"levelo_inurba_marseille","lat":43.24071,"lon":5.3774,"is_reserved":false,"is_disabled":false,"rental_uris":{"android":"levelo://app?vid=7273206e-33c7-427f-8bc4-129346bd94ce","ios":"levelo://app?vid=7273206e-33c7-427f-8bc4-129346bd94ce"},"vehicle_type_id":"4","last_reported":1742822434,"current_range_meters":14000,"station_id":"ce4bhnp2rcd13ifvqgvg","pricing_plan_id":"cebpf4jnsgd1na2vs0mg"},{"bike_id":"ef12f1df-58a7-44f9-a515-abbc046895de","system_id":"levelo_inurba_marseille","lat":43.24175,"lon":5.39744,"is_reserved":false,"is_disabled":false,"rental_uris":{"android":"levelo://app?vid=ef12f1df-58a7-44f9-a515-abbc046895de","ios":"levelo://app?vid=ef12f1df-58a7-44f9-a515-abbc046895de"},"vehicle_type_id":"4","last_reported":1742822434,"current_range_meters":14400,"station_id":"ce4bhn12rcd13ifvqgpg","pricing_plan_id":"cebpf4jnsgd1na2vs0mg"},{"bike_id":"9bb158ed-5b72-4841-9717-ad293670fe14","system_id":"levelo_inurba_marseille","lat":43.29928,"lon":5.3652,"is_reserved":false,"is_disabled":false,"rental_uris":{"android":"levelo://app?vid=9bb158ed-5b72-4841-9717-ad293670fe14","ios":"levelo://app?vid=9bb158ed-5b72-4841-9717-ad293670fe14"},"vehicle_type_id":"4","last_reported":1742822434,"current_range_meters":14400,"station_id":"ce4bgm92rcd13ifvqbr0","pricing_plan_id":"cebpf4jnsgd1na2vs0mg"},{"bike_id":"e7fa46a1-df75-4fec-8b88-fcf300495fad","system_id":"levelo_inurba_marseille","lat":43.30948,"lon":5.39032,"is_reserved":false,"is_disabled":false,"rental_uris":{"android":"levelo://app?vid=e7fa46a1-df75-4fec-8b88-fcf300495fad","ios":"levelo://app?vid=e7fa46a1-df75-4fec-8b88-fcf300495fad"},"vehicle_type_id":"4","last_reported":1742822434,"current_range_meters":14400,"station_id":"ce4bgup2rcd13ifvqco0","pricing_plan_id":"cebpf4jnsgd1na2vs0mg"},{"bike_id":"87285604-eda5-4705-a3a7-d29a89bdbf7f","system_id":"levelo_inurba_marseille","lat":43.30548,"lon":5.38431,"is_reserved":false,"is_disabled":false,"rental_uris":{"android":"levelo://app?vid=87285604-eda5-4705-a3a7-d29a89bdbf7f","ios":"levelo://app?vid=87285604-eda5-4705-a3a7-d29a89bdbf7f"},"vehicle_type_id":"4","last_reported":1742822434,"current_range_meters":14000,"station_id":"ce4bgg92rcd13ifvqb30","pricing_plan_id":"cebpf4jnsgd1na2vs0mg"},{"bike_id":"60fc9dc0-aa89-46d1-a71a-98cd30570cb9","system_id":"levelo_inurba_marseille","lat":43.25724,"lon":5.41104,"is_reserved":false,"is_disabled":false,"rental_uris":{"android":"levelo://app?vid=60fc9dc0-aa89-46d1-a71a-98cd30570cb9","ios":"levelo://app?vid=60fc9dc0-aa89-46d1-a71a-98cd30570cb9"},"vehicle_type_id":"4","last_reported":1742822434,"current_range_meters":14800,"station_id":"ce4bhkp2rcd13ifvqgd0","pricing_plan_id":"cebpf4jnsgd1na2vs0mg"},{"bike_id":"e07ea2d7-5b46-4660-b60c-44f8cf6d528d","system_id":"levelo_inurba_marseille","lat":43.23145,"lon":5.43713,"is_reserved":false,"is_disabled":false,"rental_uris":{"android":"levelo://app?vid=e07ea2d7-5b46-4660-b60c-44f8cf6d528d","ios":"levelo://app?vid=e07ea2d7-5b46-4660-b60c-44f8cf6d528d"},"vehicle_type_id":"4","last_reported":1742822434,"current_range_meters":14800,"station_id":"ce4bhmp2rcd13ifvqgog","pricing_plan_id":"cebpf4jnsgd1na2vs0mg"},{"bike_id":"ef796b4a-2faf-4c64-8bd6-ffa715eb5c20","system_id":"levelo_inurba_marseille","lat":43.30904,"lon":5.36864,"is_reserved":false,"is_disabled":false,"rental_uris":{"android":"levelo://app?vid=ef796b4a-2faf-4c64-8bd6-ffa715eb5c20","ios":"levelo://app?vid=ef796b4a-2faf-4c64-8bd6-ffa715eb5c20"},"vehicle_type_id":"4","last_reported":1742822434,"current_range_meters":12000,"station_id":"ce4bgn92rcd13ifvqbvg","pricing_plan_id":"cebpf4jnsgd1na2vs0mg"},{"bike_id":"8b342900-a7a0-4299-a84a-dbd75d66fba5","system_id":"levelo_inurba_marseille","lat":43.30324,"lon":5.36904,"is_reserved":false,"is_disabled":false,"rental_uris":{"android":"levelo://app?vid=8b342900-a7a0-4299-a84a-dbd75d66fba5","ios":"levelo://app?vid=8b342900-a7a0-4299-a84a-dbd75d66fba5"},"vehicle_type_id":"4","last_reported":1742822434,"current_range_meters":14800,"station_id":"ce4bgqh2rcd13ifvqc5g","pricing_plan_id":"cebpf4jnsgd1na2vs0mg"},{"bike_id":"11a49c7b-5038-411f-a240-88e098d89f73","system_id":"levelo_inurba_marseille","lat":43.26556,"lon":5.39027,"is_reserved":false,"is_disabled":true,"rental_uris":{"android":"levelo://app?vid=11a49c7b-5038-411f-a240-88e098d89f73","ios":"levelo://app?vid=11a49c7b-5038-411f-a240-88e098d89f73"},"vehicle_type_id":"4","last_reported":1742822434,"current_range_meters":14800,"station_id":"ce4bhe12rcd13ifvqf30","pricing_plan_id":"cebpf4jnsgd1na2vs0mg"},{"bike_id":"cbc1e719-a426-446f-ba4e-9eb03658ff6d","system_id":"levelo_inurba_marseille","lat":43.31282,"lon":5.36699,"is_reserved":false,"is_disabled":false,"rental_uris":{"android":"levelo://app?vid=cbc1e719-a426-446f-ba4e-9eb03658ff6d","ios":"levelo://app?vid=cbc1e719-a426-446f-ba4e-9eb03658ff6d"},"vehicle_type_id":"4","last_reported":1742822434,"current_range_meters":15200,"station_id":"","pricing_plan_id":"cebpf4jnsgd1na2vs0mg"},{"bike_id":"d1adfc43-e43c-4f7c-aa18-df37eb15e88e","system_id":"levelo_inurba_marseille","lat":43.29964,"lon":5.41328,"is_reserved":false,"is_disabled":true,"rental_uris":{"android":"levelo://app?vid=d1adfc43-e43c-4f7c-aa18-df37eb15e88e","ios":"levelo://app?vid=d1adfc43-e43c-4f7c-aa18-df37eb15e88e"},"vehicle_type_id":"4","last_reported":1742822434,"current_range_meters":15200,"station_id":"ce4bhp12rcd13ifvqh9g","pricing_plan_id":"cebpf4jnsgd1na2vs0mg"},{"bike_id":"eacd5ebb-de17-45f6-9755-15b1dd2ae8a6","system_id":"levelo_inurba_marseille","lat":43.33765,"lon":5.37481,"is_reserved":false,"is_disabled":false,"rental_uris":{"android":"levelo://app?vid=eacd5ebb-de17-45f6-9755-15b1dd2ae8a6","ios":"levelo://app?vid=eacd5ebb-de17-45f6-9755-15b1dd2ae8a6"},"vehicle_type_id":"4","last_reported":1742822434,"current_range_meters":15200,"station_id":"","pricing_plan_id":"cebpf4jnsgd1na2vs0mg"},{"bike_id":"21bc1fdc-a0ab-496b-9bfa-585e6776fee5","system_id":"levelo_inurba_marseille","lat":43.30157,"lon":5.37444,"is_reserved":false,"is_disabled":false,"rental_uris":{"android":"levelo://app?vid=21bc1fdc-a0ab-496b-9bfa-585e6776fee5","ios":"levelo://app?vid=21bc1fdc-a0ab-496b-9bfa-585e6776fee5"},"vehicle_type_id":"4","last_reported":1742822434,"current_range_meters":16000,"station_id":"ce4bgs92rcd13ifvqcc0","pricing_plan_id":"cebpf4jnsgd1na2vs0mg"},{"bike_id":"24b7e06e-62b1-41ed-b097-ecdf295adb8a","system_id":"levelo_inurba_marseille","lat":43.27494,"lon":5.4246,"is_reserved":false,"is_disabled":false,"rental_uris":{"android":"levelo://app?vid=24b7e06e-62b1-41ed-b097-ecdf295adb8a","ios":"levelo://app?vid=24b7e06e-62b1-41ed-b097-ecdf295adb8a"},"vehicle_type_id":"4","last_reported":1742822434,"current_range_meters":15200,"station_id":"ce4bhn92rcd13ifvqgrg","pricing_plan_id":"cebpf4jnsgd1na2vs0mg"},{"bike_id":"8a7dc508-8681-48c4-8b3e-c86f5ffcc977","system_id":"levelo_inurba_marseille","lat":43.30095,"lon":5.39079,"is_reserved":false,"is_disabled":false,"rental_uris":{"android":"levelo://app?vid=8a7dc508-8681-48c4-8b3e-c86f5ffcc977","ios":"levelo://app?vid=8a7dc508-8681-48c4-8b3e-c86f5ffcc977"},"vehicle_type_id":"4","last_reported":1742822434,"current_range_meters":15200,"station_id":"ce4bh192rcd13ifvqdb0","pricing_plan_id":"cebpf4jnsgd1na2vs0mg"},{"bike_id":"d7849f20-3c53-4e3b-b31b-12baf6c3bbda","system_id":"levelo_inurba_marseille","lat":43.301756,"lon":5.3733,"is_reserved":false,"is_disabled":false,"rental_uris":{"android":"levelo://app?vid=d7849f20-3c53-4e3b-b31b-12baf6c3bbda","ios":"levelo://app?vid=d7849f20-3c53-4e3b-b31b-12baf6c3bbda"},"vehicle_type_id":"4","last_reported":1742822434,"current_range_meters":15200,"station_id":"ce4bgs92rcd13ifvqcc0","pricing_plan_id":"cebpf4jnsgd1na2vs0mg"},{"bike_id":"580b12c7-3c3d-4296-93e7-9d7a5bd7eea9","system_id":"levelo_inurba_marseille","lat":43.24076,"lon":5.37758,"is_reserved":false,"is_disabled":false,"rental_uris":{"android":"levelo://app?vid=580b12c7-3c3d-4296-93e7-9d7a5bd7eea9","ios":"levelo://app?vid=580b12c7-3c3d-4296-93e7-9d7a5bd7eea9"},"vehicle_type_id":"4","last_reported":1742822434,"current_range_meters":15200,"station_id":"ce4bhnp2rcd13ifvqgvg","pricing_plan_id":"cebpf4jnsgd1na2vs0mg"},{"bike_id":"6ec37607-fa89-4e5d-b682-2ea2a34eb24c","system_id":"levelo_inurba_marseille","lat":43.23184,"lon":5.39994,"is_reserved":false,"is_disabled":false,"rental_uris":{"android":"levelo://app?vid=6ec37607-fa89-4e5d-b682-2ea2a34eb24c","ios":"levelo://app?vid=6ec37607-fa89-4e5d-b682-2ea2a34eb24c"},"vehicle_type_id":"4","last_reported":1742822434,"current_range_meters":15200,"station_id":"ce4bhn12rcd13ifvqgqg","pricing_plan_id":"cebpf4jnsgd1na2vs0mg"},{"bike_id":"7a246026-bae4-429a-91cb-e5d1647d1c81","system_id":"levelo_inurba_marseille","lat":43.28079,"lon":5.39656,"is_reserved":false,"is_disabled":false,"rental_uris":{"android":"levelo://app?vid=7a246026-bae4-429a-91cb-e5d1647d1c81","ios":"levelo://app?vid=7a246026-bae4-429a-91cb-e5d1647d1c81"},"vehicle_type_id":"4","last_reported":1742822434,"current_range_meters":15200,"station_id":"ce4bho12rcd13ifvqh2g","pricing_plan_id":"cebpf4jnsgd1na2vs0mg"},{"bike_id":"86e9e32d-1fee-4890-b6e2-0f472056c799","system_id":"levelo_inurba_marseille","lat":43.30474,"lon":5.37912,"is_reserved":false,"is_disabled":false,"rental_uris":{"android":"levelo://app?vid=86e9e32d-1fee-4890-b6e2-0f472056c799","ios":"levelo://app?vid=86e9e32d-1fee-4890-b6e2-0f472056c799"},"vehicle_type_id":"4","last_reported":1742822434,"current_range_meters":15200,"station_id":"ce4bgup2rcd13ifvqcn0","pricing_plan_id":"cebpf4jnsgd1na2vs0mg"},{"bike_id":"3c5f6d1c-8e84-4f98-930c-f2d0d12ae2dc","system_id":"levelo_inurba_marseille","lat":43.30206,"lon":5.37615,"is_reserved":false,"is_disabled":false,"rental_uris":{"android":"levelo://app?vid=3c5f6d1c-8e84-4f98-930c-f2d0d12ae2dc","ios":"levelo://app?vid=3c5f6d1c-8e84-4f98-930c-f2d0d12ae2dc"},"vehicle_type_id":"4","last_reported":1742822434,"current_range_meters":16000,"station_id":"","pricing_plan_id":"cebpf4jnsgd1na2vs0mg"},{"bike_id":"57b83645-2987-4346-ae33-23cd851c6c26","system_id":"levelo_inurba_marseille","lat":43.25936,"lon":5.40909,"is_reserved":false,"is_disabled":false,"rental_uris":{"android":"levelo://app?vid=57b83645-2987-4346-ae33-23cd851c6c26","ios":"levelo://app?vid=57b83645-2987-4346-ae33-23cd851c6c26"},"vehicle_type_id":"4","last_reported":1742822434,"current_range_meters":16000,"station_id":"ce4bhm92rcd13ifvqglg","pricing_plan_id":"cebpf4jnsgd1na2vs0mg"},{"bike_id":"560ab0d8-3b35-4c64-9245-e610608dd5c6","system_id":"levelo_inurba_marseille","lat":43.31726,"lon":5.43715,"is_reserved":false,"is_disabled":false,"rental_uris":{"android":"levelo://app?vid=560ab0d8-3b35-4c64-9245-e610608dd5c6","ios":"levelo://app?vid=560ab0d8-3b35-4c64-9245-e610608dd5c6"},"vehicle_type_id":"4","last_reported":1742822434,"current_range_meters":16000,"station_id":"ce4bhp92rcd13ifvqhcg","pricing_plan_id":"cebpf4jnsgd1na2vs0mg"},{"bike_id":"f82ce32a-633d-40ca-8982-a296341dd8bb","system_id":"levelo_inurba_marseille","lat":43.28942,"lon":5.36417,"is_reserved":false,"is_disabled":false,"rental_uris":{"android":"levelo://app?vid=f82ce32a-633d-40ca-8982-a296341dd8bb","ios":"levelo://app?vid=f82ce32a-633d-40ca-8982-a296341dd8bb"},"vehicle_type_id":"4","last_reported":1742822434,"current_range_meters":16000,"station_id":"ce4bhc92rcd13ifvqetg","pricing_plan_id":"cebpf4jnsgd1na2vs0mg"},{"bike_id":"ea7cde4d-2353-4207-9f0d-08689e8d76d1","system_id":"levelo_inurba_marseille","lat":43.26805,"lon":5.40257,"is_reserved":false,"is_disabled":false,"rental_uris":{"android":"levelo://app?vid=ea7cde4d-2353-4207-9f0d-08689e8d76d1","ios":"levelo://app?vid=ea7cde4d-2353-4207-9f0d-08689e8d76d1"},"vehicle_type_id":"4","last_reported":1742822434,"current_range_meters":16000,"station_id":"ce501612rcd8frsf0b60","pricing_plan_id":"cebpf4jnsgd1na2vs0mg"},{"bike_id":"9e0aa70d-46be-49fd-ac8d-9cad19ef0031","system_id":"levelo_inurba_marseille","lat":43.30816,"lon":5.37503,"is_reserved":false,"is_disabled":false,"rental_uris":{"android":"levelo://app?vid=9e0aa70d-46be-49fd-ac8d-9cad19ef0031","ios":"levelo://app?vid=9e0aa70d-46be-49fd-ac8d-9cad19ef0031"},"vehicle_type_id":"4","last_reported":1742822434,"current_range_meters":16000,"station_id":"","pricing_plan_id":"cebpf4jnsgd1na2vs0mg"},{"bike_id":"dd2282a4-2c75-4306-900a-b2d6d3263d72","system_id":"levelo_inurba_marseille","lat":43.27502,"lon":5.4246,"is_reserved":false,"is_disabled":false,"rental_uris":{"android":"levelo://app?vid=dd2282a4-2c75-4306-900a-b2d6d3263d72","ios":"levelo://app?vid=dd2282a4-2c75-4306-900a-b2d6d3263d72"},"vehicle_type_id":"4","last_reported":1742822434,"current_range_meters":16000,"station_id":"ce4bhn92rcd13ifvqgrg","pricing_plan_id":"cebpf4jnsgd1na2vs0mg"},{"bike_id":"ba57a866-afe4-4ed5-be6f-f3e2cc9675c2","system_id":"levelo_inurba_marseille","lat":43.26794,"lon":5.40241,"is_reserved":false,"is_disabled":true,"rental_uris":{"android":"levelo://app?vid=ba57a866-afe4-4ed5-be6f-f3e2cc9675c2","ios":"levelo://app?vid=ba57a866-afe4-4ed5-be6f-f3e2cc9675c2"},"vehicle_type_id":"4","last_reported":1742822434,"current_range_meters":16000,"station_id":"ce501612rcd8frsf0b60","pricing_plan_id":"cebpf4jnsgd1na2vs0mg"},{"bike_id":"3b92dbdd-25f3-4387-9d5a-02c5bf280819","system_id":"levelo_inurba_marseille","lat":43.24551,"lon":5.39513,"is_reserved":false,"is_disabled":false,"rental_uris":{"android":"levelo://app?vid=3b92dbdd-25f3-4387-9d5a-02c5bf280819","ios":"levelo://app?vid=3b92dbdd-25f3-4387-9d5a-02c5bf280819"},"vehicle_type_id":"4","last_reported":1742822434,"current_range_meters":16000,"station_id":"ce4bhlp2rcd13ifvqgjg","pricing_plan_id":"cebpf4jnsgd1na2vs0mg"},{"bike_id":"59fbe0b9-4d94-4401-98fe-b4ff6251dc7d","system_id":"levelo_inurba_marseille","lat":43.27063,"lon":5.40257,"is_reserved":false,"is_disabled":false,"rental_uris":{"android":"levelo://app?vid=59fbe0b9-4d94-4401-98fe-b4ff6251dc7d","ios":"levelo://app?vid=59fbe0b9-4d94-4401-98fe-b4ff6251dc7d"},"vehicle_type_id":"4","last_reported":1742822434,"current_range_meters":16000,"station_id":"ce4bhk92rcd13ifvqgc0","pricing_plan_id":"cebpf4jnsgd1na2vs0mg"},{"bike_id":"0588399f-c86f-433c-b4af-e8e4e2319b08","system_id":"levelo_inurba_marseille","lat":43.321161,"lon":5.367723,"is_reserved":false,"is_disabled":false,"rental_uris":{"android":"levelo://app?vid=0588399f-c86f-433c-b4af-e8e4e2319b08","ios":"levelo://app?vid=0588399f-c86f-433c-b4af-e8e4e2319b08"},"vehicle_type_id":"4","last_reported":1742822434,"current_range_meters":16000,"station_id":"ce4bhrh2rcd13ifvqhug","pricing_plan_id":"cebpf4jnsgd1na2vs0mg"},{"bike_id":"4c46e26d-bec3-4ef5-bcb2-a732594efb81","system_id":"levelo_inurba_marseille","lat":43.305236,"lon":5.384398,"is_reserved":false,"is_disabled":false,"rental_uris":{"android":"levelo://app?vid=4c46e26d-bec3-4ef5-bcb2-a732594efb81","ios":"levelo://app?vid=4c46e26d-bec3-4ef5-bcb2-a732594efb81"},"vehicle_type_id":"4","last_reported":1742822434,"current_range_meters":16000,"station_id":"ce4bgg92rcd13ifvqb30","pricing_plan_id":"cebpf4jnsgd1na2vs0mg"},{"bike_id":"68bf77d1-f7b2-4f13-a7d4-868a5c8aaa5b","system_id":"levelo_inurba_marseille","lat":43.2465,"lon":5.38874,"is_reserved":false,"is_disabled":false,"rental_uris":{"android":"levelo://app?vid=68bf77d1-f7b2-4f13-a7d4-868a5c8aaa5b","ios":"levelo://app?vid=68bf77d1-f7b2-4f13-a7d4-868a5c8aaa5b"},"vehicle_type_id":"4","last_reported":1742822434,"current_range_meters":16000,"station_id":"ce4bhg12rcd13ifvqf60","pricing_plan_id":"cebpf4jnsgd1na2vs0mg"},{"bike_id":"d0378c28-2ab6-47f3-9248-f012c7b13062","system_id":"levelo_inurba_marseille","lat":43.27676,"lon":5.3889,"is_reserved":false,"is_disabled":true,"rental_uris":{"android":"levelo://app?vid=d0378c28-2ab6-47f3-9248-f012c7b13062","ios":"levelo://app?vid=d0378c28-2ab6-47f3-9248-f012c7b13062"},"vehicle_type_id":"4","last_reported":1742822434,"current_range_meters":16400,"station_id":"ce4bhi12rcd13ifvqfo0","pricing_plan_id":"cebpf4jnsgd1na2vs0mg"},{"bike_id":"2ba0f073-e0c1-4981-8b66-b0ecda6f1fe8","system_id":"levelo_inurba_marseille","lat":43.27822,"lon":5.40699,"is_reserved":false,"is_disabled":true,"rental_uris":{"android":"levelo://app?vid=2ba0f073-e0c1-4981-8b66-b0ecda6f1fe8","ios":"levelo://app?vid=2ba0f073-e0c1-4981-8b66-b0ecda6f1fe8"},"vehicle_type_id":"4","last_reported":1742822434,"current_range_meters":16400,"station_id":"ce4bhnh2rcd13ifvqgtg","pricing_plan_id":"cebpf4jnsgd1na2vs0mg"},{"bike_id":"4cedd9fd-42c8-42ed-bdfb-af8d813b2667","system_id":"levelo_inurba_marseille","lat":43.28412,"lon":5.37516,"is_reserved":false,"is_disabled":false,"rental_uris":{"android":"levelo://app?vid=4cedd9fd-42c8-42ed-bdfb-af8d813b2667","ios":"levelo://app?vid=4cedd9fd-42c8-42ed-bdfb-af8d813b2667"},"vehicle_type_id":"4","last_reported":1742822434,"current_range_meters":16400,"station_id":"ce4bh412rcd13ifvqds0","pricing_plan_id":"cebpf4jnsgd1na2vs0mg"},{"bike_id":"aa295b55-7724-4f0e-83af-72c6ad37b349","system_id":"levelo_inurba_marseille","lat":43.32547,"lon":5.41512,"is_reserved":false,"is_disabled":false,"rental_uris":{"android":"levelo://app?vid=aa295b55-7724-4f0e-83af-72c6ad37b349","ios":"levelo://app?vid=aa295b55-7724-4f0e-83af-72c6ad37b349"},"vehicle_type_id":"4","last_reported":1742822434,"current_range_meters":16400,"station_id":"ce4bhq12rcd13ifvqhhg","pricing_plan_id":"cebpf4jnsgd1na2vs0mg"},{"bike_id":"71a0dc20-d26b-4d99-a306-0fcb263b6e66","system_id":"levelo_inurba_marseille","lat":43.31222,"lon":5.36871,"is_reserved":false,"is_disabled":false,"rental_uris":{"android":"levelo://app?vid=71a0dc20-d26b-4d99-a306-0fcb263b6e66","ios":"levelo://app?vid=71a0dc20-d26b-4d99-a306-0fcb263b6e66"},"vehicle_type_id":"4","last_reported":1742822434,"current_range_meters":16400,"station_id":"ce4bgl92rcd13ifvqbq0","pricing_plan_id":"cebpf4jnsgd1na2vs0mg"},{"bike_id":"a5446fa9-b2f7-45f6-bfb4-1335cb6018ff","system_id":"levelo_inurba_marseille","lat":43.230652,"lon":5.354963,"is_reserved":false,"is_disabled":false,"rental_uris":{"android":"levelo://app?vid=a5446fa9-b2f7-45f6-bfb4-1335cb6018ff","ios":"levelo://app?vid=a5446fa9-b2f7-45f6-bfb4-1335cb6018ff"},"vehicle_type_id":"4","last_reported":1742822434,"current_range_meters":16400,"station_id":"cpo3342slgdg3j2ifvpg","pricing_plan_id":"cebpf4jnsgd1na2vs0mg"},{"bike_id":"c4eac3b4-febc-4003-b468-2bdd213db3ea","system_id":"levelo_inurba_marseille","lat":43.23192,"lon":5.35558,"is_reserved":false,"is_disabled":false,"rental_uris":{"android":"levelo://app?vid=c4eac3b4-febc-4003-b468-2bdd213db3ea","ios":"levelo://app?vid=c4eac3b4-febc-4003-b468-2bdd213db3ea"},"vehicle_type_id":"4","last_reported":1742822434,"current_range_meters":16400,"station_id":"ce4bhu92rcd13ifvqi70","pricing_plan_id":"cebpf4jnsgd1na2vs0mg"},{"bike_id":"0d052b9d-ee0e-4ced-8964-60aaa9554e1c","system_id":"levelo_inurba_marseille","lat":43.26803,"lon":5.40247,"is_reserved":false,"is_disabled":false,"rental_uris":{"android":"levelo://app?vid=0d052b9d-ee0e-4ced-8964-60aaa9554e1c","ios":"levelo://app?vid=0d052b9d-ee0e-4ced-8964-60aaa9554e1c"},"vehicle_type_id":"4","last_reported":1742822434,"current_range_meters":16400,"station_id":"ce501612rcd8frsf0b60","pricing_plan_id":"cebpf4jnsgd1na2vs0mg"},{"bike_id":"e30305ff-ae29-476d-8173-d9330b2fb37a","system_id":"levelo_inurba_marseille","lat":43.301537,"lon":5.37419,"is_reserved":false,"is_disabled":false,"rental_uris":{"android":"levelo://app?vid=e30305ff-ae29-476d-8173-d9330b2fb37a","ios":"levelo://app?vid=e30305ff-ae29-476d-8173-d9330b2fb37a"},"vehicle_type_id":"4","last_reported":1742822434,"current_range_meters":16400,"station_id":"ce4bgup2rcd13ifvqcn0","pricing_plan_id":"cebpf4jnsgd1na2vs0mg"},{"bike_id":"d03366b8-a781-4d10-af08-08765a0e7afe","system_id":"levelo_inurba_marseille","lat":43.29839,"lon":5.36282,"is_reserved":false,"is_disabled":false,"rental_uris":{"android":"levelo://app?vid=d03366b8-a781-4d10-af08-08765a0e7afe","ios":"levelo://app?vid=d03366b8-a781-4d10-af08-08765a0e7afe"},"vehicle_type_id":"4","last_reported":1742822434,"current_range_meters":16400,"station_id":"ce4bgpp2rcd13ifvqc3g","pricing_plan_id":"cebpf4jnsgd1na2vs0mg"},{"bike_id":"067c4189-50ff-4e88-8d1d-d5468d7c6bf8","system_id":"levelo_inurba_marseille","lat":43.272078,"lon":5.40999,"is_reserved":false,"is_disabled":false,"rental_uris":{"android":"levelo://app?vid=067c4189-50ff-4e88-8d1d-d5468d7c6bf8","ios":"levelo://app?vid=067c4189-50ff-4e88-8d1d-d5468d7c6bf8"},"vehicle_type_id":"4","last_reported":1742822434,"current_range_meters":16400,"station_id":"ce4bhl12rcd13ifvqgf0","pricing_plan_id":"cebpf4jnsgd1na2vs0mg"},{"bike_id":"46fc8030-f736-4758-8fff-960db363a17e","system_id":"levelo_inurba_marseille","lat":43.30126,"lon":5.37339,"is_reserved":false,"is_disabled":true,"rental_uris":{"android":"levelo://app?vid=46fc8030-f736-4758-8fff-960db363a17e","ios":"levelo://app?vid=46fc8030-f736-4758-8fff-960db363a17e"},"vehicle_type_id":"4","last_reported":1742822434,"current_range_meters":16400,"station_id":"","pricing_plan_id":"cebpf4jnsgd1na2vs0mg"},{"bike_id":"1989f9c3-6156-47a7-8f6e-689a009b64a2","system_id":"levelo_inurba_marseille","lat":43.31237,"lon":5.36869,"is_reserved":false,"is_disabled":false,"rental_uris":{"android":"levelo://app?vid=1989f9c3-6156-47a7-8f6e-689a009b64a2","ios":"levelo://app?vid=1989f9c3-6156-47a7-8f6e-689a009b64a2"},"vehicle_type_id":"4","last_reported":1742822434,"current_range_meters":16800,"station_id":"ce4bgl92rcd13ifvqbq0","pricing_plan_id":"cebpf4jnsgd1na2vs0mg"},{"bike_id":"ded8e1f2-1ca9-4ddd-be61-1d44046c16e6","system_id":"levelo_inurba_marseille","lat":43.24086,"lon":5.3773,"is_reserved":false,"is_disabled":false,"rental_uris":{"android":"levelo://app?vid=ded8e1f2-1ca9-4ddd-be61-1d44046c16e6","ios":"levelo://app?vid=ded8e1f2-1ca9-4ddd-be61-1d44046c16e6"},"vehicle_type_id":"4","last_reported":1742822434,"current_range_meters":16800,"station_id":"ce4bhnp2rcd13ifvqgvg","pricing_plan_id":"cebpf4jnsgd1na2vs0mg"},{"bike_id":"7f869988-23aa-407e-80d8-3b578867d0d0","system_id":"levelo_inurba_marseille","lat":43.31229,"lon":5.36902,"is_reserved":false,"is_disabled":false,"rental_uris":{"android":"levelo://app?vid=7f869988-23aa-407e-80d8-3b578867d0d0","ios":"levelo://app?vid=7f869988-23aa-407e-80d8-3b578867d0d0"},"vehicle_type_id":"4","last_reported":1742822434,"current_range_meters":16800,"station_id":"ce4bgl92rcd13ifvqbq0","pricing_plan_id":"cebpf4jnsgd1na2vs0mg"},{"bike_id":"383b41dd-c341-4f7d-838a-afaa41cfc49a","system_id":"levelo_inurba_marseille","lat":43.30142,"lon":5.38785,"is_reserved":false,"is_disabled":false,"rental_uris":{"android":"levelo://app?vid=383b41dd-c341-4f7d-838a-afaa41cfc49a","ios":"levelo://app?vid=383b41dd-c341-4f7d-838a-afaa41cfc49a"},"vehicle_type_id":"4","last_reported":1742822434,"current_range_meters":16800,"station_id":"ce4bghh2rcd13ifvqb60","pricing_plan_id":"cebpf4jnsgd1na2vs0mg"},{"bike_id":"96911444-878d-45f8-995d-0547c2f4ed09","system_id":"levelo_inurba_marseille","lat":43.30541,"lon":5.36542,"is_reserved":false,"is_disabled":false,"rental_uris":{"android":"levelo://app?vid=96911444-878d-45f8-995d-0547c2f4ed09","ios":"levelo://app?vid=96911444-878d-45f8-995d-0547c2f4ed09"},"vehicle_type_id":"4","last_reported":1742822434,"current_range_meters":16800,"station_id":"ce4bgs12rcd13ifvqcag","pricing_plan_id":"cebpf4jnsgd1na2vs0mg"},{"bike_id":"06c01661-941d-454f-be36-d4c733526995","system_id":"levelo_inurba_marseille","lat":43.24163,"lon":5.36399,"is_reserved":false,"is_disabled":false,"rental_uris":{"android":"levelo://app?vid=06c01661-941d-454f-be36-d4c733526995","ios":"levelo://app?vid=06c01661-941d-454f-be36-d4c733526995"},"vehicle_type_id":"4","last_reported":1742822434,"current_range_meters":16800,"station_id":"cpo36qri1sfpv3e86is0","pricing_plan_id":"cebpf4jnsgd1na2vs0mg"},{"bike_id":"33fcddcc-43ee-449f-8136-08f4b0a5738b","system_id":"levelo_inurba_marseille","lat":43.30605,"lon":5.39356,"is_reserved":false,"is_disabled":true,"rental_uris":{"android":"levelo://app?vid=33fcddcc-43ee-449f-8136-08f4b0a5738b","ios":"levelo://app?vid=33fcddcc-43ee-449f-8136-08f4b0a5738b"},"vehicle_type_id":"4","last_reported":1742822434,"current_range_meters":16800,"station_id":"ce4bh0p2rcd13ifvqd80","pricing_plan_id":"cebpf4jnsgd1na2vs0mg"},{"bike_id":"b164babd-f309-4de7-9177-902967ffd41c","system_id":"levelo_inurba_marseille","lat":43.289446,"lon":5.364018,"is_reserved":false,"is_disabled":false,"rental_uris":{"android":"levelo://app?vid=b164babd-f309-4de7-9177-902967ffd41c","ios":"levelo://app?vid=b164babd-f309-4de7-9177-902967ffd41c"},"vehicle_type_id":"4","last_reported":1742822434,"current_range_meters":16800,"station_id":"ce4bhc92rcd13ifvqetg","pricing_plan_id":"cebpf4jnsgd1na2vs0mg"},{"bike_id":"4d20ea73-6700-4a57-b0b6-7f80c2f1f990","system_id":"levelo_inurba_marseille","lat":43.23962,"lon":5.36629,"is_reserved":false,"is_disabled":false,"rental_uris":{"android":"levelo://app?vid=4d20ea73-6700-4a57-b0b6-7f80c2f1f990","ios":"levelo://app?vid=4d20ea73-6700-4a57-b0b6-7f80c2f1f990"},"vehicle_type_id":"4","last_reported":1742822434,"current_range_meters":16400,"station_id":"ce4bhi12rcd13ifvqfp0","pricing_plan_id":"cebpf4jnsgd1na2vs0mg"},{"bike_id":"534efc99-6ad5-4c44-8c11-957b59dad7c5","system_id":"levelo_inurba_marseille","lat":43.3079,"lon":5.37648,"is_reserved":false,"is_disabled":false,"rental_uris":{"android":"levelo://app?vid=534efc99-6ad5-4c44-8c11-957b59dad7c5","ios":"levelo://app?vid=534efc99-6ad5-4c44-8c11-957b59dad7c5"},"vehicle_type_id":"4","last_reported":1742822434,"current_range_meters":16800,"station_id":"ce4bgv92rcd13ifvqcq0","pricing_plan_id":"cebpf4jnsgd1na2vs0mg"},{"bike_id":"6d2b811a-9175-4f6a-8eab-9e25f99d5847","system_id":"levelo_inurba_marseille","lat":43.30951,"lon":5.39066,"is_reserved":false,"is_disabled":false,"rental_uris":{"android":"levelo://app?vid=6d2b811a-9175-4f6a-8eab-9e25f99d5847","ios":"levelo://app?vid=6d2b811a-9175-4f6a-8eab-9e25f99d5847"},"vehicle_type_id":"4","last_reported":1742822434,"current_range_meters":16800,"station_id":"ce4bgup2rcd13ifvqco0","pricing_plan_id":"cebpf4jnsgd1na2vs0mg"},{"bike_id":"fb7a185f-7de9-4e66-b150-f4dd3549937c","system_id":"levelo_inurba_marseille","lat":43.23973,"lon":5.3662,"is_reserved":false,"is_disabled":false,"rental_uris":{"android":"levelo://app?vid=fb7a185f-7de9-4e66-b150-f4dd3549937c","ios":"levelo://app?vid=fb7a185f-7de9-4e66-b150-f4dd3549937c"},"vehicle_type_id":"4","last_reported":1742822434,"current_range_meters":16800,"station_id":"ce4bhi12rcd13ifvqfp0","pricing_plan_id":"cebpf4jnsgd1na2vs0mg"},{"bike_id":"82f07b90-b4ea-45bc-9117-3b0a0b315f4e","system_id":"levelo_inurba_marseille","lat":43.25001,"lon":5.38921,"is_reserved":false,"is_disabled":false,"rental_uris":{"android":"levelo://app?vid=82f07b90-b4ea-45bc-9117-3b0a0b315f4e","ios":"levelo://app?vid=82f07b90-b4ea-45bc-9117-3b0a0b315f4e"},"vehicle_type_id":"4","last_reported":1742822434,"current_range_meters":16800,"station_id":"ce4bhgp2rcd13ifvqfd0","pricing_plan_id":"cebpf4jnsgd1na2vs0mg"},{"bike_id":"62ef2966-e11f-423c-abd1-24f1b092bd95","system_id":"levelo_inurba_marseille","lat":43.25825,"lon":5.39446,"is_reserved":false,"is_disabled":false,"rental_uris":{"android":"levelo://app?vid=62ef2966-e11f-423c-abd1-24f1b092bd95","ios":"levelo://app?vid=62ef2966-e11f-423c-abd1-24f1b092bd95"},"vehicle_type_id":"4","last_reported":1742822434,"current_range_meters":16800,"station_id":"ce4bhip2rcd13ifvqft0","pricing_plan_id":"cebpf4jnsgd1na2vs0mg"},{"bike_id":"e246959c-006c-4734-9362-62ca6d0116b2","system_id":"levelo_inurba_marseille","lat":43.24177,"lon":5.39742,"is_reserved":false,"is_disabled":false,"rental_uris":{"android":"levelo://app?vid=e246959c-006c-4734-9362-62ca6d0116b2","ios":"levelo://app?vid=e246959c-006c-4734-9362-62ca6d0116b2"},"vehicle_type_id":"4","last_reported":1742822434,"current_range_meters":16800,"station_id":"ce4bhn12rcd13ifvqgpg","pricing_plan_id":"cebpf4jnsgd1na2vs0mg"},{"bike_id":"63efce5d-ac8d-4433-9526-275c7a7c737d","system_id":"levelo_inurba_marseille","lat":43.2456,"lon":5.39523,"is_reserved":false,"is_disabled":false,"rental_uris":{"android":"levelo://app?vid=63efce5d-ac8d-4433-9526-275c7a7c737d","ios":"levelo://app?vid=63efce5d-ac8d-4433-9526-275c7a7c737d"},"vehicle_type_id":"4","last_reported":1742822434,"current_range_meters":17200,"station_id":"ce4bhlp2rcd13ifvqgjg","pricing_plan_id":"cebpf4jnsgd1na2vs0mg"},{"bike_id":"a3cb8715-ab8b-412b-9255-6d82f7e84b6d","system_id":"levelo_inurba_marseille","lat":43.28352,"lon":5.38111,"is_reserved":false,"is_disabled":false,"rental_uris":{"android":"levelo://app?vid=a3cb8715-ab8b-412b-9255-6d82f7e84b6d","ios":"levelo://app?vid=a3cb8715-ab8b-412b-9255-6d82f7e84b6d"},"vehicle_type_id":"4","last_reported":1742822434,"current_range_meters":17200,"station_id":"ce4bh412rcd13ifvqdr0","pricing_plan_id":"cebpf4jnsgd1na2vs0mg"},{"bike_id":"a980fb6a-b2c1-42ec-a7bc-d234dd6a831d","system_id":"levelo_inurba_marseille","lat":43.2953,"lon":5.38546,"is_reserved":false,"is_disabled":false,"rental_uris":{"android":"levelo://app?vid=a980fb6a-b2c1-42ec-a7bc-d234dd6a831d","ios":"levelo://app?vid=a980fb6a-b2c1-42ec-a7bc-d234dd6a831d"},"vehicle_type_id":"4","last_reported":1742822434,"current_range_meters":16800,"station_id":"ce4bgih2rcd13ifvqba0","pricing_plan_id":"cebpf4jnsgd1na2vs0mg"},{"bike_id":"5da44ac7-7d34-4350-b77b-cd7a17330f8d","system_id":"levelo_inurba_marseille","lat":43.2817,"lon":5.42665,"is_reserved":false,"is_disabled":false,"rental_uris":{"android":"levelo://app?vid=5da44ac7-7d34-4350-b77b-cd7a17330f8d","ios":"levelo://app?vid=5da44ac7-7d34-4350-b77b-cd7a17330f8d"},"vehicle_type_id":"4","last_reported":1742822434,"current_range_meters":17200,"station_id":"ce4bhnh2rcd13ifvqgug","pricing_plan_id":"cebpf4jnsgd1na2vs0mg"},{"bike_id":"5a162d2a-8622-432c-a424-1123eb6cd92a","system_id":"levelo_inurba_marseille","lat":43.28295,"lon":5.35048,"is_reserved":false,"is_disabled":false,"rental_uris":{"android":"levelo://app?vid=5a162d2a-8622-432c-a424-1123eb6cd92a","ios":"levelo://app?vid=5a162d2a-8622-432c-a424-1123eb6cd92a"},"vehicle_type_id":"4","last_reported":1742822434,"current_range_meters":17200,"station_id":"ce4bhbp2rcd13ifvqerg","pricing_plan_id":"cebpf4jnsgd1na2vs0mg"},