{"last_updated":1736871047,"ttl":60,"version":"2.2","data":{"bikes":[{"bike_id":"b9464c1b-16ec-4ae7-99cb-c3ee5fb38893","system_id":"levelo_inurba_marseille","lat":43.32349,"lon":5.40618,"is_reserved":false,"is_disabled":false,"rental_uris":{"android":"levelo://app?vid=b9464c1b-16ec-4ae7-99cb-c3ee5fb38893","ios":"levelo://app?vid=b9464c1b-16ec-4ae7-99cb-c3ee5fb38893"},"vehicle_type_id":"4","last_reported":1736871047,"current_range_meters":38800,"station_id":"ce4bhq92rcd13ifvqhjg","pricing_plan_id":"cebpf4jnsgd1na2vs0mg"},{"bike_id":"094f2b9d-982b-42a3-8932-981369abda5b","system_id":"levelo_inurba_marseille","lat":43.26935,"lon":5.40252,"is_reserved":false,"is_disabled":false,"rental_uris":{"android":"levelo://app?vid=094f2b9d-982b-42a3-8932-981369abda5b","ios":"levelo://app?vid=094f2b9d-982b-42a3-8932-981369abda5b"},"vehicle_type_id":"4","last_reported":1736871047,"current_range_meters":28800,"station_id":"cjm6bp8fraef2m0cb0m0","pricing_plan_id":"cebpf4jnsgd1na2vs0mg"},{"bike_id":"fc202dea-b0c2-4e7a-82c8-0912767c1570","system_id":"levelo_inurba_marseille","lat":43.29624,"lon":5.37154,"is_reserved":false,"is_disabled":false,"rental_uris":{"android":"levelo://app?vid=fc202dea-b0c2-4e7a-82c8-0912767c1570","ios":"levelo://app?vid=fc202dea-b0c2-4e7a-82c8-0912767c1570"},"vehicle_type_id":"4","last_reported":1736871047,"current_range_meters":39200,"station_id":"ce4bgnh2rcd13ifvqc0g","pricing_plan_id":"cebpf4jnsgd1na2vs0mg"},{"bike_id":"8b946f40-6c08-4c0a-9db9-872b051c4842","system_id":"levelo_inurba_marseille","lat":43.28108,"lon":5.3782,"is_reserved":false,"is_disabled":false,"rental_uris":{"android":"levelo://app?vid=8b946f40-6c08-4c0a-9db9-872b051c4842","ios":"levelo://app?vid=8b946f40-6c08-4c0a-9db9-872b051c4842"},"vehicle_type_id":"4","last_reported":1736871047,"current_range_meters":20400,"station_id":"ce4bha12rcd13ifvqee0","pricing_plan_id":"cebpf4jnsgd1na2vs0mg"},{"bike_id":"459eda55-c02d-48e5-b482-24c6e37a8793","system_id":"levelo_inurba_marseille","lat":43.28445,"lon":5.39192,"is_reserved":false,"is_disabled":true,"rental_uris":{"android":"levelo://app?vid=459eda55-c02d-48e5-b482-24c6e37a8793","ios":"levelo://app?vid=459eda55-c02d-48e5-b482-24c6e37a8793"},"vehicle_type_id":"4","last_reported":1736871047,"current_range_meters":16400,"station_id":"ce4bhoh2rcd13ifvqh5g","pricing_plan_id":"cebpf4jnsgd1na2vs0mg"},{"bike_id":"a9caf45c-9b62-4fad-bb25-cf9cfd1dff86","system_id":"levelo_inurba_marseille","lat":43.3372,"lon":5.39172,"is_reserved":false,"is_disabled":false,"rental_uris":{"android":"levelo://app?vid=a9caf45c-9b62-4fad-bb25-cf9cfd1dff86","ios":"levelo://app?vid=a9caf45c-9b62-4fad-bb25-cf9cfd1dff86"},"vehicle_type_id":"4","last_reported":1736871047,"current_range_meters":38800,"station_id":"ce4bhr92rcd13ifvqhsg","pricing_plan_id":"cebpf4jnsgd1na2vs0mg"},{"bike_id":"83c05730-c74e-4333-98de-3397043b2b60","system_id":"levelo_inurba_marseille","lat":43.27616,"lon":5.36108,"is_reserved":false,"is_disabled":false,"rental_uris":{"android":"levelo://app?vid=83c05730-c74e-4333-98de-3397043b2b60","ios":"levelo://app?vid=83c05730-c74e-4333-98de-3397043b2b60"},"vehicle_type_id":"4","last_reported":1736871047,"current_range_meters":19200,"station_id":"ce4bgj92rcd13ifvqbe0","pricing_plan_id":"cebpf4jnsgd1na2vs0mg"},{"bike_id":"5e0b46d4-53a6-4a9b-81ed-42b3629948b7","system_id":"levelo_inurba_marseille","lat":43.32107,"lon":5.36776,"is_reserved":false,"is_disabled":false,"rental_uris":{"android":"levelo://app?vid=5e0b46d4-53a6-4a9b-81ed-42b3629948b7","ios":"levelo://app?vid=5e0b46d4-53a6-4a9b-81ed-42b3629948b7"},"vehicle_type_id":"4","last_reported":1736871047,"current_range_meters":37600,"station_id":"ce4bhrh2rcd13ifvqhug","pricing_plan_id":"cebpf4jnsgd1na2vs0mg"},{"bike_id":"e50b8cd6-bbe3-494f-895b-f5b386e54f12","system_id":"levelo_inurba_marseille","lat":43.26167,"lon":5.37499,"is_reserved":false,"is_disabled":true,"rental_uris":{"android":"levelo://app?vid=e50b8cd6-bbe3-494f-895b-f5b386e54f12","ios":"levelo://app?vid=e50b8cd6-bbe3-494f-895b-f5b386e54f12"},"vehicle_type_id":"4","last_reported":1736871047,"current_range_meters":0,"station_id":"ce4bhgp2rcd13ifvqfc0","pricing_plan_id":"cebpf4jnsgd1na2vs0mg"},{"bike_id":"90008e08-866e-46c3-96ff-04c849cafc46","system_id":"levelo_inurba_marseille","lat":43.28069,"lon":5.3964,"is_reserved":false,"is_disabled":false,"rental_uris":{"android":"levelo://app?vid=90008e08-866e-46c3-96ff-04c849cafc46","ios":"levelo://app?vid=90008e08-866e-46c3-96ff-04c849cafc46"},"vehicle_type_id":"4","last_reported":1736871047,"current_range_meters":27600,"station_id":"ce4bho12rcd13ifvqh2g","pricing_plan_id":"cebpf4jnsgd1na2vs0mg"},{"bike_id":"5bb5758f-37be-496e-ac0a-3712e6b43125","system_id":"levelo_inurba_marseille","lat":43.26199,"lon":5.37936,"is_reserved":false,"is_disabled":false,"rental_uris":{"android":"levelo://app?vid=5bb5758f-37be-496e-ac0a-3712e6b43125","ios":"levelo://app?vid=5bb5758f-37be-496e-ac0a-3712e6b43125"},"vehicle_type_id":"4","last_reported":1736871047,"current_range_meters":38800,"station_id":"ce4bhjp2rcd13ifvqg90","pricing_plan_id":"cebpf4jnsgd1na2vs0mg"},{"bike_id":"93e78542-36a8-4d83-b0e6-f9822d32b709","system_id":"levelo_inurba_marseille","lat":43.29872,"lon":5.38907,"is_reserved":false,"is_disabled":false,"rental_uris":{"android":"levelo://app?vid=93e78542-36a8-4d83-b0e6-f9822d32b709","ios":"levelo://app?vid=93e78542-36a8-4d83-b0e6-f9822d32b709"},"vehicle_type_id":"4","last_reported":1736871047,"current_range_meters":32000,"station_id":"ce4bh392rcd13ifvqdl0","pricing_plan_id":"cebpf4jnsgd1na2vs0mg"},{"bike_id":"560c9698-823c-47be-8222-b527d3ff45b6","system_id":"levelo_inurba_marseille","lat":43.25109,"lon":5.40321,"is_reserved":false,"is_disabled":false,"rental_uris":{"android":"levelo://app?vid=560c9698-823c-47be-8222-b527d3ff45b6","ios":"levelo://app?vid=560c9698-823c-47be-8222-b527d3ff45b6"},"vehicle_type_id":"4","last_reported":1736871047,"current_range_meters":36800,"station_id":"ce4bhlh2rcd13ifvqgig","pricing_plan_id":"cebpf4jnsgd1na2vs0mg"},{"bike_id":"3a56cd89-55ec-4ecc-9e7c-c318cb4c33b2","system_id":"levelo_inurba_marseille","lat":43.26772,"lon":5.39428,"is_reserved":false,"is_disabled":false,"rental_uris":{"android":"levelo://app?vid=3a56cd89-55ec-4ecc-9e7c-c318cb4c33b2","ios":"levelo://app?vid=3a56cd89-55ec-4ecc-9e7c-c318cb4c33b2"},"vehicle_type_id":"4","last_reported":1736871047,"current_range_meters":36000,"station_id":"ce4bhh12rcd13ifvqfg0","pricing_plan_id":"cebpf4jnsgd1na2vs0mg"},{"bike_id":"c7950e75-47c2-4320-bd8e-6ff772d56893","system_id":"levelo_inurba_marseille","lat":43.29413,"lon":5.3862,"is_reserved":false,"is_disabled":false,"rental_uris":{"android":"levelo://app?vid=c7950e75-47c2-4320-bd8e-6ff772d56893","ios":"levelo://app?vid=c7950e75-47c2-4320-bd8e-6ff772d56893"},"vehicle_type_id":"4","last_reported":1736871047,"current_range_meters":28000,"station_id":"ce4bh2h2rcd13ifvqdh0","pricing_plan_id":"cebpf4jnsgd1na2vs0mg"},{"bike_id":"8cf44a51-9ecd-480e-ab14-b526f57a28af","system_id":"levelo_inurba_marseille","lat":43.29516,"lon":5.3941,"is_reserved":false,"is_disabled":false,"rental_uris":{"android":"levelo://app?vid=8cf44a51-9ecd-480e-ab14-b526f57a28af","ios":"levelo://app?vid=8cf44a51-9ecd-480e-ab14-b526f57a28af"},"vehicle_type_id":"4","last_reported":1736871047,"current_range_meters":31200,"station_id":"ce4bh292rcd13ifvqdf0","pricing_plan_id":"cebpf4jnsgd1na2vs0mg"},{"bike_id":"3a154d79-06d4-4814-bd52-2ebbe8926e69","system_id":"levelo_inurba_marseille","lat":43.29778,"lon":5.39308,"is_reserved":false,"is_disabled":true,"rental_uris":{"android":"levelo://app?vid=3a154d79-06d4-4814-bd52-2ebbe8926e69","ios":"levelo://app?vid=3a154d79-06d4-4814-bd52-2ebbe8926e69"},"vehicle_type_id":"4","last_reported":1736871047,"current_range_meters":37600,"station_id":"chh1huq6cuj3fo74tm60","pricing_plan_id":"cebpf4jnsgd1na2vs0mg"},{"bike_id":"a05bd889-5f47-4435-a653-f868055678ed","system_id":"levelo_inurba_marseille","lat":43.25002,"lon":5.38925,"is_reserved":false,"is_disabled":false,"rental_uris":{"android":"levelo://app?vid=a05bd889-5f47-4435-a653-f868055678ed","ios":"levelo://app?vid=a05bd889-5f47-4435-a653-f868055678ed"},"vehicle_type_id":"4","last_reported":1736871047,"current_range_meters":30800,"station_id":"ce4bhgp2rcd13ifvqfd0","pricing_plan_id":"cebpf4jnsgd1na2vs0mg"},{"bike_id":"b9950577-6bab-48b6-98ff-12c9a1b0be62","system_id":"levelo_inurba_marseille","lat":43.23963,"lon":5.3663,"is_reserved":false,"is_disabled":false,"rental_uris":{"android":"levelo://app?vid=b9950577-6bab-48b6-98ff-12c9a1b0be62","ios":"levelo://app?vid=b9950577-6bab-48b6-98ff-12c9a1b0be62"},"vehicle_type_id":"4","last_reported":1736871047,"current_range_meters":14000,"station_id":"ce4bhi12rcd13ifvqfp0","pricing_plan_id":"cebpf4jnsgd1na2vs0mg"},{"bike_id":"e9482188-e9f9-46f9-a613-ef8ebbea057b","system_id":"levelo_inurba_marseille","lat":43.30772,"lon":5.3766,"is_reserved":false,"is_disabled":false,"rental_uris":{"android":"levelo://app?vid=e9482188-e9f9-46f9-a613-ef8ebbea057b","ios":"levelo://app?vid=e9482188-e9f9-46f9-a613-ef8ebbea057b"},"vehicle_type_id":"4","last_reported":1736871047,"current_range_meters":19200,"station_id":"ce4bgv92rcd13ifvqcq0","pricing_plan_id":"cebpf4jnsgd1na2vs0mg"},{"bike_id":"84461994-c85c-43f1-81ec-802635297144","system_id":"levelo_inurba_marseille","lat":43.28702,"lon":5.37388,"is_reserved":false,"is_disabled":false,"rental_uris":{"android":"levelo://app?vid=84461994-c85c-43f1-81ec-802635297144","ios":"levelo://app?vid=84461994-c85c-43f1-81ec-802635297144"},"vehicle_type_id":"4","last_reported":1736871047,"current_range_meters":22800,"station_id":"ce4bh3p2rcd13ifvqdq0","pricing_plan_id":"cebpf4jnsgd1na2vs0mg"},{"bike_id":"ebc3987c-56a4-4f31-8c7b-d4f7d5ee23e1","system_id":"levelo_inurba_marseille","lat":43.29603,"lon":5.38093,"is_reserved":false,"is_disabled":false,"rental_uris":{"android":"levelo://app?vid=ebc3987c-56a4-4f31-8c7b-d4f7d5ee23e1","ios":"levelo://app?vid=ebc3987c-56a4-4f31-8c7b-d4f7d5ee23e1"},"vehicle_type_id":"4","last_reported":1736871047,"current_range_meters":38800,"station_id":"ce4bgl12rcd13ifvqbo0","pricing_plan_id":"cebpf4jnsgd1na2vs0mg"},{"bike_id":"6d2e54c1-0c27-453e-88d9-6d899bdc3cfc","system_id":"levelo_inurba_marseille","lat":43.2678,"lon":5.39418,"is_reserved":false,"is_disabled":false,"rental_uris":{"android":"levelo://app?vid=6d2e54c1-0c27-453e-88d9-6d899bdc3cfc","ios":"levelo://app?vid=6d2e54c1-0c27-453e-88d9-6d899bdc3cfc"},"vehicle_type_id":"4","last_reported":1736871047,"current_range_meters":6400,"station_id":"ce4bhh12rcd13ifvqfg0","pricing_plan_id":"cebpf4jnsgd1na2vs0mg"},{"bike_id":"459b984b-aad6-4168-b1ed-af37ab6c9466","system_id":"levelo_inurba_marseille","lat":43.29619,"lon":5.37161,"is_reserved":false,"is_disabled":false,"rental_uris":{"android":"levelo://app?vid=459b984b-aad6-4168-b1ed-af37ab6c9466","ios":"levelo://app?vid=459b984b-aad6-4168-b1ed-af37ab6c9466"},"vehicle_type_id":"4","last_reported":1736871047,"current_range_meters":20400,"station_id":"ce4bgnh2rcd13ifvqc0g","pricing_plan_id":"cebpf4jnsgd1na2vs0mg"},{"bike_id":"22ac1234-0178-4f8b-ac6c-ba87658c545c","system_id":"levelo_inurba_marseille","lat":43.28842,"lon":5.35851,"is_reserved":false,"is_disabled":false,"rental_uris":{"android":"levelo://app?vid=22ac1234-0178-4f8b-ac6c-ba87658c545c","ios":"levelo://app?vid=22ac1234-0178-4f8b-ac6c-ba87658c545c"},"vehicle_type_id":"4","last_reported":1736871047,"current_range_meters":38800,"station_id":"ce4bhb12rcd13ifvqem0","pricing_plan_id":"cebpf4jnsgd1na2vs0mg"},{"bike_id":"eaab1b00-64ea-4375-99df-db172fb0e2ca","system_id":"levelo_inurba_marseille","lat":43.28562,"lon":5.39494,"is_reserved":false,"is_disabled":false,"rental_uris":{"android":"levelo://app?vid=eaab1b00-64ea-4375-99df-db172fb0e2ca","ios":"levelo://app?vid=eaab1b00-64ea-4375-99df-db172fb0e2ca"},"vehicle_type_id":"4","last_reported":1736871047,"current_range_meters":38800,"station_id":"ce4bh292rcd13ifvqdg0","pricing_plan_id":"cebpf4jnsgd1na2vs0mg"},{"bike_id":"a402044d-1041-4786-a63f-9d18af3bc82f","system_id":"levelo_inurba_marseille","lat":43.24162,"lon":5.36398,"is_reserved":false,"is_disabled":false,"rental_uris":{"android":"levelo://app?vid=a402044d-1041-4786-a63f-9d18af3bc82f","ios":"levelo://app?vid=a402044d-1041-4786-a63f-9d18af3bc82f"},"vehicle_type_id":"4","last_reported":1736871047,"current_range_meters":38800,"station_id":"cpo36qri1sfpv3e86is0","pricing_plan_id":"cebpf4jnsgd1na2vs0mg"},{"bike_id":"2116129f-3fa3-49d5-bbfd-29ee096160e6","system_id":"levelo_inurba_marseille","lat":43.30322,"lon":5.40439,"is_reserved":false,"is_disabled":false,"rental_uris":{"android":"levelo://app?vid=2116129f-3fa3-49d5-bbfd-29ee096160e6","ios":"levelo://app?vid=2116129f-3fa3-49d5-bbfd-29ee096160e6"},"vehicle_type_id":"4","last_reported":1736871047,"current_range_meters":39200,"station_id":"ce4bh012rcd13ifvqd10","pricing_plan_id":"cebpf4jnsgd1na2vs0mg"},{"bike_id":"6b93b291-0b00-4b9e-bfd0-9bfc27cb6c48","system_id":"levelo_inurba_marseille","lat":43.26197,"lon":5.37457,"is_reserved":false,"is_disabled":false,"rental_uris":{"android":"levelo://app?vid=6b93b291-0b00-4b9e-bfd0-9bfc27cb6c48","ios":"levelo://app?vid=6b93b291-0b00-4b9e-bfd0-9bfc27cb6c48"},"vehicle_type_id":"4","last_reported":1736871047,"current_range_meters":31200,"station_id":"ce4bhgp2rcd13ifvqfc0","pricing_plan_id":"cebpf4jnsgd1na2vs0mg"},{"bike_id":"e3455df3-80ec-4626-b051-9d27b3b0a5a1","system_id":"levelo_inurba_marseille","lat":43.28656,"lon":5.37957,"is_reserved":false,"is_disabled":false,"rental_uris":{"android":"levelo://app?vid=e3455df3-80ec-4626-b051-9d27b3b0a5a1","ios":"levelo://app?vid=e3455df3-80ec-4626-b051-9d27b3b0a5a1"},"vehicle_type_id":"4","last_reported":1736871047,"current_range_meters":37600,"station_id":"","pricing_plan_id":"cebpf4jnsgd1na2vs0mg"},{"bike_id":"aac8885d-98ab-44b5-a5e4-7f098cde586b","system_id":"levelo_inurba_marseille","lat":43.27178,"lon":5.41,"is_reserved":false,"is_disabled":false,"rental_uris":{"android":"levelo://app?vid=aac8885d-98ab-44b5-a5e4-7f098cde586b","ios":"levelo://app?vid=aac8885d-98ab-44b5-a5e4-7f098cde586b"},"vehicle_type_id":"4","last_reported":1736871047,"current_range_meters":38800,"station_id":"ce4bhl12rcd13ifvqgf0","pricing_plan_id":"cebpf4jnsgd1na2vs0mg"},{"bike_id":"c8e997c0-8580-4d0f-8d9f-0766596381e1","system_id":"levelo_inurba_marseille","lat":43.3393,"lon":5.3757,"is_reserved":false,"is_disabled":true,"rental_uris":{"android":"levelo://app?vid=c8e997c0-8580-4d0f-8d9f-0766596381e1","ios":"levelo://app?vid=c8e997c0-8580-4d0f-8d9f-0766596381e1"},"vehicle_type_id":"4","last_reported":1736871047,"current_range_meters":0,"station_id":"","pricing_plan_id":"cebpf4jnsgd1na2vs0mg"},{"bike_id":"48467493-f1c3-4420-8d40-654841396061","system_id":"levelo_inurba_marseille","lat":43.29443,"lon":5.3976,"is_reserved":false,"is_disabled":false,"rental_uris":{"android":"levelo://app?vid=48467493-f1c3-4420-8d40-654841396061","ios":"levelo://app?vid=48467493-f1c3-4420-8d40-654841396061"},"vehicle_type_id":"4","last_reported":1736871047,"current_range_meters":39200,"station_id":"ce4bh3h2rcd13ifvqdo0","pricing_plan_id":"cebpf4jnsgd1na2vs0mg"},{"bike_id":"ba5df164-d25c-4a1c-8679-1bd1a1db0642","system_id":"levelo_inurba_marseille","lat":43.33716,"lon":5.39194,"is_reserved":false,"is_disabled":false,"rental_uris":{"android":"levelo://app?vid=ba5df164-d25c-4a1c-8679-1bd1a1db0642","ios":"levelo://app?vid=ba5df164-d25c-4a1c-8679-1bd1a1db0642"},"vehicle_type_id":"4","last_reported":1736871047,"current_range_meters":35600,"station_id":"ce4bhr92rcd13ifvqhsg","pricing_plan_id":"cebpf4jnsgd1na2vs0mg"},{"bike_id":"9376106c-bfc5-467a-9c08-cbf518bbf309","system_id":"levelo_inurba_marseille","lat":43.28412,"lon":5.37516,"is_reserved":false,"is_disabled":false,"rental_uris":{"android":"levelo://app?vid=9376106c-bfc5-467a-9c08-cbf518bbf309","ios":"levelo://app?vid=9376106c-bfc5-467a-9c08-cbf518bbf309"},"vehicle_type_id":"4","last_reported":1736871047,"current_range_meters":7200,"station_id":"ce4bh412rcd13ifvqds0","pricing_plan_id":"cebpf4jnsgd1na2vs0mg"},{"bike_id":"4b0c9a61-893d-44b2-8f86-22412d13dd7a","system_id":"levelo_inurba_marseille","lat":43.28269,"lon":5.35079,"is_reserved":false,"is_disabled":false,"rental_uris":{"android":"levelo://app?vid=4b0c9a61-893d-44b2-8f86-22412d13dd7a","ios":"levelo://app?vid=4b0c9a61-893d-44b2-8f86-22412d13dd7a"},"vehicle_type_id":"4","last_reported":1736871047,"current_range_meters":38800,"station_id":"ce4bhbp2rcd13ifvqerg","pricing_plan_id":"cebpf4jnsgd1na2vs0mg"},{"bike_id":"d08680f9-fb0f-410f-ba79-4b68883f7ad3","system_id":"levelo_inurba_marseille","lat":43.28607,"lon":5.37063,"is_reserved":false,"is_disabled":false,"rental_uris":{"android":"levelo://app?vid=d08680f9-fb0f-410f-ba79-4b68883f7ad3","ios":"levelo://app?vid=d08680f9-fb0f-410f-ba79-4b68883f7ad3"},"vehicle_type_id":"4","last_reported":1736871047,"current_range_meters":21600,"station_id":"ce4bht12rcd13ifvqi60","pricing_plan_id":"cebpf4jnsgd1na2vs0mg"},{"bike_id":"9ba86b7f-e321-499d-b74f-d3dbafa84621","system_id":"levelo_inurba_marseille","lat":43.27366,"lon":5.36252,"is_reserved":false,"is_disabled":false,"rental_uris":{"android":"levelo://app?vid=9ba86b7f-e321-499d-b74f-d3dbafa84621","ios":"levelo://app?vid=9ba86b7f-e321-499d-b74f-d3dbafa84621"},"vehicle_type_id":"4","last_reported":1736871047,"current_range_meters":28800,"station_id":"ce4bhbh2rcd13ifvqeo0","pricing_plan_id":"cebpf4jnsgd1na2vs0mg"},{"bike_id":"fcf657b7-ae88-43f1-95ea-fa7cdf562f15","system_id":"levelo_inurba_marseille","lat":43.31485,"lon":5.37307,"is_reserved":false,"is_disabled":false,"rental_uris":{"android":"levelo://app?vid=fcf657b7-ae88-43f1-95ea-fa7cdf562f15","ios":"levelo://app?vid=fcf657b7-ae88-43f1-95ea-fa7cdf562f15"},"vehicle_type_id":"4","last_reported":1736871047,"current_range_meters":37600,"station_id":"ce4bgt12rcd13ifvqcd0","pricing_plan_id":"cebpf4jnsgd1na2vs0mg"},{"bike_id":"1f61c907-db78-415e-895b-a466f64bef68","system_id":"levelo_inurba_marseille","lat":43.29621,"lon":5.37173,"is_reserved":false,"is_disabled":false,"rental_uris":{"android":"levelo://app?vid=1f61c907-db78-415e-895b-a466f64bef68","ios":"levelo://app?vid=1f61c907-db78-415e-895b-a466f64bef68"},"vehicle_type_id":"4","last_reported":1736871047,"current_range_meters":20800,"station_id":"ce4bgnh2rcd13ifvqc0g","pricing_plan_id":"cebpf4jnsgd1na2vs0mg"},{"bike_id":"ea68ea87-e434-4b70-b982-5138d2b21a79","system_id":"levelo_inurba_marseille","lat":43.29903,"lon":5.37469,"is_reserved":false,"is_disabled":false,"rental_uris":{"android":"levelo://app?vid=ea68ea87-e434-4b70-b982-5138d2b21a79","ios":"levelo://app?vid=ea68ea87-e434-4b70-b982-5138d2b21a79"},"vehicle_type_id":"4","last_reported":1736871047,"current_range_meters":28000,"station_id":"ce4bgjh2rcd13ifvqbg0","pricing_plan_id":"cebpf4jnsgd1na2vs0mg"},{"bike_id":"51a8a397-8df1-439d-896b-aacedcbf64d3","system_id":"levelo_inurba_marseille","lat":43.30639,"lon":5.38167,"is_reserved":false,"is_disabled":false,"rental_uris":{"android":"levelo://app?vid=51a8a397-8df1-439d-896b-aacedcbf64d3","ios":"levelo://app?vid=51a8a397-8df1-439d-896b-aacedcbf64d3"},"vehicle_type_id":"4","last_reported":1736871047,"current_range_meters":26000,"station_id":"","pricing_plan_id":"cebpf4jnsgd1na2vs0mg"},{"bike_id":"59d914a9-7941-4d0c-ad3f-66ae0befc663","system_id":"levelo_inurba_marseille","lat":43.28033,"lon":5.36955,"is_reserved":false,"is_disabled":false,"rental_uris":{"android":"levelo://app?vid=59d914a9-7941-4d0c-ad3f-66ae0befc663","ios":"levelo://app?vid=59d914a9-7941-4d0c-ad3f-66ae0befc663"},"vehicle_type_id":"4","last_reported":1736871047,"current_range_meters":7200,"station_id":"ce4bha12rcd13ifvqef0","pricing_plan_id":"cebpf4jnsgd1na2vs0mg"},{"bike_id":"e9ddb0fd-25b5-4380-b7cd-6db0463f30c2","system_id":"levelo_inurba_marseille","lat":43.25576,"lon":5.38238,"is_reserved":false,"is_disabled":false,"rental_uris":{"android":"levelo://app?vid=e9ddb0fd-25b5-4380-b7cd-6db0463f30c2","ios":"levelo://app?vid=e9ddb0fd-25b5-4380-b7cd-6db0463f30c2"},"vehicle_type_id":"4","last_reported":1736871047,"current_range_meters":11600,"station_id":"ce4bhih2rcd13ifvqfs0","pricing_plan_id":"cebpf4jnsgd1na2vs0mg"},{"bike_id":"426ee80e-06b0-4d0f-86a5-ea8ad64aaa11","system_id":"levelo_inurba_marseille","lat":43.28886,"lon":5.43799,"is_reserved":false,"is_disabled":false,"rental_uris":{"android":"levelo://app?vid=426ee80e-06b0-4d0f-86a5-ea8ad64aaa11","ios":"levelo://app?vid=426ee80e-06b0-4d0f-86a5-ea8ad64aaa11"},"vehicle_type_id":"4","last_reported":1736871047,"current_range_meters":4800,"station_id":"","pricing_plan_id":"cebpf4jnsgd1na2vs0mg"},{"bike_id":"cce4e8ea-a756-4aed-9f53-43087ec0ee4d","system_id":"levelo_inurba_marseille","lat":43.30648,"lon":5.40074,"is_reserved":false,"is_disabled":false,"rental_uris":{"android":"levelo://app?vid=cce4e8ea-a756-4aed-9f53-43087ec0ee4d","ios":"levelo://app?vid=cce4e8ea-a756-4aed-9f53-43087ec0ee4d"},"vehicle_type_id":"4","last_reported":1736871047,"current_range_meters":38800,"station_id":"ce4bh112rcd13ifvqda0","pricing_plan_id":"cebpf4jnsgd1na2vs0mg"},{"bike_id":"192943ff-6579-4067-8b54-834fbf6d8760","system_id":"levelo_inurba_marseille","lat":43.27621,"lon":5.36123,"is_reserved":false,"is_disabled":false,"rental_uris":{"android":"levelo://app?vid=192943ff-6579-4067-8b54-834fbf6d8760","ios":"levelo://app?vid=192943ff-6579-4067-8b54-834fbf6d8760"},"vehicle_type_id":"4","last_reported":1736871047,"current_range_meters":38800,"station_id":"ce4bgj92rcd13ifvqbe0","pricing_plan_id":"cebpf4jnsgd1na2vs0mg"},{"bike_id":"fea1b24d-bbfb-474a-b028-8645483cd7e6","system_id":"levelo_inurba_marseille","lat":43.27375,"lon":5.36238,"is_reserved":false,"is_disabled":true,"rental_uris":{"android":"levelo://app?vid=fea1b24d-bbfb-474a-b028-8645483cd7e6","ios":"levelo://app?vid=fea1b24d-bbfb-474a-b028-8645483cd7e6"},"vehicle_type_id":"4","last_reported":1736871047,"current_range_meters":0,"station_id":"ce4bhbh2rcd13ifvqeo0","pricing_plan_id":"cebpf4jnsgd1na2vs0mg"},{"bike_id":"53bddfd5-8eca-4bd7-8e12-0305c19464d8","system_id":"levelo_inurba_marseille","lat":43.28025,"lon":5.36944,"is_reserved":false,"is_disabled":false,"rental_uris":{"android":"levelo://app?vid=53bddfd5-8eca-4bd7-8e12-0305c19464d8","ios":"levelo://app?vid=53bddfd5-8eca-4bd7-8e12-0305c19464d8"},"vehicle_type_id":"4","last_reported":1736871047,"current_range_meters":38000,"station_id":"ce4bha12rcd13ifvqef0","pricing_plan_id":"cebpf4jnsgd1na2vs0mg"},{"bike_id":"35308051-0024-4acc-857e-6a6380a237b9","system_id":"levelo_inurba_marseille","lat":43.29533,"lon":5.375329,"is_reserved":false,"is_disabled":false,"rental_uris":{"android":"levelo://app?vid=35308051-0024-4acc-857e-6a6380a237b9","ios":"levelo://app?vid=35308051-0024-4acc-857e-6a6380a237b9"},"vehicle_type_id":"4","last_reported":1736871047,"current_range_meters":38800,"station_id":"ce4bgkp2rcd13ifvqbmg","pricing_plan_id":"cebpf4jnsgd1na2vs0mg"},{"bike_id":"c0c28c2a-168a-40f0-bd78-2ea6392233b5","system_id":"levelo_inurba_marseille","lat":43.28664,"lon":5.36347,"is_reserved":false,"is_disabled":false,"rental_uris":{"android":"levelo://app?vid=c0c28c2a-168a-40f0-bd78-2ea6392233b5","ios":"levelo://app?vid=c0c28c2a-168a-40f0-bd78-2ea6392233b5"},"vehicle_type_id":"4","last_reported":1736871047,"current_range_meters":38800,"station_id":"ce4bhah2rcd13ifvqej0","pricing_plan_id":"cebpf4jnsgd1na2vs0mg"},{"bike_id":"7623cf4f-d7dc-4fc7-ba2e-e6dd90916139","system_id":"levelo_inurba_marseille","lat":43.31679,"lon":5.40469,"is_reserved":false,"is_disabled":false,"rental_uris":{"android":"levelo://app?vid=7623cf4f-d7dc-4fc7-ba2e-e6dd90916139","ios":"levelo://app?vid=7623cf4f-d7dc-4fc7-ba2e-e6dd90916139"},"vehicle_type_id":"4","last_reported":1736871047,"current_range_meters":8400,"station_id":"ce4bh012rcd13ifvqd00","pricing_plan_id":"cebpf4jnsgd1na2vs0mg"},{"bike_id":"8b70f14b-f49b-4c98-8c4b-a91bfe8ab423","system_id":"levelo_inurba_marseille","lat":43.30324,"lon":5.40445,"is_reserved":false,"is_disabled":false,"rental_uris":{"android":"levelo://app?vid=8b70f14b-f49b-4c98-8c4b-a91bfe8ab423","ios":"levelo://app?vid=8b70f14b-f49b-4c98-8c4b-a91bfe8ab423"},"vehicle_type_id":"4","last_reported":1736871047,"current_range_meters":18800,"station_id":"ce4bh012rcd13ifvqd10","pricing_plan_id":"cebpf4jnsgd1na2vs0mg"},{"bike_id":"1774f8b0-c7aa-4f17-81a0-ace9f349859b","system_id":"levelo_inurba_marseille","lat":43.29621,"lon":5.37152,"is_reserved":false,"is_disabled":false,"rental_uris":{"android":"levelo://app?vid=1774f8b0-c7aa-4f17-81a0-ace9f349859b","ios":"levelo://app?vid=1774f8b0-c7aa-4f17-81a0-ace9f349859b"},"vehicle_type_id":"4","last_reported":1736871047,"current_range_meters":38800,"station_id":"ce4bgnh2rcd13ifvqc0g","pricing_plan_id":"cebpf4jnsgd1na2vs0mg"},{"bike_id":"33948cef-159b-4075-a8c4-dd4eee89856a","system_id":"levelo_inurba_marseille","lat":43.23182,"lon":5.39976,"is_reserved":false,"is_disabled":false,"rental_uris":{"android":"levelo://app?vid=33948cef-159b-4075-a8c4-dd4eee89856a","ios":"levelo://app?vid=33948cef-159b-4075-a8c4-dd4eee89856a"},"vehicle_type_id":"4","last_reported":1736871047,"current_range_meters":27200,"station_id":"ce4bhn12rcd13ifvqgqg","pricing_plan_id":"cebpf4jnsgd1na2vs0mg"},{"bike_id":"39287f93-1476-4515-8f0b-9add0b339e9c","system_id":"levelo_inurba_marseille","lat":43.28445,"lon":5.3919,"is_reserved":false,"is_disabled":false,"rental_uris":{"android":"levelo://app?vid=39287f93-1476-4515-8f0b-9add0b339e9c","ios":"levelo://app?vid=39287f93-1476-4515-8f0b-9add0b339e9c"},"vehicle_type_id":"4","last_reported":1736871047,"current_range_meters":3200,"station_id":"ce4bhoh2rcd13ifvqh5g","pricing_plan_id":"cebpf4jnsgd1na2vs0mg"},{"bike_id":"d0f773a7-6f14-46a4-b946-d81e5ce68fbf","system_id":"levelo_inurba_marseille","lat":43.29226,"lon":5.36069,"is_reserved":false,"is_disabled":false,"rental_uris":{"android":"levelo://app?vid=d0f773a7-6f14-46a4-b946-d81e5ce68fbf","ios":"levelo://app?vid=d0f773a7-6f14-46a4-b946-d81e5ce68fbf"},"vehicle_type_id":"4","last_reported":1736871047,"current_range_meters":19600,"station_id":"ce4bhbh2rcd13ifvqeqg","pricing_plan_id":"cebpf4jnsgd1na2vs0mg"},{"bike_id":"1d37a48c-0236-4a29-9375-938bee5010f5","system_id":"levelo_inurba_marseille","lat":43.27994,"lon":5.41661,"is_reserved":false,"is_disabled":false,"rental_uris":{"android":"levelo://app?vid=1d37a48c-0236-4a29-9375-938bee5010f5","ios":"levelo://app?vid=1d37a48c-0236-4a29-9375-938bee5010f5"},"vehicle_type_id":"4","last_reported":1736871047,"current_range_meters":19600,"station_id":"ce4bho12rcd13ifvqh1g","pricing_plan_id":"cebpf4jnsgd1na2vs0mg"},{"bike_id":"9f6f071c-7c59-4d08-9963-df26a1256e44","system_id":"levelo_inurba_marseille","lat":43.24641,"lon":5.38909,"is_reserved":false,"is_disabled":false,"rental_uris":{"android":"levelo://app?vid=9f6f071c-7c59-4d08-9963-df26a1256e44","ios":"levelo://app?vid=9f6f071c-7c59-4d08-9963-df26a1256e44"},"vehicle_type_id":"4","last_reported":1736871047,"current_range_meters":38800,"station_id":"ce4bhg12rcd13ifvqf60","pricing_plan_id":"cebpf4jnsgd1na2vs0mg"},{"bike_id":"83204fff-eb0c-4568-90c2-0594283aae9e","system_id":"levelo_inurba_marseille","lat":43.29034,"lon":5.37565,"is_reserved":false,"is_disabled":false,"rental_uris":{"android":"levelo://app?vid=83204fff-eb0c-4568-90c2-0594283aae9e","ios":"levelo://app?vid=83204fff-eb0c-4568-90c2-0594283aae9e"},"vehicle_type_id":"4","last_reported":1736871047,"current_range_meters":24400,"station_id":"ce4bh692rcd13ifvqe90","pricing_plan_id":"cebpf4jnsgd1na2vs0mg"},{"bike_id":"d3b11e01-7152-4baf-ab7f-385f8141146b","system_id":"levelo_inurba_marseille","lat":43.24802,"lon":5.3745,"is_reserved":false,"is_disabled":false,"rental_uris":{"android":"levelo://app?vid=d3b11e01-7152-4baf-ab7f-385f8141146b","ios":"levelo://app?vid=d3b11e01-7152-4baf-ab7f-385f8141146b"},"vehicle_type_id":"4","last_reported":1736871047,"current_range_meters":19600,"station_id":"ce4bhgh2rcd13ifvqfb0","pricing_plan_id":"cebpf4jnsgd1na2vs0mg"},{"bike_id":"069c5426-8d4a-47dd-a73c-d2a8d7aa0839","system_id":"levelo_inurba_marseille","lat":43.28563,"lon":5.39494,"is_reserved":false,"is_disabled":false,"rental_uris":{"android":"levelo://app?vid=069c5426-8d4a-47dd-a73c-d2a8d7aa0839","ios":"levelo://app?vid=069c5426-8d4a-47dd-a73c-d2a8d7aa0839"},"vehicle_type_id":"4","last_reported":1736871047,"current_range_meters":19600,"station_id":"ce4bh292rcd13ifvqdg0","pricing_plan_id":"cebpf4jnsgd1na2vs0mg"},{"bike_id":"5fb3f033-f227-4a16-8501-98b0bcd8d597","system_id":"levelo_inurba_marseille","lat":43.32653,"lon":5.4099,"is_reserved":false,"is_disabled":false,"rental_uris":{"android":"levelo://app?vid=5fb3f033-f227-4a16-8501-98b0bcd8d597","ios":"levelo://app?vid=5fb3f033-f227-4a16-8501-98b0bcd8d597"},"vehicle_type_id":"4","last_reported":1736871047,"current_range_meters":29600,"station_id":"ce4bhpp2rcd13ifvqhgg","pricing_plan_id":"cebpf4jnsgd1na2vs0mg"},{"bike_id":"755e5c0a-8de7-4ee5-9d4e-5ec609711170","system_id":"levelo_inurba_marseille","lat":43.29601,"lon":5.38083,"is_reserved":false,"is_disabled":true,"rental_uris":{"android":"levelo://app?vid=755e5c0a-8de7-4ee5-9d4e-5ec609711170","ios":"levelo://app?vid=755e5c0a-8de7-4ee5-9d4e-5ec609711170"},"vehicle_type_id":"4","last_reported":1736871047,"current_range_meters":30400,"station_id":"ce4bgl12rcd13ifvqbo0","pricing_plan_id":"cebpf4jnsgd1na2vs0mg"},{"bike_id":"3ab941e6-aa25-467b-84c5-d1e99de65bf8","system_id":"levelo_inurba_marseille","lat":43.255,"lon":5.37651,"is_reserved":false,"is_disabled":false,"rental_uris":{"android":"levelo://app?vid=3ab941e6-aa25-467b-84c5-d1e99de65bf8","ios":"levelo://app?vid=3ab941e6-aa25-467b-84c5-d1e99de65bf8"},"vehicle_type_id":"4","last_reported":1736871047,"current_range_meters":16000,"station_id":"ce4bhh12rcd13ifvqff0","pricing_plan_id":"cebpf4jnsgd1na2vs0mg"},{"bike_id":"a15980ac-c225-4e68-8982-6cc8c4cbfd79","system_id":"levelo_inurba_marseille","lat":43.23191,"lon":5.3555,"is_reserved":false,"is_disabled":false,"rental_uris":{"android":"levelo://app?vid=a15980ac-c225-4e68-8982-6cc8c4cbfd79","ios":"levelo://app?vid=a15980ac-c225-4e68-8982-6cc8c4cbfd79"},"vehicle_type_id":"4","last_reported":1736871047,"current_range_meters":38800,"station_id":"ce4bhu92rcd13ifvqi70","pricing_plan_id":"cebpf4jnsgd1na2vs0mg"},{"bike_id":"d7f0830c-5530-43f2-b9c3-f21062dddc83","system_id":"levelo_inurba_marseille","lat":43.29565,"lon":5.39973,"is_reserved":false,"is_disabled":false,"rental_uris":{"android":"levelo://app?vid=d7f0830c-5530-43f2-b9c3-f21062dddc83","ios":"levelo://app?vid=d7f0830c-5530-43f2-b9c3-f21062dddc83"},"vehicle_type_id":"4","last_reported":1736871047,"current_range_meters":33600,"station_id":"ce4bh312rcd13ifvqdj0","pricing_plan_id":"cebpf4jnsgd1na2vs0mg"},{"bike_id":"665d259b-317d-40f1-b909-db8fa31f6b35","system_id":"levelo_inurba_marseille","lat":43.28431,"lon":5.39195,"is_reserved":false,"is_disabled":false,"rental_uris":{"android":"levelo://app?vid=665d259b-317d-40f1-b909-db8fa31f6b35","ios":"levelo://app?vid=665d259b-317d-40f1-b909-db8fa31f6b35"},"vehicle_type_id":"4","last_reported":1736871047,"current_range_meters":33600,"station_id":"ce4bhoh2rcd13ifvqh5g","pricing_plan_id":"cebpf4jnsgd1na2vs0mg"},{"bike_id":"65b13dae-d341-423f-b98d-fcb13c9a1734","system_id":"levelo_inurba_marseille","lat":43.28151,"lon":5.42645,"is_reserved":false,"is_disabled":false,"rental_uris":{"android":"levelo://app?vid=65b13dae-d341-423f-b98d-fcb13c9a1734","ios":"levelo://app?vid=65b13dae-d341-423f-b98d-fcb13c9a1734"},"vehicle_type_id":"4","last_reported":1736871047,"current_range_meters":32000,"station_id":"ce4bhnh2rcd13ifvqgug","pricing_plan_id":"cebpf4jnsgd1na2vs0mg"},{"bike_id":"1553599e-6810-4423-9490-79f154d8a962","system_id":"levelo_inurba_marseille","lat":43.29728,"lon":5.3769,"is_reserved":false,"is_disabled":false,"rental_uris":{"android":"levelo://app?vid=1553599e-6810-4423-9490-79f154d8a962","ios":"levelo://app?vid=1553599e-6810-4423-9490-79f154d8a962"},"vehicle_type_id":"4","last_reported":1736871047,"current_range_meters":27600,"station_id":"ce4bgkh2rcd13ifvqbl0","pricing_plan_id":"cebpf4jnsgd1na2vs0mg"},{"bike_id":"3f404148-f2c7-44b8-a466-977741fe2f8d","system_id":"levelo_inurba_marseille","lat":43.279153,"lon":5.395773,"is_reserved":false,"is_disabled":false,"rental_uris":{"android":"levelo://app?vid=3f404148-f2c7-44b8-a466-977741fe2f8d","ios":"levelo://app?vid=3f404148-f2c7-44b8-a466-977741fe2f8d"},"vehicle_type_id":"4","last_reported":1736871047,"current_range_meters":28400,"station_id":"ce4bhf92rcd13ifvqf40","pricing_plan_id":"cebpf4jnsgd1na2vs0mg"},{"bike_id":"51bb6953-dea8-4e82-96bf-52696267905f","system_id":"levelo_inurba_marseille","lat":43.23062,"lon":5.35496,"is_reserved":false,"is_disabled":false,"rental_uris":{"android":"levelo://app?vid=51bb6953-dea8-4e82-96bf-52696267905f","ios":"levelo://app?vid=51bb6953-dea8-4e82-96bf-52696267905f"},"vehicle_type_id":"4","last_reported":1736871047,"current_range_meters":8400,"station_id":"cpo3342slgdg3j2ifvpg","pricing_plan_id":"cebpf4jnsgd1na2vs0mg"},{"bike_id":"b4d2fb64-79fe-432f-80df-64b6718d9f84","system_id":"levelo_inurba_marseille","lat":43.246411,"lon":5.38892,"is_reserved":false,"is_disabled":false,"rental_uris":{"android":"levelo://app?vid=b4d2fb64-79fe-432f-80df-64b6718d9f84","ios":"levelo://app?vid=b4d2fb64-79fe-432f-80df-64b6718d9f84"},"vehicle_type_id":"4","last_reported":1736871047,"current_range_meters":6400,"station_id":"ce4bhg12rcd13ifvqf60","pricing_plan_id":"cebpf4jnsgd1na2vs0mg"},{"bike_id":"eed58033-fa47-4e42-ac28-5d945be79d6b","system_id":"levelo_inurba_marseille","lat":43.28413,"lon":5.3752,"is_reserved":false,"is_disabled":false,"rental_uris":{"android":"levelo://app?vid=eed58033-fa47-4e42-ac28-5d945be79d6b","ios":"levelo://app?vid=eed58033-fa47-4e42-ac28-5d945be79d6b"},"vehicle_type_id":"4","last_reported":1736871047,"current_range_meters":32400,"station_id":"ce4bh412rcd13ifvqds0","pricing_plan_id":"cebpf4jnsgd1na2vs0mg"},{"bike_id":"90cb212b-4e63-4dee-beed-1b9e172f9bf0","system_id":"levelo_inurba_marseille","lat":43.30642,"lon":5.40065,"is_reserved":false,"is_disabled":false,"rental_uris":{"android":"levelo://app?vid=90cb212b-4e63-4dee-beed-1b9e172f9bf0","ios":"levelo://app?vid=90cb212b-4e63-4dee-beed-1b9e172f9bf0"},"vehicle_type_id":"4","last_reported":1736871047,"current_range_meters":37600,"station_id":"ce4bh112rcd13ifvqda0","pricing_plan_id":"cebpf4jnsgd1na2vs0mg"},{"bike_id":"8c59d97d-1fb9-468f-b517-96f05e422550","system_id":"levelo_inurba_marseille","lat":43.29792,"lon":5.38105,"is_reserved":false,"is_disabled":false,"rental_uris":{"android":"levelo://app?vid=8c59d97d-1fb9-468f-b517-96f05e422550","ios":"levelo://app?vid=8c59d97d-1fb9-468f-b517-96f05e422550"},"vehicle_type_id":"4","last_reported":1736871047,"current_range_meters":35200,"station_id":"ce4bgip2rcd13ifvqbb0","pricing_plan_id":"cebpf4jnsgd1na2vs0mg"},{"bike_id":"3949fb0a-4091-4b98-b55c-cd98f515ad82","system_id":"levelo_inurba_marseille","lat":43.29273,"lon":5.36848,"is_reserved":false,"is_disabled":false,"rental_uris":{"android":"levelo://app?vid=3949fb0a-4091-4b98-b55c-cd98f515ad82","ios":"levelo://app?vid=3949fb0a-4091-4b98-b55c-cd98f515ad82"},"vehicle_type_id":"4","last_reported":1736871047,"current_range_meters":14000,"station_id":"ce4bhbp2rcd13ifvqesg","pricing_plan_id":"cebpf4jnsgd1na2vs0mg"},{"bike_id":"399477ae-0fdc-4fd6-a2ff-431430209881","system_id":"levelo_inurba_marseille","lat":43.25578,"lon":5.38235,"is_reserved":false,"is_disabled":false,"rental_uris":{"android":"levelo://app?vid=399477ae-0fdc-4fd6-a2ff-431430209881","ios":"levelo://app?vid=399477ae-0fdc-4fd6-a2ff-431430209881"},"vehicle_type_id":"4","last_reported":1736871047,"current_range_meters":6800,"station_id":"ce4bhih2rcd13ifvqfs0","pricing_plan_id":"cebpf4jnsgd1na2vs0mg"},{"bike_id":"ff72e976-1c75-4776-867b-f0f6a0ccfc1b","system_id":"levelo_inurba_marseille","lat":43.24815,"lon":5.37448,"is_reserved":false,"is_disabled":false,"rental_uris":{"android":"levelo://app?vid=ff72e976-1c75-4776-867b-f0f6a0ccfc1b","ios":"levelo://app?vid=ff72e976-1c75-4776-867b-f0f6a0ccfc1b"},"vehicle_type_id":"4","last_reported":1736871047,"current_range_meters":7200,"station_id":"ce4bhgh2rcd13ifvqfb0","pricing_plan_id":"cebpf4jnsgd1na2vs0mg"},{"bike_id":"56a37990-c381-414a-8c27-59f20eae88ce","system_id":"levelo_inurba_marseille","lat":43.25008,"lon":5.38937,"is_reserved":false,"is_disabled":false,"rental_uris":{"android":"levelo://app?vid=56a37990-c381-414a-8c27-59f20eae88ce","ios":"levelo://app?vid=56a37990-c381-414a-8c27-59f20eae88ce"},"vehicle_type_id":"4","last_reported":1736871047,"current_range_meters":38800,"station_id":"ce4bhgp2rcd13ifvqfd0","pricing_plan_id":"cebpf4jnsgd1na2vs0mg"},{"bike_id":"b328758c-1306-4f48-9fa3-7f9b48fccfe1","system_id":"levelo_inurba_marseille","lat":43.23191,"lon":5.39984,"is_reserved":false,"is_disabled":false,"rental_uris":{"android":"levelo://app?vid=b328758c-1306-4f48-9fa3-7f9b48fccfe1","ios":"levelo://app?vid=b328758c-1306-4f48-9fa3-7f9b48fccfe1"},"vehicle_type_id":"4","last_reported":1736871047,"current_range_meters":18000,"station_id":"ce4bhn12rcd13ifvqgqg","pricing_plan_id":"cebpf4jnsgd1na2vs0mg"},{"bike_id":"a56bdef2-14b8-4e02-b3bc-538917283971","system_id":"levelo_inurba_marseille","lat":43.250869,"lon":5.395165,"is_reserved":false,"is_disabled":false,"rental_uris":{"android":"levelo://app?vid=a56bdef2-14b8-4e02-b3bc-538917283971","ios":"levelo://app?vid=a56bdef2-14b8-4e02-b3bc-538917283971"},"vehicle_type_id":"4","last_reported":1736871047,"current_range_meters":30800,"station_id":"ce4bhm12rcd13ifvqgkg","pricing_plan_id":"cebpf4jnsgd1na2vs0mg"},{"bike_id":"468cb0ef-14fa-4b27-9392-6215c8db4397","system_id":"levelo_inurba_marseille","lat":43.28275,"lon":5.35079,"is_reserved":false,"is_disabled":false,"rental_uris":{"android":"levelo://app?vid=468cb0ef-14fa-4b27-9392-6215c8db4397","ios":"levelo://app?vid=468cb0ef-14fa-4b27-9392-6215c8db4397"},"vehicle_type_id":"4","last_reported":1736871047,"current_range_meters":34800,"station_id":"ce4bhbp2rcd13ifvqerg","pricing_plan_id":"cebpf4jnsgd1na2vs0mg"},{"bike_id":"d677a909-27ad-4353-b4cf-7fba66a9d9f6","system_id":"levelo_inurba_marseille","lat":43.26558,"lon":5.37308,"is_reserved":false,"is_disabled":false,"rental_uris":{"android":"levelo://app?vid=d677a909-27ad-4353-b4cf-7fba66a9d9f6","ios":"levelo://app?vid=d677a909-27ad-4353-b4cf-7fba66a9d9f6"},"vehicle_type_id":"4","last_reported":1736871047,"current_range_meters":19600,"station_id":"ce4bhg12rcd13ifvqf70","pricing_plan_id":"cebpf4jnsgd1na2vs0mg"},{"bike_id":"835aabc0-9c98-4d76-bb79-380bc69b249f","system_id":"levelo_inurba_marseille","lat":43.298923,"lon":5.436621,"is_reserved":false,"is_disabled":false,"rental_uris":{"android":"levelo://app?vid=835aabc0-9c98-4d76-bb79-380bc69b249f","ios":"levelo://app?vid=835aabc0-9c98-4d76-bb79-380bc69b249f"},"vehicle_type_id":"4","last_reported":1736871047,"current_range_meters":23200,"station_id":"ce4bhpp2rcd13ifvqhfg","pricing_plan_id":"cebpf4jnsgd1na2vs0mg"},{"bike_id":"b51b8509-c21e-40ac-802b-edd56e55cdd0","system_id":"levelo_inurba_marseille","lat":43.30365,"lon":5.41899,"is_reserved":false,"is_disabled":true,"rental_uris":{"android":"levelo://app?vid=b51b8509-c21e-40ac-802b-edd56e55cdd0","ios":"levelo://app?vid=b51b8509-c21e-40ac-802b-edd56e55cdd0"},"vehicle_type_id":"4","last_reported":1736871047,"current_range_meters":20000,"station_id":"ce4bhop2rcd13ifvqh7g","pricing_plan_id":"cebpf4jnsgd1na2vs0mg"},{"bike_id":"2acdbac7-5f78-4dfd-a1a1-90beb93ea510","system_id":"levelo_inurba_marseille","lat":43.29614,"lon":5.37348,"is_reserved":false,"is_disabled":false,"rental_uris":{"android":"levelo://app?vid=2acdbac7-5f78-4dfd-a1a1-90beb93ea510","ios":"levelo://app?vid=2acdbac7-5f78-4dfd-a1a1-90beb93ea510"},"vehicle_type_id":"4","last_reported":1736871047,"current_range_meters":18800,"station_id":"ce4bha12rcd13ifvqee0","pricing_plan_id":"cebpf4jnsgd1na2vs0mg"},{"bike_id":"d030117a-329d-49a3-82e2-e3a7704fa15c","system_id":"levelo_inurba_marseille","lat":43.28269,"lon":5.35074,"is_reserved":false,"is_disabled":false,"rental_uris":{"android":"levelo://app?vid=d030117a-329d-49a3-82e2-e3a7704fa15c","ios":"levelo://app?vid=d030117a-329d-49a3-82e2-e3a7704fa15c"},"vehicle_type_id":"4","last_reported":1736871047,"current_range_meters":24800,"station_id":"ce4bhbp2rcd13ifvqerg","pricing_plan_id":"cebpf4jnsgd1na2vs0mg"},{"bike_id":"11142d85-9381-4882-9436-f396a0a4b6e4","system_id":"levelo_inurba_marseille","lat":43.27812,"lon":5.40716,"is_reserved":false,"is_disabled":false,"rental_uris":{"android":"levelo://app?vid=11142d85-9381-4882-9436-f396a0a4b6e4","ios":"levelo://app?vid=11142d85-9381-4882-9436-f396a0a4b6e4"},"vehicle_type_id":"4","last_reported":1736871047,"current_range_meters":17200,"station_id":"ce4bhnh2rcd13ifvqgtg","pricing_plan_id":"cebpf4jnsgd1na2vs0mg"},{"bike_id":"111be7c2-f906-4453-b3c6-63975cd74396","system_id":"levelo_inurba_marseille","lat":43.28456,"lon":5.35895,"is_reserved":false,"is_disabled":false,"rental_uris":{"android":"levelo://app?vid=111be7c2-f906-4453-b3c6-63975cd74396","ios":"levelo://app?vid=111be7c2-f906-4453-b3c6-63975cd74396"},"vehicle_type_id":"4","last_reported":1736871047,"current_range_meters":24400,"station_id":"ce4bhah2rcd13ifvqei0","pricing_plan_id":"cebpf4jnsgd1na2vs0mg"},{"bike_id":"31ec5fec-f9e3-409a-aebc-9d3841d2b4d3","system_id":"levelo_inurba_marseille","lat":43.29982,"lon":5.37171,"is_reserved":false,"is_disabled":false,"rental_uris":{"android":"levelo://app?vid=31ec5fec-f9e3-409a-aebc-9d3841d2b4d3","ios":"levelo://app?vid=31ec5fec-f9e3-409a-aebc-9d3841d2b4d3"},"vehicle_type_id":"4","last_reported":1736871047,"current_range_meters":28000,"station_id":"ce4bgr92rcd13ifvqc7g","pricing_plan_id":"cebpf4jnsgd1na2vs0mg"},{"bike_id":"578e51db-dc9e-4258-9183-0b0f985ed1c3","system_id":"levelo_inurba_marseille","lat":43.30636,"lon":5.39314,"is_reserved":false,"is_disabled":false,"rental_uris":{"android":"levelo://app?vid=578e51db-dc9e-4258-9183-0b0f985ed1c3","ios":"levelo://app?vid=578e51db-dc9e-4258-9183-0b0f985ed1c3"},"vehicle_type_id":"4","last_reported":1736871047,"current_range_meters":20000,"station_id":"ce4bh392rcd13ifvqdl0","pricing_plan_id":"cebpf4jnsgd1na2vs0mg"},{"bike_id":"1a9f1a12-ccea-4250-ba92-414fdd324d1e","system_id":"levelo_inurba_marseille","lat":43.27314,"lon":5.39099,"is_reserved":false,"is_disabled":false,"rental_uris":{"android":"levelo://app?vid=1a9f1a12-ccea-4250-ba92-414fdd324d1e","ios":"levelo://app?vid=1a9f1a12-ccea-4250-ba92-414fdd324d1e"},"vehicle_type_id":"4","last_reported":1736871047,"current_range_meters":30400,"station_id":"ce4bhgp2rcd13ifvqfe0","pricing_plan_id":"cebpf4jnsgd1na2vs0mg"},{"bike_id":"24017be9-d1a6-4333-9509-641e776c3c03","system_id":"levelo_inurba_marseille","lat":43.24662,"lon":5.38896,"is_reserved":false,"is_disabled":false,"rental_uris":{"android":"levelo://app?vid=24017be9-d1a6-4333-9509-641e776c3c03","ios":"levelo://app?vid=24017be9-d1a6-4333-9509-641e776c3c03"},"vehicle_type_id":"4","last_reported":1736871047,"current_range_meters":39200,"station_id":"ce4bhg12rcd13ifvqf60","pricing_plan_id":"cebpf4jnsgd1na2vs0mg"},{"bike_id":"c9f08eca-288b-44d8-81eb-516b1199b087","system_id":"levelo_inurba_marseille","lat":43.26799,"lon":5.40272,"is_reserved":false,"is_disabled":false,"rental_uris":{"android":"levelo://app?vid=c9f08eca-288b-44d8-81eb-516b1199b087","ios":"levelo://app?vid=c9f08eca-288b-44d8-81eb-516b1199b087"},"vehicle_type_id":"4","last_reported":1736871047,"current_range_meters":29600,"station_id":"ce501612rcd8frsf0b60","pricing_plan_id":"cebpf4jnsgd1na2vs0mg"},{"bike_id":"45324790-abcf-4a91-8b9e-6b7c17eae013","system_id":"levelo_inurba_marseille","lat":43.27356,"lon":5.36242,"is_reserved":false,"is_disabled":false,"rental_uris":{"android":"levelo://app?vid=45324790-abcf-4a91-8b9e-6b7c17eae013","ios":"levelo://app?vid=45324790-abcf-4a91-8b9e-6b7c17eae013"},"vehicle_type_id":"4","last_reported":1736871047,"current_range_meters":4400,"station_id":"ce4bhbh2rcd13ifvqeo0","pricing_plan_id":"cebpf4jnsgd1na2vs0mg"},{"bike_id":"309a8499-b0e7-4da9-8058-34638fc9a025","system_id":"levelo_inurba_marseille","lat":43.25571,"lon":5.38231,"is_reserved":false,"is_disabled":false,"rental_uris":{"android":"levelo://app?vid=309a8499-b0e7-4da9-8058-34638fc9a025","ios":"levelo://app?vid=309a8499-b0e7-4da9-8058-34638fc9a025"},"vehicle_type_id":"4","last_reported":1736871047,"current_range_meters":36000,"station_id":"ce4bhih2rcd13ifvqfs0","pricing_plan_id":"cebpf4jnsgd1na2vs0mg"},{"bike_id":"2e2f0089-0c65-4be6-bb4d-fa87f53f6183","system_id":"levelo_inurba_marseille","lat":43.24803,"lon":5.37451,"is_reserved":false,"is_disabled":true,"rental_uris":{"android":"levelo://app?vid=2e2f0089-0c65-4be6-bb4d-fa87f53f6183","ios":"levelo://app?vid=2e2f0089-0c65-4be6-bb4d-fa87f53f6183"},"vehicle_type_id":"4","last_reported":1736871047,"current_range_meters":1200,"station_id":"ce4bhgh2rcd13ifvqfb0","pricing_plan_id":"cebpf4jnsgd1na2vs0mg"},{"bike_id":"c86bdb7d-ef84-4ca1-93a7-8ad886c79419","system_id":"levelo_inurba_marseille","lat":43.28922,"lon":5.36382,"is_reserved":false,"is_disabled":false,"rental_uris":{"android":"levelo://app?vid=c86bdb7d-ef84-4ca1-93a7-8ad886c79419","ios":"levelo://app?vid=c86bdb7d-ef84-4ca1-93a7-8ad886c79419"},"vehicle_type_id":"4","last_reported":1736871047,"current_range_meters":37600,"station_id":"ce4bhc92rcd13ifvqetg","pricing_plan_id":"cebpf4jnsgd1na2vs0mg"},{"bike_id":"a86fe1f4-7545-4b33-8097-0e91725c0bb3","system_id":"levelo_inurba_marseille","lat":43.32493,"lon":5.36558,"is_reserved":false,"is_disabled":false,"rental_uris":{"android":"levelo://app?vid=a86fe1f4-7545-4b33-8097-0e91725c0bb3","ios":"levelo://app?vid=a86fe1f4-7545-4b33-8097-0e91725c0bb3"},"vehicle_type_id":"4","last_reported":1736871047,"current_range_meters":38800,"station_id":"ce4bhs12rcd13ifvqhvg","pricing_plan_id":"cebpf4jnsgd1na2vs0mg"},{"bike_id":"96288e4c-2217-4363-a43b-27b3c199235a","system_id":"levelo_inurba_marseille","lat":43.28433,"lon":5.392,"is_reserved":false,"is_disabled":false,"rental_uris":{"android":"levelo://app?vid=96288e4c-2217-4363-a43b-27b3c199235a","ios":"levelo://app?vid=96288e4c-2217-4363-a43b-27b3c199235a"},"vehicle_type_id":"4","last_reported":1736871047,"current_range_meters":38400,"station_id":"ce4bhoh2rcd13ifvqh5g","pricing_plan_id":"cebpf4jnsgd1na2vs0mg"},{"bike_id":"938ab24a-3c7e-4359-afe6-a8a3f80b0f56","system_id":"levelo_inurba_marseille","lat":43.32655,"lon":5.4099,"is_reserved":false,"is_disabled":false,"rental_uris":{"android":"levelo://app?vid=938ab24a-3c7e-4359-afe6-a8a3f80b0f56","ios":"levelo://app?vid=938ab24a-3c7e-4359-afe6-a8a3f80b0f56"},"vehicle_type_id":"4","last_reported":1736871047,"current_range_meters":35600,"station_id":"ce4bhpp2rcd13ifvqhgg","pricing_plan_id":"cebpf4jnsgd1na2vs0mg"},{"bike_id":"2f6e45dc-8b02-48ec-829a-2aee59c930e5","system_id":"levelo_inurba_marseille","lat":43.25583,"lon":5.38224,"is_reserved":false,"is_disabled":false,"rental_uris":{"android":"levelo://app?vid=2f6e45dc-8b02-48ec-829a-2aee59c930e5","ios":"levelo://app?vid=2f6e45dc-8b02-48ec-829a-2aee59c930e5"},"vehicle_type_id":"4","last_reported":1736871047,"current_range_meters":28400,"station_id":"ce4bhih2rcd13ifvqfs0","pricing_plan_id":"cebpf4jnsgd1na2vs0mg"},{"bike_id":"a4c108d4-411d-4a66-ac0a-33ca30029180","system_id":"levelo_inurba_marseille","lat":43.23964,"lon":5.3664,"is_reserved":false,"is_disabled":false,"rental_uris":{"android":"levelo://app?vid=a4c108d4-411d-4a66-ac0a-33ca30029180","ios":"levelo://app?vid=a4c108d4-411d-4a66-ac0a-33ca30029180"},"vehicle_type_id":"4","last_reported":1736871047,"current_range_meters":38400,"station_id":"ce4bhi12rcd13ifvqfp0","pricing_plan_id":"cebpf4jnsgd1na2vs0mg"},{"bike_id":"319f9465-6138-4e42-8095-174909e4fd5e","system_id":"levelo_inurba_marseille","lat":43.29509,"lon":5.39405,"is_reserved":false,"is_disabled":false,"rental_uris":{"android":"levelo://app?vid=319f9465-6138-4e42-8095-174909e4fd5e","ios":"levelo://app?vid=319f9465-6138-4e42-8095-174909e4fd5e"},"vehicle_type_id":"4","last_reported":1736871047,"current_range_meters":38400,"station_id":"ce4bh292rcd13ifvqdf0","pricing_plan_id":"cebpf4jnsgd1na2vs0mg"},{"bike_id":"106cf250-1f35-4a46-a107-9cdd0321d3d8","system_id":"levelo_inurba_marseille","lat":43.30923,"lon":5.40138,"is_reserved":false,"is_disabled":false,"rental_uris":{"android":"levelo://app?vid=106cf250-1f35-4a46-a107-9cdd0321d3d8","ios":"levelo://app?vid=106cf250-1f35-4a46-a107-9cdd0321d3d8"},"vehicle_type_id":"4","last_reported":1736871047,"current_range_meters":32000,"station_id":"ce4bgvp2rcd13ifvqct0","pricing_plan_id":"cebpf4jnsgd1na2vs0mg"},{"bike_id":"820b335e-07fe-4de9-b614-393670e44a0c","system_id":"levelo_inurba_marseille","lat":43.25013,"lon":5.38948,"is_reserved":false,"is_disabled":false,"rental_uris":{"android":"levelo://app?vid=820b335e-07fe-4de9-b614-393670e44a0c","ios":"levelo://app?vid=820b335e-07fe-4de9-b614-393670e44a0c"},"vehicle_type_id":"4","last_reported":1736871047,"current_range_meters":39200,"station_id":"ce4bhgp2rcd13ifvqfd0","pricing_plan_id":"cebpf4jnsgd1na2vs0mg"},{"bike_id":"48ac6259-00fc-4dcf-ada3-461bf1f412a2","system_id":"levelo_inurba_marseille","lat":43.29932,"lon":5.36566,"is_reserved":false,"is_disabled":false,"rental_uris":{"android":"levelo://app?vid=48ac6259-00fc-4dcf-ada3-461bf1f412a2","ios":"levelo://app?vid=48ac6259-00fc-4dcf-ada3-461bf1f412a2"},"vehicle_type_id":"4","last_reported":1736871047,"current_range_meters":18000,"station_id":"ce4bgm92rcd13ifvqbr0","pricing_plan_id":"cebpf4jnsgd1na2vs0mg"},{"bike_id":"7fcf9ecb-c6db-41bd-b27e-444d4ba09127","system_id":"levelo_inurba_marseille","lat":43.30642,"lon":5.40064,"is_reserved":false,"is_disabled":false,"rental_uris":{"android":"levelo://app?vid=7fcf9ecb-c6db-41bd-b27e-444d4ba09127","ios":"levelo://app?vid=7fcf9ecb-c6db-41bd-b27e-444d4ba09127"},"vehicle_type_id":"4","last_reported":1736871047,"current_range_meters":38800,"station_id":"ce4bh112rcd13ifvqda0","pricing_plan_id":"cebpf4jnsgd1na2vs0mg"},{"bike_id":"ae6a24c6-71f9-417a-adfe-c09c90280637","system_id":"levelo_inurba_marseille","lat":43.26565,"lon":5.37288,"is_reserved":false,"is_disabled":true,"rental_uris":{"android":"levelo://app?vid=ae6a24c6-71f9-417a-adfe-c09c90280637","ios":"levelo://app?vid=ae6a24c6-71f9-417a-adfe-c09c90280637"},"vehicle_type_id":"4","last_reported":1736871047,"current_range_meters":1600,"station_id":"ce4bhg12rcd13ifvqf70","pricing_plan_id":"cebpf4jnsgd1na2vs0mg"},{"bike_id":"8780406c-0f05-4389-a692-93042b8afc8b","system_id":"levelo_inurba_marseille","lat":43.29039,"lon":5.38124,"is_reserved":false,"is_disabled":false,"rental_uris":{"android":"levelo://app?vid=8780406c-0f05-4389-a692-93042b8afc8b","ios":"levelo://app?vid=8780406c-0f05-4389-a692-93042b8afc8b"},"vehicle_type_id":"4","last_reported":1736871047,"current_range_meters":21600,"station_id":"ce4bh4p2rcd13ifvqe1g","pricing_plan_id":"cebpf4jnsgd1na2vs0mg"},{"bike_id":"31ca8b0e-c72e-47d4-a59b-a2766db72931","system_id":"levelo_inurba_marseille","lat":43.28403,"lon":5.40932,"is_reserved":false,"is_disabled":true,"rental_uris":{"android":"levelo://app?vid=31ca8b0e-c72e-47d4-a59b-a2766db72931","ios":"levelo://app?vid=31ca8b0e-c72e-47d4-a59b-a2766db72931"},"vehicle_type_id":"4","last_reported":1736871047,"current_range_meters":34800,"station_id":"","pricing_plan_id":"cebpf4jnsgd1na2vs0mg"},{"bike_id":"ec07fc30-5fe0-438e-a70f-83f634904c78","system_id":"levelo_inurba_marseille","lat":43.26201,"lon":5.37927,"is_reserved":false,"is_disabled":false,"rental_uris":{"android":"levelo://app?vid=ec07fc30-5fe0-438e-a70f-83f634904c78","ios":"levelo://app?vid=ec07fc30-5fe0-438e-a70f-83f634904c78"},"vehicle_type_id":"4","last_reported":1736871047,"current_range_meters":37600,"station_id":"ce4bhjp2rcd13ifvqg90","pricing_plan_id":"cebpf4jnsgd1na2vs0mg"},{"bike_id":"6c35f333-cebf-4645-a656-b9a3c1c40dda","system_id":"levelo_inurba_marseille","lat":43.30302,"lon":5.39228,"is_reserved":false,"is_disabled":false,"rental_uris":{"android":"levelo://app?vid=6c35f333-cebf-4645-a656-b9a3c1c40dda","ios":"levelo://app?vid=6c35f333-cebf-4645-a656-b9a3c1c40dda"},"vehicle_type_id":"4","last_reported":1736871047,"current_range_meters":25600,"station_id":"ce4bgkh2rcd13ifvqbk0","pricing_plan_id":"cebpf4jnsgd1na2vs0mg"},{"bike_id":"60c48e84-151f-4edd-83cd-789ff87c7f63","system_id":"levelo_inurba_marseille","lat":43.28704,"lon":5.37404,"is_reserved":false,"is_disabled":true,"rental_uris":{"android":"levelo://app?vid=60c48e84-151f-4edd-83cd-789ff87c7f63","ios":"levelo://app?vid=60c48e84-151f-4edd-83cd-789ff87c7f63"},"vehicle_type_id":"4","last_reported":1736871047,"current_range_meters":32800,"station_id":"ce4bh3p2rcd13ifvqdq0","pricing_plan_id":"cebpf4jnsgd1na2vs0mg"},{"bike_id":"171bee60-8200-4bb4-b2dd-6ab7fce75054","system_id":"levelo_inurba_marseille","lat":43.28837,"lon":5.35855,"is_reserved":false,"is_disabled":false,"rental_uris":{"android":"levelo://app?vid=171bee60-8200-4bb4-b2dd-6ab7fce75054","ios":"levelo://app?vid=171bee60-8200-4bb4-b2dd-6ab7fce75054"},"vehicle_type_id":"4","last_reported":1736871047,"current_range_meters":36400,"station_id":"ce4bhb12rcd13ifvqem0","pricing_plan_id":"cebpf4jnsgd1na2vs0mg"},{"bike_id":"d4bd3ca0-48a8-4b8f-8823-cc0d13d0ab16","system_id":"levelo_inurba_marseille","lat":43.28069,"lon":5.39645,"is_reserved":false,"is_disabled":false,"rental_uris":{"android":"levelo://app?vid=d4bd3ca0-48a8-4b8f-8823-cc0d13d0ab16","ios":"levelo://app?vid=d4bd3ca0-48a8-4b8f-8823-cc0d13d0ab16"},"vehicle_type_id":"4","last_reported":1736871047,"current_range_meters":35200,"station_id":"ce4bho12rcd13ifvqh2g","pricing_plan_id":"cebpf4jnsgd1na2vs0mg"},{"bike_id":"fa8a30c7-7295-4469-b66e-9b5a43015aac","system_id":"levelo_inurba_marseille","lat":43.33018,"lon":5.39048,"is_reserved":false,"is_disabled":false,"rental_uris":{"android":"levelo://app?vid=fa8a30c7-7295-4469-b66e-9b5a43015aac","ios":"levelo://app?vid=fa8a30c7-7295-4469-b66e-9b5a43015aac"},"vehicle_type_id":"4","last_reported":1736871047,"current_range_meters":38800,"station_id":"ce4bhr92rcd13ifvqhrg","pricing_plan_id":"cebpf4jnsgd1na2vs0mg"},{"bike_id":"90f49f45-490f-4281-890b-c49241a10d97","system_id":"levelo_inurba_marseille","lat":43.27919,"lon":5.39582,"is_reserved":false,"is_disabled":false,"rental_uris":{"android":"levelo://app?vid=90f49f45-490f-4281-890b-c49241a10d97","ios":"levelo://app?vid=90f49f45-490f-4281-890b-c49241a10d97"},"vehicle_type_id":"4","last_reported":1736871047,"current_range_meters":34000,"station_id":"ce4bhf92rcd13ifvqf40","pricing_plan_id":"cebpf4jnsgd1na2vs0mg"},{"bike_id":"a91b0e42-fe98-4347-871c-11e620b556e5","system_id":"levelo_inurba_marseille","lat":43.29304,"lon":5.37166,"is_reserved":false,"is_disabled":false,"rental_uris":{"android":"levelo://app?vid=a91b0e42-fe98-4347-871c-11e620b556e5","ios":"levelo://app?vid=a91b0e42-fe98-4347-871c-11e620b556e5"},"vehicle_type_id":"4","last_reported":1736871047,"current_range_meters":31200,"station_id":"ce4bgh92rcd13ifvqb40","pricing_plan_id":"cebpf4jnsgd1na2vs0mg"},{"bike_id":"de05f028-7450-4792-8d5b-e268410faa9d","system_id":"levelo_inurba_marseille","lat":43.321,"lon":5.36756,"is_reserved":false,"is_disabled":false,"rental_uris":{"android":"levelo://app?vid=de05f028-7450-4792-8d5b-e268410faa9d","ios":"levelo://app?vid=de05f028-7450-4792-8d5b-e268410faa9d"},"vehicle_type_id":"4","last_reported":1736871047,"current_range_meters":28400,"station_id":"ce4bhrh2rcd13ifvqhug","pricing_plan_id":"cebpf4jnsgd1na2vs0mg"},{"bike_id":"08e36ecc-84d4-4555-84b8-4db4d793d9ee","system_id":"levelo_inurba_marseille","lat":43.29844,"lon":5.36287,"is_reserved":false,"is_disabled":false,"rental_uris":{"android":"levelo://app?vid=08e36ecc-84d4-4555-84b8-4db4d793d9ee","ios":"levelo://app?vid=08e36ecc-84d4-4555-84b8-4db4d793d9ee"},"vehicle_type_id":"4","last_reported":1736871047,"current_range_meters":25200,"station_id":"ce4bgpp2rcd13ifvqc3g","pricing_plan_id":"cebpf4jnsgd1na2vs0mg"},{"bike_id":"4218abb1-97a1-4e69-a779-b2859c95cf9a","system_id":"levelo_inurba_marseille","lat":43.23962,"lon":5.36619,"is_reserved":false,"is_disabled":false,"rental_uris":{"android":"levelo://app?vid=4218abb1-97a1-4e69-a779-b2859c95cf9a","ios":"levelo://app?vid=4218abb1-97a1-4e69-a779-b2859c95cf9a"},"vehicle_type_id":"4","last_reported":1736871047,"current_range_meters":14000,"station_id":"ce4bhi12rcd13ifvqfp0","pricing_plan_id":"cebpf4jnsgd1na2vs0mg"},{"bike_id":"12c84dc1-55d9-4869-8c9f-6a156dfc584a","system_id":"levelo_inurba_marseille","lat":43.27815,"lon":5.40711,"is_reserved":false,"is_disabled":false,"rental_uris":{"android":"levelo://app?vid=12c84dc1-55d9-4869-8c9f-6a156dfc584a","ios":"levelo://app?vid=12c84dc1-55d9-4869-8c9f-6a156dfc584a"},"vehicle_type_id":"4","last_reported":1736871047,"current_range_meters":27600,"station_id":"ce4bhnh2rcd13ifvqgtg","pricing_plan_id":"cebpf4jnsgd1na2vs0mg"},{"bike_id":"d85168cd-cda5-48df-a191-5048004ec8d2","system_id":"levelo_inurba_marseille","lat":43.25067,"lon":5.39509,"is_reserved":false,"is_disabled":true,"rental_uris":{"android":"levelo://app?vid=d85168cd-cda5-48df-a191-5048004ec8d2","ios":"levelo://app?vid=d85168cd-cda5-48df-a191-5048004ec8d2"},"vehicle_type_id":"4","last_reported":1736871047,"current_range_meters":2000,"station_id":"ce4bhm12rcd13ifvqgkg","pricing_plan_id":"cebpf4jnsgd1na2vs0mg"},{"bike_id":"6b45a7a6-bca6-42a8-af1b-5915bb9c80dd","system_id":"levelo_inurba_marseille","lat":43.24802,"lon":5.37448,"is_reserved":false,"is_disabled":false,"rental_uris":{"android":"levelo://app?vid=6b45a7a6-bca6-42a8-af1b-5915bb9c80dd","ios":"levelo://app?vid=6b45a7a6-bca6-42a8-af1b-5915bb9c80dd"},"vehicle_type_id":"4","last_reported":1736871047,"current_range_meters":33200,"station_id":"ce4bhgh2rcd13ifvqfb0","pricing_plan_id":"cebpf4jnsgd1na2vs0mg"},{"bike_id":"5408a709-ebe6-4b24-b8f3-0225a84ae4df","system_id":"levelo_inurba_marseille","lat":43.28416,"lon":5.34974,"is_reserved":false,"is_disabled":false,"rental_uris":{"android":"levelo://app?vid=5408a709-ebe6-4b24-b8f3-0225a84ae4df","ios":"levelo://app?vid=5408a709-ebe6-4b24-b8f3-0225a84ae4df"},"vehicle_type_id":"4","last_reported":1736871047,"current_range_meters":25600,"station_id":"ce4bhbh2rcd13ifvqepg","pricing_plan_id":"cebpf4jnsgd1na2vs0mg"},{"bike_id":"8f3d19ca-6788-4fa8-a3b9-31a1f06d17f5","system_id":"levelo_inurba_marseille","lat":43.28028,"lon":5.36926,"is_reserved":false,"is_disabled":true,"rental_uris":{"android":"levelo://app?vid=8f3d19ca-6788-4fa8-a3b9-31a1f06d17f5","ios":"levelo://app?vid=8f3d19ca-6788-4fa8-a3b9-31a1f06d17f5"},"vehicle_type_id":"4","last_reported":1736871047,"current_range_meters":0,"station_id":"ce4bha12rcd13ifvqef0","pricing_plan_id":"cebpf4jnsgd1na2vs0mg"},{"bike_id":"6d1ef0ce-e43f-4805-8b12-f730da181ce8","system_id":"levelo_inurba_marseille","lat":43.28721,"lon":5.3792,"is_reserved":false,"is_disabled":true,"rental_uris":{"android":"levelo://app?vid=6d1ef0ce-e43f-4805-8b12-f730da181ce8","ios":"levelo://app?vid=6d1ef0ce-e43f-4805-8b12-f730da181ce8"},"vehicle_type_id":"4","last_reported":1736871047,"current_range_meters":800,"station_id":"ce4bh9p2rcd13ifvqec0","pricing_plan_id":"cebpf4jnsgd1na2vs0mg"},{"bike_id":"b7c0c42a-0df1-4696-9a0d-7a33860a7d5f","system_id":"levelo_inurba_marseille","lat":43.31333,"lon":5.397,"is_reserved":false,"is_disabled":false,"rental_uris":{"android":"levelo://app?vid=b7c0c42a-0df1-4696-9a0d-7a33860a7d5f","ios":"levelo://app?vid=b7c0c42a-0df1-4696-9a0d-7a33860a7d5f"},"vehicle_type_id":"4","last_reported":1736871047,"current_range_meters":28800,"station_id":"ce4bgvp2rcd13ifvqcu0","pricing_plan_id":"cebpf4jnsgd1na2vs0mg"},{"bike_id":"a43739c9-34f8-4528-bc90-c6ded97f6129","system_id":"levelo_inurba_marseille","lat":43.30417,"lon":5.41286,"is_reserved":false,"is_disabled":false,"rental_uris":{"android":"levelo://app?vid=a43739c9-34f8-4528-bc90-c6ded97f6129","ios":"levelo://app?vid=a43739c9-34f8-4528-bc90-c6ded97f6129"},"vehicle_type_id":"4","last_reported":1736871047,"current_range_meters":39200,"station_id":"ce4bhop2rcd13ifvqh8g","pricing_plan_id":"cebpf4jnsgd1na2vs0mg"},{"bike_id":"6280e12b-8c99-470a-acaf-04cfe5b073d5","system_id":"levelo_inurba_marseille","lat":43.27178,"lon":5.40978,"is_reserved":false,"is_disabled":false,"rental_uris":{"android":"levelo://app?vid=6280e12b-8c99-470a-acaf-04cfe5b073d5","ios":"levelo://app?vid=6280e12b-8c99-470a-acaf-04cfe5b073d5"},"vehicle_type_id":"4","last_reported":1736871047,"current_range_meters":38800,"station_id":"ce4bhl12rcd13ifvqgf0","pricing_plan_id":"cebpf4jnsgd1na2vs0mg"},{"bike_id":"a1d695d9-a774-43ab-b8b8-bffc67e8f15b","system_id":"levelo_inurba_marseille","lat":43.25581,"lon":5.38231,"is_reserved":false,"is_disabled":false,"rental_uris":{"android":"levelo://app?vid=a1d695d9-a774-43ab-b8b8-bffc67e8f15b","ios":"levelo://app?vid=a1d695d9-a774-43ab-b8b8-bffc67e8f15b"},"vehicle_type_id":"4","last_reported":1736871047,"current_range_meters":8800,"station_id":"ce4bhih2rcd13ifvqfs0","pricing_plan_id":"cebpf4jnsgd1na2vs0mg"},{"bike_id":"f62a7ed4-7c80-4ed8-9568-a4dea62069d1","system_id":"levelo_inurba_marseille","lat":43.28083,"lon":5.39654,"is_reserved":false,"is_disabled":false,"rental_uris":{"android":"levelo://app?vid=f62a7ed4-7c80-4ed8-9568-a4dea62069d1","ios":"levelo://app?vid=f62a7ed4-7c80-4ed8-9568-a4dea62069d1"},"vehicle_type_id":"4","last_reported":1736871047,"current_range_meters":24800,"station_id":"ce4bho12rcd13ifvqh2g","pricing_plan_id":"cebpf4jnsgd1na2vs0mg"},{"bike_id":"ddda7598-97c1-41e4-8980-d36ea2918dfb","system_id":"levelo_inurba_marseille","lat":43.30455,"lon":5.36717,"is_reserved":false,"is_disabled":false,"rental_uris":{"android":"levelo://app?vid=ddda7598-97c1-41e4-8980-d36ea2918dfb","ios":"levelo://app?vid=ddda7598-97c1-41e4-8980-d36ea2918dfb"},"vehicle_type_id":"4","last_reported":1736871047,"current_range_meters":19600,"station_id":"","pricing_plan_id":"cebpf4jnsgd1na2vs0mg"},{"bike_id":"fef24900-ea15-4f19-bc1f-d919d0235007","system_id":"levelo_inurba_marseille","lat":43.27371,"lon":5.36258,"is_reserved":false,"is_disabled":false,"rental_uris":{"android":"levelo://app?vid=fef24900-ea15-4f19-bc1f-d919d0235007","ios":"levelo://app?vid=fef24900-ea15-4f19-bc1f-d919d0235007"},"vehicle_type_id":"4","last_reported":1736871047,"current_range_meters":6000,"station_id":"ce4bhbh2rcd13ifvqeo0","pricing_plan_id":"cebpf4jnsgd1na2vs0mg"},{"bike_id":"2e97f957-1ef3-42fe-8079-196822e40ed2","system_id":"levelo_inurba_marseille","lat":43.29519,"lon":5.39048,"is_reserved":false,"is_disabled":false,"rental_uris":{"android":"levelo://app?vid=2e97f957-1ef3-42fe-8079-196822e40ed2","ios":"levelo://app?vid=2e97f957-1ef3-42fe-8079-196822e40ed2"},"vehicle_type_id":"4","last_reported":1736871047,"current_range_meters":28800,"station_id":"ce4bh3p2rcd13ifvqdp0","pricing_plan_id":"cebpf4jnsgd1na2vs0mg"},{"bike_id":"2d299aa8-68d1-40ea-a1d0-c766b33ee2bf","system_id":"levelo_inurba_marseille","lat":43.26923,"lon":5.40263,"is_reserved":false,"is_disabled":false,"rental_uris":{"android":"levelo://app?vid=2d299aa8-68d1-40ea-a1d0-c766b33ee2bf","ios":"levelo://app?vid=2d299aa8-68d1-40ea-a1d0-c766b33ee2bf"},"vehicle_type_id":"4","last_reported":1736871047,"current_range_meters":39200,"station_id":"cjm6bp8fraef2m0cb0m0","pricing_plan_id":"cebpf4jnsgd1na2vs0mg"},{"bike_id":"c18f31dc-9a91-4891-9081-2fc7d9382eba","system_id":"levelo_inurba_marseille","lat":43.28002,"lon":5.40018,"is_reserved":false,"is_disabled":false,"rental_uris":{"android":"levelo://app?vid=c18f31dc-9a91-4891-9081-2fc7d9382eba","ios":"levelo://app?vid=c18f31dc-9a91-4891-9081-2fc7d9382eba"},"vehicle_type_id":"4","last_reported":1736871047,"current_range_meters":30400,"station_id":"ce4bho92rcd13ifvqh4g","pricing_plan_id":"cebpf4jnsgd1na2vs0mg"},{"bike_id":"4152a86a-a3f2-4059-9249-3a363de52ce4","system_id":"levelo_inurba_marseille","lat":43.31174,"lon":5.38721,"is_reserved":false,"is_disabled":true,"rental_uris":{"android":"levelo://app?vid=4152a86a-a3f2-4059-9249-3a363de52ce4","ios":"levelo://app?vid=4152a86a-a3f2-4059-9249-3a363de52ce4"},"vehicle_type_id":"4","last_reported":1736871047,"current_range_meters":1200,"station_id":"ce4bgv12rcd13ifvqcp0","pricing_plan_id":"cebpf4jnsgd1na2vs0mg"},{"bike_id":"8534aaf4-535f-4db5-8998-0f97ef68ef36","system_id":"levelo_inurba_marseille","lat":43.24381,"lon":5.37069,"is_reserved":false,"is_disabled":false,"rental_uris":{"android":"levelo://app?vid=8534aaf4-535f-4db5-8998-0f97ef68ef36","ios":"levelo://app?vid=8534aaf4-535f-4db5-8998-0f97ef68ef36"},"vehicle_type_id":"4","last_reported":1736871047,"current_range_meters":19600,"station_id":"ce4bhhh2rcd13ifvqfk0","pricing_plan_id":"cebpf4jnsgd1na2vs0mg"},{"bike_id":"b2c33e7b-da8a-4cda-ab12-4bcf5000aca5","system_id":"levelo_inurba_marseille","lat":43.27623,"lon":5.36112,"is_reserved":false,"is_disabled":false,"rental_uris":{"android":"levelo://app?vid=b2c33e7b-da8a-4cda-ab12-4bcf5000aca5","ios":"levelo://app?vid=b2c33e7b-da8a-4cda-ab12-4bcf5000aca5"},"vehicle_type_id":"4","last_reported":1736871047,"current_range_meters":32000,"station_id":"ce4bgj92rcd13ifvqbe0","pricing_plan_id":"cebpf4jnsgd1na2vs0mg"},{"bike_id":"90ab7204-1d05-4328-9864-0816ce7f12a1","system_id":"levelo_inurba_marseille","lat":43.2721,"lon":5.39209,"is_reserved":false,"is_disabled":false,"rental_uris":{"android":"levelo://app?vid=90ab7204-1d05-4328-9864-0816ce7f12a1","ios":"levelo://app?vid=90ab7204-1d05-4328-9864-0816ce7f12a1"},"vehicle_type_id":"4","last_reported":1736871047,"current_range_meters":22800,"station_id":"ce4bhhp2rcd13ifvqfm0","pricing_plan_id":"cebpf4jnsgd1na2vs0mg"},{"bike_id":"84993ed4-8b4b-432e-a748-ebeba522351f","system_id":"levelo_inurba_marseille","lat":43.29586,"lon":5.37679,"is_reserved":false,"is_disabled":false,"rental_uris":{"android":"levelo://app?vid=84993ed4-8b4b-432e-a748-ebeba522351f","ios":"levelo://app?vid=84993ed4-8b4b-432e-a748-ebeba522351f"},"vehicle_type_id":"4","last_reported":1736871047,"current_range_meters":37600,"station_id":"","pricing_plan_id":"cebpf4jnsgd1na2vs0mg"},{"bike_id":"e18ca637-0940-4ac9-84c4-c3ecffd5e4c4","system_id":"levelo_inurba_marseille","lat":43.26038,"lon":5.37548,"is_reserved":false,"is_disabled":false,"rental_uris":{"android":"levelo://app?vid=e18ca637-0940-4ac9-84c4-c3ecffd5e4c4","ios":"levelo://app?vid=e18ca637-0940-4ac9-84c4-c3ecffd5e4c4"},"vehicle_type_id":"4","last_reported":1736871047,"current_range_meters":38000,"station_id":"ce4bhgh2rcd13ifvqfa0","pricing_plan_id":"cebpf4jnsgd1na2vs0mg"},{"bike_id":"6749cc36-3616-4588-a142-27ed7a54bc7d","system_id":"levelo_inurba_marseille","lat":43.25572,"lon":5.38236,"is_reserved":false,"is_disabled":false,"rental_uris":{"android":"levelo://app?vid=6749cc36-3616-4588-a142-27ed7a54bc7d","ios":"levelo://app?vid=6749cc36-3616-4588-a142-27ed7a54bc7d"},"vehicle_type_id":"4","last_reported":1736871047,"current_range_meters":38000,"station_id":"ce4bhih2rcd13ifvqfs0","pricing_plan_id":"cebpf4jnsgd1na2vs0mg"},{"bike_id":"b9a5519e-1750-4eb2-aee5-1206c9e8319b","system_id":"levelo_inurba_marseille","lat":43.30138,"lon":5.38769,"is_reserved":false,"is_disabled":false,"rental_uris":{"android":"levelo://app?vid=b9a5519e-1750-4eb2-aee5-1206c9e8319b","ios":"levelo://app?vid=b9a5519e-1750-4eb2-aee5-1206c9e8319b"},"vehicle_type_id":"4","last_reported":1736871047,"current_range_meters":10800,"station_id":"ce4bhoh2rcd13ifvqh6g","pricing_plan_id":"cebpf4jnsgd1na2vs0mg"},{"bike_id":"a836bbf6-cc30-4238-a0af-12e1dba6445b","system_id":"levelo_inurba_marseille","lat":43.23167,"lon":5.43702,"is_reserved":false,"is_disabled":false,"rental_uris":{"android":"levelo://app?vid=a836bbf6-cc30-4238-a0af-12e1dba6445b","ios":"levelo://app?vid=a836bbf6-cc30-4238-a0af-12e1dba6445b"},"vehicle_type_id":"4","last_reported":1736871047,"current_range_meters":24400,"station_id":"ce4bhmp2rcd13ifvqgog","pricing_plan_id":"cebpf4jnsgd1na2vs0mg"},{"bike_id":"2c8aa28b-b50b-46d1-a1ce-c6730e2ff8bd","system_id":"levelo_inurba_marseille","lat":43.29637,"lon":5.37142,"is_reserved":false,"is_disabled":false,"rental_uris":{"android":"levelo://app?vid=2c8aa28b-b50b-46d1-a1ce-c6730e2ff8bd","ios":"levelo://app?vid=2c8aa28b-b50b-46d1-a1ce-c6730e2ff8bd"},"vehicle_type_id":"4","last_reported":1736871047,"current_range_meters":36000,"station_id":"ce4bgnh2rcd13ifvqc0g","pricing_plan_id":"cebpf4jnsgd1na2vs0mg"},{"bike_id":"fb695697-afaf-467d-a69d-0b8de58f9da0","system_id":"levelo_inurba_marseille","lat":43.28718,"lon":5.37933,"is_reserved":false,"is_disabled":false,"rental_uris":{"android":"levelo://app?vid=fb695697-afaf-467d-a69d-0b8de58f9da0","ios":"levelo://app?vid=fb695697-afaf-467d-a69d-0b8de58f9da0"},"vehicle_type_id":"4","last_reported":1736871047,"current_range_meters":35200,"station_id":"ce4bh9p2rcd13ifvqec0","pricing_plan_id":"cebpf4jnsgd1na2vs0mg"},{"bike_id":"41922604-c7b8-4e93-9da5-3903771d7233","system_id":"levelo_inurba_marseille","lat":43.24809,"lon":5.37457,"is_reserved":false,"is_disabled":false,"rental_uris":{"android":"levelo://app?vid=41922604-c7b8-4e93-9da5-3903771d7233","ios":"levelo://app?vid=41922604-c7b8-4e93-9da5-3903771d7233"},"vehicle_type_id":"4","last_reported":1736871047,"current_range_meters":22000,"station_id":"ce4bhgh2rcd13ifvqfb0","pricing_plan_id":"cebpf4jnsgd1na2vs0mg"},{"bike_id":"4a052bef-d121-4854-82e0-1730db1a76d2","system_id":"levelo_inurba_marseille","lat":43.26215,"lon":5.37438,"is_reserved":false,"is_disabled":false,"rental_uris":{"android":"levelo://app?vid=4a052bef-d121-4854-82e0-1730db1a76d2","ios":"levelo://app?vid=4a052bef-d121-4854-82e0-1730db1a76d2"},"vehicle_type_id":"4","last_reported":1736871047,"current_range_meters":29600,"station_id":"ce4bhgp2rcd13ifvqfc0","pricing_plan_id":"cebpf4jnsgd1na2vs0mg"},{"bike_id":"387b2a8f-56b9-4e5f-b1c3-5cb6084e167d","system_id":"levelo_inurba_marseille","lat":43.26782,"lon":5.39414,"is_reserved":false,"is_disabled":false,"rental_uris":{"android":"levelo://app?vid=387b2a8f-56b9-4e5f-b1c3-5cb6084e167d","ios":"levelo://app?vid=387b2a8f-56b9-4e5f-b1c3-5cb6084e167d"},"vehicle_type_id":"4","last_reported":1736871047,"current_range_meters":27600,"station_id":"ce4bhh12rcd13ifvqfg0","pricing_plan_id":"cebpf4jnsgd1na2vs0mg"},{"bike_id":"d3265534-edc4-40aa-b9f8-bca7cedc6142","system_id":"levelo_inurba_marseille","lat":43.297999,"lon":5.403988,"is_reserved":false,"is_disabled":false,"rental_uris":{"android":"levelo://app?vid=d3265534-edc4-40aa-b9f8-bca7cedc6142","ios":"levelo://app?vid=d3265534-edc4-40aa-b9f8-bca7cedc6142"},"vehicle_type_id":"4","last_reported":1736871047,"current_range_meters":30800,"station_id":"ce4bh112rcd13ifvqd90","pricing_plan_id":"cebpf4jnsgd1na2vs0mg"},{"bike_id":"d8b7e460-de0d-4eae-8533-6e5de96e9cea","system_id":"levelo_inurba_marseille","lat":43.28619,"lon":5.35094,"is_reserved":false,"is_disabled":false,"rental_uris":{"android":"levelo://app?vid=d8b7e460-de0d-4eae-8533-6e5de96e9cea","ios":"levelo://app?vid=d8b7e460-de0d-4eae-8533-6e5de96e9cea"},"vehicle_type_id":"4","last_reported":1736871047,"current_range_meters":27600,"station_id":"ce4bhch2rcd13ifvqeug","pricing_plan_id":"cebpf4jnsgd1na2vs0mg"},{"bike_id":"70a4d228-2c41-4af9-a3eb-23abb00e4e21","system_id":"levelo_inurba_marseille","lat":43.26061,"lon":5.39383,"is_reserved":false,"is_disabled":false,"rental_uris":{"android":"levelo://app?vid=70a4d228-2c41-4af9-a3eb-23abb00e4e21","ios":"levelo://app?vid=70a4d228-2c41-4af9-a3eb-23abb00e4e21"},"vehicle_type_id":"4","last_reported":1736871047,"current_range_meters":13600,"station_id":"ce4bhh92rcd13ifvqfj0","pricing_plan_id":"cebpf4jnsgd1na2vs0mg"},{"bike_id":"4ca4be0a-6368-47fa-871a-914312f9653e","system_id":"levelo_inurba_marseille","lat":43.24551,"lon":5.39524,"is_reserved":false,"is_disabled":false,"rental_uris":{"android":"levelo://app?vid=4ca4be0a-6368-47fa-871a-914312f9653e","ios":"levelo://app?vid=4ca4be0a-6368-47fa-871a-914312f9653e"},"vehicle_type_id":"4","last_reported":1736871047,"current_range_meters":24400,"station_id":"ce4bhlp2rcd13ifvqgjg","pricing_plan_id":"cebpf4jnsgd1na2vs0mg"},{"bike_id":"c0d8b23d-d2e7-46ce-a092-7f8459dc28ce","system_id":"levelo_inurba_marseille","lat":43.27614,"lon":5.36105,"is_reserved":false,"is_disabled":false,"rental_uris":{"android":"levelo://app?vid=c0d8b23d-d2e7-46ce-a092-7f8459dc28ce","ios":"levelo://app?vid=c0d8b23d-d2e7-46ce-a092-7f8459dc28ce"},"vehicle_type_id":"4","last_reported":1736871047,"current_range_meters":18800,"station_id":"ce4bgj92rcd13ifvqbe0","pricing_plan_id":"cebpf4jnsgd1na2vs0mg"},{"bike_id":"d7ca5915-338f-46db-8725-b258ca726a1c","system_id":"levelo_inurba_marseille","lat":43.28414,"lon":5.37501,"is_reserved":false,"is_disabled":false,"rental_uris":{"android":"levelo://app?vid=d7ca5915-338f-46db-8725-b258ca726a1c","ios":"levelo://app?vid=d7ca5915-338f-46db-8725-b258ca726a1c"},"vehicle_type_id":"4","last_reported":1736871047,"current_range_meters":22400,"station_id":"ce4bh412rcd13ifvqds0","pricing_plan_id":"cebpf4jnsgd1na2vs0mg"},{"bike_id":"5bb528b0-7ae2-48e6-ab60-167f85952f7b","system_id":"levelo_inurba_marseille","lat":43.28689,"lon":5.37403,"is_reserved":false,"is_disabled":false,"rental_uris":{"android":"levelo://app?vid=5bb528b0-7ae2-48e6-ab60-167f85952f7b","ios":"levelo://app?vid=5bb528b0-7ae2-48e6-ab60-167f85952f7b"},"vehicle_type_id":"4","last_reported":1736871047,"current_range_meters":39200,"station_id":"ce4bh3p2rcd13ifvqdq0","pricing_plan_id":"cebpf4jnsgd1na2vs0mg"},{"bike_id":"c61383ec-ecd5-45f4-b89e-0f0c659ecb57","system_id":"levelo_inurba_marseille","lat":43.27204,"lon":5.39193,"is_reserved":false,"is_disabled":false,"rental_uris":{"android":"levelo://app?vid=c61383ec-ecd5-45f4-b89e-0f0c659ecb57","ios":"levelo://app?vid=c61383ec-ecd5-45f4-b89e-0f0c659ecb57"},"vehicle_type_id":"4","last_reported":1736871047,"current_range_meters":16800,"station_id":"ce4bhhp2rcd13ifvqfm0","pricing_plan_id":"cebpf4jnsgd1na2vs0mg"},{"bike_id":"63c2b205-6d0b-453c-a43a-c3ae535eacbe","system_id":"levelo_inurba_marseille","lat":43.29569,"lon":5.39969,"is_reserved":false,"is_disabled":false,"rental_uris":{"android":"levelo://app?vid=63c2b205-6d0b-453c-a43a-c3ae535eacbe","ios":"levelo://app?vid=63c2b205-6d0b-453c-a43a-c3ae535eacbe"},"vehicle_type_id":"4","last_reported":1736871047,"current_range_meters":10800,"station_id":"ce4bh312rcd13ifvqdj0","pricing_plan_id":"cebpf4jnsgd1na2vs0mg"},{"bike_id":"3391ba3b-7763-4b1a-8737-55ba8c9dcffc","system_id":"levelo_inurba_marseille","lat":43.28667,"lon":5.36347,"is_reserved":false,"is_disabled":false,"rental_uris":{"android":"levelo://app?vid=3391ba3b-7763-4b1a-8737-55ba8c9dcffc","ios":"levelo://app?vid=3391ba3b-7763-4b1a-8737-55ba8c9dcffc"},"vehicle_type_id":"4","last_reported":1736871047,"current_range_meters":20800,"station_id":"ce4bhah2rcd13ifvqej0","pricing_plan_id":"cebpf4jnsgd1na2vs0mg"},{"bike_id":"1dc64d76-fff0-460c-af84-eaea7614f529","system_id":"levelo_inurba_marseille","lat":43.26931,"lon":5.4025,"is_reserved":false,"is_disabled":false,"rental_uris":{"android":"levelo://app?vid=1dc64d76-fff0-460c-af84-eaea7614f529","ios":"levelo://app?vid=1dc64d76-fff0-460c-af84-eaea7614f529"},"vehicle_type_id":"4","last_reported":1736871047,"current_range_meters":38800,"station_id":"cjm6bp8fraef2m0cb0m0","pricing_plan_id":"cebpf4jnsgd1na2vs0mg"},{"bike_id":"a8750585-0715-4d02-92f4-12b0ba163807","system_id":"levelo_inurba_marseille","lat":43.29595,"lon":5.38097,"is_reserved":false,"is_disabled":false,"rental_uris":{"android":"levelo://app?vid=a8750585-0715-4d02-92f4-12b0ba163807","ios":"levelo://app?vid=a8750585-0715-4d02-92f4-12b0ba163807"},"vehicle_type_id":"4","last_reported":1736871047,"current_range_meters":28800,"station_id":"ce4bgl12rcd13ifvqbo0","pricing_plan_id":"cebpf4jnsgd1na2vs0mg"},{"bike_id":"954e7e10-b6f6-467c-9afa-6c78409d184e","system_id":"levelo_inurba_marseille","lat":43.27944,"lon":5.41037,"is_reserved":false,"is_disabled":false,"rental_uris":{"android":"levelo://app?vid=954e7e10-b6f6-467c-9afa-6c78409d184e","ios":"levelo://app?vid=954e7e10-b6f6-467c-9afa-6c78409d184e"},"vehicle_type_id":"4","last_reported":1736871047,"current_range_meters":36400,"station_id":"ce4bhnp2rcd13ifvqh0g","pricing_plan_id":"cebpf4jnsgd1na2vs0mg"},{"bike_id":"8c0372bf-a777-41da-bb15-82c1dabc2f52","system_id":"levelo_inurba_marseille","lat":43.29625,"lon":5.37703,"is_reserved":false,"is_disabled":false,"rental_uris":{"android":"levelo://app?vid=8c0372bf-a777-41da-bb15-82c1dabc2f52","ios":"levelo://app?vid=8c0372bf-a777-41da-bb15-82c1dabc2f52"},"vehicle_type_id":"4","last_reported":1736871047,"current_range_meters":18000,"station_id":"ce4bgi92rcd13ifvqb90","pricing_plan_id":"cebpf4jnsgd1na2vs0mg"},{"bike_id":"c0fd2063-31ae-4171-af17-771dbb4fa212","system_id":"levelo_inurba_marseille","lat":43.22937,"lon":5.35369,"is_reserved":false,"is_disabled":false,"rental_uris":{"android":"levelo://app?vid=c0fd2063-31ae-4171-af17-771dbb4fa212","ios":"levelo://app?vid=c0fd2063-31ae-4171-af17-771dbb4fa212"},"vehicle_type_id":"4","last_reported":1736871047,"current_range_meters":38800,"station_id":"cpo3532slgdg3j2ikp40","pricing_plan_id":"cebpf4jnsgd1na2vs0mg"},{"bike_id":"f0b2ff43-c111-44f5-aeac-ce95fe758fba","system_id":"levelo_inurba_marseille","lat":43.29582,"lon":5.38105,"is_reserved":false,"is_disabled":false,"rental_uris":{"android":"levelo://app?vid=f0b2ff43-c111-44f5-aeac-ce95fe758fba","ios":"levelo://app?vid=f0b2ff43-c111-44f5-aeac-ce95fe758fba"},"vehicle_type_id":"4","last_reported":1736871047,"current_range_meters":38800,"station_id":"ce4bgl12rcd13ifvqbo0","pricing_plan_id":"cebpf4jnsgd1na2vs0mg"},{"bike_id":"979261b7-d23b-4d8f-9e17-b4622fb960f7","system_id":"levelo_inurba_marseille","lat":43.30921,"lon":5.40138,"is_reserved":false,"is_disabled":false,"rental_uris":{"android":"levelo://app?vid=979261b7-d23b-4d8f-9e17-b4622fb960f7","ios":"levelo://app?vid=979261b7-d23b-4d8f-9e17-b4622fb960f7"},"vehicle_type_id":"4","last_reported":1736871047,"current_range_meters":30000,"station_id":"ce4bgvp2rcd13ifvqct0","pricing_plan_id":"cebpf4jnsgd1na2vs0mg"},{"bike_id":"00f2e16c-b5cf-4994-abfd-55dfb0e44d97","system_id":"levelo_inurba_marseille","lat":43.25492,"lon":5.3766,"is_reserved":false,"is_disabled":false,"rental_uris":{"android":"levelo://app?vid=00f2e16c-b5cf-4994-abfd-55dfb0e44d97","ios":"levelo://app?vid=00f2e16c-b5cf-4994-abfd-55dfb0e44d97"},"vehicle_type_id":"4","last_reported":1736871047,"current_range_meters":38800,"station_id":"ce4bhh12rcd13ifvqff0","pricing_plan_id":"cebpf4jnsgd1na2vs0mg"},{"bike_id":"73917f4e-3058-4dc7-8c78-5a35bc7b9eaa","system_id":"levelo_inurba_marseille","lat":43.26575,"lon":5.39009,"is_reserved":false,"is_disabled":false,"rental_uris":{"android":"levelo://app?vid=73917f4e-3058-4dc7-8c78-5a35bc7b9eaa","ios":"levelo://app?vid=73917f4e-3058-4dc7-8c78-5a35bc7b9eaa"},"vehicle_type_id":"4","last_reported":1736871047,"current_range_meters":24400,"station_id":"ce4bhe12rcd13ifvqf30","pricing_plan_id":"cebpf4jnsgd1na2vs0mg"},{"bike_id":"8e1700e2-2825-47f3-9373-6fc227095b7d","system_id":"levelo_inurba_marseille","lat":43.24164,"lon":5.36394,"is_reserved":false,"is_disabled":false,"rental_uris":{"android":"levelo://app?vid=8e1700e2-2825-47f3-9373-6fc227095b7d","ios":"levelo://app?vid=8e1700e2-2825-47f3-9373-6fc227095b7d"},"vehicle_type_id":"4","last_reported":1736871047,"current_range_meters":38800,"station_id":"cpo36qri1sfpv3e86is0","pricing_plan_id":"cebpf4jnsgd1na2vs0mg"},{"bike_id":"e5573715-09fa-4dab-b1d8-e7410696aa39","system_id":"levelo_inurba_marseille","lat":43.32358,"lon":5.36759,"is_reserved":false,"is_disabled":false,"rental_uris":{"android":"levelo://app?vid=e5573715-09fa-4dab-b1d8-e7410696aa39","ios":"levelo://app?vid=e5573715-09fa-4dab-b1d8-e7410696aa39"},"vehicle_type_id":"4","last_reported":1736871047,"current_range_meters":24000,"station_id":"ce4bhsh2rcd13ifvqi2g","pricing_plan_id":"cebpf4jnsgd1na2vs0mg"},{"bike_id":"4a4d296c-e71a-4d73-8515-0b49a9079d8d","system_id":"levelo_inurba_marseille","lat":43.23183,"lon":5.39982,"is_reserved":false,"is_disabled":false,"rental_uris":{"android":"levelo://app?vid=4a4d296c-e71a-4d73-8515-0b49a9079d8d","ios":"levelo://app?vid=4a4d296c-e71a-4d73-8515-0b49a9079d8d"},"vehicle_type_id":"4","last_reported":1736871047,"current_range_meters":28800,"station_id":"ce4bhn12rcd13ifvqgqg","pricing_plan_id":"cebpf4jnsgd1na2vs0mg"},{"bike_id":"d28c64db-672d-4dc2-9aa8-36d7327fadae","system_id":"levelo_inurba_marseille","lat":43.31434,"lon":5.37412,"is_reserved":false,"is_disabled":false,"rental_uris":{"android":"levelo://app?vid=d28c64db-672d-4dc2-9aa8-36d7327fadae","ios":"levelo://app?vid=d28c64db-672d-4dc2-9aa8-36d7327fadae"},"vehicle_type_id":"4","last_reported":1736871047,"current_range_meters":10800,"station_id":"","pricing_plan_id":"cebpf4jnsgd1na2vs0mg"},{"bike_id":"6027163c-6e0b-44a2-bfed-3a477a83b455","system_id":"levelo_inurba_marseille","lat":43.3168,"lon":5.37747,"is_reserved":false,"is_disabled":true,"rental_uris":{"android":"levelo://app?vid=6027163c-6e0b-44a2-bfed-3a477a83b455","ios":"levelo://app?vid=6027163c-6e0b-44a2-bfed-3a477a83b455"},"vehicle_type_id":"4","last_reported":1736871047,"current_range_meters":38800,"station_id":"ce4bgth2rcd13ifvqch0","pricing_plan_id":"cebpf4jnsgd1na2vs0mg"},{"bike_id":"290bfd52-2b84-4f59-a4fd-a18e72222de4","system_id":"levelo_inurba_marseille","lat":43.29907,"lon":5.38135,"is_reserved":false,"is_disabled":false,"rental_uris":{"android":"levelo://app?vid=290bfd52-2b84-4f59-a4fd-a18e72222de4","ios":"levelo://app?vid=290bfd52-2b84-4f59-a4fd-a18e72222de4"},"vehicle_type_id":"4","last_reported":1736871047,"current_range_meters":20800,"station_id":"ce4bgj12rcd13ifvqbc0","pricing_plan_id":"cebpf4jnsgd1na2vs0mg"},{"bike_id":"4725ae05-b600-47b7-ba70-7352c8181ea5","system_id":"levelo_inurba_marseille","lat":43.27415,"lon":5.39054,"is_reserved":false,"is_disabled":true,"rental_uris":{"android":"levelo://app?vid=4725ae05-b600-47b7-ba70-7352c8181ea5","ios":"levelo://app?vid=4725ae05-b600-47b7-ba70-7352c8181ea5"},"vehicle_type_id":"4","last_reported":1736871047,"current_range_meters":0,"station_id":"","pricing_plan_id":"cebpf4jnsgd1na2vs0mg"},{"bike_id":"87f1426c-4759-4d55-81f6-24cdcf8e3ea6","system_id":"levelo_inurba_marseille","lat":43.23963,"lon":5.36628,"is_reserved":false,"is_disabled":false,"rental_uris":{"android":"levelo://app?vid=87f1426c-4759-4d55-81f6-24cdcf8e3ea6","ios":"levelo://app?vid=87f1426c-4759-4d55-81f6-24cdcf8e3ea6"},"vehicle_type_id":"4","last_reported":1736871047,"current_range_meters":22800,"station_id":"ce4bhi12rcd13ifvqfp0","pricing_plan_id":"cebpf4jnsgd1na2vs0mg"},{"bike_id":"54c0ad74-2e8e-438c-84c2-a4620661ae6e","system_id":"levelo_inurba_marseille","lat":43.31721,"lon":5.37766,"is_reserved":false,"is_disabled":false,"rental_uris":{"android":"levelo://app?vid=54c0ad74-2e8e-438c-84c2-a4620661ae6e","ios":"levelo://app?vid=54c0ad74-2e8e-438c-84c2-a4620661ae6e"},"vehicle_type_id":"4","last_reported":1736871047,"current_range_meters":38800,"station_id":"ce4bgth2rcd13ifvqch0","pricing_plan_id":"cebpf4jnsgd1na2vs0mg"},{"bike_id":"8e296681-74bf-4eb7-be4d-bc27d739b7f8","system_id":"levelo_inurba_marseille","lat":43.29299,"lon":5.37169,"is_reserved":false,"is_disabled":false,"rental_uris":{"android":"levelo://app?vid=8e296681-74bf-4eb7-be4d-bc27d739b7f8","ios":"levelo://app?vid=8e296681-74bf-4eb7-be4d-bc27d739b7f8"},"vehicle_type_id":"4","last_reported":1736871047,"current_range_meters":35200,"station_id":"ce4bgh92rcd13ifvqb40","pricing_plan_id":"cebpf4jnsgd1na2vs0mg"},{"bike_id":"1037ee1f-541f-4282-bc63-e8800ee1d0c4","system_id":"levelo_inurba_marseille","lat":43.24647,"lon":5.38895,"is_reserved":false,"is_disabled":false,"rental_uris":{"android":"levelo://app?vid=1037ee1f-541f-4282-bc63-e8800ee1d0c4","ios":"levelo://app?vid=1037ee1f-541f-4282-bc63-e8800ee1d0c4"},"vehicle_type_id":"4","last_reported":1736871047,"current_range_meters":39200,"station_id":"ce4bhg12rcd13ifvqf60","pricing_plan_id":"cebpf4jnsgd1na2vs0mg"},{"bike_id":"8c3dae40-ebd7-489a-896b-35fdb01bbd0c","system_id":"levelo_inurba_marseille","lat":43.28612,"lon":5.35117,"is_reserved":false,"is_disabled":false,"rental_uris":{"android":"levelo://app?vid=8c3dae40-ebd7-489a-896b-35fdb01bbd0c","ios":"levelo://app?vid=8c3dae40-ebd7-489a-896b-35fdb01bbd0c"},"vehicle_type_id":"4","last_reported":1736871047,"current_range_meters":36400,"station_id":"ce4bhch2rcd13ifvqeug","pricing_plan_id":"cebpf4jnsgd1na2vs0mg"},{"bike_id":"36348e1a-1dc7-4683-96e2-31f0b7986ae7","system_id":"levelo_inurba_marseille","lat":43.25578,"lon":5.38237,"is_reserved":false,"is_disabled":false,"rental_uris":{"android":"levelo://app?vid=36348e1a-1dc7-4683-96e2-31f0b7986ae7","ios":"levelo://app?vid=36348e1a-1dc7-4683-96e2-31f0b7986ae7"},"vehicle_type_id":"4","last_reported":1736871047,"current_range_meters":33600,"station_id":"ce4bhih2rcd13ifvqfs0","pricing_plan_id":"cebpf4jnsgd1na2vs0mg"},{"bike_id":"3436c689-3408-4332-81b0-a2ad61949f47","system_id":"levelo_inurba_marseille","lat":43.29972,"lon":5.37169,"is_reserved":false,"is_disabled":false,"rental_uris":{"android":"levelo://app?vid=3436c689-3408-4332-81b0-a2ad61949f47","ios":"levelo://app?vid=3436c689-3408-4332-81b0-a2ad61949f47"},"vehicle_type_id":"4","last_reported":1736871047,"current_range_meters":37600,"station_id":"ce4bgr92rcd13ifvqc7g","pricing_plan_id":"cebpf4jnsgd1na2vs0mg"},{"bike_id":"61b282e8-f700-48e4-9f51-4bff8455dbbe","system_id":"levelo_inurba_marseille","lat":43.29566,"lon":5.39974,"is_reserved":false,"is_disabled":false,"rental_uris":{"android":"levelo://app?vid=61b282e8-f700-48e4-9f51-4bff8455dbbe","ios":"levelo://app?vid=61b282e8-f700-48e4-9f51-4bff8455dbbe"},"vehicle_type_id":"4","last_reported":1736871047,"current_range_meters":8800,"station_id":"ce4bh312rcd13ifvqdj0","pricing_plan_id":"cebpf4jnsgd1na2vs0mg"},{"bike_id":"92ddc2ae-b4d5-4fa4-b924-dbdbe92963df","system_id":"levelo_inurba_marseille","lat":43.239641,"lon":5.366306,"is_reserved":false,"is_disabled":false,"rental_uris":{"android":"levelo://app?vid=92ddc2ae-b4d5-4fa4-b924-dbdbe92963df","ios":"levelo://app?vid=92ddc2ae-b4d5-4fa4-b924-dbdbe92963df"},"vehicle_type_id":"4","last_reported":1736871047,"current_range_meters":24800,"station_id":"ce4bhi12rcd13ifvqfp0","pricing_plan_id":"cebpf4jnsgd1na2vs0mg"},{"bike_id":"e3017809-db7f-40c6-a2bc-2d921a387118","system_id":"levelo_inurba_marseille","lat":43.25711,"lon":5.41094,"is_reserved":false,"is_disabled":false,"rental_uris":{"android":"levelo://app?vid=e3017809-db7f-40c6-a2bc-2d921a387118","ios":"levelo://app?vid=e3017809-db7f-40c6-a2bc-2d921a387118"},"vehicle_type_id":"4","last_reported":1736871047,"current_range_meters":32000,"station_id":"ce4bhkp2rcd13ifvqgd0","pricing_plan_id":"cebpf4jnsgd1na2vs0mg"},{"bike_id":"8aace502-ec3c-4e61-9ed0-00941632ce12","system_id":"levelo_inurba_marseille","lat":43.29025,"lon":5.38635,"is_reserved":false,"is_disabled":false,"rental_uris":{"android":"levelo://app?vid=8aace502-ec3c-4e61-9ed0-00941632ce12","ios":"levelo://app?vid=8aace502-ec3c-4e61-9ed0-00941632ce12"},"vehicle_type_id":"4","last_reported":1736871047,"current_range_meters":27600,"station_id":"ce4bh4p2rcd13ifvqe0g","pricing_plan_id":"cebpf4jnsgd1na2vs0mg"},{"bike_id":"9aeae7f7-bcf7-401e-a8ef-1032c04052db","system_id":"levelo_inurba_marseille","lat":43.3071,"lon":5.3825,"is_reserved":false,"is_disabled":false,"rental_uris":{"android":"levelo://app?vid=9aeae7f7-bcf7-401e-a8ef-1032c04052db","ios":"levelo://app?vid=9aeae7f7-bcf7-401e-a8ef-1032c04052db"},"vehicle_type_id":"4","last_reported":1736871047,"current_range_meters":16800,"station_id":"","pricing_plan_id":"cebpf4jnsgd1na2vs0mg"},{"bike_id":"b83e1677-b52b-47a0-baaa-e1e20bc54298","system_id":"levelo_inurba_marseille","lat":43.30188,"lon":5.36598,"is_reserved":false,"is_disabled":false,"rental_uris":{"android":"levelo://app?vid=b83e1677-b52b-47a0-baaa-e1e20bc54298","ios":"levelo://app?vid=b83e1677-b52b-47a0-baaa-e1e20bc54298"},"vehicle_type_id":"4","last_reported":1736871047,"current_range_meters":38800,"station_id":"ce4bgrh2rcd13ifvqc8g","pricing_plan_id":"cebpf4jnsgd1na2vs0mg"},{"bike_id":"5d6ee491-db6f-4a2a-8dad-1e433239109a","system_id":"levelo_inurba_marseille","lat":43.25582,"lon":5.38221,"is_reserved":false,"is_disabled":false,"rental_uris":{"android":"levelo://app?vid=5d6ee491-db6f-4a2a-8dad-1e433239109a","ios":"levelo://app?vid=5d6ee491-db6f-4a2a-8dad-1e433239109a"},"vehicle_type_id":"4","last_reported":1736871047,"current_range_meters":36800,"station_id":"ce4bhih2rcd13ifvqfs0","pricing_plan_id":"cebpf4jnsgd1na2vs0mg"},{"bike_id":"7d8ac7f6-5c78-428b-bd94-e57c8bfc8ef0","system_id":"levelo_inurba_marseille","lat":43.31112,"lon":5.37762,"is_reserved":false,"is_disabled":true,"rental_uris":{"android":"levelo://app?vid=7d8ac7f6-5c78-428b-bd94-e57c8bfc8ef0","ios":"levelo://app?vid=7d8ac7f6-5c78-428b-bd94-e57c8bfc8ef0"},"vehicle_type_id":"4","last_reported":1736871047,"current_range_meters":0,"station_id":"ce4bgt92rcd13ifvqcg0","pricing_plan_id":"cebpf4jnsgd1na2vs0mg"},{"bike_id":"a67c2e60-a460-4298-95da-6bdc6757298f","system_id":"levelo_inurba_marseille","lat":43.29568,"lon":5.37516,"is_reserved":false,"is_disabled":false,"rental_uris":{"android":"levelo://app?vid=a67c2e60-a460-4298-95da-6bdc6757298f","ios":"levelo://app?vid=a67c2e60-a460-4298-95da-6bdc6757298f"},"vehicle_type_id":"4","last_reported":1736871047,"current_range_meters":12000,"station_id":"ce4bgh92rcd13ifvqb50","pricing_plan_id":"cebpf4jnsgd1na2vs0mg"},{"bike_id":"f5940b2d-3e41-42b1-9cdd-8fbae942f3f9","system_id":"levelo_inurba_marseille","lat":43.23054,"lon":5.35497,"is_reserved":false,"is_disabled":true,"rental_uris":{"android":"levelo://app?vid=f5940b2d-3e41-42b1-9cdd-8fbae942f3f9","ios":"levelo://app?vid=f5940b2d-3e41-42b1-9cdd-8fbae942f3f9"},"vehicle_type_id":"4","last_reported":1736871047,"current_range_meters":0,"station_id":"cpo3342slgdg3j2ifvpg","pricing_plan_id":"cebpf4jnsgd1na2vs0mg"},{"bike_id":"f8ee1e24-7238-4b9b-ad16-c87abc2c2167","system_id":"levelo_inurba_marseille","lat":43.297982,"lon":5.39341,"is_reserved":false,"is_disabled":false,"rental_uris":{"android":"levelo://app?vid=f8ee1e24-7238-4b9b-ad16-c87abc2c2167","ios":"levelo://app?vid=f8ee1e24-7238-4b9b-ad16-c87abc2c2167"},"vehicle_type_id":"4","last_reported":1736871047,"current_range_meters":38800,"station_id":"chh1huq6cuj3fo74tm60","pricing_plan_id":"cebpf4jnsgd1na2vs0mg"},{"bike_id":"a6d76396-e4b2-4f63-a1cc-611897989b12","system_id":"levelo_inurba_marseille","lat":43.27556,"lon":5.38419,"is_reserved":false,"is_disabled":false,"rental_uris":{"android":"levelo://app?vid=a6d76396-e4b2-4f63-a1cc-611897989b12","ios":"levelo://app?vid=a6d76396-e4b2-4f63-a1cc-611897989b12"},"vehicle_type_id":"4","last_reported":1736871047,"current_range_meters":39200,"station_id":"ce4bhh92rcd13ifvqfi0","pricing_plan_id":"cebpf4jnsgd1na2vs0mg"},{"bike_id":"52abfc8a-c7fe-4323-9539-47d5636fb413","system_id":"levelo_inurba_marseille","lat":43.32563,"lon":5.40928,"is_reserved":false,"is_disabled":false,"rental_uris":{"android":"levelo://app?vid=52abfc8a-c7fe-4323-9539-47d5636fb413","ios":"levelo://app?vid=52abfc8a-c7fe-4323-9539-47d5636fb413"},"vehicle_type_id":"4","last_reported":1736871047,"current_range_meters":38800,"station_id":"ce4bhpp2rcd13ifvqhgg","pricing_plan_id":"cebpf4jnsgd1na2vs0mg"},{"bike_id":"ce30afb5-dee0-4d78-89c4-10e233b428af","system_id":"levelo_inurba_marseille","lat":43.30557,"lon":5.36523,"is_reserved":false,"is_disabled":false,"rental_uris":{"android":"levelo://app?vid=ce30afb5-dee0-4d78-89c4-10e233b428af","ios":"levelo://app?vid=ce30afb5-dee0-4d78-89c4-10e233b428af"},"vehicle_type_id":"4","last_reported":1736871047,"current_range_meters":38800,"station_id":"ce4bgs12rcd13ifvqcag","pricing_plan_id":"cebpf4jnsgd1na2vs0mg"},{"bike_id":"36c1eb3d-8573-4196-9630-d7dca2bb7e96","system_id":"levelo_inurba_marseille","lat":43.3176,"lon":5.39015,"is_reserved":false,"is_disabled":false,"rental_uris":{"android":"levelo://app?vid=36c1eb3d-8573-4196-9630-d7dca2bb7e96","ios":"levelo://app?vid=36c1eb3d-8573-4196-9630-d7dca2bb7e96"},"vehicle_type_id":"4","last_reported":1736871047,"current_range_meters":38800,"station_id":"ce4bhqp2rcd13ifvqhng","pricing_plan_id":"cebpf4jnsgd1na2vs0mg"},{"bike_id":"8209023f-0970-41b6-925d-03b995d009cc","system_id":"levelo_inurba_marseille","lat":43.26212,"lon":5.37436,"is_reserved":false,"is_disabled":false,"rental_uris":{"android":"levelo://app?vid=8209023f-0970-41b6-925d-03b995d009cc","ios":"levelo://app?vid=8209023f-0970-41b6-925d-03b995d009cc"},"vehicle_type_id":"4","last_reported":1736871047,"current_range_meters":13600,"station_id":"ce4bhgp2rcd13ifvqfc0","pricing_plan_id":"cebpf4jnsgd1na2vs0mg"},{"bike_id":"0c5c5280-883d-40ad-9609-d6d5aaa708a4","system_id":"levelo_inurba_marseille","lat":43.26946,"lon":5.40259,"is_reserved":false,"is_disabled":false,"rental_uris":{"android":"levelo://app?vid=0c5c5280-883d-40ad-9609-d6d5aaa708a4","ios":"levelo://app?vid=0c5c5280-883d-40ad-9609-d6d5aaa708a4"},"vehicle_type_id":"4","last_reported":1736871047,"current_range_meters":30400,"station_id":"cjm6bp8fraef2m0cb0m0","pricing_plan_id":"cebpf4jnsgd1na2vs0mg"},{"bike_id":"af9a295e-efa9-45fa-9f4d-c2eabe08bcd4","system_id":"levelo_inurba_marseille","lat":43.313107,"lon":5.39679,"is_reserved":false,"is_disabled":false,"rental_uris":{"android":"levelo://app?vid=af9a295e-efa9-45fa-9f4d-c2eabe08bcd4","ios":"levelo://app?vid=af9a295e-efa9-45fa-9f4d-c2eabe08bcd4"},"vehicle_type_id":"4","last_reported":1736871047,"current_range_meters":10000,"station_id":"ce4bgvp2rcd13ifvqcu0","pricing_plan_id":"cebpf4jnsgd1na2vs0mg"},{"bike_id":"23cc28a0-3129-4876-b054-63dbfc87393b","system_id":"levelo_inurba_marseille","lat":43.24995,"lon":5.38939,"is_reserved":false,"is_disabled":false,"rental_uris":{"android":"levelo://app?vid=23cc28a0-3129-4876-b054-63dbfc87393b","ios":"levelo://app?vid=23cc28a0-3129-4876-b054-63dbfc87393b"},"vehicle_type_id":"4","last_reported":1736871047,"current_range_meters":28000,"station_id":"ce4bhgp2rcd13ifvqfd0","pricing_plan_id":"cebpf4jnsgd1na2vs0mg"},{"bike_id":"8c665972-891f-429a-987c-e4efe33ca7dc","system_id":"levelo_inurba_marseille","lat":43.2799,"lon":5.41666,"is_reserved":false,"is_disabled":false,"rental_uris":{"android":"levelo://app?vid=8c665972-891f-429a-987c-e4efe33ca7dc","ios":"levelo://app?vid=8c665972-891f-429a-987c-e4efe33ca7dc"},"vehicle_type_id":"4","last_reported":1736871047,"current_range_meters":39200,"station_id":"ce4bho12rcd13ifvqh1g","pricing_plan_id":"cebpf4jnsgd1na2vs0mg"},{"bike_id":"61fb419c-80eb-45f7-8c99-2f14636ef5aa","system_id":"levelo_inurba_marseille","lat":43.28848,"lon":5.35851,"is_reserved":false,"is_disabled":false,"rental_uris":{"android":"levelo://app?vid=61fb419c-80eb-45f7-8c99-2f14636ef5aa","ios":"levelo://app?vid=61fb419c-80eb-45f7-8c99-2f14636ef5aa"},"vehicle_type_id":"4","last_reported":1736871047,"current_range_meters":35200,"station_id":"ce4bhb12rcd13ifvqem0","pricing_plan_id":"cebpf4jnsgd1na2vs0mg"},{"bike_id":"bbd97b4c-f891-4b13-8598-e0d12e200a96","system_id":"levelo_inurba_marseille","lat":43.29435,"lon":5.39763,"is_reserved":false,"is_disabled":true,"rental_uris":{"android":"levelo://app?vid=bbd97b4c-f891-4b13-8598-e0d12e200a96","ios":"levelo://app?vid=bbd97b4c-f891-4b13-8598-e0d12e200a96"},"vehicle_type_id":"4","last_reported":1736871047,"current_range_meters":1200,"station_id":"ce4bh3h2rcd13ifvqdo0","pricing_plan_id":"cebpf4jnsgd1na2vs0mg"},{"bike_id":"8db995ac-05a5-42d1-8623-4a7adde52b4d","system_id":"levelo_inurba_marseille","lat":43.293626,"lon":5.37842,"is_reserved":false,"is_disabled":false,"rental_uris":{"android":"levelo://app?vid=8db995ac-05a5-42d1-8623-4a7adde52b4d","ios":"levelo://app?vid=8db995ac-05a5-42d1-8623-4a7adde52b4d"},"vehicle_type_id":"4","last_reported":1736871047,"current_range_meters":31200,"station_id":"ce4bgph2rcd13ifvqc2g","pricing_plan_id":"cebpf4jnsgd1na2vs0mg"},{"bike_id":"65b813c6-d29c-4882-8469-a5e1af60d899","system_id":"levelo_inurba_marseille","lat":43.26057,"lon":5.39384,"is_reserved":false,"is_disabled":false,"rental_uris":{"android":"levelo://app?vid=65b813c6-d29c-4882-8469-a5e1af60d899","ios":"levelo://app?vid=65b813c6-d29c-4882-8469-a5e1af60d899"},"vehicle_type_id":"4","last_reported":1736871047,"current_range_meters":29600,"station_id":"ce4bhh92rcd13ifvqfj0","pricing_plan_id":"cebpf4jnsgd1na2vs0mg"},{"bike_id":"e50d33b8-e4db-40ee-929f-237b7f1d0a28","system_id":"levelo_inurba_marseille","lat":43.29925,"lon":5.37466,"is_reserved":false,"is_disabled":false,"rental_uris":{"android":"levelo://app?vid=e50d33b8-e4db-40ee-929f-237b7f1d0a28","ios":"levelo://app?vid=e50d33b8-e4db-40ee-929f-237b7f1d0a28"},"vehicle_type_id":"4","last_reported":1736871047,"current_range_meters":36800,"station_id":"ce4bgjh2rcd13ifvqbg0","pricing_plan_id":"cebpf4jnsgd1na2vs0mg"},{"bike_id":"3a8d2a73-6cea-42b9-a94e-5d6d95ba226e","system_id":"levelo_inurba_marseille","lat":43.31993,"lon":5.38168,"is_reserved":false,"is_disabled":false,"rental_uris":{"android":"levelo://app?vid=3a8d2a73-6cea-42b9-a94e-5d6d95ba226e","ios":"levelo://app?vid=3a8d2a73-6cea-42b9-a94e-5d6d95ba226e"},"vehicle_type_id":"4","last_reported":1736871047,"current_range_meters":13600,"station_id":"ce4bhr12rcd13ifvqhpg","pricing_plan_id":"cebpf4jnsgd1na2vs0mg"},{"bike_id":"e6fe4ad7-0ea4-4187-9f64-451836376a86","system_id":"levelo_inurba_marseille","lat":43.32105,"lon":5.36757,"is_reserved":false,"is_disabled":false,"rental_uris":{"android":"levelo://app?vid=e6fe4ad7-0ea4-4187-9f64-451836376a86","ios":"levelo://app?vid=e6fe4ad7-0ea4-4187-9f64-451836376a86"},"vehicle_type_id":"4","last_reported":1736871047,"current_range_meters":32000,"station_id":"ce4bhrh2rcd13ifvqhug","pricing_plan_id":"cebpf4jnsgd1na2vs0mg"},{"bike_id":"1998a075-222f-4580-8e61-e742c4f944b0","system_id":"levelo_inurba_marseille","lat":43.28827,"lon":5.35854,"is_reserved":false,"is_disabled":false,"rental_uris":{"android":"levelo://app?vid=1998a075-222f-4580-8e61-e742c4f944b0","ios":"levelo://app?vid=1998a075-222f-4580-8e61-e742c4f944b0"},"vehicle_type_id":"4","last_reported":1736871047,"current_range_meters":36800,"station_id":"ce4bhb12rcd13ifvqem0","pricing_plan_id":"cebpf4jnsgd1na2vs0mg"},{"bike_id":"3895ab64-b999-4d45-bf01-0461673b4319","system_id":"levelo_inurba_marseille","lat":43.33033,"lon":5.39023,"is_reserved":false,"is_disabled":false,"rental_uris":{"android":"levelo://app?vid=3895ab64-b999-4d45-bf01-0461673b4319","ios":"levelo://app?vid=3895ab64-b999-4d45-bf01-0461673b4319"},"vehicle_type_id":"4","last_reported":1736871047,"current_range_meters":13600,"station_id":"ce4bhr92rcd13ifvqhrg","pricing_plan_id":"cebpf4jnsgd1na2vs0mg"},{"bike_id":"5c9f4c33-c050-4b89-ae4d-260b91ee1f0b","system_id":"levelo_inurba_marseille","lat":43.26051,"lon":5.39394,"is_reserved":false,"is_disabled":false,"rental_uris":{"android":"levelo://app?vid=5c9f4c33-c050-4b89-ae4d-260b91ee1f0b","ios":"levelo://app?vid=5c9f4c33-c050-4b89-ae4d-260b91ee1f0b"},"vehicle_type_id":"4","last_reported":1736871047,"current_range_meters":16000,"station_id":"ce4bhh92rcd13ifvqfj0","pricing_plan_id":"cebpf4jnsgd1na2vs0mg"},{"bike_id":"10156f69-c7cf-4959-b722-a71c1d69f8e1","system_id":"levelo_inurba_marseille","lat":43.28856,"lon":5.35854,"is_reserved":false,"is_disabled":false,"rental_uris":{"android":"levelo://app?vid=10156f69-c7cf-4959-b722-a71c1d69f8e1","ios":"levelo://app?vid=10156f69-c7cf-4959-b722-a71c1d69f8e1"},"vehicle_type_id":"4","last_reported":1736871047,"current_range_meters":36000,"station_id":"ce4bhb12rcd13ifvqem0","pricing_plan_id":"cebpf4jnsgd1na2vs0mg"},{"bike_id":"b9e5a27a-5152-4026-8047-755f14355da8","system_id":"levelo_inurba_marseille","lat":43.29854,"lon":5.36298,"is_reserved":false,"is_disabled":false,"rental_uris":{"android":"levelo://app?vid=b9e5a27a-5152-4026-8047-755f14355da8","ios":"levelo://app?vid=b9e5a27a-5152-4026-8047-755f14355da8"},"vehicle_type_id":"4","last_reported":1736871047,"current_range_meters":38000,"station_id":"ce4bgpp2rcd13ifvqc3g","pricing_plan_id":"cebpf4jnsgd1na2vs0mg"},{"bike_id":"f8434606-784b-4a59-9f48-40baacc5dc23","system_id":"levelo_inurba_marseille","lat":43.28718,"lon":5.37942,"is_reserved":false,"is_disabled":false,"rental_uris":{"android":"levelo://app?vid=f8434606-784b-4a59-9f48-40baacc5dc23","ios":"levelo://app?vid=f8434606-784b-4a59-9f48-40baacc5dc23"},"vehicle_type_id":"4","last_reported":1736871047,"current_range_meters":36800,"station_id":"ce4bh9p2rcd13ifvqec0","pricing_plan_id":"cebpf4jnsgd1na2vs0mg"},