{"last_updated":1685210860,"ttl":30,"version":"2.2","data":{"bikes":[{"bike_id":"54716154-8db0-4266-ab8e-a58a594b5020","system_id":"levelo_inurba_marseille","lat":43.312239,"lon":5.368562,"is_reserved":false,"is_disabled":false,"rental_uris":{"android":"levelo://app?vid=54716154-8db0-4266-ab8e-a58a594b5020","ios":"levelo://app?vid=54716154-8db0-4266-ab8e-a58a594b5020"},"vehicle_type_id":"4","last_reported":1685210861,"current_range_meters":0,"station_id":"ce4bgl92rcd13ifvqbq0","pricing_plan_id":"free"},{"bike_id":"434b499d-a3c1-4d78-a194-5f95d610d127","system_id":"levelo_inurba_marseille","lat":43.309076,"lon":5.368465,"is_reserved":false,"is_disabled":false,"rental_uris":{"android":"levelo://app?vid=434b499d-a3c1-4d78-a194-5f95d610d127","ios":"levelo://app?vid=434b499d-a3c1-4d78-a194-5f95d610d127"},"vehicle_type_id":"4","last_reported":1685210861,"current_range_meters":6400,"station_id":"ce4bgn92rcd13ifvqbvg","pricing_plan_id":"free"},{"bike_id":"306306e8-a2e7-416c-9093-23cdfcb84b60","system_id":"levelo_inurba_marseille","lat":43.314811,"lon":5.373103,"is_reserved":false,"is_disabled":false,"rental_uris":{"android":"levelo://app?vid=306306e8-a2e7-416c-9093-23cdfcb84b60","ios":"levelo://app?vid=306306e8-a2e7-416c-9093-23cdfcb84b60"},"vehicle_type_id":"4","last_reported":1685210861,"current_range_meters":18800,"station_id":"ce4bgt12rcd13ifvqcd0","pricing_plan_id":"free"},{"bike_id":"0f48955d-14f2-4966-83ec-554e7e581563","system_id":"levelo_inurba_marseille","lat":43.314811,"lon":5.373103,"is_reserved":false,"is_disabled":false,"rental_uris":{"android":"levelo://app?vid=0f48955d-14f2-4966-83ec-554e7e581563","ios":"levelo://app?vid=0f48955d-14f2-4966-83ec-554e7e581563"},"vehicle_type_id":"4","last_reported":1685210861,"current_range_meters":12400,"station_id":"ce4bgt12rcd13ifvqcd0","pricing_plan_id":"free"},{"bike_id":"0187d512-7b4d-4e9e-981b-2304a2c9aa86","system_id":"levelo_inurba_marseille","lat":43.308614,"lon":5.372098,"is_reserved":false,"is_disabled":false,"rental_uris":{"android":"levelo://app?vid=0187d512-7b4d-4e9e-981b-2304a2c9aa86","ios":"levelo://app?vid=0187d512-7b4d-4e9e-981b-2304a2c9aa86"},"vehicle_type_id":"4","last_reported":1685210861,"current_range_meters":13200,"station_id":"ce4bguh2rcd13ifvqckg","pricing_plan_id":"free"},{"bike_id":"b2f83fe0-8170-4fb3-b5ca-42fc93a0f249","system_id":"levelo_inurba_marseille","lat":43.31707,"lon":5.3775,"is_reserved":false,"is_disabled":false,"rental_uris":{"android":"levelo://app?vid=b2f83fe0-8170-4fb3-b5ca-42fc93a0f249","ios":"levelo://app?vid=b2f83fe0-8170-4fb3-b5ca-42fc93a0f249"},"vehicle_type_id":"4","last_reported":1685210861,"current_range_meters":7600,"station_id":"ce4bgth2rcd13ifvqch0","pricing_plan_id":"free"},{"bike_id":"1da00bbd-3c98-45a7-a814-4f7a0c3874ae","system_id":"levelo_inurba_marseille","lat":43.301939,"lon":5.366286,"is_reserved":false,"is_disabled":false,"rental_uris":{"android":"levelo://app?vid=1da00bbd-3c98-45a7-a814-4f7a0c3874ae","ios":"levelo://app?vid=1da00bbd-3c98-45a7-a814-4f7a0c3874ae"},"vehicle_type_id":"4","last_reported":1685210861,"current_range_meters":1200,"station_id":"ce4bgrh2rcd13ifvqc8g","pricing_plan_id":"free"},{"bike_id":"7eb53555-11f1-4d07-9f3e-2b558458aa7c","system_id":"levelo_inurba_marseille","lat":43.308435,"lon":5.381155,"is_reserved":false,"is_disabled":false,"rental_uris":{"android":"levelo://app?vid=7eb53555-11f1-4d07-9f3e-2b558458aa7c","ios":"levelo://app?vid=7eb53555-11f1-4d07-9f3e-2b558458aa7c"},"vehicle_type_id":"4","last_reported":1685210861,"current_range_meters":9200,"station_id":"","pricing_plan_id":"free"},{"bike_id":"edc96815-b3ab-4c58-b65b-672be6b50dea","system_id":"levelo_inurba_marseille","lat":43.31368,"lon":5.38524,"is_reserved":false,"is_disabled":false,"rental_uris":{"android":"levelo://app?vid=edc96815-b3ab-4c58-b65b-672be6b50dea","ios":"levelo://app?vid=edc96815-b3ab-4c58-b65b-672be6b50dea"},"vehicle_type_id":"4","last_reported":1685210861,"current_range_meters":18800,"station_id":"","pricing_plan_id":"free"},{"bike_id":"3a2ea4f6-5b98-4e2c-a830-18c0c7acb72f","system_id":"levelo_inurba_marseille","lat":43.30647,"lon":5.38317,"is_reserved":false,"is_disabled":false,"rental_uris":{"android":"levelo://app?vid=3a2ea4f6-5b98-4e2c-a830-18c0c7acb72f","ios":"levelo://app?vid=3a2ea4f6-5b98-4e2c-a830-18c0c7acb72f"},"vehicle_type_id":"4","last_reported":1685210861,"current_range_meters":13600,"station_id":"","pricing_plan_id":"free"},{"bike_id":"88beb1a9-2cc3-45e5-a009-771f6f3a0fcb","system_id":"levelo_inurba_marseille","lat":43.297774,"lon":5.370875,"is_reserved":false,"is_disabled":false,"rental_uris":{"android":"levelo://app?vid=88beb1a9-2cc3-45e5-a009-771f6f3a0fcb","ios":"levelo://app?vid=88beb1a9-2cc3-45e5-a009-771f6f3a0fcb"},"vehicle_type_id":"4","last_reported":1685210861,"current_range_meters":0,"station_id":"ce4bgop2rcd13ifvqc1g","pricing_plan_id":"free"},{"bike_id":"e961e46b-2ae3-40d0-80a3-5be6b1b8a17e","system_id":"levelo_inurba_marseille","lat":43.32825,"lon":5.36669,"is_reserved":false,"is_disabled":false,"rental_uris":{"android":"levelo://app?vid=e961e46b-2ae3-40d0-80a3-5be6b1b8a17e","ios":"levelo://app?vid=e961e46b-2ae3-40d0-80a3-5be6b1b8a17e"},"vehicle_type_id":"4","last_reported":1685210861,"current_range_meters":0,"station_id":"ce4bhs92rcd13ifvqi0g","pricing_plan_id":"free"},{"bike_id":"6aadd20f-ee22-42f7-9c69-f3066c5dfcf1","system_id":"levelo_inurba_marseille","lat":43.328371,"lon":5.366909,"is_reserved":false,"is_disabled":false,"rental_uris":{"android":"levelo://app?vid=6aadd20f-ee22-42f7-9c69-f3066c5dfcf1","ios":"levelo://app?vid=6aadd20f-ee22-42f7-9c69-f3066c5dfcf1"},"vehicle_type_id":"4","last_reported":1685210861,"current_range_meters":14800,"station_id":"ce4bhs92rcd13ifvqi0g","pricing_plan_id":"free"},{"bike_id":"e56cb228-bb4d-4c0c-918c-5fb17ff8d7c3","system_id":"levelo_inurba_marseille","lat":43.32833,"lon":5.3668,"is_reserved":false,"is_disabled":false,"rental_uris":{"android":"levelo://app?vid=e56cb228-bb4d-4c0c-918c-5fb17ff8d7c3","ios":"levelo://app?vid=e56cb228-bb4d-4c0c-918c-5fb17ff8d7c3"},"vehicle_type_id":"4","last_reported":1685210861,"current_range_meters":0,"station_id":"ce4bhs92rcd13ifvqi0g","pricing_plan_id":"free"},{"bike_id":"b155dcba-95cc-4ccf-ba20-1d7bd945f59d","system_id":"levelo_inurba_marseille","lat":43.296131,"lon":5.370791,"is_reserved":false,"is_disabled":false,"rental_uris":{"android":"levelo://app?vid=b155dcba-95cc-4ccf-ba20-1d7bd945f59d","ios":"levelo://app?vid=b155dcba-95cc-4ccf-ba20-1d7bd945f59d"},"vehicle_type_id":"4","last_reported":1685210861,"current_range_meters":0,"station_id":"ce4bgnh2rcd13ifvqc0g","pricing_plan_id":"free"},{"bike_id":"53d2ddd6-f061-4f19-aad0-ba3a5e778cc5","system_id":"levelo_inurba_marseille","lat":43.298037,"lon":5.381066,"is_reserved":false,"is_disabled":false,"rental_uris":{"android":"levelo://app?vid=53d2ddd6-f061-4f19-aad0-ba3a5e778cc5","ios":"levelo://app?vid=53d2ddd6-f061-4f19-aad0-ba3a5e778cc5"},"vehicle_type_id":"4","last_reported":1685210861,"current_range_meters":10000,"station_id":"ce4bgip2rcd13ifvqbb0","pricing_plan_id":"free"},{"bike_id":"15e8677d-5b3e-4f71-b79f-d573596365af","system_id":"levelo_inurba_marseille","lat":43.297871,"lon":5.38108,"is_reserved":false,"is_disabled":false,"rental_uris":{"android":"levelo://app?vid=15e8677d-5b3e-4f71-b79f-d573596365af","ios":"levelo://app?vid=15e8677d-5b3e-4f71-b79f-d573596365af"},"vehicle_type_id":"4","last_reported":1685210861,"current_range_meters":1200,"station_id":"ce4bgip2rcd13ifvqbb0","pricing_plan_id":"free"},{"bike_id":"396d055f-777d-4be4-975d-8c196c043191","system_id":"levelo_inurba_marseille","lat":43.29779,"lon":5.38108,"is_reserved":false,"is_disabled":false,"rental_uris":{"android":"levelo://app?vid=396d055f-777d-4be4-975d-8c196c043191","ios":"levelo://app?vid=396d055f-777d-4be4-975d-8c196c043191"},"vehicle_type_id":"4","last_reported":1685210861,"current_range_meters":23200,"station_id":"","pricing_plan_id":"free"},{"bike_id":"ee4f0031-1ede-4367-99f6-88058e42d6c3","system_id":"levelo_inurba_marseille","lat":43.298037,"lon":5.381066,"is_reserved":false,"is_disabled":false,"rental_uris":{"android":"levelo://app?vid=ee4f0031-1ede-4367-99f6-88058e42d6c3","ios":"levelo://app?vid=ee4f0031-1ede-4367-99f6-88058e42d6c3"},"vehicle_type_id":"4","last_reported":1685210861,"current_range_meters":0,"station_id":"ce4bgip2rcd13ifvqbb0","pricing_plan_id":"free"},{"bike_id":"99ed0568-7118-4d48-90eb-33eb567f56d8","system_id":"levelo_inurba_marseille","lat":43.299724,"lon":5.384848,"is_reserved":false,"is_disabled":false,"rental_uris":{"android":"levelo://app?vid=99ed0568-7118-4d48-90eb-33eb567f56d8","ios":"levelo://app?vid=99ed0568-7118-4d48-90eb-33eb567f56d8"},"vehicle_type_id":"4","last_reported":1685210861,"current_range_meters":0,"station_id":"ce4bgj92rcd13ifvqbd0","pricing_plan_id":"free"},{"bike_id":"3289b7bc-6138-4ebb-8d82-2b0e69f1f911","system_id":"levelo_inurba_marseille","lat":43.296556,"lon":5.381226,"is_reserved":false,"is_disabled":false,"rental_uris":{"android":"levelo://app?vid=3289b7bc-6138-4ebb-8d82-2b0e69f1f911","ios":"levelo://app?vid=3289b7bc-6138-4ebb-8d82-2b0e69f1f911"},"vehicle_type_id":"4","last_reported":1685210861,"current_range_meters":0,"station_id":"","pricing_plan_id":"free"},{"bike_id":"a951aef8-5ecb-4e89-b776-e5cc065d4608","system_id":"levelo_inurba_marseille","lat":43.29602,"lon":5.381084,"is_reserved":false,"is_disabled":false,"rental_uris":{"android":"levelo://app?vid=a951aef8-5ecb-4e89-b776-e5cc065d4608","ios":"levelo://app?vid=a951aef8-5ecb-4e89-b776-e5cc065d4608"},"vehicle_type_id":"4","last_reported":1685210861,"current_range_meters":0,"station_id":"ce4bgl12rcd13ifvqbo0","pricing_plan_id":"free"},{"bike_id":"c31a5043-1219-4cc5-9c7e-11bba5131ff8","system_id":"levelo_inurba_marseille","lat":43.305994,"lon":5.393687,"is_reserved":false,"is_disabled":false,"rental_uris":{"android":"levelo://app?vid=c31a5043-1219-4cc5-9c7e-11bba5131ff8","ios":"levelo://app?vid=c31a5043-1219-4cc5-9c7e-11bba5131ff8"},"vehicle_type_id":"4","last_reported":1685210861,"current_range_meters":13600,"station_id":"ce4bh0p2rcd13ifvqd80","pricing_plan_id":"free"},{"bike_id":"2ae3ebf7-79f5-4f24-8443-34e67ecad567","system_id":"levelo_inurba_marseille","lat":43.293009,"lon":5.374584,"is_reserved":false,"is_disabled":false,"rental_uris":{"android":"levelo://app?vid=2ae3ebf7-79f5-4f24-8443-34e67ecad567","ios":"levelo://app?vid=2ae3ebf7-79f5-4f24-8443-34e67ecad567"},"vehicle_type_id":"4","last_reported":1685210861,"current_range_meters":21600,"station_id":"ce4bgi12rcd13ifvqb70","pricing_plan_id":"free"},{"bike_id":"423a51bb-ab88-4a03-abc2-f9300ccc282c","system_id":"levelo_inurba_marseille","lat":43.293009,"lon":5.374584,"is_reserved":false,"is_disabled":false,"rental_uris":{"android":"levelo://app?vid=423a51bb-ab88-4a03-abc2-f9300ccc282c","ios":"levelo://app?vid=423a51bb-ab88-4a03-abc2-f9300ccc282c"},"vehicle_type_id":"4","last_reported":1685210861,"current_range_meters":7600,"station_id":"ce4bgi12rcd13ifvqb70","pricing_plan_id":"free"},{"bike_id":"e6e44e77-9b35-4c64-894e-899dd274c667","system_id":"levelo_inurba_marseille","lat":43.303002,"lon":5.392142,"is_reserved":false,"is_disabled":false,"rental_uris":{"android":"levelo://app?vid=e6e44e77-9b35-4c64-894e-899dd274c667","ios":"levelo://app?vid=e6e44e77-9b35-4c64-894e-899dd274c667"},"vehicle_type_id":"4","last_reported":1685210861,"current_range_meters":17600,"station_id":"ce4bgkh2rcd13ifvqbk0","pricing_plan_id":"free"},{"bike_id":"736ad724-5f76-4a2c-9d58-1a0e3da1f7b4","system_id":"levelo_inurba_marseille","lat":43.2936,"lon":5.37835,"is_reserved":false,"is_disabled":false,"rental_uris":{"android":"levelo://app?vid=736ad724-5f76-4a2c-9d58-1a0e3da1f7b4","ios":"levelo://app?vid=736ad724-5f76-4a2c-9d58-1a0e3da1f7b4"},"vehicle_type_id":"4","last_reported":1685210861,"current_range_meters":4400,"station_id":"ce4bgjh2rcd13ifvqbf0","pricing_plan_id":"free"},{"bike_id":"2ed7a940-d837-4a82-b13f-09e61742618d","system_id":"levelo_inurba_marseille","lat":43.2936,"lon":5.37835,"is_reserved":false,"is_disabled":false,"rental_uris":{"android":"levelo://app?vid=2ed7a940-d837-4a82-b13f-09e61742618d","ios":"levelo://app?vid=2ed7a940-d837-4a82-b13f-09e61742618d"},"vehicle_type_id":"4","last_reported":1685210861,"current_range_meters":7200,"station_id":"ce4bgjh2rcd13ifvqbf0","pricing_plan_id":"free"},{"bike_id":"0a5553f4-2d31-4b95-a250-9c23a06414dc","system_id":"levelo_inurba_marseille","lat":43.292311,"lon":5.360731,"is_reserved":false,"is_disabled":false,"rental_uris":{"android":"levelo://app?vid=0a5553f4-2d31-4b95-a250-9c23a06414dc","ios":"levelo://app?vid=0a5553f4-2d31-4b95-a250-9c23a06414dc"},"vehicle_type_id":"4","last_reported":1685210861,"current_range_meters":3200,"station_id":"ce4bhbh2rcd13ifvqeqg","pricing_plan_id":"free"},{"bike_id":"15c811ab-5d89-439a-84f0-b69d223d3acc","system_id":"levelo_inurba_marseille","lat":43.300852,"lon":5.390859,"is_reserved":false,"is_disabled":false,"rental_uris":{"android":"levelo://app?vid=15c811ab-5d89-439a-84f0-b69d223d3acc","ios":"levelo://app?vid=15c811ab-5d89-439a-84f0-b69d223d3acc"},"vehicle_type_id":"4","last_reported":1685210861,"current_range_meters":0,"station_id":"ce4bh192rcd13ifvqdb0","pricing_plan_id":"free"},{"bike_id":"7bbb2ff2-407b-4a43-9804-225b8a3e87ba","system_id":"levelo_inurba_marseille","lat":43.292663,"lon":5.376394,"is_reserved":false,"is_disabled":false,"rental_uris":{"android":"levelo://app?vid=7bbb2ff2-407b-4a43-9804-225b8a3e87ba","ios":"levelo://app?vid=7bbb2ff2-407b-4a43-9804-225b8a3e87ba"},"vehicle_type_id":"4","last_reported":1685210861,"current_range_meters":4000,"station_id":"ce4bgi12rcd13ifvqb80","pricing_plan_id":"free"},{"bike_id":"95772e0a-5c2a-4446-a8a3-b830c506478d","system_id":"levelo_inurba_marseille","lat":43.29529,"lon":5.385581,"is_reserved":false,"is_disabled":false,"rental_uris":{"android":"levelo://app?vid=95772e0a-5c2a-4446-a8a3-b830c506478d","ios":"levelo://app?vid=95772e0a-5c2a-4446-a8a3-b830c506478d"},"vehicle_type_id":"4","last_reported":1685210861,"current_range_meters":21600,"station_id":"ce4bgih2rcd13ifvqba0","pricing_plan_id":"free"},{"bike_id":"ac595663-ea53-423d-82fd-e7be75b11068","system_id":"levelo_inurba_marseille","lat":43.29529,"lon":5.385581,"is_reserved":false,"is_disabled":false,"rental_uris":{"android":"levelo://app?vid=ac595663-ea53-423d-82fd-e7be75b11068","ios":"levelo://app?vid=ac595663-ea53-423d-82fd-e7be75b11068"},"vehicle_type_id":"4","last_reported":1685210861,"current_range_meters":4800,"station_id":"ce4bgih2rcd13ifvqba0","pricing_plan_id":"free"},{"bike_id":"558b4e25-4825-4d8e-a01d-0471cbc75052","system_id":"levelo_inurba_marseille","lat":43.289184,"lon":5.366408,"is_reserved":false,"is_disabled":false,"rental_uris":{"android":"levelo://app?vid=558b4e25-4825-4d8e-a01d-0471cbc75052","ios":"levelo://app?vid=558b4e25-4825-4d8e-a01d-0471cbc75052"},"vehicle_type_id":"4","last_reported":1685210861,"current_range_meters":6400,"station_id":"ce4bhap2rcd13ifvqek0","pricing_plan_id":"free"},{"bike_id":"44fcd6b5-c2e1-4a77-a555-58c80a5d021a","system_id":"levelo_inurba_marseille","lat":43.28947,"lon":5.36635,"is_reserved":false,"is_disabled":false,"rental_uris":{"android":"levelo://app?vid=44fcd6b5-c2e1-4a77-a555-58c80a5d021a","ios":"levelo://app?vid=44fcd6b5-c2e1-4a77-a555-58c80a5d021a"},"vehicle_type_id":"4","last_reported":1685210861,"current_range_meters":0,"station_id":"","pricing_plan_id":"free"},{"bike_id":"e5b02caf-9244-47cf-af21-c3e777862a10","system_id":"levelo_inurba_marseille","lat":43.290327,"lon":5.375711,"is_reserved":false,"is_disabled":false,"rental_uris":{"android":"levelo://app?vid=e5b02caf-9244-47cf-af21-c3e777862a10","ios":"levelo://app?vid=e5b02caf-9244-47cf-af21-c3e777862a10"},"vehicle_type_id":"4","last_reported":1685210861,"current_range_meters":7600,"station_id":"ce4bh692rcd13ifvqe90","pricing_plan_id":"free"},{"bike_id":"bfc182f1-8447-4aa9-9acb-1bcb2be7b0fe","system_id":"levelo_inurba_marseille","lat":43.292644,"lon":5.384257,"is_reserved":false,"is_disabled":false,"rental_uris":{"android":"levelo://app?vid=bfc182f1-8447-4aa9-9acb-1bcb2be7b0fe","ios":"levelo://app?vid=bfc182f1-8447-4aa9-9acb-1bcb2be7b0fe"},"vehicle_type_id":"4","last_reported":1685210861,"current_range_meters":0,"station_id":"ce4bh692rcd13ifvqea0","pricing_plan_id":"free"},{"bike_id":"4d71b054-45fd-43d5-bdc9-9c0433ceea6b","system_id":"levelo_inurba_marseille","lat":43.292644,"lon":5.384257,"is_reserved":false,"is_disabled":false,"rental_uris":{"android":"levelo://app?vid=4d71b054-45fd-43d5-bdc9-9c0433ceea6b","ios":"levelo://app?vid=4d71b054-45fd-43d5-bdc9-9c0433ceea6b"},"vehicle_type_id":"4","last_reported":1685210861,"current_range_meters":12000,"station_id":"ce4bh692rcd13ifvqea0","pricing_plan_id":"free"},{"bike_id":"59521fa4-5d3d-488e-9631-fe7869b3309b","system_id":"levelo_inurba_marseille","lat":43.292642,"lon":5.384254,"is_reserved":false,"is_disabled":false,"rental_uris":{"android":"levelo://app?vid=59521fa4-5d3d-488e-9631-fe7869b3309b","ios":"levelo://app?vid=59521fa4-5d3d-488e-9631-fe7869b3309b"},"vehicle_type_id":"4","last_reported":1685210861,"current_range_meters":19600,"station_id":"ce4bh692rcd13ifvqea0","pricing_plan_id":"free"},{"bike_id":"e8bb5fb2-2540-4135-94b0-8533b129a8d2","system_id":"levelo_inurba_marseille","lat":43.290103,"lon":5.356114,"is_reserved":false,"is_disabled":false,"rental_uris":{"android":"levelo://app?vid=e8bb5fb2-2540-4135-94b0-8533b129a8d2","ios":"levelo://app?vid=e8bb5fb2-2540-4135-94b0-8533b129a8d2"},"vehicle_type_id":"4","last_reported":1685210861,"current_range_meters":400,"station_id":"ce4bhb92rcd13ifvqen0","pricing_plan_id":"free"},{"bike_id":"51ba0788-e548-439d-8742-8c892b7336f7","system_id":"levelo_inurba_marseille","lat":43.289741,"lon":5.378306,"is_reserved":false,"is_disabled":false,"rental_uris":{"android":"levelo://app?vid=51ba0788-e548-439d-8742-8c892b7336f7","ios":"levelo://app?vid=51ba0788-e548-439d-8742-8c892b7336f7"},"vehicle_type_id":"4","last_reported":1685210861,"current_range_meters":0,"station_id":"ce4bh9p2rcd13ifvqed0","pricing_plan_id":"free"},{"bike_id":"314e3fff-63ac-4674-96c6-bab38d5247b5","system_id":"levelo_inurba_marseille","lat":43.2901,"lon":5.381269,"is_reserved":false,"is_disabled":false,"rental_uris":{"android":"levelo://app?vid=314e3fff-63ac-4674-96c6-bab38d5247b5","ios":"levelo://app?vid=314e3fff-63ac-4674-96c6-bab38d5247b5"},"vehicle_type_id":"4","last_reported":1685210861,"current_range_meters":19600,"station_id":"ce4bh4p2rcd13ifvqe1g","pricing_plan_id":"free"},{"bike_id":"493860ce-e063-4684-ab33-c360eaf64153","system_id":"levelo_inurba_marseille","lat":43.33744,"lon":5.37451,"is_reserved":false,"is_disabled":false,"rental_uris":{"android":"levelo://app?vid=493860ce-e063-4684-ab33-c360eaf64153","ios":"levelo://app?vid=493860ce-e063-4684-ab33-c360eaf64153"},"vehicle_type_id":"4","last_reported":1685210861,"current_range_meters":21200,"station_id":"","pricing_plan_id":"free"},{"bike_id":"c67b547c-3fcb-4384-8614-e15f558fec55","system_id":"levelo_inurba_marseille","lat":43.33744,"lon":5.37451,"is_reserved":false,"is_disabled":false,"rental_uris":{"android":"levelo://app?vid=c67b547c-3fcb-4384-8614-e15f558fec55","ios":"levelo://app?vid=c67b547c-3fcb-4384-8614-e15f558fec55"},"vehicle_type_id":"4","last_reported":1685210861,"current_range_meters":30400,"station_id":"","pricing_plan_id":"free"},{"bike_id":"556c6db1-2600-4c2b-9521-aae8453517c1","system_id":"levelo_inurba_marseille","lat":43.33754,"lon":5.37447,"is_reserved":false,"is_disabled":false,"rental_uris":{"android":"levelo://app?vid=556c6db1-2600-4c2b-9521-aae8453517c1","ios":"levelo://app?vid=556c6db1-2600-4c2b-9521-aae8453517c1"},"vehicle_type_id":"4","last_reported":1685210861,"current_range_meters":17200,"station_id":"","pricing_plan_id":"free"},{"bike_id":"21bebb90-bd37-4351-9ead-f26273aea005","system_id":"levelo_inurba_marseille","lat":43.33756,"lon":5.37438,"is_reserved":false,"is_disabled":false,"rental_uris":{"android":"levelo://app?vid=21bebb90-bd37-4351-9ead-f26273aea005","ios":"levelo://app?vid=21bebb90-bd37-4351-9ead-f26273aea005"},"vehicle_type_id":"4","last_reported":1685210861,"current_range_meters":14800,"station_id":"","pricing_plan_id":"free"},{"bike_id":"141c14ea-594b-43ee-894e-8c44af1dcd73","system_id":"levelo_inurba_marseille","lat":43.33754,"lon":5.37456,"is_reserved":false,"is_disabled":false,"rental_uris":{"android":"levelo://app?vid=141c14ea-594b-43ee-894e-8c44af1dcd73","ios":"levelo://app?vid=141c14ea-594b-43ee-894e-8c44af1dcd73"},"vehicle_type_id":"4","last_reported":1685210861,"current_range_meters":10800,"station_id":"","pricing_plan_id":"free"},{"bike_id":"5aaf445f-f097-4041-99e9-0b2edc8a39b1","system_id":"levelo_inurba_marseille","lat":43.33757,"lon":5.37441,"is_reserved":false,"is_disabled":false,"rental_uris":{"android":"levelo://app?vid=5aaf445f-f097-4041-99e9-0b2edc8a39b1","ios":"levelo://app?vid=5aaf445f-f097-4041-99e9-0b2edc8a39b1"},"vehicle_type_id":"4","last_reported":1685210861,"current_range_meters":24000,"station_id":"","pricing_plan_id":"free"},{"bike_id":"9e8ba907-b276-46b3-a0d4-643791b8cf62","system_id":"levelo_inurba_marseille","lat":43.33757,"lon":5.37445,"is_reserved":false,"is_disabled":false,"rental_uris":{"android":"levelo://app?vid=9e8ba907-b276-46b3-a0d4-643791b8cf62","ios":"levelo://app?vid=9e8ba907-b276-46b3-a0d4-643791b8cf62"},"vehicle_type_id":"4","last_reported":1685210861,"current_range_meters":30400,"station_id":"","pricing_plan_id":"free"},{"bike_id":"4a9be2f7-5d74-4d13-b74a-62d2aef957fc","system_id":"levelo_inurba_marseille","lat":43.337564,"lon":5.374517,"is_reserved":false,"is_disabled":false,"rental_uris":{"android":"levelo://app?vid=4a9be2f7-5d74-4d13-b74a-62d2aef957fc","ios":"levelo://app?vid=4a9be2f7-5d74-4d13-b74a-62d2aef957fc"},"vehicle_type_id":"4","last_reported":1685210861,"current_range_meters":30000,"station_id":"","pricing_plan_id":"free"},{"bike_id":"c622c08e-a260-4027-b92a-839107253eb5","system_id":"levelo_inurba_marseille","lat":43.33758,"lon":5.37457,"is_reserved":false,"is_disabled":false,"rental_uris":{"android":"levelo://app?vid=c622c08e-a260-4027-b92a-839107253eb5","ios":"levelo://app?vid=c622c08e-a260-4027-b92a-839107253eb5"},"vehicle_type_id":"4","last_reported":1685210861,"current_range_meters":29200,"station_id":"","pricing_plan_id":"free"},{"bike_id":"6288e839-6c0f-47be-93eb-1da2eda1d039","system_id":"levelo_inurba_marseille","lat":43.302759,"lon":5.400793,"is_reserved":false,"is_disabled":false,"rental_uris":{"android":"levelo://app?vid=6288e839-6c0f-47be-93eb-1da2eda1d039","ios":"levelo://app?vid=6288e839-6c0f-47be-93eb-1da2eda1d039"},"vehicle_type_id":"4","last_reported":1685210861,"current_range_meters":10400,"station_id":"ce4bgvh2rcd13ifvqcs0","pricing_plan_id":"free"},{"bike_id":"a845a36b-6be1-4c3d-be81-3fba8f3a5319","system_id":"levelo_inurba_marseille","lat":43.29031,"lon":5.3865,"is_reserved":false,"is_disabled":false,"rental_uris":{"android":"levelo://app?vid=a845a36b-6be1-4c3d-be81-3fba8f3a5319","ios":"levelo://app?vid=a845a36b-6be1-4c3d-be81-3fba8f3a5319"},"vehicle_type_id":"4","last_reported":1685210861,"current_range_meters":0,"station_id":"ce4bh4p2rcd13ifvqe0g","pricing_plan_id":"free"},{"bike_id":"0d2eaeb8-0ab1-4e1f-9917-889773bd3cae","system_id":"levelo_inurba_marseille","lat":43.302759,"lon":5.400793,"is_reserved":false,"is_disabled":false,"rental_uris":{"android":"levelo://app?vid=0d2eaeb8-0ab1-4e1f-9917-889773bd3cae","ios":"levelo://app?vid=0d2eaeb8-0ab1-4e1f-9917-889773bd3cae"},"vehicle_type_id":"4","last_reported":1685210861,"current_range_meters":0,"station_id":"ce4bgvh2rcd13ifvqcs0","pricing_plan_id":"free"},{"bike_id":"eae2136a-8797-4cc7-8b58-b6fd90ec3dd0","system_id":"levelo_inurba_marseille","lat":43.290336,"lon":5.386425,"is_reserved":false,"is_disabled":false,"rental_uris":{"android":"levelo://app?vid=eae2136a-8797-4cc7-8b58-b6fd90ec3dd0","ios":"levelo://app?vid=eae2136a-8797-4cc7-8b58-b6fd90ec3dd0"},"vehicle_type_id":"4","last_reported":1685210861,"current_range_meters":0,"station_id":"ce4bh4p2rcd13ifvqe0g","pricing_plan_id":"free"},{"bike_id":"bebe428a-2d8e-4aae-8981-891934765a27","system_id":"levelo_inurba_marseille","lat":43.286039,"lon":5.370681,"is_reserved":false,"is_disabled":false,"rental_uris":{"android":"levelo://app?vid=bebe428a-2d8e-4aae-8981-891934765a27","ios":"levelo://app?vid=bebe428a-2d8e-4aae-8981-891934765a27"},"vehicle_type_id":"4","last_reported":1685210861,"current_range_meters":0,"station_id":"ce4bht12rcd13ifvqi60","pricing_plan_id":"free"},{"bike_id":"c315df92-f7a8-4669-a138-d121ab2eac5d","system_id":"levelo_inurba_marseille","lat":43.286039,"lon":5.370679,"is_reserved":false,"is_disabled":false,"rental_uris":{"android":"levelo://app?vid=c315df92-f7a8-4669-a138-d121ab2eac5d","ios":"levelo://app?vid=c315df92-f7a8-4669-a138-d121ab2eac5d"},"vehicle_type_id":"4","last_reported":1685210861,"current_range_meters":24400,"station_id":"ce4bht12rcd13ifvqi60","pricing_plan_id":"free"},{"bike_id":"5e5f9ac6-e421-4bc8-8d8b-afabf962480d","system_id":"levelo_inurba_marseille","lat":43.286039,"lon":5.370679,"is_reserved":false,"is_disabled":false,"rental_uris":{"android":"levelo://app?vid=5e5f9ac6-e421-4bc8-8d8b-afabf962480d","ios":"levelo://app?vid=5e5f9ac6-e421-4bc8-8d8b-afabf962480d"},"vehicle_type_id":"4","last_reported":1685210861,"current_range_meters":21600,"station_id":"ce4bht12rcd13ifvqi60","pricing_plan_id":"free"},{"bike_id":"2398c1d3-842f-4f89-aabf-8f3d74a9c2a7","system_id":"levelo_inurba_marseille","lat":43.286039,"lon":5.370679,"is_reserved":false,"is_disabled":false,"rental_uris":{"android":"levelo://app?vid=2398c1d3-842f-4f89-aabf-8f3d74a9c2a7","ios":"levelo://app?vid=2398c1d3-842f-4f89-aabf-8f3d74a9c2a7"},"vehicle_type_id":"4","last_reported":1685210861,"current_range_meters":10800,"station_id":"ce4bht12rcd13ifvqi60","pricing_plan_id":"free"},{"bike_id":"ba74e9e7-9e62-4704-af50-1a42093b51e1","system_id":"levelo_inurba_marseille","lat":43.286039,"lon":5.370681,"is_reserved":false,"is_disabled":false,"rental_uris":{"android":"levelo://app?vid=ba74e9e7-9e62-4704-af50-1a42093b51e1","ios":"levelo://app?vid=ba74e9e7-9e62-4704-af50-1a42093b51e1"},"vehicle_type_id":"4","last_reported":1685210861,"current_range_meters":14000,"station_id":"ce4bht12rcd13ifvqi60","pricing_plan_id":"free"},{"bike_id":"0cd3ed44-88b9-4b9b-bfc9-3447b50921f3","system_id":"levelo_inurba_marseille","lat":43.286039,"lon":5.370681,"is_reserved":false,"is_disabled":false,"rental_uris":{"android":"levelo://app?vid=0cd3ed44-88b9-4b9b-bfc9-3447b50921f3","ios":"levelo://app?vid=0cd3ed44-88b9-4b9b-bfc9-3447b50921f3"},"vehicle_type_id":"4","last_reported":1685210861,"current_range_meters":2800,"station_id":"ce4bht12rcd13ifvqi60","pricing_plan_id":"free"},{"bike_id":"6062b8f1-85bc-4e9d-a83f-1b10523e10f7","system_id":"levelo_inurba_marseille","lat":43.31647,"lon":5.40435,"is_reserved":false,"is_disabled":false,"rental_uris":{"android":"levelo://app?vid=6062b8f1-85bc-4e9d-a83f-1b10523e10f7","ios":"levelo://app?vid=6062b8f1-85bc-4e9d-a83f-1b10523e10f7"},"vehicle_type_id":"4","last_reported":1685210861,"current_range_meters":6400,"station_id":"ce4bh012rcd13ifvqd00","pricing_plan_id":"free"},{"bike_id":"4ebe09ea-bbd9-477a-ad27-805daef49ec1","system_id":"levelo_inurba_marseille","lat":43.31649,"lon":5.40437,"is_reserved":false,"is_disabled":false,"rental_uris":{"android":"levelo://app?vid=4ebe09ea-bbd9-477a-ad27-805daef49ec1","ios":"levelo://app?vid=4ebe09ea-bbd9-477a-ad27-805daef49ec1"},"vehicle_type_id":"4","last_reported":1685210861,"current_range_meters":0,"station_id":"ce4bh012rcd13ifvqd00","pricing_plan_id":"free"},{"bike_id":"4b8df877-6c77-471c-89bc-60caeb7c31fe","system_id":"levelo_inurba_marseille","lat":43.31647,"lon":5.40438,"is_reserved":false,"is_disabled":false,"rental_uris":{"android":"levelo://app?vid=4b8df877-6c77-471c-89bc-60caeb7c31fe","ios":"levelo://app?vid=4b8df877-6c77-471c-89bc-60caeb7c31fe"},"vehicle_type_id":"4","last_reported":1685210861,"current_range_meters":13600,"station_id":"ce4bh012rcd13ifvqd00","pricing_plan_id":"free"},{"bike_id":"c12b2d71-4ccc-4b32-bc96-87591d0374c8","system_id":"levelo_inurba_marseille","lat":43.291994,"lon":5.392907,"is_reserved":false,"is_disabled":false,"rental_uris":{"android":"levelo://app?vid=c12b2d71-4ccc-4b32-bc96-87591d0374c8","ios":"levelo://app?vid=c12b2d71-4ccc-4b32-bc96-87591d0374c8"},"vehicle_type_id":"4","last_reported":1685210861,"current_range_meters":22400,"station_id":"ce4bh192rcd13ifvqdd0","pricing_plan_id":"free"},{"bike_id":"eadd4df2-da17-4dcb-ba28-c96b00e276d2","system_id":"levelo_inurba_marseille","lat":43.284534,"lon":5.358662,"is_reserved":false,"is_disabled":false,"rental_uris":{"android":"levelo://app?vid=eadd4df2-da17-4dcb-ba28-c96b00e276d2","ios":"levelo://app?vid=eadd4df2-da17-4dcb-ba28-c96b00e276d2"},"vehicle_type_id":"4","last_reported":1685210861,"current_range_meters":0,"station_id":"ce4bhah2rcd13ifvqei0","pricing_plan_id":"free"},{"bike_id":"2348d087-1843-4193-8b3c-bf484617785f","system_id":"levelo_inurba_marseille","lat":43.28617,"lon":5.35101,"is_reserved":false,"is_disabled":false,"rental_uris":{"android":"levelo://app?vid=2348d087-1843-4193-8b3c-bf484617785f","ios":"levelo://app?vid=2348d087-1843-4193-8b3c-bf484617785f"},"vehicle_type_id":"4","last_reported":1685210861,"current_range_meters":13600,"station_id":"","pricing_plan_id":"free"},{"bike_id":"4d674584-5955-4792-840c-4cd661a754f1","system_id":"levelo_inurba_marseille","lat":43.28615,"lon":5.35098,"is_reserved":false,"is_disabled":false,"rental_uris":{"android":"levelo://app?vid=4d674584-5955-4792-840c-4cd661a754f1","ios":"levelo://app?vid=4d674584-5955-4792-840c-4cd661a754f1"},"vehicle_type_id":"4","last_reported":1685210861,"current_range_meters":14400,"station_id":"","pricing_plan_id":"free"},{"bike_id":"be07427c-35fb-4bb6-998e-6d9e3d529329","system_id":"levelo_inurba_marseille","lat":43.285856,"lon":5.350771,"is_reserved":false,"is_disabled":false,"rental_uris":{"android":"levelo://app?vid=be07427c-35fb-4bb6-998e-6d9e3d529329","ios":"levelo://app?vid=be07427c-35fb-4bb6-998e-6d9e3d529329"},"vehicle_type_id":"4","last_reported":1685210861,"current_range_meters":800,"station_id":"ce4bhch2rcd13ifvqeug","pricing_plan_id":"free"},{"bike_id":"3571562a-5fd3-4881-877e-c8dd6d1b2e43","system_id":"levelo_inurba_marseille","lat":43.28606,"lon":5.35097,"is_reserved":false,"is_disabled":false,"rental_uris":{"android":"levelo://app?vid=3571562a-5fd3-4881-877e-c8dd6d1b2e43","ios":"levelo://app?vid=3571562a-5fd3-4881-877e-c8dd6d1b2e43"},"vehicle_type_id":"4","last_reported":1685210861,"current_range_meters":3600,"station_id":"","pricing_plan_id":"free"},{"bike_id":"d4094f9a-27bc-4b50-b484-29125ddc5bcc","system_id":"levelo_inurba_marseille","lat":43.295713,"lon":5.399639,"is_reserved":false,"is_disabled":false,"rental_uris":{"android":"levelo://app?vid=d4094f9a-27bc-4b50-b484-29125ddc5bcc","ios":"levelo://app?vid=d4094f9a-27bc-4b50-b484-29125ddc5bcc"},"vehicle_type_id":"4","last_reported":1685210861,"current_range_meters":1600,"station_id":"ce4bh312rcd13ifvqdj0","pricing_plan_id":"free"},{"bike_id":"5dfadb78-e122-4366-ad3d-011c681b05c9","system_id":"levelo_inurba_marseille","lat":43.295713,"lon":5.399639,"is_reserved":false,"is_disabled":false,"rental_uris":{"android":"levelo://app?vid=5dfadb78-e122-4366-ad3d-011c681b05c9","ios":"levelo://app?vid=5dfadb78-e122-4366-ad3d-011c681b05c9"},"vehicle_type_id":"4","last_reported":1685210861,"current_range_meters":2800,"station_id":"ce4bh312rcd13ifvqdj0","pricing_plan_id":"free"},{"bike_id":"bcb18b44-59cc-4f45-a4df-9a40d07005fd","system_id":"levelo_inurba_marseille","lat":43.295682,"lon":5.399697,"is_reserved":false,"is_disabled":false,"rental_uris":{"android":"levelo://app?vid=bcb18b44-59cc-4f45-a4df-9a40d07005fd","ios":"levelo://app?vid=bcb18b44-59cc-4f45-a4df-9a40d07005fd"},"vehicle_type_id":"4","last_reported":1685210861,"current_range_meters":5200,"station_id":"ce4bh312rcd13ifvqdj0","pricing_plan_id":"free"},{"bike_id":"3f20d388-5143-4545-b116-3a9ce091af40","system_id":"levelo_inurba_marseille","lat":43.2866,"lon":5.38659,"is_reserved":false,"is_disabled":false,"rental_uris":{"android":"levelo://app?vid=3f20d388-5143-4545-b116-3a9ce091af40","ios":"levelo://app?vid=3f20d388-5143-4545-b116-3a9ce091af40"},"vehicle_type_id":"4","last_reported":1685210861,"current_range_meters":12800,"station_id":"ce4bh492rcd13ifvqdug","pricing_plan_id":"free"},{"bike_id":"313049e2-232c-4f54-9b26-81086cea8884","system_id":"levelo_inurba_marseille","lat":43.33726,"lon":5.39188,"is_reserved":false,"is_disabled":false,"rental_uris":{"android":"levelo://app?vid=313049e2-232c-4f54-9b26-81086cea8884","ios":"levelo://app?vid=313049e2-232c-4f54-9b26-81086cea8884"},"vehicle_type_id":"4","last_reported":1685210861,"current_range_meters":8000,"station_id":"","pricing_plan_id":"free"},{"bike_id":"4b1299f0-9d0f-4467-86de-50b9d7c74cd5","system_id":"levelo_inurba_marseille","lat":43.284787,"lon":5.384116,"is_reserved":false,"is_disabled":false,"rental_uris":{"android":"levelo://app?vid=4b1299f0-9d0f-4467-86de-50b9d7c74cd5","ios":"levelo://app?vid=4b1299f0-9d0f-4467-86de-50b9d7c74cd5"},"vehicle_type_id":"4","last_reported":1685210861,"current_range_meters":1200,"station_id":"ce4bh512rcd13ifvqe3g","pricing_plan_id":"free"},{"bike_id":"9afa0f1d-e56b-417d-9f43-290ecf879a44","system_id":"levelo_inurba_marseille","lat":43.289184,"lon":5.366408,"is_reserved":false,"is_disabled":false,"rental_uris":{"android":"levelo://app?vid=9afa0f1d-e56b-417d-9f43-290ecf879a44","ios":"levelo://app?vid=9afa0f1d-e56b-417d-9f43-290ecf879a44"},"vehicle_type_id":"4","last_reported":1685210861,"current_range_meters":3200,"station_id":"ce4bhap2rcd13ifvqek0","pricing_plan_id":"free"},{"bike_id":"7dc70d0a-7459-498f-928c-ab67697f9388","system_id":"levelo_inurba_marseille","lat":43.283494,"lon":5.380945,"is_reserved":false,"is_disabled":false,"rental_uris":{"android":"levelo://app?vid=7dc70d0a-7459-498f-928c-ab67697f9388","ios":"levelo://app?vid=7dc70d0a-7459-498f-928c-ab67697f9388"},"vehicle_type_id":"4","last_reported":1685210861,"current_range_meters":800,"station_id":"ce4bh412rcd13ifvqdr0","pricing_plan_id":"free"},{"bike_id":"041ba1d8-edf7-46d0-86db-48a9dffa1a17","system_id":"levelo_inurba_marseille","lat":43.28268,"lon":5.35059,"is_reserved":false,"is_disabled":false,"rental_uris":{"android":"levelo://app?vid=041ba1d8-edf7-46d0-86db-48a9dffa1a17","ios":"levelo://app?vid=041ba1d8-edf7-46d0-86db-48a9dffa1a17"},"vehicle_type_id":"4","last_reported":1685210861,"current_range_meters":800,"station_id":"ce4bhbp2rcd13ifvqerg","pricing_plan_id":"free"},{"bike_id":"7a40110c-e19d-4bc6-a907-970e110cfb0f","system_id":"levelo_inurba_marseille","lat":43.28039,"lon":5.369297,"is_reserved":false,"is_disabled":false,"rental_uris":{"android":"levelo://app?vid=7a40110c-e19d-4bc6-a907-970e110cfb0f","ios":"levelo://app?vid=7a40110c-e19d-4bc6-a907-970e110cfb0f"},"vehicle_type_id":"4","last_reported":1685210861,"current_range_meters":10000,"station_id":"ce4bha12rcd13ifvqef0","pricing_plan_id":"free"},{"bike_id":"8b478fff-083a-4166-b803-12b77950d1b9","system_id":"levelo_inurba_marseille","lat":43.28263,"lon":5.35067,"is_reserved":false,"is_disabled":false,"rental_uris":{"android":"levelo://app?vid=8b478fff-083a-4166-b803-12b77950d1b9","ios":"levelo://app?vid=8b478fff-083a-4166-b803-12b77950d1b9"},"vehicle_type_id":"4","last_reported":1685210861,"current_range_meters":0,"station_id":"ce4bhbp2rcd13ifvqerg","pricing_plan_id":"free"},{"bike_id":"4e714206-f604-4bc2-9215-bb3aeccde328","system_id":"levelo_inurba_marseille","lat":43.28039,"lon":5.36943,"is_reserved":false,"is_disabled":false,"rental_uris":{"android":"levelo://app?vid=4e714206-f604-4bc2-9215-bb3aeccde328","ios":"levelo://app?vid=4e714206-f604-4bc2-9215-bb3aeccde328"},"vehicle_type_id":"4","last_reported":1685210861,"current_range_meters":800,"station_id":"ce4bha12rcd13ifvqef0","pricing_plan_id":"free"},{"bike_id":"4d86ce40-e406-44d0-9e2e-59dcfae65e59","system_id":"levelo_inurba_marseille","lat":43.29041,"lon":5.39947,"is_reserved":false,"is_disabled":false,"rental_uris":{"android":"levelo://app?vid=4d86ce40-e406-44d0-9e2e-59dcfae65e59","ios":"levelo://app?vid=4d86ce40-e406-44d0-9e2e-59dcfae65e59"},"vehicle_type_id":"4","last_reported":1685210861,"current_range_meters":0,"station_id":"ce4bh392rcd13ifvqdm0","pricing_plan_id":"free"},{"bike_id":"cf9803fb-d289-4f38-9f42-d4f4e6c4ce7d","system_id":"levelo_inurba_marseille","lat":43.28573,"lon":5.394992,"is_reserved":false,"is_disabled":false,"rental_uris":{"android":"levelo://app?vid=cf9803fb-d289-4f38-9f42-d4f4e6c4ce7d","ios":"levelo://app?vid=cf9803fb-d289-4f38-9f42-d4f4e6c4ce7d"},"vehicle_type_id":"4","last_reported":1685210861,"current_range_meters":4000,"station_id":"ce4bh292rcd13ifvqdg0","pricing_plan_id":"free"},{"bike_id":"ddb2c8cb-e39b-4780-9f01-0ece9c5e3f7e","system_id":"levelo_inurba_marseille","lat":43.30421,"lon":5.41271,"is_reserved":false,"is_disabled":false,"rental_uris":{"android":"levelo://app?vid=ddb2c8cb-e39b-4780-9f01-0ece9c5e3f7e","ios":"levelo://app?vid=ddb2c8cb-e39b-4780-9f01-0ece9c5e3f7e"},"vehicle_type_id":"4","last_reported":1685210861,"current_range_meters":0,"station_id":"ce4bhop2rcd13ifvqh8g","pricing_plan_id":"free"},{"bike_id":"571c2525-12cf-4e9e-984b-d06f21d0cadb","system_id":"levelo_inurba_marseille","lat":43.27902,"lon":5.38016,"is_reserved":false,"is_disabled":false,"rental_uris":{"android":"levelo://app?vid=571c2525-12cf-4e9e-984b-d06f21d0cadb","ios":"levelo://app?vid=571c2525-12cf-4e9e-984b-d06f21d0cadb"},"vehicle_type_id":"4","last_reported":1685210861,"current_range_meters":3600,"station_id":"","pricing_plan_id":"free"},{"bike_id":"e09b6235-215d-4b66-b7b1-1efa6f651f64","system_id":"levelo_inurba_marseille","lat":43.320045,"lon":5.415046,"is_reserved":false,"is_disabled":false,"rental_uris":{"android":"levelo://app?vid=e09b6235-215d-4b66-b7b1-1efa6f651f64","ios":"levelo://app?vid=e09b6235-215d-4b66-b7b1-1efa6f651f64"},"vehicle_type_id":"4","last_reported":1685210861,"current_range_meters":15600,"station_id":"ce4bhq92rcd13ifvqhkg","pricing_plan_id":"free"},{"bike_id":"38774ce4-3b4d-4ecd-be78-3a6a61ab98de","system_id":"levelo_inurba_marseille","lat":43.325233,"lon":5.414318,"is_reserved":false,"is_disabled":false,"rental_uris":{"android":"levelo://app?vid=38774ce4-3b4d-4ecd-be78-3a6a61ab98de","ios":"levelo://app?vid=38774ce4-3b4d-4ecd-be78-3a6a61ab98de"},"vehicle_type_id":"4","last_reported":1685210861,"current_range_meters":22800,"station_id":"ce4bhq12rcd13ifvqhhg","pricing_plan_id":"free"},{"bike_id":"5498b1c4-00d6-4365-aa1b-d39ebec33ef1","system_id":"levelo_inurba_marseille","lat":43.27618,"lon":5.361009,"is_reserved":false,"is_disabled":false,"rental_uris":{"android":"levelo://app?vid=5498b1c4-00d6-4365-aa1b-d39ebec33ef1","ios":"levelo://app?vid=5498b1c4-00d6-4365-aa1b-d39ebec33ef1"},"vehicle_type_id":"4","last_reported":1685210861,"current_range_meters":12400,"station_id":"ce4bgj92rcd13ifvqbe0","pricing_plan_id":"free"},{"bike_id":"1d2f3743-a4b4-4290-80b9-b69a0e8456f6","system_id":"levelo_inurba_marseille","lat":43.280784,"lon":5.396622,"is_reserved":false,"is_disabled":false,"rental_uris":{"android":"levelo://app?vid=1d2f3743-a4b4-4290-80b9-b69a0e8456f6","ios":"levelo://app?vid=1d2f3743-a4b4-4290-80b9-b69a0e8456f6"},"vehicle_type_id":"4","last_reported":1685210861,"current_range_meters":800,"station_id":"ce4bho12rcd13ifvqh2g","pricing_plan_id":"free"},{"bike_id":"f1cab01f-8b80-4849-8db2-ee872ef59ef9","system_id":"levelo_inurba_marseille","lat":43.278401,"lon":5.392152,"is_reserved":false,"is_disabled":false,"rental_uris":{"android":"levelo://app?vid=f1cab01f-8b80-4849-8db2-ee872ef59ef9","ios":"levelo://app?vid=f1cab01f-8b80-4849-8db2-ee872ef59ef9"},"vehicle_type_id":"4","last_reported":1685210861,"current_range_meters":23200,"station_id":"ce4bhjp2rcd13ifvqga0","pricing_plan_id":"free"},{"bike_id":"fb6694c2-3565-4be8-af84-1cf1516a6b96","system_id":"levelo_inurba_marseille","lat":43.278401,"lon":5.392152,"is_reserved":false,"is_disabled":false,"rental_uris":{"android":"levelo://app?vid=fb6694c2-3565-4be8-af84-1cf1516a6b96","ios":"levelo://app?vid=fb6694c2-3565-4be8-af84-1cf1516a6b96"},"vehicle_type_id":"4","last_reported":1685210861,"current_range_meters":22400,"station_id":"ce4bhjp2rcd13ifvqga0","pricing_plan_id":"free"},{"bike_id":"b21aa594-cd16-44cb-b977-a790eb1f2511","system_id":"levelo_inurba_marseille","lat":43.278399,"lon":5.392139,"is_reserved":false,"is_disabled":false,"rental_uris":{"android":"levelo://app?vid=b21aa594-cd16-44cb-b977-a790eb1f2511","ios":"levelo://app?vid=b21aa594-cd16-44cb-b977-a790eb1f2511"},"vehicle_type_id":"4","last_reported":1685210861,"current_range_meters":27200,"station_id":"ce4bhjp2rcd13ifvqga0","pricing_plan_id":"free"},{"bike_id":"d40562ae-db7a-4024-8042-5400832fc940","system_id":"levelo_inurba_marseille","lat":43.278401,"lon":5.392152,"is_reserved":false,"is_disabled":false,"rental_uris":{"android":"levelo://app?vid=d40562ae-db7a-4024-8042-5400832fc940","ios":"levelo://app?vid=d40562ae-db7a-4024-8042-5400832fc940"},"vehicle_type_id":"4","last_reported":1685210861,"current_range_meters":26400,"station_id":"ce4bhjp2rcd13ifvqga0","pricing_plan_id":"free"},{"bike_id":"ea55f70d-f0c0-48df-81cb-c347118b5378","system_id":"levelo_inurba_marseille","lat":43.278399,"lon":5.392139,"is_reserved":false,"is_disabled":false,"rental_uris":{"android":"levelo://app?vid=ea55f70d-f0c0-48df-81cb-c347118b5378","ios":"levelo://app?vid=ea55f70d-f0c0-48df-81cb-c347118b5378"},"vehicle_type_id":"4","last_reported":1685210861,"current_range_meters":0,"station_id":"ce4bhjp2rcd13ifvqga0","pricing_plan_id":"free"},{"bike_id":"ea6a88d9-5ef1-4c7e-b1fa-671fb9faa5fe","system_id":"levelo_inurba_marseille","lat":43.273613,"lon":5.362705,"is_reserved":false,"is_disabled":false,"rental_uris":{"android":"levelo://app?vid=ea6a88d9-5ef1-4c7e-b1fa-671fb9faa5fe","ios":"levelo://app?vid=ea6a88d9-5ef1-4c7e-b1fa-671fb9faa5fe"},"vehicle_type_id":"4","last_reported":1685210861,"current_range_meters":3200,"station_id":"ce4bhbh2rcd13ifvqeo0","pricing_plan_id":"free"},{"bike_id":"2195513e-2334-476a-8541-d70241a6611d","system_id":"levelo_inurba_marseille","lat":43.273613,"lon":5.362705,"is_reserved":false,"is_disabled":false,"rental_uris":{"android":"levelo://app?vid=2195513e-2334-476a-8541-d70241a6611d","ios":"levelo://app?vid=2195513e-2334-476a-8541-d70241a6611d"},"vehicle_type_id":"4","last_reported":1685210861,"current_range_meters":0,"station_id":"ce4bhbh2rcd13ifvqeo0","pricing_plan_id":"free"},{"bike_id":"9446f208-dfd0-4098-ad80-ac5f8c432a7e","system_id":"levelo_inurba_marseille","lat":43.336134,"lon":5.410341,"is_reserved":false,"is_disabled":false,"rental_uris":{"android":"levelo://app?vid=9446f208-dfd0-4098-ad80-ac5f8c432a7e","ios":"levelo://app?vid=9446f208-dfd0-4098-ad80-ac5f8c432a7e"},"vehicle_type_id":"4","last_reported":1685210861,"current_range_meters":13200,"station_id":"ce4bhqh2rcd13ifvqhmg","pricing_plan_id":"free"},{"bike_id":"91b49189-18df-431a-bbbf-f0b2350181de","system_id":"levelo_inurba_marseille","lat":43.28423,"lon":5.40778,"is_reserved":false,"is_disabled":false,"rental_uris":{"android":"levelo://app?vid=91b49189-18df-431a-bbbf-f0b2350181de","ios":"levelo://app?vid=91b49189-18df-431a-bbbf-f0b2350181de"},"vehicle_type_id":"4","last_reported":1685210861,"current_range_meters":10000,"station_id":"","pricing_plan_id":"free"},{"bike_id":"1703a072-f892-4538-95f0-928ce6730ef9","system_id":"levelo_inurba_marseille","lat":43.317121,"lon":5.423936,"is_reserved":false,"is_disabled":false,"rental_uris":{"android":"levelo://app?vid=1703a072-f892-4538-95f0-928ce6730ef9","ios":"levelo://app?vid=1703a072-f892-4538-95f0-928ce6730ef9"},"vehicle_type_id":"4","last_reported":1685210861,"current_range_meters":18800,"station_id":"ce4bhp92rcd13ifvqhbg","pricing_plan_id":"free"},{"bike_id":"0b9fbcc1-aa3c-4421-b42f-6850326c9592","system_id":"levelo_inurba_marseille","lat":43.273167,"lon":5.390689,"is_reserved":false,"is_disabled":false,"rental_uris":{"android":"levelo://app?vid=0b9fbcc1-aa3c-4421-b42f-6850326c9592","ios":"levelo://app?vid=0b9fbcc1-aa3c-4421-b42f-6850326c9592"},"vehicle_type_id":"4","last_reported":1685210861,"current_range_meters":24400,"station_id":"ce4bhgp2rcd13ifvqfe0","pricing_plan_id":"free"},{"bike_id":"8f6d21f6-585c-4f6e-beaf-62814b0158d6","system_id":"levelo_inurba_marseille","lat":43.273125,"lon":5.390731,"is_reserved":false,"is_disabled":false,"rental_uris":{"android":"levelo://app?vid=8f6d21f6-585c-4f6e-beaf-62814b0158d6","ios":"levelo://app?vid=8f6d21f6-585c-4f6e-beaf-62814b0158d6"},"vehicle_type_id":"4","last_reported":1685210861,"current_range_meters":12400,"station_id":"ce4bhgp2rcd13ifvqfe0","pricing_plan_id":"free"},{"bike_id":"732594ec-4ce4-46a5-8ed1-bd8df3913d2f","system_id":"levelo_inurba_marseille","lat":43.27432,"lon":5.39415,"is_reserved":false,"is_disabled":false,"rental_uris":{"android":"levelo://app?vid=732594ec-4ce4-46a5-8ed1-bd8df3913d2f","ios":"levelo://app?vid=732594ec-4ce4-46a5-8ed1-bd8df3913d2f"},"vehicle_type_id":"4","last_reported":1685210861,"current_range_meters":2800,"station_id":"","pricing_plan_id":"free"},{"bike_id":"b858ad10-13de-44b8-b3bd-a7bb51ffe5eb","system_id":"levelo_inurba_marseille","lat":43.27426,"lon":5.39419,"is_reserved":false,"is_disabled":false,"rental_uris":{"android":"levelo://app?vid=b858ad10-13de-44b8-b3bd-a7bb51ffe5eb","ios":"levelo://app?vid=b858ad10-13de-44b8-b3bd-a7bb51ffe5eb"},"vehicle_type_id":"4","last_reported":1685210861,"current_range_meters":5200,"station_id":"","pricing_plan_id":"free"},{"bike_id":"2a4b1635-5008-43bd-b8a3-7fdc556b9610","system_id":"levelo_inurba_marseille","lat":43.304096,"lon":5.425385,"is_reserved":false,"is_disabled":false,"rental_uris":{"android":"levelo://app?vid=2a4b1635-5008-43bd-b8a3-7fdc556b9610","ios":"levelo://app?vid=2a4b1635-5008-43bd-b8a3-7fdc556b9610"},"vehicle_type_id":"4","last_reported":1685210861,"current_range_meters":22800,"station_id":"ce4bhoh2rcd13ifvqh6g","pricing_plan_id":"free"},{"bike_id":"a703deb0-7c18-4797-9a49-57b709d1d1b1","system_id":"levelo_inurba_marseille","lat":43.304114,"lon":5.42538,"is_reserved":false,"is_disabled":false,"rental_uris":{"android":"levelo://app?vid=a703deb0-7c18-4797-9a49-57b709d1d1b1","ios":"levelo://app?vid=a703deb0-7c18-4797-9a49-57b709d1d1b1"},"vehicle_type_id":"4","last_reported":1685210861,"current_range_meters":8800,"station_id":"","pricing_plan_id":"free"},{"bike_id":"215ee86c-5532-4f0d-bd0d-9f68911f542d","system_id":"levelo_inurba_marseille","lat":43.27814,"lon":5.40711,"is_reserved":false,"is_disabled":false,"rental_uris":{"android":"levelo://app?vid=215ee86c-5532-4f0d-bd0d-9f68911f542d","ios":"levelo://app?vid=215ee86c-5532-4f0d-bd0d-9f68911f542d"},"vehicle_type_id":"4","last_reported":1685210861,"current_range_meters":2000,"station_id":"ce4bhnh2rcd13ifvqgtg","pricing_plan_id":"free"},{"bike_id":"745bd31d-5d9e-4efc-8022-8472fd6b52af","system_id":"levelo_inurba_marseille","lat":43.269319,"lon":5.389397,"is_reserved":false,"is_disabled":false,"rental_uris":{"android":"levelo://app?vid=745bd31d-5d9e-4efc-8022-8472fd6b52af","ios":"levelo://app?vid=745bd31d-5d9e-4efc-8022-8472fd6b52af"},"vehicle_type_id":"4","last_reported":1685210861,"current_range_meters":0,"station_id":"ce4bhhh2rcd13ifvqfl0","pricing_plan_id":"free"},{"bike_id":"97f92444-dc7f-4ac8-885e-43ac50454dc0","system_id":"levelo_inurba_marseille","lat":43.31698,"lon":5.43299,"is_reserved":false,"is_disabled":false,"rental_uris":{"android":"levelo://app?vid=97f92444-dc7f-4ac8-885e-43ac50454dc0","ios":"levelo://app?vid=97f92444-dc7f-4ac8-885e-43ac50454dc0"},"vehicle_type_id":"4","last_reported":1685210861,"current_range_meters":0,"station_id":"","pricing_plan_id":"free"},{"bike_id":"797fbfa5-fd5e-4798-ae71-5128ce88ba51","system_id":"levelo_inurba_marseille","lat":43.27996,"lon":5.416624,"is_reserved":false,"is_disabled":false,"rental_uris":{"android":"levelo://app?vid=797fbfa5-fd5e-4798-ae71-5128ce88ba51","ios":"levelo://app?vid=797fbfa5-fd5e-4798-ae71-5128ce88ba51"},"vehicle_type_id":"4","last_reported":1685210861,"current_range_meters":24000,"station_id":"ce4bho12rcd13ifvqh1g","pricing_plan_id":"free"},{"bike_id":"6d2ce819-822d-4f1a-8f15-09307b6a6515","system_id":"levelo_inurba_marseille","lat":43.27996,"lon":5.416624,"is_reserved":false,"is_disabled":false,"rental_uris":{"android":"levelo://app?vid=6d2ce819-822d-4f1a-8f15-09307b6a6515","ios":"levelo://app?vid=6d2ce819-822d-4f1a-8f15-09307b6a6515"},"vehicle_type_id":"4","last_reported":1685210861,"current_range_meters":6000,"station_id":"ce4bho12rcd13ifvqh1g","pricing_plan_id":"free"},{"bike_id":"90e933b1-c07d-4c09-96e8-183353347f5f","system_id":"levelo_inurba_marseille","lat":43.267966,"lon":5.393976,"is_reserved":false,"is_disabled":false,"rental_uris":{"android":"levelo://app?vid=90e933b1-c07d-4c09-96e8-183353347f5f","ios":"levelo://app?vid=90e933b1-c07d-4c09-96e8-183353347f5f"},"vehicle_type_id":"4","last_reported":1685210861,"current_range_meters":7200,"station_id":"ce4bhh12rcd13ifvqfg0","pricing_plan_id":"free"},{"bike_id":"81be6cd9-0538-43ed-8807-40b0f33096b2","system_id":"levelo_inurba_marseille","lat":43.267966,"lon":5.393976,"is_reserved":false,"is_disabled":false,"rental_uris":{"android":"levelo://app?vid=81be6cd9-0538-43ed-8807-40b0f33096b2","ios":"levelo://app?vid=81be6cd9-0538-43ed-8807-40b0f33096b2"},"vehicle_type_id":"4","last_reported":1685210861,"current_range_meters":30800,"station_id":"ce4bhh12rcd13ifvqfg0","pricing_plan_id":"free"},{"bike_id":"ea908395-0c1a-4c64-9715-06eb4089da13","system_id":"levelo_inurba_marseille","lat":43.267966,"lon":5.393976,"is_reserved":false,"is_disabled":false,"rental_uris":{"android":"levelo://app?vid=ea908395-0c1a-4c64-9715-06eb4089da13","ios":"levelo://app?vid=ea908395-0c1a-4c64-9715-06eb4089da13"},"vehicle_type_id":"4","last_reported":1685210861,"current_range_meters":2800,"station_id":"ce4bhh12rcd13ifvqfg0","pricing_plan_id":"free"},{"bike_id":"b812b941-5eb1-4382-ac02-c15d6233d807","system_id":"levelo_inurba_marseille","lat":43.26271,"lon":5.37328,"is_reserved":false,"is_disabled":false,"rental_uris":{"android":"levelo://app?vid=b812b941-5eb1-4382-ac02-c15d6233d807","ios":"levelo://app?vid=b812b941-5eb1-4382-ac02-c15d6233d807"},"vehicle_type_id":"4","last_reported":1685210861,"current_range_meters":13600,"station_id":"","pricing_plan_id":"free"},{"bike_id":"4e645ca2-4763-422d-ae8a-0dec0273be49","system_id":"levelo_inurba_marseille","lat":43.261782,"lon":5.374515,"is_reserved":false,"is_disabled":false,"rental_uris":{"android":"levelo://app?vid=4e645ca2-4763-422d-ae8a-0dec0273be49","ios":"levelo://app?vid=4e645ca2-4763-422d-ae8a-0dec0273be49"},"vehicle_type_id":"4","last_reported":1685210861,"current_range_meters":0,"station_id":"ce4bhgp2rcd13ifvqfc0","pricing_plan_id":"free"},{"bike_id":"32069570-ce3f-4a9d-b693-0d078799951b","system_id":"levelo_inurba_marseille","lat":43.31719,"lon":5.43707,"is_reserved":false,"is_disabled":false,"rental_uris":{"android":"levelo://app?vid=32069570-ce3f-4a9d-b693-0d078799951b","ios":"levelo://app?vid=32069570-ce3f-4a9d-b693-0d078799951b"},"vehicle_type_id":"4","last_reported":1685210861,"current_range_meters":13200,"station_id":"ce4bhp92rcd13ifvqhcg","pricing_plan_id":"free"},{"bike_id":"2a5a81aa-c9d6-4c94-b9cd-d026fcd408b7","system_id":"levelo_inurba_marseille","lat":43.269319,"lon":5.389397,"is_reserved":false,"is_disabled":false,"rental_uris":{"android":"levelo://app?vid=2a5a81aa-c9d6-4c94-b9cd-d026fcd408b7","ios":"levelo://app?vid=2a5a81aa-c9d6-4c94-b9cd-d026fcd408b7"},"vehicle_type_id":"4","last_reported":1685210861,"current_range_meters":5600,"station_id":"ce4bhhh2rcd13ifvqfl0","pricing_plan_id":"free"},{"bike_id":"576bea84-68a4-4902-b6da-199bbf98257d","system_id":"levelo_inurba_marseille","lat":43.267959,"lon":5.402687,"is_reserved":false,"is_disabled":false,"rental_uris":{"android":"levelo://app?vid=576bea84-68a4-4902-b6da-199bbf98257d","ios":"levelo://app?vid=576bea84-68a4-4902-b6da-199bbf98257d"},"vehicle_type_id":"4","last_reported":1685210861,"current_range_meters":3600,"station_id":"ce501612rcd8frsf0b60","pricing_plan_id":"free"},{"bike_id":"116bcce0-c746-47f2-a70b-649a13fb6b6c","system_id":"levelo_inurba_marseille","lat":43.267959,"lon":5.402687,"is_reserved":false,"is_disabled":false,"rental_uris":{"android":"levelo://app?vid=116bcce0-c746-47f2-a70b-649a13fb6b6c","ios":"levelo://app?vid=116bcce0-c746-47f2-a70b-649a13fb6b6c"},"vehicle_type_id":"4","last_reported":1685210861,"current_range_meters":15600,"station_id":"ce501612rcd8frsf0b60","pricing_plan_id":"free"},{"bike_id":"b2cc06a2-b661-4cf4-8720-d993a19ff626","system_id":"levelo_inurba_marseille","lat":43.267959,"lon":5.402687,"is_reserved":false,"is_disabled":false,"rental_uris":{"android":"levelo://app?vid=b2cc06a2-b661-4cf4-8720-d993a19ff626","ios":"levelo://app?vid=b2cc06a2-b661-4cf4-8720-d993a19ff626"},"vehicle_type_id":"4","last_reported":1685210861,"current_range_meters":7600,"station_id":"ce501612rcd8frsf0b60","pricing_plan_id":"free"},{"bike_id":"625cf51e-ab1a-4754-ae5a-a72655adf3ff","system_id":"levelo_inurba_marseille","lat":43.298768,"lon":5.43643,"is_reserved":false,"is_disabled":false,"rental_uris":{"android":"levelo://app?vid=625cf51e-ab1a-4754-ae5a-a72655adf3ff","ios":"levelo://app?vid=625cf51e-ab1a-4754-ae5a-a72655adf3ff"},"vehicle_type_id":"4","last_reported":1685210861,"current_range_meters":6800,"station_id":"ce4bhpp2rcd13ifvqhfg","pricing_plan_id":"free"},{"bike_id":"57572c88-3708-4036-891a-204b9f884608","system_id":"levelo_inurba_marseille","lat":43.298768,"lon":5.43643,"is_reserved":false,"is_disabled":false,"rental_uris":{"android":"levelo://app?vid=57572c88-3708-4036-891a-204b9f884608","ios":"levelo://app?vid=57572c88-3708-4036-891a-204b9f884608"},"vehicle_type_id":"4","last_reported":1685210861,"current_range_meters":9200,"station_id":"ce4bhpp2rcd13ifvqhfg","pricing_plan_id":"free"},{"bike_id":"a01b8269-cd6f-432a-9c44-37513ea96cd0","system_id":"levelo_inurba_marseille","lat":43.298768,"lon":5.43643,"is_reserved":false,"is_disabled":false,"rental_uris":{"android":"levelo://app?vid=a01b8269-cd6f-432a-9c44-37513ea96cd0","ios":"levelo://app?vid=a01b8269-cd6f-432a-9c44-37513ea96cd0"},"vehicle_type_id":"4","last_reported":1685210861,"current_range_meters":29600,"station_id":"ce4bhpp2rcd13ifvqhfg","pricing_plan_id":"free"},{"bike_id":"393fb8d7-9c3a-4c26-adde-9c67bba0a82d","system_id":"levelo_inurba_marseille","lat":43.298768,"lon":5.43643,"is_reserved":false,"is_disabled":false,"rental_uris":{"android":"levelo://app?vid=393fb8d7-9c3a-4c26-adde-9c67bba0a82d","ios":"levelo://app?vid=393fb8d7-9c3a-4c26-adde-9c67bba0a82d"},"vehicle_type_id":"4","last_reported":1685210861,"current_range_meters":17200,"station_id":"ce4bhpp2rcd13ifvqhfg","pricing_plan_id":"free"},{"bike_id":"1522e6fe-e66c-4a0c-a606-391cd3d5a93b","system_id":"levelo_inurba_marseille","lat":43.298768,"lon":5.43643,"is_reserved":false,"is_disabled":false,"rental_uris":{"android":"levelo://app?vid=1522e6fe-e66c-4a0c-a606-391cd3d5a93b","ios":"levelo://app?vid=1522e6fe-e66c-4a0c-a606-391cd3d5a93b"},"vehicle_type_id":"4","last_reported":1685210861,"current_range_meters":31200,"station_id":"ce4bhpp2rcd13ifvqhfg","pricing_plan_id":"free"},{"bike_id":"4e1b86b6-b12c-441f-b5c1-ba0a90fca197","system_id":"levelo_inurba_marseille","lat":43.298768,"lon":5.43643,"is_reserved":false,"is_disabled":false,"rental_uris":{"android":"levelo://app?vid=4e1b86b6-b12c-441f-b5c1-ba0a90fca197","ios":"levelo://app?vid=4e1b86b6-b12c-441f-b5c1-ba0a90fca197"},"vehicle_type_id":"4","last_reported":1685210861,"current_range_meters":31200,"station_id":"ce4bhpp2rcd13ifvqhfg","pricing_plan_id":"free"},{"bike_id":"6b404443-757b-4b8d-9a78-a03ca59013fb","system_id":"levelo_inurba_marseille","lat":43.2592,"lon":5.37283,"is_reserved":false,"is_disabled":false,"rental_uris":{"android":"levelo://app?vid=6b404443-757b-4b8d-9a78-a03ca59013fb","ios":"levelo://app?vid=6b404443-757b-4b8d-9a78-a03ca59013fb"},"vehicle_type_id":"4","last_reported":1685210861,"current_range_meters":13200,"station_id":"","pricing_plan_id":"free"},{"bike_id":"871378a3-199e-474d-8151-1215197a17cd","system_id":"levelo_inurba_marseille","lat":43.2607,"lon":5.393983,"is_reserved":false,"is_disabled":false,"rental_uris":{"android":"levelo://app?vid=871378a3-199e-474d-8151-1215197a17cd","ios":"levelo://app?vid=871378a3-199e-474d-8151-1215197a17cd"},"vehicle_type_id":"4","last_reported":1685210861,"current_range_meters":0,"station_id":"ce4bhh92rcd13ifvqfj0","pricing_plan_id":"free"},{"bike_id":"3679272a-2b25-4ad1-aa1c-de48f932fd3e","system_id":"levelo_inurba_marseille","lat":43.2607,"lon":5.393983,"is_reserved":false,"is_disabled":false,"rental_uris":{"android":"levelo://app?vid=3679272a-2b25-4ad1-aa1c-de48f932fd3e","ios":"levelo://app?vid=3679272a-2b25-4ad1-aa1c-de48f932fd3e"},"vehicle_type_id":"4","last_reported":1685210861,"current_range_meters":14000,"station_id":"ce4bhh92rcd13ifvqfj0","pricing_plan_id":"free"},{"bike_id":"d0bb262b-de9e-4154-b5f4-6ae73f149362","system_id":"levelo_inurba_marseille","lat":43.2607,"lon":5.393983,"is_reserved":false,"is_disabled":false,"rental_uris":{"android":"levelo://app?vid=d0bb262b-de9e-4154-b5f4-6ae73f149362","ios":"levelo://app?vid=d0bb262b-de9e-4154-b5f4-6ae73f149362"},"vehicle_type_id":"4","last_reported":1685210861,"current_range_meters":12000,"station_id":"ce4bhh92rcd13ifvqfj0","pricing_plan_id":"free"},{"bike_id":"e56caf57-63d7-4f3f-92e8-a28f752ce50d","system_id":"levelo_inurba_marseille","lat":43.2607,"lon":5.393983,"is_reserved":false,"is_disabled":false,"rental_uris":{"android":"levelo://app?vid=e56caf57-63d7-4f3f-92e8-a28f752ce50d","ios":"levelo://app?vid=e56caf57-63d7-4f3f-92e8-a28f752ce50d"},"vehicle_type_id":"4","last_reported":1685210861,"current_range_meters":29200,"station_id":"ce4bhh92rcd13ifvqfj0","pricing_plan_id":"free"},{"bike_id":"f072cd81-3b89-40b1-a023-ab01c8f89174","system_id":"levelo_inurba_marseille","lat":43.26082,"lon":5.3977,"is_reserved":false,"is_disabled":false,"rental_uris":{"android":"levelo://app?vid=f072cd81-3b89-40b1-a023-ab01c8f89174","ios":"levelo://app?vid=f072cd81-3b89-40b1-a023-ab01c8f89174"},"vehicle_type_id":"4","last_reported":1685210861,"current_range_meters":13600,"station_id":"ce4bhi12rcd13ifvqfq0","pricing_plan_id":"free"},{"bike_id":"e32cd300-722d-4b89-9763-e960e61395c0","system_id":"levelo_inurba_marseille","lat":43.255756,"lon":5.382303,"is_reserved":false,"is_disabled":false,"rental_uris":{"android":"levelo://app?vid=e32cd300-722d-4b89-9763-e960e61395c0","ios":"levelo://app?vid=e32cd300-722d-4b89-9763-e960e61395c0"},"vehicle_type_id":"4","last_reported":1685210861,"current_range_meters":400,"station_id":"ce4bhih2rcd13ifvqfs0","pricing_plan_id":"free"},{"bike_id":"04c1ccfd-dada-4bfd-9e0c-7e10b9702388","system_id":"levelo_inurba_marseille","lat":43.255756,"lon":5.382303,"is_reserved":false,"is_disabled":false,"rental_uris":{"android":"levelo://app?vid=04c1ccfd-dada-4bfd-9e0c-7e10b9702388","ios":"levelo://app?vid=04c1ccfd-dada-4bfd-9e0c-7e10b9702388"},"vehicle_type_id":"4","last_reported":1685210861,"current_range_meters":1600,"station_id":"ce4bhih2rcd13ifvqfs0","pricing_plan_id":"free"},{"bike_id":"21a94e83-2bcf-4902-8a6a-85407ac0d3c9","system_id":"levelo_inurba_marseille","lat":43.254952,"lon":5.376471,"is_reserved":false,"is_disabled":false,"rental_uris":{"android":"levelo://app?vid=21a94e83-2bcf-4902-8a6a-85407ac0d3c9","ios":"levelo://app?vid=21a94e83-2bcf-4902-8a6a-85407ac0d3c9"},"vehicle_type_id":"4","last_reported":1685210861,"current_range_meters":3600,"station_id":"","pricing_plan_id":"free"},{"bike_id":"f1d9ec7d-26c5-415c-ba2f-d624f9f9037c","system_id":"levelo_inurba_marseille","lat":43.250009,"lon":5.389195,"is_reserved":false,"is_disabled":false,"rental_uris":{"android":"levelo://app?vid=f1d9ec7d-26c5-415c-ba2f-d624f9f9037c","ios":"levelo://app?vid=f1d9ec7d-26c5-415c-ba2f-d624f9f9037c"},"vehicle_type_id":"4","last_reported":1685210861,"current_range_meters":6800,"station_id":"ce4bhgp2rcd13ifvqfd0","pricing_plan_id":"free"},{"bike_id":"1a70b689-a1c4-4f5b-b498-9c33a07059ac","system_id":"levelo_inurba_marseille","lat":43.25004,"lon":5.38914,"is_reserved":false,"is_disabled":false,"rental_uris":{"android":"levelo://app?vid=1a70b689-a1c4-4f5b-b498-9c33a07059ac","ios":"levelo://app?vid=1a70b689-a1c4-4f5b-b498-9c33a07059ac"},"vehicle_type_id":"4","last_reported":1685210861,"current_range_meters":31200,"station_id":"ce4bhgp2rcd13ifvqfd0","pricing_plan_id":"free"},{"bike_id":"2d750423-ef13-4a0c-8c86-ba1534aeaa05","system_id":"levelo_inurba_marseille","lat":43.250009,"lon":5.389195,"is_reserved":false,"is_disabled":false,"rental_uris":{"android":"levelo://app?vid=2d750423-ef13-4a0c-8c86-ba1534aeaa05","ios":"levelo://app?vid=2d750423-ef13-4a0c-8c86-ba1534aeaa05"},"vehicle_type_id":"4","last_reported":1685210861,"current_range_meters":20400,"station_id":"ce4bhgp2rcd13ifvqfd0","pricing_plan_id":"free"},{"bike_id":"36a436a0-aa14-43d6-a56b-0b1454c130d6","system_id":"levelo_inurba_marseille","lat":43.250009,"lon":5.389195,"is_reserved":false,"is_disabled":false,"rental_uris":{"android":"levelo://app?vid=36a436a0-aa14-43d6-a56b-0b1454c130d6","ios":"levelo://app?vid=36a436a0-aa14-43d6-a56b-0b1454c130d6"},"vehicle_type_id":"4","last_reported":1685210861,"current_range_meters":22000,"station_id":"ce4bhgp2rcd13ifvqfd0","pricing_plan_id":"free"},{"bike_id":"bbd40af1-71de-4292-9445-207dba3ee5f2","system_id":"levelo_inurba_marseille","lat":43.250023,"lon":5.38919,"is_reserved":false,"is_disabled":false,"rental_uris":{"android":"levelo://app?vid=bbd40af1-71de-4292-9445-207dba3ee5f2","ios":"levelo://app?vid=bbd40af1-71de-4292-9445-207dba3ee5f2"},"vehicle_type_id":"4","last_reported":1685210861,"current_range_meters":19200,"station_id":"ce4bhgp2rcd13ifvqfd0","pricing_plan_id":"free"},{"bike_id":"eb7fe09f-638d-4204-a814-23507c9bca29","system_id":"levelo_inurba_marseille","lat":43.2479,"lon":5.374457,"is_reserved":false,"is_disabled":false,"rental_uris":{"android":"levelo://app?vid=eb7fe09f-638d-4204-a814-23507c9bca29","ios":"levelo://app?vid=eb7fe09f-638d-4204-a814-23507c9bca29"},"vehicle_type_id":"4","last_reported":1685210861,"current_range_meters":28000,"station_id":"ce4bhgh2rcd13ifvqfb0","pricing_plan_id":"free"},{"bike_id":"7ef0cb7a-1b7c-4110-8fce-ee24271f9255","system_id":"levelo_inurba_marseille","lat":43.2479,"lon":5.374457,"is_reserved":false,"is_disabled":false,"rental_uris":{"android":"levelo://app?vid=7ef0cb7a-1b7c-4110-8fce-ee24271f9255","ios":"levelo://app?vid=7ef0cb7a-1b7c-4110-8fce-ee24271f9255"},"vehicle_type_id":"4","last_reported":1685210861,"current_range_meters":5200,"station_id":"ce4bhgh2rcd13ifvqfb0","pricing_plan_id":"free"},{"bike_id":"315f5e0a-a652-486f-858a-3e20bcad95c9","system_id":"levelo_inurba_marseille","lat":43.25094,"lon":5.39516,"is_reserved":false,"is_disabled":false,"rental_uris":{"android":"levelo://app?vid=315f5e0a-a652-486f-858a-3e20bcad95c9","ios":"levelo://app?vid=315f5e0a-a652-486f-858a-3e20bcad95c9"},"vehicle_type_id":"4","last_reported":1685210861,"current_range_meters":0,"station_id":"ce4bhm12rcd13ifvqgkg","pricing_plan_id":"free"},{"bike_id":"36aecf4c-888a-4aeb-a7f2-f9f1db696406","system_id":"levelo_inurba_marseille","lat":43.250966,"lon":5.395186,"is_reserved":false,"is_disabled":false,"rental_uris":{"android":"levelo://app?vid=36aecf4c-888a-4aeb-a7f2-f9f1db696406","ios":"levelo://app?vid=36aecf4c-888a-4aeb-a7f2-f9f1db696406"},"vehicle_type_id":"4","last_reported":1685210861,"current_range_meters":18400,"station_id":"ce4bhm12rcd13ifvqgkg","pricing_plan_id":"free"},{"bike_id":"65994491-39fe-4e59-b553-acdf89d2203c","system_id":"levelo_inurba_marseille","lat":43.24693,"lon":5.382096,"is_reserved":false,"is_disabled":false,"rental_uris":{"android":"levelo://app?vid=65994491-39fe-4e59-b553-acdf89d2203c","ios":"levelo://app?vid=65994491-39fe-4e59-b553-acdf89d2203c"},"vehicle_type_id":"4","last_reported":1685210861,"current_range_meters":9200,"station_id":"ce4bhih2rcd13ifvqfr0","pricing_plan_id":"free"},{"bike_id":"058da123-8868-4e21-b336-ce3e7f5772e7","system_id":"levelo_inurba_marseille","lat":43.24693,"lon":5.382096,"is_reserved":false,"is_disabled":false,"rental_uris":{"android":"levelo://app?vid=058da123-8868-4e21-b336-ce3e7f5772e7","ios":"levelo://app?vid=058da123-8868-4e21-b336-ce3e7f5772e7"},"vehicle_type_id":"4","last_reported":1685210861,"current_range_meters":14800,"station_id":"ce4bhih2rcd13ifvqfr0","pricing_plan_id":"free"},{"bike_id":"d83aeec5-98a8-4c35-811e-a861f6e80012","system_id":"levelo_inurba_marseille","lat":43.24693,"lon":5.382096,"is_reserved":false,"is_disabled":false,"rental_uris":{"android":"levelo://app?vid=d83aeec5-98a8-4c35-811e-a861f6e80012","ios":"levelo://app?vid=d83aeec5-98a8-4c35-811e-a861f6e80012"},"vehicle_type_id":"4","last_reported":1685210861,"current_range_meters":9200,"station_id":"ce4bhih2rcd13ifvqfr0","pricing_plan_id":"free"},{"bike_id":"0ea236eb-581d-41fc-a9b0-df1004e3db0e","system_id":"levelo_inurba_marseille","lat":43.246571,"lon":5.381585,"is_reserved":false,"is_disabled":false,"rental_uris":{"android":"levelo://app?vid=0ea236eb-581d-41fc-a9b0-df1004e3db0e","ios":"levelo://app?vid=0ea236eb-581d-41fc-a9b0-df1004e3db0e"},"vehicle_type_id":"4","last_reported":1685210861,"current_range_meters":18400,"station_id":"ce4bhih2rcd13ifvqfr0","pricing_plan_id":"free"},{"bike_id":"df6ed138-15f1-4293-a9f6-260650001f58","system_id":"levelo_inurba_marseille","lat":43.24656,"lon":5.38897,"is_reserved":false,"is_disabled":false,"rental_uris":{"android":"levelo://app?vid=df6ed138-15f1-4293-a9f6-260650001f58","ios":"levelo://app?vid=df6ed138-15f1-4293-a9f6-260650001f58"},"vehicle_type_id":"4","last_reported":1685210861,"current_range_meters":19200,"station_id":"ce4bhg12rcd13ifvqf60","pricing_plan_id":"free"},{"bike_id":"33a57e12-eb8c-4b30-a2e4-2dade2611b54","system_id":"levelo_inurba_marseille","lat":43.243884,"lon":5.370737,"is_reserved":false,"is_disabled":false,"rental_uris":{"android":"levelo://app?vid=33a57e12-eb8c-4b30-a2e4-2dade2611b54","ios":"levelo://app?vid=33a57e12-eb8c-4b30-a2e4-2dade2611b54"},"vehicle_type_id":"4","last_reported":1685210861,"current_range_meters":31600,"station_id":"ce4bhhh2rcd13ifvqfk0","pricing_plan_id":"free"},{"bike_id":"e576bd0c-fe79-45d1-9ced-ebed99da6675","system_id":"levelo_inurba_marseille","lat":43.24544,"lon":5.39522,"is_reserved":false,"is_disabled":false,"rental_uris":{"android":"levelo://app?vid=e576bd0c-fe79-45d1-9ced-ebed99da6675","ios":"levelo://app?vid=e576bd0c-fe79-45d1-9ced-ebed99da6675"},"vehicle_type_id":"4","last_reported":1685210861,"current_range_meters":0,"station_id":"ce4bhlp2rcd13ifvqgjg","pricing_plan_id":"free"},{"bike_id":"ce35cd0c-3412-42d2-bc81-38a30e81ce2d","system_id":"levelo_inurba_marseille","lat":43.24542,"lon":5.39524,"is_reserved":false,"is_disabled":false,"rental_uris":{"android":"levelo://app?vid=ce35cd0c-3412-42d2-bc81-38a30e81ce2d","ios":"levelo://app?vid=ce35cd0c-3412-42d2-bc81-38a30e81ce2d"},"vehicle_type_id":"4","last_reported":1685210861,"current_range_meters":26000,"station_id":"ce4bhlp2rcd13ifvqgjg","pricing_plan_id":"free"},{"bike_id":"ca48a4b8-aafe-4d34-bc24-09630ca6a745","system_id":"levelo_inurba_marseille","lat":43.24542,"lon":5.39526,"is_reserved":false,"is_disabled":false,"rental_uris":{"android":"levelo://app?vid=ca48a4b8-aafe-4d34-bc24-09630ca6a745","ios":"levelo://app?vid=ca48a4b8-aafe-4d34-bc24-09630ca6a745"},"vehicle_type_id":"4","last_reported":1685210861,"current_range_meters":12400,"station_id":"ce4bhlp2rcd13ifvqgjg","pricing_plan_id":"free"},{"bike_id":"65c9d813-f717-43b6-a0c3-55f47a8bccea","system_id":"levelo_inurba_marseille","lat":43.24082,"lon":5.37749,"is_reserved":false,"is_disabled":false,"rental_uris":{"android":"levelo://app?vid=65c9d813-f717-43b6-a0c3-55f47a8bccea","ios":"levelo://app?vid=65c9d813-f717-43b6-a0c3-55f47a8bccea"},"vehicle_type_id":"4","last_reported":1685210861,"current_range_meters":21200,"station_id":"","pricing_plan_id":"free"},{"bike_id":"b3ac0f63-1d71-46d2-ba24-5e1165bfbe33","system_id":"levelo_inurba_marseille","lat":43.24081,"lon":5.37758,"is_reserved":false,"is_disabled":false,"rental_uris":{"android":"levelo://app?vid=b3ac0f63-1d71-46d2-ba24-5e1165bfbe33","ios":"levelo://app?vid=b3ac0f63-1d71-46d2-ba24-5e1165bfbe33"},"vehicle_type_id":"4","last_reported":1685210861,"current_range_meters":28400,"station_id":"","pricing_plan_id":"free"},{"bike_id":"c889d2a8-cf9f-4219-bbea-a5b1396f9923","system_id":"levelo_inurba_marseille","lat":43.239588,"lon":5.366238,"is_reserved":false,"is_disabled":false,"rental_uris":{"android":"levelo://app?vid=c889d2a8-cf9f-4219-bbea-a5b1396f9923","ios":"levelo://app?vid=c889d2a8-cf9f-4219-bbea-a5b1396f9923"},"vehicle_type_id":"4","last_reported":1685210861,"current_range_meters":31200,"station_id":"ce4bhi12rcd13ifvqfp0","pricing_plan_id":"free"},{"bike_id":"e374bf27-2ba6-4d13-bb7f-2ec1f2d35bd9","system_id":"levelo_inurba_marseille","lat":43.23964,"lon":5.36631,"is_reserved":false,"is_disabled":false,"rental_uris":{"android":"levelo://app?vid=e374bf27-2ba6-4d13-bb7f-2ec1f2d35bd9","ios":"levelo://app?vid=e374bf27-2ba6-4d13-bb7f-2ec1f2d35bd9"},"vehicle_type_id":"4","last_reported":1685210861,"current_range_meters":17200,"station_id":"ce4bhi12rcd13ifvqfp0","pricing_plan_id":"free"},{"bike_id":"7d512991-0715-434d-b3b5-28a6a1ed3e28","system_id":"levelo_inurba_marseille","lat":43.23964,"lon":5.36628,"is_reserved":false,"is_disabled":false,"rental_uris":{"android":"levelo://app?vid=7d512991-0715-434d-b3b5-28a6a1ed3e28","ios":"levelo://app?vid=7d512991-0715-434d-b3b5-28a6a1ed3e28"},"vehicle_type_id":"4","last_reported":1685210861,"current_range_meters":8000,"station_id":"ce4bhi12rcd13ifvqfp0","pricing_plan_id":"free"},{"bike_id":"fa91ca50-6be9-4e2b-9c75-cd185e6ca172","system_id":"levelo_inurba_marseille","lat":43.239588,"lon":5.366238,"is_reserved":false,"is_disabled":false,"rental_uris":{"android":"levelo://app?vid=fa91ca50-6be9-4e2b-9c75-cd185e6ca172","ios":"levelo://app?vid=fa91ca50-6be9-4e2b-9c75-cd185e6ca172"},"vehicle_type_id":"4","last_reported":1685210861,"current_range_meters":31200,"station_id":"ce4bhi12rcd13ifvqfp0","pricing_plan_id":"free"},{"bike_id":"f1770577-edbd-41af-92e2-252fdc1bbf74","system_id":"levelo_inurba_marseille","lat":43.239588,"lon":5.366238,"is_reserved":false,"is_disabled":false,"rental_uris":{"android":"levelo://app?vid=f1770577-edbd-41af-92e2-252fdc1bbf74","ios":"levelo://app?vid=f1770577-edbd-41af-92e2-252fdc1bbf74"},"vehicle_type_id":"4","last_reported":1685210861,"current_range_meters":26000,"station_id":"ce4bhi12rcd13ifvqfp0","pricing_plan_id":"free"},{"bike_id":"e43c2dc9-1f32-4c78-a044-236fd77e8b4f","system_id":"levelo_inurba_marseille","lat":43.239588,"lon":5.366238,"is_reserved":false,"is_disabled":false,"rental_uris":{"android":"levelo://app?vid=e43c2dc9-1f32-4c78-a044-236fd77e8b4f","ios":"levelo://app?vid=e43c2dc9-1f32-4c78-a044-236fd77e8b4f"},"vehicle_type_id":"4","last_reported":1685210861,"current_range_meters":26000,"station_id":"ce4bhi12rcd13ifvqfp0","pricing_plan_id":"free"},{"bike_id":"9c599f63-69f0-4666-9a5d-78cb1fea4dca","system_id":"levelo_inurba_marseille","lat":43.239588,"lon":5.366238,"is_reserved":false,"is_disabled":false,"rental_uris":{"android":"levelo://app?vid=9c599f63-69f0-4666-9a5d-78cb1fea4dca","ios":"levelo://app?vid=9c599f63-69f0-4666-9a5d-78cb1fea4dca"},"vehicle_type_id":"4","last_reported":1685210861,"current_range_meters":0,"station_id":"ce4bhi12rcd13ifvqfp0","pricing_plan_id":"free"},{"bike_id":"017cbb90-9d16-469d-ab9b-008c01d90208","system_id":"levelo_inurba_marseille","lat":43.23986,"lon":5.38363,"is_reserved":false,"is_disabled":false,"rental_uris":{"android":"levelo://app?vid=017cbb90-9d16-469d-ab9b-008c01d90208","ios":"levelo://app?vid=017cbb90-9d16-469d-ab9b-008c01d90208"},"vehicle_type_id":"4","last_reported":1685210861,"current_range_meters":3600,"station_id":"","pricing_plan_id":"free"},{"bike_id":"2efba59c-2c4d-4071-8a72-2e54c6726ac2","system_id":"levelo_inurba_marseille","lat":43.241782,"lon":5.397261,"is_reserved":false,"is_disabled":false,"rental_uris":{"android":"levelo://app?vid=2efba59c-2c4d-4071-8a72-2e54c6726ac2","ios":"levelo://app?vid=2efba59c-2c4d-4071-8a72-2e54c6726ac2"},"vehicle_type_id":"4","last_reported":1685210861,"current_range_meters":13200,"station_id":"ce4bhn12rcd13ifvqgpg","pricing_plan_id":"free"},{"bike_id":"4f24d25d-0ea1-4607-918c-bc9cda638969","system_id":"levelo_inurba_marseille","lat":43.24176,"lon":5.39742,"is_reserved":false,"is_disabled":false,"rental_uris":{"android":"levelo://app?vid=4f24d25d-0ea1-4607-918c-bc9cda638969","ios":"levelo://app?vid=4f24d25d-0ea1-4607-918c-bc9cda638969"},"vehicle_type_id":"4","last_reported":1685210861,"current_range_meters":4000,"station_id":"ce4bhn12rcd13ifvqgpg","pricing_plan_id":"free"},{"bike_id":"a0aeba0f-ef2f-445e-823d-d15e567c261d","system_id":"levelo_inurba_marseille","lat":43.231923,"lon":5.355545,"is_reserved":false,"is_disabled":false,"rental_uris":{"android":"levelo://app?vid=a0aeba0f-ef2f-445e-823d-d15e567c261d","ios":"levelo://app?vid=a0aeba0f-ef2f-445e-823d-d15e567c261d"},"vehicle_type_id":"4","last_reported":1685210861,"current_range_meters":31600,"station_id":"ce4bhu92rcd13ifvqi70","pricing_plan_id":"free"},{"bike_id":"f0cd827f-e4a4-4c97-921a-b28544e45cf3","system_id":"levelo_inurba_marseille","lat":43.231923,"lon":5.355545,"is_reserved":false,"is_disabled":false,"rental_uris":{"android":"levelo://app?vid=f0cd827f-e4a4-4c97-921a-b28544e45cf3","ios":"levelo://app?vid=f0cd827f-e4a4-4c97-921a-b28544e45cf3"},"vehicle_type_id":"4","last_reported":1685210861,"current_range_meters":16800,"station_id":"ce4bhu92rcd13ifvqi70","pricing_plan_id":"free"},{"bike_id":"7fb56237-be3b-4655-a3b9-2504231ec4f2","system_id":"levelo_inurba_marseille","lat":43.231919,"lon":5.355532,"is_reserved":false,"is_disabled":false,"rental_uris":{"android":"levelo://app?vid=7fb56237-be3b-4655-a3b9-2504231ec4f2","ios":"levelo://app?vid=7fb56237-be3b-4655-a3b9-2504231ec4f2"},"vehicle_type_id":"4","last_reported":1685210861,"current_range_meters":31200,"station_id":"ce4bhu92rcd13ifvqi70","pricing_plan_id":"free"},{"bike_id":"ede59b43-cd20-4962-8167-78d7dde95e02","system_id":"levelo_inurba_marseille","lat":43.231923,"lon":5.355545,"is_reserved":false,"is_disabled":false,"rental_uris":{"android":"levelo://app?vid=ede59b43-cd20-4962-8167-78d7dde95e02","ios":"levelo://app?vid=ede59b43-cd20-4962-8167-78d7dde95e02"},"vehicle_type_id":"4","last_reported":1685210861,"current_range_meters":31200,"station_id":"ce4bhu92rcd13ifvqi70","pricing_plan_id":"free"},{"bike_id":"ba4d59a8-54c3-439d-b6ce-459d537c072d","system_id":"levelo_inurba_marseille","lat":43.231923,"lon":5.355545,"is_reserved":false,"is_disabled":false,"rental_uris":{"android":"levelo://app?vid=ba4d59a8-54c3-439d-b6ce-459d537c072d","ios":"levelo://app?vid=ba4d59a8-54c3-439d-b6ce-459d537c072d"},"vehicle_type_id":"4","last_reported":1685210861,"current_range_meters":27200,"station_id":"ce4bhu92rcd13ifvqi70","pricing_plan_id":"free"},{"bike_id":"5c272820-3a04-409e-a879-87b2d365273d","system_id":"levelo_inurba_marseille","lat":43.2314,"lon":5.35503,"is_reserved":false,"is_disabled":false,"rental_uris":{"android":"levelo://app?vid=5c272820-3a04-409e-a879-87b2d365273d","ios":"levelo://app?vid=5c272820-3a04-409e-a879-87b2d365273d"},"vehicle_type_id":"4","last_reported":1685210861,"current_range_meters":10800,"station_id":"","pricing_plan_id":"free"},{"bike_id":"fa025f6b-9b72-4047-81a2-78b1accb1a5e","system_id":"levelo_inurba_marseille","lat":43.231793,"lon":5.400044,"is_reserved":false,"is_disabled":false,"rental_uris":{"android":"levelo://app?vid=fa025f6b-9b72-4047-81a2-78b1accb1a5e","ios":"levelo://app?vid=fa025f6b-9b72-4047-81a2-78b1accb1a5e"},"vehicle_type_id":"4","last_reported":1685210861,"current_range_meters":10800,"station_id":"ce4bhn12rcd13ifvqgqg","pricing_plan_id":"free"},{"bike_id":"1420567d-5493-4112-adec-f09973b532e9","system_id":"levelo_inurba_marseille","lat":43.231793,"lon":5.400044,"is_reserved":false,"is_disabled":false,"rental_uris":{"android":"levelo://app?vid=1420567d-5493-4112-adec-f09973b532e9","ios":"levelo://app?vid=1420567d-5493-4112-adec-f09973b532e9"},"vehicle_type_id":"4","last_reported":1685210861,"current_range_meters":21600,"station_id":"ce4bhn12rcd13ifvqgqg","pricing_plan_id":"free"},{"bike_id":"67b77559-a903-49c5-9f37-4b2143617b52","system_id":"levelo_inurba_marseille","lat":43.231794,"lon":5.400052,"is_reserved":false,"is_disabled":false,"rental_uris":{"android":"levelo://app?vid=67b77559-a903-49c5-9f37-4b2143617b52","ios":"levelo://app?vid=67b77559-a903-49c5-9f37-4b2143617b52"},"vehicle_type_id":"4","last_reported":1685210861,"current_range_meters":31600,"station_id":"ce4bhn12rcd13ifvqgqg","pricing_plan_id":"free"},{"bike_id":"6bf87b3f-2e5e-484d-9f73-d12a90c06e2e","system_id":"levelo_inurba_marseille","lat":43.231794,"lon":5.400052,"is_reserved":false,"is_disabled":false,"rental_uris":{"android":"levelo://app?vid=6bf87b3f-2e5e-484d-9f73-d12a90c06e2e","ios":"levelo://app?vid=6bf87b3f-2e5e-484d-9f73-d12a90c06e2e"},"vehicle_type_id":"4","last_reported":1685210861,"current_range_meters":31600,"station_id":"ce4bhn12rcd13ifvqgqg","pricing_plan_id":"free"},{"bike_id":"e39c0672-1b6c-4e48-943d-c79fd5ce8d4a","system_id":"levelo_inurba_marseille","lat":43.23185,"lon":5.39991,"is_reserved":false,"is_disabled":false,"rental_uris":{"android":"levelo://app?vid=e39c0672-1b6c-4e48-943d-c79fd5ce8d4a","ios":"levelo://app?vid=e39c0672-1b6c-4e48-943d-c79fd5ce8d4a"},"vehicle_type_id":"4","last_reported":1685210861,"current_range_meters":12400,"station_id":"ce4bhn12rcd13ifvqgqg","pricing_plan_id":"free"},{"bike_id":"a7fbfb05-3a72-4dea-b5c9-12ad7997a8ad","system_id":"levelo_inurba_marseille","lat":43.231794,"lon":5.400052,"is_reserved":false,"is_disabled":false,"rental_uris":{"android":"levelo://app?vid=a7fbfb05-3a72-4dea-b5c9-12ad7997a8ad","ios":"levelo://app?vid=a7fbfb05-3a72-4dea-b5c9-12ad7997a8ad"},"vehicle_type_id":"4","last_reported":1685210861,"current_range_meters":30000,"station_id":"ce4bhn12rcd13ifvqgqg","pricing_plan_id":"free"},{"bike_id":"279132f9-fc26-4eef-a41e-65b19a1b60ea","system_id":"levelo_inurba_marseille","lat":43.231794,"lon":5.400052,"is_reserved":false,"is_disabled":false,"rental_uris":{"android":"levelo://app?vid=279132f9-fc26-4eef-a41e-65b19a1b60ea","ios":"levelo://app?vid=279132f9-fc26-4eef-a41e-65b19a1b60ea"},"vehicle_type_id":"4","last_reported":1685210861,"current_range_meters":21600,"station_id":"ce4bhn12rcd13ifvqgqg","pricing_plan_id":"free"}]}}