{"last_updated":1703257624,"ttl":30,"version":"2.2","data":{"bikes":[{"bike_id":"fa5948ab-141d-43da-8a7b-070662ff9bc3","system_id":"levelo_inurba_marseille","lat":43.312239,"lon":5.368562,"is_reserved":false,"is_disabled":false,"rental_uris":{"android":"levelo://app?vid=fa5948ab-141d-43da-8a7b-070662ff9bc3","ios":"levelo://app?vid=fa5948ab-141d-43da-8a7b-070662ff9bc3"},"vehicle_type_id":"4","last_reported":1703257625,"current_range_meters":31200,"station_id":"ce4bgl92rcd13ifvqbq0","pricing_plan_id":"free"},{"bike_id":"6447fa0d-2549-47f2-ba57-bbb19a47e1c8","system_id":"levelo_inurba_marseille","lat":43.312239,"lon":5.368562,"is_reserved":false,"is_disabled":false,"rental_uris":{"android":"levelo://app?vid=6447fa0d-2549-47f2-ba57-bbb19a47e1c8","ios":"levelo://app?vid=6447fa0d-2549-47f2-ba57-bbb19a47e1c8"},"vehicle_type_id":"4","last_reported":1703257625,"current_range_meters":30800,"station_id":"ce4bgl92rcd13ifvqbq0","pricing_plan_id":"free"},{"bike_id":"6d30adbb-f8ba-44ae-8cda-4392aeea3189","system_id":"levelo_inurba_marseille","lat":43.314811,"lon":5.373103,"is_reserved":false,"is_disabled":false,"rental_uris":{"android":"levelo://app?vid=6d30adbb-f8ba-44ae-8cda-4392aeea3189","ios":"levelo://app?vid=6d30adbb-f8ba-44ae-8cda-4392aeea3189"},"vehicle_type_id":"4","last_reported":1703257625,"current_range_meters":28400,"station_id":"ce4bgt12rcd13ifvqcd0","pricing_plan_id":"free"},{"bike_id":"0bd51d16-b080-42c2-91c6-b490a0762caf","system_id":"levelo_inurba_marseille","lat":43.314811,"lon":5.373103,"is_reserved":false,"is_disabled":false,"rental_uris":{"android":"levelo://app?vid=0bd51d16-b080-42c2-91c6-b490a0762caf","ios":"levelo://app?vid=0bd51d16-b080-42c2-91c6-b490a0762caf"},"vehicle_type_id":"4","last_reported":1703257625,"current_range_meters":24400,"station_id":"ce4bgt12rcd13ifvqcd0","pricing_plan_id":"free"},{"bike_id":"821e5757-2892-40ce-b7dc-a872a2bea553","system_id":"levelo_inurba_marseille","lat":43.305712,"lon":5.365641,"is_reserved":false,"is_disabled":false,"rental_uris":{"android":"levelo://app?vid=821e5757-2892-40ce-b7dc-a872a2bea553","ios":"levelo://app?vid=821e5757-2892-40ce-b7dc-a872a2bea553"},"vehicle_type_id":"4","last_reported":1703257625,"current_range_meters":29200,"station_id":"ce4bgs12rcd13ifvqcag","pricing_plan_id":"free"},{"bike_id":"c1844304-cc2e-42d5-98c1-cf358bd4db26","system_id":"levelo_inurba_marseille","lat":43.305714,"lon":5.365633,"is_reserved":false,"is_disabled":false,"rental_uris":{"android":"levelo://app?vid=c1844304-cc2e-42d5-98c1-cf358bd4db26","ios":"levelo://app?vid=c1844304-cc2e-42d5-98c1-cf358bd4db26"},"vehicle_type_id":"4","last_reported":1703257625,"current_range_meters":0,"station_id":"ce4bgs12rcd13ifvqcag","pricing_plan_id":"free"},{"bike_id":"25531028-1f45-4370-8d4d-8054c0f779b3","system_id":"levelo_inurba_marseille","lat":43.305712,"lon":5.365641,"is_reserved":false,"is_disabled":false,"rental_uris":{"android":"levelo://app?vid=25531028-1f45-4370-8d4d-8054c0f779b3","ios":"levelo://app?vid=25531028-1f45-4370-8d4d-8054c0f779b3"},"vehicle_type_id":"4","last_reported":1703257625,"current_range_meters":28400,"station_id":"ce4bgs12rcd13ifvqcag","pricing_plan_id":"free"},{"bike_id":"c69ba489-e731-4a1b-8a1d-d0015387f5ea","system_id":"levelo_inurba_marseille","lat":43.305714,"lon":5.365633,"is_reserved":false,"is_disabled":false,"rental_uris":{"android":"levelo://app?vid=c69ba489-e731-4a1b-8a1d-d0015387f5ea","ios":"levelo://app?vid=c69ba489-e731-4a1b-8a1d-d0015387f5ea"},"vehicle_type_id":"4","last_reported":1703257625,"current_range_meters":14400,"station_id":"ce4bgs12rcd13ifvqcag","pricing_plan_id":"free"},{"bike_id":"0d3ef5db-bf6d-406a-924f-7717d481b801","system_id":"levelo_inurba_marseille","lat":43.305714,"lon":5.365633,"is_reserved":false,"is_disabled":false,"rental_uris":{"android":"levelo://app?vid=0d3ef5db-bf6d-406a-924f-7717d481b801","ios":"levelo://app?vid=0d3ef5db-bf6d-406a-924f-7717d481b801"},"vehicle_type_id":"4","last_reported":1703257625,"current_range_meters":31200,"station_id":"ce4bgs12rcd13ifvqcag","pricing_plan_id":"free"},{"bike_id":"7b52ba03-5ad1-43f4-897c-535cbadb387c","system_id":"levelo_inurba_marseille","lat":43.30541,"lon":5.36564,"is_reserved":false,"is_disabled":false,"rental_uris":{"android":"levelo://app?vid=7b52ba03-5ad1-43f4-897c-535cbadb387c","ios":"levelo://app?vid=7b52ba03-5ad1-43f4-897c-535cbadb387c"},"vehicle_type_id":"4","last_reported":1703257625,"current_range_meters":800,"station_id":"ce4bgs12rcd13ifvqcag","pricing_plan_id":"free"},{"bike_id":"8931072b-920b-4fac-b70e-622d57401ff3","system_id":"levelo_inurba_marseille","lat":43.305714,"lon":5.365633,"is_reserved":false,"is_disabled":false,"rental_uris":{"android":"levelo://app?vid=8931072b-920b-4fac-b70e-622d57401ff3","ios":"levelo://app?vid=8931072b-920b-4fac-b70e-622d57401ff3"},"vehicle_type_id":"4","last_reported":1703257625,"current_range_meters":24000,"station_id":"ce4bgs12rcd13ifvqcag","pricing_plan_id":"free"},{"bike_id":"ec910eeb-fc03-4a03-9fd1-55d811603d77","system_id":"levelo_inurba_marseille","lat":43.305714,"lon":5.365633,"is_reserved":false,"is_disabled":false,"rental_uris":{"android":"levelo://app?vid=ec910eeb-fc03-4a03-9fd1-55d811603d77","ios":"levelo://app?vid=ec910eeb-fc03-4a03-9fd1-55d811603d77"},"vehicle_type_id":"4","last_reported":1703257625,"current_range_meters":20800,"station_id":"ce4bgs12rcd13ifvqcag","pricing_plan_id":"free"},{"bike_id":"efbe07b6-24f4-44ee-b003-8348793c25ce","system_id":"levelo_inurba_marseille","lat":43.305714,"lon":5.365633,"is_reserved":false,"is_disabled":false,"rental_uris":{"android":"levelo://app?vid=efbe07b6-24f4-44ee-b003-8348793c25ce","ios":"levelo://app?vid=efbe07b6-24f4-44ee-b003-8348793c25ce"},"vehicle_type_id":"4","last_reported":1703257625,"current_range_meters":30400,"station_id":"ce4bgs12rcd13ifvqcag","pricing_plan_id":"free"},{"bike_id":"e4bfb317-64f2-472f-8ed7-abf39cc4281a","system_id":"levelo_inurba_marseille","lat":43.305706,"lon":5.365654,"is_reserved":false,"is_disabled":false,"rental_uris":{"android":"levelo://app?vid=e4bfb317-64f2-472f-8ed7-abf39cc4281a","ios":"levelo://app?vid=e4bfb317-64f2-472f-8ed7-abf39cc4281a"},"vehicle_type_id":"4","last_reported":1703257625,"current_range_meters":19200,"station_id":"ce4bgs12rcd13ifvqcag","pricing_plan_id":"free"},{"bike_id":"51b33281-59b1-434c-aa6d-1d5e1dde6dc9","system_id":"levelo_inurba_marseille","lat":43.305706,"lon":5.365654,"is_reserved":false,"is_disabled":false,"rental_uris":{"android":"levelo://app?vid=51b33281-59b1-434c-aa6d-1d5e1dde6dc9","ios":"levelo://app?vid=51b33281-59b1-434c-aa6d-1d5e1dde6dc9"},"vehicle_type_id":"4","last_reported":1703257625,"current_range_meters":28000,"station_id":"ce4bgs12rcd13ifvqcag","pricing_plan_id":"free"},{"bike_id":"ae4042db-4b46-48af-8b70-2524d39f8a6b","system_id":"levelo_inurba_marseille","lat":43.305989,"lon":5.37225,"is_reserved":false,"is_disabled":false,"rental_uris":{"android":"levelo://app?vid=ae4042db-4b46-48af-8b70-2524d39f8a6b","ios":"levelo://app?vid=ae4042db-4b46-48af-8b70-2524d39f8a6b"},"vehicle_type_id":"4","last_reported":1703257625,"current_range_meters":31200,"station_id":"ce4bgqh2rcd13ifvqc4g","pricing_plan_id":"free"},{"bike_id":"2210f8e1-c8f3-4fb4-a710-702e9eb4fb49","system_id":"levelo_inurba_marseille","lat":43.305989,"lon":5.37225,"is_reserved":false,"is_disabled":false,"rental_uris":{"android":"levelo://app?vid=2210f8e1-c8f3-4fb4-a710-702e9eb4fb49","ios":"levelo://app?vid=2210f8e1-c8f3-4fb4-a710-702e9eb4fb49"},"vehicle_type_id":"4","last_reported":1703257625,"current_range_meters":24000,"station_id":"ce4bgqh2rcd13ifvqc4g","pricing_plan_id":"free"},{"bike_id":"85d4bf50-988b-4290-8f52-dd06a1a034d2","system_id":"levelo_inurba_marseille","lat":43.305989,"lon":5.37225,"is_reserved":false,"is_disabled":false,"rental_uris":{"android":"levelo://app?vid=85d4bf50-988b-4290-8f52-dd06a1a034d2","ios":"levelo://app?vid=85d4bf50-988b-4290-8f52-dd06a1a034d2"},"vehicle_type_id":"4","last_reported":1703257625,"current_range_meters":30000,"station_id":"ce4bgqh2rcd13ifvqc4g","pricing_plan_id":"free"},{"bike_id":"9e6f9c08-467f-48f5-a4f8-fd8f4ce87a0c","system_id":"levelo_inurba_marseille","lat":43.305989,"lon":5.37225,"is_reserved":false,"is_disabled":false,"rental_uris":{"android":"levelo://app?vid=9e6f9c08-467f-48f5-a4f8-fd8f4ce87a0c","ios":"levelo://app?vid=9e6f9c08-467f-48f5-a4f8-fd8f4ce87a0c"},"vehicle_type_id":"4","last_reported":1703257625,"current_range_meters":5200,"station_id":"ce4bgqh2rcd13ifvqc4g","pricing_plan_id":"free"},{"bike_id":"c47321da-eceb-422e-9346-32e699b236d2","system_id":"levelo_inurba_marseille","lat":43.305989,"lon":5.37225,"is_reserved":false,"is_disabled":false,"rental_uris":{"android":"levelo://app?vid=c47321da-eceb-422e-9346-32e699b236d2","ios":"levelo://app?vid=c47321da-eceb-422e-9346-32e699b236d2"},"vehicle_type_id":"4","last_reported":1703257625,"current_range_meters":23600,"station_id":"ce4bgqh2rcd13ifvqc4g","pricing_plan_id":"free"},{"bike_id":"6ec674f4-2af7-4f46-b2af-935d3167dfe2","system_id":"levelo_inurba_marseille","lat":43.311125,"lon":5.377624,"is_reserved":false,"is_disabled":false,"rental_uris":{"android":"levelo://app?vid=6ec674f4-2af7-4f46-b2af-935d3167dfe2","ios":"levelo://app?vid=6ec674f4-2af7-4f46-b2af-935d3167dfe2"},"vehicle_type_id":"4","last_reported":1703257625,"current_range_meters":28400,"station_id":"ce4bgt92rcd13ifvqcg0","pricing_plan_id":"free"},{"bike_id":"09e9a3d3-7abd-44e6-817e-1afa3cbbb9f1","system_id":"levelo_inurba_marseille","lat":43.311125,"lon":5.377624,"is_reserved":false,"is_disabled":false,"rental_uris":{"android":"levelo://app?vid=09e9a3d3-7abd-44e6-817e-1afa3cbbb9f1","ios":"levelo://app?vid=09e9a3d3-7abd-44e6-817e-1afa3cbbb9f1"},"vehicle_type_id":"4","last_reported":1703257625,"current_range_meters":4800,"station_id":"ce4bgt92rcd13ifvqcg0","pricing_plan_id":"free"},{"bike_id":"25d2bf71-4970-4eba-857f-787566854c9e","system_id":"levelo_inurba_marseille","lat":43.311131,"lon":5.377651,"is_reserved":false,"is_disabled":false,"rental_uris":{"android":"levelo://app?vid=25d2bf71-4970-4eba-857f-787566854c9e","ios":"levelo://app?vid=25d2bf71-4970-4eba-857f-787566854c9e"},"vehicle_type_id":"4","last_reported":1703257625,"current_range_meters":22000,"station_id":"ce4bgt92rcd13ifvqcg0","pricing_plan_id":"free"},{"bike_id":"99f8f273-776e-42d9-bcea-603dca2786dd","system_id":"levelo_inurba_marseille","lat":43.307945,"lon":5.376487,"is_reserved":false,"is_disabled":false,"rental_uris":{"android":"levelo://app?vid=99f8f273-776e-42d9-bcea-603dca2786dd","ios":"levelo://app?vid=99f8f273-776e-42d9-bcea-603dca2786dd"},"vehicle_type_id":"4","last_reported":1703257625,"current_range_meters":24400,"station_id":"ce4bgv92rcd13ifvqcq0","pricing_plan_id":"free"},{"bike_id":"e621f788-e0b8-4fda-933f-4b10808ea0de","system_id":"levelo_inurba_marseille","lat":43.307945,"lon":5.376487,"is_reserved":false,"is_disabled":false,"rental_uris":{"android":"levelo://app?vid=e621f788-e0b8-4fda-933f-4b10808ea0de","ios":"levelo://app?vid=e621f788-e0b8-4fda-933f-4b10808ea0de"},"vehicle_type_id":"4","last_reported":1703257625,"current_range_meters":31200,"station_id":"ce4bgv92rcd13ifvqcq0","pricing_plan_id":"free"},{"bike_id":"e3d412e6-d75e-499f-9b12-871b89eb61ea","system_id":"levelo_inurba_marseille","lat":43.307945,"lon":5.376487,"is_reserved":false,"is_disabled":false,"rental_uris":{"android":"levelo://app?vid=e3d412e6-d75e-499f-9b12-871b89eb61ea","ios":"levelo://app?vid=e3d412e6-d75e-499f-9b12-871b89eb61ea"},"vehicle_type_id":"4","last_reported":1703257625,"current_range_meters":25600,"station_id":"ce4bgv92rcd13ifvqcq0","pricing_plan_id":"free"},{"bike_id":"b9cf6224-23fd-4fbe-a946-d6808f2780e5","system_id":"levelo_inurba_marseille","lat":43.317075,"lon":5.377367,"is_reserved":false,"is_disabled":false,"rental_uris":{"android":"levelo://app?vid=b9cf6224-23fd-4fbe-a946-d6808f2780e5","ios":"levelo://app?vid=b9cf6224-23fd-4fbe-a946-d6808f2780e5"},"vehicle_type_id":"4","last_reported":1703257625,"current_range_meters":31200,"station_id":"ce4bgth2rcd13ifvqch0","pricing_plan_id":"free"},{"bike_id":"69f2df28-8153-4d1b-8e7c-1cb8b7f05d35","system_id":"levelo_inurba_marseille","lat":43.317075,"lon":5.377367,"is_reserved":false,"is_disabled":false,"rental_uris":{"android":"levelo://app?vid=69f2df28-8153-4d1b-8e7c-1cb8b7f05d35","ios":"levelo://app?vid=69f2df28-8153-4d1b-8e7c-1cb8b7f05d35"},"vehicle_type_id":"4","last_reported":1703257625,"current_range_meters":25200,"station_id":"ce4bgth2rcd13ifvqch0","pricing_plan_id":"free"},{"bike_id":"56ac732e-3ba7-4965-93d2-ed42e2687b02","system_id":"levelo_inurba_marseille","lat":43.30304,"lon":5.368987,"is_reserved":false,"is_disabled":false,"rental_uris":{"android":"levelo://app?vid=56ac732e-3ba7-4965-93d2-ed42e2687b02","ios":"levelo://app?vid=56ac732e-3ba7-4965-93d2-ed42e2687b02"},"vehicle_type_id":"4","last_reported":1703257625,"current_range_meters":12400,"station_id":"ce4bgqh2rcd13ifvqc5g","pricing_plan_id":"free"},{"bike_id":"e446cab9-225e-41b5-8e2f-2794f16def46","system_id":"levelo_inurba_marseille","lat":43.30304,"lon":5.368987,"is_reserved":false,"is_disabled":false,"rental_uris":{"android":"levelo://app?vid=e446cab9-225e-41b5-8e2f-2794f16def46","ios":"levelo://app?vid=e446cab9-225e-41b5-8e2f-2794f16def46"},"vehicle_type_id":"4","last_reported":1703257625,"current_range_meters":28800,"station_id":"ce4bgqh2rcd13ifvqc5g","pricing_plan_id":"free"},{"bike_id":"740b3da7-95ee-4369-bab7-9249a58240f5","system_id":"levelo_inurba_marseille","lat":43.30304,"lon":5.368987,"is_reserved":false,"is_disabled":false,"rental_uris":{"android":"levelo://app?vid=740b3da7-95ee-4369-bab7-9249a58240f5","ios":"levelo://app?vid=740b3da7-95ee-4369-bab7-9249a58240f5"},"vehicle_type_id":"4","last_reported":1703257625,"current_range_meters":21200,"station_id":"ce4bgqh2rcd13ifvqc5g","pricing_plan_id":"free"},{"bike_id":"fef78d3e-69d2-4fb3-9a28-267858745954","system_id":"levelo_inurba_marseille","lat":43.301939,"lon":5.366286,"is_reserved":false,"is_disabled":false,"rental_uris":{"android":"levelo://app?vid=fef78d3e-69d2-4fb3-9a28-267858745954","ios":"levelo://app?vid=fef78d3e-69d2-4fb3-9a28-267858745954"},"vehicle_type_id":"4","last_reported":1703257625,"current_range_meters":24400,"station_id":"ce4bgrh2rcd13ifvqc8g","pricing_plan_id":"free"},{"bike_id":"a58b2aa8-8a45-47d2-8dc0-8b38190ccd94","system_id":"levelo_inurba_marseille","lat":43.308012,"lon":5.381511,"is_reserved":false,"is_disabled":false,"rental_uris":{"android":"levelo://app?vid=a58b2aa8-8a45-47d2-8dc0-8b38190ccd94","ios":"levelo://app?vid=a58b2aa8-8a45-47d2-8dc0-8b38190ccd94"},"vehicle_type_id":"4","last_reported":1703257625,"current_range_meters":22800,"station_id":"ce4bgt12rcd13ifvqce0","pricing_plan_id":"free"},{"bike_id":"3a946bd4-289c-43f5-884a-87c8c708891e","system_id":"levelo_inurba_marseille","lat":43.308012,"lon":5.381511,"is_reserved":false,"is_disabled":false,"rental_uris":{"android":"levelo://app?vid=3a946bd4-289c-43f5-884a-87c8c708891e","ios":"levelo://app?vid=3a946bd4-289c-43f5-884a-87c8c708891e"},"vehicle_type_id":"4","last_reported":1703257625,"current_range_meters":24800,"station_id":"ce4bgt12rcd13ifvqce0","pricing_plan_id":"free"},{"bike_id":"a8333fdb-9e6b-46cd-a95d-c6337100a0d6","system_id":"levelo_inurba_marseille","lat":43.302784,"lon":5.377158,"is_reserved":false,"is_disabled":false,"rental_uris":{"android":"levelo://app?vid=a8333fdb-9e6b-46cd-a95d-c6337100a0d6","ios":"levelo://app?vid=a8333fdb-9e6b-46cd-a95d-c6337100a0d6"},"vehicle_type_id":"4","last_reported":1703257625,"current_range_meters":3600,"station_id":"ce4bguh2rcd13ifvqcj0","pricing_plan_id":"free"},{"bike_id":"69d7f715-3906-4364-b0e4-80cfebe31b10","system_id":"levelo_inurba_marseille","lat":43.30143,"lon":5.37413,"is_reserved":false,"is_disabled":false,"rental_uris":{"android":"levelo://app?vid=69d7f715-3906-4364-b0e4-80cfebe31b10","ios":"levelo://app?vid=69d7f715-3906-4364-b0e4-80cfebe31b10"},"vehicle_type_id":"4","last_reported":1703257625,"current_range_meters":26400,"station_id":"ce4bgs92rcd13ifvqcc0","pricing_plan_id":"free"},{"bike_id":"8d3cad0e-763d-406d-b69b-7f3f3f4950d0","system_id":"levelo_inurba_marseille","lat":43.302784,"lon":5.377158,"is_reserved":false,"is_disabled":false,"rental_uris":{"android":"levelo://app?vid=8d3cad0e-763d-406d-b69b-7f3f3f4950d0","ios":"levelo://app?vid=8d3cad0e-763d-406d-b69b-7f3f3f4950d0"},"vehicle_type_id":"4","last_reported":1703257625,"current_range_meters":26800,"station_id":"ce4bguh2rcd13ifvqcj0","pricing_plan_id":"free"},{"bike_id":"a023c0e5-d40d-4cfb-a615-eaf9d8dcc367","system_id":"levelo_inurba_marseille","lat":43.302784,"lon":5.377158,"is_reserved":false,"is_disabled":false,"rental_uris":{"android":"levelo://app?vid=a023c0e5-d40d-4cfb-a615-eaf9d8dcc367","ios":"levelo://app?vid=a023c0e5-d40d-4cfb-a615-eaf9d8dcc367"},"vehicle_type_id":"4","last_reported":1703257625,"current_range_meters":5200,"station_id":"ce4bguh2rcd13ifvqcj0","pricing_plan_id":"free"},{"bike_id":"dc0f6af5-c02c-4610-baea-e5c6ca16f530","system_id":"levelo_inurba_marseille","lat":43.319957,"lon":5.38148,"is_reserved":false,"is_disabled":false,"rental_uris":{"android":"levelo://app?vid=dc0f6af5-c02c-4610-baea-e5c6ca16f530","ios":"levelo://app?vid=dc0f6af5-c02c-4610-baea-e5c6ca16f530"},"vehicle_type_id":"4","last_reported":1703257625,"current_range_meters":28800,"station_id":"ce4bhr12rcd13ifvqhpg","pricing_plan_id":"free"},{"bike_id":"b64a3b97-7ba6-4c96-9b55-a2d79f9d2499","system_id":"levelo_inurba_marseille","lat":43.320005,"lon":5.381601,"is_reserved":false,"is_disabled":false,"rental_uris":{"android":"levelo://app?vid=b64a3b97-7ba6-4c96-9b55-a2d79f9d2499","ios":"levelo://app?vid=b64a3b97-7ba6-4c96-9b55-a2d79f9d2499"},"vehicle_type_id":"4","last_reported":1703257625,"current_range_meters":6400,"station_id":"ce4bhr12rcd13ifvqhpg","pricing_plan_id":"free"},{"bike_id":"226c42a7-8492-430b-8f17-0db4ba7a08f9","system_id":"levelo_inurba_marseille","lat":43.319935,"lon":5.381699,"is_reserved":false,"is_disabled":false,"rental_uris":{"android":"levelo://app?vid=226c42a7-8492-430b-8f17-0db4ba7a08f9","ios":"levelo://app?vid=226c42a7-8492-430b-8f17-0db4ba7a08f9"},"vehicle_type_id":"4","last_reported":1703257625,"current_range_meters":18000,"station_id":"ce4bhr12rcd13ifvqhpg","pricing_plan_id":"free"},{"bike_id":"189244ad-54ca-46a7-9832-92829f32d6c6","system_id":"levelo_inurba_marseille","lat":43.29972,"lon":5.3718,"is_reserved":false,"is_disabled":false,"rental_uris":{"android":"levelo://app?vid=189244ad-54ca-46a7-9832-92829f32d6c6","ios":"levelo://app?vid=189244ad-54ca-46a7-9832-92829f32d6c6"},"vehicle_type_id":"4","last_reported":1703257625,"current_range_meters":23600,"station_id":"ce4bgr92rcd13ifvqc7g","pricing_plan_id":"free"},{"bike_id":"b0f94597-956b-42a9-b538-039b328ff5d0","system_id":"levelo_inurba_marseille","lat":43.299724,"lon":5.371829,"is_reserved":false,"is_disabled":false,"rental_uris":{"android":"levelo://app?vid=b0f94597-956b-42a9-b538-039b328ff5d0","ios":"levelo://app?vid=b0f94597-956b-42a9-b538-039b328ff5d0"},"vehicle_type_id":"4","last_reported":1703257625,"current_range_meters":13600,"station_id":"ce4bgr92rcd13ifvqc7g","pricing_plan_id":"free"},{"bike_id":"b3c517f7-04db-4e18-999a-24c4cc8345da","system_id":"levelo_inurba_marseille","lat":43.299209,"lon":5.365547,"is_reserved":false,"is_disabled":false,"rental_uris":{"android":"levelo://app?vid=b3c517f7-04db-4e18-999a-24c4cc8345da","ios":"levelo://app?vid=b3c517f7-04db-4e18-999a-24c4cc8345da"},"vehicle_type_id":"4","last_reported":1703257625,"current_range_meters":6400,"station_id":"ce4bgm92rcd13ifvqbr0","pricing_plan_id":"free"},{"bike_id":"7a3bbe3a-998e-44ae-87c6-dd227d3231d8","system_id":"levelo_inurba_marseille","lat":43.29851,"lon":5.36281,"is_reserved":false,"is_disabled":false,"rental_uris":{"android":"levelo://app?vid=7a3bbe3a-998e-44ae-87c6-dd227d3231d8","ios":"levelo://app?vid=7a3bbe3a-998e-44ae-87c6-dd227d3231d8"},"vehicle_type_id":"4","last_reported":1703257625,"current_range_meters":27600,"station_id":"ce4bgpp2rcd13ifvqc3g","pricing_plan_id":"free"},{"bike_id":"6f00089d-c7f3-4cfb-ab36-e7831ccce3db","system_id":"levelo_inurba_marseille","lat":43.292311,"lon":5.360731,"is_reserved":false,"is_disabled":false,"rental_uris":{"android":"levelo://app?vid=6f00089d-c7f3-4cfb-ab36-e7831ccce3db","ios":"levelo://app?vid=6f00089d-c7f3-4cfb-ab36-e7831ccce3db"},"vehicle_type_id":"4","last_reported":1703257625,"current_range_meters":8000,"station_id":"ce4bhbh2rcd13ifvqeqg","pricing_plan_id":"free"},{"bike_id":"3f3da2cf-46cb-4e5f-993d-d59a30137d76","system_id":"levelo_inurba_marseille","lat":43.298433,"lon":5.362774,"is_reserved":false,"is_disabled":false,"rental_uris":{"android":"levelo://app?vid=3f3da2cf-46cb-4e5f-993d-d59a30137d76","ios":"levelo://app?vid=3f3da2cf-46cb-4e5f-993d-d59a30137d76"},"vehicle_type_id":"4","last_reported":1703257625,"current_range_meters":20800,"station_id":"ce4bgpp2rcd13ifvqc3g","pricing_plan_id":"free"},{"bike_id":"a2218af6-7aae-4120-837c-b3135160d5e1","system_id":"levelo_inurba_marseille","lat":43.31176,"lon":5.38724,"is_reserved":false,"is_disabled":false,"rental_uris":{"android":"levelo://app?vid=a2218af6-7aae-4120-837c-b3135160d5e1","ios":"levelo://app?vid=a2218af6-7aae-4120-837c-b3135160d5e1"},"vehicle_type_id":"4","last_reported":1703257625,"current_range_meters":24800,"station_id":"ce4bgv12rcd13ifvqcp0","pricing_plan_id":"free"},{"bike_id":"95a70a02-7b22-4ee2-92fb-f2a2cc92dcc2","system_id":"levelo_inurba_marseille","lat":43.311722,"lon":5.387247,"is_reserved":false,"is_disabled":false,"rental_uris":{"android":"levelo://app?vid=95a70a02-7b22-4ee2-92fb-f2a2cc92dcc2","ios":"levelo://app?vid=95a70a02-7b22-4ee2-92fb-f2a2cc92dcc2"},"vehicle_type_id":"4","last_reported":1703257625,"current_range_meters":1200,"station_id":"ce4bgv12rcd13ifvqcp0","pricing_plan_id":"free"},{"bike_id":"e34a16f5-94e8-4955-a7a1-cdd67d6c22ac","system_id":"levelo_inurba_marseille","lat":43.297913,"lon":5.371053,"is_reserved":false,"is_disabled":false,"rental_uris":{"android":"levelo://app?vid=e34a16f5-94e8-4955-a7a1-cdd67d6c22ac","ios":"levelo://app?vid=e34a16f5-94e8-4955-a7a1-cdd67d6c22ac"},"vehicle_type_id":"4","last_reported":1703257625,"current_range_meters":23200,"station_id":"ce4bgop2rcd13ifvqc1g","pricing_plan_id":"free"},{"bike_id":"46e87168-d177-439b-95df-1babbf9bac8b","system_id":"levelo_inurba_marseille","lat":43.297774,"lon":5.370875,"is_reserved":false,"is_disabled":false,"rental_uris":{"android":"levelo://app?vid=46e87168-d177-439b-95df-1babbf9bac8b","ios":"levelo://app?vid=46e87168-d177-439b-95df-1babbf9bac8b"},"vehicle_type_id":"4","last_reported":1703257625,"current_range_meters":5600,"station_id":"ce4bgop2rcd13ifvqc1g","pricing_plan_id":"free"},{"bike_id":"bd6c431d-4182-4dde-9f48-a34df2c22a34","system_id":"levelo_inurba_marseille","lat":43.297794,"lon":5.370888,"is_reserved":false,"is_disabled":false,"rental_uris":{"android":"levelo://app?vid=bd6c431d-4182-4dde-9f48-a34df2c22a34","ios":"levelo://app?vid=bd6c431d-4182-4dde-9f48-a34df2c22a34"},"vehicle_type_id":"4","last_reported":1703257625,"current_range_meters":5200,"station_id":"ce4bgop2rcd13ifvqc1g","pricing_plan_id":"free"},{"bike_id":"05d19801-ff1d-4ae2-aba7-82e316902f49","system_id":"levelo_inurba_marseille","lat":43.297774,"lon":5.370875,"is_reserved":false,"is_disabled":false,"rental_uris":{"android":"levelo://app?vid=05d19801-ff1d-4ae2-aba7-82e316902f49","ios":"levelo://app?vid=05d19801-ff1d-4ae2-aba7-82e316902f49"},"vehicle_type_id":"4","last_reported":1703257625,"current_range_meters":29200,"station_id":"ce4bgop2rcd13ifvqc1g","pricing_plan_id":"free"},{"bike_id":"525f6ec1-c089-48ad-8216-d8e073aa768d","system_id":"levelo_inurba_marseille","lat":43.32829,"lon":5.36675,"is_reserved":false,"is_disabled":false,"rental_uris":{"android":"levelo://app?vid=525f6ec1-c089-48ad-8216-d8e073aa768d","ios":"levelo://app?vid=525f6ec1-c089-48ad-8216-d8e073aa768d"},"vehicle_type_id":"4","last_reported":1703257625,"current_range_meters":7200,"station_id":"ce4bhs92rcd13ifvqi0g","pricing_plan_id":"free"},{"bike_id":"b93b01f5-604a-4a62-8b31-422a7e058281","system_id":"levelo_inurba_marseille","lat":43.3283,"lon":5.36678,"is_reserved":false,"is_disabled":false,"rental_uris":{"android":"levelo://app?vid=b93b01f5-604a-4a62-8b31-422a7e058281","ios":"levelo://app?vid=b93b01f5-604a-4a62-8b31-422a7e058281"},"vehicle_type_id":"4","last_reported":1703257625,"current_range_meters":5200,"station_id":"ce4bhs92rcd13ifvqi0g","pricing_plan_id":"free"},{"bike_id":"11914dde-91de-4fdf-ab24-de472b689ba3","system_id":"levelo_inurba_marseille","lat":43.32835,"lon":5.36677,"is_reserved":false,"is_disabled":false,"rental_uris":{"android":"levelo://app?vid=11914dde-91de-4fdf-ab24-de472b689ba3","ios":"levelo://app?vid=11914dde-91de-4fdf-ab24-de472b689ba3"},"vehicle_type_id":"4","last_reported":1703257625,"current_range_meters":0,"station_id":"ce4bhs92rcd13ifvqi0g","pricing_plan_id":"free"},{"bike_id":"a2bb72de-2145-49bb-9f34-5cca8ef29423","system_id":"levelo_inurba_marseille","lat":43.296131,"lon":5.370791,"is_reserved":false,"is_disabled":false,"rental_uris":{"android":"levelo://app?vid=a2bb72de-2145-49bb-9f34-5cca8ef29423","ios":"levelo://app?vid=a2bb72de-2145-49bb-9f34-5cca8ef29423"},"vehicle_type_id":"4","last_reported":1703257625,"current_range_meters":14400,"station_id":"ce4bgnh2rcd13ifvqc0g","pricing_plan_id":"free"},{"bike_id":"301aecd8-2304-4d1b-af50-5263f74f30d7","system_id":"levelo_inurba_marseille","lat":43.299028,"lon":5.381509,"is_reserved":false,"is_disabled":false,"rental_uris":{"android":"levelo://app?vid=301aecd8-2304-4d1b-af50-5263f74f30d7","ios":"levelo://app?vid=301aecd8-2304-4d1b-af50-5263f74f30d7"},"vehicle_type_id":"4","last_reported":1703257625,"current_range_meters":18000,"station_id":"ce4bgj12rcd13ifvqbc0","pricing_plan_id":"free"},{"bike_id":"d852df74-fb27-4d3a-9b00-5aeffc7483eb","system_id":"levelo_inurba_marseille","lat":43.299028,"lon":5.381509,"is_reserved":false,"is_disabled":false,"rental_uris":{"android":"levelo://app?vid=d852df74-fb27-4d3a-9b00-5aeffc7483eb","ios":"levelo://app?vid=d852df74-fb27-4d3a-9b00-5aeffc7483eb"},"vehicle_type_id":"4","last_reported":1703257625,"current_range_meters":14000,"station_id":"ce4bgj12rcd13ifvqbc0","pricing_plan_id":"free"},{"bike_id":"669e5834-bd40-46e7-ae71-cd52c92d0ef4","system_id":"levelo_inurba_marseille","lat":43.317557,"lon":5.390173,"is_reserved":false,"is_disabled":false,"rental_uris":{"android":"levelo://app?vid=669e5834-bd40-46e7-ae71-cd52c92d0ef4","ios":"levelo://app?vid=669e5834-bd40-46e7-ae71-cd52c92d0ef4"},"vehicle_type_id":"4","last_reported":1703257625,"current_range_meters":31200,"station_id":"ce4bhqp2rcd13ifvqhng","pricing_plan_id":"free"},{"bike_id":"b65d5222-9666-4f92-9456-f1166748bbca","system_id":"levelo_inurba_marseille","lat":43.317557,"lon":5.390173,"is_reserved":false,"is_disabled":false,"rental_uris":{"android":"levelo://app?vid=b65d5222-9666-4f92-9456-f1166748bbca","ios":"levelo://app?vid=b65d5222-9666-4f92-9456-f1166748bbca"},"vehicle_type_id":"4","last_reported":1703257625,"current_range_meters":8800,"station_id":"ce4bhqp2rcd13ifvqhng","pricing_plan_id":"free"},{"bike_id":"53d02047-2fc2-4d30-88b2-583fd58923ab","system_id":"levelo_inurba_marseille","lat":43.31751,"lon":5.390181,"is_reserved":false,"is_disabled":false,"rental_uris":{"android":"levelo://app?vid=53d02047-2fc2-4d30-88b2-583fd58923ab","ios":"levelo://app?vid=53d02047-2fc2-4d30-88b2-583fd58923ab"},"vehicle_type_id":"4","last_reported":1703257625,"current_range_meters":31200,"station_id":"ce4bhqp2rcd13ifvqhng","pricing_plan_id":"free"},{"bike_id":"67075f34-c0eb-440c-98fa-4d8d0758ff1c","system_id":"levelo_inurba_marseille","lat":43.317505,"lon":5.39021,"is_reserved":false,"is_disabled":false,"rental_uris":{"android":"levelo://app?vid=67075f34-c0eb-440c-98fa-4d8d0758ff1c","ios":"levelo://app?vid=67075f34-c0eb-440c-98fa-4d8d0758ff1c"},"vehicle_type_id":"4","last_reported":1703257625,"current_range_meters":6800,"station_id":"ce4bhqp2rcd13ifvqhng","pricing_plan_id":"free"},{"bike_id":"43855516-4c02-494d-aefa-3c215dbc6b85","system_id":"levelo_inurba_marseille","lat":43.317557,"lon":5.390173,"is_reserved":false,"is_disabled":false,"rental_uris":{"android":"levelo://app?vid=43855516-4c02-494d-aefa-3c215dbc6b85","ios":"levelo://app?vid=43855516-4c02-494d-aefa-3c215dbc6b85"},"vehicle_type_id":"4","last_reported":1703257625,"current_range_meters":2400,"station_id":"ce4bhqp2rcd13ifvqhng","pricing_plan_id":"free"},{"bike_id":"d34c2a78-8790-44b9-84f6-76145e91e713","system_id":"levelo_inurba_marseille","lat":43.304274,"lon":5.388873,"is_reserved":false,"is_disabled":false,"rental_uris":{"android":"levelo://app?vid=d34c2a78-8790-44b9-84f6-76145e91e713","ios":"levelo://app?vid=d34c2a78-8790-44b9-84f6-76145e91e713"},"vehicle_type_id":"4","last_reported":1703257625,"current_range_meters":8400,"station_id":"ce4bgk12rcd13ifvqbi0","pricing_plan_id":"free"},{"bike_id":"19ed5656-5ae7-4dd8-ba49-564f90863149","system_id":"levelo_inurba_marseille","lat":43.304278,"lon":5.388868,"is_reserved":false,"is_disabled":false,"rental_uris":{"android":"levelo://app?vid=19ed5656-5ae7-4dd8-ba49-564f90863149","ios":"levelo://app?vid=19ed5656-5ae7-4dd8-ba49-564f90863149"},"vehicle_type_id":"4","last_reported":1703257625,"current_range_meters":23600,"station_id":"ce4bgk12rcd13ifvqbi0","pricing_plan_id":"free"},{"bike_id":"99614816-f4c1-4f66-99ca-5d6440c4e753","system_id":"levelo_inurba_marseille","lat":43.304278,"lon":5.388868,"is_reserved":false,"is_disabled":false,"rental_uris":{"android":"levelo://app?vid=99614816-f4c1-4f66-99ca-5d6440c4e753","ios":"levelo://app?vid=99614816-f4c1-4f66-99ca-5d6440c4e753"},"vehicle_type_id":"4","last_reported":1703257625,"current_range_meters":26800,"station_id":"ce4bgk12rcd13ifvqbi0","pricing_plan_id":"free"},{"bike_id":"29fb08df-1d3d-4e3f-9006-b6b2f9534e0c","system_id":"levelo_inurba_marseille","lat":43.304278,"lon":5.388868,"is_reserved":false,"is_disabled":false,"rental_uris":{"android":"levelo://app?vid=29fb08df-1d3d-4e3f-9006-b6b2f9534e0c","ios":"levelo://app?vid=29fb08df-1d3d-4e3f-9006-b6b2f9534e0c"},"vehicle_type_id":"4","last_reported":1703257625,"current_range_meters":7600,"station_id":"ce4bgk12rcd13ifvqbi0","pricing_plan_id":"free"},{"bike_id":"24a688ce-5b16-4753-8dae-de15dc614324","system_id":"levelo_inurba_marseille","lat":43.304274,"lon":5.388873,"is_reserved":false,"is_disabled":false,"rental_uris":{"android":"levelo://app?vid=24a688ce-5b16-4753-8dae-de15dc614324","ios":"levelo://app?vid=24a688ce-5b16-4753-8dae-de15dc614324"},"vehicle_type_id":"4","last_reported":1703257625,"current_range_meters":28400,"station_id":"ce4bgk12rcd13ifvqbi0","pricing_plan_id":"free"},{"bike_id":"7efedb10-2198-4aaf-a452-b49afaab5623","system_id":"levelo_inurba_marseille","lat":43.273129,"lon":5.390725,"is_reserved":false,"is_disabled":false,"rental_uris":{"android":"levelo://app?vid=7efedb10-2198-4aaf-a452-b49afaab5623","ios":"levelo://app?vid=7efedb10-2198-4aaf-a452-b49afaab5623"},"vehicle_type_id":"4","last_reported":1703257625,"current_range_meters":10400,"station_id":"ce4bhgp2rcd13ifvqfe0","pricing_plan_id":"free"},{"bike_id":"1378810b-812d-44e5-847a-1b7aeb90e4c4","system_id":"levelo_inurba_marseille","lat":43.299,"lon":5.38357,"is_reserved":false,"is_disabled":false,"rental_uris":{"android":"levelo://app?vid=1378810b-812d-44e5-847a-1b7aeb90e4c4","ios":"levelo://app?vid=1378810b-812d-44e5-847a-1b7aeb90e4c4"},"vehicle_type_id":"4","last_reported":1703257625,"current_range_meters":3200,"station_id":"","pricing_plan_id":"free"},{"bike_id":"f2ff9956-d532-4ef3-90f1-35d83da56814","system_id":"levelo_inurba_marseille","lat":43.299717,"lon":5.384845,"is_reserved":false,"is_disabled":false,"rental_uris":{"android":"levelo://app?vid=f2ff9956-d532-4ef3-90f1-35d83da56814","ios":"levelo://app?vid=f2ff9956-d532-4ef3-90f1-35d83da56814"},"vehicle_type_id":"4","last_reported":1703257625,"current_range_meters":11200,"station_id":"ce4bgj92rcd13ifvqbd0","pricing_plan_id":"free"},{"bike_id":"82a98c46-329e-43e8-b00a-ccf7909e36b9","system_id":"levelo_inurba_marseille","lat":43.29973,"lon":5.38492,"is_reserved":false,"is_disabled":false,"rental_uris":{"android":"levelo://app?vid=82a98c46-329e-43e8-b00a-ccf7909e36b9","ios":"levelo://app?vid=82a98c46-329e-43e8-b00a-ccf7909e36b9"},"vehicle_type_id":"4","last_reported":1703257625,"current_range_meters":23600,"station_id":"ce4bgj92rcd13ifvqbd0","pricing_plan_id":"free"},{"bike_id":"e0fdac78-1261-4f58-91c4-ce5f88838ed5","system_id":"levelo_inurba_marseille","lat":43.29972,"lon":5.38495,"is_reserved":false,"is_disabled":false,"rental_uris":{"android":"levelo://app?vid=e0fdac78-1261-4f58-91c4-ce5f88838ed5","ios":"levelo://app?vid=e0fdac78-1261-4f58-91c4-ce5f88838ed5"},"vehicle_type_id":"4","last_reported":1703257625,"current_range_meters":21200,"station_id":"ce4bgj92rcd13ifvqbd0","pricing_plan_id":"free"},{"bike_id":"7b8c0bab-aa36-4ca7-b91b-8fdfbcf0792a","system_id":"levelo_inurba_marseille","lat":43.32367,"lon":5.388836,"is_reserved":false,"is_disabled":false,"rental_uris":{"android":"levelo://app?vid=7b8c0bab-aa36-4ca7-b91b-8fdfbcf0792a","ios":"levelo://app?vid=7b8c0bab-aa36-4ca7-b91b-8fdfbcf0792a"},"vehicle_type_id":"4","last_reported":1703257625,"current_range_meters":11200,"station_id":"ce4bhqp2rcd13ifvqhog","pricing_plan_id":"free"},{"bike_id":"7eada8fb-8c59-41ea-ae15-1164bd9fc1af","system_id":"levelo_inurba_marseille","lat":43.323903,"lon":5.389816,"is_reserved":false,"is_disabled":false,"rental_uris":{"android":"levelo://app?vid=7eada8fb-8c59-41ea-ae15-1164bd9fc1af","ios":"levelo://app?vid=7eada8fb-8c59-41ea-ae15-1164bd9fc1af"},"vehicle_type_id":"4","last_reported":1703257625,"current_range_meters":30800,"station_id":"","pricing_plan_id":"free"},{"bike_id":"b25af574-8fe0-4d4b-a6ed-65059467aa67","system_id":"levelo_inurba_marseille","lat":43.293009,"lon":5.374584,"is_reserved":false,"is_disabled":false,"rental_uris":{"android":"levelo://app?vid=b25af574-8fe0-4d4b-a6ed-65059467aa67","ios":"levelo://app?vid=b25af574-8fe0-4d4b-a6ed-65059467aa67"},"vehicle_type_id":"4","last_reported":1703257625,"current_range_meters":13200,"station_id":"ce4bgi12rcd13ifvqb70","pricing_plan_id":"free"},{"bike_id":"d408cc7d-4357-4160-b359-275d626bcaa1","system_id":"levelo_inurba_marseille","lat":43.30308,"lon":5.392,"is_reserved":false,"is_disabled":false,"rental_uris":{"android":"levelo://app?vid=d408cc7d-4357-4160-b359-275d626bcaa1","ios":"levelo://app?vid=d408cc7d-4357-4160-b359-275d626bcaa1"},"vehicle_type_id":"4","last_reported":1703257625,"current_range_meters":0,"station_id":"ce4bgkh2rcd13ifvqbk0","pricing_plan_id":"free"},{"bike_id":"557000a1-02d5-45c6-b20c-951b70bf4f82","system_id":"levelo_inurba_marseille","lat":43.30099,"lon":5.39089,"is_reserved":false,"is_disabled":false,"rental_uris":{"android":"levelo://app?vid=557000a1-02d5-45c6-b20c-951b70bf4f82","ios":"levelo://app?vid=557000a1-02d5-45c6-b20c-951b70bf4f82"},"vehicle_type_id":"4","last_reported":1703257625,"current_range_meters":0,"station_id":"","pricing_plan_id":"free"},{"bike_id":"6c66cb37-2fa5-4f2e-a50e-0d128f246042","system_id":"levelo_inurba_marseille","lat":43.29874,"lon":5.38905,"is_reserved":false,"is_disabled":false,"rental_uris":{"android":"levelo://app?vid=6c66cb37-2fa5-4f2e-a50e-0d128f246042","ios":"levelo://app?vid=6c66cb37-2fa5-4f2e-a50e-0d128f246042"},"vehicle_type_id":"4","last_reported":1703257625,"current_range_meters":400,"station_id":"","pricing_plan_id":"free"},{"bike_id":"38f2e988-b091-4c1e-bb6d-19180cb26fa9","system_id":"levelo_inurba_marseille","lat":43.291671,"lon":5.371575,"is_reserved":false,"is_disabled":false,"rental_uris":{"android":"levelo://app?vid=38f2e988-b091-4c1e-bb6d-19180cb26fa9","ios":"levelo://app?vid=38f2e988-b091-4c1e-bb6d-19180cb26fa9"},"vehicle_type_id":"4","last_reported":1703257625,"current_range_meters":10800,"station_id":"ce4bha92rcd13ifvqeh0","pricing_plan_id":"free"},{"bike_id":"a88983e0-4730-4fa9-b9c4-4d11216054ae","system_id":"levelo_inurba_marseille","lat":43.29869,"lon":5.38907,"is_reserved":false,"is_disabled":false,"rental_uris":{"android":"levelo://app?vid=a88983e0-4730-4fa9-b9c4-4d11216054ae","ios":"levelo://app?vid=a88983e0-4730-4fa9-b9c4-4d11216054ae"},"vehicle_type_id":"4","last_reported":1703257625,"current_range_meters":13200,"station_id":"","pricing_plan_id":"free"},{"bike_id":"fa38fcc7-ca87-4463-a289-03c7cd4e6723","system_id":"levelo_inurba_marseille","lat":43.313291,"lon":5.396838,"is_reserved":false,"is_disabled":false,"rental_uris":{"android":"levelo://app?vid=fa38fcc7-ca87-4463-a289-03c7cd4e6723","ios":"levelo://app?vid=fa38fcc7-ca87-4463-a289-03c7cd4e6723"},"vehicle_type_id":"4","last_reported":1703257625,"current_range_meters":6000,"station_id":"ce4bgvp2rcd13ifvqcu0","pricing_plan_id":"free"},{"bike_id":"aa1515ce-3b18-4e6b-bbc3-2711bb0277cf","system_id":"levelo_inurba_marseille","lat":43.309038,"lon":5.396546,"is_reserved":false,"is_disabled":false,"rental_uris":{"android":"levelo://app?vid=aa1515ce-3b18-4e6b-bbc3-2711bb0277cf","ios":"levelo://app?vid=aa1515ce-3b18-4e6b-bbc3-2711bb0277cf"},"vehicle_type_id":"4","last_reported":1703257625,"current_range_meters":26400,"station_id":"ce4bh012rcd13ifvqcv0","pricing_plan_id":"free"},{"bike_id":"c4b5c253-f844-42fd-82a6-50cb9b8a64cd","system_id":"levelo_inurba_marseille","lat":43.313291,"lon":5.396838,"is_reserved":false,"is_disabled":false,"rental_uris":{"android":"levelo://app?vid=c4b5c253-f844-42fd-82a6-50cb9b8a64cd","ios":"levelo://app?vid=c4b5c253-f844-42fd-82a6-50cb9b8a64cd"},"vehicle_type_id":"4","last_reported":1703257625,"current_range_meters":22000,"station_id":"ce4bgvp2rcd13ifvqcu0","pricing_plan_id":"free"},{"bike_id":"a90b8b83-e596-4fc1-8b62-b201f740b064","system_id":"levelo_inurba_marseille","lat":43.313291,"lon":5.396838,"is_reserved":false,"is_disabled":false,"rental_uris":{"android":"levelo://app?vid=a90b8b83-e596-4fc1-8b62-b201f740b064","ios":"levelo://app?vid=a90b8b83-e596-4fc1-8b62-b201f740b064"},"vehicle_type_id":"4","last_reported":1703257625,"current_range_meters":3600,"station_id":"ce4bgvp2rcd13ifvqcu0","pricing_plan_id":"free"},{"bike_id":"af6daa4d-2333-4591-bb2c-ed1f04553eb3","system_id":"levelo_inurba_marseille","lat":43.309047,"lon":5.396551,"is_reserved":false,"is_disabled":false,"rental_uris":{"android":"levelo://app?vid=af6daa4d-2333-4591-bb2c-ed1f04553eb3","ios":"levelo://app?vid=af6daa4d-2333-4591-bb2c-ed1f04553eb3"},"vehicle_type_id":"4","last_reported":1703257625,"current_range_meters":24000,"station_id":"ce4bh012rcd13ifvqcv0","pricing_plan_id":"free"},{"bike_id":"d7bf4ae1-57db-4151-be0d-1515061920c6","system_id":"levelo_inurba_marseille","lat":43.29533,"lon":5.38543,"is_reserved":false,"is_disabled":false,"rental_uris":{"android":"levelo://app?vid=d7bf4ae1-57db-4151-be0d-1515061920c6","ios":"levelo://app?vid=d7bf4ae1-57db-4151-be0d-1515061920c6"},"vehicle_type_id":"4","last_reported":1703257625,"current_range_meters":31200,"station_id":"ce4bgih2rcd13ifvqba0","pricing_plan_id":"free"},{"bike_id":"89ad0e77-9872-47c2-a8c2-db2b70d5e8ae","system_id":"levelo_inurba_marseille","lat":43.290779,"lon":5.371482,"is_reserved":false,"is_disabled":false,"rental_uris":{"android":"levelo://app?vid=89ad0e77-9872-47c2-a8c2-db2b70d5e8ae","ios":"levelo://app?vid=89ad0e77-9872-47c2-a8c2-db2b70d5e8ae"},"vehicle_type_id":"4","last_reported":1703257625,"current_range_meters":3200,"station_id":"ce4bh5p2rcd13ifvqe4g","pricing_plan_id":"free"},{"bike_id":"5fdf5c38-9e14-4020-80f7-d7f897e38296","system_id":"levelo_inurba_marseille","lat":43.290624,"lon":5.359245,"is_reserved":false,"is_disabled":false,"rental_uris":{"android":"levelo://app?vid=5fdf5c38-9e14-4020-80f7-d7f897e38296","ios":"levelo://app?vid=5fdf5c38-9e14-4020-80f7-d7f897e38296"},"vehicle_type_id":"4","last_reported":1703257625,"current_range_meters":21200,"station_id":"ce4bha92rcd13ifvqeg0","pricing_plan_id":"free"},{"bike_id":"e4447406-3620-4433-ba64-8b04fbb0bb78","system_id":"levelo_inurba_marseille","lat":43.290407,"lon":5.359177,"is_reserved":false,"is_disabled":false,"rental_uris":{"android":"levelo://app?vid=e4447406-3620-4433-ba64-8b04fbb0bb78","ios":"levelo://app?vid=e4447406-3620-4433-ba64-8b04fbb0bb78"},"vehicle_type_id":"4","last_reported":1703257625,"current_range_meters":0,"station_id":"ce4bha92rcd13ifvqeg0","pricing_plan_id":"free"},{"bike_id":"df0d460a-ba97-459f-864b-f37acea7f0cb","system_id":"levelo_inurba_marseille","lat":43.289184,"lon":5.366408,"is_reserved":false,"is_disabled":false,"rental_uris":{"android":"levelo://app?vid=df0d460a-ba97-459f-864b-f37acea7f0cb","ios":"levelo://app?vid=df0d460a-ba97-459f-864b-f37acea7f0cb"},"vehicle_type_id":"4","last_reported":1703257625,"current_range_meters":16800,"station_id":"ce4bhap2rcd13ifvqek0","pricing_plan_id":"free"},{"bike_id":"97e2f664-5274-47d6-80a4-fd415736ec90","system_id":"levelo_inurba_marseille","lat":43.289184,"lon":5.366408,"is_reserved":false,"is_disabled":false,"rental_uris":{"android":"levelo://app?vid=97e2f664-5274-47d6-80a4-fd415736ec90","ios":"levelo://app?vid=97e2f664-5274-47d6-80a4-fd415736ec90"},"vehicle_type_id":"4","last_reported":1703257625,"current_range_meters":16000,"station_id":"ce4bhap2rcd13ifvqek0","pricing_plan_id":"free"},{"bike_id":"8283f2fa-4d90-467f-8f99-50c05fa70928","system_id":"levelo_inurba_marseille","lat":43.289468,"lon":5.363719,"is_reserved":false,"is_disabled":false,"rental_uris":{"android":"levelo://app?vid=8283f2fa-4d90-467f-8f99-50c05fa70928","ios":"levelo://app?vid=8283f2fa-4d90-467f-8f99-50c05fa70928"},"vehicle_type_id":"4","last_reported":1703257625,"current_range_meters":21200,"station_id":"ce4bhc92rcd13ifvqetg","pricing_plan_id":"free"},{"bike_id":"9c327046-92e6-4ffa-9335-e63cdfc37296","system_id":"levelo_inurba_marseille","lat":43.290327,"lon":5.375711,"is_reserved":false,"is_disabled":false,"rental_uris":{"android":"levelo://app?vid=9c327046-92e6-4ffa-9335-e63cdfc37296","ios":"levelo://app?vid=9c327046-92e6-4ffa-9335-e63cdfc37296"},"vehicle_type_id":"4","last_reported":1703257625,"current_range_meters":2800,"station_id":"ce4bh692rcd13ifvqe90","pricing_plan_id":"free"},{"bike_id":"cafe9907-7d49-4973-9e8c-95f9ef61f63a","system_id":"levelo_inurba_marseille","lat":43.290103,"lon":5.356114,"is_reserved":false,"is_disabled":false,"rental_uris":{"android":"levelo://app?vid=cafe9907-7d49-4973-9e8c-95f9ef61f63a","ios":"levelo://app?vid=cafe9907-7d49-4973-9e8c-95f9ef61f63a"},"vehicle_type_id":"4","last_reported":1703257625,"current_range_meters":20800,"station_id":"ce4bhb92rcd13ifvqen0","pricing_plan_id":"free"},{"bike_id":"038e9a64-a62e-4994-ab3c-b5d10728cd83","system_id":"levelo_inurba_marseille","lat":43.295169,"lon":5.390426,"is_reserved":false,"is_disabled":false,"rental_uris":{"android":"levelo://app?vid=038e9a64-a62e-4994-ab3c-b5d10728cd83","ios":"levelo://app?vid=038e9a64-a62e-4994-ab3c-b5d10728cd83"},"vehicle_type_id":"4","last_reported":1703257625,"current_range_meters":0,"station_id":"ce4bh3p2rcd13ifvqdp0","pricing_plan_id":"free"},{"bike_id":"7440669c-d3ae-4a1a-aa78-466cc5dbb8ea","system_id":"levelo_inurba_marseille","lat":43.29774,"lon":5.39338,"is_reserved":false,"is_disabled":false,"rental_uris":{"android":"levelo://app?vid=7440669c-d3ae-4a1a-aa78-466cc5dbb8ea","ios":"levelo://app?vid=7440669c-d3ae-4a1a-aa78-466cc5dbb8ea"},"vehicle_type_id":"4","last_reported":1703257625,"current_range_meters":5600,"station_id":"chh1huq6cuj3fo74tm60","pricing_plan_id":"free"},{"bike_id":"8399ec55-58d4-4ef5-89de-79407f4be90e","system_id":"levelo_inurba_marseille","lat":43.289741,"lon":5.378306,"is_reserved":false,"is_disabled":false,"rental_uris":{"android":"levelo://app?vid=8399ec55-58d4-4ef5-89de-79407f4be90e","ios":"levelo://app?vid=8399ec55-58d4-4ef5-89de-79407f4be90e"},"vehicle_type_id":"4","last_reported":1703257625,"current_range_meters":8400,"station_id":"ce4bh9p2rcd13ifvqed0","pricing_plan_id":"free"},{"bike_id":"699dea07-5088-4fcf-a8fb-9b36e4d40cf6","system_id":"levelo_inurba_marseille","lat":43.28856,"lon":5.358371,"is_reserved":false,"is_disabled":false,"rental_uris":{"android":"levelo://app?vid=699dea07-5088-4fcf-a8fb-9b36e4d40cf6","ios":"levelo://app?vid=699dea07-5088-4fcf-a8fb-9b36e4d40cf6"},"vehicle_type_id":"4","last_reported":1703257625,"current_range_meters":3200,"station_id":"ce4bhb12rcd13ifvqem0","pricing_plan_id":"free"},{"bike_id":"33222d3a-9b25-45ee-9cb9-e06ea96203e5","system_id":"levelo_inurba_marseille","lat":43.28856,"lon":5.358371,"is_reserved":false,"is_disabled":false,"rental_uris":{"android":"levelo://app?vid=33222d3a-9b25-45ee-9cb9-e06ea96203e5","ios":"levelo://app?vid=33222d3a-9b25-45ee-9cb9-e06ea96203e5"},"vehicle_type_id":"4","last_reported":1703257625,"current_range_meters":23200,"station_id":"ce4bhb12rcd13ifvqem0","pricing_plan_id":"free"},{"bike_id":"5e15b73b-242a-420b-b536-72efe04f7f19","system_id":"levelo_inurba_marseille","lat":43.33743,"lon":5.37458,"is_reserved":false,"is_disabled":false,"rental_uris":{"android":"levelo://app?vid=5e15b73b-242a-420b-b536-72efe04f7f19","ios":"levelo://app?vid=5e15b73b-242a-420b-b536-72efe04f7f19"},"vehicle_type_id":"4","last_reported":1703257625,"current_range_meters":29200,"station_id":"","pricing_plan_id":"free"},{"bike_id":"a954abff-9347-4ebc-8323-2a7d7c8fb032","system_id":"levelo_inurba_marseille","lat":43.337464,"lon":5.374436,"is_reserved":false,"is_disabled":false,"rental_uris":{"android":"levelo://app?vid=a954abff-9347-4ebc-8323-2a7d7c8fb032","ios":"levelo://app?vid=a954abff-9347-4ebc-8323-2a7d7c8fb032"},"vehicle_type_id":"4","last_reported":1703257625,"current_range_meters":30800,"station_id":"ce4bha12rcd13ifvqee0","pricing_plan_id":"free"},{"bike_id":"72e94945-4886-46f2-8100-190a890b4262","system_id":"levelo_inurba_marseille","lat":43.33746,"lon":5.37461,"is_reserved":false,"is_disabled":false,"rental_uris":{"android":"levelo://app?vid=72e94945-4886-46f2-8100-190a890b4262","ios":"levelo://app?vid=72e94945-4886-46f2-8100-190a890b4262"},"vehicle_type_id":"4","last_reported":1703257625,"current_range_meters":24400,"station_id":"","pricing_plan_id":"free"},{"bike_id":"8516412d-ed1b-43c4-bd1e-951e035510a0","system_id":"levelo_inurba_marseille","lat":43.337547,"lon":5.374375,"is_reserved":false,"is_disabled":false,"rental_uris":{"android":"levelo://app?vid=8516412d-ed1b-43c4-bd1e-951e035510a0","ios":"levelo://app?vid=8516412d-ed1b-43c4-bd1e-951e035510a0"},"vehicle_type_id":"4","last_reported":1703257625,"current_range_meters":12000,"station_id":"ce4rr2p2rcd13i802rgg","pricing_plan_id":"free"},{"bike_id":"41c046a6-7cba-49c2-8c7a-f269d8a6e461","system_id":"levelo_inurba_marseille","lat":43.337568,"lon":5.374277,"is_reserved":false,"is_disabled":false,"rental_uris":{"android":"levelo://app?vid=41c046a6-7cba-49c2-8c7a-f269d8a6e461","ios":"levelo://app?vid=41c046a6-7cba-49c2-8c7a-f269d8a6e461"},"vehicle_type_id":"4","last_reported":1703257625,"current_range_meters":14400,"station_id":"ce4rr2p2rcd13i802rgg","pricing_plan_id":"free"},{"bike_id":"352476fc-2182-4cbe-8550-7e077a2fdd8d","system_id":"levelo_inurba_marseille","lat":43.309371,"lon":5.401449,"is_reserved":false,"is_disabled":false,"rental_uris":{"android":"levelo://app?vid=352476fc-2182-4cbe-8550-7e077a2fdd8d","ios":"levelo://app?vid=352476fc-2182-4cbe-8550-7e077a2fdd8d"},"vehicle_type_id":"4","last_reported":1703257625,"current_range_meters":20000,"station_id":"ce4bgvp2rcd13ifvqct0","pricing_plan_id":"free"},{"bike_id":"e28e89bf-6214-47c0-9b22-ee50680f8a53","system_id":"levelo_inurba_marseille","lat":43.30928,"lon":5.401625,"is_reserved":false,"is_disabled":false,"rental_uris":{"android":"levelo://app?vid=e28e89bf-6214-47c0-9b22-ee50680f8a53","ios":"levelo://app?vid=e28e89bf-6214-47c0-9b22-ee50680f8a53"},"vehicle_type_id":"4","last_reported":1703257625,"current_range_meters":23600,"station_id":"ce4bgvp2rcd13ifvqct0","pricing_plan_id":"free"},{"bike_id":"e3b05bb2-3bf6-4e93-a935-8d00a3036fa0","system_id":"levelo_inurba_marseille","lat":43.33765,"lon":5.37435,"is_reserved":false,"is_disabled":false,"rental_uris":{"android":"levelo://app?vid=e3b05bb2-3bf6-4e93-a935-8d00a3036fa0","ios":"levelo://app?vid=e3b05bb2-3bf6-4e93-a935-8d00a3036fa0"},"vehicle_type_id":"4","last_reported":1703257625,"current_range_meters":5200,"station_id":"ce4rr2p2rcd13i802rgg","pricing_plan_id":"free"},{"bike_id":"4dfd2fe6-d396-45fe-a9f3-2cf80069454a","system_id":"levelo_inurba_marseille","lat":43.33766,"lon":5.37434,"is_reserved":false,"is_disabled":false,"rental_uris":{"android":"levelo://app?vid=4dfd2fe6-d396-45fe-a9f3-2cf80069454a","ios":"levelo://app?vid=4dfd2fe6-d396-45fe-a9f3-2cf80069454a"},"vehicle_type_id":"4","last_reported":1703257625,"current_range_meters":12000,"station_id":"ce4rr2p2rcd13i802rgg","pricing_plan_id":"free"},{"bike_id":"5f6df711-5c47-41c8-b2e0-ca21db0773eb","system_id":"levelo_inurba_marseille","lat":43.33766,"lon":5.37436,"is_reserved":false,"is_disabled":false,"rental_uris":{"android":"levelo://app?vid=5f6df711-5c47-41c8-b2e0-ca21db0773eb","ios":"levelo://app?vid=5f6df711-5c47-41c8-b2e0-ca21db0773eb"},"vehicle_type_id":"4","last_reported":1703257625,"current_range_meters":15200,"station_id":"ce4rr2p2rcd13i802rgg","pricing_plan_id":"free"},{"bike_id":"8ed93715-ec1e-4703-acb2-7183fed943a4","system_id":"levelo_inurba_marseille","lat":43.33767,"lon":5.37438,"is_reserved":false,"is_disabled":false,"rental_uris":{"android":"levelo://app?vid=8ed93715-ec1e-4703-acb2-7183fed943a4","ios":"levelo://app?vid=8ed93715-ec1e-4703-acb2-7183fed943a4"},"vehicle_type_id":"4","last_reported":1703257625,"current_range_meters":8400,"station_id":"ce4rr2p2rcd13i802rgg","pricing_plan_id":"free"},{"bike_id":"db5ccab8-7a8a-4751-a062-0c2ba2bfc08b","system_id":"levelo_inurba_marseille","lat":43.3377,"lon":5.37431,"is_reserved":false,"is_disabled":false,"rental_uris":{"android":"levelo://app?vid=db5ccab8-7a8a-4751-a062-0c2ba2bfc08b","ios":"levelo://app?vid=db5ccab8-7a8a-4751-a062-0c2ba2bfc08b"},"vehicle_type_id":"4","last_reported":1703257625,"current_range_meters":12800,"station_id":"ce4rr2p2rcd13i802rgg","pricing_plan_id":"free"},{"bike_id":"aa2bb981-e08f-448f-a65e-a15a6461a4f7","system_id":"levelo_inurba_marseille","lat":43.33773,"lon":5.37438,"is_reserved":false,"is_disabled":false,"rental_uris":{"android":"levelo://app?vid=aa2bb981-e08f-448f-a65e-a15a6461a4f7","ios":"levelo://app?vid=aa2bb981-e08f-448f-a65e-a15a6461a4f7"},"vehicle_type_id":"4","last_reported":1703257625,"current_range_meters":14000,"station_id":"ce4rr2p2rcd13i802rgg","pricing_plan_id":"free"},{"bike_id":"248036c1-af81-4d27-9242-6593b46581d0","system_id":"levelo_inurba_marseille","lat":43.337706,"lon":5.374539,"is_reserved":false,"is_disabled":false,"rental_uris":{"android":"levelo://app?vid=248036c1-af81-4d27-9242-6593b46581d0","ios":"levelo://app?vid=248036c1-af81-4d27-9242-6593b46581d0"},"vehicle_type_id":"4","last_reported":1703257625,"current_range_meters":31200,"station_id":"ce4rr2p2rcd13i802rgg","pricing_plan_id":"free"},{"bike_id":"ed03c11c-b2f2-4071-b320-8aa881128fb4","system_id":"levelo_inurba_marseille","lat":43.33772,"lon":5.37447,"is_reserved":false,"is_disabled":false,"rental_uris":{"android":"levelo://app?vid=ed03c11c-b2f2-4071-b320-8aa881128fb4","ios":"levelo://app?vid=ed03c11c-b2f2-4071-b320-8aa881128fb4"},"vehicle_type_id":"4","last_reported":1703257625,"current_range_meters":28800,"station_id":"ce4rr2p2rcd13i802rgg","pricing_plan_id":"free"},{"bike_id":"1663d2aa-0874-4792-bf2b-5726f881d721","system_id":"levelo_inurba_marseille","lat":43.30642,"lon":5.401031,"is_reserved":false,"is_disabled":false,"rental_uris":{"android":"levelo://app?vid=1663d2aa-0874-4792-bf2b-5726f881d721","ios":"levelo://app?vid=1663d2aa-0874-4792-bf2b-5726f881d721"},"vehicle_type_id":"4","last_reported":1703257625,"current_range_meters":20800,"station_id":"ce4bh112rcd13ifvqda0","pricing_plan_id":"free"},{"bike_id":"48361e8a-6fad-43b0-9b77-4696a50c3aea","system_id":"levelo_inurba_marseille","lat":43.3378,"lon":5.37434,"is_reserved":false,"is_disabled":false,"rental_uris":{"android":"levelo://app?vid=48361e8a-6fad-43b0-9b77-4696a50c3aea","ios":"levelo://app?vid=48361e8a-6fad-43b0-9b77-4696a50c3aea"},"vehicle_type_id":"4","last_reported":1703257625,"current_range_meters":7200,"station_id":"ce4rr2p2rcd13i802rgg","pricing_plan_id":"free"},{"bike_id":"af782aaf-55ff-4275-9a35-1eaf63c3c50f","system_id":"levelo_inurba_marseille","lat":43.33781,"lon":5.37448,"is_reserved":false,"is_disabled":false,"rental_uris":{"android":"levelo://app?vid=af782aaf-55ff-4275-9a35-1eaf63c3c50f","ios":"levelo://app?vid=af782aaf-55ff-4275-9a35-1eaf63c3c50f"},"vehicle_type_id":"4","last_reported":1703257625,"current_range_meters":13600,"station_id":"ce4rr2p2rcd13i802rgg","pricing_plan_id":"free"},{"bike_id":"b9c8fefe-fcf2-4e1c-95c9-c0ffed42221d","system_id":"levelo_inurba_marseille","lat":43.33794,"lon":5.37423,"is_reserved":false,"is_disabled":false,"rental_uris":{"android":"levelo://app?vid=b9c8fefe-fcf2-4e1c-95c9-c0ffed42221d","ios":"levelo://app?vid=b9c8fefe-fcf2-4e1c-95c9-c0ffed42221d"},"vehicle_type_id":"4","last_reported":1703257625,"current_range_meters":2400,"station_id":"ce4rr2p2rcd13i802rgg","pricing_plan_id":"free"},{"bike_id":"7e87bb74-51fe-4ea9-9748-f14a37b5998b","system_id":"levelo_inurba_marseille","lat":43.28727,"lon":5.36078,"is_reserved":false,"is_disabled":false,"rental_uris":{"android":"levelo://app?vid=7e87bb74-51fe-4ea9-9748-f14a37b5998b","ios":"levelo://app?vid=7e87bb74-51fe-4ea9-9748-f14a37b5998b"},"vehicle_type_id":"4","last_reported":1703257625,"current_range_meters":23600,"station_id":"cki0cbj6b192h4jlfktg","pricing_plan_id":"free"},{"bike_id":"e2940a14-9e72-4241-bb77-c2a0a3729008","system_id":"levelo_inurba_marseille","lat":43.28727,"lon":5.36078,"is_reserved":false,"is_disabled":false,"rental_uris":{"android":"levelo://app?vid=e2940a14-9e72-4241-bb77-c2a0a3729008","ios":"levelo://app?vid=e2940a14-9e72-4241-bb77-c2a0a3729008"},"vehicle_type_id":"4","last_reported":1703257625,"current_range_meters":5600,"station_id":"cki0cbj6b192h4jlfktg","pricing_plan_id":"free"},{"bike_id":"13b272fa-0fd5-4ef9-976b-033c46b4336c","system_id":"levelo_inurba_marseille","lat":43.286961,"lon":5.373785,"is_reserved":false,"is_disabled":false,"rental_uris":{"android":"levelo://app?vid=13b272fa-0fd5-4ef9-976b-033c46b4336c","ios":"levelo://app?vid=13b272fa-0fd5-4ef9-976b-033c46b4336c"},"vehicle_type_id":"4","last_reported":1703257625,"current_range_meters":8800,"station_id":"ce4bh3p2rcd13ifvqdq0","pricing_plan_id":"free"},{"bike_id":"929966c4-b6f2-49b2-9b45-1c549b9376d6","system_id":"levelo_inurba_marseille","lat":43.298681,"lon":5.397225,"is_reserved":false,"is_disabled":false,"rental_uris":{"android":"levelo://app?vid=929966c4-b6f2-49b2-9b45-1c549b9376d6","ios":"levelo://app?vid=929966c4-b6f2-49b2-9b45-1c549b9376d6"},"vehicle_type_id":"4","last_reported":1703257625,"current_range_meters":3600,"station_id":"ce4bh0h2rcd13ifvqd50","pricing_plan_id":"free"},{"bike_id":"49743674-f350-4dac-934c-3cecc9796ad8","system_id":"levelo_inurba_marseille","lat":43.286591,"lon":5.363346,"is_reserved":false,"is_disabled":false,"rental_uris":{"android":"levelo://app?vid=49743674-f350-4dac-934c-3cecc9796ad8","ios":"levelo://app?vid=49743674-f350-4dac-934c-3cecc9796ad8"},"vehicle_type_id":"4","last_reported":1703257625,"current_range_meters":16800,"station_id":"ce4bhah2rcd13ifvqej0","pricing_plan_id":"free"},{"bike_id":"29121033-4c68-4cb7-b25f-e5becfe7c528","system_id":"levelo_inurba_marseille","lat":43.286591,"lon":5.363346,"is_reserved":false,"is_disabled":false,"rental_uris":{"android":"levelo://app?vid=29121033-4c68-4cb7-b25f-e5becfe7c528","ios":"levelo://app?vid=29121033-4c68-4cb7-b25f-e5becfe7c528"},"vehicle_type_id":"4","last_reported":1703257625,"current_range_meters":0,"station_id":"ce4bhah2rcd13ifvqej0","pricing_plan_id":"free"},{"bike_id":"87fe6ed6-5ff5-4095-bc1c-5f2f657b0204","system_id":"levelo_inurba_marseille","lat":43.287001,"lon":5.373853,"is_reserved":false,"is_disabled":false,"rental_uris":{"android":"levelo://app?vid=87fe6ed6-5ff5-4095-bc1c-5f2f657b0204","ios":"levelo://app?vid=87fe6ed6-5ff5-4095-bc1c-5f2f657b0204"},"vehicle_type_id":"4","last_reported":1703257625,"current_range_meters":6000,"station_id":"","pricing_plan_id":"free"},{"bike_id":"1980a47c-13ab-4f34-b355-919aa26e5bd5","system_id":"levelo_inurba_marseille","lat":43.286591,"lon":5.363346,"is_reserved":false,"is_disabled":false,"rental_uris":{"android":"levelo://app?vid=1980a47c-13ab-4f34-b355-919aa26e5bd5","ios":"levelo://app?vid=1980a47c-13ab-4f34-b355-919aa26e5bd5"},"vehicle_type_id":"4","last_reported":1703257625,"current_range_meters":27200,"station_id":"ce4bhah2rcd13ifvqej0","pricing_plan_id":"free"},{"bike_id":"4765b84e-6c21-4627-9dd7-45b9a3c9f2f4","system_id":"levelo_inurba_marseille","lat":43.286961,"lon":5.373785,"is_reserved":false,"is_disabled":false,"rental_uris":{"android":"levelo://app?vid=4765b84e-6c21-4627-9dd7-45b9a3c9f2f4","ios":"levelo://app?vid=4765b84e-6c21-4627-9dd7-45b9a3c9f2f4"},"vehicle_type_id":"4","last_reported":1703257625,"current_range_meters":4400,"station_id":"ce4bh3p2rcd13ifvqdq0","pricing_plan_id":"free"},{"bike_id":"611563fb-77ae-440f-99b5-704b5b207b16","system_id":"levelo_inurba_marseille","lat":43.28655,"lon":5.36357,"is_reserved":false,"is_disabled":false,"rental_uris":{"android":"levelo://app?vid=611563fb-77ae-440f-99b5-704b5b207b16","ios":"levelo://app?vid=611563fb-77ae-440f-99b5-704b5b207b16"},"vehicle_type_id":"4","last_reported":1703257625,"current_range_meters":23200,"station_id":"ce4bhah2rcd13ifvqej0","pricing_plan_id":"free"},{"bike_id":"fc51fbd7-0508-4b33-bdcc-ab62d33ed207","system_id":"levelo_inurba_marseille","lat":43.289307,"lon":5.38406,"is_reserved":false,"is_disabled":false,"rental_uris":{"android":"levelo://app?vid=fc51fbd7-0508-4b33-bdcc-ab62d33ed207","ios":"levelo://app?vid=fc51fbd7-0508-4b33-bdcc-ab62d33ed207"},"vehicle_type_id":"4","last_reported":1703257625,"current_range_meters":11200,"station_id":"ce4bh612rcd13ifvqe6g","pricing_plan_id":"free"},{"bike_id":"9eca5988-864d-4145-b41b-871ecee84e99","system_id":"levelo_inurba_marseille","lat":43.289307,"lon":5.38406,"is_reserved":false,"is_disabled":false,"rental_uris":{"android":"levelo://app?vid=9eca5988-864d-4145-b41b-871ecee84e99","ios":"levelo://app?vid=9eca5988-864d-4145-b41b-871ecee84e99"},"vehicle_type_id":"4","last_reported":1703257625,"current_range_meters":18000,"station_id":"ce4bh612rcd13ifvqe6g","pricing_plan_id":"free"},{"bike_id":"b0d779b4-64ec-4c63-9861-6e4a4b7e8f26","system_id":"levelo_inurba_marseille","lat":43.302759,"lon":5.400793,"is_reserved":false,"is_disabled":false,"rental_uris":{"android":"levelo://app?vid=b0d779b4-64ec-4c63-9861-6e4a4b7e8f26","ios":"levelo://app?vid=b0d779b4-64ec-4c63-9861-6e4a4b7e8f26"},"vehicle_type_id":"4","last_reported":1703257625,"current_range_meters":15200,"station_id":"ce4bgvh2rcd13ifvqcs0","pricing_plan_id":"free"},{"bike_id":"7f6621ec-31af-4f71-ae87-97a6b5f5e799","system_id":"levelo_inurba_marseille","lat":43.30254,"lon":5.40082,"is_reserved":false,"is_disabled":false,"rental_uris":{"android":"levelo://app?vid=7f6621ec-31af-4f71-ae87-97a6b5f5e799","ios":"levelo://app?vid=7f6621ec-31af-4f71-ae87-97a6b5f5e799"},"vehicle_type_id":"4","last_reported":1703257625,"current_range_meters":16800,"station_id":"ce4bgvh2rcd13ifvqcs0","pricing_plan_id":"free"},{"bike_id":"bd47936f-b6f5-43be-8b8a-493195892060","system_id":"levelo_inurba_marseille","lat":43.286039,"lon":5.370679,"is_reserved":false,"is_disabled":false,"rental_uris":{"android":"levelo://app?vid=bd47936f-b6f5-43be-8b8a-493195892060","ios":"levelo://app?vid=bd47936f-b6f5-43be-8b8a-493195892060"},"vehicle_type_id":"4","last_reported":1703257625,"current_range_meters":19200,"station_id":"ce4bht12rcd13ifvqi60","pricing_plan_id":"free"},{"bike_id":"f022f52a-eb6e-48a7-9ece-0468429e057a","system_id":"levelo_inurba_marseille","lat":43.286085,"lon":5.370675,"is_reserved":false,"is_disabled":false,"rental_uris":{"android":"levelo://app?vid=f022f52a-eb6e-48a7-9ece-0468429e057a","ios":"levelo://app?vid=f022f52a-eb6e-48a7-9ece-0468429e057a"},"vehicle_type_id":"4","last_reported":1703257625,"current_range_meters":16000,"station_id":"ce4bht12rcd13ifvqi60","pricing_plan_id":"free"},{"bike_id":"3aeec29b-44de-4c13-85df-88b9a16cd4dd","system_id":"levelo_inurba_marseille","lat":43.316828,"lon":5.404723,"is_reserved":false,"is_disabled":false,"rental_uris":{"android":"levelo://app?vid=3aeec29b-44de-4c13-85df-88b9a16cd4dd","ios":"levelo://app?vid=3aeec29b-44de-4c13-85df-88b9a16cd4dd"},"vehicle_type_id":"4","last_reported":1703257625,"current_range_meters":26000,"station_id":"ce4bh012rcd13ifvqd00","pricing_plan_id":"free"},{"bike_id":"aaa1ce45-3d2b-4407-9d13-03faad80b336","system_id":"levelo_inurba_marseille","lat":43.316828,"lon":5.404723,"is_reserved":false,"is_disabled":false,"rental_uris":{"android":"levelo://app?vid=aaa1ce45-3d2b-4407-9d13-03faad80b336","ios":"levelo://app?vid=aaa1ce45-3d2b-4407-9d13-03faad80b336"},"vehicle_type_id":"4","last_reported":1703257625,"current_range_meters":26000,"station_id":"ce4bh012rcd13ifvqd00","pricing_plan_id":"free"},{"bike_id":"c7cd089c-e404-44cd-b2a1-fae94e5657ea","system_id":"levelo_inurba_marseille","lat":43.316821,"lon":5.404737,"is_reserved":false,"is_disabled":false,"rental_uris":{"android":"levelo://app?vid=c7cd089c-e404-44cd-b2a1-fae94e5657ea","ios":"levelo://app?vid=c7cd089c-e404-44cd-b2a1-fae94e5657ea"},"vehicle_type_id":"4","last_reported":1703257625,"current_range_meters":16000,"station_id":"ce4bh012rcd13ifvqd00","pricing_plan_id":"free"},{"bike_id":"e2adfa7c-882e-48a1-9ee4-b36e6186ebbf","system_id":"levelo_inurba_marseille","lat":43.330912,"lon":5.396935,"is_reserved":false,"is_disabled":false,"rental_uris":{"android":"levelo://app?vid=e2adfa7c-882e-48a1-9ee4-b36e6186ebbf","ios":"levelo://app?vid=e2adfa7c-882e-48a1-9ee4-b36e6186ebbf"},"vehicle_type_id":"4","last_reported":1703257625,"current_range_meters":18000,"station_id":"","pricing_plan_id":"free"},{"bike_id":"66fb210b-610e-47ac-be8f-a4f7e31fd345","system_id":"levelo_inurba_marseille","lat":43.28465,"lon":5.35893,"is_reserved":false,"is_disabled":false,"rental_uris":{"android":"levelo://app?vid=66fb210b-610e-47ac-be8f-a4f7e31fd345","ios":"levelo://app?vid=66fb210b-610e-47ac-be8f-a4f7e31fd345"},"vehicle_type_id":"4","last_reported":1703257625,"current_range_meters":15600,"station_id":"ce4bhah2rcd13ifvqei0","pricing_plan_id":"free"},{"bike_id":"354589ed-e6d3-467e-85f3-b9dd49ef08f8","system_id":"levelo_inurba_marseille","lat":43.294314,"lon":5.397498,"is_reserved":false,"is_disabled":false,"rental_uris":{"android":"levelo://app?vid=354589ed-e6d3-467e-85f3-b9dd49ef08f8","ios":"levelo://app?vid=354589ed-e6d3-467e-85f3-b9dd49ef08f8"},"vehicle_type_id":"4","last_reported":1703257625,"current_range_meters":22800,"station_id":"ce4bh3h2rcd13ifvqdo0","pricing_plan_id":"free"},{"bike_id":"6681f091-8cae-40db-82be-2afedc79afec","system_id":"levelo_inurba_marseille","lat":43.297879,"lon":5.401022,"is_reserved":false,"is_disabled":false,"rental_uris":{"android":"levelo://app?vid=6681f091-8cae-40db-82be-2afedc79afec","ios":"levelo://app?vid=6681f091-8cae-40db-82be-2afedc79afec"},"vehicle_type_id":"4","last_reported":1703257625,"current_range_meters":6000,"station_id":"","pricing_plan_id":"free"},{"bike_id":"f20da4a3-84f8-47cc-969b-7e2fc5777cb5","system_id":"levelo_inurba_marseille","lat":43.285856,"lon":5.350771,"is_reserved":false,"is_disabled":false,"rental_uris":{"android":"levelo://app?vid=f20da4a3-84f8-47cc-969b-7e2fc5777cb5","ios":"levelo://app?vid=f20da4a3-84f8-47cc-969b-7e2fc5777cb5"},"vehicle_type_id":"4","last_reported":1703257625,"current_range_meters":4400,"station_id":"ce4bhch2rcd13ifvqeug","pricing_plan_id":"free"},{"bike_id":"d6314368-469e-4b87-a03a-5b618bfc7e5f","system_id":"levelo_inurba_marseille","lat":43.285856,"lon":5.350771,"is_reserved":false,"is_disabled":false,"rental_uris":{"android":"levelo://app?vid=d6314368-469e-4b87-a03a-5b618bfc7e5f","ios":"levelo://app?vid=d6314368-469e-4b87-a03a-5b618bfc7e5f"},"vehicle_type_id":"4","last_reported":1703257625,"current_range_meters":3200,"station_id":"ce4bhch2rcd13ifvqeug","pricing_plan_id":"free"},{"bike_id":"4cbba94f-0f8a-459d-bdb8-04d7c647e90b","system_id":"levelo_inurba_marseille","lat":43.285856,"lon":5.350771,"is_reserved":false,"is_disabled":false,"rental_uris":{"android":"levelo://app?vid=4cbba94f-0f8a-459d-bdb8-04d7c647e90b","ios":"levelo://app?vid=4cbba94f-0f8a-459d-bdb8-04d7c647e90b"},"vehicle_type_id":"4","last_reported":1703257625,"current_range_meters":3600,"station_id":"ce4bhch2rcd13ifvqeug","pricing_plan_id":"free"},{"bike_id":"0c20047a-ae8b-45c0-886b-87dff3257120","system_id":"levelo_inurba_marseille","lat":43.29573,"lon":5.39985,"is_reserved":false,"is_disabled":false,"rental_uris":{"android":"levelo://app?vid=0c20047a-ae8b-45c0-886b-87dff3257120","ios":"levelo://app?vid=0c20047a-ae8b-45c0-886b-87dff3257120"},"vehicle_type_id":"4","last_reported":1703257625,"current_range_meters":1600,"station_id":"ce4bh312rcd13ifvqdj0","pricing_plan_id":"free"},{"bike_id":"01faccd2-8191-430d-95e0-b6449531a46f","system_id":"levelo_inurba_marseille","lat":43.28672,"lon":5.38661,"is_reserved":false,"is_disabled":false,"rental_uris":{"android":"levelo://app?vid=01faccd2-8191-430d-95e0-b6449531a46f","ios":"levelo://app?vid=01faccd2-8191-430d-95e0-b6449531a46f"},"vehicle_type_id":"4","last_reported":1703257625,"current_range_meters":16000,"station_id":"ce4bh492rcd13ifvqdug","pricing_plan_id":"free"},{"bike_id":"6ffd3a48-9206-4a65-ad66-fe12352e69e6","system_id":"levelo_inurba_marseille","lat":43.28656,"lon":5.38672,"is_reserved":false,"is_disabled":false,"rental_uris":{"android":"levelo://app?vid=6ffd3a48-9206-4a65-ad66-fe12352e69e6","ios":"levelo://app?vid=6ffd3a48-9206-4a65-ad66-fe12352e69e6"},"vehicle_type_id":"4","last_reported":1703257625,"current_range_meters":30000,"station_id":"ce4bh492rcd13ifvqdug","pricing_plan_id":"free"},{"bike_id":"b5d8175d-d9fe-4c40-99bc-002ccb55dc44","system_id":"levelo_inurba_marseille","lat":43.28735,"lon":5.38902,"is_reserved":false,"is_disabled":false,"rental_uris":{"android":"levelo://app?vid=b5d8175d-d9fe-4c40-99bc-002ccb55dc44","ios":"levelo://app?vid=b5d8175d-d9fe-4c40-99bc-002ccb55dc44"},"vehicle_type_id":"4","last_reported":1703257625,"current_range_meters":1200,"station_id":"","pricing_plan_id":"free"},{"bike_id":"5dfbda82-9999-48e9-9779-7781fbf040e2","system_id":"levelo_inurba_marseille","lat":43.28382,"lon":5.35528,"is_reserved":false,"is_disabled":false,"rental_uris":{"android":"levelo://app?vid=5dfbda82-9999-48e9-9779-7781fbf040e2","ios":"levelo://app?vid=5dfbda82-9999-48e9-9779-7781fbf040e2"},"vehicle_type_id":"4","last_reported":1703257625,"current_range_meters":11600,"station_id":"ce4bhbp2rcd13ifvqerg","pricing_plan_id":"free"},{"bike_id":"a396a5d3-3428-4c7d-bbce-d046d97fc93c","system_id":"levelo_inurba_marseille","lat":43.337168,"lon":5.391825,"is_reserved":false,"is_disabled":false,"rental_uris":{"android":"levelo://app?vid=a396a5d3-3428-4c7d-bbce-d046d97fc93c","ios":"levelo://app?vid=a396a5d3-3428-4c7d-bbce-d046d97fc93c"},"vehicle_type_id":"4","last_reported":1703257625,"current_range_meters":28800,"station_id":"ce4bhr92rcd13ifvqhsg","pricing_plan_id":"free"},{"bike_id":"e4558259-d634-4f02-b1ac-ed5d44525078","system_id":"levelo_inurba_marseille","lat":43.323464,"lon":5.406297,"is_reserved":false,"is_disabled":false,"rental_uris":{"android":"levelo://app?vid=e4558259-d634-4f02-b1ac-ed5d44525078","ios":"levelo://app?vid=e4558259-d634-4f02-b1ac-ed5d44525078"},"vehicle_type_id":"4","last_reported":1703257625,"current_range_meters":28800,"station_id":"ce4bhq92rcd13ifvqhjg","pricing_plan_id":"free"},{"bike_id":"981f4281-f84e-4bc8-ad81-9f52a3b7042e","system_id":"levelo_inurba_marseille","lat":43.297946,"lon":5.404063,"is_reserved":false,"is_disabled":false,"rental_uris":{"android":"levelo://app?vid=981f4281-f84e-4bc8-ad81-9f52a3b7042e","ios":"levelo://app?vid=981f4281-f84e-4bc8-ad81-9f52a3b7042e"},"vehicle_type_id":"4","last_reported":1703257625,"current_range_meters":26000,"station_id":"ce4bh112rcd13ifvqd90","pricing_plan_id":"free"},{"bike_id":"897b7219-9dfd-4e47-a478-a12db1bf78e6","system_id":"levelo_inurba_marseille","lat":43.283494,"lon":5.380945,"is_reserved":false,"is_disabled":false,"rental_uris":{"android":"levelo://app?vid=897b7219-9dfd-4e47-a478-a12db1bf78e6","ios":"levelo://app?vid=897b7219-9dfd-4e47-a478-a12db1bf78e6"},"vehicle_type_id":"4","last_reported":1703257625,"current_range_meters":8800,"station_id":"ce4bh412rcd13ifvqdr0","pricing_plan_id":"free"},{"bike_id":"e5145a44-688c-421a-9e99-b1d2f4d16973","system_id":"levelo_inurba_marseille","lat":43.29795,"lon":5.404086,"is_reserved":false,"is_disabled":false,"rental_uris":{"android":"levelo://app?vid=e5145a44-688c-421a-9e99-b1d2f4d16973","ios":"levelo://app?vid=e5145a44-688c-421a-9e99-b1d2f4d16973"},"vehicle_type_id":"4","last_reported":1703257625,"current_range_meters":2800,"station_id":"ce4bh112rcd13ifvqd90","pricing_plan_id":"free"},{"bike_id":"681ccdbd-fd71-4b2c-98db-8f4d54164939","system_id":"levelo_inurba_marseille","lat":43.283498,"lon":5.380948,"is_reserved":false,"is_disabled":false,"rental_uris":{"android":"levelo://app?vid=681ccdbd-fd71-4b2c-98db-8f4d54164939","ios":"levelo://app?vid=681ccdbd-fd71-4b2c-98db-8f4d54164939"},"vehicle_type_id":"4","last_reported":1703257625,"current_range_meters":21200,"station_id":"ce4bh412rcd13ifvqdr0","pricing_plan_id":"free"},{"bike_id":"9485088b-f6c4-48bd-acbe-a315b55c82ac","system_id":"levelo_inurba_marseille","lat":43.292724,"lon":5.401131,"is_reserved":false,"is_disabled":false,"rental_uris":{"android":"levelo://app?vid=9485088b-f6c4-48bd-acbe-a315b55c82ac","ios":"levelo://app?vid=9485088b-f6c4-48bd-acbe-a315b55c82ac"},"vehicle_type_id":"4","last_reported":1703257625,"current_range_meters":12000,"station_id":"ce4bh312rcd13ifvqdk0","pricing_plan_id":"free"},{"bike_id":"9055ca72-0b15-41da-abc1-0d01dd44c2f7","system_id":"levelo_inurba_marseille","lat":43.28273,"lon":5.35062,"is_reserved":false,"is_disabled":false,"rental_uris":{"android":"levelo://app?vid=9055ca72-0b15-41da-abc1-0d01dd44c2f7","ios":"levelo://app?vid=9055ca72-0b15-41da-abc1-0d01dd44c2f7"},"vehicle_type_id":"4","last_reported":1703257625,"current_range_meters":26000,"station_id":"ce4bhbp2rcd13ifvqerg","pricing_plan_id":"free"},{"bike_id":"dc16835d-9369-48e2-a35b-a7d90839a864","system_id":"levelo_inurba_marseille","lat":43.28269,"lon":5.35073,"is_reserved":false,"is_disabled":false,"rental_uris":{"android":"levelo://app?vid=dc16835d-9369-48e2-a35b-a7d90839a864","ios":"levelo://app?vid=dc16835d-9369-48e2-a35b-a7d90839a864"},"vehicle_type_id":"4","last_reported":1703257625,"current_range_meters":14400,"station_id":"ce4bhbp2rcd13ifvqerg","pricing_plan_id":"free"},{"bike_id":"7054a930-e9e7-4d41-9e2b-41f0a98eceda","system_id":"levelo_inurba_marseille","lat":43.28259,"lon":5.35069,"is_reserved":false,"is_disabled":false,"rental_uris":{"android":"levelo://app?vid=7054a930-e9e7-4d41-9e2b-41f0a98eceda","ios":"levelo://app?vid=7054a930-e9e7-4d41-9e2b-41f0a98eceda"},"vehicle_type_id":"4","last_reported":1703257625,"current_range_meters":9200,"station_id":"ce4bhbp2rcd13ifvqerg","pricing_plan_id":"free"},{"bike_id":"11d84539-824b-4a56-b489-f7a7d330f7e5","system_id":"levelo_inurba_marseille","lat":43.280382,"lon":5.369291,"is_reserved":false,"is_disabled":false,"rental_uris":{"android":"levelo://app?vid=11d84539-824b-4a56-b489-f7a7d330f7e5","ios":"levelo://app?vid=11d84539-824b-4a56-b489-f7a7d330f7e5"},"vehicle_type_id":"4","last_reported":1703257625,"current_range_meters":18800,"station_id":"ce4bha12rcd13ifvqef0","pricing_plan_id":"free"},{"bike_id":"37fc9955-d68a-4e13-b295-f1f33f8fe79d","system_id":"levelo_inurba_marseille","lat":43.284462,"lon":5.392121,"is_reserved":false,"is_disabled":false,"rental_uris":{"android":"levelo://app?vid=37fc9955-d68a-4e13-b295-f1f33f8fe79d","ios":"levelo://app?vid=37fc9955-d68a-4e13-b295-f1f33f8fe79d"},"vehicle_type_id":"4","last_reported":1703257625,"current_range_meters":23200,"station_id":"ce4bhoh2rcd13ifvqh5g","pricing_plan_id":"free"},{"bike_id":"72d62900-3dca-4a80-a863-a95e444c114f","system_id":"levelo_inurba_marseille","lat":43.285742,"lon":5.395004,"is_reserved":false,"is_disabled":false,"rental_uris":{"android":"levelo://app?vid=72d62900-3dca-4a80-a863-a95e444c114f","ios":"levelo://app?vid=72d62900-3dca-4a80-a863-a95e444c114f"},"vehicle_type_id":"4","last_reported":1703257625,"current_range_meters":29600,"station_id":"ce4bh292rcd13ifvqdg0","pricing_plan_id":"free"},{"bike_id":"04e4423e-b925-4011-a1d1-d0ddc990667a","system_id":"levelo_inurba_marseille","lat":43.285742,"lon":5.395004,"is_reserved":false,"is_disabled":false,"rental_uris":{"android":"levelo://app?vid=04e4423e-b925-4011-a1d1-d0ddc990667a","ios":"levelo://app?vid=04e4423e-b925-4011-a1d1-d0ddc990667a"},"vehicle_type_id":"4","last_reported":1703257625,"current_range_meters":28400,"station_id":"ce4bh292rcd13ifvqdg0","pricing_plan_id":"free"},{"bike_id":"2dce41b4-f1e9-4565-979b-d206af37124f","system_id":"levelo_inurba_marseille","lat":43.326605,"lon":5.409903,"is_reserved":false,"is_disabled":false,"rental_uris":{"android":"levelo://app?vid=2dce41b4-f1e9-4565-979b-d206af37124f","ios":"levelo://app?vid=2dce41b4-f1e9-4565-979b-d206af37124f"},"vehicle_type_id":"4","last_reported":1703257625,"current_range_meters":29200,"station_id":"ce4bhpp2rcd13ifvqhgg","pricing_plan_id":"free"},{"bike_id":"63d76e32-c142-47a0-a86a-c824777f1894","system_id":"levelo_inurba_marseille","lat":43.304188,"lon":5.412904,"is_reserved":false,"is_disabled":false,"rental_uris":{"android":"levelo://app?vid=63d76e32-c142-47a0-a86a-c824777f1894","ios":"levelo://app?vid=63d76e32-c142-47a0-a86a-c824777f1894"},"vehicle_type_id":"4","last_reported":1703257625,"current_range_meters":26400,"station_id":"ce4bhop2rcd13ifvqh8g","pricing_plan_id":"free"},{"bike_id":"f2a735b9-b183-4b03-acbe-8b823bd40b24","system_id":"levelo_inurba_marseille","lat":43.304188,"lon":5.412904,"is_reserved":false,"is_disabled":false,"rental_uris":{"android":"levelo://app?vid=f2a735b9-b183-4b03-acbe-8b823bd40b24","ios":"levelo://app?vid=f2a735b9-b183-4b03-acbe-8b823bd40b24"},"vehicle_type_id":"4","last_reported":1703257625,"current_range_meters":30800,"station_id":"ce4bhop2rcd13ifvqh8g","pricing_plan_id":"free"},{"bike_id":"6497b430-f814-4e4a-b106-ef5476ba6067","system_id":"levelo_inurba_marseille","lat":43.279087,"lon":5.380114,"is_reserved":false,"is_disabled":false,"rental_uris":{"android":"levelo://app?vid=6497b430-f814-4e4a-b106-ef5476ba6067","ios":"levelo://app?vid=6497b430-f814-4e4a-b106-ef5476ba6067"},"vehicle_type_id":"4","last_reported":1703257625,"current_range_meters":28000,"station_id":"ce4bhf92rcd13ifvqf50","pricing_plan_id":"free"},{"bike_id":"22808c7a-9b5f-4cf9-bebd-60b27e55d85f","system_id":"levelo_inurba_marseille","lat":43.28711,"lon":5.39989,"is_reserved":false,"is_disabled":false,"rental_uris":{"android":"levelo://app?vid=22808c7a-9b5f-4cf9-bebd-60b27e55d85f","ios":"levelo://app?vid=22808c7a-9b5f-4cf9-bebd-60b27e55d85f"},"vehicle_type_id":"4","last_reported":1703257625,"current_range_meters":0,"station_id":"ce4bho92rcd13ifvqh3g","pricing_plan_id":"free"},{"bike_id":"6b693e27-fab5-4940-b0fb-5abd62636702","system_id":"levelo_inurba_marseille","lat":43.279087,"lon":5.380114,"is_reserved":false,"is_disabled":false,"rental_uris":{"android":"levelo://app?vid=6b693e27-fab5-4940-b0fb-5abd62636702","ios":"levelo://app?vid=6b693e27-fab5-4940-b0fb-5abd62636702"},"vehicle_type_id":"4","last_reported":1703257625,"current_range_meters":16400,"station_id":"ce4bhf92rcd13ifvqf50","pricing_plan_id":"free"},{"bike_id":"a2be1561-12aa-42b2-9d71-695cd2d009c9","system_id":"levelo_inurba_marseille","lat":43.287154,"lon":5.399979,"is_reserved":false,"is_disabled":false,"rental_uris":{"android":"levelo://app?vid=a2be1561-12aa-42b2-9d71-695cd2d009c9","ios":"levelo://app?vid=a2be1561-12aa-42b2-9d71-695cd2d009c9"},"vehicle_type_id":"4","last_reported":1703257625,"current_range_meters":30400,"station_id":"ce4bho92rcd13ifvqh3g","pricing_plan_id":"free"},{"bike_id":"4ecc0af2-5f3a-471a-9173-ae691584c4db","system_id":"levelo_inurba_marseille","lat":43.320045,"lon":5.415046,"is_reserved":false,"is_disabled":false,"rental_uris":{"android":"levelo://app?vid=4ecc0af2-5f3a-471a-9173-ae691584c4db","ios":"levelo://app?vid=4ecc0af2-5f3a-471a-9173-ae691584c4db"},"vehicle_type_id":"4","last_reported":1703257625,"current_range_meters":18800,"station_id":"ce4bhq92rcd13ifvqhkg","pricing_plan_id":"free"},{"bike_id":"2e5d963d-1185-4f2d-88f4-e4b8f26c6849","system_id":"levelo_inurba_marseille","lat":43.320045,"lon":5.415046,"is_reserved":false,"is_disabled":false,"rental_uris":{"android":"levelo://app?vid=2e5d963d-1185-4f2d-88f4-e4b8f26c6849","ios":"levelo://app?vid=2e5d963d-1185-4f2d-88f4-e4b8f26c6849"},"vehicle_type_id":"4","last_reported":1703257625,"current_range_meters":15200,"station_id":"ce4bhq92rcd13ifvqhkg","pricing_plan_id":"free"},{"bike_id":"eb26abdb-ac67-4e71-9bbe-40464da5665c","system_id":"levelo_inurba_marseille","lat":43.276179,"lon":5.361009,"is_reserved":false,"is_disabled":false,"rental_uris":{"android":"levelo://app?vid=eb26abdb-ac67-4e71-9bbe-40464da5665c","ios":"levelo://app?vid=eb26abdb-ac67-4e71-9bbe-40464da5665c"},"vehicle_type_id":"4","last_reported":1703257625,"current_range_meters":0,"station_id":"ce4bgj92rcd13ifvqbe0","pricing_plan_id":"free"},{"bike_id":"ff261c17-aca0-4f8a-b3d7-416aac4881bb","system_id":"levelo_inurba_marseille","lat":43.27612,"lon":5.3611,"is_reserved":false,"is_disabled":false,"rental_uris":{"android":"levelo://app?vid=ff261c17-aca0-4f8a-b3d7-416aac4881bb","ios":"levelo://app?vid=ff261c17-aca0-4f8a-b3d7-416aac4881bb"},"vehicle_type_id":"4","last_reported":1703257625,"current_range_meters":24000,"station_id":"ce4bgj92rcd13ifvqbe0","pricing_plan_id":"free"},{"bike_id":"2e44db22-6387-491a-b371-044ac2dc1e42","system_id":"levelo_inurba_marseille","lat":43.280784,"lon":5.396622,"is_reserved":false,"is_disabled":false,"rental_uris":{"android":"levelo://app?vid=2e44db22-6387-491a-b371-044ac2dc1e42","ios":"levelo://app?vid=2e44db22-6387-491a-b371-044ac2dc1e42"},"vehicle_type_id":"4","last_reported":1703257625,"current_range_meters":14800,"station_id":"ce4bho12rcd13ifvqh2g","pricing_plan_id":"free"},{"bike_id":"d21c10fc-1e64-41be-9db5-8616a8cab7c7","system_id":"levelo_inurba_marseille","lat":43.280784,"lon":5.396622,"is_reserved":false,"is_disabled":false,"rental_uris":{"android":"levelo://app?vid=d21c10fc-1e64-41be-9db5-8616a8cab7c7","ios":"levelo://app?vid=d21c10fc-1e64-41be-9db5-8616a8cab7c7"},"vehicle_type_id":"4","last_reported":1703257625,"current_range_meters":31200,"station_id":"ce4bho12rcd13ifvqh2g","pricing_plan_id":"free"},{"bike_id":"a58a07e7-1ea4-4f7d-b573-122cbd42f819","system_id":"levelo_inurba_marseille","lat":43.280784,"lon":5.396622,"is_reserved":false,"is_disabled":false,"rental_uris":{"android":"levelo://app?vid=a58a07e7-1ea4-4f7d-b573-122cbd42f819","ios":"levelo://app?vid=a58a07e7-1ea4-4f7d-b573-122cbd42f819"},"vehicle_type_id":"4","last_reported":1703257625,"current_range_meters":26400,"station_id":"ce4bho12rcd13ifvqh2g","pricing_plan_id":"free"},{"bike_id":"6626fddb-6a11-4855-99e4-38e49a54a391","system_id":"levelo_inurba_marseille","lat":43.280784,"lon":5.396622,"is_reserved":false,"is_disabled":false,"rental_uris":{"android":"levelo://app?vid=6626fddb-6a11-4855-99e4-38e49a54a391","ios":"levelo://app?vid=6626fddb-6a11-4855-99e4-38e49a54a391"},"vehicle_type_id":"4","last_reported":1703257625,"current_range_meters":28800,"station_id":"ce4bho12rcd13ifvqh2g","pricing_plan_id":"free"},{"bike_id":"c5251b4e-eacd-4952-83e4-db870a2ebc34","system_id":"levelo_inurba_marseille","lat":43.278401,"lon":5.392152,"is_reserved":false,"is_disabled":false,"rental_uris":{"android":"levelo://app?vid=c5251b4e-eacd-4952-83e4-db870a2ebc34","ios":"levelo://app?vid=c5251b4e-eacd-4952-83e4-db870a2ebc34"},"vehicle_type_id":"4","last_reported":1703257625,"current_range_meters":30800,"station_id":"ce4bhjp2rcd13ifvqga0","pricing_plan_id":"free"},{"bike_id":"daf111a3-ce64-41cc-8b69-143d0e376cdf","system_id":"levelo_inurba_marseille","lat":43.278401,"lon":5.392152,"is_reserved":false,"is_disabled":false,"rental_uris":{"android":"levelo://app?vid=daf111a3-ce64-41cc-8b69-143d0e376cdf","ios":"levelo://app?vid=daf111a3-ce64-41cc-8b69-143d0e376cdf"},"vehicle_type_id":"4","last_reported":1703257625,"current_range_meters":17200,"station_id":"ce4bhjp2rcd13ifvqga0","pricing_plan_id":"free"},{"bike_id":"cac0fcf8-7139-4689-a55e-ba04bf4808c9","system_id":"levelo_inurba_marseille","lat":43.275625,"lon":5.384392,"is_reserved":false,"is_disabled":false,"rental_uris":{"android":"levelo://app?vid=cac0fcf8-7139-4689-a55e-ba04bf4808c9","ios":"levelo://app?vid=cac0fcf8-7139-4689-a55e-ba04bf4808c9"},"vehicle_type_id":"4","last_reported":1703257625,"current_range_meters":27600,"station_id":"ce4bhh92rcd13ifvqfi0","pricing_plan_id":"free"},{"bike_id":"48cb72d6-5769-46dd-a4f2-54dfd0bfb283","system_id":"levelo_inurba_marseille","lat":43.273613,"lon":5.362705,"is_reserved":false,"is_disabled":false,"rental_uris":{"android":"levelo://app?vid=48cb72d6-5769-46dd-a4f2-54dfd0bfb283","ios":"levelo://app?vid=48cb72d6-5769-46dd-a4f2-54dfd0bfb283"},"vehicle_type_id":"4","last_reported":1703257625,"current_range_meters":10800,"station_id":"ce4bhbh2rcd13ifvqeo0","pricing_plan_id":"free"},{"bike_id":"e09a6d18-e62b-45bc-ba72-f8db6df2fcf5","system_id":"levelo_inurba_marseille","lat":43.273609,"lon":5.362708,"is_reserved":false,"is_disabled":false,"rental_uris":{"android":"levelo://app?vid=e09a6d18-e62b-45bc-ba72-f8db6df2fcf5","ios":"levelo://app?vid=e09a6d18-e62b-45bc-ba72-f8db6df2fcf5"},"vehicle_type_id":"4","last_reported":1703257625,"current_range_meters":12000,"station_id":"ce4bhbh2rcd13ifvqeo0","pricing_plan_id":"free"},{"bike_id":"673d5589-0256-43d2-963f-7517a493ad17","system_id":"levelo_inurba_marseille","lat":43.336134,"lon":5.410341,"is_reserved":false,"is_disabled":false,"rental_uris":{"android":"levelo://app?vid=673d5589-0256-43d2-963f-7517a493ad17","ios":"levelo://app?vid=673d5589-0256-43d2-963f-7517a493ad17"},"vehicle_type_id":"4","last_reported":1703257625,"current_range_meters":8400,"station_id":"ce4bhqh2rcd13ifvqhmg","pricing_plan_id":"free"},{"bike_id":"67f6546c-2b89-479b-b956-0ba79cc05b40","system_id":"levelo_inurba_marseille","lat":43.276769,"lon":5.388787,"is_reserved":false,"is_disabled":false,"rental_uris":{"android":"levelo://app?vid=67f6546c-2b89-479b-b956-0ba79cc05b40","ios":"levelo://app?vid=67f6546c-2b89-479b-b956-0ba79cc05b40"},"vehicle_type_id":"4","last_reported":1703257625,"current_range_meters":7600,"station_id":"ce4bhi12rcd13ifvqfo0","pricing_plan_id":"free"},{"bike_id":"d67e2717-71e1-4883-a145-42d81453ab52","system_id":"levelo_inurba_marseille","lat":43.276771,"lon":5.388799,"is_reserved":false,"is_disabled":false,"rental_uris":{"android":"levelo://app?vid=d67e2717-71e1-4883-a145-42d81453ab52","ios":"levelo://app?vid=d67e2717-71e1-4883-a145-42d81453ab52"},"vehicle_type_id":"4","last_reported":1703257625,"current_range_meters":24400,"station_id":"ce4bhi12rcd13ifvqfo0","pricing_plan_id":"free"},{"bike_id":"67c95ba1-3b1b-4724-b685-672be7a82fce","system_id":"levelo_inurba_marseille","lat":43.317121,"lon":5.423936,"is_reserved":false,"is_disabled":false,"rental_uris":{"android":"levelo://app?vid=67c95ba1-3b1b-4724-b685-672be7a82fce","ios":"levelo://app?vid=67c95ba1-3b1b-4724-b685-672be7a82fce"},"vehicle_type_id":"4","last_reported":1703257625,"current_range_meters":21200,"station_id":"ce4bhp92rcd13ifvqhbg","pricing_plan_id":"free"},{"bike_id":"8523bfed-765a-415f-8d2b-b67693c37acb","system_id":"levelo_inurba_marseille","lat":43.340804,"lon":5.410219,"is_reserved":false,"is_disabled":false,"rental_uris":{"android":"levelo://app?vid=8523bfed-765a-415f-8d2b-b67693c37acb","ios":"levelo://app?vid=8523bfed-765a-415f-8d2b-b67693c37acb"},"vehicle_type_id":"4","last_reported":1703257625,"current_range_meters":22000,"station_id":"ce4bhqh2rcd13ifvqhlg","pricing_plan_id":"free"},{"bike_id":"b7c5dcdd-eb29-4c4c-a14a-03283d1eb28d","system_id":"levelo_inurba_marseille","lat":43.274099,"lon":5.394019,"is_reserved":false,"is_disabled":false,"rental_uris":{"android":"levelo://app?vid=b7c5dcdd-eb29-4c4c-a14a-03283d1eb28d","ios":"levelo://app?vid=b7c5dcdd-eb29-4c4c-a14a-03283d1eb28d"},"vehicle_type_id":"4","last_reported":1703257625,"current_range_meters":27200,"station_id":"ce4bhdp2rcd13ifvqf20","pricing_plan_id":"free"},{"bike_id":"49b2c56f-28db-4239-97ee-3137656c75e8","system_id":"levelo_inurba_marseille","lat":43.274103,"lon":5.394016,"is_reserved":false,"is_disabled":false,"rental_uris":{"android":"levelo://app?vid=49b2c56f-28db-4239-97ee-3137656c75e8","ios":"levelo://app?vid=49b2c56f-28db-4239-97ee-3137656c75e8"},"vehicle_type_id":"4","last_reported":1703257625,"current_range_meters":28400,"station_id":"ce4bhdp2rcd13ifvqf20","pricing_plan_id":"free"},{"bike_id":"96939607-2741-4089-ba93-703e03251f9d","system_id":"levelo_inurba_marseille","lat":43.274099,"lon":5.394019,"is_reserved":false,"is_disabled":false,"rental_uris":{"android":"levelo://app?vid=96939607-2741-4089-ba93-703e03251f9d","ios":"levelo://app?vid=96939607-2741-4089-ba93-703e03251f9d"},"vehicle_type_id":"4","last_reported":1703257625,"current_range_meters":28000,"station_id":"ce4bhdp2rcd13ifvqf20","pricing_plan_id":"free"},{"bike_id":"f0aa17d3-3759-46de-b875-31baa7545259","system_id":"levelo_inurba_marseille","lat":43.304096,"lon":5.425385,"is_reserved":false,"is_disabled":false,"rental_uris":{"android":"levelo://app?vid=f0aa17d3-3759-46de-b875-31baa7545259","ios":"levelo://app?vid=f0aa17d3-3759-46de-b875-31baa7545259"},"vehicle_type_id":"4","last_reported":1703257625,"current_range_meters":17600,"station_id":"ce4bhoh2rcd13ifvqh6g","pricing_plan_id":"free"},{"bike_id":"0679e124-8f13-4ff3-8021-6ec155105c17","system_id":"levelo_inurba_marseille","lat":43.304096,"lon":5.425385,"is_reserved":false,"is_disabled":false,"rental_uris":{"android":"levelo://app?vid=0679e124-8f13-4ff3-8021-6ec155105c17","ios":"levelo://app?vid=0679e124-8f13-4ff3-8021-6ec155105c17"},"vehicle_type_id":"4","last_reported":1703257625,"current_range_meters":8800,"station_id":"ce4bhoh2rcd13ifvqh6g","pricing_plan_id":"free"},{"bike_id":"a80c78b0-54bd-4c06-a456-7ff9cb5fb92c","system_id":"levelo_inurba_marseille","lat":43.295523,"lon":5.422926,"is_reserved":false,"is_disabled":false,"rental_uris":{"android":"levelo://app?vid=a80c78b0-54bd-4c06-a456-7ff9cb5fb92c","ios":"levelo://app?vid=a80c78b0-54bd-4c06-a456-7ff9cb5fb92c"},"vehicle_type_id":"4","last_reported":1703257625,"current_range_meters":30000,"station_id":"ce4bhph2rcd13ifvqhdg","pricing_plan_id":"free"},{"bike_id":"23d13786-8601-4dce-a424-5d4a35dea444","system_id":"levelo_inurba_marseille","lat":43.295511,"lon":5.422926,"is_reserved":false,"is_disabled":false,"rental_uris":{"android":"levelo://app?vid=23d13786-8601-4dce-a424-5d4a35dea444","ios":"levelo://app?vid=23d13786-8601-4dce-a424-5d4a35dea444"},"vehicle_type_id":"4","last_reported":1703257625,"current_range_meters":14400,"station_id":"ce4bhph2rcd13ifvqhdg","pricing_plan_id":"free"},{"bike_id":"b55db1a0-b820-479b-9929-7610c21584c5","system_id":"levelo_inurba_marseille","lat":43.295511,"lon":5.422926,"is_reserved":false,"is_disabled":false,"rental_uris":{"android":"levelo://app?vid=b55db1a0-b820-479b-9929-7610c21584c5","ios":"levelo://app?vid=b55db1a0-b820-479b-9929-7610c21584c5"},"vehicle_type_id":"4","last_reported":1703257625,"current_range_meters":25200,"station_id":"ce4bhph2rcd13ifvqhdg","pricing_plan_id":"free"},{"bike_id":"e3feb6fc-46c4-4b30-bc55-cce1a4544aa9","system_id":"levelo_inurba_marseille","lat":43.272116,"lon":5.391747,"is_reserved":false,"is_disabled":false,"rental_uris":{"android":"levelo://app?vid=e3feb6fc-46c4-4b30-bc55-cce1a4544aa9","ios":"levelo://app?vid=e3feb6fc-46c4-4b30-bc55-cce1a4544aa9"},"vehicle_type_id":"4","last_reported":1703257625,"current_range_meters":30800,"station_id":"ce4bhhp2rcd13ifvqfm0","pricing_plan_id":"free"},{"bike_id":"6ecc20b4-7ae8-4181-9570-559cc96c729d","system_id":"levelo_inurba_marseille","lat":43.272124,"lon":5.391768,"is_reserved":false,"is_disabled":false,"rental_uris":{"android":"levelo://app?vid=6ecc20b4-7ae8-4181-9570-559cc96c729d","ios":"levelo://app?vid=6ecc20b4-7ae8-4181-9570-559cc96c729d"},"vehicle_type_id":"4","last_reported":1703257625,"current_range_meters":23200,"station_id":"ce4bhhp2rcd13ifvqfm0","pricing_plan_id":"free"},{"bike_id":"e78f1933-dd54-4222-ac70-ba822194c8b0","system_id":"levelo_inurba_marseille","lat":43.272124,"lon":5.391768,"is_reserved":false,"is_disabled":false,"rental_uris":{"android":"levelo://app?vid=e78f1933-dd54-4222-ac70-ba822194c8b0","ios":"levelo://app?vid=e78f1933-dd54-4222-ac70-ba822194c8b0"},"vehicle_type_id":"4","last_reported":1703257625,"current_range_meters":23600,"station_id":"ce4bhhp2rcd13ifvqfm0","pricing_plan_id":"free"},{"bike_id":"cf343e7c-4ee6-4e3e-a7da-2fb4f71dbea2","system_id":"levelo_inurba_marseille","lat":43.272116,"lon":5.391763,"is_reserved":false,"is_disabled":false,"rental_uris":{"android":"levelo://app?vid=cf343e7c-4ee6-4e3e-a7da-2fb4f71dbea2","ios":"levelo://app?vid=cf343e7c-4ee6-4e3e-a7da-2fb4f71dbea2"},"vehicle_type_id":"4","last_reported":1703257625,"current_range_meters":6000,"station_id":"ce4bhhp2rcd13ifvqfm0","pricing_plan_id":"free"},{"bike_id":"af92a4a4-5910-484d-97f1-395f6f18102a","system_id":"levelo_inurba_marseille","lat":43.272116,"lon":5.391747,"is_reserved":false,"is_disabled":false,"rental_uris":{"android":"levelo://app?vid=af92a4a4-5910-484d-97f1-395f6f18102a","ios":"levelo://app?vid=af92a4a4-5910-484d-97f1-395f6f18102a"},"vehicle_type_id":"4","last_reported":1703257625,"current_range_meters":27200,"station_id":"ce4bhhp2rcd13ifvqfm0","pricing_plan_id":"free"},{"bike_id":"da550f19-96da-4374-b557-fe8a3e10ae79","system_id":"levelo_inurba_marseille","lat":43.272118,"lon":5.391758,"is_reserved":false,"is_disabled":false,"rental_uris":{"android":"levelo://app?vid=da550f19-96da-4374-b557-fe8a3e10ae79","ios":"levelo://app?vid=da550f19-96da-4374-b557-fe8a3e10ae79"},"vehicle_type_id":"4","last_reported":1703257625,"current_range_meters":15600,"station_id":"ce4bhhp2rcd13ifvqfm0","pricing_plan_id":"free"},{"bike_id":"2385a3dc-ecc5-4c8e-b554-c8e4b25ef268","system_id":"levelo_inurba_marseille","lat":43.278128,"lon":5.407195,"is_reserved":false,"is_disabled":false,"rental_uris":{"android":"levelo://app?vid=2385a3dc-ecc5-4c8e-b554-c8e4b25ef268","ios":"levelo://app?vid=2385a3dc-ecc5-4c8e-b554-c8e4b25ef268"},"vehicle_type_id":"4","last_reported":1703257625,"current_range_meters":21600,"station_id":"ce4bhnh2rcd13ifvqgtg","pricing_plan_id":"free"},{"bike_id":"4674cb2b-e76b-45c3-8a69-f3576f7bea06","system_id":"levelo_inurba_marseille","lat":43.269467,"lon":5.386439,"is_reserved":false,"is_disabled":false,"rental_uris":{"android":"levelo://app?vid=4674cb2b-e76b-45c3-8a69-f3576f7bea06","ios":"levelo://app?vid=4674cb2b-e76b-45c3-8a69-f3576f7bea06"},"vehicle_type_id":"4","last_reported":1703257625,"current_range_meters":0,"station_id":"ce4bhh92rcd13ifvqfh0","pricing_plan_id":"free"},{"bike_id":"c4e644ca-69b4-410a-8a4b-b6e9451611fe","system_id":"levelo_inurba_marseille","lat":43.279549,"lon":5.41053,"is_reserved":false,"is_disabled":false,"rental_uris":{"android":"levelo://app?vid=c4e644ca-69b4-410a-8a4b-b6e9451611fe","ios":"levelo://app?vid=c4e644ca-69b4-410a-8a4b-b6e9451611fe"},"vehicle_type_id":"4","last_reported":1703257625,"current_range_meters":0,"station_id":"","pricing_plan_id":"free"},{"bike_id":"fd139b14-01b8-4cae-a96a-2d1b18d235fd","system_id":"levelo_inurba_marseille","lat":43.269319,"lon":5.389397,"is_reserved":false,"is_disabled":false,"rental_uris":{"android":"levelo://app?vid=fd139b14-01b8-4cae-a96a-2d1b18d235fd","ios":"levelo://app?vid=fd139b14-01b8-4cae-a96a-2d1b18d235fd"},"vehicle_type_id":"4","last_reported":1703257625,"current_range_meters":29200,"station_id":"ce4bhhh2rcd13ifvqfl0","pricing_plan_id":"free"},{"bike_id":"b9d9f0e2-6615-4c59-b7b4-9031b88d49df","system_id":"levelo_inurba_marseille","lat":43.265714,"lon":5.372891,"is_reserved":false,"is_disabled":false,"rental_uris":{"android":"levelo://app?vid=b9d9f0e2-6615-4c59-b7b4-9031b88d49df","ios":"levelo://app?vid=b9d9f0e2-6615-4c59-b7b4-9031b88d49df"},"vehicle_type_id":"4","last_reported":1703257625,"current_range_meters":16400,"station_id":"ce4bhg12rcd13ifvqf70","pricing_plan_id":"free"},{"bike_id":"b6abe70c-c21e-43d3-b6e8-83a73556c243","system_id":"levelo_inurba_marseille","lat":43.265714,"lon":5.372891,"is_reserved":false,"is_disabled":false,"rental_uris":{"android":"levelo://app?vid=b6abe70c-c21e-43d3-b6e8-83a73556c243","ios":"levelo://app?vid=b6abe70c-c21e-43d3-b6e8-83a73556c243"},"vehicle_type_id":"4","last_reported":1703257625,"current_range_meters":2800,"station_id":"ce4bhg12rcd13ifvqf70","pricing_plan_id":"free"},{"bike_id":"e4cc487c-5f70-435a-b1e4-b31dd80b2c7d","system_id":"levelo_inurba_marseille","lat":43.265714,"lon":5.372891,"is_reserved":false,"is_disabled":false,"rental_uris":{"android":"levelo://app?vid=e4cc487c-5f70-435a-b1e4-b31dd80b2c7d","ios":"levelo://app?vid=e4cc487c-5f70-435a-b1e4-b31dd80b2c7d"},"vehicle_type_id":"4","last_reported":1703257625,"current_range_meters":10000,"station_id":"ce4bhg12rcd13ifvqf70","pricing_plan_id":"free"},{"bike_id":"99d21517-6b11-4db2-bf9a-44623bd74e83","system_id":"levelo_inurba_marseille","lat":43.267966,"lon":5.393976,"is_reserved":false,"is_disabled":false,"rental_uris":{"android":"levelo://app?vid=99d21517-6b11-4db2-bf9a-44623bd74e83","ios":"levelo://app?vid=99d21517-6b11-4db2-bf9a-44623bd74e83"},"vehicle_type_id":"4","last_reported":1703257625,"current_range_meters":4000,"station_id":"ce4bhh12rcd13ifvqfg0","pricing_plan_id":"free"},{"bike_id":"cc802243-a20b-456b-a6a1-26f5f2a14c95","system_id":"levelo_inurba_marseille","lat":43.267966,"lon":5.393976,"is_reserved":false,"is_disabled":false,"rental_uris":{"android":"levelo://app?vid=cc802243-a20b-456b-a6a1-26f5f2a14c95","ios":"levelo://app?vid=cc802243-a20b-456b-a6a1-26f5f2a14c95"},"vehicle_type_id":"4","last_reported":1703257625,"current_range_meters":26800,"station_id":"ce4bhh12rcd13ifvqfg0","pricing_plan_id":"free"},{"bike_id":"537da8aa-4283-4231-b3e9-b7cf64e8c8c3","system_id":"levelo_inurba_marseille","lat":43.26949,"lon":5.40262,"is_reserved":false,"is_disabled":false,"rental_uris":{"android":"levelo://app?vid=537da8aa-4283-4231-b3e9-b7cf64e8c8c3","ios":"levelo://app?vid=537da8aa-4283-4231-b3e9-b7cf64e8c8c3"},"vehicle_type_id":"4","last_reported":1703257625,"current_range_meters":28400,"station_id":"cjm6bp8fraef2m0cb0m0","pricing_plan_id":"free"},{"bike_id":"a3c02eaa-cec6-4598-aeb1-bcc645c67d40","system_id":"levelo_inurba_marseille","lat":43.26949,"lon":5.40262,"is_reserved":false,"is_disabled":false,"rental_uris":{"android":"levelo://app?vid=a3c02eaa-cec6-4598-aeb1-bcc645c67d40","ios":"levelo://app?vid=a3c02eaa-cec6-4598-aeb1-bcc645c67d40"},"vehicle_type_id":"4","last_reported":1703257625,"current_range_meters":6800,"station_id":"cjm6bp8fraef2m0cb0m0","pricing_plan_id":"free"},{"bike_id":"9fbee070-8fa4-43b0-845a-ea046d3fdc74","system_id":"levelo_inurba_marseille","lat":43.26949,"lon":5.40262,"is_reserved":false,"is_disabled":false,"rental_uris":{"android":"levelo://app?vid=9fbee070-8fa4-43b0-845a-ea046d3fdc74","ios":"levelo://app?vid=9fbee070-8fa4-43b0-845a-ea046d3fdc74"},"vehicle_type_id":"4","last_reported":1703257625,"current_range_meters":24400,"station_id":"cjm6bp8fraef2m0cb0m0","pricing_plan_id":"free"},{"bike_id":"bbb76338-21d0-4e05-a1a3-b4f1dffb0aff","system_id":"levelo_inurba_marseille","lat":43.261782,"lon":5.374515,"is_reserved":false,"is_disabled":false,"rental_uris":{"android":"levelo://app?vid=bbb76338-21d0-4e05-a1a3-b4f1dffb0aff","ios":"levelo://app?vid=bbb76338-21d0-4e05-a1a3-b4f1dffb0aff"},"vehicle_type_id":"4","last_reported":1703257625,"current_range_meters":5600,"station_id":"ce4bhgp2rcd13ifvqfc0","pricing_plan_id":"free"},{"bike_id":"af855eb1-025b-44d3-9e9c-bb854613b686","system_id":"levelo_inurba_marseille","lat":43.31711,"lon":5.43705,"is_reserved":false,"is_disabled":false,"rental_uris":{"android":"levelo://app?vid=af855eb1-025b-44d3-9e9c-bb854613b686","ios":"levelo://app?vid=af855eb1-025b-44d3-9e9c-bb854613b686"},"vehicle_type_id":"4","last_reported":1703257625,"current_range_meters":6000,"station_id":"ce4bhp92rcd13ifvqhcg","pricing_plan_id":"free"},{"bike_id":"a8025d0c-bf1e-4296-a49d-f7c5b2532d40","system_id":"levelo_inurba_marseille","lat":43.31711,"lon":5.43709,"is_reserved":false,"is_disabled":false,"rental_uris":{"android":"levelo://app?vid=a8025d0c-bf1e-4296-a49d-f7c5b2532d40","ios":"levelo://app?vid=a8025d0c-bf1e-4296-a49d-f7c5b2532d40"},"vehicle_type_id":"4","last_reported":1703257625,"current_range_meters":5200,"station_id":"ce4bhp92rcd13ifvqhcg","pricing_plan_id":"free"},{"bike_id":"b246f66b-b76c-487f-99c5-c4c182d80789","system_id":"levelo_inurba_marseille","lat":43.31711,"lon":5.43711,"is_reserved":false,"is_disabled":false,"rental_uris":{"android":"levelo://app?vid=b246f66b-b76c-487f-99c5-c4c182d80789","ios":"levelo://app?vid=b246f66b-b76c-487f-99c5-c4c182d80789"},"vehicle_type_id":"4","last_reported":1703257625,"current_range_meters":4800,"station_id":"ce4bhp92rcd13ifvqhcg","pricing_plan_id":"free"},{"bike_id":"c57dc29c-1fcb-41a7-8dcf-e29f110c214b","system_id":"levelo_inurba_marseille","lat":43.271368,"lon":5.40928,"is_reserved":false,"is_disabled":false,"rental_uris":{"android":"levelo://app?vid=c57dc29c-1fcb-41a7-8dcf-e29f110c214b","ios":"levelo://app?vid=c57dc29c-1fcb-41a7-8dcf-e29f110c214b"},"vehicle_type_id":"4","last_reported":1703257625,"current_range_meters":20000,"station_id":"ce4bhl12rcd13ifvqgf0","pricing_plan_id":"free"},{"bike_id":"b7e86590-6943-446f-810a-e197ff4cad80","system_id":"levelo_inurba_marseille","lat":43.271388,"lon":5.409269,"is_reserved":false,"is_disabled":false,"rental_uris":{"android":"levelo://app?vid=b7e86590-6943-446f-810a-e197ff4cad80","ios":"levelo://app?vid=b7e86590-6943-446f-810a-e197ff4cad80"},"vehicle_type_id":"4","last_reported":1703257625,"current_range_meters":30000,"station_id":"ce4bhl12rcd13ifvqgf0","pricing_plan_id":"free"},{"bike_id":"377183b2-c5ea-43b6-8144-b7dae8c02ad3","system_id":"levelo_inurba_marseille","lat":43.267959,"lon":5.402687,"is_reserved":false,"is_disabled":false,"rental_uris":{"android":"levelo://app?vid=377183b2-c5ea-43b6-8144-b7dae8c02ad3","ios":"levelo://app?vid=377183b2-c5ea-43b6-8144-b7dae8c02ad3"},"vehicle_type_id":"4","last_reported":1703257625,"current_range_meters":25200,"station_id":"ce501612rcd8frsf0b60","pricing_plan_id":"free"},{"bike_id":"ed515ca5-d8bf-4ab8-896b-6c9ca2b46c7c","system_id":"levelo_inurba_marseille","lat":43.2651,"lon":5.39469,"is_reserved":false,"is_disabled":false,"rental_uris":{"android":"levelo://app?vid=ed515ca5-d8bf-4ab8-896b-6c9ca2b46c7c","ios":"levelo://app?vid=ed515ca5-d8bf-4ab8-896b-6c9ca2b46c7c"},"vehicle_type_id":"4","last_reported":1703257625,"current_range_meters":0,"station_id":"ce4bhi12rcd13ifvqfq0","pricing_plan_id":"free"},{"bike_id":"4f05a32a-24b5-4c8c-aad2-b6ab1f3462e0","system_id":"levelo_inurba_marseille","lat":43.260219,"lon":5.37546,"is_reserved":false,"is_disabled":false,"rental_uris":{"android":"levelo://app?vid=4f05a32a-24b5-4c8c-aad2-b6ab1f3462e0","ios":"levelo://app?vid=4f05a32a-24b5-4c8c-aad2-b6ab1f3462e0"},"vehicle_type_id":"4","last_reported":1703257625,"current_range_meters":3200,"station_id":"ce4bhgh2rcd13ifvqfa0","pricing_plan_id":"free"},{"bike_id":"487e06aa-6766-4d05-a28b-05b21604896c","system_id":"levelo_inurba_marseille","lat":43.281548,"lon":5.42643,"is_reserved":false,"is_disabled":false,"rental_uris":{"android":"levelo://app?vid=487e06aa-6766-4d05-a28b-05b21604896c","ios":"levelo://app?vid=487e06aa-6766-4d05-a28b-05b21604896c"},"vehicle_type_id":"4","last_reported":1703257625,"current_range_meters":31200,"station_id":"ce4bhnh2rcd13ifvqgug","pricing_plan_id":"free"},