{"last_updated":1679854076,"ttl":30,"version":"2.2","data":{"bikes":[{"bike_id":"70415a98-166d-46bd-a086-fc7e0a1e51ac","system_id":"levelo_inurba_marseille","lat":43.312239,"lon":5.368562,"is_reserved":false,"is_disabled":false,"rental_uris":{"android":"levelo://app?vid=70415a98-166d-46bd-a086-fc7e0a1e51ac","ios":"levelo://app?vid=70415a98-166d-46bd-a086-fc7e0a1e51ac"},"vehicle_type_id":"4","last_reported":1679854077,"current_range_meters":1600,"station_id":"ce4bgl92rcd13ifvqbq0","pricing_plan_id":"free"},{"bike_id":"31b57a3c-efb0-4040-9249-8a9a591d4cea","system_id":"levelo_inurba_marseille","lat":43.309076,"lon":5.368465,"is_reserved":false,"is_disabled":false,"rental_uris":{"android":"levelo://app?vid=31b57a3c-efb0-4040-9249-8a9a591d4cea","ios":"levelo://app?vid=31b57a3c-efb0-4040-9249-8a9a591d4cea"},"vehicle_type_id":"4","last_reported":1679854077,"current_range_meters":0,"station_id":"ce4bgn92rcd13ifvqbvg","pricing_plan_id":"free"},{"bike_id":"7bd61c91-5fd2-47c4-9638-49026a74c54f","system_id":"levelo_inurba_marseille","lat":43.314811,"lon":5.373103,"is_reserved":false,"is_disabled":false,"rental_uris":{"android":"levelo://app?vid=7bd61c91-5fd2-47c4-9638-49026a74c54f","ios":"levelo://app?vid=7bd61c91-5fd2-47c4-9638-49026a74c54f"},"vehicle_type_id":"4","last_reported":1679854077,"current_range_meters":8800,"station_id":"ce4bgt12rcd13ifvqcd0","pricing_plan_id":"free"},{"bike_id":"31cd075f-6bc6-4115-8856-a2efe7b61259","system_id":"levelo_inurba_marseille","lat":43.314811,"lon":5.373103,"is_reserved":false,"is_disabled":false,"rental_uris":{"android":"levelo://app?vid=31cd075f-6bc6-4115-8856-a2efe7b61259","ios":"levelo://app?vid=31cd075f-6bc6-4115-8856-a2efe7b61259"},"vehicle_type_id":"4","last_reported":1679854077,"current_range_meters":800,"station_id":"ce4bgt12rcd13ifvqcd0","pricing_plan_id":"free"},{"bike_id":"9e546ed4-49e3-46eb-b822-34a7ffaa0de8","system_id":"levelo_inurba_marseille","lat":43.314811,"lon":5.373103,"is_reserved":false,"is_disabled":false,"rental_uris":{"android":"levelo://app?vid=9e546ed4-49e3-46eb-b822-34a7ffaa0de8","ios":"levelo://app?vid=9e546ed4-49e3-46eb-b822-34a7ffaa0de8"},"vehicle_type_id":"4","last_reported":1679854077,"current_range_meters":4000,"station_id":"ce4bgt12rcd13ifvqcd0","pricing_plan_id":"free"},{"bike_id":"a495d101-811b-44d5-acc8-83c3cf329924","system_id":"levelo_inurba_marseille","lat":43.305989,"lon":5.37225,"is_reserved":false,"is_disabled":false,"rental_uris":{"android":"levelo://app?vid=a495d101-811b-44d5-acc8-83c3cf329924","ios":"levelo://app?vid=a495d101-811b-44d5-acc8-83c3cf329924"},"vehicle_type_id":"4","last_reported":1679854077,"current_range_meters":4000,"station_id":"ce4bgqh2rcd13ifvqc4g","pricing_plan_id":"free"},{"bike_id":"503929a4-d7ab-4b12-b8e1-2391cfb8961f","system_id":"levelo_inurba_marseille","lat":43.305989,"lon":5.37225,"is_reserved":false,"is_disabled":false,"rental_uris":{"android":"levelo://app?vid=503929a4-d7ab-4b12-b8e1-2391cfb8961f","ios":"levelo://app?vid=503929a4-d7ab-4b12-b8e1-2391cfb8961f"},"vehicle_type_id":"4","last_reported":1679854077,"current_range_meters":21200,"station_id":"ce4bgqh2rcd13ifvqc4g","pricing_plan_id":"free"},{"bike_id":"dab73efc-11a3-4f40-8876-b383da13a626","system_id":"levelo_inurba_marseille","lat":43.317075,"lon":5.377367,"is_reserved":false,"is_disabled":false,"rental_uris":{"android":"levelo://app?vid=dab73efc-11a3-4f40-8876-b383da13a626","ios":"levelo://app?vid=dab73efc-11a3-4f40-8876-b383da13a626"},"vehicle_type_id":"4","last_reported":1679854077,"current_range_meters":10800,"station_id":"ce4bgth2rcd13ifvqch0","pricing_plan_id":"free"},{"bike_id":"844888e4-1ef6-452e-8095-454777f41d61","system_id":"levelo_inurba_marseille","lat":43.315762,"lon":5.378661,"is_reserved":false,"is_disabled":false,"rental_uris":{"android":"levelo://app?vid=844888e4-1ef6-452e-8095-454777f41d61","ios":"levelo://app?vid=844888e4-1ef6-452e-8095-454777f41d61"},"vehicle_type_id":"4","last_reported":1679854077,"current_range_meters":4800,"station_id":"","pricing_plan_id":"free"},{"bike_id":"4d499669-739c-49c7-a2bf-cf5391c2b374","system_id":"levelo_inurba_marseille","lat":43.30579,"lon":5.37631,"is_reserved":false,"is_disabled":false,"rental_uris":{"android":"levelo://app?vid=4d499669-739c-49c7-a2bf-cf5391c2b374","ios":"levelo://app?vid=4d499669-739c-49c7-a2bf-cf5391c2b374"},"vehicle_type_id":"4","last_reported":1679854077,"current_range_meters":10400,"station_id":"","pricing_plan_id":"free"},{"bike_id":"456a45c9-cc9d-4696-8cfa-7e27a005cca2","system_id":"levelo_inurba_marseille","lat":43.30806,"lon":5.38147,"is_reserved":false,"is_disabled":false,"rental_uris":{"android":"levelo://app?vid=456a45c9-cc9d-4696-8cfa-7e27a005cca2","ios":"levelo://app?vid=456a45c9-cc9d-4696-8cfa-7e27a005cca2"},"vehicle_type_id":"4","last_reported":1679854077,"current_range_meters":0,"station_id":"ce4bgt12rcd13ifvqce0","pricing_plan_id":"free"},{"bike_id":"db3c8a58-c66c-42bf-846d-78672da18a6c","system_id":"levelo_inurba_marseille","lat":43.30808,"lon":5.3815,"is_reserved":false,"is_disabled":false,"rental_uris":{"android":"levelo://app?vid=db3c8a58-c66c-42bf-846d-78672da18a6c","ios":"levelo://app?vid=db3c8a58-c66c-42bf-846d-78672da18a6c"},"vehicle_type_id":"4","last_reported":1679854077,"current_range_meters":0,"station_id":"","pricing_plan_id":"free"},{"bike_id":"3ba873c1-78f9-4c45-9f2d-f9c79065082f","system_id":"levelo_inurba_marseille","lat":43.308038,"lon":5.381579,"is_reserved":false,"is_disabled":false,"rental_uris":{"android":"levelo://app?vid=3ba873c1-78f9-4c45-9f2d-f9c79065082f","ios":"levelo://app?vid=3ba873c1-78f9-4c45-9f2d-f9c79065082f"},"vehicle_type_id":"4","last_reported":1679854077,"current_range_meters":0,"station_id":"","pricing_plan_id":"free"},{"bike_id":"1eb6e83c-4309-41b4-a999-9b399d620fb5","system_id":"levelo_inurba_marseille","lat":43.30143,"lon":5.37413,"is_reserved":false,"is_disabled":false,"rental_uris":{"android":"levelo://app?vid=1eb6e83c-4309-41b4-a999-9b399d620fb5","ios":"levelo://app?vid=1eb6e83c-4309-41b4-a999-9b399d620fb5"},"vehicle_type_id":"4","last_reported":1679854077,"current_range_meters":0,"station_id":"ce4bgs92rcd13ifvqcc0","pricing_plan_id":"free"},{"bike_id":"9b2896ba-ccb8-4ab9-aedf-40a10c7254ce","system_id":"levelo_inurba_marseille","lat":43.313571,"lon":5.384829,"is_reserved":false,"is_disabled":false,"rental_uris":{"android":"levelo://app?vid=9b2896ba-ccb8-4ab9-aedf-40a10c7254ce","ios":"levelo://app?vid=9b2896ba-ccb8-4ab9-aedf-40a10c7254ce"},"vehicle_type_id":"4","last_reported":1679854077,"current_range_meters":800,"station_id":"ce4bgt92rcd13ifvqcf0","pricing_plan_id":"free"},{"bike_id":"2db6865c-9971-4cd9-a671-0292be4bacf4","system_id":"levelo_inurba_marseille","lat":43.313571,"lon":5.384829,"is_reserved":false,"is_disabled":false,"rental_uris":{"android":"levelo://app?vid=2db6865c-9971-4cd9-a671-0292be4bacf4","ios":"levelo://app?vid=2db6865c-9971-4cd9-a671-0292be4bacf4"},"vehicle_type_id":"4","last_reported":1679854077,"current_range_meters":4000,"station_id":"ce4bgt92rcd13ifvqcf0","pricing_plan_id":"free"},{"bike_id":"aea1fdfc-9163-427a-814d-99441ccf3c90","system_id":"levelo_inurba_marseille","lat":43.31366,"lon":5.38493,"is_reserved":false,"is_disabled":false,"rental_uris":{"android":"levelo://app?vid=aea1fdfc-9163-427a-814d-99441ccf3c90","ios":"levelo://app?vid=aea1fdfc-9163-427a-814d-99441ccf3c90"},"vehicle_type_id":"4","last_reported":1679854077,"current_range_meters":0,"station_id":"ce4bgt92rcd13ifvqcf0","pricing_plan_id":"free"},{"bike_id":"8c6dd728-bde1-4677-8987-ce28ba59cd17","system_id":"levelo_inurba_marseille","lat":43.313571,"lon":5.384829,"is_reserved":false,"is_disabled":false,"rental_uris":{"android":"levelo://app?vid=8c6dd728-bde1-4677-8987-ce28ba59cd17","ios":"levelo://app?vid=8c6dd728-bde1-4677-8987-ce28ba59cd17"},"vehicle_type_id":"4","last_reported":1679854077,"current_range_meters":1600,"station_id":"ce4bgt92rcd13ifvqcf0","pricing_plan_id":"free"},{"bike_id":"cbf3c7c4-e1f0-4dfb-bdf7-f361e39e025e","system_id":"levelo_inurba_marseille","lat":43.31917,"lon":5.38441,"is_reserved":false,"is_disabled":false,"rental_uris":{"android":"levelo://app?vid=cbf3c7c4-e1f0-4dfb-bdf7-f361e39e025e","ios":"levelo://app?vid=cbf3c7c4-e1f0-4dfb-bdf7-f361e39e025e"},"vehicle_type_id":"4","last_reported":1679854077,"current_range_meters":0,"station_id":"","pricing_plan_id":"free"},{"bike_id":"81a7c47b-4a64-40f6-bac2-83a5c6793e63","system_id":"levelo_inurba_marseille","lat":43.29848,"lon":5.36265,"is_reserved":false,"is_disabled":false,"rental_uris":{"android":"levelo://app?vid=81a7c47b-4a64-40f6-bac2-83a5c6793e63","ios":"levelo://app?vid=81a7c47b-4a64-40f6-bac2-83a5c6793e63"},"vehicle_type_id":"4","last_reported":1679854077,"current_range_meters":2400,"station_id":"","pricing_plan_id":"free"},{"bike_id":"b3b44fd2-cdb3-450e-bc17-d3dad5697feb","system_id":"levelo_inurba_marseille","lat":43.298433,"lon":5.362774,"is_reserved":false,"is_disabled":false,"rental_uris":{"android":"levelo://app?vid=b3b44fd2-cdb3-450e-bc17-d3dad5697feb","ios":"levelo://app?vid=b3b44fd2-cdb3-450e-bc17-d3dad5697feb"},"vehicle_type_id":"4","last_reported":1679854077,"current_range_meters":0,"station_id":"ce4bgpp2rcd13ifvqc3g","pricing_plan_id":"free"},{"bike_id":"5f2a939d-7df3-427d-91d7-04e8f4c9b8ca","system_id":"levelo_inurba_marseille","lat":43.311722,"lon":5.387247,"is_reserved":false,"is_disabled":false,"rental_uris":{"android":"levelo://app?vid=5f2a939d-7df3-427d-91d7-04e8f4c9b8ca","ios":"levelo://app?vid=5f2a939d-7df3-427d-91d7-04e8f4c9b8ca"},"vehicle_type_id":"4","last_reported":1679854077,"current_range_meters":5600,"station_id":"ce4bgv12rcd13ifvqcp0","pricing_plan_id":"free"},{"bike_id":"d56e3d7e-7d96-473c-9e77-841af62b52c7","system_id":"levelo_inurba_marseille","lat":43.296163,"lon":5.371511,"is_reserved":false,"is_disabled":false,"rental_uris":{"android":"levelo://app?vid=d56e3d7e-7d96-473c-9e77-841af62b52c7","ios":"levelo://app?vid=d56e3d7e-7d96-473c-9e77-841af62b52c7"},"vehicle_type_id":"4","last_reported":1679854077,"current_range_meters":0,"station_id":"ce4bgk12rcd13ifvqbj0","pricing_plan_id":"free"},{"bike_id":"5763ee4f-4df3-4c94-90ea-5cdde2ba16ff","system_id":"levelo_inurba_marseille","lat":43.32256,"lon":5.38694,"is_reserved":false,"is_disabled":false,"rental_uris":{"android":"levelo://app?vid=5763ee4f-4df3-4c94-90ea-5cdde2ba16ff","ios":"levelo://app?vid=5763ee4f-4df3-4c94-90ea-5cdde2ba16ff"},"vehicle_type_id":"4","last_reported":1679854077,"current_range_meters":5200,"station_id":"","pricing_plan_id":"free"},{"bike_id":"5a2547d9-c787-48fd-8ea1-61716c397ddf","system_id":"levelo_inurba_marseille","lat":43.317557,"lon":5.390173,"is_reserved":false,"is_disabled":false,"rental_uris":{"android":"levelo://app?vid=5a2547d9-c787-48fd-8ea1-61716c397ddf","ios":"levelo://app?vid=5a2547d9-c787-48fd-8ea1-61716c397ddf"},"vehicle_type_id":"4","last_reported":1679854077,"current_range_meters":13200,"station_id":"ce4bhqp2rcd13ifvqhng","pricing_plan_id":"free"},{"bike_id":"274b9ad4-b249-49cd-add9-c9b6420c611b","system_id":"levelo_inurba_marseille","lat":43.298037,"lon":5.381066,"is_reserved":false,"is_disabled":false,"rental_uris":{"android":"levelo://app?vid=274b9ad4-b249-49cd-add9-c9b6420c611b","ios":"levelo://app?vid=274b9ad4-b249-49cd-add9-c9b6420c611b"},"vehicle_type_id":"4","last_reported":1679854077,"current_range_meters":0,"station_id":"ce4bgip2rcd13ifvqbb0","pricing_plan_id":"free"},{"bike_id":"b468bb00-0c6b-489e-b6e1-ad60c487ca93","system_id":"levelo_inurba_marseille","lat":43.298037,"lon":5.381066,"is_reserved":false,"is_disabled":false,"rental_uris":{"android":"levelo://app?vid=b468bb00-0c6b-489e-b6e1-ad60c487ca93","ios":"levelo://app?vid=b468bb00-0c6b-489e-b6e1-ad60c487ca93"},"vehicle_type_id":"4","last_reported":1679854077,"current_range_meters":28000,"station_id":"ce4bgip2rcd13ifvqbb0","pricing_plan_id":"free"},{"bike_id":"22bd96c0-ff9a-4dd8-96de-d86d3758d4d9","system_id":"levelo_inurba_marseille","lat":43.2966,"lon":5.37815,"is_reserved":false,"is_disabled":false,"rental_uris":{"android":"levelo://app?vid=22bd96c0-ff9a-4dd8-96de-d86d3758d4d9","ios":"levelo://app?vid=22bd96c0-ff9a-4dd8-96de-d86d3758d4d9"},"vehicle_type_id":"4","last_reported":1679854077,"current_range_meters":0,"station_id":"ce4bgi92rcd13ifvqb90","pricing_plan_id":"free"},{"bike_id":"00ba9ec2-a427-43b9-b113-146eb46d2644","system_id":"levelo_inurba_marseille","lat":43.296277,"lon":5.377108,"is_reserved":false,"is_disabled":false,"rental_uris":{"android":"levelo://app?vid=00ba9ec2-a427-43b9-b113-146eb46d2644","ios":"levelo://app?vid=00ba9ec2-a427-43b9-b113-146eb46d2644"},"vehicle_type_id":"4","last_reported":1679854077,"current_range_meters":800,"station_id":"ce4bgi92rcd13ifvqb90","pricing_plan_id":"free"},{"bike_id":"cec898d1-76b9-4c1f-ad01-65822b1171ab","system_id":"levelo_inurba_marseille","lat":43.296277,"lon":5.377108,"is_reserved":false,"is_disabled":false,"rental_uris":{"android":"levelo://app?vid=cec898d1-76b9-4c1f-ad01-65822b1171ab","ios":"levelo://app?vid=cec898d1-76b9-4c1f-ad01-65822b1171ab"},"vehicle_type_id":"4","last_reported":1679854077,"current_range_meters":0,"station_id":"ce4bgi92rcd13ifvqb90","pricing_plan_id":"free"},{"bike_id":"293b4321-23fc-4a0c-8c3b-b5a9c0060a44","system_id":"levelo_inurba_marseille","lat":43.297941,"lon":5.381746,"is_reserved":false,"is_disabled":false,"rental_uris":{"android":"levelo://app?vid=293b4321-23fc-4a0c-8c3b-b5a9c0060a44","ios":"levelo://app?vid=293b4321-23fc-4a0c-8c3b-b5a9c0060a44"},"vehicle_type_id":"4","last_reported":1679854077,"current_range_meters":0,"station_id":"","pricing_plan_id":"free"},{"bike_id":"a927e410-861d-42d1-8ea8-f6e51fe081cc","system_id":"levelo_inurba_marseille","lat":43.298194,"lon":5.382251,"is_reserved":false,"is_disabled":false,"rental_uris":{"android":"levelo://app?vid=a927e410-861d-42d1-8ea8-f6e51fe081cc","ios":"levelo://app?vid=a927e410-861d-42d1-8ea8-f6e51fe081cc"},"vehicle_type_id":"4","last_reported":1679854077,"current_range_meters":0,"station_id":"","pricing_plan_id":"free"},{"bike_id":"40fad0f7-2d59-4a82-80e0-676c1a2b14eb","system_id":"levelo_inurba_marseille","lat":43.295279,"lon":5.375048,"is_reserved":false,"is_disabled":false,"rental_uris":{"android":"levelo://app?vid=40fad0f7-2d59-4a82-80e0-676c1a2b14eb","ios":"levelo://app?vid=40fad0f7-2d59-4a82-80e0-676c1a2b14eb"},"vehicle_type_id":"4","last_reported":1679854077,"current_range_meters":0,"station_id":"ce4bgkp2rcd13ifvqbmg","pricing_plan_id":"free"},{"bike_id":"9eb56ef8-6570-492f-aac5-e914b6036059","system_id":"levelo_inurba_marseille","lat":43.32367,"lon":5.388836,"is_reserved":false,"is_disabled":false,"rental_uris":{"android":"levelo://app?vid=9eb56ef8-6570-492f-aac5-e914b6036059","ios":"levelo://app?vid=9eb56ef8-6570-492f-aac5-e914b6036059"},"vehicle_type_id":"4","last_reported":1679854077,"current_range_meters":10800,"station_id":"ce4bhqp2rcd13ifvqhog","pricing_plan_id":"free"},{"bike_id":"a1540e75-d1a1-47cc-9ddb-476b5b42b3b3","system_id":"levelo_inurba_marseille","lat":43.32367,"lon":5.388836,"is_reserved":false,"is_disabled":false,"rental_uris":{"android":"levelo://app?vid=a1540e75-d1a1-47cc-9ddb-476b5b42b3b3","ios":"levelo://app?vid=a1540e75-d1a1-47cc-9ddb-476b5b42b3b3"},"vehicle_type_id":"4","last_reported":1679854077,"current_range_meters":6400,"station_id":"ce4bhqp2rcd13ifvqhog","pricing_plan_id":"free"},{"bike_id":"2acfb387-6865-450a-8e22-98424f0d6c5d","system_id":"levelo_inurba_marseille","lat":43.32367,"lon":5.388836,"is_reserved":false,"is_disabled":false,"rental_uris":{"android":"levelo://app?vid=2acfb387-6865-450a-8e22-98424f0d6c5d","ios":"levelo://app?vid=2acfb387-6865-450a-8e22-98424f0d6c5d"},"vehicle_type_id":"4","last_reported":1679854077,"current_range_meters":4400,"station_id":"ce4bhqp2rcd13ifvqhog","pricing_plan_id":"free"},{"bike_id":"dc4387e4-c2ed-4400-875c-ce4cfb4f7d09","system_id":"levelo_inurba_marseille","lat":43.29302,"lon":5.3716,"is_reserved":false,"is_disabled":false,"rental_uris":{"android":"levelo://app?vid=dc4387e4-c2ed-4400-875c-ce4cfb4f7d09","ios":"levelo://app?vid=dc4387e4-c2ed-4400-875c-ce4cfb4f7d09"},"vehicle_type_id":"4","last_reported":1679854077,"current_range_meters":0,"station_id":"ce4bgh92rcd13ifvqb40","pricing_plan_id":"free"},{"bike_id":"6aa36845-519e-42c9-87d2-aec9c8bcebe7","system_id":"levelo_inurba_marseille","lat":43.32401,"lon":5.38966,"is_reserved":false,"is_disabled":false,"rental_uris":{"android":"levelo://app?vid=6aa36845-519e-42c9-87d2-aec9c8bcebe7","ios":"levelo://app?vid=6aa36845-519e-42c9-87d2-aec9c8bcebe7"},"vehicle_type_id":"4","last_reported":1679854077,"current_range_meters":0,"station_id":"","pricing_plan_id":"free"},{"bike_id":"ef9e03ec-15fe-4202-b3e1-011c96215a98","system_id":"levelo_inurba_marseille","lat":43.305994,"lon":5.393687,"is_reserved":false,"is_disabled":false,"rental_uris":{"android":"levelo://app?vid=ef9e03ec-15fe-4202-b3e1-011c96215a98","ios":"levelo://app?vid=ef9e03ec-15fe-4202-b3e1-011c96215a98"},"vehicle_type_id":"4","last_reported":1679854077,"current_range_meters":0,"station_id":"ce4bh0p2rcd13ifvqd80","pricing_plan_id":"free"},{"bike_id":"3d3b9aec-790f-407b-9451-b11013d84e43","system_id":"levelo_inurba_marseille","lat":43.305994,"lon":5.393687,"is_reserved":false,"is_disabled":false,"rental_uris":{"android":"levelo://app?vid=3d3b9aec-790f-407b-9451-b11013d84e43","ios":"levelo://app?vid=3d3b9aec-790f-407b-9451-b11013d84e43"},"vehicle_type_id":"4","last_reported":1679854077,"current_range_meters":0,"station_id":"ce4bh0p2rcd13ifvqd80","pricing_plan_id":"free"},{"bike_id":"fd52841b-b57f-46b9-9e69-417bde337744","system_id":"levelo_inurba_marseille","lat":43.305999,"lon":5.393649,"is_reserved":false,"is_disabled":false,"rental_uris":{"android":"levelo://app?vid=fd52841b-b57f-46b9-9e69-417bde337744","ios":"levelo://app?vid=fd52841b-b57f-46b9-9e69-417bde337744"},"vehicle_type_id":"4","last_reported":1679854077,"current_range_meters":0,"station_id":"ce4bh0p2rcd13ifvqd80","pricing_plan_id":"free"},{"bike_id":"2b853b28-e390-4345-95bb-c132283741fe","system_id":"levelo_inurba_marseille","lat":43.2936,"lon":5.37835,"is_reserved":false,"is_disabled":false,"rental_uris":{"android":"levelo://app?vid=2b853b28-e390-4345-95bb-c132283741fe","ios":"levelo://app?vid=2b853b28-e390-4345-95bb-c132283741fe"},"vehicle_type_id":"4","last_reported":1679854077,"current_range_meters":7600,"station_id":"ce4bgjh2rcd13ifvqbf0","pricing_plan_id":"free"},{"bike_id":"00fe0091-50b1-4fee-83dc-ba74bcd407a6","system_id":"levelo_inurba_marseille","lat":43.29171,"lon":5.37154,"is_reserved":false,"is_disabled":false,"rental_uris":{"android":"levelo://app?vid=00fe0091-50b1-4fee-83dc-ba74bcd407a6","ios":"levelo://app?vid=00fe0091-50b1-4fee-83dc-ba74bcd407a6"},"vehicle_type_id":"4","last_reported":1679854077,"current_range_meters":1200,"station_id":"ce4bha92rcd13ifvqeh0","pricing_plan_id":"free"},{"bike_id":"a35b1690-b999-4862-a432-9b5e5703a48b","system_id":"levelo_inurba_marseille","lat":43.313291,"lon":5.396838,"is_reserved":false,"is_disabled":false,"rental_uris":{"android":"levelo://app?vid=a35b1690-b999-4862-a432-9b5e5703a48b","ios":"levelo://app?vid=a35b1690-b999-4862-a432-9b5e5703a48b"},"vehicle_type_id":"4","last_reported":1679854077,"current_range_meters":9600,"station_id":"ce4bgvp2rcd13ifvqcu0","pricing_plan_id":"free"},{"bike_id":"9e72ca2a-c4ac-4343-bf8d-be0cdb488b7f","system_id":"levelo_inurba_marseille","lat":43.30885,"lon":5.39652,"is_reserved":false,"is_disabled":false,"rental_uris":{"android":"levelo://app?vid=9e72ca2a-c4ac-4343-bf8d-be0cdb488b7f","ios":"levelo://app?vid=9e72ca2a-c4ac-4343-bf8d-be0cdb488b7f"},"vehicle_type_id":"4","last_reported":1679854077,"current_range_meters":2800,"station_id":"ce4bh012rcd13ifvqcv0","pricing_plan_id":"free"},{"bike_id":"c3255c04-ecd1-44fd-92f0-4165c36ff255","system_id":"levelo_inurba_marseille","lat":43.309038,"lon":5.396546,"is_reserved":false,"is_disabled":false,"rental_uris":{"android":"levelo://app?vid=c3255c04-ecd1-44fd-92f0-4165c36ff255","ios":"levelo://app?vid=c3255c04-ecd1-44fd-92f0-4165c36ff255"},"vehicle_type_id":"4","last_reported":1679854077,"current_range_meters":400,"station_id":"ce4bh012rcd13ifvqcv0","pricing_plan_id":"free"},{"bike_id":"3d3345cf-323a-4664-a549-1a6029f09698","system_id":"levelo_inurba_marseille","lat":43.289429,"lon":5.366289,"is_reserved":false,"is_disabled":false,"rental_uris":{"android":"levelo://app?vid=3d3345cf-323a-4664-a549-1a6029f09698","ios":"levelo://app?vid=3d3345cf-323a-4664-a549-1a6029f09698"},"vehicle_type_id":"4","last_reported":1679854077,"current_range_meters":0,"station_id":"","pricing_plan_id":"free"},{"bike_id":"b26321ea-0085-419b-94eb-c33dd2746800","system_id":"levelo_inurba_marseille","lat":43.304274,"lon":5.397513,"is_reserved":false,"is_disabled":false,"rental_uris":{"android":"levelo://app?vid=b26321ea-0085-419b-94eb-c33dd2746800","ios":"levelo://app?vid=b26321ea-0085-419b-94eb-c33dd2746800"},"vehicle_type_id":"4","last_reported":1679854077,"current_range_meters":0,"station_id":"ce4bh092rcd13ifvqd20","pricing_plan_id":"free"},{"bike_id":"c1ddeef4-110d-44fb-bd3d-6b3ad893468a","system_id":"levelo_inurba_marseille","lat":43.33047,"lon":5.38914,"is_reserved":false,"is_disabled":false,"rental_uris":{"android":"levelo://app?vid=c1ddeef4-110d-44fb-bd3d-6b3ad893468a","ios":"levelo://app?vid=c1ddeef4-110d-44fb-bd3d-6b3ad893468a"},"vehicle_type_id":"4","last_reported":1679854077,"current_range_meters":0,"station_id":"ce4bhr92rcd13ifvqhrg","pricing_plan_id":"free"},{"bike_id":"0228adce-4dee-49d9-9924-bd7aab26a025","system_id":"levelo_inurba_marseille","lat":43.33047,"lon":5.389233,"is_reserved":false,"is_disabled":false,"rental_uris":{"android":"levelo://app?vid=0228adce-4dee-49d9-9924-bd7aab26a025","ios":"levelo://app?vid=0228adce-4dee-49d9-9924-bd7aab26a025"},"vehicle_type_id":"4","last_reported":1679854077,"current_range_meters":2800,"station_id":"ce4bhr92rcd13ifvqhrg","pricing_plan_id":"free"},{"bike_id":"e7be1a49-3606-4be6-a41b-54b5d50bddbe","system_id":"levelo_inurba_marseille","lat":43.290995,"lon":5.381361,"is_reserved":false,"is_disabled":false,"rental_uris":{"android":"levelo://app?vid=e7be1a49-3606-4be6-a41b-54b5d50bddbe","ios":"levelo://app?vid=e7be1a49-3606-4be6-a41b-54b5d50bddbe"},"vehicle_type_id":"4","last_reported":1679854077,"current_range_meters":1200,"station_id":"ce4bh512rcd13ifvqe2g","pricing_plan_id":"free"},{"bike_id":"bfe88fc5-745d-4e61-9925-cb8bfae50167","system_id":"levelo_inurba_marseille","lat":43.295169,"lon":5.390426,"is_reserved":false,"is_disabled":false,"rental_uris":{"android":"levelo://app?vid=bfe88fc5-745d-4e61-9925-cb8bfae50167","ios":"levelo://app?vid=bfe88fc5-745d-4e61-9925-cb8bfae50167"},"vehicle_type_id":"4","last_reported":1679854077,"current_range_meters":0,"station_id":"ce4bh3p2rcd13ifvqdp0","pricing_plan_id":"free"},{"bike_id":"8bcf1969-2f46-41bc-8d02-4c83125f9d80","system_id":"levelo_inurba_marseille","lat":43.313571,"lon":5.384829,"is_reserved":false,"is_disabled":false,"rental_uris":{"android":"levelo://app?vid=8bcf1969-2f46-41bc-8d02-4c83125f9d80","ios":"levelo://app?vid=8bcf1969-2f46-41bc-8d02-4c83125f9d80"},"vehicle_type_id":"4","last_reported":1679854077,"current_range_meters":8400,"station_id":"ce4bgt92rcd13ifvqcf0","pricing_plan_id":"free"},{"bike_id":"5dbe79cc-8fb2-4919-b431-be73ab496c56","system_id":"levelo_inurba_marseille","lat":43.337463,"lon":5.37464,"is_reserved":false,"is_disabled":false,"rental_uris":{"android":"levelo://app?vid=5dbe79cc-8fb2-4919-b431-be73ab496c56","ios":"levelo://app?vid=5dbe79cc-8fb2-4919-b431-be73ab496c56"},"vehicle_type_id":"4","last_reported":1679854077,"current_range_meters":28000,"station_id":"","pricing_plan_id":"free"},{"bike_id":"59954bdd-f067-4b37-a94e-6632aa224de6","system_id":"levelo_inurba_marseille","lat":43.30635,"lon":5.40088,"is_reserved":false,"is_disabled":false,"rental_uris":{"android":"levelo://app?vid=59954bdd-f067-4b37-a94e-6632aa224de6","ios":"levelo://app?vid=59954bdd-f067-4b37-a94e-6632aa224de6"},"vehicle_type_id":"4","last_reported":1679854077,"current_range_meters":6800,"station_id":"ce4bh112rcd13ifvqda0","pricing_plan_id":"free"},{"bike_id":"e9b8592e-63b6-4a1e-a9b0-c0df650f5c5d","system_id":"levelo_inurba_marseille","lat":43.298681,"lon":5.397225,"is_reserved":false,"is_disabled":false,"rental_uris":{"android":"levelo://app?vid=e9b8592e-63b6-4a1e-a9b0-c0df650f5c5d","ios":"levelo://app?vid=e9b8592e-63b6-4a1e-a9b0-c0df650f5c5d"},"vehicle_type_id":"4","last_reported":1679854077,"current_range_meters":15200,"station_id":"ce4bh0h2rcd13ifvqd50","pricing_plan_id":"free"},{"bike_id":"68945ec7-8151-430c-bc43-aa93473c08bc","system_id":"levelo_inurba_marseille","lat":43.286593,"lon":5.363346,"is_reserved":false,"is_disabled":false,"rental_uris":{"android":"levelo://app?vid=68945ec7-8151-430c-bc43-aa93473c08bc","ios":"levelo://app?vid=68945ec7-8151-430c-bc43-aa93473c08bc"},"vehicle_type_id":"4","last_reported":1679854077,"current_range_meters":0,"station_id":"ce4bhah2rcd13ifvqej0","pricing_plan_id":"free"},{"bike_id":"8ad6b2d5-7ed8-4392-a5b8-d382de21a7c7","system_id":"levelo_inurba_marseille","lat":43.29538,"lon":5.39399,"is_reserved":false,"is_disabled":false,"rental_uris":{"android":"levelo://app?vid=8ad6b2d5-7ed8-4392-a5b8-d382de21a7c7","ios":"levelo://app?vid=8ad6b2d5-7ed8-4392-a5b8-d382de21a7c7"},"vehicle_type_id":"4","last_reported":1679854077,"current_range_meters":0,"station_id":"ce4bh212rcd13ifvqde0","pricing_plan_id":"free"},{"bike_id":"9b8f20fc-5f7b-4366-96fc-d0be6eb14f0e","system_id":"levelo_inurba_marseille","lat":43.29513,"lon":5.394,"is_reserved":false,"is_disabled":false,"rental_uris":{"android":"levelo://app?vid=9b8f20fc-5f7b-4366-96fc-d0be6eb14f0e","ios":"levelo://app?vid=9b8f20fc-5f7b-4366-96fc-d0be6eb14f0e"},"vehicle_type_id":"4","last_reported":1679854077,"current_range_meters":0,"station_id":"ce4bh212rcd13ifvqde0","pricing_plan_id":"free"},{"bike_id":"cff79122-d0ba-4d28-8122-60870bcc68a5","system_id":"levelo_inurba_marseille","lat":43.302759,"lon":5.400793,"is_reserved":false,"is_disabled":false,"rental_uris":{"android":"levelo://app?vid=cff79122-d0ba-4d28-8122-60870bcc68a5","ios":"levelo://app?vid=cff79122-d0ba-4d28-8122-60870bcc68a5"},"vehicle_type_id":"4","last_reported":1679854077,"current_range_meters":800,"station_id":"ce4bgvh2rcd13ifvqcs0","pricing_plan_id":"free"},{"bike_id":"152ed8f3-273a-4496-95d0-8e9d61d084f8","system_id":"levelo_inurba_marseille","lat":43.286039,"lon":5.370679,"is_reserved":false,"is_disabled":false,"rental_uris":{"android":"levelo://app?vid=152ed8f3-273a-4496-95d0-8e9d61d084f8","ios":"levelo://app?vid=152ed8f3-273a-4496-95d0-8e9d61d084f8"},"vehicle_type_id":"4","last_reported":1679854077,"current_range_meters":5600,"station_id":"ce4bht12rcd13ifvqi60","pricing_plan_id":"free"},{"bike_id":"1d191d97-77b6-405a-b9c2-5f5dd1945ecd","system_id":"levelo_inurba_marseille","lat":43.326545,"lon":5.398446,"is_reserved":false,"is_disabled":false,"rental_uris":{"android":"levelo://app?vid=1d191d97-77b6-405a-b9c2-5f5dd1945ecd","ios":"levelo://app?vid=1d191d97-77b6-405a-b9c2-5f5dd1945ecd"},"vehicle_type_id":"4","last_reported":1679854077,"current_range_meters":5600,"station_id":"","pricing_plan_id":"free"},{"bike_id":"a6a41833-5cbc-4165-a08b-90d39c5b0da1","system_id":"levelo_inurba_marseille","lat":43.30032,"lon":5.40104,"is_reserved":false,"is_disabled":false,"rental_uris":{"android":"levelo://app?vid=a6a41833-5cbc-4165-a08b-90d39c5b0da1","ios":"levelo://app?vid=a6a41833-5cbc-4165-a08b-90d39c5b0da1"},"vehicle_type_id":"4","last_reported":1679854077,"current_range_meters":0,"station_id":"","pricing_plan_id":"free"},{"bike_id":"000fb750-cf7c-4e5a-a329-309c2e9e4540","system_id":"levelo_inurba_marseille","lat":43.284534,"lon":5.358662,"is_reserved":false,"is_disabled":false,"rental_uris":{"android":"levelo://app?vid=000fb750-cf7c-4e5a-a329-309c2e9e4540","ios":"levelo://app?vid=000fb750-cf7c-4e5a-a329-309c2e9e4540"},"vehicle_type_id":"4","last_reported":1679854077,"current_range_meters":4800,"station_id":"ce4bhah2rcd13ifvqei0","pricing_plan_id":"free"},{"bike_id":"df4ad836-c72a-4238-8942-009f38fd2721","system_id":"levelo_inurba_marseille","lat":43.286595,"lon":5.386795,"is_reserved":false,"is_disabled":false,"rental_uris":{"android":"levelo://app?vid=df4ad836-c72a-4238-8942-009f38fd2721","ios":"levelo://app?vid=df4ad836-c72a-4238-8942-009f38fd2721"},"vehicle_type_id":"4","last_reported":1679854077,"current_range_meters":400,"station_id":"ce4bh492rcd13ifvqdug","pricing_plan_id":"free"},{"bike_id":"aacb67f2-47b3-4454-b4eb-54c9fb94ee12","system_id":"levelo_inurba_marseille","lat":43.3339,"lon":5.39632,"is_reserved":false,"is_disabled":false,"rental_uris":{"android":"levelo://app?vid=aacb67f2-47b3-4454-b4eb-54c9fb94ee12","ios":"levelo://app?vid=aacb67f2-47b3-4454-b4eb-54c9fb94ee12"},"vehicle_type_id":"4","last_reported":1679854077,"current_range_meters":5200,"station_id":"","pricing_plan_id":"free"},{"bike_id":"209f1066-79d5-4bd7-871f-6c17ba66c9cc","system_id":"levelo_inurba_marseille","lat":43.323464,"lon":5.406297,"is_reserved":false,"is_disabled":false,"rental_uris":{"android":"levelo://app?vid=209f1066-79d5-4bd7-871f-6c17ba66c9cc","ios":"levelo://app?vid=209f1066-79d5-4bd7-871f-6c17ba66c9cc"},"vehicle_type_id":"4","last_reported":1679854077,"current_range_meters":0,"station_id":"ce4bhq92rcd13ifvqhjg","pricing_plan_id":"free"},{"bike_id":"bbed59ff-9890-4bcd-b3c3-720d0bbd2ae8","system_id":"levelo_inurba_marseille","lat":43.284787,"lon":5.384116,"is_reserved":false,"is_disabled":false,"rental_uris":{"android":"levelo://app?vid=bbed59ff-9890-4bcd-b3c3-720d0bbd2ae8","ios":"levelo://app?vid=bbed59ff-9890-4bcd-b3c3-720d0bbd2ae8"},"vehicle_type_id":"4","last_reported":1679854077,"current_range_meters":0,"station_id":"ce4bh512rcd13ifvqe3g","pricing_plan_id":"free"},{"bike_id":"3f52c18d-dcd6-449b-b712-428bac65fb4e","system_id":"levelo_inurba_marseille","lat":43.284787,"lon":5.384116,"is_reserved":false,"is_disabled":false,"rental_uris":{"android":"levelo://app?vid=3f52c18d-dcd6-449b-b712-428bac65fb4e","ios":"levelo://app?vid=3f52c18d-dcd6-449b-b712-428bac65fb4e"},"vehicle_type_id":"4","last_reported":1679854077,"current_range_meters":8800,"station_id":"ce4bh512rcd13ifvqe3g","pricing_plan_id":"free"},{"bike_id":"a6b401c3-8245-4bc7-b7c1-a41911bffab3","system_id":"levelo_inurba_marseille","lat":43.284793,"lon":5.384119,"is_reserved":false,"is_disabled":false,"rental_uris":{"android":"levelo://app?vid=a6b401c3-8245-4bc7-b7c1-a41911bffab3","ios":"levelo://app?vid=a6b401c3-8245-4bc7-b7c1-a41911bffab3"},"vehicle_type_id":"4","last_reported":1679854077,"current_range_meters":4400,"station_id":"ce4bh512rcd13ifvqe3g","pricing_plan_id":"free"},{"bike_id":"25db4030-5d3c-41d7-8c39-609a7692f246","system_id":"levelo_inurba_marseille","lat":43.284219,"lon":5.3497,"is_reserved":false,"is_disabled":false,"rental_uris":{"android":"levelo://app?vid=25db4030-5d3c-41d7-8c39-609a7692f246","ios":"levelo://app?vid=25db4030-5d3c-41d7-8c39-609a7692f246"},"vehicle_type_id":"4","last_reported":1679854077,"current_range_meters":5600,"station_id":"ce4bhbh2rcd13ifvqepg","pricing_plan_id":"free"},{"bike_id":"6ed2f179-47ca-4939-9d28-e3277aa91ec4","system_id":"levelo_inurba_marseille","lat":43.292724,"lon":5.401131,"is_reserved":false,"is_disabled":false,"rental_uris":{"android":"levelo://app?vid=6ed2f179-47ca-4939-9d28-e3277aa91ec4","ios":"levelo://app?vid=6ed2f179-47ca-4939-9d28-e3277aa91ec4"},"vehicle_type_id":"4","last_reported":1679854077,"current_range_meters":2800,"station_id":"ce4bh312rcd13ifvqdk0","pricing_plan_id":"free"},{"bike_id":"f964b502-7a01-46a3-8516-6dbcb8256612","system_id":"levelo_inurba_marseille","lat":43.283502,"lon":5.386471,"is_reserved":false,"is_disabled":false,"rental_uris":{"android":"levelo://app?vid=f964b502-7a01-46a3-8516-6dbcb8256612","ios":"levelo://app?vid=f964b502-7a01-46a3-8516-6dbcb8256612"},"vehicle_type_id":"4","last_reported":1679854077,"current_range_meters":14400,"station_id":"ce4bh492rcd13ifvqdvg","pricing_plan_id":"free"},{"bike_id":"dbdfca20-6124-4d52-bf05-8eb519925b47","system_id":"levelo_inurba_marseille","lat":43.280382,"lon":5.369291,"is_reserved":false,"is_disabled":false,"rental_uris":{"android":"levelo://app?vid=dbdfca20-6124-4d52-bf05-8eb519925b47","ios":"levelo://app?vid=dbdfca20-6124-4d52-bf05-8eb519925b47"},"vehicle_type_id":"4","last_reported":1679854077,"current_range_meters":5600,"station_id":"ce4bha12rcd13ifvqef0","pricing_plan_id":"free"},{"bike_id":"97eeb718-7d7e-4eea-8a24-630c7ee5eadd","system_id":"levelo_inurba_marseille","lat":43.29041,"lon":5.399634,"is_reserved":false,"is_disabled":false,"rental_uris":{"android":"levelo://app?vid=97eeb718-7d7e-4eea-8a24-630c7ee5eadd","ios":"levelo://app?vid=97eeb718-7d7e-4eea-8a24-630c7ee5eadd"},"vehicle_type_id":"4","last_reported":1679854077,"current_range_meters":0,"station_id":"ce4bh392rcd13ifvqdm0","pricing_plan_id":"free"},{"bike_id":"ae0bfcc7-7f1e-4efb-8c8d-3502b6ffe37f","system_id":"levelo_inurba_marseille","lat":43.29155,"lon":5.4037,"is_reserved":false,"is_disabled":false,"rental_uris":{"android":"levelo://app?vid=ae0bfcc7-7f1e-4efb-8c8d-3502b6ffe37f","ios":"levelo://app?vid=ae0bfcc7-7f1e-4efb-8c8d-3502b6ffe37f"},"vehicle_type_id":"4","last_reported":1679854077,"current_range_meters":0,"station_id":"","pricing_plan_id":"free"},{"bike_id":"a3bc2317-36ab-40be-adc9-24e75984fec2","system_id":"levelo_inurba_marseille","lat":43.304188,"lon":5.412904,"is_reserved":false,"is_disabled":false,"rental_uris":{"android":"levelo://app?vid=a3bc2317-36ab-40be-adc9-24e75984fec2","ios":"levelo://app?vid=a3bc2317-36ab-40be-adc9-24e75984fec2"},"vehicle_type_id":"4","last_reported":1679854077,"current_range_meters":2800,"station_id":"ce4bhop2rcd13ifvqh8g","pricing_plan_id":"free"},{"bike_id":"f1ed81b9-7ba6-4495-8bc8-c9ce82113d85","system_id":"levelo_inurba_marseille","lat":43.304188,"lon":5.412904,"is_reserved":false,"is_disabled":false,"rental_uris":{"android":"levelo://app?vid=f1ed81b9-7ba6-4495-8bc8-c9ce82113d85","ios":"levelo://app?vid=f1ed81b9-7ba6-4495-8bc8-c9ce82113d85"},"vehicle_type_id":"4","last_reported":1679854077,"current_range_meters":3200,"station_id":"ce4bhop2rcd13ifvqh8g","pricing_plan_id":"free"},{"bike_id":"2b1e694d-3836-4ced-97cb-e58b96bece26","system_id":"levelo_inurba_marseille","lat":43.287154,"lon":5.399979,"is_reserved":false,"is_disabled":false,"rental_uris":{"android":"levelo://app?vid=2b1e694d-3836-4ced-97cb-e58b96bece26","ios":"levelo://app?vid=2b1e694d-3836-4ced-97cb-e58b96bece26"},"vehicle_type_id":"4","last_reported":1679854077,"current_range_meters":0,"station_id":"ce4bho92rcd13ifvqh3g","pricing_plan_id":"free"},{"bike_id":"ea49e1b6-d6c0-43b2-a5d7-712ef8009762","system_id":"levelo_inurba_marseille","lat":43.287154,"lon":5.399979,"is_reserved":false,"is_disabled":false,"rental_uris":{"android":"levelo://app?vid=ea49e1b6-d6c0-43b2-a5d7-712ef8009762","ios":"levelo://app?vid=ea49e1b6-d6c0-43b2-a5d7-712ef8009762"},"vehicle_type_id":"4","last_reported":1679854077,"current_range_meters":2800,"station_id":"ce4bho92rcd13ifvqh3g","pricing_plan_id":"free"},{"bike_id":"9f1a93ae-e2e8-406a-9a37-c47fd76700d5","system_id":"levelo_inurba_marseille","lat":43.299579,"lon":5.413255,"is_reserved":false,"is_disabled":false,"rental_uris":{"android":"levelo://app?vid=9f1a93ae-e2e8-406a-9a37-c47fd76700d5","ios":"levelo://app?vid=9f1a93ae-e2e8-406a-9a37-c47fd76700d5"},"vehicle_type_id":"4","last_reported":1679854077,"current_range_meters":23200,"station_id":"ce4bhp12rcd13ifvqh9g","pricing_plan_id":"free"},{"bike_id":"9159b374-cbe9-46a7-b16b-9beb58605a2c","system_id":"levelo_inurba_marseille","lat":43.325233,"lon":5.414318,"is_reserved":false,"is_disabled":false,"rental_uris":{"android":"levelo://app?vid=9159b374-cbe9-46a7-b16b-9beb58605a2c","ios":"levelo://app?vid=9159b374-cbe9-46a7-b16b-9beb58605a2c"},"vehicle_type_id":"4","last_reported":1679854077,"current_range_meters":7200,"station_id":"ce4bhq12rcd13ifvqhhg","pricing_plan_id":"free"},{"bike_id":"aa5854a5-cc7c-4268-a226-2db97fa37c7f","system_id":"levelo_inurba_marseille","lat":43.280784,"lon":5.396622,"is_reserved":false,"is_disabled":false,"rental_uris":{"android":"levelo://app?vid=aa5854a5-cc7c-4268-a226-2db97fa37c7f","ios":"levelo://app?vid=aa5854a5-cc7c-4268-a226-2db97fa37c7f"},"vehicle_type_id":"4","last_reported":1679854077,"current_range_meters":0,"station_id":"ce4bho12rcd13ifvqh2g","pricing_plan_id":"free"},{"bike_id":"3b2620d6-5ddd-48e8-9f76-d090d649acec","system_id":"levelo_inurba_marseille","lat":43.273613,"lon":5.362705,"is_reserved":false,"is_disabled":false,"rental_uris":{"android":"levelo://app?vid=3b2620d6-5ddd-48e8-9f76-d090d649acec","ios":"levelo://app?vid=3b2620d6-5ddd-48e8-9f76-d090d649acec"},"vehicle_type_id":"4","last_reported":1679854077,"current_range_meters":0,"station_id":"ce4bhbh2rcd13ifvqeo0","pricing_plan_id":"free"},{"bike_id":"a28ce061-e93c-4b6a-a28a-133cd903cb55","system_id":"levelo_inurba_marseille","lat":43.33604,"lon":5.41032,"is_reserved":false,"is_disabled":false,"rental_uris":{"android":"levelo://app?vid=a28ce061-e93c-4b6a-a28a-133cd903cb55","ios":"levelo://app?vid=a28ce061-e93c-4b6a-a28a-133cd903cb55"},"vehicle_type_id":"4","last_reported":1679854077,"current_range_meters":6800,"station_id":"","pricing_plan_id":"free"},{"bike_id":"9d9333c5-8ddb-4222-8e02-25874dab81b3","system_id":"levelo_inurba_marseille","lat":43.336134,"lon":5.410341,"is_reserved":false,"is_disabled":false,"rental_uris":{"android":"levelo://app?vid=9d9333c5-8ddb-4222-8e02-25874dab81b3","ios":"levelo://app?vid=9d9333c5-8ddb-4222-8e02-25874dab81b3"},"vehicle_type_id":"4","last_reported":1679854077,"current_range_meters":12400,"station_id":"ce4bhqh2rcd13ifvqhmg","pricing_plan_id":"free"},{"bike_id":"74c7a2de-8bad-4874-88c8-f6cc95b6ac9f","system_id":"levelo_inurba_marseille","lat":43.33606,"lon":5.41031,"is_reserved":false,"is_disabled":false,"rental_uris":{"android":"levelo://app?vid=74c7a2de-8bad-4874-88c8-f6cc95b6ac9f","ios":"levelo://app?vid=74c7a2de-8bad-4874-88c8-f6cc95b6ac9f"},"vehicle_type_id":"4","last_reported":1679854077,"current_range_meters":17200,"station_id":"","pricing_plan_id":"free"},{"bike_id":"a2905168-5d83-4bee-8062-a70d5275d0e6","system_id":"levelo_inurba_marseille","lat":43.336134,"lon":5.410341,"is_reserved":false,"is_disabled":false,"rental_uris":{"android":"levelo://app?vid=a2905168-5d83-4bee-8062-a70d5275d0e6","ios":"levelo://app?vid=a2905168-5d83-4bee-8062-a70d5275d0e6"},"vehicle_type_id":"4","last_reported":1679854077,"current_range_meters":6800,"station_id":"ce4bhqh2rcd13ifvqhmg","pricing_plan_id":"free"},{"bike_id":"d07d284c-5a20-4653-8706-84cf84bf0cc3","system_id":"levelo_inurba_marseille","lat":43.336134,"lon":5.410341,"is_reserved":false,"is_disabled":false,"rental_uris":{"android":"levelo://app?vid=d07d284c-5a20-4653-8706-84cf84bf0cc3","ios":"levelo://app?vid=d07d284c-5a20-4653-8706-84cf84bf0cc3"},"vehicle_type_id":"4","last_reported":1679854077,"current_range_meters":4000,"station_id":"ce4bhqh2rcd13ifvqhmg","pricing_plan_id":"free"},{"bike_id":"c5f70b0d-4ac1-43ee-ada6-21eb959b7d0d","system_id":"levelo_inurba_marseille","lat":43.276769,"lon":5.388787,"is_reserved":false,"is_disabled":false,"rental_uris":{"android":"levelo://app?vid=c5f70b0d-4ac1-43ee-ada6-21eb959b7d0d","ios":"levelo://app?vid=c5f70b0d-4ac1-43ee-ada6-21eb959b7d0d"},"vehicle_type_id":"4","last_reported":1679854077,"current_range_meters":7600,"station_id":"ce4bhi12rcd13ifvqfo0","pricing_plan_id":"free"},{"bike_id":"3b1d1a29-ea64-4156-b1d6-6ad0d4136b1c","system_id":"levelo_inurba_marseille","lat":43.276674,"lon":5.389081,"is_reserved":false,"is_disabled":false,"rental_uris":{"android":"levelo://app?vid=3b1d1a29-ea64-4156-b1d6-6ad0d4136b1c","ios":"levelo://app?vid=3b1d1a29-ea64-4156-b1d6-6ad0d4136b1c"},"vehicle_type_id":"4","last_reported":1679854077,"current_range_meters":0,"station_id":"","pricing_plan_id":"free"},{"bike_id":"d133b0fc-07b5-4ba2-8e3b-fad83301fae4","system_id":"levelo_inurba_marseille","lat":43.32827,"lon":5.41758,"is_reserved":false,"is_disabled":false,"rental_uris":{"android":"levelo://app?vid=d133b0fc-07b5-4ba2-8e3b-fad83301fae4","ios":"levelo://app?vid=d133b0fc-07b5-4ba2-8e3b-fad83301fae4"},"vehicle_type_id":"4","last_reported":1679854077,"current_range_meters":0,"station_id":"","pricing_plan_id":"free"},{"bike_id":"efdb12d8-1f25-4f9d-97b9-1ea089389bcb","system_id":"levelo_inurba_marseille","lat":43.330196,"lon":5.419088,"is_reserved":false,"is_disabled":false,"rental_uris":{"android":"levelo://app?vid=efdb12d8-1f25-4f9d-97b9-1ea089389bcb","ios":"levelo://app?vid=efdb12d8-1f25-4f9d-97b9-1ea089389bcb"},"vehicle_type_id":"4","last_reported":1679854077,"current_range_meters":0,"station_id":"","pricing_plan_id":"free"},{"bike_id":"5a67343d-d894-4c20-b1f1-43a05f5c7d11","system_id":"levelo_inurba_marseille","lat":43.314811,"lon":5.373103,"is_reserved":false,"is_disabled":false,"rental_uris":{"android":"levelo://app?vid=5a67343d-d894-4c20-b1f1-43a05f5c7d11","ios":"levelo://app?vid=5a67343d-d894-4c20-b1f1-43a05f5c7d11"},"vehicle_type_id":"4","last_reported":1679854077,"current_range_meters":4000,"station_id":"ce4bgt12rcd13ifvqcd0","pricing_plan_id":"free"},{"bike_id":"cafdd4b1-073c-4abf-aec8-712a5beb5c3f","system_id":"levelo_inurba_marseille","lat":43.295523,"lon":5.422926,"is_reserved":false,"is_disabled":false,"rental_uris":{"android":"levelo://app?vid=cafdd4b1-073c-4abf-aec8-712a5beb5c3f","ios":"levelo://app?vid=cafdd4b1-073c-4abf-aec8-712a5beb5c3f"},"vehicle_type_id":"4","last_reported":1679854077,"current_range_meters":5600,"station_id":"ce4bhph2rcd13ifvqhdg","pricing_plan_id":"free"},{"bike_id":"1a7bf06b-00b6-47ef-955b-c863afe94ee4","system_id":"levelo_inurba_marseille","lat":43.295523,"lon":5.422926,"is_reserved":false,"is_disabled":false,"rental_uris":{"android":"levelo://app?vid=1a7bf06b-00b6-47ef-955b-c863afe94ee4","ios":"levelo://app?vid=1a7bf06b-00b6-47ef-955b-c863afe94ee4"},"vehicle_type_id":"4","last_reported":1679854077,"current_range_meters":5600,"station_id":"ce4bhph2rcd13ifvqhdg","pricing_plan_id":"free"},{"bike_id":"6c2ea7b7-f60a-4267-a61b-8af37e0dc176","system_id":"levelo_inurba_marseille","lat":43.295523,"lon":5.422926,"is_reserved":false,"is_disabled":false,"rental_uris":{"android":"levelo://app?vid=6c2ea7b7-f60a-4267-a61b-8af37e0dc176","ios":"levelo://app?vid=6c2ea7b7-f60a-4267-a61b-8af37e0dc176"},"vehicle_type_id":"4","last_reported":1679854077,"current_range_meters":0,"station_id":"ce4bhph2rcd13ifvqhdg","pricing_plan_id":"free"},{"bike_id":"91664935-db6d-4eee-bfbb-f80a585418b0","system_id":"levelo_inurba_marseille","lat":43.295523,"lon":5.422926,"is_reserved":false,"is_disabled":false,"rental_uris":{"android":"levelo://app?vid=91664935-db6d-4eee-bfbb-f80a585418b0","ios":"levelo://app?vid=91664935-db6d-4eee-bfbb-f80a585418b0"},"vehicle_type_id":"4","last_reported":1679854077,"current_range_meters":4400,"station_id":"ce4bhph2rcd13ifvqhdg","pricing_plan_id":"free"},{"bike_id":"f02acfe9-a272-47c7-ade7-01d538238904","system_id":"levelo_inurba_marseille","lat":43.27817,"lon":5.4071,"is_reserved":false,"is_disabled":false,"rental_uris":{"android":"levelo://app?vid=f02acfe9-a272-47c7-ade7-01d538238904","ios":"levelo://app?vid=f02acfe9-a272-47c7-ade7-01d538238904"},"vehicle_type_id":"4","last_reported":1679854077,"current_range_meters":0,"station_id":"ce4bhnh2rcd13ifvqgtg","pricing_plan_id":"free"},{"bike_id":"d2f3fd58-f010-42c5-9544-0e3f8a1ea0b1","system_id":"levelo_inurba_marseille","lat":43.27816,"lon":5.40711,"is_reserved":false,"is_disabled":false,"rental_uris":{"android":"levelo://app?vid=d2f3fd58-f010-42c5-9544-0e3f8a1ea0b1","ios":"levelo://app?vid=d2f3fd58-f010-42c5-9544-0e3f8a1ea0b1"},"vehicle_type_id":"4","last_reported":1679854077,"current_range_meters":8000,"station_id":"","pricing_plan_id":"free"},{"bike_id":"8e3aa173-bcee-4dc3-9056-6a71e96d4cda","system_id":"levelo_inurba_marseille","lat":43.269467,"lon":5.386439,"is_reserved":false,"is_disabled":false,"rental_uris":{"android":"levelo://app?vid=8e3aa173-bcee-4dc3-9056-6a71e96d4cda","ios":"levelo://app?vid=8e3aa173-bcee-4dc3-9056-6a71e96d4cda"},"vehicle_type_id":"4","last_reported":1679854077,"current_range_meters":400,"station_id":"ce4bhh92rcd13ifvqfh0","pricing_plan_id":"free"},{"bike_id":"081909b0-a3ca-48a6-aba1-39ad6ad97aee","system_id":"levelo_inurba_marseille","lat":43.337966,"lon":5.421194,"is_reserved":false,"is_disabled":false,"rental_uris":{"android":"levelo://app?vid=081909b0-a3ca-48a6-aba1-39ad6ad97aee","ios":"levelo://app?vid=081909b0-a3ca-48a6-aba1-39ad6ad97aee"},"vehicle_type_id":"4","last_reported":1679854077,"current_range_meters":0,"station_id":"","pricing_plan_id":"free"},{"bike_id":"1235e794-8b28-47c9-94e4-d4b352e3f408","system_id":"levelo_inurba_marseille","lat":43.26549,"lon":5.372945,"is_reserved":false,"is_disabled":false,"rental_uris":{"android":"levelo://app?vid=1235e794-8b28-47c9-94e4-d4b352e3f408","ios":"levelo://app?vid=1235e794-8b28-47c9-94e4-d4b352e3f408"},"vehicle_type_id":"4","last_reported":1679854077,"current_range_meters":0,"station_id":"ce4bhg12rcd13ifvqf70","pricing_plan_id":"free"},{"bike_id":"db7a1ce7-af59-4709-b8e1-243ab5735fff","system_id":"levelo_inurba_marseille","lat":43.265569,"lon":5.390047,"is_reserved":false,"is_disabled":false,"rental_uris":{"android":"levelo://app?vid=db7a1ce7-af59-4709-b8e1-243ab5735fff","ios":"levelo://app?vid=db7a1ce7-af59-4709-b8e1-243ab5735fff"},"vehicle_type_id":"4","last_reported":1679854077,"current_range_meters":0,"station_id":"ce4bhe12rcd13ifvqf30","pricing_plan_id":"free"},{"bike_id":"f4da5c1e-bb08-42ce-92e5-2768460b386c","system_id":"levelo_inurba_marseille","lat":43.331864,"lon":5.431794,"is_reserved":false,"is_disabled":false,"rental_uris":{"android":"levelo://app?vid=f4da5c1e-bb08-42ce-92e5-2768460b386c","ios":"levelo://app?vid=f4da5c1e-bb08-42ce-92e5-2768460b386c"},"vehicle_type_id":"4","last_reported":1679854077,"current_range_meters":12000,"station_id":"","pricing_plan_id":"free"},{"bike_id":"095f2b0c-278e-4884-9e8e-87e4ce1c33bb","system_id":"levelo_inurba_marseille","lat":43.267959,"lon":5.402685,"is_reserved":false,"is_disabled":false,"rental_uris":{"android":"levelo://app?vid=095f2b0c-278e-4884-9e8e-87e4ce1c33bb","ios":"levelo://app?vid=095f2b0c-278e-4884-9e8e-87e4ce1c33bb"},"vehicle_type_id":"4","last_reported":1679854077,"current_range_meters":0,"station_id":"ce501612rcd8frsf0b60","pricing_plan_id":"free"},{"bike_id":"69600b78-0f44-40d0-ab39-402aca4eb68d","system_id":"levelo_inurba_marseille","lat":43.29896,"lon":5.43665,"is_reserved":false,"is_disabled":false,"rental_uris":{"android":"levelo://app?vid=69600b78-0f44-40d0-ab39-402aca4eb68d","ios":"levelo://app?vid=69600b78-0f44-40d0-ab39-402aca4eb68d"},"vehicle_type_id":"4","last_reported":1679854077,"current_range_meters":21200,"station_id":"ce4bhpp2rcd13ifvqhfg","pricing_plan_id":"free"},{"bike_id":"dc2654b7-5c45-4bd1-b98a-8cf5b214024d","system_id":"levelo_inurba_marseille","lat":43.33482,"lon":5.43285,"is_reserved":false,"is_disabled":false,"rental_uris":{"android":"levelo://app?vid=dc2654b7-5c45-4bd1-b98a-8cf5b214024d","ios":"levelo://app?vid=dc2654b7-5c45-4bd1-b98a-8cf5b214024d"},"vehicle_type_id":"4","last_reported":1679854077,"current_range_meters":31200,"station_id":"","pricing_plan_id":"free"},{"bike_id":"8e344158-5c99-46b8-b84a-a0b85f26dbf4","system_id":"levelo_inurba_marseille","lat":43.260909,"lon":5.397591,"is_reserved":false,"is_disabled":false,"rental_uris":{"android":"levelo://app?vid=8e344158-5c99-46b8-b84a-a0b85f26dbf4","ios":"levelo://app?vid=8e344158-5c99-46b8-b84a-a0b85f26dbf4"},"vehicle_type_id":"4","last_reported":1679854077,"current_range_meters":4000,"station_id":"ce4bhi12rcd13ifvqfq0","pricing_plan_id":"free"},{"bike_id":"085f0782-6093-4bf7-80d7-171b63826fa2","system_id":"levelo_inurba_marseille","lat":43.254945,"lon":5.376454,"is_reserved":false,"is_disabled":false,"rental_uris":{"android":"levelo://app?vid=085f0782-6093-4bf7-80d7-171b63826fa2","ios":"levelo://app?vid=085f0782-6093-4bf7-80d7-171b63826fa2"},"vehicle_type_id":"4","last_reported":1679854077,"current_range_meters":400,"station_id":"ce4bhh12rcd13ifvqff0","pricing_plan_id":"free"},{"bike_id":"08f6336a-adc1-49fc-bc78-b01afdfdfc7c","system_id":"levelo_inurba_marseille","lat":43.270721,"lon":5.422764,"is_reserved":false,"is_disabled":false,"rental_uris":{"android":"levelo://app?vid=08f6336a-adc1-49fc-bc78-b01afdfdfc7c","ios":"levelo://app?vid=08f6336a-adc1-49fc-bc78-b01afdfdfc7c"},"vehicle_type_id":"4","last_reported":1679854077,"current_range_meters":30400,"station_id":"ce4bhk92rcd13ifvqgb0","pricing_plan_id":"free"},{"bike_id":"b5505fc3-2cf8-4bb9-84fc-38472ac1234d","system_id":"levelo_inurba_marseille","lat":43.27078,"lon":5.42283,"is_reserved":false,"is_disabled":false,"rental_uris":{"android":"levelo://app?vid=b5505fc3-2cf8-4bb9-84fc-38472ac1234d","ios":"levelo://app?vid=b5505fc3-2cf8-4bb9-84fc-38472ac1234d"},"vehicle_type_id":"4","last_reported":1679854077,"current_range_meters":7200,"station_id":"","pricing_plan_id":"free"},{"bike_id":"e966b116-f1b6-413a-ac59-63e2ea4fa22f","system_id":"levelo_inurba_marseille","lat":43.270721,"lon":5.422764,"is_reserved":false,"is_disabled":false,"rental_uris":{"android":"levelo://app?vid=e966b116-f1b6-413a-ac59-63e2ea4fa22f","ios":"levelo://app?vid=e966b116-f1b6-413a-ac59-63e2ea4fa22f"},"vehicle_type_id":"4","last_reported":1679854077,"current_range_meters":4400,"station_id":"ce4bhk92rcd13ifvqgb0","pricing_plan_id":"free"},{"bike_id":"f0ba5e52-837f-4754-9829-0dac8eb1e4d5","system_id":"levelo_inurba_marseille","lat":43.250009,"lon":5.389195,"is_reserved":false,"is_disabled":false,"rental_uris":{"android":"levelo://app?vid=f0ba5e52-837f-4754-9829-0dac8eb1e4d5","ios":"levelo://app?vid=f0ba5e52-837f-4754-9829-0dac8eb1e4d5"},"vehicle_type_id":"4","last_reported":1679854077,"current_range_meters":0,"station_id":"ce4bhgp2rcd13ifvqfd0","pricing_plan_id":"free"},{"bike_id":"2819a97b-ab62-412f-ba95-92901ce7058e","system_id":"levelo_inurba_marseille","lat":43.250009,"lon":5.389195,"is_reserved":false,"is_disabled":false,"rental_uris":{"android":"levelo://app?vid=2819a97b-ab62-412f-ba95-92901ce7058e","ios":"levelo://app?vid=2819a97b-ab62-412f-ba95-92901ce7058e"},"vehicle_type_id":"4","last_reported":1679854077,"current_range_meters":0,"station_id":"ce4bhgp2rcd13ifvqfd0","pricing_plan_id":"free"},{"bike_id":"d0058b74-60d0-440f-a599-52520ca9d396","system_id":"levelo_inurba_marseille","lat":43.250966,"lon":5.395186,"is_reserved":false,"is_disabled":false,"rental_uris":{"android":"levelo://app?vid=d0058b74-60d0-440f-a599-52520ca9d396","ios":"levelo://app?vid=d0058b74-60d0-440f-a599-52520ca9d396"},"vehicle_type_id":"4","last_reported":1679854077,"current_range_meters":6000,"station_id":"ce4bhm12rcd13ifvqgkg","pricing_plan_id":"free"},{"bike_id":"9fec407a-00ca-465f-8c87-4e5476d05cc9","system_id":"levelo_inurba_marseille","lat":43.25119,"lon":5.40315,"is_reserved":false,"is_disabled":false,"rental_uris":{"android":"levelo://app?vid=9fec407a-00ca-465f-8c87-4e5476d05cc9","ios":"levelo://app?vid=9fec407a-00ca-465f-8c87-4e5476d05cc9"},"vehicle_type_id":"4","last_reported":1679854077,"current_range_meters":4400,"station_id":"ce4bhlh2rcd13ifvqgig","pricing_plan_id":"free"},{"bike_id":"c0a9891f-86cc-4304-acce-4d51f5a09a3f","system_id":"levelo_inurba_marseille","lat":43.25102,"lon":5.403214,"is_reserved":false,"is_disabled":false,"rental_uris":{"android":"levelo://app?vid=c0a9891f-86cc-4304-acce-4d51f5a09a3f","ios":"levelo://app?vid=c0a9891f-86cc-4304-acce-4d51f5a09a3f"},"vehicle_type_id":"4","last_reported":1679854077,"current_range_meters":13200,"station_id":"ce4bhlh2rcd13ifvqgig","pricing_plan_id":"free"},{"bike_id":"7c15d262-c824-4cb1-9230-4df5c70903cf","system_id":"levelo_inurba_marseille","lat":43.25102,"lon":5.403214,"is_reserved":false,"is_disabled":false,"rental_uris":{"android":"levelo://app?vid=7c15d262-c824-4cb1-9230-4df5c70903cf","ios":"levelo://app?vid=7c15d262-c824-4cb1-9230-4df5c70903cf"},"vehicle_type_id":"4","last_reported":1679854077,"current_range_meters":5600,"station_id":"ce4bhlh2rcd13ifvqgig","pricing_plan_id":"free"},{"bike_id":"69e91d6a-bf61-47f6-8ca2-e052a71ee8a6","system_id":"levelo_inurba_marseille","lat":43.25102,"lon":5.403214,"is_reserved":false,"is_disabled":false,"rental_uris":{"android":"levelo://app?vid=69e91d6a-bf61-47f6-8ca2-e052a71ee8a6","ios":"levelo://app?vid=69e91d6a-bf61-47f6-8ca2-e052a71ee8a6"},"vehicle_type_id":"4","last_reported":1679854077,"current_range_meters":7200,"station_id":"ce4bhlh2rcd13ifvqgig","pricing_plan_id":"free"},{"bike_id":"adfdeaa7-ac21-4d96-99b3-203bf9117791","system_id":"levelo_inurba_marseille","lat":43.25102,"lon":5.403214,"is_reserved":false,"is_disabled":false,"rental_uris":{"android":"levelo://app?vid=adfdeaa7-ac21-4d96-99b3-203bf9117791","ios":"levelo://app?vid=adfdeaa7-ac21-4d96-99b3-203bf9117791"},"vehicle_type_id":"4","last_reported":1679854077,"current_range_meters":6800,"station_id":"ce4bhlh2rcd13ifvqgig","pricing_plan_id":"free"},{"bike_id":"52c577fc-fc76-4b66-acf3-25ee43ef3997","system_id":"levelo_inurba_marseille","lat":43.24653,"lon":5.38899,"is_reserved":false,"is_disabled":false,"rental_uris":{"android":"levelo://app?vid=52c577fc-fc76-4b66-acf3-25ee43ef3997","ios":"levelo://app?vid=52c577fc-fc76-4b66-acf3-25ee43ef3997"},"vehicle_type_id":"4","last_reported":1679854077,"current_range_meters":9600,"station_id":"ce4bhg12rcd13ifvqf60","pricing_plan_id":"free"},{"bike_id":"8bcb4702-6194-43eb-a1fc-1fd70d7344b0","system_id":"levelo_inurba_marseille","lat":43.24397,"lon":5.3712,"is_reserved":false,"is_disabled":false,"rental_uris":{"android":"levelo://app?vid=8bcb4702-6194-43eb-a1fc-1fd70d7344b0","ios":"levelo://app?vid=8bcb4702-6194-43eb-a1fc-1fd70d7344b0"},"vehicle_type_id":"4","last_reported":1679854077,"current_range_meters":27600,"station_id":"ce4bhhh2rcd13ifvqfk0","pricing_plan_id":"free"},{"bike_id":"fe65ab9e-ef38-44f5-bfa5-9e725399970b","system_id":"levelo_inurba_marseille","lat":43.24546,"lon":5.39524,"is_reserved":false,"is_disabled":false,"rental_uris":{"android":"levelo://app?vid=fe65ab9e-ef38-44f5-bfa5-9e725399970b","ios":"levelo://app?vid=fe65ab9e-ef38-44f5-bfa5-9e725399970b"},"vehicle_type_id":"4","last_reported":1679854077,"current_range_meters":0,"station_id":"","pricing_plan_id":"free"},{"bike_id":"b4c60ea8-4c5e-437c-b6aa-a126de8a077c","system_id":"levelo_inurba_marseille","lat":43.24928,"lon":5.40885,"is_reserved":false,"is_disabled":false,"rental_uris":{"android":"levelo://app?vid=b4c60ea8-4c5e-437c-b6aa-a126de8a077c","ios":"levelo://app?vid=b4c60ea8-4c5e-437c-b6aa-a126de8a077c"},"vehicle_type_id":"4","last_reported":1679854077,"current_range_meters":0,"station_id":"","pricing_plan_id":"free"},{"bike_id":"1fde9e1d-5fd5-477c-9d4f-1dd57ba6b1b7","system_id":"levelo_inurba_marseille","lat":43.24076,"lon":5.37759,"is_reserved":false,"is_disabled":false,"rental_uris":{"android":"levelo://app?vid=1fde9e1d-5fd5-477c-9d4f-1dd57ba6b1b7","ios":"levelo://app?vid=1fde9e1d-5fd5-477c-9d4f-1dd57ba6b1b7"},"vehicle_type_id":"4","last_reported":1679854077,"current_range_meters":30400,"station_id":"ce4bhnp2rcd13ifvqgvg","pricing_plan_id":"free"},{"bike_id":"0cdb2477-b549-4de6-8e95-5b66709d1054","system_id":"levelo_inurba_marseille","lat":43.239588,"lon":5.366238,"is_reserved":false,"is_disabled":false,"rental_uris":{"android":"levelo://app?vid=0cdb2477-b549-4de6-8e95-5b66709d1054","ios":"levelo://app?vid=0cdb2477-b549-4de6-8e95-5b66709d1054"},"vehicle_type_id":"4","last_reported":1679854077,"current_range_meters":0,"station_id":"ce4bhi12rcd13ifvqfp0","pricing_plan_id":"free"},{"bike_id":"99ec9591-689f-43c6-b4f0-94293b068ab3","system_id":"levelo_inurba_marseille","lat":43.243806,"lon":5.403066,"is_reserved":false,"is_disabled":false,"rental_uris":{"android":"levelo://app?vid=99ec9591-689f-43c6-b4f0-94293b068ab3","ios":"levelo://app?vid=99ec9591-689f-43c6-b4f0-94293b068ab3"},"vehicle_type_id":"4","last_reported":1679854077,"current_range_meters":12000,"station_id":"","pricing_plan_id":"free"},{"bike_id":"9374a3be-b04b-4c29-82f2-ab43492d3f5a","system_id":"levelo_inurba_marseille","lat":43.241782,"lon":5.397264,"is_reserved":false,"is_disabled":false,"rental_uris":{"android":"levelo://app?vid=9374a3be-b04b-4c29-82f2-ab43492d3f5a","ios":"levelo://app?vid=9374a3be-b04b-4c29-82f2-ab43492d3f5a"},"vehicle_type_id":"4","last_reported":1679854077,"current_range_meters":30000,"station_id":"ce4bhn12rcd13ifvqgpg","pricing_plan_id":"free"},{"bike_id":"6c6b1ee6-d728-4943-a03f-72b9df910ea6","system_id":"levelo_inurba_marseille","lat":43.241782,"lon":5.397264,"is_reserved":false,"is_disabled":false,"rental_uris":{"android":"levelo://app?vid=6c6b1ee6-d728-4943-a03f-72b9df910ea6","ios":"levelo://app?vid=6c6b1ee6-d728-4943-a03f-72b9df910ea6"},"vehicle_type_id":"4","last_reported":1679854077,"current_range_meters":10400,"station_id":"ce4bhn12rcd13ifvqgpg","pricing_plan_id":"free"},{"bike_id":"060a5c43-7ac9-4d27-b764-50b706d6f92c","system_id":"levelo_inurba_marseille","lat":43.241782,"lon":5.397264,"is_reserved":false,"is_disabled":false,"rental_uris":{"android":"levelo://app?vid=060a5c43-7ac9-4d27-b764-50b706d6f92c","ios":"levelo://app?vid=060a5c43-7ac9-4d27-b764-50b706d6f92c"},"vehicle_type_id":"4","last_reported":1679854077,"current_range_meters":12400,"station_id":"ce4bhn12rcd13ifvqgpg","pricing_plan_id":"free"},{"bike_id":"d90be3db-2000-4e04-a388-d792f5ae0cb3","system_id":"levelo_inurba_marseille","lat":43.241782,"lon":5.397264,"is_reserved":false,"is_disabled":false,"rental_uris":{"android":"levelo://app?vid=d90be3db-2000-4e04-a388-d792f5ae0cb3","ios":"levelo://app?vid=d90be3db-2000-4e04-a388-d792f5ae0cb3"},"vehicle_type_id":"4","last_reported":1679854077,"current_range_meters":400,"station_id":"ce4bhn12rcd13ifvqgpg","pricing_plan_id":"free"},{"bike_id":"12b9e0b7-199c-45f2-8c4f-e74fdb124d69","system_id":"levelo_inurba_marseille","lat":43.28463,"lon":5.48688,"is_reserved":false,"is_disabled":false,"rental_uris":{"android":"levelo://app?vid=12b9e0b7-199c-45f2-8c4f-e74fdb124d69","ios":"levelo://app?vid=12b9e0b7-199c-45f2-8c4f-e74fdb124d69"},"vehicle_type_id":"4","last_reported":1679854077,"current_range_meters":8400,"station_id":"","pricing_plan_id":"free"}]}}