{"last_updated":1738530401,"ttl":60,"version":"2.2","data":{"bikes":[{"bike_id":"ef1b25f8-6252-4d08-81d1-202f52136b43","system_id":"levelo_inurba_marseille","lat":43.251192,"lon":5.403217,"is_reserved":false,"is_disabled":false,"rental_uris":{"android":"levelo://app?vid=ef1b25f8-6252-4d08-81d1-202f52136b43","ios":"levelo://app?vid=ef1b25f8-6252-4d08-81d1-202f52136b43"},"vehicle_type_id":"4","last_reported":1738530402,"current_range_meters":39200,"station_id":"ce4bhlh2rcd13ifvqgig","pricing_plan_id":"cebpf4jnsgd1na2vs0mg"},{"bike_id":"7ac6de87-4cb5-4d58-adc2-a7c162322d3f","system_id":"levelo_inurba_marseille","lat":43.2846,"lon":5.38406,"is_reserved":false,"is_disabled":true,"rental_uris":{"android":"levelo://app?vid=7ac6de87-4cb5-4d58-adc2-a7c162322d3f","ios":"levelo://app?vid=7ac6de87-4cb5-4d58-adc2-a7c162322d3f"},"vehicle_type_id":"4","last_reported":1738530402,"current_range_meters":17600,"station_id":"ce4bh512rcd13ifvqe3g","pricing_plan_id":"cebpf4jnsgd1na2vs0mg"},{"bike_id":"ea8d42e9-f1f7-427d-a417-e957f1f6d083","system_id":"levelo_inurba_marseille","lat":43.32037,"lon":5.41583,"is_reserved":false,"is_disabled":false,"rental_uris":{"android":"levelo://app?vid=ea8d42e9-f1f7-427d-a417-e957f1f6d083","ios":"levelo://app?vid=ea8d42e9-f1f7-427d-a417-e957f1f6d083"},"vehicle_type_id":"4","last_reported":1738530402,"current_range_meters":38800,"station_id":"ce4bhq92rcd13ifvqhkg","pricing_plan_id":"cebpf4jnsgd1na2vs0mg"},{"bike_id":"28f2ee39-c342-4264-9aba-b44edbff64ff","system_id":"levelo_inurba_marseille","lat":43.24085,"lon":5.37759,"is_reserved":false,"is_disabled":false,"rental_uris":{"android":"levelo://app?vid=28f2ee39-c342-4264-9aba-b44edbff64ff","ios":"levelo://app?vid=28f2ee39-c342-4264-9aba-b44edbff64ff"},"vehicle_type_id":"4","last_reported":1738530402,"current_range_meters":36400,"station_id":"ce4bhnp2rcd13ifvqgvg","pricing_plan_id":"cebpf4jnsgd1na2vs0mg"},{"bike_id":"3a563825-ceb4-42f3-b04d-5f56d6b1dc69","system_id":"levelo_inurba_marseille","lat":43.27314,"lon":5.3913,"is_reserved":false,"is_disabled":false,"rental_uris":{"android":"levelo://app?vid=3a563825-ceb4-42f3-b04d-5f56d6b1dc69","ios":"levelo://app?vid=3a563825-ceb4-42f3-b04d-5f56d6b1dc69"},"vehicle_type_id":"4","last_reported":1738530402,"current_range_meters":38800,"station_id":"ce4bhgp2rcd13ifvqfe0","pricing_plan_id":"cebpf4jnsgd1na2vs0mg"},{"bike_id":"21ce7c90-ecf1-4c2b-ae39-e9d88703c00b","system_id":"levelo_inurba_marseille","lat":43.27212,"lon":5.39188,"is_reserved":false,"is_disabled":true,"rental_uris":{"android":"levelo://app?vid=21ce7c90-ecf1-4c2b-ae39-e9d88703c00b","ios":"levelo://app?vid=21ce7c90-ecf1-4c2b-ae39-e9d88703c00b"},"vehicle_type_id":"4","last_reported":1738530402,"current_range_meters":29600,"station_id":"ce4bhhp2rcd13ifvqfm0","pricing_plan_id":"cebpf4jnsgd1na2vs0mg"},{"bike_id":"68ec889f-fbad-4ec7-bbe1-dbda6b88a3f5","system_id":"levelo_inurba_marseille","lat":43.29033,"lon":5.38662,"is_reserved":false,"is_disabled":true,"rental_uris":{"android":"levelo://app?vid=68ec889f-fbad-4ec7-bbe1-dbda6b88a3f5","ios":"levelo://app?vid=68ec889f-fbad-4ec7-bbe1-dbda6b88a3f5"},"vehicle_type_id":"4","last_reported":1738530402,"current_range_meters":23200,"station_id":"ce4bh4p2rcd13ifvqe0g","pricing_plan_id":"cebpf4jnsgd1na2vs0mg"},{"bike_id":"19508e03-fa05-4c91-87a7-0a29ac898a81","system_id":"levelo_inurba_marseille","lat":43.25816,"lon":5.39446,"is_reserved":false,"is_disabled":false,"rental_uris":{"android":"levelo://app?vid=19508e03-fa05-4c91-87a7-0a29ac898a81","ios":"levelo://app?vid=19508e03-fa05-4c91-87a7-0a29ac898a81"},"vehicle_type_id":"4","last_reported":1738530402,"current_range_meters":17200,"station_id":"ce4bhip2rcd13ifvqft0","pricing_plan_id":"cebpf4jnsgd1na2vs0mg"},{"bike_id":"bce224ab-25f0-49e0-a15d-f13a63bc70fe","system_id":"levelo_inurba_marseille","lat":43.31718,"lon":5.42394,"is_reserved":false,"is_disabled":false,"rental_uris":{"android":"levelo://app?vid=bce224ab-25f0-49e0-a15d-f13a63bc70fe","ios":"levelo://app?vid=bce224ab-25f0-49e0-a15d-f13a63bc70fe"},"vehicle_type_id":"4","last_reported":1738530402,"current_range_meters":16000,"station_id":"ce4bhp92rcd13ifvqhbg","pricing_plan_id":"cebpf4jnsgd1na2vs0mg"},{"bike_id":"58d6570a-f131-470d-a4d4-3a12a264c9d5","system_id":"levelo_inurba_marseille","lat":43.29557,"lon":5.42278,"is_reserved":false,"is_disabled":false,"rental_uris":{"android":"levelo://app?vid=58d6570a-f131-470d-a4d4-3a12a264c9d5","ios":"levelo://app?vid=58d6570a-f131-470d-a4d4-3a12a264c9d5"},"vehicle_type_id":"4","last_reported":1738530402,"current_range_meters":28800,"station_id":"ce4bhph2rcd13ifvqhdg","pricing_plan_id":"cebpf4jnsgd1na2vs0mg"},{"bike_id":"f3530aec-ba87-4ddb-a3ec-3ca43a5a29f8","system_id":"levelo_inurba_marseille","lat":43.29626,"lon":5.40573,"is_reserved":false,"is_disabled":false,"rental_uris":{"android":"levelo://app?vid=f3530aec-ba87-4ddb-a3ec-3ca43a5a29f8","ios":"levelo://app?vid=f3530aec-ba87-4ddb-a3ec-3ca43a5a29f8"},"vehicle_type_id":"4","last_reported":1738530402,"current_range_meters":39200,"station_id":"ce4bh0h2rcd13ifvqd60","pricing_plan_id":"cebpf4jnsgd1na2vs0mg"},{"bike_id":"940dcd0d-4fa5-41d2-ac6c-49ec663b7a44","system_id":"levelo_inurba_marseille","lat":43.29281,"lon":5.36844,"is_reserved":false,"is_disabled":false,"rental_uris":{"android":"levelo://app?vid=940dcd0d-4fa5-41d2-ac6c-49ec663b7a44","ios":"levelo://app?vid=940dcd0d-4fa5-41d2-ac6c-49ec663b7a44"},"vehicle_type_id":"4","last_reported":1738530402,"current_range_meters":32400,"station_id":"ce4bhbp2rcd13ifvqesg","pricing_plan_id":"cebpf4jnsgd1na2vs0mg"},{"bike_id":"fb982a78-e4ef-4837-8ef3-ee9b9509ec0c","system_id":"levelo_inurba_marseille","lat":43.29562,"lon":5.4227,"is_reserved":false,"is_disabled":false,"rental_uris":{"android":"levelo://app?vid=fb982a78-e4ef-4837-8ef3-ee9b9509ec0c","ios":"levelo://app?vid=fb982a78-e4ef-4837-8ef3-ee9b9509ec0c"},"vehicle_type_id":"4","last_reported":1738530402,"current_range_meters":38800,"station_id":"ce4bhph2rcd13ifvqhdg","pricing_plan_id":"cebpf4jnsgd1na2vs0mg"},{"bike_id":"f69ed53e-6f10-4af4-ace6-f5b99a77f134","system_id":"levelo_inurba_marseille","lat":43.26293,"lon":5.40436,"is_reserved":false,"is_disabled":false,"rental_uris":{"android":"levelo://app?vid=f69ed53e-6f10-4af4-ace6-f5b99a77f134","ios":"levelo://app?vid=f69ed53e-6f10-4af4-ace6-f5b99a77f134"},"vehicle_type_id":"4","last_reported":1738530402,"current_range_meters":36400,"station_id":"","pricing_plan_id":"cebpf4jnsgd1na2vs0mg"},{"bike_id":"5d48a61d-cf22-4c98-83c4-85b6c901eb8b","system_id":"levelo_inurba_marseille","lat":43.31749,"lon":5.39013,"is_reserved":false,"is_disabled":false,"rental_uris":{"android":"levelo://app?vid=5d48a61d-cf22-4c98-83c4-85b6c901eb8b","ios":"levelo://app?vid=5d48a61d-cf22-4c98-83c4-85b6c901eb8b"},"vehicle_type_id":"4","last_reported":1738530402,"current_range_meters":37600,"station_id":"ce4bhqp2rcd13ifvqhng","pricing_plan_id":"cebpf4jnsgd1na2vs0mg"},{"bike_id":"ac2d738a-827a-4bcd-a16e-094036ce1f8a","system_id":"levelo_inurba_marseille","lat":43.31335,"lon":5.36795,"is_reserved":false,"is_disabled":false,"rental_uris":{"android":"levelo://app?vid=ac2d738a-827a-4bcd-a16e-094036ce1f8a","ios":"levelo://app?vid=ac2d738a-827a-4bcd-a16e-094036ce1f8a"},"vehicle_type_id":"4","last_reported":1738530402,"current_range_meters":24000,"station_id":"","pricing_plan_id":"cebpf4jnsgd1na2vs0mg"},{"bike_id":"babeb983-9900-45dd-9c39-c974059de659","system_id":"levelo_inurba_marseille","lat":43.26806,"lon":5.40252,"is_reserved":false,"is_disabled":false,"rental_uris":{"android":"levelo://app?vid=babeb983-9900-45dd-9c39-c974059de659","ios":"levelo://app?vid=babeb983-9900-45dd-9c39-c974059de659"},"vehicle_type_id":"4","last_reported":1738530402,"current_range_meters":37600,"station_id":"ce501612rcd8frsf0b60","pricing_plan_id":"cebpf4jnsgd1na2vs0mg"},{"bike_id":"c26284e6-53ee-4b35-a0cc-ee8d0a2119d1","system_id":"levelo_inurba_marseille","lat":43.28722,"lon":5.37924,"is_reserved":false,"is_disabled":true,"rental_uris":{"android":"levelo://app?vid=c26284e6-53ee-4b35-a0cc-ee8d0a2119d1","ios":"levelo://app?vid=c26284e6-53ee-4b35-a0cc-ee8d0a2119d1"},"vehicle_type_id":"4","last_reported":1738530402,"current_range_meters":10000,"station_id":"ce4bh9p2rcd13ifvqec0","pricing_plan_id":"cebpf4jnsgd1na2vs0mg"},{"bike_id":"0cfeb70a-0a8b-4c9e-bd06-c150e627b9d5","system_id":"levelo_inurba_marseille","lat":43.26813,"lon":5.40259,"is_reserved":false,"is_disabled":false,"rental_uris":{"android":"levelo://app?vid=0cfeb70a-0a8b-4c9e-bd06-c150e627b9d5","ios":"levelo://app?vid=0cfeb70a-0a8b-4c9e-bd06-c150e627b9d5"},"vehicle_type_id":"4","last_reported":1738530402,"current_range_meters":38800,"station_id":"ce501612rcd8frsf0b60","pricing_plan_id":"cebpf4jnsgd1na2vs0mg"},{"bike_id":"c1fbf002-c448-42e6-8168-8beaa00f06c7","system_id":"levelo_inurba_marseille","lat":43.28847,"lon":5.35855,"is_reserved":false,"is_disabled":false,"rental_uris":{"android":"levelo://app?vid=c1fbf002-c448-42e6-8168-8beaa00f06c7","ios":"levelo://app?vid=c1fbf002-c448-42e6-8168-8beaa00f06c7"},"vehicle_type_id":"4","last_reported":1738530402,"current_range_meters":28000,"station_id":"ce4bhb12rcd13ifvqem0","pricing_plan_id":"cebpf4jnsgd1na2vs0mg"},{"bike_id":"40c853c0-44e5-4a47-a5e8-961c1c63a92a","system_id":"levelo_inurba_marseille","lat":43.27043,"lon":5.42287,"is_reserved":false,"is_disabled":true,"rental_uris":{"android":"levelo://app?vid=40c853c0-44e5-4a47-a5e8-961c1c63a92a","ios":"levelo://app?vid=40c853c0-44e5-4a47-a5e8-961c1c63a92a"},"vehicle_type_id":"4","last_reported":1738530402,"current_range_meters":0,"station_id":"ce4bhk92rcd13ifvqgb0","pricing_plan_id":"cebpf4jnsgd1na2vs0mg"},{"bike_id":"bfa27720-2f35-45fa-8c22-e6c3aec3b7ea","system_id":"levelo_inurba_marseille","lat":43.29277,"lon":5.38438,"is_reserved":false,"is_disabled":false,"rental_uris":{"android":"levelo://app?vid=bfa27720-2f35-45fa-8c22-e6c3aec3b7ea","ios":"levelo://app?vid=bfa27720-2f35-45fa-8c22-e6c3aec3b7ea"},"vehicle_type_id":"4","last_reported":1738530402,"current_range_meters":6800,"station_id":"ce4bh692rcd13ifvqea0","pricing_plan_id":"cebpf4jnsgd1na2vs0mg"},{"bike_id":"98d17f1e-df8a-4465-96ce-bc03f9964f3c","system_id":"levelo_inurba_marseille","lat":43.30226,"lon":5.40038,"is_reserved":false,"is_disabled":false,"rental_uris":{"android":"levelo://app?vid=98d17f1e-df8a-4465-96ce-bc03f9964f3c","ios":"levelo://app?vid=98d17f1e-df8a-4465-96ce-bc03f9964f3c"},"vehicle_type_id":"4","last_reported":1738530402,"current_range_meters":30800,"station_id":"ce4bgvh2rcd13ifvqcs0","pricing_plan_id":"cebpf4jnsgd1na2vs0mg"},{"bike_id":"0875f546-71ae-4892-b7f1-948adedf9f98","system_id":"levelo_inurba_marseille","lat":43.31273,"lon":5.40158,"is_reserved":false,"is_disabled":false,"rental_uris":{"android":"levelo://app?vid=0875f546-71ae-4892-b7f1-948adedf9f98","ios":"levelo://app?vid=0875f546-71ae-4892-b7f1-948adedf9f98"},"vehicle_type_id":"4","last_reported":1738530402,"current_range_meters":13600,"station_id":"ce4bh092rcd13ifvqd30","pricing_plan_id":"cebpf4jnsgd1na2vs0mg"},{"bike_id":"85101c84-9999-45b6-903a-edab62a1c8ef","system_id":"levelo_inurba_marseille","lat":43.2824,"lon":5.3508,"is_reserved":false,"is_disabled":false,"rental_uris":{"android":"levelo://app?vid=85101c84-9999-45b6-903a-edab62a1c8ef","ios":"levelo://app?vid=85101c84-9999-45b6-903a-edab62a1c8ef"},"vehicle_type_id":"4","last_reported":1738530402,"current_range_meters":28800,"station_id":"ce4bhbp2rcd13ifvqerg","pricing_plan_id":"cebpf4jnsgd1na2vs0mg"},{"bike_id":"b53cf432-0e47-4b61-a305-952377a64c88","system_id":"levelo_inurba_marseille","lat":43.30777,"lon":5.3817,"is_reserved":false,"is_disabled":true,"rental_uris":{"android":"levelo://app?vid=b53cf432-0e47-4b61-a305-952377a64c88","ios":"levelo://app?vid=b53cf432-0e47-4b61-a305-952377a64c88"},"vehicle_type_id":"4","last_reported":1738530402,"current_range_meters":36400,"station_id":"ce4bgt12rcd13ifvqce0","pricing_plan_id":"cebpf4jnsgd1na2vs0mg"},{"bike_id":"c9f00705-9681-4f51-9484-af5120db3699","system_id":"levelo_inurba_marseille","lat":43.27946,"lon":5.41039,"is_reserved":false,"is_disabled":false,"rental_uris":{"android":"levelo://app?vid=c9f00705-9681-4f51-9484-af5120db3699","ios":"levelo://app?vid=c9f00705-9681-4f51-9484-af5120db3699"},"vehicle_type_id":"4","last_reported":1738530402,"current_range_meters":17200,"station_id":"ce4bhnp2rcd13ifvqh0g","pricing_plan_id":"cebpf4jnsgd1na2vs0mg"},{"bike_id":"13a71ca0-af90-4e61-a6f2-18a028732efe","system_id":"levelo_inurba_marseille","lat":43.25085,"lon":5.39524,"is_reserved":false,"is_disabled":false,"rental_uris":{"android":"levelo://app?vid=13a71ca0-af90-4e61-a6f2-18a028732efe","ios":"levelo://app?vid=13a71ca0-af90-4e61-a6f2-18a028732efe"},"vehicle_type_id":"4","last_reported":1738530402,"current_range_meters":26000,"station_id":"ce4bhm12rcd13ifvqgkg","pricing_plan_id":"cebpf4jnsgd1na2vs0mg"},{"bike_id":"b9fb3d2d-81d5-43a8-89dc-d204f4ce4ab1","system_id":"levelo_inurba_marseille","lat":43.30795,"lon":5.43531,"is_reserved":false,"is_disabled":true,"rental_uris":{"android":"levelo://app?vid=b9fb3d2d-81d5-43a8-89dc-d204f4ce4ab1","ios":"levelo://app?vid=b9fb3d2d-81d5-43a8-89dc-d204f4ce4ab1"},"vehicle_type_id":"4","last_reported":1738530402,"current_range_meters":0,"station_id":"ce4bhph2rcd13ifvqheg","pricing_plan_id":"cebpf4jnsgd1na2vs0mg"},{"bike_id":"ac435b7a-3cbe-439d-966f-9ad227b0ea53","system_id":"levelo_inurba_marseille","lat":43.29223,"lon":5.36085,"is_reserved":false,"is_disabled":true,"rental_uris":{"android":"levelo://app?vid=ac435b7a-3cbe-439d-966f-9ad227b0ea53","ios":"levelo://app?vid=ac435b7a-3cbe-439d-966f-9ad227b0ea53"},"vehicle_type_id":"4","last_reported":1738530402,"current_range_meters":38800,"station_id":"ce4bhbh2rcd13ifvqeqg","pricing_plan_id":"cebpf4jnsgd1na2vs0mg"},{"bike_id":"478e4f7b-8fe0-4b88-be47-0f06be19b712","system_id":"levelo_inurba_marseille","lat":43.28447,"lon":5.39206,"is_reserved":false,"is_disabled":false,"rental_uris":{"android":"levelo://app?vid=478e4f7b-8fe0-4b88-be47-0f06be19b712","ios":"levelo://app?vid=478e4f7b-8fe0-4b88-be47-0f06be19b712"},"vehicle_type_id":"4","last_reported":1738530402,"current_range_meters":38800,"station_id":"ce4bhoh2rcd13ifvqh5g","pricing_plan_id":"cebpf4jnsgd1na2vs0mg"},{"bike_id":"05e6967f-52b4-4d89-933e-b74089631b53","system_id":"levelo_inurba_marseille","lat":43.32476,"lon":5.36566,"is_reserved":false,"is_disabled":false,"rental_uris":{"android":"levelo://app?vid=05e6967f-52b4-4d89-933e-b74089631b53","ios":"levelo://app?vid=05e6967f-52b4-4d89-933e-b74089631b53"},"vehicle_type_id":"4","last_reported":1738530402,"current_range_meters":24800,"station_id":"ce4bhs12rcd13ifvqhvg","pricing_plan_id":"cebpf4jnsgd1na2vs0mg"},{"bike_id":"a1361b83-7dfc-447a-91a0-ca180866041b","system_id":"levelo_inurba_marseille","lat":43.32366,"lon":5.36761,"is_reserved":false,"is_disabled":false,"rental_uris":{"android":"levelo://app?vid=a1361b83-7dfc-447a-91a0-ca180866041b","ios":"levelo://app?vid=a1361b83-7dfc-447a-91a0-ca180866041b"},"vehicle_type_id":"4","last_reported":1738530402,"current_range_meters":25600,"station_id":"ce4bhsh2rcd13ifvqi2g","pricing_plan_id":"cebpf4jnsgd1na2vs0mg"},{"bike_id":"ddb9c7e9-65ef-4267-9499-9c9d26630482","system_id":"levelo_inurba_marseille","lat":43.32499,"lon":5.36563,"is_reserved":false,"is_disabled":false,"rental_uris":{"android":"levelo://app?vid=ddb9c7e9-65ef-4267-9499-9c9d26630482","ios":"levelo://app?vid=ddb9c7e9-65ef-4267-9499-9c9d26630482"},"vehicle_type_id":"4","last_reported":1738530402,"current_range_meters":29600,"station_id":"ce4bhs12rcd13ifvqhvg","pricing_plan_id":"cebpf4jnsgd1na2vs0mg"},{"bike_id":"6f5f9008-4ec8-4324-9439-2f5658e1e170","system_id":"levelo_inurba_marseille","lat":43.24384,"lon":5.37057,"is_reserved":false,"is_disabled":false,"rental_uris":{"android":"levelo://app?vid=6f5f9008-4ec8-4324-9439-2f5658e1e170","ios":"levelo://app?vid=6f5f9008-4ec8-4324-9439-2f5658e1e170"},"vehicle_type_id":"4","last_reported":1738530402,"current_range_meters":39200,"station_id":"ce4bhhh2rcd13ifvqfk0","pricing_plan_id":"cebpf4jnsgd1na2vs0mg"},{"bike_id":"2bd84fa3-17d1-4c60-a194-91eef67aa1a3","system_id":"levelo_inurba_marseille","lat":43.22931,"lon":5.35367,"is_reserved":false,"is_disabled":false,"rental_uris":{"android":"levelo://app?vid=2bd84fa3-17d1-4c60-a194-91eef67aa1a3","ios":"levelo://app?vid=2bd84fa3-17d1-4c60-a194-91eef67aa1a3"},"vehicle_type_id":"4","last_reported":1738530402,"current_range_meters":33600,"station_id":"cpo3532slgdg3j2ikp40","pricing_plan_id":"cebpf4jnsgd1na2vs0mg"},{"bike_id":"943be55d-cee7-424a-b22e-f9aee29db6e6","system_id":"levelo_inurba_marseille","lat":43.27563,"lon":5.38454,"is_reserved":false,"is_disabled":false,"rental_uris":{"android":"levelo://app?vid=943be55d-cee7-424a-b22e-f9aee29db6e6","ios":"levelo://app?vid=943be55d-cee7-424a-b22e-f9aee29db6e6"},"vehicle_type_id":"4","last_reported":1738530402,"current_range_meters":38800,"station_id":"ce4bhh92rcd13ifvqfi0","pricing_plan_id":"cebpf4jnsgd1na2vs0mg"},{"bike_id":"eccf3e1b-479c-430a-81d9-b77c081460ec","system_id":"levelo_inurba_marseille","lat":43.31763,"lon":5.39023,"is_reserved":false,"is_disabled":true,"rental_uris":{"android":"levelo://app?vid=eccf3e1b-479c-430a-81d9-b77c081460ec","ios":"levelo://app?vid=eccf3e1b-479c-430a-81d9-b77c081460ec"},"vehicle_type_id":"4","last_reported":1738530402,"current_range_meters":8400,"station_id":"ce4bhqp2rcd13ifvqhng","pricing_plan_id":"cebpf4jnsgd1na2vs0mg"},{"bike_id":"8a006d60-24b2-44c1-bf8d-ce90a4db220e","system_id":"levelo_inurba_marseille","lat":43.26935,"lon":5.40242,"is_reserved":false,"is_disabled":false,"rental_uris":{"android":"levelo://app?vid=8a006d60-24b2-44c1-bf8d-ce90a4db220e","ios":"levelo://app?vid=8a006d60-24b2-44c1-bf8d-ce90a4db220e"},"vehicle_type_id":"4","last_reported":1738530402,"current_range_meters":38000,"station_id":"cjm6bp8fraef2m0cb0m0","pricing_plan_id":"cebpf4jnsgd1na2vs0mg"},{"bike_id":"88769796-cc26-4829-a6b8-263383824347","system_id":"levelo_inurba_marseille","lat":43.27807,"lon":5.40735,"is_reserved":false,"is_disabled":false,"rental_uris":{"android":"levelo://app?vid=88769796-cc26-4829-a6b8-263383824347","ios":"levelo://app?vid=88769796-cc26-4829-a6b8-263383824347"},"vehicle_type_id":"4","last_reported":1738530402,"current_range_meters":32000,"station_id":"ce4bhnh2rcd13ifvqgtg","pricing_plan_id":"cebpf4jnsgd1na2vs0mg"},{"bike_id":"0edaa840-e8b0-4f2c-ad98-c123355c590c","system_id":"levelo_inurba_marseille","lat":43.26076,"lon":5.39401,"is_reserved":false,"is_disabled":true,"rental_uris":{"android":"levelo://app?vid=0edaa840-e8b0-4f2c-ad98-c123355c590c","ios":"levelo://app?vid=0edaa840-e8b0-4f2c-ad98-c123355c590c"},"vehicle_type_id":"4","last_reported":1738530402,"current_range_meters":28400,"station_id":"ce4bhh92rcd13ifvqfj0","pricing_plan_id":"cebpf4jnsgd1na2vs0mg"},{"bike_id":"cf0c7551-43ce-4e0c-b491-c0f4a6f69a5d","system_id":"levelo_inurba_marseille","lat":43.26932,"lon":5.40279,"is_reserved":false,"is_disabled":false,"rental_uris":{"android":"levelo://app?vid=cf0c7551-43ce-4e0c-b491-c0f4a6f69a5d","ios":"levelo://app?vid=cf0c7551-43ce-4e0c-b491-c0f4a6f69a5d"},"vehicle_type_id":"4","last_reported":1738530402,"current_range_meters":38800,"station_id":"cjm6bp8fraef2m0cb0m0","pricing_plan_id":"cebpf4jnsgd1na2vs0mg"},{"bike_id":"a87c8dd6-4ed1-4fd2-a6d7-2e4139c707ed","system_id":"levelo_inurba_marseille","lat":43.25004,"lon":5.38945,"is_reserved":false,"is_disabled":false,"rental_uris":{"android":"levelo://app?vid=a87c8dd6-4ed1-4fd2-a6d7-2e4139c707ed","ios":"levelo://app?vid=a87c8dd6-4ed1-4fd2-a6d7-2e4139c707ed"},"vehicle_type_id":"4","last_reported":1738530402,"current_range_meters":37600,"station_id":"ce4bhgp2rcd13ifvqfd0","pricing_plan_id":"cebpf4jnsgd1na2vs0mg"},{"bike_id":"5d15e5ab-a393-43e3-9c89-48d29f988df0","system_id":"levelo_inurba_marseille","lat":43.26934,"lon":5.40268,"is_reserved":false,"is_disabled":false,"rental_uris":{"android":"levelo://app?vid=5d15e5ab-a393-43e3-9c89-48d29f988df0","ios":"levelo://app?vid=5d15e5ab-a393-43e3-9c89-48d29f988df0"},"vehicle_type_id":"4","last_reported":1738530402,"current_range_meters":24800,"station_id":"cjm6bp8fraef2m0cb0m0","pricing_plan_id":"cebpf4jnsgd1na2vs0mg"},{"bike_id":"8b23552f-b7c0-40c8-9d4f-37ff82774c67","system_id":"levelo_inurba_marseille","lat":43.25582,"lon":5.38231,"is_reserved":false,"is_disabled":false,"rental_uris":{"android":"levelo://app?vid=8b23552f-b7c0-40c8-9d4f-37ff82774c67","ios":"levelo://app?vid=8b23552f-b7c0-40c8-9d4f-37ff82774c67"},"vehicle_type_id":"4","last_reported":1738530402,"current_range_meters":27200,"station_id":"ce4bhih2rcd13ifvqfs0","pricing_plan_id":"cebpf4jnsgd1na2vs0mg"},{"bike_id":"637e7848-7b84-4e1d-9cee-355c6601f7c3","system_id":"levelo_inurba_marseille","lat":43.27992,"lon":5.41669,"is_reserved":false,"is_disabled":true,"rental_uris":{"android":"levelo://app?vid=637e7848-7b84-4e1d-9cee-355c6601f7c3","ios":"levelo://app?vid=637e7848-7b84-4e1d-9cee-355c6601f7c3"},"vehicle_type_id":"4","last_reported":1738530402,"current_range_meters":0,"station_id":"ce4bho12rcd13ifvqh1g","pricing_plan_id":"cebpf4jnsgd1na2vs0mg"},{"bike_id":"d3a92cfd-6d1a-40d5-ad67-d6a40afc5db9","system_id":"levelo_inurba_marseille","lat":43.26952,"lon":5.38635,"is_reserved":false,"is_disabled":false,"rental_uris":{"android":"levelo://app?vid=d3a92cfd-6d1a-40d5-ad67-d6a40afc5db9","ios":"levelo://app?vid=d3a92cfd-6d1a-40d5-ad67-d6a40afc5db9"},"vehicle_type_id":"4","last_reported":1738530402,"current_range_meters":38800,"station_id":"ce4bhh92rcd13ifvqfh0","pricing_plan_id":"cebpf4jnsgd1na2vs0mg"},{"bike_id":"9f0f2eef-1c83-4ea4-bb4e-63b07c357eb6","system_id":"levelo_inurba_marseille","lat":43.27905,"lon":5.38009,"is_reserved":false,"is_disabled":false,"rental_uris":{"android":"levelo://app?vid=9f0f2eef-1c83-4ea4-bb4e-63b07c357eb6","ios":"levelo://app?vid=9f0f2eef-1c83-4ea4-bb4e-63b07c357eb6"},"vehicle_type_id":"4","last_reported":1738530402,"current_range_meters":38800,"station_id":"ce4bhf92rcd13ifvqf50","pricing_plan_id":"cebpf4jnsgd1na2vs0mg"},{"bike_id":"73a3e5f7-2b2e-4f61-906e-4c8695aed0ee","system_id":"levelo_inurba_marseille","lat":43.28977,"lon":5.37824,"is_reserved":false,"is_disabled":false,"rental_uris":{"android":"levelo://app?vid=73a3e5f7-2b2e-4f61-906e-4c8695aed0ee","ios":"levelo://app?vid=73a3e5f7-2b2e-4f61-906e-4c8695aed0ee"},"vehicle_type_id":"4","last_reported":1738530402,"current_range_meters":17600,"station_id":"ce4bh9p2rcd13ifvqed0","pricing_plan_id":"cebpf4jnsgd1na2vs0mg"},{"bike_id":"766807e2-5dd5-4f9d-8a99-3eada8bf4811","system_id":"levelo_inurba_marseille","lat":43.34607,"lon":5.38116,"is_reserved":false,"is_disabled":false,"rental_uris":{"android":"levelo://app?vid=766807e2-5dd5-4f9d-8a99-3eada8bf4811","ios":"levelo://app?vid=766807e2-5dd5-4f9d-8a99-3eada8bf4811"},"vehicle_type_id":"4","last_reported":1738530402,"current_range_meters":21600,"station_id":"","pricing_plan_id":"cebpf4jnsgd1na2vs0mg"},{"bike_id":"4164000a-3575-41b2-8242-cb2eaaa11f6b","system_id":"levelo_inurba_marseille","lat":43.27987,"lon":5.3874,"is_reserved":false,"is_disabled":true,"rental_uris":{"android":"levelo://app?vid=4164000a-3575-41b2-8242-cb2eaaa11f6b","ios":"levelo://app?vid=4164000a-3575-41b2-8242-cb2eaaa11f6b"},"vehicle_type_id":"4","last_reported":1738530402,"current_range_meters":37600,"station_id":"ce4bhg12rcd13ifvqf80","pricing_plan_id":"cebpf4jnsgd1na2vs0mg"},{"bike_id":"32e5f4af-c3e2-4e2b-9428-5595e9b70920","system_id":"levelo_inurba_marseille","lat":43.29783,"lon":5.37107,"is_reserved":false,"is_disabled":true,"rental_uris":{"android":"levelo://app?vid=32e5f4af-c3e2-4e2b-9428-5595e9b70920","ios":"levelo://app?vid=32e5f4af-c3e2-4e2b-9428-5595e9b70920"},"vehicle_type_id":"4","last_reported":1738530402,"current_range_meters":36400,"station_id":"ce4bgop2rcd13ifvqc1g","pricing_plan_id":"cebpf4jnsgd1na2vs0mg"},{"bike_id":"49ad5697-b822-41fd-b6d3-24e44d24f81c","system_id":"levelo_inurba_marseille","lat":43.28838,"lon":5.3583,"is_reserved":false,"is_disabled":false,"rental_uris":{"android":"levelo://app?vid=49ad5697-b822-41fd-b6d3-24e44d24f81c","ios":"levelo://app?vid=49ad5697-b822-41fd-b6d3-24e44d24f81c"},"vehicle_type_id":"4","last_reported":1738530402,"current_range_meters":24800,"station_id":"ce4bhb12rcd13ifvqem0","pricing_plan_id":"cebpf4jnsgd1na2vs0mg"},{"bike_id":"2759ce27-3951-4de9-ba5e-023c45353256","system_id":"levelo_inurba_marseille","lat":43.28846,"lon":5.39316,"is_reserved":false,"is_disabled":false,"rental_uris":{"android":"levelo://app?vid=2759ce27-3951-4de9-ba5e-023c45353256","ios":"levelo://app?vid=2759ce27-3951-4de9-ba5e-023c45353256"},"vehicle_type_id":"4","last_reported":1738530402,"current_range_meters":26800,"station_id":"ce4bh2p2rcd13ifvqdi0","pricing_plan_id":"cebpf4jnsgd1na2vs0mg"},{"bike_id":"392cffe7-eaf7-47c9-956d-7ae47705d8b2","system_id":"levelo_inurba_marseille","lat":43.25593,"lon":5.38257,"is_reserved":false,"is_disabled":false,"rental_uris":{"android":"levelo://app?vid=392cffe7-eaf7-47c9-956d-7ae47705d8b2","ios":"levelo://app?vid=392cffe7-eaf7-47c9-956d-7ae47705d8b2"},"vehicle_type_id":"4","last_reported":1738530402,"current_range_meters":38800,"station_id":"ce4bhih2rcd13ifvqfs0","pricing_plan_id":"cebpf4jnsgd1na2vs0mg"},{"bike_id":"095e5291-f842-4478-bc34-3769cd441c0c","system_id":"levelo_inurba_marseille","lat":43.2816,"lon":5.42605,"is_reserved":false,"is_disabled":false,"rental_uris":{"android":"levelo://app?vid=095e5291-f842-4478-bc34-3769cd441c0c","ios":"levelo://app?vid=095e5291-f842-4478-bc34-3769cd441c0c"},"vehicle_type_id":"4","last_reported":1738530402,"current_range_meters":11600,"station_id":"ce4bhnh2rcd13ifvqgug","pricing_plan_id":"cebpf4jnsgd1na2vs0mg"},{"bike_id":"19ccc093-786b-4a36-b96d-6e1a9fb02f18","system_id":"levelo_inurba_marseille","lat":43.29022,"lon":5.38651,"is_reserved":false,"is_disabled":true,"rental_uris":{"android":"levelo://app?vid=19ccc093-786b-4a36-b96d-6e1a9fb02f18","ios":"levelo://app?vid=19ccc093-786b-4a36-b96d-6e1a9fb02f18"},"vehicle_type_id":"4","last_reported":1738530402,"current_range_meters":20000,"station_id":"ce4bh4p2rcd13ifvqe0g","pricing_plan_id":"cebpf4jnsgd1na2vs0mg"},{"bike_id":"9f7cbc3c-6e0b-4442-8c70-64c0b2a1452e","system_id":"levelo_inurba_marseille","lat":43.23062,"lon":5.35492,"is_reserved":false,"is_disabled":false,"rental_uris":{"android":"levelo://app?vid=9f7cbc3c-6e0b-4442-8c70-64c0b2a1452e","ios":"levelo://app?vid=9f7cbc3c-6e0b-4442-8c70-64c0b2a1452e"},"vehicle_type_id":"4","last_reported":1738530402,"current_range_meters":30400,"station_id":"cpo3342slgdg3j2ifvpg","pricing_plan_id":"cebpf4jnsgd1na2vs0mg"},{"bike_id":"1fb2cc5b-f611-4791-9100-5672bb358bcd","system_id":"levelo_inurba_marseille","lat":43.298,"lon":5.40395,"is_reserved":false,"is_disabled":false,"rental_uris":{"android":"levelo://app?vid=1fb2cc5b-f611-4791-9100-5672bb358bcd","ios":"levelo://app?vid=1fb2cc5b-f611-4791-9100-5672bb358bcd"},"vehicle_type_id":"4","last_reported":1738530402,"current_range_meters":32800,"station_id":"ce4bh112rcd13ifvqd90","pricing_plan_id":"cebpf4jnsgd1na2vs0mg"},{"bike_id":"f4615d1e-09f8-4173-8ff0-9e3f6ba2ac4e","system_id":"levelo_inurba_marseille","lat":43.26945,"lon":5.4025,"is_reserved":false,"is_disabled":false,"rental_uris":{"android":"levelo://app?vid=f4615d1e-09f8-4173-8ff0-9e3f6ba2ac4e","ios":"levelo://app?vid=f4615d1e-09f8-4173-8ff0-9e3f6ba2ac4e"},"vehicle_type_id":"4","last_reported":1738530402,"current_range_meters":38800,"station_id":"cjm6bp8fraef2m0cb0m0","pricing_plan_id":"cebpf4jnsgd1na2vs0mg"},{"bike_id":"9191983c-f500-4e34-800a-5c4da4f130cb","system_id":"levelo_inurba_marseille","lat":43.27961,"lon":5.41039,"is_reserved":false,"is_disabled":false,"rental_uris":{"android":"levelo://app?vid=9191983c-f500-4e34-800a-5c4da4f130cb","ios":"levelo://app?vid=9191983c-f500-4e34-800a-5c4da4f130cb"},"vehicle_type_id":"4","last_reported":1738530402,"current_range_meters":30400,"station_id":"ce4bhnp2rcd13ifvqh0g","pricing_plan_id":"cebpf4jnsgd1na2vs0mg"},{"bike_id":"7641f6f7-5789-4ada-aa28-ef549475b41d","system_id":"levelo_inurba_marseille","lat":43.309,"lon":5.36864,"is_reserved":false,"is_disabled":false,"rental_uris":{"android":"levelo://app?vid=7641f6f7-5789-4ada-aa28-ef549475b41d","ios":"levelo://app?vid=7641f6f7-5789-4ada-aa28-ef549475b41d"},"vehicle_type_id":"4","last_reported":1738530402,"current_range_meters":20800,"station_id":"ce4bgn92rcd13ifvqbvg","pricing_plan_id":"cebpf4jnsgd1na2vs0mg"},{"bike_id":"5d3d48eb-8943-4860-811c-f3d541ae7f2e","system_id":"levelo_inurba_marseille","lat":43.27329,"lon":5.39124,"is_reserved":false,"is_disabled":false,"rental_uris":{"android":"levelo://app?vid=5d3d48eb-8943-4860-811c-f3d541ae7f2e","ios":"levelo://app?vid=5d3d48eb-8943-4860-811c-f3d541ae7f2e"},"vehicle_type_id":"4","last_reported":1738530402,"current_range_meters":25600,"station_id":"ce4bhgp2rcd13ifvqfe0","pricing_plan_id":"cebpf4jnsgd1na2vs0mg"},{"bike_id":"2109f530-6ce0-453e-8095-69986fcb96bd","system_id":"levelo_inurba_marseille","lat":43.27361,"lon":5.39097,"is_reserved":false,"is_disabled":false,"rental_uris":{"android":"levelo://app?vid=2109f530-6ce0-453e-8095-69986fcb96bd","ios":"levelo://app?vid=2109f530-6ce0-453e-8095-69986fcb96bd"},"vehicle_type_id":"4","last_reported":1738530402,"current_range_meters":24800,"station_id":"ce4bhgp2rcd13ifvqfe0","pricing_plan_id":"cebpf4jnsgd1na2vs0mg"},{"bike_id":"d1d9fbfa-01e5-46a6-9772-86d55833a58d","system_id":"levelo_inurba_marseille","lat":43.29868,"lon":5.3891,"is_reserved":false,"is_disabled":false,"rental_uris":{"android":"levelo://app?vid=d1d9fbfa-01e5-46a6-9772-86d55833a58d","ios":"levelo://app?vid=d1d9fbfa-01e5-46a6-9772-86d55833a58d"},"vehicle_type_id":"4","last_reported":1738530402,"current_range_meters":22800,"station_id":"ce4bh392rcd13ifvqdl0","pricing_plan_id":"cebpf4jnsgd1na2vs0mg"},{"bike_id":"009481ab-0e53-43f1-b7f5-d6efc34e922b","system_id":"levelo_inurba_marseille","lat":43.27321,"lon":5.39114,"is_reserved":false,"is_disabled":false,"rental_uris":{"android":"levelo://app?vid=009481ab-0e53-43f1-b7f5-d6efc34e922b","ios":"levelo://app?vid=009481ab-0e53-43f1-b7f5-d6efc34e922b"},"vehicle_type_id":"4","last_reported":1738530402,"current_range_meters":36000,"station_id":"ce4bhgp2rcd13ifvqfe0","pricing_plan_id":"cebpf4jnsgd1na2vs0mg"},{"bike_id":"4ce0c14b-de3f-4e94-bda0-a25e3fbe5d01","system_id":"levelo_inurba_marseille","lat":43.24074,"lon":5.3777,"is_reserved":false,"is_disabled":false,"rental_uris":{"android":"levelo://app?vid=4ce0c14b-de3f-4e94-bda0-a25e3fbe5d01","ios":"levelo://app?vid=4ce0c14b-de3f-4e94-bda0-a25e3fbe5d01"},"vehicle_type_id":"4","last_reported":1738530402,"current_range_meters":38800,"station_id":"ce4bhnp2rcd13ifvqgvg","pricing_plan_id":"cebpf4jnsgd1na2vs0mg"},{"bike_id":"75a1eac8-9a2e-4159-ac6a-ffd65d7d822b","system_id":"levelo_inurba_marseille","lat":43.28853,"lon":5.39303,"is_reserved":false,"is_disabled":false,"rental_uris":{"android":"levelo://app?vid=75a1eac8-9a2e-4159-ac6a-ffd65d7d822b","ios":"levelo://app?vid=75a1eac8-9a2e-4159-ac6a-ffd65d7d822b"},"vehicle_type_id":"4","last_reported":1738530402,"current_range_meters":20800,"station_id":"ce4bh2p2rcd13ifvqdi0","pricing_plan_id":"cebpf4jnsgd1na2vs0mg"},{"bike_id":"dd773232-14f8-4629-90e0-a0a3e7ce04f1","system_id":"levelo_inurba_marseille","lat":43.2783,"lon":5.3921,"is_reserved":false,"is_disabled":false,"rental_uris":{"android":"levelo://app?vid=dd773232-14f8-4629-90e0-a0a3e7ce04f1","ios":"levelo://app?vid=dd773232-14f8-4629-90e0-a0a3e7ce04f1"},"vehicle_type_id":"4","last_reported":1738530402,"current_range_meters":17600,"station_id":"ce4bhjp2rcd13ifvqga0","pricing_plan_id":"cebpf4jnsgd1na2vs0mg"},{"bike_id":"af911bb6-9302-4acc-89f4-a24d34172003","system_id":"levelo_inurba_marseille","lat":43.24549,"lon":5.39522,"is_reserved":false,"is_disabled":false,"rental_uris":{"android":"levelo://app?vid=af911bb6-9302-4acc-89f4-a24d34172003","ios":"levelo://app?vid=af911bb6-9302-4acc-89f4-a24d34172003"},"vehicle_type_id":"4","last_reported":1738530402,"current_range_meters":38800,"station_id":"ce4bhlp2rcd13ifvqgjg","pricing_plan_id":"cebpf4jnsgd1na2vs0mg"},{"bike_id":"80b6657e-260b-4c11-8adc-aa6121f4ff89","system_id":"levelo_inurba_marseille","lat":43.29511,"lon":5.39066,"is_reserved":false,"is_disabled":false,"rental_uris":{"android":"levelo://app?vid=80b6657e-260b-4c11-8adc-aa6121f4ff89","ios":"levelo://app?vid=80b6657e-260b-4c11-8adc-aa6121f4ff89"},"vehicle_type_id":"4","last_reported":1738530402,"current_range_meters":38800,"station_id":"ce4bh3p2rcd13ifvqdp0","pricing_plan_id":"cebpf4jnsgd1na2vs0mg"},{"bike_id":"9fd1d072-3a8b-4482-b70f-62cd25efe66f","system_id":"levelo_inurba_marseille","lat":43.28148,"lon":5.42638,"is_reserved":false,"is_disabled":false,"rental_uris":{"android":"levelo://app?vid=9fd1d072-3a8b-4482-b70f-62cd25efe66f","ios":"levelo://app?vid=9fd1d072-3a8b-4482-b70f-62cd25efe66f"},"vehicle_type_id":"4","last_reported":1738530402,"current_range_meters":32400,"station_id":"ce4bhnh2rcd13ifvqgug","pricing_plan_id":"cebpf4jnsgd1na2vs0mg"},{"bike_id":"264745ec-cc9a-436a-9918-46a94a530877","system_id":"levelo_inurba_marseille","lat":43.30886,"lon":5.39657,"is_reserved":false,"is_disabled":false,"rental_uris":{"android":"levelo://app?vid=264745ec-cc9a-436a-9918-46a94a530877","ios":"levelo://app?vid=264745ec-cc9a-436a-9918-46a94a530877"},"vehicle_type_id":"4","last_reported":1738530402,"current_range_meters":8400,"station_id":"ce4bh012rcd13ifvqcv0","pricing_plan_id":"cebpf4jnsgd1na2vs0mg"},{"bike_id":"bd32b8c9-063a-418e-9493-62989c418741","system_id":"levelo_inurba_marseille","lat":43.268021,"lon":5.40268,"is_reserved":false,"is_disabled":false,"rental_uris":{"android":"levelo://app?vid=bd32b8c9-063a-418e-9493-62989c418741","ios":"levelo://app?vid=bd32b8c9-063a-418e-9493-62989c418741"},"vehicle_type_id":"4","last_reported":1738530402,"current_range_meters":5600,"station_id":"ce501612rcd8frsf0b60","pricing_plan_id":"cebpf4jnsgd1na2vs0mg"},{"bike_id":"17296d3c-de23-4082-b7cb-6d15cb3f16ef","system_id":"levelo_inurba_marseille","lat":43.33612,"lon":5.4101,"is_reserved":false,"is_disabled":false,"rental_uris":{"android":"levelo://app?vid=17296d3c-de23-4082-b7cb-6d15cb3f16ef","ios":"levelo://app?vid=17296d3c-de23-4082-b7cb-6d15cb3f16ef"},"vehicle_type_id":"4","last_reported":1738530402,"current_range_meters":20400,"station_id":"ce4bhqh2rcd13ifvqhmg","pricing_plan_id":"cebpf4jnsgd1na2vs0mg"},{"bike_id":"eb7adffc-4f15-4c7c-897d-463c148ed83f","system_id":"levelo_inurba_marseille","lat":43.24084,"lon":5.37747,"is_reserved":false,"is_disabled":false,"rental_uris":{"android":"levelo://app?vid=eb7adffc-4f15-4c7c-897d-463c148ed83f","ios":"levelo://app?vid=eb7adffc-4f15-4c7c-897d-463c148ed83f"},"vehicle_type_id":"4","last_reported":1738530402,"current_range_meters":38800,"station_id":"ce4bhnp2rcd13ifvqgvg","pricing_plan_id":"cebpf4jnsgd1na2vs0mg"},{"bike_id":"5a270969-07d4-4cc7-8572-3c1cac0a5ac6","system_id":"levelo_inurba_marseille","lat":43.31247,"lon":5.37933,"is_reserved":false,"is_disabled":false,"rental_uris":{"android":"levelo://app?vid=5a270969-07d4-4cc7-8572-3c1cac0a5ac6","ios":"levelo://app?vid=5a270969-07d4-4cc7-8572-3c1cac0a5ac6"},"vehicle_type_id":"4","last_reported":1738530402,"current_range_meters":26000,"station_id":"","pricing_plan_id":"cebpf4jnsgd1na2vs0mg"},{"bike_id":"7a38dcdc-5d9e-43ee-9f68-0ac26e180460","system_id":"levelo_inurba_marseille","lat":43.32353,"lon":5.38891,"is_reserved":false,"is_disabled":false,"rental_uris":{"android":"levelo://app?vid=7a38dcdc-5d9e-43ee-9f68-0ac26e180460","ios":"levelo://app?vid=7a38dcdc-5d9e-43ee-9f68-0ac26e180460"},"vehicle_type_id":"4","last_reported":1738530402,"current_range_meters":18800,"station_id":"ce4bhqp2rcd13ifvqhog","pricing_plan_id":"cebpf4jnsgd1na2vs0mg"},{"bike_id":"e67151be-040a-4c39-9f5e-9a6e81664acc","system_id":"levelo_inurba_marseille","lat":43.26057,"lon":5.39394,"is_reserved":false,"is_disabled":true,"rental_uris":{"android":"levelo://app?vid=e67151be-040a-4c39-9f5e-9a6e81664acc","ios":"levelo://app?vid=e67151be-040a-4c39-9f5e-9a6e81664acc"},"vehicle_type_id":"4","last_reported":1738530402,"current_range_meters":1200,"station_id":"ce4bhh92rcd13ifvqfj0","pricing_plan_id":"cebpf4jnsgd1na2vs0mg"},{"bike_id":"07d1d985-af2a-4639-bc01-5419ea2b7b91","system_id":"levelo_inurba_marseille","lat":43.30644,"lon":5.4006,"is_reserved":false,"is_disabled":false,"rental_uris":{"android":"levelo://app?vid=07d1d985-af2a-4639-bc01-5419ea2b7b91","ios":"levelo://app?vid=07d1d985-af2a-4639-bc01-5419ea2b7b91"},"vehicle_type_id":"4","last_reported":1738530402,"current_range_meters":19600,"station_id":"ce4bh112rcd13ifvqda0","pricing_plan_id":"cebpf4jnsgd1na2vs0mg"},{"bike_id":"3e242f84-d04b-4d88-98ae-b0eb705c06e7","system_id":"levelo_inurba_marseille","lat":43.28965,"lon":5.37832,"is_reserved":false,"is_disabled":true,"rental_uris":{"android":"levelo://app?vid=3e242f84-d04b-4d88-98ae-b0eb705c06e7","ios":"levelo://app?vid=3e242f84-d04b-4d88-98ae-b0eb705c06e7"},"vehicle_type_id":"4","last_reported":1738530402,"current_range_meters":38800,"station_id":"ce4bh9p2rcd13ifvqed0","pricing_plan_id":"cebpf4jnsgd1na2vs0mg"},{"bike_id":"c51ba98b-9484-4d66-a893-40418f1c41b6","system_id":"levelo_inurba_marseille","lat":43.29042,"lon":5.35944,"is_reserved":false,"is_disabled":false,"rental_uris":{"android":"levelo://app?vid=c51ba98b-9484-4d66-a893-40418f1c41b6","ios":"levelo://app?vid=c51ba98b-9484-4d66-a893-40418f1c41b6"},"vehicle_type_id":"4","last_reported":1738530402,"current_range_meters":38000,"station_id":"ce4bha92rcd13ifvqeg0","pricing_plan_id":"cebpf4jnsgd1na2vs0mg"},{"bike_id":"dd4b0f16-3ffc-41d7-8f85-366f28230213","system_id":"levelo_inurba_marseille","lat":43.30657,"lon":5.40103,"is_reserved":false,"is_disabled":false,"rental_uris":{"android":"levelo://app?vid=dd4b0f16-3ffc-41d7-8f85-366f28230213","ios":"levelo://app?vid=dd4b0f16-3ffc-41d7-8f85-366f28230213"},"vehicle_type_id":"4","last_reported":1738530402,"current_range_meters":24400,"station_id":"ce4bh112rcd13ifvqda0","pricing_plan_id":"cebpf4jnsgd1na2vs0mg"},{"bike_id":"a0b327c0-3ac5-463e-bc1f-13ada14380a6","system_id":"levelo_inurba_marseille","lat":43.28353,"lon":5.38101,"is_reserved":false,"is_disabled":false,"rental_uris":{"android":"levelo://app?vid=a0b327c0-3ac5-463e-bc1f-13ada14380a6","ios":"levelo://app?vid=a0b327c0-3ac5-463e-bc1f-13ada14380a6"},"vehicle_type_id":"4","last_reported":1738530402,"current_range_meters":36000,"station_id":"ce4bh412rcd13ifvqdr0","pricing_plan_id":"cebpf4jnsgd1na2vs0mg"},{"bike_id":"29e433c5-f86e-40bf-8cf3-374b024916b0","system_id":"levelo_inurba_marseille","lat":43.3229,"lon":5.38254,"is_reserved":false,"is_disabled":false,"rental_uris":{"android":"levelo://app?vid=29e433c5-f86e-40bf-8cf3-374b024916b0","ios":"levelo://app?vid=29e433c5-f86e-40bf-8cf3-374b024916b0"},"vehicle_type_id":"4","last_reported":1738530402,"current_range_meters":37600,"station_id":"ce4bhr12rcd13ifvqhqg","pricing_plan_id":"cebpf4jnsgd1na2vs0mg"},{"bike_id":"06d7ed49-d5bb-4892-a38a-655a0b1ca17a","system_id":"levelo_inurba_marseille","lat":43.29046,"lon":5.38669,"is_reserved":false,"is_disabled":false,"rental_uris":{"android":"levelo://app?vid=06d7ed49-d5bb-4892-a38a-655a0b1ca17a","ios":"levelo://app?vid=06d7ed49-d5bb-4892-a38a-655a0b1ca17a"},"vehicle_type_id":"4","last_reported":1738530402,"current_range_meters":38000,"station_id":"ce4bh4p2rcd13ifvqe0g","pricing_plan_id":"cebpf4jnsgd1na2vs0mg"},{"bike_id":"ccf74bb0-77b5-47a3-91cd-199ac433dec4","system_id":"levelo_inurba_marseille","lat":43.30796,"lon":5.38158,"is_reserved":false,"is_disabled":false,"rental_uris":{"android":"levelo://app?vid=ccf74bb0-77b5-47a3-91cd-199ac433dec4","ios":"levelo://app?vid=ccf74bb0-77b5-47a3-91cd-199ac433dec4"},"vehicle_type_id":"4","last_reported":1738530402,"current_range_meters":38400,"station_id":"ce4bgt12rcd13ifvqce0","pricing_plan_id":"cebpf4jnsgd1na2vs0mg"},{"bike_id":"4d9c1cab-d7bd-4a8e-acde-1919eb11d9e7","system_id":"levelo_inurba_marseille","lat":43.27422,"lon":5.39433,"is_reserved":false,"is_disabled":false,"rental_uris":{"android":"levelo://app?vid=4d9c1cab-d7bd-4a8e-acde-1919eb11d9e7","ios":"levelo://app?vid=4d9c1cab-d7bd-4a8e-acde-1919eb11d9e7"},"vehicle_type_id":"4","last_reported":1738530402,"current_range_meters":24000,"station_id":"ce4bhdp2rcd13ifvqf20","pricing_plan_id":"cebpf4jnsgd1na2vs0mg"},{"bike_id":"84fe84b0-3c78-4909-b6ea-2c4d9b766026","system_id":"levelo_inurba_marseille","lat":43.29543,"lon":5.38555,"is_reserved":false,"is_disabled":true,"rental_uris":{"android":"levelo://app?vid=84fe84b0-3c78-4909-b6ea-2c4d9b766026","ios":"levelo://app?vid=84fe84b0-3c78-4909-b6ea-2c4d9b766026"},"vehicle_type_id":"4","last_reported":1738530402,"current_range_meters":18800,"station_id":"ce4bgih2rcd13ifvqba0","pricing_plan_id":"cebpf4jnsgd1na2vs0mg"},{"bike_id":"a561aae7-6369-4c00-9d68-e8c23562735d","system_id":"levelo_inurba_marseille","lat":43.26559,"lon":5.38979,"is_reserved":false,"is_disabled":true,"rental_uris":{"android":"levelo://app?vid=a561aae7-6369-4c00-9d68-e8c23562735d","ios":"levelo://app?vid=a561aae7-6369-4c00-9d68-e8c23562735d"},"vehicle_type_id":"4","last_reported":1738530402,"current_range_meters":13600,"station_id":"ce4bhe12rcd13ifvqf30","pricing_plan_id":"cebpf4jnsgd1na2vs0mg"},{"bike_id":"2e879a8b-5f42-4b0e-ad93-816481180642","system_id":"levelo_inurba_marseille","lat":43.29308,"lon":5.37167,"is_reserved":false,"is_disabled":false,"rental_uris":{"android":"levelo://app?vid=2e879a8b-5f42-4b0e-ad93-816481180642","ios":"levelo://app?vid=2e879a8b-5f42-4b0e-ad93-816481180642"},"vehicle_type_id":"4","last_reported":1738530402,"current_range_meters":27600,"station_id":"ce4bgh92rcd13ifvqb40","pricing_plan_id":"cebpf4jnsgd1na2vs0mg"},{"bike_id":"61b9bc9c-89cb-4f33-a107-e1d46889ee3d","system_id":"levelo_inurba_marseille","lat":43.28143,"lon":5.42669,"is_reserved":false,"is_disabled":false,"rental_uris":{"android":"levelo://app?vid=61b9bc9c-89cb-4f33-a107-e1d46889ee3d","ios":"levelo://app?vid=61b9bc9c-89cb-4f33-a107-e1d46889ee3d"},"vehicle_type_id":"4","last_reported":1738530402,"current_range_meters":35600,"station_id":"ce4bhnh2rcd13ifvqgug","pricing_plan_id":"cebpf4jnsgd1na2vs0mg"},{"bike_id":"1d3c0a30-0621-46ad-b7c1-d02c6c83e414","system_id":"levelo_inurba_marseille","lat":43.29588,"lon":5.36739,"is_reserved":false,"is_disabled":false,"rental_uris":{"android":"levelo://app?vid=1d3c0a30-0621-46ad-b7c1-d02c6c83e414","ios":"levelo://app?vid=1d3c0a30-0621-46ad-b7c1-d02c6c83e414"},"vehicle_type_id":"4","last_reported":1738530402,"current_range_meters":39200,"station_id":"ce4bgph2rcd13ifvqc2g","pricing_plan_id":"cebpf4jnsgd1na2vs0mg"},{"bike_id":"df529867-8fb8-4604-acc4-9ebee013b41a","system_id":"levelo_inurba_marseille","lat":43.27215,"lon":5.39179,"is_reserved":false,"is_disabled":false,"rental_uris":{"android":"levelo://app?vid=df529867-8fb8-4604-acc4-9ebee013b41a","ios":"levelo://app?vid=df529867-8fb8-4604-acc4-9ebee013b41a"},"vehicle_type_id":"4","last_reported":1738530402,"current_range_meters":25200,"station_id":"ce4bhhp2rcd13ifvqfm0","pricing_plan_id":"cebpf4jnsgd1na2vs0mg"},{"bike_id":"82c6eebf-0519-4b18-a727-88dc1d4c976d","system_id":"levelo_inurba_marseille","lat":43.282751,"lon":5.350663,"is_reserved":false,"is_disabled":true,"rental_uris":{"android":"levelo://app?vid=82c6eebf-0519-4b18-a727-88dc1d4c976d","ios":"levelo://app?vid=82c6eebf-0519-4b18-a727-88dc1d4c976d"},"vehicle_type_id":"4","last_reported":1738530402,"current_range_meters":38800,"station_id":"ce4bhbp2rcd13ifvqerg","pricing_plan_id":"cebpf4jnsgd1na2vs0mg"},{"bike_id":"6da60d9c-131b-4c89-a230-acdf22550cc0","system_id":"levelo_inurba_marseille","lat":43.31148,"lon":5.38722,"is_reserved":false,"is_disabled":false,"rental_uris":{"android":"levelo://app?vid=6da60d9c-131b-4c89-a230-acdf22550cc0","ios":"levelo://app?vid=6da60d9c-131b-4c89-a230-acdf22550cc0"},"vehicle_type_id":"4","last_reported":1738530402,"current_range_meters":26800,"station_id":"ce4bgv12rcd13ifvqcp0","pricing_plan_id":"cebpf4jnsgd1na2vs0mg"},{"bike_id":"3ccd196e-cddd-41f1-8a25-97e7f22947f7","system_id":"levelo_inurba_marseille","lat":43.25096,"lon":5.40321,"is_reserved":false,"is_disabled":true,"rental_uris":{"android":"levelo://app?vid=3ccd196e-cddd-41f1-8a25-97e7f22947f7","ios":"levelo://app?vid=3ccd196e-cddd-41f1-8a25-97e7f22947f7"},"vehicle_type_id":"4","last_reported":1738530402,"current_range_meters":38000,"station_id":"ce4bhlh2rcd13ifvqgig","pricing_plan_id":"cebpf4jnsgd1na2vs0mg"},{"bike_id":"b204300b-808f-43a2-9aa9-be4a9598b23b","system_id":"levelo_inurba_marseille","lat":43.29515,"lon":5.39063,"is_reserved":false,"is_disabled":false,"rental_uris":{"android":"levelo://app?vid=b204300b-808f-43a2-9aa9-be4a9598b23b","ios":"levelo://app?vid=b204300b-808f-43a2-9aa9-be4a9598b23b"},"vehicle_type_id":"4","last_reported":1738530402,"current_range_meters":37600,"station_id":"ce4bh3p2rcd13ifvqdp0","pricing_plan_id":"cebpf4jnsgd1na2vs0mg"},{"bike_id":"14eb7a59-9b20-4e76-b93d-5c9f392068a1","system_id":"levelo_inurba_marseille","lat":43.28151,"lon":5.42636,"is_reserved":false,"is_disabled":false,"rental_uris":{"android":"levelo://app?vid=14eb7a59-9b20-4e76-b93d-5c9f392068a1","ios":"levelo://app?vid=14eb7a59-9b20-4e76-b93d-5c9f392068a1"},"vehicle_type_id":"4","last_reported":1738530402,"current_range_meters":13600,"station_id":"ce4bhnh2rcd13ifvqgug","pricing_plan_id":"cebpf4jnsgd1na2vs0mg"},{"bike_id":"85e818aa-44cc-45e7-a6ae-b3c964bcb6af","system_id":"levelo_inurba_marseille","lat":43.29552,"lon":5.42316,"is_reserved":false,"is_disabled":false,"rental_uris":{"android":"levelo://app?vid=85e818aa-44cc-45e7-a6ae-b3c964bcb6af","ios":"levelo://app?vid=85e818aa-44cc-45e7-a6ae-b3c964bcb6af"},"vehicle_type_id":"4","last_reported":1738530402,"current_range_meters":38800,"station_id":"ce4bhph2rcd13ifvqhdg","pricing_plan_id":"cebpf4jnsgd1na2vs0mg"},{"bike_id":"f99e91c4-2330-4795-bfe7-3495ca9ba92c","system_id":"levelo_inurba_marseille","lat":43.289413,"lon":5.366297,"is_reserved":false,"is_disabled":true,"rental_uris":{"android":"levelo://app?vid=f99e91c4-2330-4795-bfe7-3495ca9ba92c","ios":"levelo://app?vid=f99e91c4-2330-4795-bfe7-3495ca9ba92c"},"vehicle_type_id":"4","last_reported":1738530402,"current_range_meters":27600,"station_id":"ce4bhap2rcd13ifvqek0","pricing_plan_id":"cebpf4jnsgd1na2vs0mg"},{"bike_id":"0f0beca1-cf2c-470b-a1cc-3c6f92df455d","system_id":"levelo_inurba_marseille","lat":43.24661,"lon":5.38208,"is_reserved":false,"is_disabled":false,"rental_uris":{"android":"levelo://app?vid=0f0beca1-cf2c-470b-a1cc-3c6f92df455d","ios":"levelo://app?vid=0f0beca1-cf2c-470b-a1cc-3c6f92df455d"},"vehicle_type_id":"4","last_reported":1738530402,"current_range_meters":8000,"station_id":"ce4bhih2rcd13ifvqfr0","pricing_plan_id":"cebpf4jnsgd1na2vs0mg"},{"bike_id":"0114c706-4449-43bf-8358-f8aca33d39e0","system_id":"levelo_inurba_marseille","lat":43.27316,"lon":5.39071,"is_reserved":false,"is_disabled":false,"rental_uris":{"android":"levelo://app?vid=0114c706-4449-43bf-8358-f8aca33d39e0","ios":"levelo://app?vid=0114c706-4449-43bf-8358-f8aca33d39e0"},"vehicle_type_id":"4","last_reported":1738530402,"current_range_meters":18000,"station_id":"ce4bhgp2rcd13ifvqfe0","pricing_plan_id":"cebpf4jnsgd1na2vs0mg"},{"bike_id":"bf6f6448-ac2a-4aa9-a865-7272995774af","system_id":"levelo_inurba_marseille","lat":43.33021,"lon":5.39046,"is_reserved":false,"is_disabled":false,"rental_uris":{"android":"levelo://app?vid=bf6f6448-ac2a-4aa9-a865-7272995774af","ios":"levelo://app?vid=bf6f6448-ac2a-4aa9-a865-7272995774af"},"vehicle_type_id":"4","last_reported":1738530402,"current_range_meters":38800,"station_id":"ce4bhr92rcd13ifvqhrg","pricing_plan_id":"cebpf4jnsgd1na2vs0mg"},{"bike_id":"2017d996-f52c-4584-a168-e8654a14f503","system_id":"levelo_inurba_marseille","lat":43.2396,"lon":5.36622,"is_reserved":false,"is_disabled":true,"rental_uris":{"android":"levelo://app?vid=2017d996-f52c-4584-a168-e8654a14f503","ios":"levelo://app?vid=2017d996-f52c-4584-a168-e8654a14f503"},"vehicle_type_id":"4","last_reported":1738530402,"current_range_meters":34800,"station_id":"ce4bhi12rcd13ifvqfp0","pricing_plan_id":"cebpf4jnsgd1na2vs0mg"},{"bike_id":"0e5c33a3-6cfe-4b2b-85f7-fb36e652f2a0","system_id":"levelo_inurba_marseille","lat":43.29873,"lon":5.35783,"is_reserved":false,"is_disabled":false,"rental_uris":{"android":"levelo://app?vid=0e5c33a3-6cfe-4b2b-85f7-fb36e652f2a0","ios":"levelo://app?vid=0e5c33a3-6cfe-4b2b-85f7-fb36e652f2a0"},"vehicle_type_id":"4","last_reported":1738530402,"current_range_meters":39200,"station_id":"ce4bhc92rcd13ifvqetg","pricing_plan_id":"cebpf4jnsgd1na2vs0mg"},{"bike_id":"916e5de5-f6a6-41f2-a555-6192d7ce8f14","system_id":"levelo_inurba_marseille","lat":43.267811,"lon":5.394161,"is_reserved":false,"is_disabled":false,"rental_uris":{"android":"levelo://app?vid=916e5de5-f6a6-41f2-a555-6192d7ce8f14","ios":"levelo://app?vid=916e5de5-f6a6-41f2-a555-6192d7ce8f14"},"vehicle_type_id":"4","last_reported":1738530402,"current_range_meters":38800,"station_id":"ce4bhh12rcd13ifvqfg0","pricing_plan_id":"cebpf4jnsgd1na2vs0mg"},{"bike_id":"1421ca3e-5b97-4b26-a16a-40406dd4bb14","system_id":"levelo_inurba_marseille","lat":43.269494,"lon":5.386463,"is_reserved":false,"is_disabled":false,"rental_uris":{"android":"levelo://app?vid=1421ca3e-5b97-4b26-a16a-40406dd4bb14","ios":"levelo://app?vid=1421ca3e-5b97-4b26-a16a-40406dd4bb14"},"vehicle_type_id":"4","last_reported":1738530402,"current_range_meters":27200,"station_id":"ce4bhh92rcd13ifvqfh0","pricing_plan_id":"cebpf4jnsgd1na2vs0mg"},{"bike_id":"0ef83bbd-06ec-47f7-a25d-62aa89428599","system_id":"levelo_inurba_marseille","lat":43.25864,"lon":5.39897,"is_reserved":false,"is_disabled":false,"rental_uris":{"android":"levelo://app?vid=0ef83bbd-06ec-47f7-a25d-62aa89428599","ios":"levelo://app?vid=0ef83bbd-06ec-47f7-a25d-62aa89428599"},"vehicle_type_id":"4","last_reported":1738530402,"current_range_meters":29600,"station_id":"ce4bhl92rcd13ifvqghg","pricing_plan_id":"cebpf4jnsgd1na2vs0mg"},{"bike_id":"51faca83-1fce-414b-97bc-4d0bcda87249","system_id":"levelo_inurba_marseille","lat":43.28264,"lon":5.35065,"is_reserved":false,"is_disabled":false,"rental_uris":{"android":"levelo://app?vid=51faca83-1fce-414b-97bc-4d0bcda87249","ios":"levelo://app?vid=51faca83-1fce-414b-97bc-4d0bcda87249"},"vehicle_type_id":"4","last_reported":1738530402,"current_range_meters":16800,"station_id":"ce4bhbp2rcd13ifvqerg","pricing_plan_id":"cebpf4jnsgd1na2vs0mg"},{"bike_id":"8344a4b9-fe19-4ccf-9e1e-c66810831c8c","system_id":"levelo_inurba_marseille","lat":43.24394,"lon":5.37055,"is_reserved":false,"is_disabled":false,"rental_uris":{"android":"levelo://app?vid=8344a4b9-fe19-4ccf-9e1e-c66810831c8c","ios":"levelo://app?vid=8344a4b9-fe19-4ccf-9e1e-c66810831c8c"},"vehicle_type_id":"4","last_reported":1738530402,"current_range_meters":10000,"station_id":"ce4bhhh2rcd13ifvqfk0","pricing_plan_id":"cebpf4jnsgd1na2vs0mg"},{"bike_id":"776cc8ca-f01e-4676-990d-99f02a854c44","system_id":"levelo_inurba_marseille","lat":43.29278,"lon":5.36836,"is_reserved":false,"is_disabled":false,"rental_uris":{"android":"levelo://app?vid=776cc8ca-f01e-4676-990d-99f02a854c44","ios":"levelo://app?vid=776cc8ca-f01e-4676-990d-99f02a854c44"},"vehicle_type_id":"4","last_reported":1738530402,"current_range_meters":38000,"station_id":"ce4bhbp2rcd13ifvqesg","pricing_plan_id":"cebpf4jnsgd1na2vs0mg"},{"bike_id":"b9c9228a-1d62-494b-80a7-dbffbb3390f6","system_id":"levelo_inurba_marseille","lat":43.33728,"lon":5.3917,"is_reserved":false,"is_disabled":false,"rental_uris":{"android":"levelo://app?vid=b9c9228a-1d62-494b-80a7-dbffbb3390f6","ios":"levelo://app?vid=b9c9228a-1d62-494b-80a7-dbffbb3390f6"},"vehicle_type_id":"4","last_reported":1738530402,"current_range_meters":38400,"station_id":"ce4bhr92rcd13ifvqhsg","pricing_plan_id":"cebpf4jnsgd1na2vs0mg"},{"bike_id":"2047e938-57e3-4375-958a-69a4e97a2c7d","system_id":"levelo_inurba_marseille","lat":43.231917,"lon":5.399914,"is_reserved":false,"is_disabled":true,"rental_uris":{"android":"levelo://app?vid=2047e938-57e3-4375-958a-69a4e97a2c7d","ios":"levelo://app?vid=2047e938-57e3-4375-958a-69a4e97a2c7d"},"vehicle_type_id":"4","last_reported":1738530402,"current_range_meters":4800,"station_id":"ce4bhn12rcd13ifvqgqg","pricing_plan_id":"cebpf4jnsgd1na2vs0mg"},{"bike_id":"bbb23848-1996-4dc9-8bcb-da622ee8ebd9","system_id":"levelo_inurba_marseille","lat":43.26943,"lon":5.40248,"is_reserved":false,"is_disabled":false,"rental_uris":{"android":"levelo://app?vid=bbb23848-1996-4dc9-8bcb-da622ee8ebd9","ios":"levelo://app?vid=bbb23848-1996-4dc9-8bcb-da622ee8ebd9"},"vehicle_type_id":"4","last_reported":1738530402,"current_range_meters":33200,"station_id":"cjm6bp8fraef2m0cb0m0","pricing_plan_id":"cebpf4jnsgd1na2vs0mg"},{"bike_id":"ee5c8a51-ad90-430a-9429-c6f1c8ebd0a4","system_id":"levelo_inurba_marseille","lat":43.26234,"lon":5.37529,"is_reserved":false,"is_disabled":false,"rental_uris":{"android":"levelo://app?vid=ee5c8a51-ad90-430a-9429-c6f1c8ebd0a4","ios":"levelo://app?vid=ee5c8a51-ad90-430a-9429-c6f1c8ebd0a4"},"vehicle_type_id":"4","last_reported":1738530402,"current_range_meters":6800,"station_id":"","pricing_plan_id":"cebpf4jnsgd1na2vs0mg"},{"bike_id":"9e08ca9f-8bd0-444c-b69a-cb263cfb88be","system_id":"levelo_inurba_marseille","lat":43.26557,"lon":5.39008,"is_reserved":false,"is_disabled":true,"rental_uris":{"android":"levelo://app?vid=9e08ca9f-8bd0-444c-b69a-cb263cfb88be","ios":"levelo://app?vid=9e08ca9f-8bd0-444c-b69a-cb263cfb88be"},"vehicle_type_id":"4","last_reported":1738530402,"current_range_meters":32400,"station_id":"ce4bhe12rcd13ifvqf30","pricing_plan_id":"cebpf4jnsgd1na2vs0mg"},{"bike_id":"51651ffb-1b53-4edf-b874-593267cccae6","system_id":"levelo_inurba_marseille","lat":43.27243,"lon":5.39201,"is_reserved":false,"is_disabled":false,"rental_uris":{"android":"levelo://app?vid=51651ffb-1b53-4edf-b874-593267cccae6","ios":"levelo://app?vid=51651ffb-1b53-4edf-b874-593267cccae6"},"vehicle_type_id":"4","last_reported":1738530402,"current_range_meters":39200,"station_id":"ce4bhhp2rcd13ifvqfm0","pricing_plan_id":"cebpf4jnsgd1na2vs0mg"},{"bike_id":"5bfb88bf-b512-4c17-8ead-82e64327b77a","system_id":"levelo_inurba_marseille","lat":43.28296,"lon":5.35079,"is_reserved":false,"is_disabled":false,"rental_uris":{"android":"levelo://app?vid=5bfb88bf-b512-4c17-8ead-82e64327b77a","ios":"levelo://app?vid=5bfb88bf-b512-4c17-8ead-82e64327b77a"},"vehicle_type_id":"4","last_reported":1738530402,"current_range_meters":9600,"station_id":"ce4bhbp2rcd13ifvqerg","pricing_plan_id":"cebpf4jnsgd1na2vs0mg"},{"bike_id":"4f2321b3-b72c-4368-be30-9b405df9d523","system_id":"levelo_inurba_marseille","lat":43.30654,"lon":5.40068,"is_reserved":false,"is_disabled":false,"rental_uris":{"android":"levelo://app?vid=4f2321b3-b72c-4368-be30-9b405df9d523","ios":"levelo://app?vid=4f2321b3-b72c-4368-be30-9b405df9d523"},"vehicle_type_id":"4","last_reported":1738530402,"current_range_meters":25200,"station_id":"ce4bh112rcd13ifvqda0","pricing_plan_id":"cebpf4jnsgd1na2vs0mg"},{"bike_id":"9c8d3e1c-b7c0-4eae-aed0-e731a2483bf8","system_id":"levelo_inurba_marseille","lat":43.30418,"lon":5.41284,"is_reserved":false,"is_disabled":false,"rental_uris":{"android":"levelo://app?vid=9c8d3e1c-b7c0-4eae-aed0-e731a2483bf8","ios":"levelo://app?vid=9c8d3e1c-b7c0-4eae-aed0-e731a2483bf8"},"vehicle_type_id":"4","last_reported":1738530402,"current_range_meters":38800,"station_id":"ce4bhop2rcd13ifvqh8g","pricing_plan_id":"cebpf4jnsgd1na2vs0mg"},{"bike_id":"5193ac84-5b8b-4519-b9bf-865fff08a5b3","system_id":"levelo_inurba_marseille","lat":43.29263,"lon":5.40901,"is_reserved":false,"is_disabled":false,"rental_uris":{"android":"levelo://app?vid=5193ac84-5b8b-4519-b9bf-865fff08a5b3","ios":"levelo://app?vid=5193ac84-5b8b-4519-b9bf-865fff08a5b3"},"vehicle_type_id":"4","last_reported":1738530402,"current_range_meters":38800,"station_id":"ce4bh192rcd13ifvqdc0","pricing_plan_id":"cebpf4jnsgd1na2vs0mg"},{"bike_id":"16985281-bba7-477d-aedc-c19a1619dd25","system_id":"levelo_inurba_marseille","lat":43.26485,"lon":5.39558,"is_reserved":false,"is_disabled":false,"rental_uris":{"android":"levelo://app?vid=16985281-bba7-477d-aedc-c19a1619dd25","ios":"levelo://app?vid=16985281-bba7-477d-aedc-c19a1619dd25"},"vehicle_type_id":"4","last_reported":1738530402,"current_range_meters":39200,"station_id":"ce4bhi12rcd13ifvqfq0","pricing_plan_id":"cebpf4jnsgd1na2vs0mg"},{"bike_id":"461a8c06-47b5-498d-98c2-5799cd485fe6","system_id":"levelo_inurba_marseille","lat":43.24184,"lon":5.39728,"is_reserved":false,"is_disabled":false,"rental_uris":{"android":"levelo://app?vid=461a8c06-47b5-498d-98c2-5799cd485fe6","ios":"levelo://app?vid=461a8c06-47b5-498d-98c2-5799cd485fe6"},"vehicle_type_id":"4","last_reported":1738530402,"current_range_meters":31200,"station_id":"ce4bhn12rcd13ifvqgpg","pricing_plan_id":"cebpf4jnsgd1na2vs0mg"},{"bike_id":"3a60ebc0-dac7-4b3e-a8c5-4699cca32d17","system_id":"levelo_inurba_marseille","lat":43.30822,"lon":5.43538,"is_reserved":false,"is_disabled":false,"rental_uris":{"android":"levelo://app?vid=3a60ebc0-dac7-4b3e-a8c5-4699cca32d17","ios":"levelo://app?vid=3a60ebc0-dac7-4b3e-a8c5-4699cca32d17"},"vehicle_type_id":"4","last_reported":1738530402,"current_range_meters":27600,"station_id":"ce4bhph2rcd13ifvqheg","pricing_plan_id":"cebpf4jnsgd1na2vs0mg"},{"bike_id":"b172b8e9-4750-483c-a5d3-b913bf307f35","system_id":"levelo_inurba_marseille","lat":43.27429,"lon":5.39411,"is_reserved":false,"is_disabled":false,"rental_uris":{"android":"levelo://app?vid=b172b8e9-4750-483c-a5d3-b913bf307f35","ios":"levelo://app?vid=b172b8e9-4750-483c-a5d3-b913bf307f35"},"vehicle_type_id":"4","last_reported":1738530402,"current_range_meters":22000,"station_id":"ce4bhdp2rcd13ifvqf20","pricing_plan_id":"cebpf4jnsgd1na2vs0mg"},{"bike_id":"5c33e9ec-ac2d-41a1-800b-dddc0d3862e2","system_id":"levelo_inurba_marseille","lat":43.30129,"lon":5.38779,"is_reserved":false,"is_disabled":true,"rental_uris":{"android":"levelo://app?vid=5c33e9ec-ac2d-41a1-800b-dddc0d3862e2","ios":"levelo://app?vid=5c33e9ec-ac2d-41a1-800b-dddc0d3862e2"},"vehicle_type_id":"4","last_reported":1738530402,"current_range_meters":32000,"station_id":"ce4bghh2rcd13ifvqb60","pricing_plan_id":"cebpf4jnsgd1na2vs0mg"},{"bike_id":"ae1f2d7b-de27-4377-b66a-521b5432c34d","system_id":"levelo_inurba_marseille","lat":43.2691,"lon":5.40317,"is_reserved":false,"is_disabled":false,"rental_uris":{"android":"levelo://app?vid=ae1f2d7b-de27-4377-b66a-521b5432c34d","ios":"levelo://app?vid=ae1f2d7b-de27-4377-b66a-521b5432c34d"},"vehicle_type_id":"4","last_reported":1738530402,"current_range_meters":16800,"station_id":"","pricing_plan_id":"cebpf4jnsgd1na2vs0mg"},{"bike_id":"55588187-a4ea-4de4-8902-f9455c40bdb2","system_id":"levelo_inurba_marseille","lat":43.32475,"lon":5.36546,"is_reserved":false,"is_disabled":false,"rental_uris":{"android":"levelo://app?vid=55588187-a4ea-4de4-8902-f9455c40bdb2","ios":"levelo://app?vid=55588187-a4ea-4de4-8902-f9455c40bdb2"},"vehicle_type_id":"4","last_reported":1738530402,"current_range_meters":15200,"station_id":"ce4bhs12rcd13ifvqhvg","pricing_plan_id":"cebpf4jnsgd1na2vs0mg"},{"bike_id":"4108bf08-7d40-4563-a503-89a21a97bcec","system_id":"levelo_inurba_marseille","lat":43.29535,"lon":5.39033,"is_reserved":false,"is_disabled":false,"rental_uris":{"android":"levelo://app?vid=4108bf08-7d40-4563-a503-89a21a97bcec","ios":"levelo://app?vid=4108bf08-7d40-4563-a503-89a21a97bcec"},"vehicle_type_id":"4","last_reported":1738530402,"current_range_meters":38800,"station_id":"ce4bh3p2rcd13ifvqdp0","pricing_plan_id":"cebpf4jnsgd1na2vs0mg"},{"bike_id":"bd50d88c-3ad9-4cac-91f7-b6f6829e711f","system_id":"levelo_inurba_marseille","lat":43.28353,"lon":5.38105,"is_reserved":false,"is_disabled":false,"rental_uris":{"android":"levelo://app?vid=bd50d88c-3ad9-4cac-91f7-b6f6829e711f","ios":"levelo://app?vid=bd50d88c-3ad9-4cac-91f7-b6f6829e711f"},"vehicle_type_id":"4","last_reported":1738530402,"current_range_meters":39200,"station_id":"ce4bh412rcd13ifvqdr0","pricing_plan_id":"cebpf4jnsgd1na2vs0mg"},{"bike_id":"f9a8bd69-665c-48a7-ad3c-2e9818255e07","system_id":"levelo_inurba_marseille","lat":43.3248,"lon":5.36568,"is_reserved":false,"is_disabled":false,"rental_uris":{"android":"levelo://app?vid=f9a8bd69-665c-48a7-ad3c-2e9818255e07","ios":"levelo://app?vid=f9a8bd69-665c-48a7-ad3c-2e9818255e07"},"vehicle_type_id":"4","last_reported":1738530402,"current_range_meters":35200,"station_id":"ce4bhs12rcd13ifvqhvg","pricing_plan_id":"cebpf4jnsgd1na2vs0mg"},{"bike_id":"659975b5-0550-47a1-b1f4-06c6d0b11604","system_id":"levelo_inurba_marseille","lat":43.29289,"lon":5.3718,"is_reserved":false,"is_disabled":false,"rental_uris":{"android":"levelo://app?vid=659975b5-0550-47a1-b1f4-06c6d0b11604","ios":"levelo://app?vid=659975b5-0550-47a1-b1f4-06c6d0b11604"},"vehicle_type_id":"4","last_reported":1738530402,"current_range_meters":35600,"station_id":"ce4bgh92rcd13ifvqb40","pricing_plan_id":"cebpf4jnsgd1na2vs0mg"},{"bike_id":"2abf2e04-64f9-454a-a5ce-482f321c0fbc","system_id":"levelo_inurba_marseille","lat":43.296239,"lon":5.377045,"is_reserved":false,"is_disabled":true,"rental_uris":{"android":"levelo://app?vid=2abf2e04-64f9-454a-a5ce-482f321c0fbc","ios":"levelo://app?vid=2abf2e04-64f9-454a-a5ce-482f321c0fbc"},"vehicle_type_id":"4","last_reported":1738530402,"current_range_meters":0,"station_id":"","pricing_plan_id":"cebpf4jnsgd1na2vs0mg"},{"bike_id":"adc7cadc-8a14-4a7b-8dd4-910e8ce609ba","system_id":"levelo_inurba_marseille","lat":43.26947,"lon":5.38649,"is_reserved":false,"is_disabled":false,"rental_uris":{"android":"levelo://app?vid=adc7cadc-8a14-4a7b-8dd4-910e8ce609ba","ios":"levelo://app?vid=adc7cadc-8a14-4a7b-8dd4-910e8ce609ba"},"vehicle_type_id":"4","last_reported":1738530402,"current_range_meters":38000,"station_id":"ce4bhh92rcd13ifvqfh0","pricing_plan_id":"cebpf4jnsgd1na2vs0mg"},{"bike_id":"ab2c796a-c23b-4a3a-9534-777b873d6a05","system_id":"levelo_inurba_marseille","lat":43.24168,"lon":5.36403,"is_reserved":false,"is_disabled":false,"rental_uris":{"android":"levelo://app?vid=ab2c796a-c23b-4a3a-9534-777b873d6a05","ios":"levelo://app?vid=ab2c796a-c23b-4a3a-9534-777b873d6a05"},"vehicle_type_id":"4","last_reported":1738530402,"current_range_meters":27600,"station_id":"cpo36qri1sfpv3e86is0","pricing_plan_id":"cebpf4jnsgd1na2vs0mg"},{"bike_id":"7425f960-9d6f-463d-9f22-8efe90f42224","system_id":"levelo_inurba_marseille","lat":43.28472,"lon":5.38431,"is_reserved":false,"is_disabled":true,"rental_uris":{"android":"levelo://app?vid=7425f960-9d6f-463d-9f22-8efe90f42224","ios":"levelo://app?vid=7425f960-9d6f-463d-9f22-8efe90f42224"},"vehicle_type_id":"4","last_reported":1738530402,"current_range_meters":0,"station_id":"ce4bh512rcd13ifvqe3g","pricing_plan_id":"cebpf4jnsgd1na2vs0mg"},{"bike_id":"00f658b8-d83e-4060-a5c9-dc5560d25140","system_id":"levelo_inurba_marseille","lat":43.31852,"lon":5.37402,"is_reserved":false,"is_disabled":false,"rental_uris":{"android":"levelo://app?vid=00f658b8-d83e-4060-a5c9-dc5560d25140","ios":"levelo://app?vid=00f658b8-d83e-4060-a5c9-dc5560d25140"},"vehicle_type_id":"4","last_reported":1738530402,"current_range_meters":23200,"station_id":"","pricing_plan_id":"cebpf4jnsgd1na2vs0mg"},{"bike_id":"f53b4e60-93bf-4b42-b919-6856aefdbef0","system_id":"levelo_inurba_marseille","lat":43.28482,"lon":5.3839,"is_reserved":false,"is_disabled":false,"rental_uris":{"android":"levelo://app?vid=f53b4e60-93bf-4b42-b919-6856aefdbef0","ios":"levelo://app?vid=f53b4e60-93bf-4b42-b919-6856aefdbef0"},"vehicle_type_id":"4","last_reported":1738530402,"current_range_meters":38800,"station_id":"ce4bh512rcd13ifvqe3g","pricing_plan_id":"cebpf4jnsgd1na2vs0mg"},{"bike_id":"58feef8f-17b5-470d-8151-c7a13f0dbe24","system_id":"levelo_inurba_marseille","lat":43.2841,"lon":5.37501,"is_reserved":false,"is_disabled":true,"rental_uris":{"android":"levelo://app?vid=58feef8f-17b5-470d-8151-c7a13f0dbe24","ios":"levelo://app?vid=58feef8f-17b5-470d-8151-c7a13f0dbe24"},"vehicle_type_id":"4","last_reported":1738530402,"current_range_meters":0,"station_id":"ce4bh412rcd13ifvqds0","pricing_plan_id":"cebpf4jnsgd1na2vs0mg"},{"bike_id":"e6e082fa-fdb2-448a-b26a-b32745ad3bf3","system_id":"levelo_inurba_marseille","lat":43.27498,"lon":5.42457,"is_reserved":false,"is_disabled":false,"rental_uris":{"android":"levelo://app?vid=e6e082fa-fdb2-448a-b26a-b32745ad3bf3","ios":"levelo://app?vid=e6e082fa-fdb2-448a-b26a-b32745ad3bf3"},"vehicle_type_id":"4","last_reported":1738530402,"current_range_meters":39200,"station_id":"ce4bhn92rcd13ifvqgrg","pricing_plan_id":"cebpf4jnsgd1na2vs0mg"},{"bike_id":"04fc5eb4-a063-4a2c-b036-92e07840fc24","system_id":"levelo_inurba_marseille","lat":43.29253,"lon":5.40906,"is_reserved":false,"is_disabled":false,"rental_uris":{"android":"levelo://app?vid=04fc5eb4-a063-4a2c-b036-92e07840fc24","ios":"levelo://app?vid=04fc5eb4-a063-4a2c-b036-92e07840fc24"},"vehicle_type_id":"4","last_reported":1738530402,"current_range_meters":39200,"station_id":"ce4bh192rcd13ifvqdc0","pricing_plan_id":"cebpf4jnsgd1na2vs0mg"},{"bike_id":"0cf4a698-2e15-448e-a8b4-ad8919007f90","system_id":"levelo_inurba_marseille","lat":43.28042,"lon":5.36938,"is_reserved":false,"is_disabled":false,"rental_uris":{"android":"levelo://app?vid=0cf4a698-2e15-448e-a8b4-ad8919007f90","ios":"levelo://app?vid=0cf4a698-2e15-448e-a8b4-ad8919007f90"},"vehicle_type_id":"4","last_reported":1738530402,"current_range_meters":26000,"station_id":"ce4bha12rcd13ifvqef0","pricing_plan_id":"cebpf4jnsgd1na2vs0mg"},{"bike_id":"8d11fe87-f8fe-471d-9034-71b46c4b8b9f","system_id":"levelo_inurba_marseille","lat":43.24647,"lon":5.38151,"is_reserved":false,"is_disabled":false,"rental_uris":{"android":"levelo://app?vid=8d11fe87-f8fe-471d-9034-71b46c4b8b9f","ios":"levelo://app?vid=8d11fe87-f8fe-471d-9034-71b46c4b8b9f"},"vehicle_type_id":"4","last_reported":1738530402,"current_range_meters":28000,"station_id":"ce4bhih2rcd13ifvqfr0","pricing_plan_id":"cebpf4jnsgd1na2vs0mg"},{"bike_id":"41267053-6110-4500-90e2-a931ad5d2b29","system_id":"levelo_inurba_marseille","lat":43.26784,"lon":5.39428,"is_reserved":false,"is_disabled":false,"rental_uris":{"android":"levelo://app?vid=41267053-6110-4500-90e2-a931ad5d2b29","ios":"levelo://app?vid=41267053-6110-4500-90e2-a931ad5d2b29"},"vehicle_type_id":"4","last_reported":1738530402,"current_range_meters":18800,"station_id":"ce4bhh12rcd13ifvqfg0","pricing_plan_id":"cebpf4jnsgd1na2vs0mg"},{"bike_id":"b69743c2-b22e-4135-9a55-ab7140ba08d5","system_id":"levelo_inurba_marseille","lat":43.28621,"lon":5.35121,"is_reserved":false,"is_disabled":true,"rental_uris":{"android":"levelo://app?vid=b69743c2-b22e-4135-9a55-ab7140ba08d5","ios":"levelo://app?vid=b69743c2-b22e-4135-9a55-ab7140ba08d5"},"vehicle_type_id":"4","last_reported":1738530402,"current_range_meters":32800,"station_id":"ce4bhch2rcd13ifvqeug","pricing_plan_id":"cebpf4jnsgd1na2vs0mg"},{"bike_id":"f85aba39-8a5f-4b9b-ae02-5805e5d5b06e","system_id":"levelo_inurba_marseille","lat":43.23057,"lon":5.35488,"is_reserved":false,"is_disabled":false,"rental_uris":{"android":"levelo://app?vid=f85aba39-8a5f-4b9b-ae02-5805e5d5b06e","ios":"levelo://app?vid=f85aba39-8a5f-4b9b-ae02-5805e5d5b06e"},"vehicle_type_id":"4","last_reported":1738530402,"current_range_meters":7200,"station_id":"cpo3342slgdg3j2ifvpg","pricing_plan_id":"cebpf4jnsgd1na2vs0mg"},{"bike_id":"e1d4a2f1-c484-42e0-9232-e98e59dd1624","system_id":"levelo_inurba_marseille","lat":43.2903,"lon":5.38626,"is_reserved":false,"is_disabled":true,"rental_uris":{"android":"levelo://app?vid=e1d4a2f1-c484-42e0-9232-e98e59dd1624","ios":"levelo://app?vid=e1d4a2f1-c484-42e0-9232-e98e59dd1624"},"vehicle_type_id":"4","last_reported":1738530402,"current_range_meters":38800,"station_id":"ce4bh4p2rcd13ifvqe0g","pricing_plan_id":"cebpf4jnsgd1na2vs0mg"},{"bike_id":"f5192a48-f127-416f-ac25-5dcd6cb43014","system_id":"levelo_inurba_marseille","lat":43.31083,"lon":5.42439,"is_reserved":false,"is_disabled":false,"rental_uris":{"android":"levelo://app?vid=f5192a48-f127-416f-ac25-5dcd6cb43014","ios":"levelo://app?vid=f5192a48-f127-416f-ac25-5dcd6cb43014"},"vehicle_type_id":"4","last_reported":1738530402,"current_range_meters":32000,"station_id":"ce4bhp92rcd13ifvqhag","pricing_plan_id":"cebpf4jnsgd1na2vs0mg"},{"bike_id":"8f6df90a-3478-406e-8f84-58ec3c09fbc0","system_id":"levelo_inurba_marseille","lat":43.311201,"lon":5.377723,"is_reserved":false,"is_disabled":false,"rental_uris":{"android":"levelo://app?vid=8f6df90a-3478-406e-8f84-58ec3c09fbc0","ios":"levelo://app?vid=8f6df90a-3478-406e-8f84-58ec3c09fbc0"},"vehicle_type_id":"4","last_reported":1738530402,"current_range_meters":35200,"station_id":"ce4bgt92rcd13ifvqcg0","pricing_plan_id":"cebpf4jnsgd1na2vs0mg"},{"bike_id":"25cfff3b-d26c-47e9-9ce7-57351f253c41","system_id":"levelo_inurba_marseille","lat":43.28466,"lon":5.38415,"is_reserved":false,"is_disabled":false,"rental_uris":{"android":"levelo://app?vid=25cfff3b-d26c-47e9-9ce7-57351f253c41","ios":"levelo://app?vid=25cfff3b-d26c-47e9-9ce7-57351f253c41"},"vehicle_type_id":"4","last_reported":1738530402,"current_range_meters":38000,"station_id":"ce4bh512rcd13ifvqe3g","pricing_plan_id":"cebpf4jnsgd1na2vs0mg"},{"bike_id":"23d7ed63-2931-42c9-8ce6-5a8c1b55e53b","system_id":"levelo_inurba_marseille","lat":43.25082,"lon":5.39491,"is_reserved":false,"is_disabled":false,"rental_uris":{"android":"levelo://app?vid=23d7ed63-2931-42c9-8ce6-5a8c1b55e53b","ios":"levelo://app?vid=23d7ed63-2931-42c9-8ce6-5a8c1b55e53b"},"vehicle_type_id":"4","last_reported":1738530402,"current_range_meters":37600,"station_id":"ce4bhm12rcd13ifvqgkg","pricing_plan_id":"cebpf4jnsgd1na2vs0mg"},{"bike_id":"7d889a26-fe3a-4f0d-993e-b7d2c5a0d3f5","system_id":"levelo_inurba_marseille","lat":43.26815,"lon":5.40272,"is_reserved":false,"is_disabled":false,"rental_uris":{"android":"levelo://app?vid=7d889a26-fe3a-4f0d-993e-b7d2c5a0d3f5","ios":"levelo://app?vid=7d889a26-fe3a-4f0d-993e-b7d2c5a0d3f5"},"vehicle_type_id":"4","last_reported":1738530402,"current_range_meters":38800,"station_id":"ce501612rcd8frsf0b60","pricing_plan_id":"cebpf4jnsgd1na2vs0mg"},{"bike_id":"1343d691-3a05-4016-a7b2-12228ba1a879","system_id":"levelo_inurba_marseille","lat":43.27066,"lon":5.42269,"is_reserved":false,"is_disabled":false,"rental_uris":{"android":"levelo://app?vid=1343d691-3a05-4016-a7b2-12228ba1a879","ios":"levelo://app?vid=1343d691-3a05-4016-a7b2-12228ba1a879"},"vehicle_type_id":"4","last_reported":1738530402,"current_range_meters":26800,"station_id":"ce4bhk92rcd13ifvqgb0","pricing_plan_id":"cebpf4jnsgd1na2vs0mg"},{"bike_id":"02b2bb89-f7bf-489a-903d-e9038c5d9090","system_id":"levelo_inurba_marseille","lat":43.29249,"lon":5.38435,"is_reserved":false,"is_disabled":true,"rental_uris":{"android":"levelo://app?vid=02b2bb89-f7bf-489a-903d-e9038c5d9090","ios":"levelo://app?vid=02b2bb89-f7bf-489a-903d-e9038c5d9090"},"vehicle_type_id":"4","last_reported":1738530402,"current_range_meters":28800,"station_id":"ce4bh692rcd13ifvqea0","pricing_plan_id":"cebpf4jnsgd1na2vs0mg"},{"bike_id":"b321ff38-be2e-4454-a2e0-371e8882e8f4","system_id":"levelo_inurba_marseille","lat":43.29739,"lon":5.37684,"is_reserved":false,"is_disabled":true,"rental_uris":{"android":"levelo://app?vid=b321ff38-be2e-4454-a2e0-371e8882e8f4","ios":"levelo://app?vid=b321ff38-be2e-4454-a2e0-371e8882e8f4"},"vehicle_type_id":"4","last_reported":1738530402,"current_range_meters":1600,"station_id":"ce4bgkh2rcd13ifvqbl0","pricing_plan_id":"cebpf4jnsgd1na2vs0mg"},{"bike_id":"3a18294d-3924-4e1b-b9d8-20d972975f40","system_id":"levelo_inurba_marseille","lat":43.29939,"lon":5.3655,"is_reserved":false,"is_disabled":false,"rental_uris":{"android":"levelo://app?vid=3a18294d-3924-4e1b-b9d8-20d972975f40","ios":"levelo://app?vid=3a18294d-3924-4e1b-b9d8-20d972975f40"},"vehicle_type_id":"4","last_reported":1738530402,"current_range_meters":23200,"station_id":"ce4bgm92rcd13ifvqbr0","pricing_plan_id":"cebpf4jnsgd1na2vs0mg"},{"bike_id":"bed6b53d-ed92-410e-8774-ebf210f3490f","system_id":"levelo_inurba_marseille","lat":43.32661,"lon":5.40978,"is_reserved":false,"is_disabled":false,"rental_uris":{"android":"levelo://app?vid=bed6b53d-ed92-410e-8774-ebf210f3490f","ios":"levelo://app?vid=bed6b53d-ed92-410e-8774-ebf210f3490f"},"vehicle_type_id":"4","last_reported":1738530402,"current_range_meters":36000,"station_id":"ce4bhpp2rcd13ifvqhgg","pricing_plan_id":"cebpf4jnsgd1na2vs0mg"},{"bike_id":"995fc9c5-9cc3-404c-bd94-5898daf1a360","system_id":"levelo_inurba_marseille","lat":43.30891,"lon":5.36874,"is_reserved":false,"is_disabled":true,"rental_uris":{"android":"levelo://app?vid=995fc9c5-9cc3-404c-bd94-5898daf1a360","ios":"levelo://app?vid=995fc9c5-9cc3-404c-bd94-5898daf1a360"},"vehicle_type_id":"4","last_reported":1738530402,"current_range_meters":32400,"station_id":"ce4bgn92rcd13ifvqbvg","pricing_plan_id":"cebpf4jnsgd1na2vs0mg"},{"bike_id":"bed8df55-8232-4631-b910-a7e6e5f8c113","system_id":"levelo_inurba_marseille","lat":43.2693,"lon":5.40251,"is_reserved":false,"is_disabled":false,"rental_uris":{"android":"levelo://app?vid=bed8df55-8232-4631-b910-a7e6e5f8c113","ios":"levelo://app?vid=bed8df55-8232-4631-b910-a7e6e5f8c113"},"vehicle_type_id":"4","last_reported":1738530402,"current_range_meters":20000,"station_id":"cjm6bp8fraef2m0cb0m0","pricing_plan_id":"cebpf4jnsgd1na2vs0mg"},{"bike_id":"826e3589-a544-4de9-b21e-e94631584af1","system_id":"levelo_inurba_marseille","lat":43.29869,"lon":5.39733,"is_reserved":false,"is_disabled":false,"rental_uris":{"android":"levelo://app?vid=826e3589-a544-4de9-b21e-e94631584af1","ios":"levelo://app?vid=826e3589-a544-4de9-b21e-e94631584af1"},"vehicle_type_id":"4","last_reported":1738530402,"current_range_meters":33200,"station_id":"ce4bh0h2rcd13ifvqd50","pricing_plan_id":"cebpf4jnsgd1na2vs0mg"},{"bike_id":"bd6db94f-8ac9-4b47-a990-393bec7cd7d4","system_id":"levelo_inurba_marseille","lat":43.26193,"lon":5.40491,"is_reserved":false,"is_disabled":true,"rental_uris":{"android":"levelo://app?vid=bd6db94f-8ac9-4b47-a990-393bec7cd7d4","ios":"levelo://app?vid=bd6db94f-8ac9-4b47-a990-393bec7cd7d4"},"vehicle_type_id":"4","last_reported":1738530402,"current_range_meters":1200,"station_id":"ce4bhmh2rcd13ifvqgmg","pricing_plan_id":"cebpf4jnsgd1na2vs0mg"},{"bike_id":"7f3deb11-4a86-4abc-ac52-b350249422d1","system_id":"levelo_inurba_marseille","lat":43.27322,"lon":5.39144,"is_reserved":false,"is_disabled":false,"rental_uris":{"android":"levelo://app?vid=7f3deb11-4a86-4abc-ac52-b350249422d1","ios":"levelo://app?vid=7f3deb11-4a86-4abc-ac52-b350249422d1"},"vehicle_type_id":"4","last_reported":1738530402,"current_range_meters":38800,"station_id":"","pricing_plan_id":"cebpf4jnsgd1na2vs0mg"},{"bike_id":"ddd00e95-387d-4687-9b99-27d0e7bf1447","system_id":"levelo_inurba_marseille","lat":43.314514,"lon":5.373813,"is_reserved":false,"is_disabled":true,"rental_uris":{"android":"levelo://app?vid=ddd00e95-387d-4687-9b99-27d0e7bf1447","ios":"levelo://app?vid=ddd00e95-387d-4687-9b99-27d0e7bf1447"},"vehicle_type_id":"4","last_reported":1738530402,"current_range_meters":0,"station_id":"","pricing_plan_id":"cebpf4jnsgd1na2vs0mg"},{"bike_id":"1e4fb263-2fba-4f88-9b2b-9bf396bd5315","system_id":"levelo_inurba_marseille","lat":43.26034,"lon":5.37542,"is_reserved":false,"is_disabled":false,"rental_uris":{"android":"levelo://app?vid=1e4fb263-2fba-4f88-9b2b-9bf396bd5315","ios":"levelo://app?vid=1e4fb263-2fba-4f88-9b2b-9bf396bd5315"},"vehicle_type_id":"4","last_reported":1738530402,"current_range_meters":22800,"station_id":"ce4bhgh2rcd13ifvqfa0","pricing_plan_id":"cebpf4jnsgd1na2vs0mg"},{"bike_id":"0759578c-022e-4212-84c9-2cc2e59945d4","system_id":"levelo_inurba_marseille","lat":43.27178,"lon":5.4099,"is_reserved":false,"is_disabled":false,"rental_uris":{"android":"levelo://app?vid=0759578c-022e-4212-84c9-2cc2e59945d4","ios":"levelo://app?vid=0759578c-022e-4212-84c9-2cc2e59945d4"},"vehicle_type_id":"4","last_reported":1738530402,"current_range_meters":38000,"station_id":"ce4bhl12rcd13ifvqgf0","pricing_plan_id":"cebpf4jnsgd1na2vs0mg"},{"bike_id":"ba1b16dd-09e2-4536-8411-babb750bcb3c","system_id":"levelo_inurba_marseille","lat":43.2319,"lon":5.39996,"is_reserved":false,"is_disabled":true,"rental_uris":{"android":"levelo://app?vid=ba1b16dd-09e2-4536-8411-babb750bcb3c","ios":"levelo://app?vid=ba1b16dd-09e2-4536-8411-babb750bcb3c"},"vehicle_type_id":"4","last_reported":1738530402,"current_range_meters":20000,"station_id":"ce4bhn12rcd13ifvqgqg","pricing_plan_id":"cebpf4jnsgd1na2vs0mg"},{"bike_id":"20029bdd-9f9c-4ff9-86e4-5ba6ed30f46a","system_id":"levelo_inurba_marseille","lat":43.23148,"lon":5.43705,"is_reserved":false,"is_disabled":true,"rental_uris":{"android":"levelo://app?vid=20029bdd-9f9c-4ff9-86e4-5ba6ed30f46a","ios":"levelo://app?vid=20029bdd-9f9c-4ff9-86e4-5ba6ed30f46a"},"vehicle_type_id":"4","last_reported":1738530402,"current_range_meters":0,"station_id":"ce4bhmp2rcd13ifvqgog","pricing_plan_id":"cebpf4jnsgd1na2vs0mg"},{"bike_id":"b5cd905e-5e8b-44aa-a1ae-de8db3929550","system_id":"levelo_inurba_marseille","lat":43.27191,"lon":5.39171,"is_reserved":false,"is_disabled":false,"rental_uris":{"android":"levelo://app?vid=b5cd905e-5e8b-44aa-a1ae-de8db3929550","ios":"levelo://app?vid=b5cd905e-5e8b-44aa-a1ae-de8db3929550"},"vehicle_type_id":"4","last_reported":1738530402,"current_range_meters":39200,"station_id":"ce4bhhp2rcd13ifvqfm0","pricing_plan_id":"cebpf4jnsgd1na2vs0mg"},{"bike_id":"65d01550-2daa-4ae4-9b08-a4f8b2d3bcbe","system_id":"levelo_inurba_marseille","lat":43.33704,"lon":5.39174,"is_reserved":false,"is_disabled":false,"rental_uris":{"android":"levelo://app?vid=65d01550-2daa-4ae4-9b08-a4f8b2d3bcbe","ios":"levelo://app?vid=65d01550-2daa-4ae4-9b08-a4f8b2d3bcbe"},"vehicle_type_id":"4","last_reported":1738530402,"current_range_meters":37600,"station_id":"ce4bhr92rcd13ifvqhsg","pricing_plan_id":"cebpf4jnsgd1na2vs0mg"},{"bike_id":"5523e09a-c725-4c92-a697-a2fee4332f71","system_id":"levelo_inurba_marseille","lat":43.27326,"lon":5.39076,"is_reserved":false,"is_disabled":false,"rental_uris":{"android":"levelo://app?vid=5523e09a-c725-4c92-a697-a2fee4332f71","ios":"levelo://app?vid=5523e09a-c725-4c92-a697-a2fee4332f71"},"vehicle_type_id":"4","last_reported":1738530402,"current_range_meters":16800,"station_id":"ce4bhgp2rcd13ifvqfe0","pricing_plan_id":"cebpf4jnsgd1na2vs0mg"},{"bike_id":"5805abe4-d33a-4c57-986f-3167b5b7a28d","system_id":"levelo_inurba_marseille","lat":43.279114,"lon":5.395864,"is_reserved":false,"is_disabled":true,"rental_uris":{"android":"levelo://app?vid=5805abe4-d33a-4c57-986f-3167b5b7a28d","ios":"levelo://app?vid=5805abe4-d33a-4c57-986f-3167b5b7a28d"},"vehicle_type_id":"4","last_reported":1738530402,"current_range_meters":0,"station_id":"ce4bhf92rcd13ifvqf40","pricing_plan_id":"cebpf4jnsgd1na2vs0mg"},{"bike_id":"1ab3385b-ef01-4ed8-8984-032f740b0888","system_id":"levelo_inurba_marseille","lat":43.26056,"lon":5.39406,"is_reserved":false,"is_disabled":false,"rental_uris":{"android":"levelo://app?vid=1ab3385b-ef01-4ed8-8984-032f740b0888","ios":"levelo://app?vid=1ab3385b-ef01-4ed8-8984-032f740b0888"},"vehicle_type_id":"4","last_reported":1738530402,"current_range_meters":39200,"station_id":"ce4bhh92rcd13ifvqfj0","pricing_plan_id":"cebpf4jnsgd1na2vs0mg"},{"bike_id":"00c2b463-ff28-416c-bdaa-0914555df2d5","system_id":"levelo_inurba_marseille","lat":43.29012,"lon":5.35577,"is_reserved":false,"is_disabled":false,"rental_uris":{"android":"levelo://app?vid=00c2b463-ff28-416c-bdaa-0914555df2d5","ios":"levelo://app?vid=00c2b463-ff28-416c-bdaa-0914555df2d5"},"vehicle_type_id":"4","last_reported":1738530402,"current_range_meters":37600,"station_id":"ce4bhb92rcd13ifvqen0","pricing_plan_id":"cebpf4jnsgd1na2vs0mg"},{"bike_id":"491407c5-a175-44f0-86fc-0f4ccadf82e3","system_id":"levelo_inurba_marseille","lat":43.337444,"lon":5.374475,"is_reserved":false,"is_disabled":true,"rental_uris":{"android":"levelo://app?vid=491407c5-a175-44f0-86fc-0f4ccadf82e3","ios":"levelo://app?vid=491407c5-a175-44f0-86fc-0f4ccadf82e3"},"vehicle_type_id":"4","last_reported":1738530402,"current_range_meters":0,"station_id":"","pricing_plan_id":"cebpf4jnsgd1na2vs0mg"},{"bike_id":"bdf8cf62-3c77-4fc2-8e1b-016e9d866b50","system_id":"levelo_inurba_marseille","lat":43.29538,"lon":5.42292,"is_reserved":false,"is_disabled":false,"rental_uris":{"android":"levelo://app?vid=bdf8cf62-3c77-4fc2-8e1b-016e9d866b50","ios":"levelo://app?vid=bdf8cf62-3c77-4fc2-8e1b-016e9d866b50"},"vehicle_type_id":"4","last_reported":1738530402,"current_range_meters":28800,"station_id":"ce4bhph2rcd13ifvqhdg","pricing_plan_id":"cebpf4jnsgd1na2vs0mg"},{"bike_id":"5e76c452-b731-4d3b-b87a-e4e141db077d","system_id":"levelo_inurba_marseille","lat":43.27915,"lon":5.39582,"is_reserved":false,"is_disabled":false,"rental_uris":{"android":"levelo://app?vid=5e76c452-b731-4d3b-b87a-e4e141db077d","ios":"levelo://app?vid=5e76c452-b731-4d3b-b87a-e4e141db077d"},"vehicle_type_id":"4","last_reported":1738530402,"current_range_meters":17200,"station_id":"ce4bhf92rcd13ifvqf40","pricing_plan_id":"cebpf4jnsgd1na2vs0mg"},{"bike_id":"62c91a34-14db-4d72-ba59-72be1e8cab2c","system_id":"levelo_inurba_marseille","lat":43.25511,"lon":5.37655,"is_reserved":false,"is_disabled":false,"rental_uris":{"android":"levelo://app?vid=62c91a34-14db-4d72-ba59-72be1e8cab2c","ios":"levelo://app?vid=62c91a34-14db-4d72-ba59-72be1e8cab2c"},"vehicle_type_id":"4","last_reported":1738530402,"current_range_meters":37600,"station_id":"ce4bhh12rcd13ifvqff0","pricing_plan_id":"cebpf4jnsgd1na2vs0mg"},{"bike_id":"4a7af680-8a77-45cb-85cc-9f0a7f33be68","system_id":"levelo_inurba_marseille","lat":43.29826,"lon":5.40427,"is_reserved":false,"is_disabled":true,"rental_uris":{"android":"levelo://app?vid=4a7af680-8a77-45cb-85cc-9f0a7f33be68","ios":"levelo://app?vid=4a7af680-8a77-45cb-85cc-9f0a7f33be68"},"vehicle_type_id":"4","last_reported":1738530402,"current_range_meters":25600,"station_id":"ce4bh112rcd13ifvqd90","pricing_plan_id":"cebpf4jnsgd1na2vs0mg"},{"bike_id":"4eee6b0f-a3e9-4398-8a9c-f47c5bcf31f8","system_id":"levelo_inurba_marseille","lat":43.2955,"lon":5.42278,"is_reserved":false,"is_disabled":false,"rental_uris":{"android":"levelo://app?vid=4eee6b0f-a3e9-4398-8a9c-f47c5bcf31f8","ios":"levelo://app?vid=4eee6b0f-a3e9-4398-8a9c-f47c5bcf31f8"},"vehicle_type_id":"4","last_reported":1738530402,"current_range_meters":18800,"station_id":"ce4bhph2rcd13ifvqhdg","pricing_plan_id":"cebpf4jnsgd1na2vs0mg"},{"bike_id":"99c1e446-17f6-4977-ab02-37cf2dc4140e","system_id":"levelo_inurba_marseille","lat":43.24165,"lon":5.36406,"is_reserved":false,"is_disabled":false,"rental_uris":{"android":"levelo://app?vid=99c1e446-17f6-4977-ab02-37cf2dc4140e","ios":"levelo://app?vid=99c1e446-17f6-4977-ab02-37cf2dc4140e"},"vehicle_type_id":"4","last_reported":1738530402,"current_range_meters":33600,"station_id":"cpo36qri1sfpv3e86is0","pricing_plan_id":"cebpf4jnsgd1na2vs0mg"},{"bike_id":"0b439ceb-bbef-470b-b522-3e20f798d948","system_id":"levelo_inurba_marseille","lat":43.29096,"lon":5.38179,"is_reserved":false,"is_disabled":true,"rental_uris":{"android":"levelo://app?vid=0b439ceb-bbef-470b-b522-3e20f798d948","ios":"levelo://app?vid=0b439ceb-bbef-470b-b522-3e20f798d948"},"vehicle_type_id":"4","last_reported":1738530402,"current_range_meters":16400,"station_id":"ce4bh512rcd13ifvqe2g","pricing_plan_id":"cebpf4jnsgd1na2vs0mg"},{"bike_id":"528fe304-774b-4f5e-99b0-3a6df52f7bd5","system_id":"levelo_inurba_marseille","lat":43.266841,"lon":5.3826,"is_reserved":false,"is_disabled":false,"rental_uris":{"android":"levelo://app?vid=528fe304-774b-4f5e-99b0-3a6df52f7bd5","ios":"levelo://app?vid=528fe304-774b-4f5e-99b0-3a6df52f7bd5"},"vehicle_type_id":"4","last_reported":1738530402,"current_range_meters":12800,"station_id":"ce4bhg92rcd13ifvqf90","pricing_plan_id":"cebpf4jnsgd1na2vs0mg"},{"bike_id":"37ba8b6f-005b-42d7-90c2-0c64fb7745e0","system_id":"levelo_inurba_marseille","lat":43.29557,"lon":5.39981,"is_reserved":false,"is_disabled":true,"rental_uris":{"android":"levelo://app?vid=37ba8b6f-005b-42d7-90c2-0c64fb7745e0","ios":"levelo://app?vid=37ba8b6f-005b-42d7-90c2-0c64fb7745e0"},"vehicle_type_id":"4","last_reported":1738530402,"current_range_meters":38800,"station_id":"ce4bh312rcd13ifvqdj0","pricing_plan_id":"cebpf4jnsgd1na2vs0mg"},{"bike_id":"246cfd69-3f92-4e90-aa97-e3988a738d3e","system_id":"levelo_inurba_marseille","lat":43.28676,"lon":5.38667,"is_reserved":false,"is_disabled":true,"rental_uris":{"android":"levelo://app?vid=246cfd69-3f92-4e90-aa97-e3988a738d3e","ios":"levelo://app?vid=246cfd69-3f92-4e90-aa97-e3988a738d3e"},"vehicle_type_id":"4","last_reported":1738530402,"current_range_meters":29600,"station_id":"ce4bh492rcd13ifvqdug","pricing_plan_id":"cebpf4jnsgd1na2vs0mg"},{"bike_id":"f38a9b51-7bc8-4445-89b3-2095fb6b771f","system_id":"levelo_inurba_marseille","lat":43.28679,"lon":5.37387,"is_reserved":false,"is_disabled":true,"rental_uris":{"android":"levelo://app?vid=f38a9b51-7bc8-4445-89b3-2095fb6b771f","ios":"levelo://app?vid=f38a9b51-7bc8-4445-89b3-2095fb6b771f"},"vehicle_type_id":"4","last_reported":1738530402,"current_range_meters":22000,"station_id":"ce4bh3p2rcd13ifvqdq0","pricing_plan_id":"cebpf4jnsgd1na2vs0mg"},{"bike_id":"9960956f-115f-415f-b954-8ef922a7f600","system_id":"levelo_inurba_marseille","lat":43.29283,"lon":5.40143,"is_reserved":false,"is_disabled":false,"rental_uris":{"android":"levelo://app?vid=9960956f-115f-415f-b954-8ef922a7f600","ios":"levelo://app?vid=9960956f-115f-415f-b954-8ef922a7f600"},"vehicle_type_id":"4","last_reported":1738530402,"current_range_meters":29600,"station_id":"ce4bh312rcd13ifvqdk0","pricing_plan_id":"cebpf4jnsgd1na2vs0mg"},{"bike_id":"d4393554-b58a-47b7-8eaa-ea3dde7a5df2","system_id":"levelo_inurba_marseille","lat":43.28727,"lon":5.37925,"is_reserved":false,"is_disabled":false,"rental_uris":{"android":"levelo://app?vid=d4393554-b58a-47b7-8eaa-ea3dde7a5df2","ios":"levelo://app?vid=d4393554-b58a-47b7-8eaa-ea3dde7a5df2"},"vehicle_type_id":"4","last_reported":1738530402,"current_range_meters":31200,"station_id":"ce4bh9p2rcd13ifvqec0","pricing_plan_id":"cebpf4jnsgd1na2vs0mg"},{"bike_id":"280a6fd2-e02b-4f1f-b76f-c469c57691c3","system_id":"levelo_inurba_marseille","lat":43.27986,"lon":5.3998,"is_reserved":false,"is_disabled":false,"rental_uris":{"android":"levelo://app?vid=280a6fd2-e02b-4f1f-b76f-c469c57691c3","ios":"levelo://app?vid=280a6fd2-e02b-4f1f-b76f-c469c57691c3"},"vehicle_type_id":"4","last_reported":1738530402,"current_range_meters":29600,"station_id":"ce4bho92rcd13ifvqh4g","pricing_plan_id":"cebpf4jnsgd1na2vs0mg"},{"bike_id":"0709eaff-334d-4186-a005-1cfe5315afb0","system_id":"levelo_inurba_marseille","lat":43.27674,"lon":5.38885,"is_reserved":false,"is_disabled":false,"rental_uris":{"android":"levelo://app?vid=0709eaff-334d-4186-a005-1cfe5315afb0","ios":"levelo://app?vid=0709eaff-334d-4186-a005-1cfe5315afb0"},"vehicle_type_id":"4","last_reported":1738530402,"current_range_meters":39200,"station_id":"ce4bhi12rcd13ifvqfo0","pricing_plan_id":"cebpf4jnsgd1na2vs0mg"},{"bike_id":"79462eab-c24f-4d59-bd38-eb0744edee12","system_id":"levelo_inurba_marseille","lat":43.2789,"lon":5.38013,"is_reserved":false,"is_disabled":false,"rental_uris":{"android":"levelo://app?vid=79462eab-c24f-4d59-bd38-eb0744edee12","ios":"levelo://app?vid=79462eab-c24f-4d59-bd38-eb0744edee12"},"vehicle_type_id":"4","last_reported":1738530402,"current_range_meters":2800,"station_id":"ce4bhf92rcd13ifvqf50","pricing_plan_id":"cebpf4jnsgd1na2vs0mg"},{"bike_id":"04c970c4-63ce-4120-b27e-ba8d1dd705cb","system_id":"levelo_inurba_marseille","lat":43.28726,"lon":5.361,"is_reserved":false,"is_disabled":false,"rental_uris":{"android":"levelo://app?vid=04c970c4-63ce-4120-b27e-ba8d1dd705cb","ios":"levelo://app?vid=04c970c4-63ce-4120-b27e-ba8d1dd705cb"},"vehicle_type_id":"4","last_reported":1738530402,"current_range_meters":25600,"station_id":"cki0cbj6b192h4jlfktg","pricing_plan_id":"cebpf4jnsgd1na2vs0mg"},{"bike_id":"6dc758d1-7964-46b9-a9a9-11abac76b7de","system_id":"levelo_inurba_marseille","lat":43.24408,"lon":5.37034,"is_reserved":false,"is_disabled":false,"rental_uris":{"android":"levelo://app?vid=6dc758d1-7964-46b9-a9a9-11abac76b7de","ios":"levelo://app?vid=6dc758d1-7964-46b9-a9a9-11abac76b7de"},"vehicle_type_id":"4","last_reported":1738530402,"current_range_meters":29600,"station_id":"ce4bhhh2rcd13ifvqfk0","pricing_plan_id":"cebpf4jnsgd1na2vs0mg"},{"bike_id":"dff2410f-4af5-4630-b92e-ba7b2cac4e8c","system_id":"levelo_inurba_marseille","lat":43.2815,"lon":5.42637,"is_reserved":false,"is_disabled":false,"rental_uris":{"android":"levelo://app?vid=dff2410f-4af5-4630-b92e-ba7b2cac4e8c","ios":"levelo://app?vid=dff2410f-4af5-4630-b92e-ba7b2cac4e8c"},"vehicle_type_id":"4","last_reported":1738530402,"current_range_meters":30800,"station_id":"ce4bhnh2rcd13ifvqgug","pricing_plan_id":"cebpf4jnsgd1na2vs0mg"},{"bike_id":"00bbb5cd-9f74-4c00-94cb-7246c199dfb7","system_id":"levelo_inurba_marseille","lat":43.286165,"lon":5.35104,"is_reserved":false,"is_disabled":true,"rental_uris":{"android":"levelo://app?vid=00bbb5cd-9f74-4c00-94cb-7246c199dfb7","ios":"levelo://app?vid=00bbb5cd-9f74-4c00-94cb-7246c199dfb7"},"vehicle_type_id":"4","last_reported":1738530402,"current_range_meters":0,"station_id":"ce4bhch2rcd13ifvqeug","pricing_plan_id":"cebpf4jnsgd1na2vs0mg"},{"bike_id":"ab4e1438-274f-4ed7-ac4d-8bd3728badb1","system_id":"levelo_inurba_marseille","lat":43.25109,"lon":5.40326,"is_reserved":false,"is_disabled":false,"rental_uris":{"android":"levelo://app?vid=ab4e1438-274f-4ed7-ac4d-8bd3728badb1","ios":"levelo://app?vid=ab4e1438-274f-4ed7-ac4d-8bd3728badb1"},"vehicle_type_id":"4","last_reported":1738530402,"current_range_meters":30000,"station_id":"ce4bhlh2rcd13ifvqgig","pricing_plan_id":"cebpf4jnsgd1na2vs0mg"},{"bike_id":"785d7c7b-9ee6-419c-8415-ff90703fea3d","system_id":"levelo_inurba_marseille","lat":43.31319,"lon":5.36732,"is_reserved":false,"is_disabled":false,"rental_uris":{"android":"levelo://app?vid=785d7c7b-9ee6-419c-8415-ff90703fea3d","ios":"levelo://app?vid=785d7c7b-9ee6-419c-8415-ff90703fea3d"},"vehicle_type_id":"4","last_reported":1738530402,"current_range_meters":39200,"station_id":"ce4bgr92rcd13ifvqc6g","pricing_plan_id":"cebpf4jnsgd1na2vs0mg"},{"bike_id":"9beea162-7f88-4bab-8bc0-de9c6b0cd9ad","system_id":"levelo_inurba_marseille","lat":43.3078,"lon":5.37646,"is_reserved":false,"is_disabled":true,"rental_uris":{"android":"levelo://app?vid=9beea162-7f88-4bab-8bc0-de9c6b0cd9ad","ios":"levelo://app?vid=9beea162-7f88-4bab-8bc0-de9c6b0cd9ad"},"vehicle_type_id":"4","last_reported":1738530402,"current_range_meters":0,"station_id":"ce4bgv92rcd13ifvqcq0","pricing_plan_id":"cebpf4jnsgd1na2vs0mg"},{"bike_id":"6cd661e3-de5d-41f6-b3ff-26fd75ee3741","system_id":"levelo_inurba_marseille","lat":43.28836,"lon":5.39323,"is_reserved":false,"is_disabled":false,"rental_uris":{"android":"levelo://app?vid=6cd661e3-de5d-41f6-b3ff-26fd75ee3741","ios":"levelo://app?vid=6cd661e3-de5d-41f6-b3ff-26fd75ee3741"},"vehicle_type_id":"4","last_reported":1738530402,"current_range_meters":30400,"station_id":"ce4bh2p2rcd13ifvqdi0","pricing_plan_id":"cebpf4jnsgd1na2vs0mg"},{"bike_id":"f4001614-a8f5-4231-b4a5-58ad6a748e23","system_id":"levelo_inurba_marseille","lat":43.29977,"lon":5.41326,"is_reserved":false,"is_disabled":false,"rental_uris":{"android":"levelo://app?vid=f4001614-a8f5-4231-b4a5-58ad6a748e23","ios":"levelo://app?vid=f4001614-a8f5-4231-b4a5-58ad6a748e23"},"vehicle_type_id":"4","last_reported":1738530402,"current_range_meters":8400,"station_id":"ce4bhp12rcd13ifvqh9g","pricing_plan_id":"cebpf4jnsgd1na2vs0mg"},{"bike_id":"896bf2ee-3db6-40db-97f1-44d538bad3af","system_id":"levelo_inurba_marseille","lat":43.27302,"lon":5.39091,"is_reserved":false,"is_disabled":false,"rental_uris":{"android":"levelo://app?vid=896bf2ee-3db6-40db-97f1-44d538bad3af","ios":"levelo://app?vid=896bf2ee-3db6-40db-97f1-44d538bad3af"},"vehicle_type_id":"4","last_reported":1738530402,"current_range_meters":32400,"station_id":"ce4bhgp2rcd13ifvqfe0","pricing_plan_id":"cebpf4jnsgd1na2vs0mg"},{"bike_id":"1f4e4183-ba38-4674-b19d-0c758736fe8e","system_id":"levelo_inurba_marseille","lat":43.25092,"lon":5.39514,"is_reserved":false,"is_disabled":false,"rental_uris":{"android":"levelo://app?vid=1f4e4183-ba38-4674-b19d-0c758736fe8e","ios":"levelo://app?vid=1f4e4183-ba38-4674-b19d-0c758736fe8e"},"vehicle_type_id":"4","last_reported":1738530402,"current_range_meters":24000,"station_id":"ce4bhm12rcd13ifvqgkg","pricing_plan_id":"cebpf4jnsgd1na2vs0mg"},{"bike_id":"7ef8afca-bd41-45d4-ad4d-4c8c9650eebb","system_id":"levelo_inurba_marseille","lat":43.26504,"lon":5.3954,"is_reserved":false,"is_disabled":false,"rental_uris":{"android":"levelo://app?vid=7ef8afca-bd41-45d4-ad4d-4c8c9650eebb","ios":"levelo://app?vid=7ef8afca-bd41-45d4-ad4d-4c8c9650eebb"},"vehicle_type_id":"4","last_reported":1738530402,"current_range_meters":38800,"station_id":"ce4bhi12rcd13ifvqfq0","pricing_plan_id":"cebpf4jnsgd1na2vs0mg"},{"bike_id":"8cd308fb-bbf8-4699-8560-03c431486616","system_id":"levelo_inurba_marseille","lat":43.27299,"lon":5.39107,"is_reserved":false,"is_disabled":false,"rental_uris":{"android":"levelo://app?vid=8cd308fb-bbf8-4699-8560-03c431486616","ios":"levelo://app?vid=8cd308fb-bbf8-4699-8560-03c431486616"},"vehicle_type_id":"4","last_reported":1738530402,"current_range_meters":18000,"station_id":"ce4bhgp2rcd13ifvqfe0","pricing_plan_id":"cebpf4jnsgd1na2vs0mg"},{"bike_id":"fb4cc7a8-e961-4995-96e8-4cbd01ddee0f","system_id":"levelo_inurba_marseille","lat":43.30327,"lon":5.39192,"is_reserved":false,"is_disabled":true,"rental_uris":{"android":"levelo://app?vid=fb4cc7a8-e961-4995-96e8-4cbd01ddee0f","ios":"levelo://app?vid=fb4cc7a8-e961-4995-96e8-4cbd01ddee0f"},"vehicle_type_id":"4","last_reported":1738530402,"current_range_meters":4800,"station_id":"ce4bgkh2rcd13ifvqbk0","pricing_plan_id":"cebpf4jnsgd1na2vs0mg"},{"bike_id":"31ed6c66-ad12-40bc-b75e-f4bd7465a333","system_id":"levelo_inurba_marseille","lat":43.31534,"lon":5.3804,"is_reserved":false,"is_disabled":false,"rental_uris":{"android":"levelo://app?vid=31ed6c66-ad12-40bc-b75e-f4bd7465a333","ios":"levelo://app?vid=31ed6c66-ad12-40bc-b75e-f4bd7465a333"},"vehicle_type_id":"4","last_reported":1738530402,"current_range_meters":37600,"station_id":"ce4bhsp2rcd13ifvqi50","pricing_plan_id":"cebpf4jnsgd1na2vs0mg"},{"bike_id":"a895efa9-50aa-435c-91d1-c119eaf59a54","system_id":"levelo_inurba_marseille","lat":43.26492,"lon":5.39569,"is_reserved":false,"is_disabled":false,"rental_uris":{"android":"levelo://app?vid=a895efa9-50aa-435c-91d1-c119eaf59a54","ios":"levelo://app?vid=a895efa9-50aa-435c-91d1-c119eaf59a54"},"vehicle_type_id":"4","last_reported":1738530402,"current_range_meters":29600,"station_id":"ce4bhi12rcd13ifvqfq0","pricing_plan_id":"cebpf4jnsgd1na2vs0mg"},{"bike_id":"56131ee5-6342-49c1-8177-092ab7838e01","system_id":"levelo_inurba_marseille","lat":43.29874,"lon":5.39738,"is_reserved":false,"is_disabled":false,"rental_uris":{"android":"levelo://app?vid=56131ee5-6342-49c1-8177-092ab7838e01","ios":"levelo://app?vid=56131ee5-6342-49c1-8177-092ab7838e01"},"vehicle_type_id":"4","last_reported":1738530402,"current_range_meters":22400,"station_id":"ce4bh0h2rcd13ifvqd50","pricing_plan_id":"cebpf4jnsgd1na2vs0mg"},{"bike_id":"8e104399-aef2-4f9b-ac7b-a192d80911fa","system_id":"levelo_inurba_marseille","lat":43.26561,"lon":5.39027,"is_reserved":false,"is_disabled":false,"rental_uris":{"android":"levelo://app?vid=8e104399-aef2-4f9b-ac7b-a192d80911fa","ios":"levelo://app?vid=8e104399-aef2-4f9b-ac7b-a192d80911fa"},"vehicle_type_id":"4","last_reported":1738530402,"current_range_meters":36800,"station_id":"ce4bhe12rcd13ifvqf30","pricing_plan_id":"cebpf4jnsgd1na2vs0mg"},{"bike_id":"093ac1ad-aed6-4f26-bc9e-f9dd53f74afd","system_id":"levelo_inurba_marseille","lat":43.31359,"lon":5.367184,"is_reserved":false,"is_disabled":false,"rental_uris":{"android":"levelo://app?vid=093ac1ad-aed6-4f26-bc9e-f9dd53f74afd","ios":"levelo://app?vid=093ac1ad-aed6-4f26-bc9e-f9dd53f74afd"},"vehicle_type_id":"4","last_reported":1738530402,"current_range_meters":29600,"station_id":"ce4bgr92rcd13ifvqc6g","pricing_plan_id":"cebpf4jnsgd1na2vs0mg"},{"bike_id":"e1db3f6a-994b-4903-95e2-43f77febc51f","system_id":"levelo_inurba_marseille","lat":43.29881,"lon":5.38895,"is_reserved":false,"is_disabled":false,"rental_uris":{"android":"levelo://app?vid=e1db3f6a-994b-4903-95e2-43f77febc51f","ios":"levelo://app?vid=e1db3f6a-994b-4903-95e2-43f77febc51f"},"vehicle_type_id":"4","last_reported":1738530402,"current_range_meters":36000,"station_id":"ce4bh392rcd13ifvqdl0","pricing_plan_id":"cebpf4jnsgd1na2vs0mg"},{"bike_id":"c0e7550b-6f33-4fbd-9387-96500956f50a","system_id":"levelo_inurba_marseille","lat":43.29447,"lon":5.39757,"is_reserved":false,"is_disabled":true,"rental_uris":{"android":"levelo://app?vid=c0e7550b-6f33-4fbd-9387-96500956f50a","ios":"levelo://app?vid=c0e7550b-6f33-4fbd-9387-96500956f50a"},"vehicle_type_id":"4","last_reported":1738530402,"current_range_meters":23200,"station_id":"ce4bh3h2rcd13ifvqdo0","pricing_plan_id":"cebpf4jnsgd1na2vs0mg"},{"bike_id":"539446b8-f142-4544-b3f8-09937a320b2e","system_id":"levelo_inurba_marseille","lat":43.31269,"lon":5.40164,"is_reserved":false,"is_disabled":false,"rental_uris":{"android":"levelo://app?vid=539446b8-f142-4544-b3f8-09937a320b2e","ios":"levelo://app?vid=539446b8-f142-4544-b3f8-09937a320b2e"},"vehicle_type_id":"4","last_reported":1738530402,"current_range_meters":25200,"station_id":"ce4bh092rcd13ifvqd30","pricing_plan_id":"cebpf4jnsgd1na2vs0mg"},{"bike_id":"4dc08388-188e-4869-97a8-e70f14c3f63a","system_id":"levelo_inurba_marseille","lat":43.28105,"lon":5.37831,"is_reserved":false,"is_disabled":false,"rental_uris":{"android":"levelo://app?vid=4dc08388-188e-4869-97a8-e70f14c3f63a","ios":"levelo://app?vid=4dc08388-188e-4869-97a8-e70f14c3f63a"},"vehicle_type_id":"4","last_reported":1738530402,"current_range_meters":37600,"station_id":"ce4bha12rcd13ifvqee0","pricing_plan_id":"cebpf4jnsgd1na2vs0mg"},{"bike_id":"51e98b31-1659-413c-a2fd-ad1f5f5b25a8","system_id":"levelo_inurba_marseille","lat":43.30958,"lon":5.3662,"is_reserved":false,"is_disabled":false,"rental_uris":{"android":"levelo://app?vid=51e98b31-1659-413c-a2fd-ad1f5f5b25a8","ios":"levelo://app?vid=51e98b31-1659-413c-a2fd-ad1f5f5b25a8"},"vehicle_type_id":"4","last_reported":1738530402,"current_range_meters":30800,"station_id":"","pricing_plan_id":"cebpf4jnsgd1na2vs0mg"},{"bike_id":"320f17aa-5d3b-45da-a6be-b587cdc1c956","system_id":"levelo_inurba_marseille","lat":43.24176,"lon":5.39728,"is_reserved":false,"is_disabled":false,"rental_uris":{"android":"levelo://app?vid=320f17aa-5d3b-45da-a6be-b587cdc1c956","ios":"levelo://app?vid=320f17aa-5d3b-45da-a6be-b587cdc1c956"},"vehicle_type_id":"4","last_reported":1738530402,"current_range_meters":27600,"station_id":"ce4bhn12rcd13ifvqgpg","pricing_plan_id":"cebpf4jnsgd1na2vs0mg"},{"bike_id":"5e8b7018-e7ad-4d87-8b00-09f8c9411b4c","system_id":"levelo_inurba_marseille","lat":43.30539,"lon":5.36609,"is_reserved":false,"is_disabled":true,"rental_uris":{"android":"levelo://app?vid=5e8b7018-e7ad-4d87-8b00-09f8c9411b4c","ios":"levelo://app?vid=5e8b7018-e7ad-4d87-8b00-09f8c9411b4c"},"vehicle_type_id":"4","last_reported":1738530402,"current_range_meters":37600,"station_id":"ce4bgs12rcd13ifvqcag","pricing_plan_id":"cebpf4jnsgd1na2vs0mg"},{"bike_id":"51965cc3-9798-4a7b-bcc3-095cd11fc890","system_id":"levelo_inurba_marseille","lat":43.29588,"lon":5.36743,"is_reserved":false,"is_disabled":false,"rental_uris":{"android":"levelo://app?vid=51965cc3-9798-4a7b-bcc3-095cd11fc890","ios":"levelo://app?vid=51965cc3-9798-4a7b-bcc3-095cd11fc890"},"vehicle_type_id":"4","last_reported":1738530402,"current_range_meters":27600,"station_id":"ce4bgph2rcd13ifvqc2g","pricing_plan_id":"cebpf4jnsgd1na2vs0mg"},{"bike_id":"e25e7c8d-e943-4d96-8f84-0602de6aff1f","system_id":"levelo_inurba_marseille","lat":43.23152,"lon":5.43719,"is_reserved":false,"is_disabled":true,"rental_uris":{"android":"levelo://app?vid=e25e7c8d-e943-4d96-8f84-0602de6aff1f","ios":"levelo://app?vid=e25e7c8d-e943-4d96-8f84-0602de6aff1f"},"vehicle_type_id":"4","last_reported":1738530402,"current_range_meters":38000,"station_id":"ce4bhmp2rcd13ifvqgog","pricing_plan_id":"cebpf4jnsgd1na2vs0mg"},