{"last_updated":1731139821,"ttl":60,"version":"2.2","data":{"bikes":[{"bike_id":"83d79eb4-b2c8-4660-ab26-9cd7ca20ead1","system_id":"levelo_inurba_marseille","lat":43.30465,"lon":5.37901,"is_reserved":false,"is_disabled":false,"rental_uris":{"android":"levelo://app?vid=83d79eb4-b2c8-4660-ab26-9cd7ca20ead1","ios":"levelo://app?vid=83d79eb4-b2c8-4660-ab26-9cd7ca20ead1"},"vehicle_type_id":"4","last_reported":1731139821,"current_range_meters":36800,"station_id":"ce4bgup2rcd13ifvqcn0","pricing_plan_id":"cebpf4jnsgd1na2vs0mg"},{"bike_id":"e94e2327-9eaf-4d26-bd7f-903afa708be6","system_id":"levelo_inurba_marseille","lat":43.33741,"lon":5.39188,"is_reserved":false,"is_disabled":false,"rental_uris":{"android":"levelo://app?vid=e94e2327-9eaf-4d26-bd7f-903afa708be6","ios":"levelo://app?vid=e94e2327-9eaf-4d26-bd7f-903afa708be6"},"vehicle_type_id":"4","last_reported":1731139821,"current_range_meters":20000,"station_id":"ce4bhr92rcd13ifvqhsg","pricing_plan_id":"cebpf4jnsgd1na2vs0mg"},{"bike_id":"37b18ebd-4aa0-4ca2-bfbb-ac9479701cc7","system_id":"levelo_inurba_marseille","lat":43.28074,"lon":5.3966,"is_reserved":false,"is_disabled":false,"rental_uris":{"android":"levelo://app?vid=37b18ebd-4aa0-4ca2-bfbb-ac9479701cc7","ios":"levelo://app?vid=37b18ebd-4aa0-4ca2-bfbb-ac9479701cc7"},"vehicle_type_id":"4","last_reported":1731139821,"current_range_meters":38800,"station_id":"ce4bho12rcd13ifvqh2g","pricing_plan_id":"cebpf4jnsgd1na2vs0mg"},{"bike_id":"fc2ea1de-5979-4e44-bb10-fb9a06a26d22","system_id":"levelo_inurba_marseille","lat":43.30136,"lon":5.38787,"is_reserved":false,"is_disabled":false,"rental_uris":{"android":"levelo://app?vid=fc2ea1de-5979-4e44-bb10-fb9a06a26d22","ios":"levelo://app?vid=fc2ea1de-5979-4e44-bb10-fb9a06a26d22"},"vehicle_type_id":"4","last_reported":1731139821,"current_range_meters":5600,"station_id":"ce4bghh2rcd13ifvqb60","pricing_plan_id":"cebpf4jnsgd1na2vs0mg"},{"bike_id":"89b8a685-fac9-450e-a70e-342515d21cbe","system_id":"levelo_inurba_marseille","lat":43.27625,"lon":5.42644,"is_reserved":false,"is_disabled":false,"rental_uris":{"android":"levelo://app?vid=89b8a685-fac9-450e-a70e-342515d21cbe","ios":"levelo://app?vid=89b8a685-fac9-450e-a70e-342515d21cbe"},"vehicle_type_id":"4","last_reported":1731139821,"current_range_meters":8800,"station_id":"","pricing_plan_id":"cebpf4jnsgd1na2vs0mg"},{"bike_id":"06bb3e06-6dfc-4c7a-bbfb-aaacb082969f","system_id":"levelo_inurba_marseille","lat":43.251,"lon":5.40328,"is_reserved":false,"is_disabled":false,"rental_uris":{"android":"levelo://app?vid=06bb3e06-6dfc-4c7a-bbfb-aaacb082969f","ios":"levelo://app?vid=06bb3e06-6dfc-4c7a-bbfb-aaacb082969f"},"vehicle_type_id":"4","last_reported":1731139821,"current_range_meters":36000,"station_id":"ce4bhlh2rcd13ifvqgig","pricing_plan_id":"cebpf4jnsgd1na2vs0mg"},{"bike_id":"68bb9078-c705-4e4c-81de-7ae7c7d86c43","system_id":"levelo_inurba_marseille","lat":43.31704,"lon":5.3774,"is_reserved":false,"is_disabled":false,"rental_uris":{"android":"levelo://app?vid=68bb9078-c705-4e4c-81de-7ae7c7d86c43","ios":"levelo://app?vid=68bb9078-c705-4e4c-81de-7ae7c7d86c43"},"vehicle_type_id":"4","last_reported":1731139821,"current_range_meters":29600,"station_id":"ce4bgth2rcd13ifvqch0","pricing_plan_id":"cebpf4jnsgd1na2vs0mg"},{"bike_id":"5d2bed3e-0ab0-4ab1-a9e4-932816fbd03c","system_id":"levelo_inurba_marseille","lat":43.29598,"lon":5.377,"is_reserved":false,"is_disabled":false,"rental_uris":{"android":"levelo://app?vid=5d2bed3e-0ab0-4ab1-a9e4-932816fbd03c","ios":"levelo://app?vid=5d2bed3e-0ab0-4ab1-a9e4-932816fbd03c"},"vehicle_type_id":"4","last_reported":1731139821,"current_range_meters":3200,"station_id":"ce4bgi92rcd13ifvqb90","pricing_plan_id":"cebpf4jnsgd1na2vs0mg"},{"bike_id":"483b8c02-479e-49cc-9cf2-1cbcefdf0321","system_id":"levelo_inurba_marseille","lat":43.28936,"lon":5.39635,"is_reserved":false,"is_disabled":false,"rental_uris":{"android":"levelo://app?vid=483b8c02-479e-49cc-9cf2-1cbcefdf0321","ios":"levelo://app?vid=483b8c02-479e-49cc-9cf2-1cbcefdf0321"},"vehicle_type_id":"4","last_reported":1731139821,"current_range_meters":38800,"station_id":"ce4bh3h2rcd13ifvqdn0","pricing_plan_id":"cebpf4jnsgd1na2vs0mg"},{"bike_id":"0ff4e3e5-5144-4fdb-9afd-d988e88ae58e","system_id":"levelo_inurba_marseille","lat":43.337444,"lon":5.374475,"is_reserved":false,"is_disabled":false,"rental_uris":{"android":"levelo://app?vid=0ff4e3e5-5144-4fdb-9afd-d988e88ae58e","ios":"levelo://app?vid=0ff4e3e5-5144-4fdb-9afd-d988e88ae58e"},"vehicle_type_id":"4","last_reported":1731139821,"current_range_meters":17600,"station_id":"","pricing_plan_id":"cebpf4jnsgd1na2vs0mg"},{"bike_id":"38455bb7-0065-4041-a9c3-aa272a5e026d","system_id":"levelo_inurba_marseille","lat":43.26783,"lon":5.39415,"is_reserved":false,"is_disabled":false,"rental_uris":{"android":"levelo://app?vid=38455bb7-0065-4041-a9c3-aa272a5e026d","ios":"levelo://app?vid=38455bb7-0065-4041-a9c3-aa272a5e026d"},"vehicle_type_id":"4","last_reported":1731139821,"current_range_meters":37600,"station_id":"ce4bhh12rcd13ifvqfg0","pricing_plan_id":"cebpf4jnsgd1na2vs0mg"},{"bike_id":"5b891c8b-4f2b-4707-8f2d-732ad7fa9cd7","system_id":"levelo_inurba_marseille","lat":43.283451,"lon":5.392565,"is_reserved":false,"is_disabled":false,"rental_uris":{"android":"levelo://app?vid=5b891c8b-4f2b-4707-8f2d-732ad7fa9cd7","ios":"levelo://app?vid=5b891c8b-4f2b-4707-8f2d-732ad7fa9cd7"},"vehicle_type_id":"4","last_reported":1731139821,"current_range_meters":24400,"station_id":"ce4bhoh2rcd13ifvqh5g","pricing_plan_id":"cebpf4jnsgd1na2vs0mg"},{"bike_id":"7a636c65-a00f-4211-8190-f94784703ffa","system_id":"levelo_inurba_marseille","lat":43.30597,"lon":5.39367,"is_reserved":false,"is_disabled":false,"rental_uris":{"android":"levelo://app?vid=7a636c65-a00f-4211-8190-f94784703ffa","ios":"levelo://app?vid=7a636c65-a00f-4211-8190-f94784703ffa"},"vehicle_type_id":"4","last_reported":1731139821,"current_range_meters":26000,"station_id":"ce4bh0p2rcd13ifvqd80","pricing_plan_id":"cebpf4jnsgd1na2vs0mg"},{"bike_id":"e899eac6-4691-43b6-92e8-21ecece2b174","system_id":"levelo_inurba_marseille","lat":43.31067,"lon":5.38344,"is_reserved":false,"is_disabled":false,"rental_uris":{"android":"levelo://app?vid=e899eac6-4691-43b6-92e8-21ecece2b174","ios":"levelo://app?vid=e899eac6-4691-43b6-92e8-21ecece2b174"},"vehicle_type_id":"4","last_reported":1731139821,"current_range_meters":24800,"station_id":"ce4bgv92rcd13ifvqcr0","pricing_plan_id":"cebpf4jnsgd1na2vs0mg"},{"bike_id":"f7ccd857-2b8d-4e2b-9365-ccd4a4a85e73","system_id":"levelo_inurba_marseille","lat":43.33609,"lon":5.41024,"is_reserved":false,"is_disabled":false,"rental_uris":{"android":"levelo://app?vid=f7ccd857-2b8d-4e2b-9365-ccd4a4a85e73","ios":"levelo://app?vid=f7ccd857-2b8d-4e2b-9365-ccd4a4a85e73"},"vehicle_type_id":"4","last_reported":1731139821,"current_range_meters":35200,"station_id":"ce4bhqh2rcd13ifvqhmg","pricing_plan_id":"cebpf4jnsgd1na2vs0mg"},{"bike_id":"c06d1949-aba5-4f23-959b-3c05a40c3614","system_id":"levelo_inurba_marseille","lat":43.23196,"lon":5.39986,"is_reserved":false,"is_disabled":false,"rental_uris":{"android":"levelo://app?vid=c06d1949-aba5-4f23-959b-3c05a40c3614","ios":"levelo://app?vid=c06d1949-aba5-4f23-959b-3c05a40c3614"},"vehicle_type_id":"4","last_reported":1731139821,"current_range_meters":28400,"station_id":"ce4bhn12rcd13ifvqgqg","pricing_plan_id":"cebpf4jnsgd1na2vs0mg"},{"bike_id":"7a61aa54-4124-4dcd-858b-db846d80c8c4","system_id":"levelo_inurba_marseille","lat":43.27613,"lon":5.36113,"is_reserved":false,"is_disabled":false,"rental_uris":{"android":"levelo://app?vid=7a61aa54-4124-4dcd-858b-db846d80c8c4","ios":"levelo://app?vid=7a61aa54-4124-4dcd-858b-db846d80c8c4"},"vehicle_type_id":"4","last_reported":1731139821,"current_range_meters":38000,"station_id":"ce4bgj92rcd13ifvqbe0","pricing_plan_id":"cebpf4jnsgd1na2vs0mg"},{"bike_id":"47f73f59-92bf-4d0a-bbe1-cd40ee33ef90","system_id":"levelo_inurba_marseille","lat":43.30594,"lon":5.37238,"is_reserved":false,"is_disabled":false,"rental_uris":{"android":"levelo://app?vid=47f73f59-92bf-4d0a-bbe1-cd40ee33ef90","ios":"levelo://app?vid=47f73f59-92bf-4d0a-bbe1-cd40ee33ef90"},"vehicle_type_id":"4","last_reported":1731139821,"current_range_meters":19200,"station_id":"ce4bgqh2rcd13ifvqc4g","pricing_plan_id":"cebpf4jnsgd1na2vs0mg"},{"bike_id":"dc11153a-b8c9-452f-bcae-07f76ace4c66","system_id":"levelo_inurba_marseille","lat":43.29734,"lon":5.37679,"is_reserved":false,"is_disabled":false,"rental_uris":{"android":"levelo://app?vid=dc11153a-b8c9-452f-bcae-07f76ace4c66","ios":"levelo://app?vid=dc11153a-b8c9-452f-bcae-07f76ace4c66"},"vehicle_type_id":"4","last_reported":1731139821,"current_range_meters":14400,"station_id":"ce4bgkh2rcd13ifvqbl0","pricing_plan_id":"cebpf4jnsgd1na2vs0mg"},{"bike_id":"ba1c9f38-f669-486e-a9b0-c17e8b452755","system_id":"levelo_inurba_marseille","lat":43.32286,"lon":5.3828,"is_reserved":false,"is_disabled":false,"rental_uris":{"android":"levelo://app?vid=ba1c9f38-f669-486e-a9b0-c17e8b452755","ios":"levelo://app?vid=ba1c9f38-f669-486e-a9b0-c17e8b452755"},"vehicle_type_id":"4","last_reported":1731139821,"current_range_meters":38000,"station_id":"ce4bhr12rcd13ifvqhqg","pricing_plan_id":"cebpf4jnsgd1na2vs0mg"},{"bike_id":"8633134c-958c-4f7d-b9db-bd51e61b5e12","system_id":"levelo_inurba_marseille","lat":43.30953,"lon":5.39047,"is_reserved":false,"is_disabled":false,"rental_uris":{"android":"levelo://app?vid=8633134c-958c-4f7d-b9db-bd51e61b5e12","ios":"levelo://app?vid=8633134c-958c-4f7d-b9db-bd51e61b5e12"},"vehicle_type_id":"4","last_reported":1731139821,"current_range_meters":39200,"station_id":"ce4bgup2rcd13ifvqco0","pricing_plan_id":"cebpf4jnsgd1na2vs0mg"},{"bike_id":"3b9c558b-9567-4c47-aa8d-463860eb3125","system_id":"levelo_inurba_marseille","lat":43.23179,"lon":5.3999,"is_reserved":false,"is_disabled":false,"rental_uris":{"android":"levelo://app?vid=3b9c558b-9567-4c47-aa8d-463860eb3125","ios":"levelo://app?vid=3b9c558b-9567-4c47-aa8d-463860eb3125"},"vehicle_type_id":"4","last_reported":1731139821,"current_range_meters":30000,"station_id":"ce4bhn12rcd13ifvqgqg","pricing_plan_id":"cebpf4jnsgd1na2vs0mg"},{"bike_id":"2fd6dc22-dc4f-436f-8f09-ea747d8c2aa2","system_id":"levelo_inurba_marseille","lat":43.23959,"lon":5.36637,"is_reserved":false,"is_disabled":false,"rental_uris":{"android":"levelo://app?vid=2fd6dc22-dc4f-436f-8f09-ea747d8c2aa2","ios":"levelo://app?vid=2fd6dc22-dc4f-436f-8f09-ea747d8c2aa2"},"vehicle_type_id":"4","last_reported":1731139821,"current_range_meters":38800,"station_id":"ce4bhi12rcd13ifvqfp0","pricing_plan_id":"cebpf4jnsgd1na2vs0mg"},{"bike_id":"6594c98a-8fd8-4336-b010-d0234bc80e12","system_id":"levelo_inurba_marseille","lat":43.30945,"lon":5.39049,"is_reserved":false,"is_disabled":false,"rental_uris":{"android":"levelo://app?vid=6594c98a-8fd8-4336-b010-d0234bc80e12","ios":"levelo://app?vid=6594c98a-8fd8-4336-b010-d0234bc80e12"},"vehicle_type_id":"4","last_reported":1731139821,"current_range_meters":38800,"station_id":"ce4bgup2rcd13ifvqco0","pricing_plan_id":"cebpf4jnsgd1na2vs0mg"},{"bike_id":"a910c771-4dc4-40f5-82c0-74c71fe80f29","system_id":"levelo_inurba_marseille","lat":43.31077,"lon":5.38357,"is_reserved":false,"is_disabled":false,"rental_uris":{"android":"levelo://app?vid=a910c771-4dc4-40f5-82c0-74c71fe80f29","ios":"levelo://app?vid=a910c771-4dc4-40f5-82c0-74c71fe80f29"},"vehicle_type_id":"4","last_reported":1731139821,"current_range_meters":38000,"station_id":"ce4bgv92rcd13ifvqcr0","pricing_plan_id":"cebpf4jnsgd1na2vs0mg"},{"bike_id":"c42a69fe-20ee-45a7-9f50-2554fa199afb","system_id":"levelo_inurba_marseille","lat":43.29249,"lon":5.40908,"is_reserved":false,"is_disabled":false,"rental_uris":{"android":"levelo://app?vid=c42a69fe-20ee-45a7-9f50-2554fa199afb","ios":"levelo://app?vid=c42a69fe-20ee-45a7-9f50-2554fa199afb"},"vehicle_type_id":"4","last_reported":1731139821,"current_range_meters":38000,"station_id":"ce4bh192rcd13ifvqdc0","pricing_plan_id":"cebpf4jnsgd1na2vs0mg"},{"bike_id":"41a3c5f1-221a-4b57-8e6a-888d541e1a20","system_id":"levelo_inurba_marseille","lat":43.24072,"lon":5.3776,"is_reserved":false,"is_disabled":false,"rental_uris":{"android":"levelo://app?vid=41a3c5f1-221a-4b57-8e6a-888d541e1a20","ios":"levelo://app?vid=41a3c5f1-221a-4b57-8e6a-888d541e1a20"},"vehicle_type_id":"4","last_reported":1731139821,"current_range_meters":11200,"station_id":"ce4bhnp2rcd13ifvqgvg","pricing_plan_id":"cebpf4jnsgd1na2vs0mg"},{"bike_id":"b9059161-bc2a-4853-8231-de961bd5f1e7","system_id":"levelo_inurba_marseille","lat":43.33722,"lon":5.39179,"is_reserved":false,"is_disabled":false,"rental_uris":{"android":"levelo://app?vid=b9059161-bc2a-4853-8231-de961bd5f1e7","ios":"levelo://app?vid=b9059161-bc2a-4853-8231-de961bd5f1e7"},"vehicle_type_id":"4","last_reported":1731139821,"current_range_meters":24000,"station_id":"ce4bhr92rcd13ifvqhsg","pricing_plan_id":"cebpf4jnsgd1na2vs0mg"},{"bike_id":"d2763854-cb26-443b-a45b-c72ed6e5657c","system_id":"levelo_inurba_marseille","lat":43.28402,"lon":5.37519,"is_reserved":false,"is_disabled":false,"rental_uris":{"android":"levelo://app?vid=d2763854-cb26-443b-a45b-c72ed6e5657c","ios":"levelo://app?vid=d2763854-cb26-443b-a45b-c72ed6e5657c"},"vehicle_type_id":"4","last_reported":1731139821,"current_range_meters":38800,"station_id":"ce4bh412rcd13ifvqds0","pricing_plan_id":"cebpf4jnsgd1na2vs0mg"},{"bike_id":"b79e420f-d087-498b-acb3-27027e015c5f","system_id":"levelo_inurba_marseille","lat":43.24165,"lon":5.36393,"is_reserved":false,"is_disabled":false,"rental_uris":{"android":"levelo://app?vid=b79e420f-d087-498b-acb3-27027e015c5f","ios":"levelo://app?vid=b79e420f-d087-498b-acb3-27027e015c5f"},"vehicle_type_id":"4","last_reported":1731139821,"current_range_meters":24000,"station_id":"cpo36qri1sfpv3e86is0","pricing_plan_id":"cebpf4jnsgd1na2vs0mg"},{"bike_id":"cbe956e6-5b5d-458e-b470-328e8d9419e6","system_id":"levelo_inurba_marseille","lat":43.28437,"lon":5.39201,"is_reserved":false,"is_disabled":false,"rental_uris":{"android":"levelo://app?vid=cbe956e6-5b5d-458e-b470-328e8d9419e6","ios":"levelo://app?vid=cbe956e6-5b5d-458e-b470-328e8d9419e6"},"vehicle_type_id":"4","last_reported":1731139821,"current_range_meters":14800,"station_id":"ce4bhoh2rcd13ifvqh5g","pricing_plan_id":"cebpf4jnsgd1na2vs0mg"},{"bike_id":"7e085911-1cf4-4268-944f-55a61a2607ac","system_id":"levelo_inurba_marseille","lat":43.298709,"lon":5.397313,"is_reserved":false,"is_disabled":false,"rental_uris":{"android":"levelo://app?vid=7e085911-1cf4-4268-944f-55a61a2607ac","ios":"levelo://app?vid=7e085911-1cf4-4268-944f-55a61a2607ac"},"vehicle_type_id":"4","last_reported":1731139821,"current_range_meters":38800,"station_id":"ce4bgi92rcd13ifvqb90","pricing_plan_id":"cebpf4jnsgd1na2vs0mg"},{"bike_id":"ad97f328-01a3-4ebf-95e7-0cbaf2811fa2","system_id":"levelo_inurba_marseille","lat":43.28803,"lon":5.37341,"is_reserved":false,"is_disabled":false,"rental_uris":{"android":"levelo://app?vid=ad97f328-01a3-4ebf-95e7-0cbaf2811fa2","ios":"levelo://app?vid=ad97f328-01a3-4ebf-95e7-0cbaf2811fa2"},"vehicle_type_id":"4","last_reported":1731139821,"current_range_meters":8000,"station_id":"","pricing_plan_id":"cebpf4jnsgd1na2vs0mg"},{"bike_id":"57fe26b5-ad7a-49c6-92b5-a51d7d925e90","system_id":"levelo_inurba_marseille","lat":43.3054,"lon":5.36549,"is_reserved":false,"is_disabled":false,"rental_uris":{"android":"levelo://app?vid=57fe26b5-ad7a-49c6-92b5-a51d7d925e90","ios":"levelo://app?vid=57fe26b5-ad7a-49c6-92b5-a51d7d925e90"},"vehicle_type_id":"4","last_reported":1731139821,"current_range_meters":40000,"station_id":"ce4bgs12rcd13ifvqcag","pricing_plan_id":"cebpf4jnsgd1na2vs0mg"},{"bike_id":"a5c481b8-423c-49c6-a341-0a8b63eb71ed","system_id":"levelo_inurba_marseille","lat":43.25937,"lon":5.40896,"is_reserved":false,"is_disabled":false,"rental_uris":{"android":"levelo://app?vid=a5c481b8-423c-49c6-a341-0a8b63eb71ed","ios":"levelo://app?vid=a5c481b8-423c-49c6-a341-0a8b63eb71ed"},"vehicle_type_id":"4","last_reported":1731139821,"current_range_meters":16800,"station_id":"ce4bhm92rcd13ifvqglg","pricing_plan_id":"cebpf4jnsgd1na2vs0mg"},{"bike_id":"d0548986-c389-4527-9d88-0be922484fbf","system_id":"levelo_inurba_marseille","lat":43.30646,"lon":5.40077,"is_reserved":false,"is_disabled":false,"rental_uris":{"android":"levelo://app?vid=d0548986-c389-4527-9d88-0be922484fbf","ios":"levelo://app?vid=d0548986-c389-4527-9d88-0be922484fbf"},"vehicle_type_id":"4","last_reported":1731139821,"current_range_meters":12400,"station_id":"ce4bh112rcd13ifvqda0","pricing_plan_id":"cebpf4jnsgd1na2vs0mg"},{"bike_id":"91628a43-65ab-40f6-86ee-9ed6104d49d8","system_id":"levelo_inurba_marseille","lat":43.25107,"lon":5.40321,"is_reserved":false,"is_disabled":false,"rental_uris":{"android":"levelo://app?vid=91628a43-65ab-40f6-86ee-9ed6104d49d8","ios":"levelo://app?vid=91628a43-65ab-40f6-86ee-9ed6104d49d8"},"vehicle_type_id":"4","last_reported":1731139821,"current_range_meters":24800,"station_id":"ce4bhlh2rcd13ifvqgig","pricing_plan_id":"cebpf4jnsgd1na2vs0mg"},{"bike_id":"57b2c5ea-aefb-4caa-81dd-58a201e82514","system_id":"levelo_inurba_marseille","lat":43.24667,"lon":5.38158,"is_reserved":false,"is_disabled":false,"rental_uris":{"android":"levelo://app?vid=57b2c5ea-aefb-4caa-81dd-58a201e82514","ios":"levelo://app?vid=57b2c5ea-aefb-4caa-81dd-58a201e82514"},"vehicle_type_id":"4","last_reported":1731139821,"current_range_meters":8000,"station_id":"ce4bhih2rcd13ifvqfr0","pricing_plan_id":"cebpf4jnsgd1na2vs0mg"},{"bike_id":"f4ef053d-e709-4411-bdd9-de1d0f41e46f","system_id":"levelo_inurba_marseille","lat":43.2293,"lon":5.35375,"is_reserved":false,"is_disabled":false,"rental_uris":{"android":"levelo://app?vid=f4ef053d-e709-4411-bdd9-de1d0f41e46f","ios":"levelo://app?vid=f4ef053d-e709-4411-bdd9-de1d0f41e46f"},"vehicle_type_id":"4","last_reported":1731139821,"current_range_meters":38800,"station_id":"cpo3532slgdg3j2ikp40","pricing_plan_id":"cebpf4jnsgd1na2vs0mg"},{"bike_id":"de81964b-2e50-4eac-8982-a36260f5274c","system_id":"levelo_inurba_marseille","lat":43.297,"lon":5.3663,"is_reserved":false,"is_disabled":false,"rental_uris":{"android":"levelo://app?vid=de81964b-2e50-4eac-8982-a36260f5274c","ios":"levelo://app?vid=de81964b-2e50-4eac-8982-a36260f5274c"},"vehicle_type_id":"4","last_reported":1731139821,"current_range_meters":38800,"station_id":"ce4bgn12rcd13ifvqbt0","pricing_plan_id":"cebpf4jnsgd1na2vs0mg"},{"bike_id":"94c1a05b-4b06-46ae-a5e4-c6962d31b703","system_id":"levelo_inurba_marseille","lat":43.29276,"lon":5.36854,"is_reserved":false,"is_disabled":false,"rental_uris":{"android":"levelo://app?vid=94c1a05b-4b06-46ae-a5e4-c6962d31b703","ios":"levelo://app?vid=94c1a05b-4b06-46ae-a5e4-c6962d31b703"},"vehicle_type_id":"4","last_reported":1731139821,"current_range_meters":30400,"station_id":"ce4bhbp2rcd13ifvqesg","pricing_plan_id":"cebpf4jnsgd1na2vs0mg"},{"bike_id":"ad20ef97-f3f1-429f-bf3d-8188f6252c01","system_id":"levelo_inurba_marseille","lat":43.24805,"lon":5.37457,"is_reserved":false,"is_disabled":false,"rental_uris":{"android":"levelo://app?vid=ad20ef97-f3f1-429f-bf3d-8188f6252c01","ios":"levelo://app?vid=ad20ef97-f3f1-429f-bf3d-8188f6252c01"},"vehicle_type_id":"4","last_reported":1731139821,"current_range_meters":37600,"station_id":"ce4bhgh2rcd13ifvqfb0","pricing_plan_id":"cebpf4jnsgd1na2vs0mg"},{"bike_id":"4e0bce32-7432-4c5e-b651-7a4c54f77f75","system_id":"levelo_inurba_marseille","lat":43.31322,"lon":5.39703,"is_reserved":false,"is_disabled":false,"rental_uris":{"android":"levelo://app?vid=4e0bce32-7432-4c5e-b651-7a4c54f77f75","ios":"levelo://app?vid=4e0bce32-7432-4c5e-b651-7a4c54f77f75"},"vehicle_type_id":"4","last_reported":1731139821,"current_range_meters":38400,"station_id":"ce4bgvp2rcd13ifvqcu0","pricing_plan_id":"cebpf4jnsgd1na2vs0mg"},{"bike_id":"87400346-7dad-4540-98eb-d38a31c15ad0","system_id":"levelo_inurba_marseille","lat":43.25866,"lon":5.399,"is_reserved":false,"is_disabled":false,"rental_uris":{"android":"levelo://app?vid=87400346-7dad-4540-98eb-d38a31c15ad0","ios":"levelo://app?vid=87400346-7dad-4540-98eb-d38a31c15ad0"},"vehicle_type_id":"4","last_reported":1731139821,"current_range_meters":38800,"station_id":"ce4bhl92rcd13ifvqghg","pricing_plan_id":"cebpf4jnsgd1na2vs0mg"},{"bike_id":"82f750ef-4c11-46df-bf3f-eb1ee954f51e","system_id":"levelo_inurba_marseille","lat":43.30887,"lon":5.39644,"is_reserved":false,"is_disabled":false,"rental_uris":{"android":"levelo://app?vid=82f750ef-4c11-46df-bf3f-eb1ee954f51e","ios":"levelo://app?vid=82f750ef-4c11-46df-bf3f-eb1ee954f51e"},"vehicle_type_id":"4","last_reported":1731139821,"current_range_meters":26800,"station_id":"ce4bh012rcd13ifvqcv0","pricing_plan_id":"cebpf4jnsgd1na2vs0mg"},{"bike_id":"8197cb3a-8b68-4ccc-91e3-57c5e2f7415b","system_id":"levelo_inurba_marseille","lat":43.28848,"lon":5.35853,"is_reserved":false,"is_disabled":false,"rental_uris":{"android":"levelo://app?vid=8197cb3a-8b68-4ccc-91e3-57c5e2f7415b","ios":"levelo://app?vid=8197cb3a-8b68-4ccc-91e3-57c5e2f7415b"},"vehicle_type_id":"4","last_reported":1731139821,"current_range_meters":4800,"station_id":"ce4bhb12rcd13ifvqem0","pricing_plan_id":"cebpf4jnsgd1na2vs0mg"},{"bike_id":"ac59b398-a03f-4409-8d13-c4e12f526cfa","system_id":"levelo_inurba_marseille","lat":43.28443,"lon":5.35008,"is_reserved":false,"is_disabled":false,"rental_uris":{"android":"levelo://app?vid=ac59b398-a03f-4409-8d13-c4e12f526cfa","ios":"levelo://app?vid=ac59b398-a03f-4409-8d13-c4e12f526cfa"},"vehicle_type_id":"4","last_reported":1731139821,"current_range_meters":18800,"station_id":"ce4bhbh2rcd13ifvqepg","pricing_plan_id":"cebpf4jnsgd1na2vs0mg"},{"bike_id":"7243fcc8-e91d-49aa-a78b-3d82c9cf3c65","system_id":"levelo_inurba_marseille","lat":43.28601,"lon":5.35091,"is_reserved":false,"is_disabled":false,"rental_uris":{"android":"levelo://app?vid=7243fcc8-e91d-49aa-a78b-3d82c9cf3c65","ios":"levelo://app?vid=7243fcc8-e91d-49aa-a78b-3d82c9cf3c65"},"vehicle_type_id":"4","last_reported":1731139821,"current_range_meters":36000,"station_id":"ce4bhch2rcd13ifvqeug","pricing_plan_id":"cebpf4jnsgd1na2vs0mg"},{"bike_id":"e6db309d-c8fb-4b14-9fce-49afd4b084da","system_id":"levelo_inurba_marseille","lat":43.26193,"lon":5.37444,"is_reserved":false,"is_disabled":false,"rental_uris":{"android":"levelo://app?vid=e6db309d-c8fb-4b14-9fce-49afd4b084da","ios":"levelo://app?vid=e6db309d-c8fb-4b14-9fce-49afd4b084da"},"vehicle_type_id":"4","last_reported":1731139821,"current_range_meters":38800,"station_id":"ce4bhgp2rcd13ifvqfc0","pricing_plan_id":"cebpf4jnsgd1na2vs0mg"},{"bike_id":"fe968521-02e8-4a58-8cea-ea8883a148ca","system_id":"levelo_inurba_marseille","lat":43.27982,"lon":5.38762,"is_reserved":false,"is_disabled":false,"rental_uris":{"android":"levelo://app?vid=fe968521-02e8-4a58-8cea-ea8883a148ca","ios":"levelo://app?vid=fe968521-02e8-4a58-8cea-ea8883a148ca"},"vehicle_type_id":"4","last_reported":1731139821,"current_range_meters":16800,"station_id":"ce4bhg12rcd13ifvqf80","pricing_plan_id":"cebpf4jnsgd1na2vs0mg"},{"bike_id":"b4d6962c-48f0-4bf0-8d16-4194c14b4356","system_id":"levelo_inurba_marseille","lat":43.26214,"lon":5.37442,"is_reserved":false,"is_disabled":false,"rental_uris":{"android":"levelo://app?vid=b4d6962c-48f0-4bf0-8d16-4194c14b4356","ios":"levelo://app?vid=b4d6962c-48f0-4bf0-8d16-4194c14b4356"},"vehicle_type_id":"4","last_reported":1731139821,"current_range_meters":18800,"station_id":"ce4bhgp2rcd13ifvqfc0","pricing_plan_id":"cebpf4jnsgd1na2vs0mg"},{"bike_id":"71bb50a1-6cdb-4a6f-b24c-1cbd7c603ad3","system_id":"levelo_inurba_marseille","lat":43.31429,"lon":5.37397,"is_reserved":false,"is_disabled":false,"rental_uris":{"android":"levelo://app?vid=71bb50a1-6cdb-4a6f-b24c-1cbd7c603ad3","ios":"levelo://app?vid=71bb50a1-6cdb-4a6f-b24c-1cbd7c603ad3"},"vehicle_type_id":"4","last_reported":1731139821,"current_range_meters":28800,"station_id":"","pricing_plan_id":"cebpf4jnsgd1na2vs0mg"},{"bike_id":"895c1bd2-e384-4f22-a95e-ca5003f9b176","system_id":"levelo_inurba_marseille","lat":43.292547,"lon":5.409125,"is_reserved":false,"is_disabled":false,"rental_uris":{"android":"levelo://app?vid=895c1bd2-e384-4f22-a95e-ca5003f9b176","ios":"levelo://app?vid=895c1bd2-e384-4f22-a95e-ca5003f9b176"},"vehicle_type_id":"4","last_reported":1731139821,"current_range_meters":31200,"station_id":"ce4bh192rcd13ifvqdc0","pricing_plan_id":"cebpf4jnsgd1na2vs0mg"},{"bike_id":"c50d863f-ac88-48d7-aaf9-ac94fab87630","system_id":"levelo_inurba_marseille","lat":43.24666,"lon":5.38165,"is_reserved":false,"is_disabled":false,"rental_uris":{"android":"levelo://app?vid=c50d863f-ac88-48d7-aaf9-ac94fab87630","ios":"levelo://app?vid=c50d863f-ac88-48d7-aaf9-ac94fab87630"},"vehicle_type_id":"4","last_reported":1731139821,"current_range_meters":24800,"station_id":"ce4bhih2rcd13ifvqfr0","pricing_plan_id":"cebpf4jnsgd1na2vs0mg"},{"bike_id":"b8fdd341-0697-41ca-82c9-e4253415f4e6","system_id":"levelo_inurba_marseille","lat":43.23058,"lon":5.35491,"is_reserved":false,"is_disabled":false,"rental_uris":{"android":"levelo://app?vid=b8fdd341-0697-41ca-82c9-e4253415f4e6","ios":"levelo://app?vid=b8fdd341-0697-41ca-82c9-e4253415f4e6"},"vehicle_type_id":"4","last_reported":1731139821,"current_range_meters":33200,"station_id":"cpo3342slgdg3j2ifvpg","pricing_plan_id":"cebpf4jnsgd1na2vs0mg"},{"bike_id":"7faac5b2-7950-44fc-8bf7-9b4ebdf98d9a","system_id":"levelo_inurba_marseille","lat":43.303,"lon":5.39215,"is_reserved":false,"is_disabled":false,"rental_uris":{"android":"levelo://app?vid=7faac5b2-7950-44fc-8bf7-9b4ebdf98d9a","ios":"levelo://app?vid=7faac5b2-7950-44fc-8bf7-9b4ebdf98d9a"},"vehicle_type_id":"4","last_reported":1731139821,"current_range_meters":26000,"station_id":"ce4bgkh2rcd13ifvqbk0","pricing_plan_id":"cebpf4jnsgd1na2vs0mg"},{"bike_id":"19f12875-7fba-4ee5-8f71-8f6d79de154c","system_id":"levelo_inurba_marseille","lat":43.30468,"lon":5.37906,"is_reserved":false,"is_disabled":false,"rental_uris":{"android":"levelo://app?vid=19f12875-7fba-4ee5-8f71-8f6d79de154c","ios":"levelo://app?vid=19f12875-7fba-4ee5-8f71-8f6d79de154c"},"vehicle_type_id":"4","last_reported":1731139821,"current_range_meters":35200,"station_id":"ce4bgup2rcd13ifvqcn0","pricing_plan_id":"cebpf4jnsgd1na2vs0mg"},{"bike_id":"32de3e3d-abee-4e70-b60a-941560de9b93","system_id":"levelo_inurba_marseille","lat":43.28274,"lon":5.35077,"is_reserved":false,"is_disabled":false,"rental_uris":{"android":"levelo://app?vid=32de3e3d-abee-4e70-b60a-941560de9b93","ios":"levelo://app?vid=32de3e3d-abee-4e70-b60a-941560de9b93"},"vehicle_type_id":"4","last_reported":1731139821,"current_range_meters":38800,"station_id":"ce4bhbp2rcd13ifvqerg","pricing_plan_id":"cebpf4jnsgd1na2vs0mg"},{"bike_id":"6e2d14fd-eb01-49b5-bd29-aaa82bfcdea8","system_id":"levelo_inurba_marseille","lat":43.30358,"lon":5.41885,"is_reserved":false,"is_disabled":false,"rental_uris":{"android":"levelo://app?vid=6e2d14fd-eb01-49b5-bd29-aaa82bfcdea8","ios":"levelo://app?vid=6e2d14fd-eb01-49b5-bd29-aaa82bfcdea8"},"vehicle_type_id":"4","last_reported":1731139821,"current_range_meters":25200,"station_id":"ce4bhop2rcd13ifvqh7g","pricing_plan_id":"cebpf4jnsgd1na2vs0mg"},{"bike_id":"3263fc76-639a-4100-8bb9-a6d0eab0f830","system_id":"levelo_inurba_marseille","lat":43.28692,"lon":5.37403,"is_reserved":false,"is_disabled":false,"rental_uris":{"android":"levelo://app?vid=3263fc76-639a-4100-8bb9-a6d0eab0f830","ios":"levelo://app?vid=3263fc76-639a-4100-8bb9-a6d0eab0f830"},"vehicle_type_id":"4","last_reported":1731139821,"current_range_meters":31200,"station_id":"ce4bh3p2rcd13ifvqdq0","pricing_plan_id":"cebpf4jnsgd1na2vs0mg"},{"bike_id":"f5d2b441-54fd-4ea8-9ee3-1ca1bc0387aa","system_id":"levelo_inurba_marseille","lat":43.30469,"lon":5.37897,"is_reserved":false,"is_disabled":false,"rental_uris":{"android":"levelo://app?vid=f5d2b441-54fd-4ea8-9ee3-1ca1bc0387aa","ios":"levelo://app?vid=f5d2b441-54fd-4ea8-9ee3-1ca1bc0387aa"},"vehicle_type_id":"4","last_reported":1731139821,"current_range_meters":38800,"station_id":"ce4bgup2rcd13ifvqcn0","pricing_plan_id":"cebpf4jnsgd1na2vs0mg"},{"bike_id":"e2a5e296-45f3-49c6-8566-635a21ef7917","system_id":"levelo_inurba_marseille","lat":43.31171,"lon":5.38717,"is_reserved":false,"is_disabled":false,"rental_uris":{"android":"levelo://app?vid=e2a5e296-45f3-49c6-8566-635a21ef7917","ios":"levelo://app?vid=e2a5e296-45f3-49c6-8566-635a21ef7917"},"vehicle_type_id":"4","last_reported":1731139821,"current_range_meters":36400,"station_id":"ce4bgv12rcd13ifvqcp0","pricing_plan_id":"cebpf4jnsgd1na2vs0mg"},{"bike_id":"b9d0bc02-8b8d-46ee-bb6e-da3b365f1431","system_id":"levelo_inurba_marseille","lat":43.30182,"lon":5.38083,"is_reserved":false,"is_disabled":false,"rental_uris":{"android":"levelo://app?vid=b9d0bc02-8b8d-46ee-bb6e-da3b365f1431","ios":"levelo://app?vid=b9d0bc02-8b8d-46ee-bb6e-da3b365f1431"},"vehicle_type_id":"4","last_reported":1731139821,"current_range_meters":10000,"station_id":"ce4bgjp2rcd13ifvqbh0","pricing_plan_id":"cebpf4jnsgd1na2vs0mg"},{"bike_id":"588ae2e7-ceb1-4b50-897b-b0e068e930a7","system_id":"levelo_inurba_marseille","lat":43.24668,"lon":5.38164,"is_reserved":false,"is_disabled":false,"rental_uris":{"android":"levelo://app?vid=588ae2e7-ceb1-4b50-897b-b0e068e930a7","ios":"levelo://app?vid=588ae2e7-ceb1-4b50-897b-b0e068e930a7"},"vehicle_type_id":"4","last_reported":1731139821,"current_range_meters":16400,"station_id":"ce4bhih2rcd13ifvqfr0","pricing_plan_id":"cebpf4jnsgd1na2vs0mg"},{"bike_id":"8137f581-2393-41d8-a932-f12bb5e1d13d","system_id":"levelo_inurba_marseille","lat":43.29224,"lon":5.36073,"is_reserved":false,"is_disabled":false,"rental_uris":{"android":"levelo://app?vid=8137f581-2393-41d8-a932-f12bb5e1d13d","ios":"levelo://app?vid=8137f581-2393-41d8-a932-f12bb5e1d13d"},"vehicle_type_id":"4","last_reported":1731139821,"current_range_meters":35600,"station_id":"ce4bhbh2rcd13ifvqeqg","pricing_plan_id":"cebpf4jnsgd1na2vs0mg"},{"bike_id":"258b1ef2-2261-4d93-a63b-66c6248265d1","system_id":"levelo_inurba_marseille","lat":43.27215,"lon":5.39189,"is_reserved":false,"is_disabled":false,"rental_uris":{"android":"levelo://app?vid=258b1ef2-2261-4d93-a63b-66c6248265d1","ios":"levelo://app?vid=258b1ef2-2261-4d93-a63b-66c6248265d1"},"vehicle_type_id":"4","last_reported":1731139821,"current_range_meters":33200,"station_id":"ce4bhhp2rcd13ifvqfm0","pricing_plan_id":"cebpf4jnsgd1na2vs0mg"},{"bike_id":"bc9e5d4d-ed87-459e-9d6b-75e21cc6343f","system_id":"levelo_inurba_marseille","lat":43.30418,"lon":5.41281,"is_reserved":false,"is_disabled":false,"rental_uris":{"android":"levelo://app?vid=bc9e5d4d-ed87-459e-9d6b-75e21cc6343f","ios":"levelo://app?vid=bc9e5d4d-ed87-459e-9d6b-75e21cc6343f"},"vehicle_type_id":"4","last_reported":1731139821,"current_range_meters":38800,"station_id":"ce4bhop2rcd13ifvqh8g","pricing_plan_id":"cebpf4jnsgd1na2vs0mg"},{"bike_id":"b04191d0-e2a4-4786-b5cc-65c0b412e928","system_id":"levelo_inurba_marseille","lat":43.30538,"lon":5.36552,"is_reserved":false,"is_disabled":false,"rental_uris":{"android":"levelo://app?vid=b04191d0-e2a4-4786-b5cc-65c0b412e928","ios":"levelo://app?vid=b04191d0-e2a4-4786-b5cc-65c0b412e928"},"vehicle_type_id":"4","last_reported":1731139821,"current_range_meters":20000,"station_id":"ce4bgs12rcd13ifvqcag","pricing_plan_id":"cebpf4jnsgd1na2vs0mg"},{"bike_id":"818293fa-7bab-4548-8e6d-ceefdd2acfe4","system_id":"levelo_inurba_marseille","lat":43.30642,"lon":5.40074,"is_reserved":false,"is_disabled":false,"rental_uris":{"android":"levelo://app?vid=818293fa-7bab-4548-8e6d-ceefdd2acfe4","ios":"levelo://app?vid=818293fa-7bab-4548-8e6d-ceefdd2acfe4"},"vehicle_type_id":"4","last_reported":1731139821,"current_range_meters":18000,"station_id":"ce4bh112rcd13ifvqda0","pricing_plan_id":"cebpf4jnsgd1na2vs0mg"},{"bike_id":"83e58c9a-13a0-474f-9072-9b7376165a15","system_id":"levelo_inurba_marseille","lat":43.3042,"lon":5.41283,"is_reserved":false,"is_disabled":false,"rental_uris":{"android":"levelo://app?vid=83e58c9a-13a0-474f-9072-9b7376165a15","ios":"levelo://app?vid=83e58c9a-13a0-474f-9072-9b7376165a15"},"vehicle_type_id":"4","last_reported":1731139821,"current_range_meters":28000,"station_id":"ce4bhop2rcd13ifvqh8g","pricing_plan_id":"cebpf4jnsgd1na2vs0mg"},{"bike_id":"34d7f694-f7d9-48ee-a86c-62a6193fe373","system_id":"levelo_inurba_marseille","lat":43.30431,"lon":5.38889,"is_reserved":false,"is_disabled":false,"rental_uris":{"android":"levelo://app?vid=34d7f694-f7d9-48ee-a86c-62a6193fe373","ios":"levelo://app?vid=34d7f694-f7d9-48ee-a86c-62a6193fe373"},"vehicle_type_id":"4","last_reported":1731139821,"current_range_meters":32400,"station_id":"ce4bgk12rcd13ifvqbi0","pricing_plan_id":"cebpf4jnsgd1na2vs0mg"},{"bike_id":"98d30041-2fb8-418c-8ec9-535a413eb322","system_id":"levelo_inurba_marseille","lat":43.27493,"lon":5.42453,"is_reserved":false,"is_disabled":false,"rental_uris":{"android":"levelo://app?vid=98d30041-2fb8-418c-8ec9-535a413eb322","ios":"levelo://app?vid=98d30041-2fb8-418c-8ec9-535a413eb322"},"vehicle_type_id":"4","last_reported":1731139821,"current_range_meters":17600,"station_id":"ce4bhn92rcd13ifvqgrg","pricing_plan_id":"cebpf4jnsgd1na2vs0mg"},{"bike_id":"33e8e856-7f81-40f7-a392-a9fedce07fce","system_id":"levelo_inurba_marseille","lat":43.30883,"lon":5.3965,"is_reserved":false,"is_disabled":false,"rental_uris":{"android":"levelo://app?vid=33e8e856-7f81-40f7-a392-a9fedce07fce","ios":"levelo://app?vid=33e8e856-7f81-40f7-a392-a9fedce07fce"},"vehicle_type_id":"4","last_reported":1731139821,"current_range_meters":38800,"station_id":"ce4bh012rcd13ifvqcv0","pricing_plan_id":"cebpf4jnsgd1na2vs0mg"},{"bike_id":"7f11ba46-2bea-4ad5-9bd6-5a8d133d1bb2","system_id":"levelo_inurba_marseille","lat":43.3088,"lon":5.3965,"is_reserved":false,"is_disabled":false,"rental_uris":{"android":"levelo://app?vid=7f11ba46-2bea-4ad5-9bd6-5a8d133d1bb2","ios":"levelo://app?vid=7f11ba46-2bea-4ad5-9bd6-5a8d133d1bb2"},"vehicle_type_id":"4","last_reported":1731139821,"current_range_meters":25200,"station_id":"ce4bh012rcd13ifvqcv0","pricing_plan_id":"cebpf4jnsgd1na2vs0mg"},{"bike_id":"cb3e8083-1a52-4c3a-8ce1-d539167291a9","system_id":"levelo_inurba_marseille","lat":43.251164,"lon":5.403239,"is_reserved":false,"is_disabled":false,"rental_uris":{"android":"levelo://app?vid=cb3e8083-1a52-4c3a-8ce1-d539167291a9","ios":"levelo://app?vid=cb3e8083-1a52-4c3a-8ce1-d539167291a9"},"vehicle_type_id":"4","last_reported":1731139821,"current_range_meters":20400,"station_id":"ce4bhlh2rcd13ifvqgig","pricing_plan_id":"cebpf4jnsgd1na2vs0mg"},{"bike_id":"1f1becf7-322b-43ac-89ad-1780eea48740","system_id":"levelo_inurba_marseille","lat":43.25822,"lon":5.3943,"is_reserved":false,"is_disabled":false,"rental_uris":{"android":"levelo://app?vid=1f1becf7-322b-43ac-89ad-1780eea48740","ios":"levelo://app?vid=1f1becf7-322b-43ac-89ad-1780eea48740"},"vehicle_type_id":"4","last_reported":1731139821,"current_range_meters":6000,"station_id":"ce4bhip2rcd13ifvqft0","pricing_plan_id":"cebpf4jnsgd1na2vs0mg"},{"bike_id":"b04721b2-bb72-4877-b800-27e1ccf6e803","system_id":"levelo_inurba_marseille","lat":43.28418,"lon":5.34988,"is_reserved":false,"is_disabled":false,"rental_uris":{"android":"levelo://app?vid=b04721b2-bb72-4877-b800-27e1ccf6e803","ios":"levelo://app?vid=b04721b2-bb72-4877-b800-27e1ccf6e803"},"vehicle_type_id":"4","last_reported":1731139821,"current_range_meters":28000,"station_id":"ce4bhbh2rcd13ifvqepg","pricing_plan_id":"cebpf4jnsgd1na2vs0mg"},{"bike_id":"548297d9-9c0a-471f-9a92-69297cc576ca","system_id":"levelo_inurba_marseille","lat":43.27495,"lon":5.42441,"is_reserved":false,"is_disabled":false,"rental_uris":{"android":"levelo://app?vid=548297d9-9c0a-471f-9a92-69297cc576ca","ios":"levelo://app?vid=548297d9-9c0a-471f-9a92-69297cc576ca"},"vehicle_type_id":"4","last_reported":1731139821,"current_range_meters":24400,"station_id":"ce4bhn92rcd13ifvqgrg","pricing_plan_id":"cebpf4jnsgd1na2vs0mg"},{"bike_id":"d39c8278-f1e4-41c6-b2c6-0323b764da94","system_id":"levelo_inurba_marseille","lat":43.29794,"lon":5.4041,"is_reserved":false,"is_disabled":false,"rental_uris":{"android":"levelo://app?vid=d39c8278-f1e4-41c6-b2c6-0323b764da94","ios":"levelo://app?vid=d39c8278-f1e4-41c6-b2c6-0323b764da94"},"vehicle_type_id":"4","last_reported":1731139821,"current_range_meters":38800,"station_id":"ce4bh112rcd13ifvqd90","pricing_plan_id":"cebpf4jnsgd1na2vs0mg"},{"bike_id":"7b17c7e2-e1a6-4a1c-8685-fec4587aebcd","system_id":"levelo_inurba_marseille","lat":43.30887,"lon":5.37199,"is_reserved":false,"is_disabled":false,"rental_uris":{"android":"levelo://app?vid=7b17c7e2-e1a6-4a1c-8685-fec4587aebcd","ios":"levelo://app?vid=7b17c7e2-e1a6-4a1c-8685-fec4587aebcd"},"vehicle_type_id":"4","last_reported":1731139821,"current_range_meters":38800,"station_id":"ce4bguh2rcd13ifvqckg","pricing_plan_id":"cebpf4jnsgd1na2vs0mg"},{"bike_id":"2015a957-ead6-4c85-93f3-8e74dc7d21da","system_id":"levelo_inurba_marseille","lat":43.32069,"lon":5.41553,"is_reserved":false,"is_disabled":false,"rental_uris":{"android":"levelo://app?vid=2015a957-ead6-4c85-93f3-8e74dc7d21da","ios":"levelo://app?vid=2015a957-ead6-4c85-93f3-8e74dc7d21da"},"vehicle_type_id":"4","last_reported":1731139821,"current_range_meters":38000,"station_id":"ce4bhq92rcd13ifvqhkg","pricing_plan_id":"cebpf4jnsgd1na2vs0mg"},{"bike_id":"8ae42063-413b-4c62-b6e0-317a3937a2ec","system_id":"levelo_inurba_marseille","lat":43.243914,"lon":5.370974,"is_reserved":false,"is_disabled":false,"rental_uris":{"android":"levelo://app?vid=8ae42063-413b-4c62-b6e0-317a3937a2ec","ios":"levelo://app?vid=8ae42063-413b-4c62-b6e0-317a3937a2ec"},"vehicle_type_id":"4","last_reported":1731139821,"current_range_meters":27200,"station_id":"ce4bhhh2rcd13ifvqfk0","pricing_plan_id":"cebpf4jnsgd1na2vs0mg"},{"bike_id":"c1aae8eb-6a26-4fcd-903c-b8796943eafc","system_id":"levelo_inurba_marseille","lat":43.30608,"lon":5.37233,"is_reserved":false,"is_disabled":false,"rental_uris":{"android":"levelo://app?vid=c1aae8eb-6a26-4fcd-903c-b8796943eafc","ios":"levelo://app?vid=c1aae8eb-6a26-4fcd-903c-b8796943eafc"},"vehicle_type_id":"4","last_reported":1731139821,"current_range_meters":37600,"station_id":"ce4bgqh2rcd13ifvqc4g","pricing_plan_id":"cebpf4jnsgd1na2vs0mg"},{"bike_id":"b9478b1d-79e3-44c9-ae60-496dd5151f62","system_id":"levelo_inurba_marseille","lat":43.29166,"lon":5.37142,"is_reserved":false,"is_disabled":false,"rental_uris":{"android":"levelo://app?vid=b9478b1d-79e3-44c9-ae60-496dd5151f62","ios":"levelo://app?vid=b9478b1d-79e3-44c9-ae60-496dd5151f62"},"vehicle_type_id":"4","last_reported":1731139821,"current_range_meters":37600,"station_id":"ce4bha92rcd13ifvqeh0","pricing_plan_id":"cebpf4jnsgd1na2vs0mg"},{"bike_id":"adb13a41-e996-4b47-a2f6-e5e80d27b4e6","system_id":"levelo_inurba_marseille","lat":43.32339,"lon":5.40623,"is_reserved":false,"is_disabled":false,"rental_uris":{"android":"levelo://app?vid=adb13a41-e996-4b47-a2f6-e5e80d27b4e6","ios":"levelo://app?vid=adb13a41-e996-4b47-a2f6-e5e80d27b4e6"},"vehicle_type_id":"4","last_reported":1731139821,"current_range_meters":38000,"station_id":"ce4bhq92rcd13ifvqhjg","pricing_plan_id":"cebpf4jnsgd1na2vs0mg"},{"bike_id":"1e25f627-e559-4c90-8e40-cc02cc85ba7e","system_id":"levelo_inurba_marseille","lat":43.30545,"lon":5.36701,"is_reserved":false,"is_disabled":false,"rental_uris":{"android":"levelo://app?vid=1e25f627-e559-4c90-8e40-cc02cc85ba7e","ios":"levelo://app?vid=1e25f627-e559-4c90-8e40-cc02cc85ba7e"},"vehicle_type_id":"4","last_reported":1731139821,"current_range_meters":37600,"station_id":"ce4bgrp2rcd13ifvqc9g","pricing_plan_id":"cebpf4jnsgd1na2vs0mg"},{"bike_id":"de15f00a-25b1-4b9b-a102-3b4e4c3a83ba","system_id":"levelo_inurba_marseille","lat":43.30151,"lon":5.38085,"is_reserved":false,"is_disabled":false,"rental_uris":{"android":"levelo://app?vid=de15f00a-25b1-4b9b-a102-3b4e4c3a83ba","ios":"levelo://app?vid=de15f00a-25b1-4b9b-a102-3b4e4c3a83ba"},"vehicle_type_id":"4","last_reported":1731139821,"current_range_meters":31200,"station_id":"ce4bgjp2rcd13ifvqbh0","pricing_plan_id":"cebpf4jnsgd1na2vs0mg"},{"bike_id":"2d57f628-619f-420a-b65c-8f44a7ace640","system_id":"levelo_inurba_marseille","lat":43.284,"lon":5.37525,"is_reserved":false,"is_disabled":false,"rental_uris":{"android":"levelo://app?vid=2d57f628-619f-420a-b65c-8f44a7ace640","ios":"levelo://app?vid=2d57f628-619f-420a-b65c-8f44a7ace640"},"vehicle_type_id":"4","last_reported":1731139821,"current_range_meters":32000,"station_id":"ce4bh412rcd13ifvqds0","pricing_plan_id":"cebpf4jnsgd1na2vs0mg"},{"bike_id":"4cd24ee8-666e-4ce7-8f48-946488c6487e","system_id":"levelo_inurba_marseille","lat":43.23182,"lon":5.3998,"is_reserved":false,"is_disabled":false,"rental_uris":{"android":"levelo://app?vid=4cd24ee8-666e-4ce7-8f48-946488c6487e","ios":"levelo://app?vid=4cd24ee8-666e-4ce7-8f48-946488c6487e"},"vehicle_type_id":"4","last_reported":1731139821,"current_range_meters":38400,"station_id":"ce4bhn12rcd13ifvqgqg","pricing_plan_id":"cebpf4jnsgd1na2vs0mg"},{"bike_id":"1f7ea6ab-6e3d-4109-9c83-36eadc7f2aeb","system_id":"levelo_inurba_marseille","lat":43.31324,"lon":5.3969,"is_reserved":false,"is_disabled":false,"rental_uris":{"android":"levelo://app?vid=1f7ea6ab-6e3d-4109-9c83-36eadc7f2aeb","ios":"levelo://app?vid=1f7ea6ab-6e3d-4109-9c83-36eadc7f2aeb"},"vehicle_type_id":"4","last_reported":1731139821,"current_range_meters":38800,"station_id":"ce4bgvp2rcd13ifvqcu0","pricing_plan_id":"cebpf4jnsgd1na2vs0mg"},{"bike_id":"d070148f-8ecc-4c75-8cb1-c8bc85f50390","system_id":"levelo_inurba_marseille","lat":43.33018,"lon":5.39037,"is_reserved":false,"is_disabled":false,"rental_uris":{"android":"levelo://app?vid=d070148f-8ecc-4c75-8cb1-c8bc85f50390","ios":"levelo://app?vid=d070148f-8ecc-4c75-8cb1-c8bc85f50390"},"vehicle_type_id":"4","last_reported":1731139821,"current_range_meters":24400,"station_id":"ce4bhr92rcd13ifvqhrg","pricing_plan_id":"cebpf4jnsgd1na2vs0mg"},{"bike_id":"b1bc1677-b693-40dc-b738-495775d43df4","system_id":"levelo_inurba_marseille","lat":43.30429,"lon":5.38883,"is_reserved":false,"is_disabled":false,"rental_uris":{"android":"levelo://app?vid=b1bc1677-b693-40dc-b738-495775d43df4","ios":"levelo://app?vid=b1bc1677-b693-40dc-b738-495775d43df4"},"vehicle_type_id":"4","last_reported":1731139821,"current_range_meters":8400,"station_id":"ce4bgk12rcd13ifvqbi0","pricing_plan_id":"cebpf4jnsgd1na2vs0mg"},{"bike_id":"29824cde-4cdc-4355-9b22-a5922a403deb","system_id":"levelo_inurba_marseille","lat":43.337444,"lon":5.374475,"is_reserved":false,"is_disabled":false,"rental_uris":{"android":"levelo://app?vid=29824cde-4cdc-4355-9b22-a5922a403deb","ios":"levelo://app?vid=29824cde-4cdc-4355-9b22-a5922a403deb"},"vehicle_type_id":"4","last_reported":1731139821,"current_range_meters":34800,"station_id":"","pricing_plan_id":"cebpf4jnsgd1na2vs0mg"},{"bike_id":"d8e526d2-cabd-4260-b3f3-381a19f33459","system_id":"levelo_inurba_marseille","lat":43.3088,"lon":5.39645,"is_reserved":false,"is_disabled":false,"rental_uris":{"android":"levelo://app?vid=d8e526d2-cabd-4260-b3f3-381a19f33459","ios":"levelo://app?vid=d8e526d2-cabd-4260-b3f3-381a19f33459"},"vehicle_type_id":"4","last_reported":1731139821,"current_range_meters":8000,"station_id":"ce4bh012rcd13ifvqcv0","pricing_plan_id":"cebpf4jnsgd1na2vs0mg"},{"bike_id":"b4de7b9a-6515-49e3-b4f0-3d8149400129","system_id":"levelo_inurba_marseille","lat":43.30158,"lon":5.38084,"is_reserved":false,"is_disabled":false,"rental_uris":{"android":"levelo://app?vid=b4de7b9a-6515-49e3-b4f0-3d8149400129","ios":"levelo://app?vid=b4de7b9a-6515-49e3-b4f0-3d8149400129"},"vehicle_type_id":"4","last_reported":1731139821,"current_range_meters":36800,"station_id":"ce4bgjp2rcd13ifvqbh0","pricing_plan_id":"cebpf4jnsgd1na2vs0mg"},{"bike_id":"67e17654-368e-4b56-a0c7-552a55a43533","system_id":"levelo_inurba_marseille","lat":43.2756,"lon":5.38431,"is_reserved":false,"is_disabled":false,"rental_uris":{"android":"levelo://app?vid=67e17654-368e-4b56-a0c7-552a55a43533","ios":"levelo://app?vid=67e17654-368e-4b56-a0c7-552a55a43533"},"vehicle_type_id":"4","last_reported":1731139821,"current_range_meters":38400,"station_id":"ce4bhh92rcd13ifvqfi0","pricing_plan_id":"cebpf4jnsgd1na2vs0mg"},{"bike_id":"eccb9bf1-4a0c-4df5-8229-bf46f21c4329","system_id":"levelo_inurba_marseille","lat":43.31714,"lon":5.42409,"is_reserved":false,"is_disabled":false,"rental_uris":{"android":"levelo://app?vid=eccb9bf1-4a0c-4df5-8229-bf46f21c4329","ios":"levelo://app?vid=eccb9bf1-4a0c-4df5-8229-bf46f21c4329"},"vehicle_type_id":"4","last_reported":1731139821,"current_range_meters":34800,"station_id":"ce4bhp92rcd13ifvqhbg","pricing_plan_id":"cebpf4jnsgd1na2vs0mg"},{"bike_id":"ef288286-229d-4b9a-a189-8d61840dcffb","system_id":"levelo_inurba_marseille","lat":43.23192,"lon":5.35557,"is_reserved":false,"is_disabled":false,"rental_uris":{"android":"levelo://app?vid=ef288286-229d-4b9a-a189-8d61840dcffb","ios":"levelo://app?vid=ef288286-229d-4b9a-a189-8d61840dcffb"},"vehicle_type_id":"4","last_reported":1731139821,"current_range_meters":35200,"station_id":"ce4bhu92rcd13ifvqi70","pricing_plan_id":"cebpf4jnsgd1na2vs0mg"},{"bike_id":"a368185c-6557-4d1c-9283-6133d9489fdf","system_id":"levelo_inurba_marseille","lat":43.30429,"lon":5.38881,"is_reserved":false,"is_disabled":false,"rental_uris":{"android":"levelo://app?vid=a368185c-6557-4d1c-9283-6133d9489fdf","ios":"levelo://app?vid=a368185c-6557-4d1c-9283-6133d9489fdf"},"vehicle_type_id":"4","last_reported":1731139821,"current_range_meters":36800,"station_id":"ce4bgk12rcd13ifvqbi0","pricing_plan_id":"cebpf4jnsgd1na2vs0mg"},{"bike_id":"c6c18437-3d27-488b-bfaf-aa32f328b483","system_id":"levelo_inurba_marseille","lat":43.33612,"lon":5.41025,"is_reserved":false,"is_disabled":false,"rental_uris":{"android":"levelo://app?vid=c6c18437-3d27-488b-bfaf-aa32f328b483","ios":"levelo://app?vid=c6c18437-3d27-488b-bfaf-aa32f328b483"},"vehicle_type_id":"4","last_reported":1731139821,"current_range_meters":11200,"station_id":"ce4bhqh2rcd13ifvqhmg","pricing_plan_id":"cebpf4jnsgd1na2vs0mg"},{"bike_id":"9ff3a2bc-2d09-4f82-92c7-15589532de81","system_id":"levelo_inurba_marseille","lat":43.33603,"lon":5.41034,"is_reserved":false,"is_disabled":false,"rental_uris":{"android":"levelo://app?vid=9ff3a2bc-2d09-4f82-92c7-15589532de81","ios":"levelo://app?vid=9ff3a2bc-2d09-4f82-92c7-15589532de81"},"vehicle_type_id":"4","last_reported":1731139821,"current_range_meters":17200,"station_id":"ce4bhqh2rcd13ifvqhmg","pricing_plan_id":"cebpf4jnsgd1na2vs0mg"},{"bike_id":"43dbcf2e-3b20-4e0f-ac09-64b0f1ef49b7","system_id":"levelo_inurba_marseille","lat":43.25725,"lon":5.41107,"is_reserved":false,"is_disabled":false,"rental_uris":{"android":"levelo://app?vid=43dbcf2e-3b20-4e0f-ac09-64b0f1ef49b7","ios":"levelo://app?vid=43dbcf2e-3b20-4e0f-ac09-64b0f1ef49b7"},"vehicle_type_id":"4","last_reported":1731139821,"current_range_meters":38800,"station_id":"ce4bhkp2rcd13ifvqgd0","pricing_plan_id":"cebpf4jnsgd1na2vs0mg"},{"bike_id":"9abde8f1-e5d9-418b-96e0-54089a739974","system_id":"levelo_inurba_marseille","lat":43.29031,"lon":5.39967,"is_reserved":false,"is_disabled":false,"rental_uris":{"android":"levelo://app?vid=9abde8f1-e5d9-418b-96e0-54089a739974","ios":"levelo://app?vid=9abde8f1-e5d9-418b-96e0-54089a739974"},"vehicle_type_id":"4","last_reported":1731139821,"current_range_meters":3600,"station_id":"ce4bh392rcd13ifvqdm0","pricing_plan_id":"cebpf4jnsgd1na2vs0mg"},{"bike_id":"3ed67fa7-7588-4d15-a08c-0c6e59a87c16","system_id":"levelo_inurba_marseille","lat":43.27322,"lon":5.39081,"is_reserved":false,"is_disabled":false,"rental_uris":{"android":"levelo://app?vid=3ed67fa7-7588-4d15-a08c-0c6e59a87c16","ios":"levelo://app?vid=3ed67fa7-7588-4d15-a08c-0c6e59a87c16"},"vehicle_type_id":"4","last_reported":1731139821,"current_range_meters":27600,"station_id":"ce4bhgp2rcd13ifvqfe0","pricing_plan_id":"cebpf4jnsgd1na2vs0mg"},{"bike_id":"10ee6f64-d75c-4e2f-8ed0-6ee62c2a4643","system_id":"levelo_inurba_marseille","lat":43.24647,"lon":5.38894,"is_reserved":false,"is_disabled":false,"rental_uris":{"android":"levelo://app?vid=10ee6f64-d75c-4e2f-8ed0-6ee62c2a4643","ios":"levelo://app?vid=10ee6f64-d75c-4e2f-8ed0-6ee62c2a4643"},"vehicle_type_id":"4","last_reported":1731139821,"current_range_meters":16800,"station_id":"ce4bhg12rcd13ifvqf60","pricing_plan_id":"cebpf4jnsgd1na2vs0mg"},{"bike_id":"c4ceb15a-5c5b-4500-b281-24d33897ea9b","system_id":"levelo_inurba_marseille","lat":43.29797,"lon":5.40413,"is_reserved":false,"is_disabled":false,"rental_uris":{"android":"levelo://app?vid=c4ceb15a-5c5b-4500-b281-24d33897ea9b","ios":"levelo://app?vid=c4ceb15a-5c5b-4500-b281-24d33897ea9b"},"vehicle_type_id":"4","last_reported":1731139821,"current_range_meters":32800,"station_id":"ce4bh112rcd13ifvqd90","pricing_plan_id":"cebpf4jnsgd1na2vs0mg"},{"bike_id":"17af4bea-b3de-4c83-bdca-1950a356db9a","system_id":"levelo_inurba_marseille","lat":43.3127,"lon":5.40174,"is_reserved":false,"is_disabled":false,"rental_uris":{"android":"levelo://app?vid=17af4bea-b3de-4c83-bdca-1950a356db9a","ios":"levelo://app?vid=17af4bea-b3de-4c83-bdca-1950a356db9a"},"vehicle_type_id":"4","last_reported":1731139821,"current_range_meters":38000,"station_id":"ce4bh092rcd13ifvqd30","pricing_plan_id":"cebpf4jnsgd1na2vs0mg"},{"bike_id":"ac963c09-022d-4dbd-82ec-d4fdab6c93b8","system_id":"levelo_inurba_marseille","lat":43.30927,"lon":5.40151,"is_reserved":false,"is_disabled":false,"rental_uris":{"android":"levelo://app?vid=ac963c09-022d-4dbd-82ec-d4fdab6c93b8","ios":"levelo://app?vid=ac963c09-022d-4dbd-82ec-d4fdab6c93b8"},"vehicle_type_id":"4","last_reported":1731139821,"current_range_meters":38400,"station_id":"ce4bgvp2rcd13ifvqct0","pricing_plan_id":"cebpf4jnsgd1na2vs0mg"},{"bike_id":"9b944a41-2364-420b-b3ec-4e92ede26325","system_id":"levelo_inurba_marseille","lat":43.30804,"lon":5.43526,"is_reserved":false,"is_disabled":false,"rental_uris":{"android":"levelo://app?vid=9b944a41-2364-420b-b3ec-4e92ede26325","ios":"levelo://app?vid=9b944a41-2364-420b-b3ec-4e92ede26325"},"vehicle_type_id":"4","last_reported":1731139821,"current_range_meters":10000,"station_id":"ce4bhph2rcd13ifvqheg","pricing_plan_id":"cebpf4jnsgd1na2vs0mg"},{"bike_id":"8faa22dc-5f3c-4af6-b84b-f554e09d6313","system_id":"levelo_inurba_marseille","lat":43.337444,"lon":5.374475,"is_reserved":false,"is_disabled":false,"rental_uris":{"android":"levelo://app?vid=8faa22dc-5f3c-4af6-b84b-f554e09d6313","ios":"levelo://app?vid=8faa22dc-5f3c-4af6-b84b-f554e09d6313"},"vehicle_type_id":"4","last_reported":1731139821,"current_range_meters":34000,"station_id":"","pricing_plan_id":"cebpf4jnsgd1na2vs0mg"},{"bike_id":"0dab8b70-3e35-4d1b-b99e-e8eb1cde9391","system_id":"levelo_inurba_marseille","lat":43.31713,"lon":5.43707,"is_reserved":false,"is_disabled":false,"rental_uris":{"android":"levelo://app?vid=0dab8b70-3e35-4d1b-b99e-e8eb1cde9391","ios":"levelo://app?vid=0dab8b70-3e35-4d1b-b99e-e8eb1cde9391"},"vehicle_type_id":"4","last_reported":1731139821,"current_range_meters":29600,"station_id":"ce4bhp92rcd13ifvqhcg","pricing_plan_id":"cebpf4jnsgd1na2vs0mg"},{"bike_id":"3eac4517-6003-463b-a76c-ebec8893275a","system_id":"levelo_inurba_marseille","lat":43.27375,"lon":5.36255,"is_reserved":false,"is_disabled":false,"rental_uris":{"android":"levelo://app?vid=3eac4517-6003-463b-a76c-ebec8893275a","ios":"levelo://app?vid=3eac4517-6003-463b-a76c-ebec8893275a"},"vehicle_type_id":"4","last_reported":1731139821,"current_range_meters":17600,"station_id":"ce4bhbh2rcd13ifvqeo0","pricing_plan_id":"cebpf4jnsgd1na2vs0mg"},{"bike_id":"61dec638-9ca0-4892-90d6-fccd96d95403","system_id":"levelo_inurba_marseille","lat":43.294146,"lon":5.386278,"is_reserved":false,"is_disabled":false,"rental_uris":{"android":"levelo://app?vid=61dec638-9ca0-4892-90d6-fccd96d95403","ios":"levelo://app?vid=61dec638-9ca0-4892-90d6-fccd96d95403"},"vehicle_type_id":"4","last_reported":1731139821,"current_range_meters":16000,"station_id":"ce4bh2h2rcd13ifvqdh0","pricing_plan_id":"cebpf4jnsgd1na2vs0mg"},{"bike_id":"d489e443-4756-4869-8372-d03f661c4415","system_id":"levelo_inurba_marseille","lat":43.30598,"lon":5.37232,"is_reserved":false,"is_disabled":false,"rental_uris":{"android":"levelo://app?vid=d489e443-4756-4869-8372-d03f661c4415","ios":"levelo://app?vid=d489e443-4756-4869-8372-d03f661c4415"},"vehicle_type_id":"4","last_reported":1731139821,"current_range_meters":35600,"station_id":"ce4bgqh2rcd13ifvqc4g","pricing_plan_id":"cebpf4jnsgd1na2vs0mg"},{"bike_id":"ee78e0cf-a8f9-42b5-af59-d1cea871561b","system_id":"levelo_inurba_marseille","lat":43.2315,"lon":5.4372,"is_reserved":false,"is_disabled":false,"rental_uris":{"android":"levelo://app?vid=ee78e0cf-a8f9-42b5-af59-d1cea871561b","ios":"levelo://app?vid=ee78e0cf-a8f9-42b5-af59-d1cea871561b"},"vehicle_type_id":"4","last_reported":1731139821,"current_range_meters":15200,"station_id":"ce4bhmp2rcd13ifvqgog","pricing_plan_id":"cebpf4jnsgd1na2vs0mg"},{"bike_id":"8ee7b9d5-9f1d-49f2-870d-69c8b74d6a1f","system_id":"levelo_inurba_marseille","lat":43.24661,"lon":5.38168,"is_reserved":false,"is_disabled":false,"rental_uris":{"android":"levelo://app?vid=8ee7b9d5-9f1d-49f2-870d-69c8b74d6a1f","ios":"levelo://app?vid=8ee7b9d5-9f1d-49f2-870d-69c8b74d6a1f"},"vehicle_type_id":"4","last_reported":1731139821,"current_range_meters":11200,"station_id":"ce4bhih2rcd13ifvqfr0","pricing_plan_id":"cebpf4jnsgd1na2vs0mg"},{"bike_id":"5fcac8d1-3460-4de9-8166-83a29fe1bc75","system_id":"levelo_inurba_marseille","lat":43.30931,"lon":5.40147,"is_reserved":false,"is_disabled":false,"rental_uris":{"android":"levelo://app?vid=5fcac8d1-3460-4de9-8166-83a29fe1bc75","ios":"levelo://app?vid=5fcac8d1-3460-4de9-8166-83a29fe1bc75"},"vehicle_type_id":"4","last_reported":1731139821,"current_range_meters":24800,"station_id":"ce4bgvp2rcd13ifvqct0","pricing_plan_id":"cebpf4jnsgd1na2vs0mg"},{"bike_id":"cd87b973-318e-4d77-bb59-125d39101cbb","system_id":"levelo_inurba_marseille","lat":43.32058,"lon":5.41574,"is_reserved":false,"is_disabled":false,"rental_uris":{"android":"levelo://app?vid=cd87b973-318e-4d77-bb59-125d39101cbb","ios":"levelo://app?vid=cd87b973-318e-4d77-bb59-125d39101cbb"},"vehicle_type_id":"4","last_reported":1731139821,"current_range_meters":8400,"station_id":"ce4bhq92rcd13ifvqhkg","pricing_plan_id":"cebpf4jnsgd1na2vs0mg"},{"bike_id":"219f0ebc-ae04-44b4-9f81-81fcff2c0f34","system_id":"levelo_inurba_marseille","lat":43.31147,"lon":5.37731,"is_reserved":false,"is_disabled":false,"rental_uris":{"android":"levelo://app?vid=219f0ebc-ae04-44b4-9f81-81fcff2c0f34","ios":"levelo://app?vid=219f0ebc-ae04-44b4-9f81-81fcff2c0f34"},"vehicle_type_id":"4","last_reported":1731139821,"current_range_meters":34000,"station_id":"ce4bgt92rcd13ifvqcg0","pricing_plan_id":"cebpf4jnsgd1na2vs0mg"},{"bike_id":"4de16669-81af-4d13-ab5a-fb82eb47fa93","system_id":"levelo_inurba_marseille","lat":43.30804,"lon":5.3815,"is_reserved":false,"is_disabled":false,"rental_uris":{"android":"levelo://app?vid=4de16669-81af-4d13-ab5a-fb82eb47fa93","ios":"levelo://app?vid=4de16669-81af-4d13-ab5a-fb82eb47fa93"},"vehicle_type_id":"4","last_reported":1731139821,"current_range_meters":30000,"station_id":"ce4bgt12rcd13ifvqce0","pricing_plan_id":"cebpf4jnsgd1na2vs0mg"},{"bike_id":"6463664d-8d71-4282-8618-f2c0c195f781","system_id":"levelo_inurba_marseille","lat":43.30145,"lon":5.3808,"is_reserved":false,"is_disabled":false,"rental_uris":{"android":"levelo://app?vid=6463664d-8d71-4282-8618-f2c0c195f781","ios":"levelo://app?vid=6463664d-8d71-4282-8618-f2c0c195f781"},"vehicle_type_id":"4","last_reported":1731139821,"current_range_meters":28800,"station_id":"ce4bgjp2rcd13ifvqbh0","pricing_plan_id":"cebpf4jnsgd1na2vs0mg"},{"bike_id":"3424df2c-a0ae-4e23-b518-86ea552de7c2","system_id":"levelo_inurba_marseille","lat":43.29218,"lon":5.36061,"is_reserved":false,"is_disabled":false,"rental_uris":{"android":"levelo://app?vid=3424df2c-a0ae-4e23-b518-86ea552de7c2","ios":"levelo://app?vid=3424df2c-a0ae-4e23-b518-86ea552de7c2"},"vehicle_type_id":"4","last_reported":1731139821,"current_range_meters":36000,"station_id":"ce4bhbh2rcd13ifvqeqg","pricing_plan_id":"cebpf4jnsgd1na2vs0mg"},{"bike_id":"001cf88e-9da2-43e6-9cec-09dbef22978b","system_id":"levelo_inurba_marseille","lat":43.29031,"lon":5.39978,"is_reserved":false,"is_disabled":false,"rental_uris":{"android":"levelo://app?vid=001cf88e-9da2-43e6-9cec-09dbef22978b","ios":"levelo://app?vid=001cf88e-9da2-43e6-9cec-09dbef22978b"},"vehicle_type_id":"4","last_reported":1731139821,"current_range_meters":38800,"station_id":"ce4bh392rcd13ifvqdm0","pricing_plan_id":"cebpf4jnsgd1na2vs0mg"},{"bike_id":"ba4e9b3f-2a8e-4431-b57f-f6a1ee8edd37","system_id":"levelo_inurba_marseille","lat":43.30154,"lon":5.38085,"is_reserved":false,"is_disabled":false,"rental_uris":{"android":"levelo://app?vid=ba4e9b3f-2a8e-4431-b57f-f6a1ee8edd37","ios":"levelo://app?vid=ba4e9b3f-2a8e-4431-b57f-f6a1ee8edd37"},"vehicle_type_id":"4","last_reported":1731139821,"current_range_meters":22000,"station_id":"ce4bgjp2rcd13ifvqbh0","pricing_plan_id":"cebpf4jnsgd1na2vs0mg"},{"bike_id":"eb8ae82e-b5af-4e43-8b69-b135e11d1ed6","system_id":"levelo_inurba_marseille","lat":43.29903,"lon":5.43668,"is_reserved":false,"is_disabled":false,"rental_uris":{"android":"levelo://app?vid=eb8ae82e-b5af-4e43-8b69-b135e11d1ed6","ios":"levelo://app?vid=eb8ae82e-b5af-4e43-8b69-b135e11d1ed6"},"vehicle_type_id":"4","last_reported":1731139821,"current_range_meters":8400,"station_id":"ce4bhpp2rcd13ifvqhfg","pricing_plan_id":"cebpf4jnsgd1na2vs0mg"},{"bike_id":"f309413c-3f28-4ac9-8c6c-fbfe2eef554f","system_id":"levelo_inurba_marseille","lat":43.289429,"lon":5.396574,"is_reserved":false,"is_disabled":false,"rental_uris":{"android":"levelo://app?vid=f309413c-3f28-4ac9-8c6c-fbfe2eef554f","ios":"levelo://app?vid=f309413c-3f28-4ac9-8c6c-fbfe2eef554f"},"vehicle_type_id":"4","last_reported":1731139821,"current_range_meters":19200,"station_id":"ce4bh3h2rcd13ifvqdn0","pricing_plan_id":"cebpf4jnsgd1na2vs0mg"},{"bike_id":"14550dfa-1b8e-4002-96d8-2eb3bb949d6f","system_id":"levelo_inurba_marseille","lat":43.27214,"lon":5.39184,"is_reserved":false,"is_disabled":false,"rental_uris":{"android":"levelo://app?vid=14550dfa-1b8e-4002-96d8-2eb3bb949d6f","ios":"levelo://app?vid=14550dfa-1b8e-4002-96d8-2eb3bb949d6f"},"vehicle_type_id":"4","last_reported":1731139821,"current_range_meters":6400,"station_id":"ce4bhhp2rcd13ifvqfm0","pricing_plan_id":"cebpf4jnsgd1na2vs0mg"},{"bike_id":"d6fdae69-642e-4d84-a8fd-edeb75ed0ef4","system_id":"levelo_inurba_marseille","lat":43.22932,"lon":5.35376,"is_reserved":false,"is_disabled":false,"rental_uris":{"android":"levelo://app?vid=d6fdae69-642e-4d84-a8fd-edeb75ed0ef4","ios":"levelo://app?vid=d6fdae69-642e-4d84-a8fd-edeb75ed0ef4"},"vehicle_type_id":"4","last_reported":1731139821,"current_range_meters":38800,"station_id":"cpo3532slgdg3j2ikp40","pricing_plan_id":"cebpf4jnsgd1na2vs0mg"},{"bike_id":"5cc66348-f056-4771-be0a-d998fca017be","system_id":"levelo_inurba_marseille","lat":43.25083,"lon":5.39521,"is_reserved":false,"is_disabled":false,"rental_uris":{"android":"levelo://app?vid=5cc66348-f056-4771-be0a-d998fca017be","ios":"levelo://app?vid=5cc66348-f056-4771-be0a-d998fca017be"},"vehicle_type_id":"4","last_reported":1731139821,"current_range_meters":19600,"station_id":"ce4bhm12rcd13ifvqgkg","pricing_plan_id":"cebpf4jnsgd1na2vs0mg"},{"bike_id":"ae54d96d-70f5-4347-8dd4-86d634a169dd","system_id":"levelo_inurba_marseille","lat":43.25111,"lon":5.40331,"is_reserved":false,"is_disabled":false,"rental_uris":{"android":"levelo://app?vid=ae54d96d-70f5-4347-8dd4-86d634a169dd","ios":"levelo://app?vid=ae54d96d-70f5-4347-8dd4-86d634a169dd"},"vehicle_type_id":"4","last_reported":1731139821,"current_range_meters":34000,"station_id":"ce4bhlh2rcd13ifvqgig","pricing_plan_id":"cebpf4jnsgd1na2vs0mg"},{"bike_id":"86d64521-d332-4842-b4fb-5fa4820d8c81","system_id":"levelo_inurba_marseille","lat":43.337444,"lon":5.374475,"is_reserved":false,"is_disabled":false,"rental_uris":{"android":"levelo://app?vid=86d64521-d332-4842-b4fb-5fa4820d8c81","ios":"levelo://app?vid=86d64521-d332-4842-b4fb-5fa4820d8c81"},"vehicle_type_id":"4","last_reported":1731139821,"current_range_meters":34000,"station_id":"","pricing_plan_id":"cebpf4jnsgd1na2vs0mg"},{"bike_id":"63d1310c-b035-4676-9c77-8b6c7de0cc29","system_id":"levelo_inurba_marseille","lat":43.29794,"lon":5.38105,"is_reserved":false,"is_disabled":false,"rental_uris":{"android":"levelo://app?vid=63d1310c-b035-4676-9c77-8b6c7de0cc29","ios":"levelo://app?vid=63d1310c-b035-4676-9c77-8b6c7de0cc29"},"vehicle_type_id":"4","last_reported":1731139821,"current_range_meters":12000,"station_id":"ce4bgip2rcd13ifvqbb0","pricing_plan_id":"cebpf4jnsgd1na2vs0mg"},{"bike_id":"e99d247a-1ce0-4c71-944b-d68cc3c2ab92","system_id":"levelo_inurba_marseille","lat":43.30657,"lon":5.40079,"is_reserved":false,"is_disabled":false,"rental_uris":{"android":"levelo://app?vid=e99d247a-1ce0-4c71-944b-d68cc3c2ab92","ios":"levelo://app?vid=e99d247a-1ce0-4c71-944b-d68cc3c2ab92"},"vehicle_type_id":"4","last_reported":1731139821,"current_range_meters":38800,"station_id":"ce4bh112rcd13ifvqda0","pricing_plan_id":"cebpf4jnsgd1na2vs0mg"},{"bike_id":"c91d9995-4636-43b5-8794-af1993a95256","system_id":"levelo_inurba_marseille","lat":43.33731,"lon":5.3918,"is_reserved":false,"is_disabled":false,"rental_uris":{"android":"levelo://app?vid=c91d9995-4636-43b5-8794-af1993a95256","ios":"levelo://app?vid=c91d9995-4636-43b5-8794-af1993a95256"},"vehicle_type_id":"4","last_reported":1731139821,"current_range_meters":36400,"station_id":"ce4bhr92rcd13ifvqhsg","pricing_plan_id":"cebpf4jnsgd1na2vs0mg"},{"bike_id":"448d3bf9-78cb-439a-a23b-0e48f1b89013","system_id":"levelo_inurba_marseille","lat":43.32351,"lon":5.38912,"is_reserved":false,"is_disabled":false,"rental_uris":{"android":"levelo://app?vid=448d3bf9-78cb-439a-a23b-0e48f1b89013","ios":"levelo://app?vid=448d3bf9-78cb-439a-a23b-0e48f1b89013"},"vehicle_type_id":"4","last_reported":1731139821,"current_range_meters":12400,"station_id":"ce4bhqp2rcd13ifvqhog","pricing_plan_id":"cebpf4jnsgd1na2vs0mg"},{"bike_id":"08c87c74-8ce5-4912-ab68-fb06a199a47b","system_id":"levelo_inurba_marseille","lat":43.23182,"lon":5.39991,"is_reserved":false,"is_disabled":false,"rental_uris":{"android":"levelo://app?vid=08c87c74-8ce5-4912-ab68-fb06a199a47b","ios":"levelo://app?vid=08c87c74-8ce5-4912-ab68-fb06a199a47b"},"vehicle_type_id":"4","last_reported":1731139821,"current_range_meters":39200,"station_id":"ce4bhn12rcd13ifvqgqg","pricing_plan_id":"cebpf4jnsgd1na2vs0mg"},{"bike_id":"39ce4d88-5353-46e1-923f-2570c550e620","system_id":"levelo_inurba_marseille","lat":43.30429,"lon":5.38886,"is_reserved":false,"is_disabled":false,"rental_uris":{"android":"levelo://app?vid=39ce4d88-5353-46e1-923f-2570c550e620","ios":"levelo://app?vid=39ce4d88-5353-46e1-923f-2570c550e620"},"vehicle_type_id":"4","last_reported":1731139821,"current_range_meters":10800,"station_id":"ce4bgk12rcd13ifvqbi0","pricing_plan_id":"cebpf4jnsgd1na2vs0mg"},{"bike_id":"1dfd26b6-6ae9-4d29-8c2c-fd7385bb843a","system_id":"levelo_inurba_marseille","lat":43.30645,"lon":5.40081,"is_reserved":false,"is_disabled":false,"rental_uris":{"android":"levelo://app?vid=1dfd26b6-6ae9-4d29-8c2c-fd7385bb843a","ios":"levelo://app?vid=1dfd26b6-6ae9-4d29-8c2c-fd7385bb843a"},"vehicle_type_id":"4","last_reported":1731139821,"current_range_meters":36400,"station_id":"ce4bh112rcd13ifvqda0","pricing_plan_id":"cebpf4jnsgd1na2vs0mg"},{"bike_id":"3a1b2dee-3aac-4d59-8987-200b89692033","system_id":"levelo_inurba_marseille","lat":43.28408,"lon":5.37519,"is_reserved":false,"is_disabled":false,"rental_uris":{"android":"levelo://app?vid=3a1b2dee-3aac-4d59-8987-200b89692033","ios":"levelo://app?vid=3a1b2dee-3aac-4d59-8987-200b89692033"},"vehicle_type_id":"4","last_reported":1731139821,"current_range_meters":33200,"station_id":"ce4bh412rcd13ifvqds0","pricing_plan_id":"cebpf4jnsgd1na2vs0mg"},{"bike_id":"d4e2615a-83f7-44f4-94b2-ee4cf6b17fb3","system_id":"levelo_inurba_marseille","lat":43.25093,"lon":5.39521,"is_reserved":false,"is_disabled":false,"rental_uris":{"android":"levelo://app?vid=d4e2615a-83f7-44f4-94b2-ee4cf6b17fb3","ios":"levelo://app?vid=d4e2615a-83f7-44f4-94b2-ee4cf6b17fb3"},"vehicle_type_id":"4","last_reported":1731139821,"current_range_meters":19200,"station_id":"ce4bhm12rcd13ifvqgkg","pricing_plan_id":"cebpf4jnsgd1na2vs0mg"},{"bike_id":"e103be28-a2f8-4a89-8436-b4d164c2df27","system_id":"levelo_inurba_marseille","lat":43.29673,"lon":5.37307,"is_reserved":false,"is_disabled":false,"rental_uris":{"android":"levelo://app?vid=e103be28-a2f8-4a89-8436-b4d164c2df27","ios":"levelo://app?vid=e103be28-a2f8-4a89-8436-b4d164c2df27"},"vehicle_type_id":"4","last_reported":1731139821,"current_range_meters":37600,"station_id":"ce4bgk12rcd13ifvqbj0","pricing_plan_id":"cebpf4jnsgd1na2vs0mg"},{"bike_id":"1e3dea22-7fac-4f4b-b600-c929631fbbdf","system_id":"levelo_inurba_marseille","lat":43.31715,"lon":5.42408,"is_reserved":false,"is_disabled":false,"rental_uris":{"android":"levelo://app?vid=1e3dea22-7fac-4f4b-b600-c929631fbbdf","ios":"levelo://app?vid=1e3dea22-7fac-4f4b-b600-c929631fbbdf"},"vehicle_type_id":"4","last_reported":1731139821,"current_range_meters":38400,"station_id":"ce4bhp92rcd13ifvqhbg","pricing_plan_id":"cebpf4jnsgd1na2vs0mg"},{"bike_id":"36e0b256-1c79-41c6-a447-546075a3b7d4","system_id":"levelo_inurba_marseille","lat":43.30431,"lon":5.38882,"is_reserved":false,"is_disabled":false,"rental_uris":{"android":"levelo://app?vid=36e0b256-1c79-41c6-a447-546075a3b7d4","ios":"levelo://app?vid=36e0b256-1c79-41c6-a447-546075a3b7d4"},"vehicle_type_id":"4","last_reported":1731139821,"current_range_meters":12800,"station_id":"ce4bgk12rcd13ifvqbi0","pricing_plan_id":"cebpf4jnsgd1na2vs0mg"},{"bike_id":"66a051f1-43a0-4336-8eb5-2e7e0f80b7e4","system_id":"levelo_inurba_marseille","lat":43.30275,"lon":5.37705,"is_reserved":false,"is_disabled":false,"rental_uris":{"android":"levelo://app?vid=66a051f1-43a0-4336-8eb5-2e7e0f80b7e4","ios":"levelo://app?vid=66a051f1-43a0-4336-8eb5-2e7e0f80b7e4"},"vehicle_type_id":"4","last_reported":1731139821,"current_range_meters":38400,"station_id":"ce4bguh2rcd13ifvqcj0","pricing_plan_id":"cebpf4jnsgd1na2vs0mg"},{"bike_id":"8864522f-df38-4b28-8ef8-dd87d89715ec","system_id":"levelo_inurba_marseille","lat":43.3042,"lon":5.39756,"is_reserved":false,"is_disabled":false,"rental_uris":{"android":"levelo://app?vid=8864522f-df38-4b28-8ef8-dd87d89715ec","ios":"levelo://app?vid=8864522f-df38-4b28-8ef8-dd87d89715ec"},"vehicle_type_id":"4","last_reported":1731139821,"current_range_meters":38800,"station_id":"ce4bh092rcd13ifvqd20","pricing_plan_id":"cebpf4jnsgd1na2vs0mg"},{"bike_id":"71ec1596-6a9a-4bab-ad96-c67529394aa7","system_id":"levelo_inurba_marseille","lat":43.29012,"lon":5.35609,"is_reserved":false,"is_disabled":false,"rental_uris":{"android":"levelo://app?vid=71ec1596-6a9a-4bab-ad96-c67529394aa7","ios":"levelo://app?vid=71ec1596-6a9a-4bab-ad96-c67529394aa7"},"vehicle_type_id":"4","last_reported":1731139821,"current_range_meters":37600,"station_id":"ce4bhb92rcd13ifvqen0","pricing_plan_id":"cebpf4jnsgd1na2vs0mg"},{"bike_id":"bbc4f13b-cc27-45c8-9657-03eb08fa0f07","system_id":"levelo_inurba_marseille","lat":43.25113,"lon":5.40323,"is_reserved":false,"is_disabled":false,"rental_uris":{"android":"levelo://app?vid=bbc4f13b-cc27-45c8-9657-03eb08fa0f07","ios":"levelo://app?vid=bbc4f13b-cc27-45c8-9657-03eb08fa0f07"},"vehicle_type_id":"4","last_reported":1731139821,"current_range_meters":24800,"station_id":"ce4bhlh2rcd13ifvqgig","pricing_plan_id":"cebpf4jnsgd1na2vs0mg"},{"bike_id":"a0d9d5ae-de17-4341-bed9-edfa4e4e8139","system_id":"levelo_inurba_marseille","lat":43.30908,"lon":5.36853,"is_reserved":false,"is_disabled":false,"rental_uris":{"android":"levelo://app?vid=a0d9d5ae-de17-4341-bed9-edfa4e4e8139","ios":"levelo://app?vid=a0d9d5ae-de17-4341-bed9-edfa4e4e8139"},"vehicle_type_id":"4","last_reported":1731139821,"current_range_meters":38800,"station_id":"ce4bgn92rcd13ifvqbvg","pricing_plan_id":"cebpf4jnsgd1na2vs0mg"},{"bike_id":"7ee5e9c9-c9de-4184-be15-04dcbb3ea74c","system_id":"levelo_inurba_marseille","lat":43.32284,"lon":5.38288,"is_reserved":false,"is_disabled":false,"rental_uris":{"android":"levelo://app?vid=7ee5e9c9-c9de-4184-be15-04dcbb3ea74c","ios":"levelo://app?vid=7ee5e9c9-c9de-4184-be15-04dcbb3ea74c"},"vehicle_type_id":"4","last_reported":1731139821,"current_range_meters":38000,"station_id":"ce4bhr12rcd13ifvqhqg","pricing_plan_id":"cebpf4jnsgd1na2vs0mg"},{"bike_id":"764ab749-70ca-4b73-a35f-c0abe15547f3","system_id":"levelo_inurba_marseille","lat":43.30145,"lon":5.38078,"is_reserved":false,"is_disabled":false,"rental_uris":{"android":"levelo://app?vid=764ab749-70ca-4b73-a35f-c0abe15547f3","ios":"levelo://app?vid=764ab749-70ca-4b73-a35f-c0abe15547f3"},"vehicle_type_id":"4","last_reported":1731139821,"current_range_meters":34800,"station_id":"ce4bgjp2rcd13ifvqbh0","pricing_plan_id":"cebpf4jnsgd1na2vs0mg"},{"bike_id":"dd02dda1-0cf5-4e23-8f9a-88ca5953c398","system_id":"levelo_inurba_marseille","lat":43.24993,"lon":5.38934,"is_reserved":false,"is_disabled":false,"rental_uris":{"android":"levelo://app?vid=dd02dda1-0cf5-4e23-8f9a-88ca5953c398","ios":"levelo://app?vid=dd02dda1-0cf5-4e23-8f9a-88ca5953c398"},"vehicle_type_id":"4","last_reported":1731139821,"current_range_meters":14000,"station_id":"ce4bhgp2rcd13ifvqfd0","pricing_plan_id":"cebpf4jnsgd1na2vs0mg"},{"bike_id":"c7bbeaf1-9143-4605-9dd2-31eea73940ee","system_id":"levelo_inurba_marseille","lat":43.29882,"lon":5.39737,"is_reserved":false,"is_disabled":false,"rental_uris":{"android":"levelo://app?vid=c7bbeaf1-9143-4605-9dd2-31eea73940ee","ios":"levelo://app?vid=c7bbeaf1-9143-4605-9dd2-31eea73940ee"},"vehicle_type_id":"4","last_reported":1731139821,"current_range_meters":37600,"station_id":"ce4bh0h2rcd13ifvqd50","pricing_plan_id":"cebpf4jnsgd1na2vs0mg"},{"bike_id":"4cdfcecb-8266-4c3d-8910-54c87811586a","system_id":"levelo_inurba_marseille","lat":43.25769,"lon":5.395392,"is_reserved":false,"is_disabled":false,"rental_uris":{"android":"levelo://app?vid=4cdfcecb-8266-4c3d-8910-54c87811586a","ios":"levelo://app?vid=4cdfcecb-8266-4c3d-8910-54c87811586a"},"vehicle_type_id":"4","last_reported":1731139821,"current_range_meters":34800,"station_id":"ce4bhip2rcd13ifvqft0","pricing_plan_id":"cebpf4jnsgd1na2vs0mg"},{"bike_id":"e0352fab-c635-4c7a-87d9-f615c078509d","system_id":"levelo_inurba_marseille","lat":43.32485,"lon":5.36566,"is_reserved":false,"is_disabled":false,"rental_uris":{"android":"levelo://app?vid=e0352fab-c635-4c7a-87d9-f615c078509d","ios":"levelo://app?vid=e0352fab-c635-4c7a-87d9-f615c078509d"},"vehicle_type_id":"4","last_reported":1731139821,"current_range_meters":39200,"station_id":"ce4bhs12rcd13ifvqhvg","pricing_plan_id":"cebpf4jnsgd1na2vs0mg"},{"bike_id":"e927137b-b561-43dc-8682-c3e2f40d1308","system_id":"levelo_inurba_marseille","lat":43.29252,"lon":5.4091,"is_reserved":false,"is_disabled":false,"rental_uris":{"android":"levelo://app?vid=e927137b-b561-43dc-8682-c3e2f40d1308","ios":"levelo://app?vid=e927137b-b561-43dc-8682-c3e2f40d1308"},"vehicle_type_id":"4","last_reported":1731139821,"current_range_meters":9600,"station_id":"ce4bh192rcd13ifvqdc0","pricing_plan_id":"cebpf4jnsgd1na2vs0mg"},{"bike_id":"c07f4fd7-44c8-4ca9-8cdd-edc38807fe9c","system_id":"levelo_inurba_marseille","lat":43.26552,"lon":5.37287,"is_reserved":false,"is_disabled":false,"rental_uris":{"android":"levelo://app?vid=c07f4fd7-44c8-4ca9-8cdd-edc38807fe9c","ios":"levelo://app?vid=c07f4fd7-44c8-4ca9-8cdd-edc38807fe9c"},"vehicle_type_id":"4","last_reported":1731139821,"current_range_meters":20400,"station_id":"ce4bhg12rcd13ifvqf70","pricing_plan_id":"cebpf4jnsgd1na2vs0mg"},{"bike_id":"774649b8-3eb5-4e5a-bdc0-8cf43dfb86a6","system_id":"levelo_inurba_marseille","lat":43.24648,"lon":5.38903,"is_reserved":false,"is_disabled":false,"rental_uris":{"android":"levelo://app?vid=774649b8-3eb5-4e5a-bdc0-8cf43dfb86a6","ios":"levelo://app?vid=774649b8-3eb5-4e5a-bdc0-8cf43dfb86a6"},"vehicle_type_id":"4","last_reported":1731139821,"current_range_meters":28800,"station_id":"ce4bhg12rcd13ifvqf60","pricing_plan_id":"cebpf4jnsgd1na2vs0mg"},{"bike_id":"9d291c5d-07c9-471b-b1f2-df5c113ecdb3","system_id":"levelo_inurba_marseille","lat":43.306495,"lon":5.400856,"is_reserved":false,"is_disabled":false,"rental_uris":{"android":"levelo://app?vid=9d291c5d-07c9-471b-b1f2-df5c113ecdb3","ios":"levelo://app?vid=9d291c5d-07c9-471b-b1f2-df5c113ecdb3"},"vehicle_type_id":"4","last_reported":1731139821,"current_range_meters":38800,"station_id":"ce4bh112rcd13ifvqda0","pricing_plan_id":"cebpf4jnsgd1na2vs0mg"},{"bike_id":"45ae97db-074e-427c-99af-61ce973a25dc","system_id":"levelo_inurba_marseille","lat":43.30464,"lon":5.37903,"is_reserved":false,"is_disabled":false,"rental_uris":{"android":"levelo://app?vid=45ae97db-074e-427c-99af-61ce973a25dc","ios":"levelo://app?vid=45ae97db-074e-427c-99af-61ce973a25dc"},"vehicle_type_id":"4","last_reported":1731139821,"current_range_meters":30000,"station_id":"ce4bgup2rcd13ifvqcn0","pricing_plan_id":"cebpf4jnsgd1na2vs0mg"},{"bike_id":"423f24cd-846e-4c0b-b8a3-e03f6dddfa96","system_id":"levelo_inurba_marseille","lat":43.28303,"lon":5.43246,"is_reserved":false,"is_disabled":false,"rental_uris":{"android":"levelo://app?vid=423f24cd-846e-4c0b-b8a3-e03f6dddfa96","ios":"levelo://app?vid=423f24cd-846e-4c0b-b8a3-e03f6dddfa96"},"vehicle_type_id":"4","last_reported":1731139821,"current_range_meters":27600,"station_id":"","pricing_plan_id":"cebpf4jnsgd1na2vs0mg"},{"bike_id":"4acd6ed5-6ad1-41a5-87b6-d6616c52f8d7","system_id":"levelo_inurba_marseille","lat":43.31497,"lon":5.37306,"is_reserved":false,"is_disabled":false,"rental_uris":{"android":"levelo://app?vid=4acd6ed5-6ad1-41a5-87b6-d6616c52f8d7","ios":"levelo://app?vid=4acd6ed5-6ad1-41a5-87b6-d6616c52f8d7"},"vehicle_type_id":"4","last_reported":1731139821,"current_range_meters":30800,"station_id":"","pricing_plan_id":"cebpf4jnsgd1na2vs0mg"},{"bike_id":"5cb403b7-6bf8-4f37-a57f-47fe40c64a5e","system_id":"levelo_inurba_marseille","lat":43.297959,"lon":5.404102,"is_reserved":false,"is_disabled":false,"rental_uris":{"android":"levelo://app?vid=5cb403b7-6bf8-4f37-a57f-47fe40c64a5e","ios":"levelo://app?vid=5cb403b7-6bf8-4f37-a57f-47fe40c64a5e"},"vehicle_type_id":"4","last_reported":1731139821,"current_range_meters":38800,"station_id":"ce4bh112rcd13ifvqd90","pricing_plan_id":"cebpf4jnsgd1na2vs0mg"},{"bike_id":"6c8322f5-6dcd-4ef1-8d9e-3ef7c49f6f48","system_id":"levelo_inurba_marseille","lat":43.24071,"lon":5.37764,"is_reserved":false,"is_disabled":false,"rental_uris":{"android":"levelo://app?vid=6c8322f5-6dcd-4ef1-8d9e-3ef7c49f6f48","ios":"levelo://app?vid=6c8322f5-6dcd-4ef1-8d9e-3ef7c49f6f48"},"vehicle_type_id":"4","last_reported":1731139821,"current_range_meters":29600,"station_id":"ce4bhnp2rcd13ifvqgvg","pricing_plan_id":"cebpf4jnsgd1na2vs0mg"},{"bike_id":"5f6a8d35-790e-4921-a866-811031355016","system_id":"levelo_inurba_marseille","lat":43.28362,"lon":5.38626,"is_reserved":false,"is_disabled":false,"rental_uris":{"android":"levelo://app?vid=5f6a8d35-790e-4921-a866-811031355016","ios":"levelo://app?vid=5f6a8d35-790e-4921-a866-811031355016"},"vehicle_type_id":"4","last_reported":1731139821,"current_range_meters":38000,"station_id":"ce4bh492rcd13ifvqdvg","pricing_plan_id":"cebpf4jnsgd1na2vs0mg"},{"bike_id":"b2cbe124-e9e9-4203-8080-c24b9a55d574","system_id":"levelo_inurba_marseille","lat":43.24076,"lon":5.37759,"is_reserved":false,"is_disabled":false,"rental_uris":{"android":"levelo://app?vid=b2cbe124-e9e9-4203-8080-c24b9a55d574","ios":"levelo://app?vid=b2cbe124-e9e9-4203-8080-c24b9a55d574"},"vehicle_type_id":"4","last_reported":1731139821,"current_range_meters":36000,"station_id":"ce4bhnp2rcd13ifvqgvg","pricing_plan_id":"cebpf4jnsgd1na2vs0mg"},{"bike_id":"4adc051b-cab2-444f-a4c6-933d4708baf0","system_id":"levelo_inurba_marseille","lat":43.317167,"lon":5.423976,"is_reserved":false,"is_disabled":false,"rental_uris":{"android":"levelo://app?vid=4adc051b-cab2-444f-a4c6-933d4708baf0","ios":"levelo://app?vid=4adc051b-cab2-444f-a4c6-933d4708baf0"},"vehicle_type_id":"4","last_reported":1731139821,"current_range_meters":9200,"station_id":"ce4bhp92rcd13ifvqhbg","pricing_plan_id":"cebpf4jnsgd1na2vs0mg"},{"bike_id":"bc14f84f-871d-4faa-a3e8-565342d8fc32","system_id":"levelo_inurba_marseille","lat":43.336086,"lon":5.41028,"is_reserved":false,"is_disabled":false,"rental_uris":{"android":"levelo://app?vid=bc14f84f-871d-4faa-a3e8-565342d8fc32","ios":"levelo://app?vid=bc14f84f-871d-4faa-a3e8-565342d8fc32"},"vehicle_type_id":"4","last_reported":1731139821,"current_range_meters":18800,"station_id":"ce4bhqh2rcd13ifvqhmg","pricing_plan_id":"cebpf4jnsgd1na2vs0mg"},{"bike_id":"a61dfdc8-8032-4e2b-8bea-d0f6a2b05b1f","system_id":"levelo_inurba_marseille","lat":43.23958,"lon":5.3664,"is_reserved":false,"is_disabled":false,"rental_uris":{"android":"levelo://app?vid=a61dfdc8-8032-4e2b-8bea-d0f6a2b05b1f","ios":"levelo://app?vid=a61dfdc8-8032-4e2b-8bea-d0f6a2b05b1f"},"vehicle_type_id":"4","last_reported":1731139821,"current_range_meters":37600,"station_id":"ce4bhi12rcd13ifvqfp0","pricing_plan_id":"cebpf4jnsgd1na2vs0mg"},{"bike_id":"610c2ed4-7ebd-4e84-9e47-c51c9aca3591","system_id":"levelo_inurba_marseille","lat":43.28398,"lon":5.37523,"is_reserved":false,"is_disabled":false,"rental_uris":{"android":"levelo://app?vid=610c2ed4-7ebd-4e84-9e47-c51c9aca3591","ios":"levelo://app?vid=610c2ed4-7ebd-4e84-9e47-c51c9aca3591"},"vehicle_type_id":"4","last_reported":1731139821,"current_range_meters":38000,"station_id":"ce4bh412rcd13ifvqds0","pricing_plan_id":"cebpf4jnsgd1na2vs0mg"},{"bike_id":"6bf91cee-36bc-4259-a139-82597856edff","system_id":"levelo_inurba_marseille","lat":43.317115,"lon":5.377529,"is_reserved":false,"is_disabled":false,"rental_uris":{"android":"levelo://app?vid=6bf91cee-36bc-4259-a139-82597856edff","ios":"levelo://app?vid=6bf91cee-36bc-4259-a139-82597856edff"},"vehicle_type_id":"4","last_reported":1731139821,"current_range_meters":38400,"station_id":"ce4bgth2rcd13ifvqch0","pricing_plan_id":"cebpf4jnsgd1na2vs0mg"},{"bike_id":"f52e1dc5-9e0a-4918-a85e-0347dc29de69","system_id":"levelo_inurba_marseille","lat":43.23963,"lon":5.36637,"is_reserved":false,"is_disabled":false,"rental_uris":{"android":"levelo://app?vid=f52e1dc5-9e0a-4918-a85e-0347dc29de69","ios":"levelo://app?vid=f52e1dc5-9e0a-4918-a85e-0347dc29de69"},"vehicle_type_id":"4","last_reported":1731139821,"current_range_meters":8000,"station_id":"ce4bhi12rcd13ifvqfp0","pricing_plan_id":"cebpf4jnsgd1na2vs0mg"},{"bike_id":"ebd313ff-00e1-44f2-b2be-f0d356160fd2","system_id":"levelo_inurba_marseille","lat":43.313589,"lon":5.385031,"is_reserved":false,"is_disabled":false,"rental_uris":{"android":"levelo://app?vid=ebd313ff-00e1-44f2-b2be-f0d356160fd2","ios":"levelo://app?vid=ebd313ff-00e1-44f2-b2be-f0d356160fd2"},"vehicle_type_id":"4","last_reported":1731139821,"current_range_meters":36800,"station_id":"ce4bgt92rcd13ifvqcf0","pricing_plan_id":"cebpf4jnsgd1na2vs0mg"},{"bike_id":"73e44604-8d16-4866-9ebf-4cef983ba56b","system_id":"levelo_inurba_marseille","lat":43.28701,"lon":5.39988,"is_reserved":false,"is_disabled":false,"rental_uris":{"android":"levelo://app?vid=73e44604-8d16-4866-9ebf-4cef983ba56b","ios":"levelo://app?vid=73e44604-8d16-4866-9ebf-4cef983ba56b"},"vehicle_type_id":"4","last_reported":1731139821,"current_range_meters":24000,"station_id":"ce4bho92rcd13ifvqh3g","pricing_plan_id":"cebpf4jnsgd1na2vs0mg"},{"bike_id":"19df9529-82c7-4878-a6c9-de4e84322f55","system_id":"levelo_inurba_marseille","lat":43.28075,"lon":5.39662,"is_reserved":false,"is_disabled":false,"rental_uris":{"android":"levelo://app?vid=19df9529-82c7-4878-a6c9-de4e84322f55","ios":"levelo://app?vid=19df9529-82c7-4878-a6c9-de4e84322f55"},"vehicle_type_id":"4","last_reported":1731139821,"current_range_meters":37600,"station_id":"ce4bho12rcd13ifvqh2g","pricing_plan_id":"cebpf4jnsgd1na2vs0mg"},{"bike_id":"0b74ce83-e6b1-4485-8ca6-3897f29a426e","system_id":"levelo_inurba_marseille","lat":43.23952,"lon":5.36634,"is_reserved":false,"is_disabled":false,"rental_uris":{"android":"levelo://app?vid=0b74ce83-e6b1-4485-8ca6-3897f29a426e","ios":"levelo://app?vid=0b74ce83-e6b1-4485-8ca6-3897f29a426e"},"vehicle_type_id":"4","last_reported":1731139821,"current_range_meters":17600,"station_id":"ce4bhi12rcd13ifvqfp0","pricing_plan_id":"cebpf4jnsgd1na2vs0mg"},{"bike_id":"a2a9a46e-b652-452f-95c5-2d0638f3da28","system_id":"levelo_inurba_marseille","lat":43.31321,"lon":5.39693,"is_reserved":false,"is_disabled":false,"rental_uris":{"android":"levelo://app?vid=a2a9a46e-b652-452f-95c5-2d0638f3da28","ios":"levelo://app?vid=a2a9a46e-b652-452f-95c5-2d0638f3da28"},"vehicle_type_id":"4","last_reported":1731139821,"current_range_meters":38800,"station_id":"ce4bgvp2rcd13ifvqcu0","pricing_plan_id":"cebpf4jnsgd1na2vs0mg"},{"bike_id":"9b2d403d-41fb-4096-ad75-f7b830fb6652","system_id":"levelo_inurba_marseille","lat":43.29795,"lon":5.38103,"is_reserved":false,"is_disabled":false,"rental_uris":{"android":"levelo://app?vid=9b2d403d-41fb-4096-ad75-f7b830fb6652","ios":"levelo://app?vid=9b2d403d-41fb-4096-ad75-f7b830fb6652"},"vehicle_type_id":"4","last_reported":1731139821,"current_range_meters":24400,"station_id":"ce4bgip2rcd13ifvqbb0","pricing_plan_id":"cebpf4jnsgd1na2vs0mg"},{"bike_id":"bc9926a2-d4f2-48d8-ba53-d1a89a14d820","system_id":"levelo_inurba_marseille","lat":43.3057,"lon":5.36534,"is_reserved":false,"is_disabled":false,"rental_uris":{"android":"levelo://app?vid=bc9926a2-d4f2-48d8-ba53-d1a89a14d820","ios":"levelo://app?vid=bc9926a2-d4f2-48d8-ba53-d1a89a14d820"},"vehicle_type_id":"4","last_reported":1731139821,"current_range_meters":18800,"station_id":"ce4bgs12rcd13ifvqcag","pricing_plan_id":"cebpf4jnsgd1na2vs0mg"},{"bike_id":"9599d8b0-a1f3-4a70-a18f-c75f7a8086c7","system_id":"levelo_inurba_marseille","lat":43.24391,"lon":5.37062,"is_reserved":false,"is_disabled":false,"rental_uris":{"android":"levelo://app?vid=9599d8b0-a1f3-4a70-a18f-c75f7a8086c7","ios":"levelo://app?vid=9599d8b0-a1f3-4a70-a18f-c75f7a8086c7"},"vehicle_type_id":"4","last_reported":1731139821,"current_range_meters":17200,"station_id":"ce4bhhh2rcd13ifvqfk0","pricing_plan_id":"cebpf4jnsgd1na2vs0mg"},{"bike_id":"f94bdcbe-9a46-4c5f-879c-d5fc8c43084c","system_id":"levelo_inurba_marseille","lat":43.33019,"lon":5.3904,"is_reserved":false,"is_disabled":false,"rental_uris":{"android":"levelo://app?vid=f94bdcbe-9a46-4c5f-879c-d5fc8c43084c","ios":"levelo://app?vid=f94bdcbe-9a46-4c5f-879c-d5fc8c43084c"},"vehicle_type_id":"4","last_reported":1731139821,"current_range_meters":37600,"station_id":"ce4bhr92rcd13ifvqhrg","pricing_plan_id":"cebpf4jnsgd1na2vs0mg"},{"bike_id":"737e318d-f108-4c95-991e-c706599395c0","system_id":"levelo_inurba_marseille","lat":43.30157,"lon":5.38087,"is_reserved":false,"is_disabled":false,"rental_uris":{"android":"levelo://app?vid=737e318d-f108-4c95-991e-c706599395c0","ios":"levelo://app?vid=737e318d-f108-4c95-991e-c706599395c0"},"vehicle_type_id":"4","last_reported":1731139821,"current_range_meters":35200,"station_id":"ce4bgjp2rcd13ifvqbh0","pricing_plan_id":"cebpf4jnsgd1na2vs0mg"},{"bike_id":"2bdc66ff-b0c1-461e-9fa4-5c84e37dc090","system_id":"levelo_inurba_marseille","lat":43.31496,"lon":5.37312,"is_reserved":false,"is_disabled":false,"rental_uris":{"android":"levelo://app?vid=2bdc66ff-b0c1-461e-9fa4-5c84e37dc090","ios":"levelo://app?vid=2bdc66ff-b0c1-461e-9fa4-5c84e37dc090"},"vehicle_type_id":"4","last_reported":1731139821,"current_range_meters":35600,"station_id":"ce4bgt12rcd13ifvqcd0","pricing_plan_id":"cebpf4jnsgd1na2vs0mg"},{"bike_id":"ae0c29bf-c7f0-480e-9829-9eff05ac2f9b","system_id":"levelo_inurba_marseille","lat":43.25104,"lon":5.40329,"is_reserved":false,"is_disabled":false,"rental_uris":{"android":"levelo://app?vid=ae0c29bf-c7f0-480e-9829-9eff05ac2f9b","ios":"levelo://app?vid=ae0c29bf-c7f0-480e-9829-9eff05ac2f9b"},"vehicle_type_id":"4","last_reported":1731139821,"current_range_meters":30000,"station_id":"ce4bhlh2rcd13ifvqgig","pricing_plan_id":"cebpf4jnsgd1na2vs0mg"},{"bike_id":"d25711f1-63b8-44c2-b28d-f6b1fc0e37f5","system_id":"levelo_inurba_marseille","lat":43.28611,"lon":5.37066,"is_reserved":false,"is_disabled":false,"rental_uris":{"android":"levelo://app?vid=d25711f1-63b8-44c2-b28d-f6b1fc0e37f5","ios":"levelo://app?vid=d25711f1-63b8-44c2-b28d-f6b1fc0e37f5"},"vehicle_type_id":"4","last_reported":1731139821,"current_range_meters":38000,"station_id":"ce4bht12rcd13ifvqi60","pricing_plan_id":"cebpf4jnsgd1na2vs0mg"},{"bike_id":"d4676fc9-e4cc-413a-903e-0afa33aa6aba","system_id":"levelo_inurba_marseille","lat":43.27209,"lon":5.39178,"is_reserved":false,"is_disabled":false,"rental_uris":{"android":"levelo://app?vid=d4676fc9-e4cc-413a-903e-0afa33aa6aba","ios":"levelo://app?vid=d4676fc9-e4cc-413a-903e-0afa33aa6aba"},"vehicle_type_id":"4","last_reported":1731139821,"current_range_meters":33600,"station_id":"ce4bhhp2rcd13ifvqfm0","pricing_plan_id":"cebpf4jnsgd1na2vs0mg"},{"bike_id":"71684031-bf95-4fd4-bc38-0f4a696a2564","system_id":"levelo_inurba_marseille","lat":43.28406,"lon":5.34973,"is_reserved":false,"is_disabled":false,"rental_uris":{"android":"levelo://app?vid=71684031-bf95-4fd4-bc38-0f4a696a2564","ios":"levelo://app?vid=71684031-bf95-4fd4-bc38-0f4a696a2564"},"vehicle_type_id":"4","last_reported":1731139821,"current_range_meters":37600,"station_id":"ce4bhbh2rcd13ifvqepg","pricing_plan_id":"cebpf4jnsgd1na2vs0mg"},{"bike_id":"2a6caaf6-34f1-4e12-8c9d-153fd774cf91","system_id":"levelo_inurba_marseille","lat":43.24806,"lon":5.37453,"is_reserved":false,"is_disabled":false,"rental_uris":{"android":"levelo://app?vid=2a6caaf6-34f1-4e12-8c9d-153fd774cf91","ios":"levelo://app?vid=2a6caaf6-34f1-4e12-8c9d-153fd774cf91"},"vehicle_type_id":"4","last_reported":1731139821,"current_range_meters":27600,"station_id":"ce4bhgh2rcd13ifvqfb0","pricing_plan_id":"cebpf4jnsgd1na2vs0mg"},{"bike_id":"4fe9edcd-1aa6-484f-b216-854bcdd421aa","system_id":"levelo_inurba_marseille","lat":43.29568,"lon":5.37512,"is_reserved":false,"is_disabled":false,"rental_uris":{"android":"levelo://app?vid=4fe9edcd-1aa6-484f-b216-854bcdd421aa","ios":"levelo://app?vid=4fe9edcd-1aa6-484f-b216-854bcdd421aa"},"vehicle_type_id":"4","last_reported":1731139821,"current_range_meters":30000,"station_id":"ce4bgh92rcd13ifvqb50","pricing_plan_id":"cebpf4jnsgd1na2vs0mg"},{"bike_id":"90343536-f6e0-4e41-9bfb-324533da21cb","system_id":"levelo_inurba_marseille","lat":43.301459,"lon":5.380921,"is_reserved":false,"is_disabled":false,"rental_uris":{"android":"levelo://app?vid=90343536-f6e0-4e41-9bfb-324533da21cb","ios":"levelo://app?vid=90343536-f6e0-4e41-9bfb-324533da21cb"},"vehicle_type_id":"4","last_reported":1731139821,"current_range_meters":25200,"station_id":"ce4bgjp2rcd13ifvqbh0","pricing_plan_id":"cebpf4jnsgd1na2vs0mg"},{"bike_id":"212db6b5-0672-4e09-9d3e-5becea0e56c2","system_id":"levelo_inurba_marseille","lat":43.32662,"lon":5.4099,"is_reserved":false,"is_disabled":false,"rental_uris":{"android":"levelo://app?vid=212db6b5-0672-4e09-9d3e-5becea0e56c2","ios":"levelo://app?vid=212db6b5-0672-4e09-9d3e-5becea0e56c2"},"vehicle_type_id":"4","last_reported":1731139821,"current_range_meters":38000,"station_id":"ce4bhpp2rcd13ifvqhgg","pricing_plan_id":"cebpf4jnsgd1na2vs0mg"},{"bike_id":"81d1e180-d523-4ef7-ae98-f9077f858825","system_id":"levelo_inurba_marseille","lat":43.2467,"lon":5.38155,"is_reserved":false,"is_disabled":false,"rental_uris":{"android":"levelo://app?vid=81d1e180-d523-4ef7-ae98-f9077f858825","ios":"levelo://app?vid=81d1e180-d523-4ef7-ae98-f9077f858825"},"vehicle_type_id":"4","last_reported":1731139821,"current_range_meters":7200,"station_id":"ce4bhih2rcd13ifvqfr0","pricing_plan_id":"cebpf4jnsgd1na2vs0mg"},{"bike_id":"510ea3ea-1633-4319-97bb-f67cfddcc93d","system_id":"levelo_inurba_marseille","lat":43.307848,"lon":5.376525,"is_reserved":false,"is_disabled":false,"rental_uris":{"android":"levelo://app?vid=510ea3ea-1633-4319-97bb-f67cfddcc93d","ios":"levelo://app?vid=510ea3ea-1633-4319-97bb-f67cfddcc93d"},"vehicle_type_id":"4","last_reported":1731139821,"current_range_meters":38000,"station_id":"ce4bhs12rcd13ifvqhvg","pricing_plan_id":"cebpf4jnsgd1na2vs0mg"},{"bike_id":"35dde5e6-86e4-4508-8edb-ab7330bb801c","system_id":"levelo_inurba_marseille","lat":43.25086,"lon":5.39528,"is_reserved":false,"is_disabled":false,"rental_uris":{"android":"levelo://app?vid=35dde5e6-86e4-4508-8edb-ab7330bb801c","ios":"levelo://app?vid=35dde5e6-86e4-4508-8edb-ab7330bb801c"},"vehicle_type_id":"4","last_reported":1731139821,"current_range_meters":39200,"station_id":"ce4bhm12rcd13ifvqgkg","pricing_plan_id":"cebpf4jnsgd1na2vs0mg"},{"bike_id":"ff989801-f59b-46d1-867b-7c2b6eab1cca","system_id":"levelo_inurba_marseille","lat":43.337444,"lon":5.374475,"is_reserved":false,"is_disabled":false,"rental_uris":{"android":"levelo://app?vid=ff989801-f59b-46d1-867b-7c2b6eab1cca","ios":"levelo://app?vid=ff989801-f59b-46d1-867b-7c2b6eab1cca"},"vehicle_type_id":"4","last_reported":1731139821,"current_range_meters":34800,"station_id":"","pricing_plan_id":"cebpf4jnsgd1na2vs0mg"},{"bike_id":"5c19d456-298c-4a20-9f50-0620b9fcbeb9","system_id":"levelo_inurba_marseille","lat":43.313615,"lon":5.384899,"is_reserved":false,"is_disabled":false,"rental_uris":{"android":"levelo://app?vid=5c19d456-298c-4a20-9f50-0620b9fcbeb9","ios":"levelo://app?vid=5c19d456-298c-4a20-9f50-0620b9fcbeb9"},"vehicle_type_id":"4","last_reported":1731139821,"current_range_meters":8800,"station_id":"ce4bgt92rcd13ifvqcf0","pricing_plan_id":"cebpf4jnsgd1na2vs0mg"},{"bike_id":"a2e0b525-c521-48a7-8e96-e29f2256b563","system_id":"levelo_inurba_marseille","lat":43.23175,"lon":5.39988,"is_reserved":false,"is_disabled":false,"rental_uris":{"android":"levelo://app?vid=a2e0b525-c521-48a7-8e96-e29f2256b563","ios":"levelo://app?vid=a2e0b525-c521-48a7-8e96-e29f2256b563"},"vehicle_type_id":"4","last_reported":1731139821,"current_range_meters":36000,"station_id":"ce4bhn12rcd13ifvqgqg","pricing_plan_id":"cebpf4jnsgd1na2vs0mg"},{"bike_id":"e26b838c-15be-4b82-8d62-590850e3fe40","system_id":"levelo_inurba_marseille","lat":43.28713,"lon":5.3999,"is_reserved":false,"is_disabled":false,"rental_uris":{"android":"levelo://app?vid=e26b838c-15be-4b82-8d62-590850e3fe40","ios":"levelo://app?vid=e26b838c-15be-4b82-8d62-590850e3fe40"},"vehicle_type_id":"4","last_reported":1731139821,"current_range_meters":34000,"station_id":"ce4bho92rcd13ifvqh3g","pricing_plan_id":"cebpf4jnsgd1na2vs0mg"},{"bike_id":"d02b68f3-b750-4589-b9b1-f3bc7cf6b1d6","system_id":"levelo_inurba_marseille","lat":43.3248,"lon":5.36559,"is_reserved":false,"is_disabled":false,"rental_uris":{"android":"levelo://app?vid=d02b68f3-b750-4589-b9b1-f3bc7cf6b1d6","ios":"levelo://app?vid=d02b68f3-b750-4589-b9b1-f3bc7cf6b1d6"},"vehicle_type_id":"4","last_reported":1731139821,"current_range_meters":38800,"station_id":"ce4bhs12rcd13ifvqhvg","pricing_plan_id":"cebpf4jnsgd1na2vs0mg"},{"bike_id":"69d38419-f915-4ada-a460-f28c05bf4ad2","system_id":"levelo_inurba_marseille","lat":43.27069,"lon":5.42277,"is_reserved":false,"is_disabled":false,"rental_uris":{"android":"levelo://app?vid=69d38419-f915-4ada-a460-f28c05bf4ad2","ios":"levelo://app?vid=69d38419-f915-4ada-a460-f28c05bf4ad2"},"vehicle_type_id":"4","last_reported":1731139821,"current_range_meters":39200,"station_id":"ce4bhk92rcd13ifvqgb0","pricing_plan_id":"cebpf4jnsgd1na2vs0mg"},{"bike_id":"d115c69c-dc61-4019-86ca-8f3ef1285cfb","system_id":"levelo_inurba_marseille","lat":43.22932,"lon":5.35373,"is_reserved":false,"is_disabled":false,"rental_uris":{"android":"levelo://app?vid=d115c69c-dc61-4019-86ca-8f3ef1285cfb","ios":"levelo://app?vid=d115c69c-dc61-4019-86ca-8f3ef1285cfb"},"vehicle_type_id":"4","last_reported":1731139821,"current_range_meters":33200,"station_id":"cpo3532slgdg3j2ikp40","pricing_plan_id":"cebpf4jnsgd1na2vs0mg"},{"bike_id":"1843914f-a536-46a6-bf98-e168143a7c78","system_id":"levelo_inurba_marseille","lat":43.25579,"lon":5.38244,"is_reserved":false,"is_disabled":false,"rental_uris":{"android":"levelo://app?vid=1843914f-a536-46a6-bf98-e168143a7c78","ios":"levelo://app?vid=1843914f-a536-46a6-bf98-e168143a7c78"},"vehicle_type_id":"4","last_reported":1731139821,"current_range_meters":8400,"station_id":"ce4bhih2rcd13ifvqfs0","pricing_plan_id":"cebpf4jnsgd1na2vs0mg"},{"bike_id":"7643d5f6-1000-4e84-ae3f-2ac4dc6b4fcd","system_id":"levelo_inurba_marseille","lat":43.24077,"lon":5.37761,"is_reserved":false,"is_disabled":false,"rental_uris":{"android":"levelo://app?vid=7643d5f6-1000-4e84-ae3f-2ac4dc6b4fcd","ios":"levelo://app?vid=7643d5f6-1000-4e84-ae3f-2ac4dc6b4fcd"},"vehicle_type_id":"4","last_reported":1731139821,"current_range_meters":22000,"station_id":"ce4bhnp2rcd13ifvqgvg","pricing_plan_id":"cebpf4jnsgd1na2vs0mg"},{"bike_id":"7a9fa4f4-5442-4ed1-b2d2-a325ae140f6d","system_id":"levelo_inurba_marseille","lat":43.28695,"lon":5.37396,"is_reserved":false,"is_disabled":false,"rental_uris":{"android":"levelo://app?vid=7a9fa4f4-5442-4ed1-b2d2-a325ae140f6d","ios":"levelo://app?vid=7a9fa4f4-5442-4ed1-b2d2-a325ae140f6d"},"vehicle_type_id":"4","last_reported":1731139821,"current_range_meters":30000,"station_id":"ce4bh3p2rcd13ifvqdq0","pricing_plan_id":"cebpf4jnsgd1na2vs0mg"},{"bike_id":"be94c940-c56d-4132-af66-fedb762b3e0f","system_id":"levelo_inurba_marseille","lat":43.23189,"lon":5.35562,"is_reserved":false,"is_disabled":false,"rental_uris":{"android":"levelo://app?vid=be94c940-c56d-4132-af66-fedb762b3e0f","ios":"levelo://app?vid=be94c940-c56d-4132-af66-fedb762b3e0f"},"vehicle_type_id":"4","last_reported":1731139821,"current_range_meters":38000,"station_id":"ce4bhu92rcd13ifvqi70","pricing_plan_id":"cebpf4jnsgd1na2vs0mg"},{"bike_id":"6f128ed2-c5a9-48ed-b225-cfecbd485ac3","system_id":"levelo_inurba_marseille","lat":43.29507,"lon":5.37507,"is_reserved":false,"is_disabled":false,"rental_uris":{"android":"levelo://app?vid=6f128ed2-c5a9-48ed-b225-cfecbd485ac3","ios":"levelo://app?vid=6f128ed2-c5a9-48ed-b225-cfecbd485ac3"},"vehicle_type_id":"4","last_reported":1731139821,"current_range_meters":38000,"station_id":"ce4bgkp2rcd13ifvqbmg","pricing_plan_id":"cebpf4jnsgd1na2vs0mg"},{"bike_id":"aaeb4df1-e1ae-4b5c-a43a-de833e8f2be9","system_id":"levelo_inurba_marseille","lat":43.31069,"lon":5.38348,"is_reserved":false,"is_disabled":false,"rental_uris":{"android":"levelo://app?vid=aaeb4df1-e1ae-4b5c-a43a-de833e8f2be9","ios":"levelo://app?vid=aaeb4df1-e1ae-4b5c-a43a-de833e8f2be9"},"vehicle_type_id":"4","last_reported":1731139821,"current_range_meters":38800,"station_id":"ce4bgv92rcd13ifvqcr0","pricing_plan_id":"cebpf4jnsgd1na2vs0mg"},{"bike_id":"db097537-d025-461d-abc5-6132b9522325","system_id":"levelo_inurba_marseille","lat":43.28661,"lon":5.36357,"is_reserved":false,"is_disabled":false,"rental_uris":{"android":"levelo://app?vid=db097537-d025-461d-abc5-6132b9522325","ios":"levelo://app?vid=db097537-d025-461d-abc5-6132b9522325"},"vehicle_type_id":"4","last_reported":1731139821,"current_range_meters":17200,"station_id":"ce4bhah2rcd13ifvqej0","pricing_plan_id":"cebpf4jnsgd1na2vs0mg"},{"bike_id":"498fd80a-f86c-4e40-b868-a3176f971bd4","system_id":"levelo_inurba_marseille","lat":43.29795,"lon":5.38103,"is_reserved":false,"is_disabled":false,"rental_uris":{"android":"levelo://app?vid=498fd80a-f86c-4e40-b868-a3176f971bd4","ios":"levelo://app?vid=498fd80a-f86c-4e40-b868-a3176f971bd4"},"vehicle_type_id":"4","last_reported":1731139821,"current_range_meters":27600,"station_id":"ce4bgip2rcd13ifvqbb0","pricing_plan_id":"cebpf4jnsgd1na2vs0mg"},{"bike_id":"59a73ce3-94ce-4ac5-9153-5fefdfbc19ae","system_id":"levelo_inurba_marseille","lat":43.289246,"lon":5.363982,"is_reserved":false,"is_disabled":false,"rental_uris":{"android":"levelo://app?vid=59a73ce3-94ce-4ac5-9153-5fefdfbc19ae","ios":"levelo://app?vid=59a73ce3-94ce-4ac5-9153-5fefdfbc19ae"},"vehicle_type_id":"4","last_reported":1731139821,"current_range_meters":32000,"station_id":"ce4bho92rcd13ifvqh3g","pricing_plan_id":"cebpf4jnsgd1na2vs0mg"},{"bike_id":"43115e06-c417-4692-8cff-5f92e5c55684","system_id":"levelo_inurba_marseille","lat":43.26778,"lon":5.39416,"is_reserved":false,"is_disabled":false,"rental_uris":{"android":"levelo://app?vid=43115e06-c417-4692-8cff-5f92e5c55684","ios":"levelo://app?vid=43115e06-c417-4692-8cff-5f92e5c55684"},"vehicle_type_id":"4","last_reported":1731139821,"current_range_meters":38800,"station_id":"ce4bhh12rcd13ifvqfg0","pricing_plan_id":"cebpf4jnsgd1na2vs0mg"},{"bike_id":"f5c6cd8d-43d2-4824-88ea-c5df80d5e844","system_id":"levelo_inurba_marseille","lat":43.30884,"lon":5.39654,"is_reserved":false,"is_disabled":false,"rental_uris":{"android":"levelo://app?vid=f5c6cd8d-43d2-4824-88ea-c5df80d5e844","ios":"levelo://app?vid=f5c6cd8d-43d2-4824-88ea-c5df80d5e844"},"vehicle_type_id":"4","last_reported":1731139821,"current_range_meters":8000,"station_id":"ce4bh012rcd13ifvqcv0","pricing_plan_id":"cebpf4jnsgd1na2vs0mg"},{"bike_id":"1bcda747-3d21-4894-be77-f48b030c8429","system_id":"levelo_inurba_marseille","lat":43.25719,"lon":5.41111,"is_reserved":false,"is_disabled":false,"rental_uris":{"android":"levelo://app?vid=1bcda747-3d21-4894-be77-f48b030c8429","ios":"levelo://app?vid=1bcda747-3d21-4894-be77-f48b030c8429"},"vehicle_type_id":"4","last_reported":1731139821,"current_range_meters":26000,"station_id":"ce4bhkp2rcd13ifvqgd0","pricing_plan_id":"cebpf4jnsgd1na2vs0mg"},{"bike_id":"a32fbefd-f609-4766-a174-68d036dc44d6","system_id":"levelo_inurba_marseille","lat":43.3133,"lon":5.39698,"is_reserved":false,"is_disabled":false,"rental_uris":{"android":"levelo://app?vid=a32fbefd-f609-4766-a174-68d036dc44d6","ios":"levelo://app?vid=a32fbefd-f609-4766-a174-68d036dc44d6"},"vehicle_type_id":"4","last_reported":1731139821,"current_range_meters":38800,"station_id":"ce4bgvp2rcd13ifvqcu0","pricing_plan_id":"cebpf4jnsgd1na2vs0mg"},{"bike_id":"40776dcf-58bd-41a2-8a38-94a5bce544a7","system_id":"levelo_inurba_marseille","lat":43.34149,"lon":5.40908,"is_reserved":false,"is_disabled":false,"rental_uris":{"android":"levelo://app?vid=40776dcf-58bd-41a2-8a38-94a5bce544a7","ios":"levelo://app?vid=40776dcf-58bd-41a2-8a38-94a5bce544a7"},"vehicle_type_id":"4","last_reported":1731139821,"current_range_meters":3600,"station_id":"ce4bhqh2rcd13ifvqhlg","pricing_plan_id":"cebpf4jnsgd1na2vs0mg"},{"bike_id":"b78fdf6a-a499-4b95-b8b1-2036284631f4","system_id":"levelo_inurba_marseille","lat":43.25938,"lon":5.40905,"is_reserved":false,"is_disabled":false,"rental_uris":{"android":"levelo://app?vid=b78fdf6a-a499-4b95-b8b1-2036284631f4","ios":"levelo://app?vid=b78fdf6a-a499-4b95-b8b1-2036284631f4"},"vehicle_type_id":"4","last_reported":1731139821,"current_range_meters":30000,"station_id":"ce4bhm92rcd13ifvqglg","pricing_plan_id":"cebpf4jnsgd1na2vs0mg"},{"bike_id":"5f15b91f-65e1-4063-b435-479221638e16","system_id":"levelo_inurba_marseille","lat":43.29039,"lon":5.39974,"is_reserved":false,"is_disabled":false,"rental_uris":{"android":"levelo://app?vid=5f15b91f-65e1-4063-b435-479221638e16","ios":"levelo://app?vid=5f15b91f-65e1-4063-b435-479221638e16"},"vehicle_type_id":"4","last_reported":1731139821,"current_range_meters":32000,"station_id":"ce4bh392rcd13ifvqdm0","pricing_plan_id":"cebpf4jnsgd1na2vs0mg"},{"bike_id":"4d0fa435-80e6-449e-8683-a7a73029c938","system_id":"levelo_inurba_marseille","lat":43.31324,"lon":5.39695,"is_reserved":false,"is_disabled":false,"rental_uris":{"android":"levelo://app?vid=4d0fa435-80e6-449e-8683-a7a73029c938","ios":"levelo://app?vid=4d0fa435-80e6-449e-8683-a7a73029c938"},"vehicle_type_id":"4","last_reported":1731139821,"current_range_meters":10800,"station_id":"ce4bgvp2rcd13ifvqcu0","pricing_plan_id":"cebpf4jnsgd1na2vs0mg"},{"bike_id":"51bacd08-9e91-41aa-8539-bf0387445c2b","system_id":"levelo_inurba_marseille","lat":43.310722,"lon":5.383455,"is_reserved":false,"is_disabled":false,"rental_uris":{"android":"levelo://app?vid=51bacd08-9e91-41aa-8539-bf0387445c2b","ios":"levelo://app?vid=51bacd08-9e91-41aa-8539-bf0387445c2b"},"vehicle_type_id":"4","last_reported":1731139821,"current_range_meters":33200,"station_id":"ce4bgv92rcd13ifvqcr0","pricing_plan_id":"cebpf4jnsgd1na2vs0mg"},{"bike_id":"c2d7365c-2709-480a-ab48-c4e57e9d13b1","system_id":"levelo_inurba_marseille","lat":43.25116,"lon":5.40321,"is_reserved":false,"is_disabled":false,"rental_uris":{"android":"levelo://app?vid=c2d7365c-2709-480a-ab48-c4e57e9d13b1","ios":"levelo://app?vid=c2d7365c-2709-480a-ab48-c4e57e9d13b1"},"vehicle_type_id":"4","last_reported":1731139821,"current_range_meters":20000,"station_id":"ce4bhlh2rcd13ifvqgig","pricing_plan_id":"cebpf4jnsgd1na2vs0mg"},