{"last_updated":1737839188,"ttl":60,"version":"2.2","data":{"bikes":[{"bike_id":"1aff60e0-6299-436a-afb4-d031acec73ea","system_id":"levelo_inurba_marseille","lat":43.31223,"lon":5.36798,"is_reserved":false,"is_disabled":false,"rental_uris":{"android":"levelo://app?vid=1aff60e0-6299-436a-afb4-d031acec73ea","ios":"levelo://app?vid=1aff60e0-6299-436a-afb4-d031acec73ea"},"vehicle_type_id":"4","last_reported":1737839189,"current_range_meters":29600,"station_id":"ce4bgl92rcd13ifvqbq0","pricing_plan_id":"cebpf4jnsgd1na2vs0mg"},{"bike_id":"03c64e80-5e01-4332-bc90-93a2fb6ac145","system_id":"levelo_inurba_marseille","lat":43.22927,"lon":5.35374,"is_reserved":false,"is_disabled":false,"rental_uris":{"android":"levelo://app?vid=03c64e80-5e01-4332-bc90-93a2fb6ac145","ios":"levelo://app?vid=03c64e80-5e01-4332-bc90-93a2fb6ac145"},"vehicle_type_id":"4","last_reported":1737839189,"current_range_meters":38800,"station_id":"cpo3532slgdg3j2ikp40","pricing_plan_id":"cebpf4jnsgd1na2vs0mg"},{"bike_id":"201c400e-9940-419e-9ce9-f44e47a243f2","system_id":"levelo_inurba_marseille","lat":43.3206,"lon":5.41545,"is_reserved":false,"is_disabled":false,"rental_uris":{"android":"levelo://app?vid=201c400e-9940-419e-9ce9-f44e47a243f2","ios":"levelo://app?vid=201c400e-9940-419e-9ce9-f44e47a243f2"},"vehicle_type_id":"4","last_reported":1737839189,"current_range_meters":33600,"station_id":"ce4bhq92rcd13ifvqhkg","pricing_plan_id":"cebpf4jnsgd1na2vs0mg"},{"bike_id":"7cb17210-e6bd-4f16-9d5a-6665c44a1097","system_id":"levelo_inurba_marseille","lat":43.26049,"lon":5.39406,"is_reserved":false,"is_disabled":false,"rental_uris":{"android":"levelo://app?vid=7cb17210-e6bd-4f16-9d5a-6665c44a1097","ios":"levelo://app?vid=7cb17210-e6bd-4f16-9d5a-6665c44a1097"},"vehicle_type_id":"4","last_reported":1737839189,"current_range_meters":8000,"station_id":"ce4bhh92rcd13ifvqfj0","pricing_plan_id":"cebpf4jnsgd1na2vs0mg"},{"bike_id":"22fdda07-29f7-4097-aa7c-457566d3caba","system_id":"levelo_inurba_marseille","lat":43.25096,"lon":5.39524,"is_reserved":false,"is_disabled":false,"rental_uris":{"android":"levelo://app?vid=22fdda07-29f7-4097-aa7c-457566d3caba","ios":"levelo://app?vid=22fdda07-29f7-4097-aa7c-457566d3caba"},"vehicle_type_id":"4","last_reported":1737839189,"current_range_meters":28400,"station_id":"ce4bhm12rcd13ifvqgkg","pricing_plan_id":"cebpf4jnsgd1na2vs0mg"},{"bike_id":"0f37f612-bab0-4811-95c1-da64c54e0705","system_id":"levelo_inurba_marseille","lat":43.27989,"lon":5.41657,"is_reserved":false,"is_disabled":false,"rental_uris":{"android":"levelo://app?vid=0f37f612-bab0-4811-95c1-da64c54e0705","ios":"levelo://app?vid=0f37f612-bab0-4811-95c1-da64c54e0705"},"vehicle_type_id":"4","last_reported":1737839189,"current_range_meters":38800,"station_id":"ce4bho12rcd13ifvqh1g","pricing_plan_id":"cebpf4jnsgd1na2vs0mg"},{"bike_id":"6e75fab8-1e8b-4daf-829d-65f3d9b3eb31","system_id":"levelo_inurba_marseille","lat":43.29417,"lon":5.38625,"is_reserved":false,"is_disabled":false,"rental_uris":{"android":"levelo://app?vid=6e75fab8-1e8b-4daf-829d-65f3d9b3eb31","ios":"levelo://app?vid=6e75fab8-1e8b-4daf-829d-65f3d9b3eb31"},"vehicle_type_id":"4","last_reported":1737839189,"current_range_meters":33600,"station_id":"ce4bh2h2rcd13ifvqdh0","pricing_plan_id":"cebpf4jnsgd1na2vs0mg"},{"bike_id":"46aa776e-a8c8-4713-a46c-cedbbbd879f9","system_id":"levelo_inurba_marseille","lat":43.28363,"lon":5.38099,"is_reserved":false,"is_disabled":true,"rental_uris":{"android":"levelo://app?vid=46aa776e-a8c8-4713-a46c-cedbbbd879f9","ios":"levelo://app?vid=46aa776e-a8c8-4713-a46c-cedbbbd879f9"},"vehicle_type_id":"4","last_reported":1737839189,"current_range_meters":1200,"station_id":"ce4bh412rcd13ifvqdr0","pricing_plan_id":"cebpf4jnsgd1na2vs0mg"},{"bike_id":"58d9e3df-28a3-4560-b2cd-4d33fefbd544","system_id":"levelo_inurba_marseille","lat":43.28328,"lon":5.38079,"is_reserved":false,"is_disabled":true,"rental_uris":{"android":"levelo://app?vid=58d9e3df-28a3-4560-b2cd-4d33fefbd544","ios":"levelo://app?vid=58d9e3df-28a3-4560-b2cd-4d33fefbd544"},"vehicle_type_id":"4","last_reported":1737839189,"current_range_meters":20800,"station_id":"ce4bh412rcd13ifvqdr0","pricing_plan_id":"cebpf4jnsgd1na2vs0mg"},{"bike_id":"114c1cd1-2133-4b83-a29b-0e88a0d8a08c","system_id":"levelo_inurba_marseille","lat":43.29423,"lon":5.38619,"is_reserved":false,"is_disabled":false,"rental_uris":{"android":"levelo://app?vid=114c1cd1-2133-4b83-a29b-0e88a0d8a08c","ios":"levelo://app?vid=114c1cd1-2133-4b83-a29b-0e88a0d8a08c"},"vehicle_type_id":"4","last_reported":1737839189,"current_range_meters":6000,"station_id":"ce4bh2h2rcd13ifvqdh0","pricing_plan_id":"cebpf4jnsgd1na2vs0mg"},{"bike_id":"07209b1c-5ba3-4f4a-b0a9-57bcc04f160a","system_id":"levelo_inurba_marseille","lat":43.31072,"lon":5.38346,"is_reserved":false,"is_disabled":false,"rental_uris":{"android":"levelo://app?vid=07209b1c-5ba3-4f4a-b0a9-57bcc04f160a","ios":"levelo://app?vid=07209b1c-5ba3-4f4a-b0a9-57bcc04f160a"},"vehicle_type_id":"4","last_reported":1737839189,"current_range_meters":38800,"station_id":"ce4bgv92rcd13ifvqcr0","pricing_plan_id":"cebpf4jnsgd1na2vs0mg"},{"bike_id":"4914872c-162c-4b5d-a9af-cff65f389580","system_id":"levelo_inurba_marseille","lat":43.29597,"lon":5.38077,"is_reserved":false,"is_disabled":true,"rental_uris":{"android":"levelo://app?vid=4914872c-162c-4b5d-a9af-cff65f389580","ios":"levelo://app?vid=4914872c-162c-4b5d-a9af-cff65f389580"},"vehicle_type_id":"4","last_reported":1737839189,"current_range_meters":0,"station_id":"ce4bgl12rcd13ifvqbo0","pricing_plan_id":"cebpf4jnsgd1na2vs0mg"},{"bike_id":"9dbadb75-2ed3-4b67-9d38-06af2fcbc780","system_id":"levelo_inurba_marseille","lat":43.30651,"lon":5.40091,"is_reserved":false,"is_disabled":false,"rental_uris":{"android":"levelo://app?vid=9dbadb75-2ed3-4b67-9d38-06af2fcbc780","ios":"levelo://app?vid=9dbadb75-2ed3-4b67-9d38-06af2fcbc780"},"vehicle_type_id":"4","last_reported":1737839189,"current_range_meters":36000,"station_id":"ce4bh112rcd13ifvqda0","pricing_plan_id":"cebpf4jnsgd1na2vs0mg"},{"bike_id":"913e6b56-0c56-4d6b-8ffb-a3cba8f88ba7","system_id":"levelo_inurba_marseille","lat":43.29971,"lon":5.385,"is_reserved":false,"is_disabled":false,"rental_uris":{"android":"levelo://app?vid=913e6b56-0c56-4d6b-8ffb-a3cba8f88ba7","ios":"levelo://app?vid=913e6b56-0c56-4d6b-8ffb-a3cba8f88ba7"},"vehicle_type_id":"4","last_reported":1737839189,"current_range_meters":39200,"station_id":"ce4bgj92rcd13ifvqbd0","pricing_plan_id":"cebpf4jnsgd1na2vs0mg"},{"bike_id":"88b5b944-60f9-44c3-abde-ed4e63607fa8","system_id":"levelo_inurba_marseille","lat":43.24666,"lon":5.38165,"is_reserved":false,"is_disabled":false,"rental_uris":{"android":"levelo://app?vid=88b5b944-60f9-44c3-abde-ed4e63607fa8","ios":"levelo://app?vid=88b5b944-60f9-44c3-abde-ed4e63607fa8"},"vehicle_type_id":"4","last_reported":1737839189,"current_range_meters":10800,"station_id":"ce4bhih2rcd13ifvqfr0","pricing_plan_id":"cebpf4jnsgd1na2vs0mg"},{"bike_id":"0690bf94-1c09-4e27-aca4-e61048090c31","system_id":"levelo_inurba_marseille","lat":43.32662,"lon":5.41022,"is_reserved":false,"is_disabled":false,"rental_uris":{"android":"levelo://app?vid=0690bf94-1c09-4e27-aca4-e61048090c31","ios":"levelo://app?vid=0690bf94-1c09-4e27-aca4-e61048090c31"},"vehicle_type_id":"4","last_reported":1737839189,"current_range_meters":38800,"station_id":"ce4bhpp2rcd13ifvqhgg","pricing_plan_id":"cebpf4jnsgd1na2vs0mg"},{"bike_id":"eb257ae9-a271-443f-bcb2-3a499b2263eb","system_id":"levelo_inurba_marseille","lat":43.2962,"lon":5.37151,"is_reserved":false,"is_disabled":false,"rental_uris":{"android":"levelo://app?vid=eb257ae9-a271-443f-bcb2-3a499b2263eb","ios":"levelo://app?vid=eb257ae9-a271-443f-bcb2-3a499b2263eb"},"vehicle_type_id":"4","last_reported":1737839189,"current_range_meters":38000,"station_id":"ce4bgnh2rcd13ifvqc0g","pricing_plan_id":"cebpf4jnsgd1na2vs0mg"},{"bike_id":"457dbd0e-8f95-45e9-8ae6-40b39a5ca596","system_id":"levelo_inurba_marseille","lat":43.2319,"lon":5.35548,"is_reserved":false,"is_disabled":false,"rental_uris":{"android":"levelo://app?vid=457dbd0e-8f95-45e9-8ae6-40b39a5ca596","ios":"levelo://app?vid=457dbd0e-8f95-45e9-8ae6-40b39a5ca596"},"vehicle_type_id":"4","last_reported":1737839189,"current_range_meters":38400,"station_id":"ce4bhu92rcd13ifvqi70","pricing_plan_id":"cebpf4jnsgd1na2vs0mg"},{"bike_id":"3ef0d460-2db4-4f78-907d-90001fd7ddac","system_id":"levelo_inurba_marseille","lat":43.24547,"lon":5.3952,"is_reserved":false,"is_disabled":false,"rental_uris":{"android":"levelo://app?vid=3ef0d460-2db4-4f78-907d-90001fd7ddac","ios":"levelo://app?vid=3ef0d460-2db4-4f78-907d-90001fd7ddac"},"vehicle_type_id":"4","last_reported":1737839189,"current_range_meters":9600,"station_id":"ce4bhlp2rcd13ifvqgjg","pricing_plan_id":"cebpf4jnsgd1na2vs0mg"},{"bike_id":"b059518b-cf2e-465f-b01b-867541f3ad91","system_id":"levelo_inurba_marseille","lat":43.24085,"lon":5.37751,"is_reserved":false,"is_disabled":false,"rental_uris":{"android":"levelo://app?vid=b059518b-cf2e-465f-b01b-867541f3ad91","ios":"levelo://app?vid=b059518b-cf2e-465f-b01b-867541f3ad91"},"vehicle_type_id":"4","last_reported":1737839189,"current_range_meters":38000,"station_id":"ce4bhnp2rcd13ifvqgvg","pricing_plan_id":"cebpf4jnsgd1na2vs0mg"},{"bike_id":"1e779943-ac6c-41e8-b2b7-803482d1a7ac","system_id":"levelo_inurba_marseille","lat":43.28349,"lon":5.38115,"is_reserved":false,"is_disabled":false,"rental_uris":{"android":"levelo://app?vid=1e779943-ac6c-41e8-b2b7-803482d1a7ac","ios":"levelo://app?vid=1e779943-ac6c-41e8-b2b7-803482d1a7ac"},"vehicle_type_id":"4","last_reported":1737839189,"current_range_meters":36800,"station_id":"ce4bh412rcd13ifvqdr0","pricing_plan_id":"cebpf4jnsgd1na2vs0mg"},{"bike_id":"4e4a5c41-6ed2-435b-9c6a-dbaeecb8e0b1","system_id":"levelo_inurba_marseille","lat":43.29884,"lon":5.43646,"is_reserved":false,"is_disabled":false,"rental_uris":{"android":"levelo://app?vid=4e4a5c41-6ed2-435b-9c6a-dbaeecb8e0b1","ios":"levelo://app?vid=4e4a5c41-6ed2-435b-9c6a-dbaeecb8e0b1"},"vehicle_type_id":"4","last_reported":1737839189,"current_range_meters":20000,"station_id":"ce4bhpp2rcd13ifvqhfg","pricing_plan_id":"cebpf4jnsgd1na2vs0mg"},{"bike_id":"d06b6dd8-7b26-4e14-8483-8f8817ba9baf","system_id":"levelo_inurba_marseille","lat":43.3205,"lon":5.41583,"is_reserved":false,"is_disabled":false,"rental_uris":{"android":"levelo://app?vid=d06b6dd8-7b26-4e14-8483-8f8817ba9baf","ios":"levelo://app?vid=d06b6dd8-7b26-4e14-8483-8f8817ba9baf"},"vehicle_type_id":"4","last_reported":1737839189,"current_range_meters":36800,"station_id":"ce4bhq92rcd13ifvqhkg","pricing_plan_id":"cebpf4jnsgd1na2vs0mg"},{"bike_id":"210624a0-0160-4ca7-abdb-10185ab00b32","system_id":"levelo_inurba_marseille","lat":43.31707,"lon":5.3775,"is_reserved":false,"is_disabled":false,"rental_uris":{"android":"levelo://app?vid=210624a0-0160-4ca7-abdb-10185ab00b32","ios":"levelo://app?vid=210624a0-0160-4ca7-abdb-10185ab00b32"},"vehicle_type_id":"4","last_reported":1737839189,"current_range_meters":35600,"station_id":"ce4bgth2rcd13ifvqch0","pricing_plan_id":"cebpf4jnsgd1na2vs0mg"},{"bike_id":"70c455dc-99d2-48a0-b677-7b7fd5797f7e","system_id":"levelo_inurba_marseille","lat":43.26939,"lon":5.40255,"is_reserved":false,"is_disabled":false,"rental_uris":{"android":"levelo://app?vid=70c455dc-99d2-48a0-b677-7b7fd5797f7e","ios":"levelo://app?vid=70c455dc-99d2-48a0-b677-7b7fd5797f7e"},"vehicle_type_id":"4","last_reported":1737839189,"current_range_meters":38800,"station_id":"cjm6bp8fraef2m0cb0m0","pricing_plan_id":"cebpf4jnsgd1na2vs0mg"},{"bike_id":"7e83737e-17a3-4dc8-b275-b52a496072fd","system_id":"levelo_inurba_marseille","lat":43.25498,"lon":5.37649,"is_reserved":false,"is_disabled":false,"rental_uris":{"android":"levelo://app?vid=7e83737e-17a3-4dc8-b275-b52a496072fd","ios":"levelo://app?vid=7e83737e-17a3-4dc8-b275-b52a496072fd"},"vehicle_type_id":"4","last_reported":1737839189,"current_range_meters":39200,"station_id":"ce4bhh12rcd13ifvqff0","pricing_plan_id":"cebpf4jnsgd1na2vs0mg"},{"bike_id":"411f3113-f35c-40e4-a1c2-a823432303b4","system_id":"levelo_inurba_marseille","lat":43.262,"lon":5.37463,"is_reserved":false,"is_disabled":true,"rental_uris":{"android":"levelo://app?vid=411f3113-f35c-40e4-a1c2-a823432303b4","ios":"levelo://app?vid=411f3113-f35c-40e4-a1c2-a823432303b4"},"vehicle_type_id":"4","last_reported":1737839189,"current_range_meters":0,"station_id":"ce4bhgp2rcd13ifvqfc0","pricing_plan_id":"cebpf4jnsgd1na2vs0mg"},{"bike_id":"b3d630c6-da89-48f7-b315-52b327173195","system_id":"levelo_inurba_marseille","lat":43.29269,"lon":5.38443,"is_reserved":false,"is_disabled":false,"rental_uris":{"android":"levelo://app?vid=b3d630c6-da89-48f7-b315-52b327173195","ios":"levelo://app?vid=b3d630c6-da89-48f7-b315-52b327173195"},"vehicle_type_id":"4","last_reported":1737839189,"current_range_meters":36400,"station_id":"ce4bh692rcd13ifvqea0","pricing_plan_id":"cebpf4jnsgd1na2vs0mg"},{"bike_id":"38cf3c29-8323-4caf-a8eb-ca8be8404bbb","system_id":"levelo_inurba_marseille","lat":43.3091,"lon":5.36851,"is_reserved":false,"is_disabled":true,"rental_uris":{"android":"levelo://app?vid=38cf3c29-8323-4caf-a8eb-ca8be8404bbb","ios":"levelo://app?vid=38cf3c29-8323-4caf-a8eb-ca8be8404bbb"},"vehicle_type_id":"4","last_reported":1737839189,"current_range_meters":1200,"station_id":"ce4bgn92rcd13ifvqbvg","pricing_plan_id":"cebpf4jnsgd1na2vs0mg"},{"bike_id":"e9b18d33-2c32-4c0b-bac5-aee7380b5154","system_id":"levelo_inurba_marseille","lat":43.25102,"lon":5.39533,"is_reserved":false,"is_disabled":false,"rental_uris":{"android":"levelo://app?vid=e9b18d33-2c32-4c0b-bac5-aee7380b5154","ios":"levelo://app?vid=e9b18d33-2c32-4c0b-bac5-aee7380b5154"},"vehicle_type_id":"4","last_reported":1737839189,"current_range_meters":37600,"station_id":"ce4bhm12rcd13ifvqgkg","pricing_plan_id":"cebpf4jnsgd1na2vs0mg"},{"bike_id":"c89ad1cf-7f3d-481f-b7fe-2e530b1f2645","system_id":"levelo_inurba_marseille","lat":43.29422,"lon":5.38629,"is_reserved":false,"is_disabled":false,"rental_uris":{"android":"levelo://app?vid=c89ad1cf-7f3d-481f-b7fe-2e530b1f2645","ios":"levelo://app?vid=c89ad1cf-7f3d-481f-b7fe-2e530b1f2645"},"vehicle_type_id":"4","last_reported":1737839189,"current_range_meters":8400,"station_id":"ce4bh2h2rcd13ifvqdh0","pricing_plan_id":"cebpf4jnsgd1na2vs0mg"},{"bike_id":"36c8e4e2-35c8-471c-ab35-71edbc87eb83","system_id":"levelo_inurba_marseille","lat":43.29524,"lon":5.38542,"is_reserved":false,"is_disabled":true,"rental_uris":{"android":"levelo://app?vid=36c8e4e2-35c8-471c-ab35-71edbc87eb83","ios":"levelo://app?vid=36c8e4e2-35c8-471c-ab35-71edbc87eb83"},"vehicle_type_id":"4","last_reported":1737839189,"current_range_meters":34000,"station_id":"ce4bgih2rcd13ifvqba0","pricing_plan_id":"cebpf4jnsgd1na2vs0mg"},{"bike_id":"dab441dc-b588-4409-b75e-37905d99bed0","system_id":"levelo_inurba_marseille","lat":43.25727,"lon":5.41103,"is_reserved":false,"is_disabled":false,"rental_uris":{"android":"levelo://app?vid=dab441dc-b588-4409-b75e-37905d99bed0","ios":"levelo://app?vid=dab441dc-b588-4409-b75e-37905d99bed0"},"vehicle_type_id":"4","last_reported":1737839189,"current_range_meters":18800,"station_id":"ce4bhkp2rcd13ifvqgd0","pricing_plan_id":"cebpf4jnsgd1na2vs0mg"},{"bike_id":"b8c7ac08-94bb-4c1a-be59-442ad905fc87","system_id":"levelo_inurba_marseille","lat":43.29233,"lon":5.36589,"is_reserved":false,"is_disabled":false,"rental_uris":{"android":"levelo://app?vid=b8c7ac08-94bb-4c1a-be59-442ad905fc87","ios":"levelo://app?vid=b8c7ac08-94bb-4c1a-be59-442ad905fc87"},"vehicle_type_id":"4","last_reported":1737839189,"current_range_meters":33200,"station_id":"","pricing_plan_id":"cebpf4jnsgd1na2vs0mg"},{"bike_id":"50ec5238-6e67-46cf-b206-0c6c3c9dc0b0","system_id":"levelo_inurba_marseille","lat":43.28028,"lon":5.36937,"is_reserved":false,"is_disabled":false,"rental_uris":{"android":"levelo://app?vid=50ec5238-6e67-46cf-b206-0c6c3c9dc0b0","ios":"levelo://app?vid=50ec5238-6e67-46cf-b206-0c6c3c9dc0b0"},"vehicle_type_id":"4","last_reported":1737839189,"current_range_meters":34800,"station_id":"ce4bha12rcd13ifvqef0","pricing_plan_id":"cebpf4jnsgd1na2vs0mg"},{"bike_id":"691d37ee-d127-43f1-89c7-d2deab8fd8d7","system_id":"levelo_inurba_marseille","lat":43.29748,"lon":5.3625,"is_reserved":false,"is_disabled":false,"rental_uris":{"android":"levelo://app?vid=691d37ee-d127-43f1-89c7-d2deab8fd8d7","ios":"levelo://app?vid=691d37ee-d127-43f1-89c7-d2deab8fd8d7"},"vehicle_type_id":"4","last_reported":1737839189,"current_range_meters":27600,"station_id":"","pricing_plan_id":"cebpf4jnsgd1na2vs0mg"},{"bike_id":"1261b509-8885-4cc1-a428-b6274d9a5c58","system_id":"levelo_inurba_marseille","lat":43.292746,"lon":5.368521,"is_reserved":false,"is_disabled":false,"rental_uris":{"android":"levelo://app?vid=1261b509-8885-4cc1-a428-b6274d9a5c58","ios":"levelo://app?vid=1261b509-8885-4cc1-a428-b6274d9a5c58"},"vehicle_type_id":"4","last_reported":1737839189,"current_range_meters":38000,"station_id":"ce4bhbp2rcd13ifvqesg","pricing_plan_id":"cebpf4jnsgd1na2vs0mg"},{"bike_id":"d97b23ac-1532-416d-97a4-ebdf3acd4687","system_id":"levelo_inurba_marseille","lat":43.28417,"lon":5.34987,"is_reserved":false,"is_disabled":false,"rental_uris":{"android":"levelo://app?vid=d97b23ac-1532-416d-97a4-ebdf3acd4687","ios":"levelo://app?vid=d97b23ac-1532-416d-97a4-ebdf3acd4687"},"vehicle_type_id":"4","last_reported":1737839189,"current_range_meters":24000,"station_id":"ce4bhbh2rcd13ifvqepg","pricing_plan_id":"cebpf4jnsgd1na2vs0mg"},{"bike_id":"2b1f2c73-a648-48ba-86a5-fada76619153","system_id":"levelo_inurba_marseille","lat":43.31305,"lon":5.397,"is_reserved":false,"is_disabled":false,"rental_uris":{"android":"levelo://app?vid=2b1f2c73-a648-48ba-86a5-fada76619153","ios":"levelo://app?vid=2b1f2c73-a648-48ba-86a5-fada76619153"},"vehicle_type_id":"4","last_reported":1737839189,"current_range_meters":39200,"station_id":"ce4bgvp2rcd13ifvqcu0","pricing_plan_id":"cebpf4jnsgd1na2vs0mg"},{"bike_id":"fa7201fc-2cc0-4e39-87d8-305caa0d9c29","system_id":"levelo_inurba_marseille","lat":43.30318,"lon":5.36904,"is_reserved":false,"is_disabled":false,"rental_uris":{"android":"levelo://app?vid=fa7201fc-2cc0-4e39-87d8-305caa0d9c29","ios":"levelo://app?vid=fa7201fc-2cc0-4e39-87d8-305caa0d9c29"},"vehicle_type_id":"4","last_reported":1737839189,"current_range_meters":36800,"station_id":"ce4bgqh2rcd13ifvqc5g","pricing_plan_id":"cebpf4jnsgd1na2vs0mg"},{"bike_id":"2e3ff8ed-3443-4c7b-8de2-de9de90c7912","system_id":"levelo_inurba_marseille","lat":43.32477,"lon":5.3657,"is_reserved":false,"is_disabled":false,"rental_uris":{"android":"levelo://app?vid=2e3ff8ed-3443-4c7b-8de2-de9de90c7912","ios":"levelo://app?vid=2e3ff8ed-3443-4c7b-8de2-de9de90c7912"},"vehicle_type_id":"4","last_reported":1737839189,"current_range_meters":38800,"station_id":"ce4bhs12rcd13ifvqhvg","pricing_plan_id":"cebpf4jnsgd1na2vs0mg"},{"bike_id":"d43e292a-b400-4305-a186-cf142e03ba4c","system_id":"levelo_inurba_marseille","lat":43.29886,"lon":5.3974,"is_reserved":false,"is_disabled":false,"rental_uris":{"android":"levelo://app?vid=d43e292a-b400-4305-a186-cf142e03ba4c","ios":"levelo://app?vid=d43e292a-b400-4305-a186-cf142e03ba4c"},"vehicle_type_id":"4","last_reported":1737839189,"current_range_meters":10800,"station_id":"ce4bh0h2rcd13ifvqd50","pricing_plan_id":"cebpf4jnsgd1na2vs0mg"},{"bike_id":"6ece04f1-a00d-4dbb-b296-5b66d2dda7ab","system_id":"levelo_inurba_marseille","lat":43.2942,"lon":5.38611,"is_reserved":false,"is_disabled":false,"rental_uris":{"android":"levelo://app?vid=6ece04f1-a00d-4dbb-b296-5b66d2dda7ab","ios":"levelo://app?vid=6ece04f1-a00d-4dbb-b296-5b66d2dda7ab"},"vehicle_type_id":"4","last_reported":1737839189,"current_range_meters":21600,"station_id":"ce4bh2h2rcd13ifvqdh0","pricing_plan_id":"cebpf4jnsgd1na2vs0mg"},{"bike_id":"b65403f1-bcb1-46f3-825d-abdc181605e8","system_id":"levelo_inurba_marseille","lat":43.29421,"lon":5.38657,"is_reserved":false,"is_disabled":false,"rental_uris":{"android":"levelo://app?vid=b65403f1-bcb1-46f3-825d-abdc181605e8","ios":"levelo://app?vid=b65403f1-bcb1-46f3-825d-abdc181605e8"},"vehicle_type_id":"4","last_reported":1737839189,"current_range_meters":36400,"station_id":"ce4bh2h2rcd13ifvqdh0","pricing_plan_id":"cebpf4jnsgd1na2vs0mg"},{"bike_id":"cb022e37-7c43-4112-aa56-fb9c8312f425","system_id":"levelo_inurba_marseille","lat":43.30321,"lon":5.4042,"is_reserved":false,"is_disabled":false,"rental_uris":{"android":"levelo://app?vid=cb022e37-7c43-4112-aa56-fb9c8312f425","ios":"levelo://app?vid=cb022e37-7c43-4112-aa56-fb9c8312f425"},"vehicle_type_id":"4","last_reported":1737839189,"current_range_meters":11600,"station_id":"ce4bh012rcd13ifvqd10","pricing_plan_id":"cebpf4jnsgd1na2vs0mg"},{"bike_id":"2581265e-461e-4093-96e3-176dcfa2ce51","system_id":"levelo_inurba_marseille","lat":43.24646,"lon":5.38893,"is_reserved":false,"is_disabled":false,"rental_uris":{"android":"levelo://app?vid=2581265e-461e-4093-96e3-176dcfa2ce51","ios":"levelo://app?vid=2581265e-461e-4093-96e3-176dcfa2ce51"},"vehicle_type_id":"4","last_reported":1737839189,"current_range_meters":38800,"station_id":"ce4bhg12rcd13ifvqf60","pricing_plan_id":"cebpf4jnsgd1na2vs0mg"},{"bike_id":"8255dbbf-6c45-432a-91ed-9addf8fa8ef1","system_id":"levelo_inurba_marseille","lat":43.2738,"lon":5.3627,"is_reserved":false,"is_disabled":false,"rental_uris":{"android":"levelo://app?vid=8255dbbf-6c45-432a-91ed-9addf8fa8ef1","ios":"levelo://app?vid=8255dbbf-6c45-432a-91ed-9addf8fa8ef1"},"vehicle_type_id":"4","last_reported":1737839189,"current_range_meters":27600,"station_id":"ce4bhbh2rcd13ifvqeo0","pricing_plan_id":"cebpf4jnsgd1na2vs0mg"},{"bike_id":"909a1c2e-107c-48f7-aae9-c2b5d9ac6e94","system_id":"levelo_inurba_marseille","lat":43.30911,"lon":5.3687,"is_reserved":false,"is_disabled":false,"rental_uris":{"android":"levelo://app?vid=909a1c2e-107c-48f7-aae9-c2b5d9ac6e94","ios":"levelo://app?vid=909a1c2e-107c-48f7-aae9-c2b5d9ac6e94"},"vehicle_type_id":"4","last_reported":1737839189,"current_range_meters":6400,"station_id":"ce4bgn92rcd13ifvqbvg","pricing_plan_id":"cebpf4jnsgd1na2vs0mg"},{"bike_id":"c176ffd0-139f-4069-b255-f8a185e67f3e","system_id":"levelo_inurba_marseille","lat":43.2873,"lon":5.36084,"is_reserved":false,"is_disabled":false,"rental_uris":{"android":"levelo://app?vid=c176ffd0-139f-4069-b255-f8a185e67f3e","ios":"levelo://app?vid=c176ffd0-139f-4069-b255-f8a185e67f3e"},"vehicle_type_id":"4","last_reported":1737839189,"current_range_meters":32400,"station_id":"cki0cbj6b192h4jlfktg","pricing_plan_id":"cebpf4jnsgd1na2vs0mg"},{"bike_id":"3c7f005b-8b4b-4675-a635-eb652bb8c0fd","system_id":"levelo_inurba_marseille","lat":43.25868,"lon":5.39905,"is_reserved":false,"is_disabled":false,"rental_uris":{"android":"levelo://app?vid=3c7f005b-8b4b-4675-a635-eb652bb8c0fd","ios":"levelo://app?vid=3c7f005b-8b4b-4675-a635-eb652bb8c0fd"},"vehicle_type_id":"4","last_reported":1737839189,"current_range_meters":34800,"station_id":"ce4bhl92rcd13ifvqghg","pricing_plan_id":"cebpf4jnsgd1na2vs0mg"},{"bike_id":"5a504fe4-0ab6-4eed-b9ef-e27131441d67","system_id":"levelo_inurba_marseille","lat":43.30336,"lon":5.37858,"is_reserved":false,"is_disabled":false,"rental_uris":{"android":"levelo://app?vid=5a504fe4-0ab6-4eed-b9ef-e27131441d67","ios":"levelo://app?vid=5a504fe4-0ab6-4eed-b9ef-e27131441d67"},"vehicle_type_id":"4","last_reported":1737839189,"current_range_meters":30800,"station_id":"","pricing_plan_id":"cebpf4jnsgd1na2vs0mg"},{"bike_id":"a80a4397-82ec-4cf2-beca-a447bb1f3769","system_id":"levelo_inurba_marseille","lat":43.29523,"lon":5.39411,"is_reserved":false,"is_disabled":false,"rental_uris":{"android":"levelo://app?vid=a80a4397-82ec-4cf2-beca-a447bb1f3769","ios":"levelo://app?vid=a80a4397-82ec-4cf2-beca-a447bb1f3769"},"vehicle_type_id":"4","last_reported":1737839189,"current_range_meters":27200,"station_id":"ce4bh292rcd13ifvqdf0","pricing_plan_id":"cebpf4jnsgd1na2vs0mg"},{"bike_id":"4050da2e-e9a1-4246-bca1-0d3ae1b57acd","system_id":"levelo_inurba_marseille","lat":43.2942,"lon":5.38596,"is_reserved":false,"is_disabled":false,"rental_uris":{"android":"levelo://app?vid=4050da2e-e9a1-4246-bca1-0d3ae1b57acd","ios":"levelo://app?vid=4050da2e-e9a1-4246-bca1-0d3ae1b57acd"},"vehicle_type_id":"4","last_reported":1737839189,"current_range_meters":38800,"station_id":"ce4bh2h2rcd13ifvqdh0","pricing_plan_id":"cebpf4jnsgd1na2vs0mg"},{"bike_id":"29537b6d-60f6-4053-b601-105bf13a2e3a","system_id":"levelo_inurba_marseille","lat":43.28489,"lon":5.38425,"is_reserved":false,"is_disabled":true,"rental_uris":{"android":"levelo://app?vid=29537b6d-60f6-4053-b601-105bf13a2e3a","ios":"levelo://app?vid=29537b6d-60f6-4053-b601-105bf13a2e3a"},"vehicle_type_id":"4","last_reported":1737839189,"current_range_meters":6000,"station_id":"ce4bh512rcd13ifvqe3g","pricing_plan_id":"cebpf4jnsgd1na2vs0mg"},{"bike_id":"d5674512-c1dc-40b5-9261-167457d64dc1","system_id":"levelo_inurba_marseille","lat":43.29012,"lon":5.35939,"is_reserved":false,"is_disabled":false,"rental_uris":{"android":"levelo://app?vid=d5674512-c1dc-40b5-9261-167457d64dc1","ios":"levelo://app?vid=d5674512-c1dc-40b5-9261-167457d64dc1"},"vehicle_type_id":"4","last_reported":1737839189,"current_range_meters":38000,"station_id":"ce4bha92rcd13ifvqeg0","pricing_plan_id":"cebpf4jnsgd1na2vs0mg"},{"bike_id":"3339c9e5-7cad-4420-ac14-8d88da1f58d0","system_id":"levelo_inurba_marseille","lat":43.29543,"lon":5.37508,"is_reserved":false,"is_disabled":false,"rental_uris":{"android":"levelo://app?vid=3339c9e5-7cad-4420-ac14-8d88da1f58d0","ios":"levelo://app?vid=3339c9e5-7cad-4420-ac14-8d88da1f58d0"},"vehicle_type_id":"4","last_reported":1737839189,"current_range_meters":34800,"station_id":"ce4bgkp2rcd13ifvqbmg","pricing_plan_id":"cebpf4jnsgd1na2vs0mg"},{"bike_id":"03df0294-1dff-4e19-ab5f-d459cba88205","system_id":"levelo_inurba_marseille","lat":43.29426,"lon":5.38611,"is_reserved":false,"is_disabled":false,"rental_uris":{"android":"levelo://app?vid=03df0294-1dff-4e19-ab5f-d459cba88205","ios":"levelo://app?vid=03df0294-1dff-4e19-ab5f-d459cba88205"},"vehicle_type_id":"4","last_reported":1737839189,"current_range_meters":18000,"station_id":"ce4bh2h2rcd13ifvqdh0","pricing_plan_id":"cebpf4jnsgd1na2vs0mg"},{"bike_id":"c54f5b2e-f783-418a-8119-a38c5ea2c0aa","system_id":"levelo_inurba_marseille","lat":43.29002,"lon":5.35663,"is_reserved":false,"is_disabled":true,"rental_uris":{"android":"levelo://app?vid=c54f5b2e-f783-418a-8119-a38c5ea2c0aa","ios":"levelo://app?vid=c54f5b2e-f783-418a-8119-a38c5ea2c0aa"},"vehicle_type_id":"4","last_reported":1737839189,"current_range_meters":8400,"station_id":"ce4bhb92rcd13ifvqen0","pricing_plan_id":"cebpf4jnsgd1na2vs0mg"},{"bike_id":"9838cc78-2b53-49d3-ae13-82df62c4fd64","system_id":"levelo_inurba_marseille","lat":43.2841,"lon":5.4093,"is_reserved":false,"is_disabled":true,"rental_uris":{"android":"levelo://app?vid=9838cc78-2b53-49d3-ae13-82df62c4fd64","ios":"levelo://app?vid=9838cc78-2b53-49d3-ae13-82df62c4fd64"},"vehicle_type_id":"4","last_reported":1737839189,"current_range_meters":0,"station_id":"","pricing_plan_id":"cebpf4jnsgd1na2vs0mg"},{"bike_id":"cd2c3e6b-4e99-4030-8f38-99ce34b03608","system_id":"levelo_inurba_marseille","lat":43.2656,"lon":5.38977,"is_reserved":false,"is_disabled":false,"rental_uris":{"android":"levelo://app?vid=cd2c3e6b-4e99-4030-8f38-99ce34b03608","ios":"levelo://app?vid=cd2c3e6b-4e99-4030-8f38-99ce34b03608"},"vehicle_type_id":"4","last_reported":1737839189,"current_range_meters":38800,"station_id":"ce4bhe12rcd13ifvqf30","pricing_plan_id":"cebpf4jnsgd1na2vs0mg"},{"bike_id":"c53bdbcf-eaf6-4122-9e64-e5a2deb02092","system_id":"levelo_inurba_marseille","lat":43.27361,"lon":5.36253,"is_reserved":false,"is_disabled":false,"rental_uris":{"android":"levelo://app?vid=c53bdbcf-eaf6-4122-9e64-e5a2deb02092","ios":"levelo://app?vid=c53bdbcf-eaf6-4122-9e64-e5a2deb02092"},"vehicle_type_id":"4","last_reported":1737839189,"current_range_meters":23200,"station_id":"ce4bhbh2rcd13ifvqeo0","pricing_plan_id":"cebpf4jnsgd1na2vs0mg"},{"bike_id":"f6b896f2-48fc-4d80-93a1-f56b278daada","system_id":"levelo_inurba_marseille","lat":43.24658,"lon":5.38178,"is_reserved":false,"is_disabled":false,"rental_uris":{"android":"levelo://app?vid=f6b896f2-48fc-4d80-93a1-f56b278daada","ios":"levelo://app?vid=f6b896f2-48fc-4d80-93a1-f56b278daada"},"vehicle_type_id":"4","last_reported":1737839189,"current_range_meters":6400,"station_id":"ce4bhih2rcd13ifvqfr0","pricing_plan_id":"cebpf4jnsgd1na2vs0mg"},{"bike_id":"b14dc2f6-1c8e-41c3-bb9c-209a240d5277","system_id":"levelo_inurba_marseille","lat":43.32587,"lon":5.41448,"is_reserved":false,"is_disabled":false,"rental_uris":{"android":"levelo://app?vid=b14dc2f6-1c8e-41c3-bb9c-209a240d5277","ios":"levelo://app?vid=b14dc2f6-1c8e-41c3-bb9c-209a240d5277"},"vehicle_type_id":"4","last_reported":1737839189,"current_range_meters":39200,"station_id":"ce4bhq12rcd13ifvqhhg","pricing_plan_id":"cebpf4jnsgd1na2vs0mg"},{"bike_id":"bf096a89-ee72-4f37-85bd-7b3cf9f0cb41","system_id":"levelo_inurba_marseille","lat":43.3373,"lon":5.39187,"is_reserved":false,"is_disabled":false,"rental_uris":{"android":"levelo://app?vid=bf096a89-ee72-4f37-85bd-7b3cf9f0cb41","ios":"levelo://app?vid=bf096a89-ee72-4f37-85bd-7b3cf9f0cb41"},"vehicle_type_id":"4","last_reported":1737839189,"current_range_meters":30000,"station_id":"ce4bhr92rcd13ifvqhsg","pricing_plan_id":"cebpf4jnsgd1na2vs0mg"},{"bike_id":"c17547c7-19a0-43d8-9440-b514c22e980f","system_id":"levelo_inurba_marseille","lat":43.30645,"lon":5.40086,"is_reserved":false,"is_disabled":false,"rental_uris":{"android":"levelo://app?vid=c17547c7-19a0-43d8-9440-b514c22e980f","ios":"levelo://app?vid=c17547c7-19a0-43d8-9440-b514c22e980f"},"vehicle_type_id":"4","last_reported":1737839189,"current_range_meters":27600,"station_id":"ce4bh112rcd13ifvqda0","pricing_plan_id":"cebpf4jnsgd1na2vs0mg"},{"bike_id":"c2378bb1-796c-4edf-bf87-198266dfa5e8","system_id":"levelo_inurba_marseille","lat":43.23202,"lon":5.3554,"is_reserved":false,"is_disabled":false,"rental_uris":{"android":"levelo://app?vid=c2378bb1-796c-4edf-bf87-198266dfa5e8","ios":"levelo://app?vid=c2378bb1-796c-4edf-bf87-198266dfa5e8"},"vehicle_type_id":"4","last_reported":1737839189,"current_range_meters":4400,"station_id":"ce4bhu92rcd13ifvqi70","pricing_plan_id":"cebpf4jnsgd1na2vs0mg"},{"bike_id":"e9377389-5695-4fbe-97de-8f40d5abd6d9","system_id":"levelo_inurba_marseille","lat":43.28939,"lon":5.36406,"is_reserved":false,"is_disabled":false,"rental_uris":{"android":"levelo://app?vid=e9377389-5695-4fbe-97de-8f40d5abd6d9","ios":"levelo://app?vid=e9377389-5695-4fbe-97de-8f40d5abd6d9"},"vehicle_type_id":"4","last_reported":1737839189,"current_range_meters":28400,"station_id":"ce4bhc92rcd13ifvqetg","pricing_plan_id":"cebpf4jnsgd1na2vs0mg"},{"bike_id":"d69cf1fa-59ad-4f44-a9fb-82fbbe1b6b05","system_id":"levelo_inurba_marseille","lat":43.30795,"lon":5.43522,"is_reserved":false,"is_disabled":false,"rental_uris":{"android":"levelo://app?vid=d69cf1fa-59ad-4f44-a9fb-82fbbe1b6b05","ios":"levelo://app?vid=d69cf1fa-59ad-4f44-a9fb-82fbbe1b6b05"},"vehicle_type_id":"4","last_reported":1737839189,"current_range_meters":27600,"station_id":"ce4bhph2rcd13ifvqheg","pricing_plan_id":"cebpf4jnsgd1na2vs0mg"},{"bike_id":"d4995222-a487-4298-8633-83eacb0825bb","system_id":"levelo_inurba_marseille","lat":43.29261,"lon":5.38434,"is_reserved":false,"is_disabled":false,"rental_uris":{"android":"levelo://app?vid=d4995222-a487-4298-8633-83eacb0825bb","ios":"levelo://app?vid=d4995222-a487-4298-8633-83eacb0825bb"},"vehicle_type_id":"4","last_reported":1737839189,"current_range_meters":27600,"station_id":"ce4bh692rcd13ifvqea0","pricing_plan_id":"cebpf4jnsgd1na2vs0mg"},{"bike_id":"64f8b113-6460-4f0d-bf5f-6a6938afa43a","system_id":"levelo_inurba_marseille","lat":43.34143,"lon":5.40911,"is_reserved":false,"is_disabled":false,"rental_uris":{"android":"levelo://app?vid=64f8b113-6460-4f0d-bf5f-6a6938afa43a","ios":"levelo://app?vid=64f8b113-6460-4f0d-bf5f-6a6938afa43a"},"vehicle_type_id":"4","last_reported":1737839189,"current_range_meters":13600,"station_id":"ce4bhqh2rcd13ifvqhlg","pricing_plan_id":"cebpf4jnsgd1na2vs0mg"},{"bike_id":"2e0a8b86-b457-48a0-8577-213b01080398","system_id":"levelo_inurba_marseille","lat":43.23199,"lon":5.35545,"is_reserved":false,"is_disabled":false,"rental_uris":{"android":"levelo://app?vid=2e0a8b86-b457-48a0-8577-213b01080398","ios":"levelo://app?vid=2e0a8b86-b457-48a0-8577-213b01080398"},"vehicle_type_id":"4","last_reported":1737839189,"current_range_meters":39200,"station_id":"ce4bhu92rcd13ifvqi70","pricing_plan_id":"cebpf4jnsgd1na2vs0mg"},{"bike_id":"a7cf4467-440c-4bb8-a849-e8f193507576","system_id":"levelo_inurba_marseille","lat":43.29732,"lon":5.37661,"is_reserved":false,"is_disabled":false,"rental_uris":{"android":"levelo://app?vid=a7cf4467-440c-4bb8-a849-e8f193507576","ios":"levelo://app?vid=a7cf4467-440c-4bb8-a849-e8f193507576"},"vehicle_type_id":"4","last_reported":1737839189,"current_range_meters":30400,"station_id":"ce4bgkh2rcd13ifvqbl0","pricing_plan_id":"cebpf4jnsgd1na2vs0mg"},{"bike_id":"9574a902-5eb9-470c-bc7d-9b7cf97f9f4b","system_id":"levelo_inurba_marseille","lat":43.29419,"lon":5.38619,"is_reserved":false,"is_disabled":false,"rental_uris":{"android":"levelo://app?vid=9574a902-5eb9-470c-bc7d-9b7cf97f9f4b","ios":"levelo://app?vid=9574a902-5eb9-470c-bc7d-9b7cf97f9f4b"},"vehicle_type_id":"4","last_reported":1737839189,"current_range_meters":18000,"station_id":"ce4bh2h2rcd13ifvqdh0","pricing_plan_id":"cebpf4jnsgd1na2vs0mg"},{"bike_id":"0de3fec8-3bcb-4cf9-b444-0b094c31772a","system_id":"levelo_inurba_marseille","lat":43.30623,"lon":5.40079,"is_reserved":false,"is_disabled":false,"rental_uris":{"android":"levelo://app?vid=0de3fec8-3bcb-4cf9-b444-0b094c31772a","ios":"levelo://app?vid=0de3fec8-3bcb-4cf9-b444-0b094c31772a"},"vehicle_type_id":"4","last_reported":1737839189,"current_range_meters":22800,"station_id":"ce4bh112rcd13ifvqda0","pricing_plan_id":"cebpf4jnsgd1na2vs0mg"},{"bike_id":"26886f27-9e44-4f9b-b027-714b5c8fecc2","system_id":"levelo_inurba_marseille","lat":43.29216,"lon":5.39331,"is_reserved":false,"is_disabled":false,"rental_uris":{"android":"levelo://app?vid=26886f27-9e44-4f9b-b027-714b5c8fecc2","ios":"levelo://app?vid=26886f27-9e44-4f9b-b027-714b5c8fecc2"},"vehicle_type_id":"4","last_reported":1737839189,"current_range_meters":12400,"station_id":"ce4bh192rcd13ifvqdd0","pricing_plan_id":"cebpf4jnsgd1na2vs0mg"},{"bike_id":"87a5bed0-aef1-423b-bd85-fe44fdeeb863","system_id":"levelo_inurba_marseille","lat":43.33713,"lon":5.3919,"is_reserved":false,"is_disabled":false,"rental_uris":{"android":"levelo://app?vid=87a5bed0-aef1-423b-bd85-fe44fdeeb863","ios":"levelo://app?vid=87a5bed0-aef1-423b-bd85-fe44fdeeb863"},"vehicle_type_id":"4","last_reported":1737839189,"current_range_meters":36800,"station_id":"ce4bhr92rcd13ifvqhsg","pricing_plan_id":"cebpf4jnsgd1na2vs0mg"},{"bike_id":"bdec0346-331f-428d-ba08-cd71a7167114","system_id":"levelo_inurba_marseille","lat":43.26803,"lon":5.40262,"is_reserved":false,"is_disabled":false,"rental_uris":{"android":"levelo://app?vid=bdec0346-331f-428d-ba08-cd71a7167114","ios":"levelo://app?vid=bdec0346-331f-428d-ba08-cd71a7167114"},"vehicle_type_id":"4","last_reported":1737839189,"current_range_meters":38000,"station_id":"ce501612rcd8frsf0b60","pricing_plan_id":"cebpf4jnsgd1na2vs0mg"},{"bike_id":"770988d0-47fd-4d12-8823-5c1dca0d5dcb","system_id":"levelo_inurba_marseille","lat":43.27364,"lon":5.36246,"is_reserved":false,"is_disabled":false,"rental_uris":{"android":"levelo://app?vid=770988d0-47fd-4d12-8823-5c1dca0d5dcb","ios":"levelo://app?vid=770988d0-47fd-4d12-8823-5c1dca0d5dcb"},"vehicle_type_id":"4","last_reported":1737839189,"current_range_meters":38800,"station_id":"ce4bhbh2rcd13ifvqeo0","pricing_plan_id":"cebpf4jnsgd1na2vs0mg"},{"bike_id":"672498f6-2f09-4e5b-8f89-7143ebfb39c6","system_id":"levelo_inurba_marseille","lat":43.33018,"lon":5.39032,"is_reserved":false,"is_disabled":true,"rental_uris":{"android":"levelo://app?vid=672498f6-2f09-4e5b-8f89-7143ebfb39c6","ios":"levelo://app?vid=672498f6-2f09-4e5b-8f89-7143ebfb39c6"},"vehicle_type_id":"4","last_reported":1737839189,"current_range_meters":0,"station_id":"ce4bhr92rcd13ifvqhrg","pricing_plan_id":"cebpf4jnsgd1na2vs0mg"},{"bike_id":"b473fbaf-009b-47f5-8136-448f428dc1e7","system_id":"levelo_inurba_marseille","lat":43.29544,"lon":5.38545,"is_reserved":false,"is_disabled":false,"rental_uris":{"android":"levelo://app?vid=b473fbaf-009b-47f5-8136-448f428dc1e7","ios":"levelo://app?vid=b473fbaf-009b-47f5-8136-448f428dc1e7"},"vehicle_type_id":"4","last_reported":1737839189,"current_range_meters":28800,"station_id":"ce4bgih2rcd13ifvqba0","pricing_plan_id":"cebpf4jnsgd1na2vs0mg"},{"bike_id":"6aa36951-57ac-45c5-9b31-5139196cf0c0","system_id":"levelo_inurba_marseille","lat":43.26493,"lon":5.3955,"is_reserved":false,"is_disabled":false,"rental_uris":{"android":"levelo://app?vid=6aa36951-57ac-45c5-9b31-5139196cf0c0","ios":"levelo://app?vid=6aa36951-57ac-45c5-9b31-5139196cf0c0"},"vehicle_type_id":"4","last_reported":1737839189,"current_range_meters":38000,"station_id":"ce4bhi12rcd13ifvqfq0","pricing_plan_id":"cebpf4jnsgd1na2vs0mg"},{"bike_id":"58ac677e-bd2d-4595-a4e5-8d57a56cb96c","system_id":"levelo_inurba_marseille","lat":43.28152,"lon":5.42655,"is_reserved":false,"is_disabled":false,"rental_uris":{"android":"levelo://app?vid=58ac677e-bd2d-4595-a4e5-8d57a56cb96c","ios":"levelo://app?vid=58ac677e-bd2d-4595-a4e5-8d57a56cb96c"},"vehicle_type_id":"4","last_reported":1737839189,"current_range_meters":28800,"station_id":"ce4bhnh2rcd13ifvqgug","pricing_plan_id":"cebpf4jnsgd1na2vs0mg"},{"bike_id":"93ae2a40-eb94-4721-a05f-cba1173e03ea","system_id":"levelo_inurba_marseille","lat":43.30137,"lon":5.38775,"is_reserved":false,"is_disabled":false,"rental_uris":{"android":"levelo://app?vid=93ae2a40-eb94-4721-a05f-cba1173e03ea","ios":"levelo://app?vid=93ae2a40-eb94-4721-a05f-cba1173e03ea"},"vehicle_type_id":"4","last_reported":1737839189,"current_range_meters":16800,"station_id":"ce4bghh2rcd13ifvqb60","pricing_plan_id":"cebpf4jnsgd1na2vs0mg"},{"bike_id":"ab145e8d-e6aa-440c-8936-609d630fd64c","system_id":"levelo_inurba_marseille","lat":43.31269,"lon":5.40162,"is_reserved":false,"is_disabled":true,"rental_uris":{"android":"levelo://app?vid=ab145e8d-e6aa-440c-8936-609d630fd64c","ios":"levelo://app?vid=ab145e8d-e6aa-440c-8936-609d630fd64c"},"vehicle_type_id":"4","last_reported":1737839189,"current_range_meters":26000,"station_id":"ce4bh092rcd13ifvqd30","pricing_plan_id":"cebpf4jnsgd1na2vs0mg"},{"bike_id":"024aaa43-98dc-4f3b-bcfc-6594e26f63d6","system_id":"levelo_inurba_marseille","lat":43.33737,"lon":5.39189,"is_reserved":false,"is_disabled":false,"rental_uris":{"android":"levelo://app?vid=024aaa43-98dc-4f3b-bcfc-6594e26f63d6","ios":"levelo://app?vid=024aaa43-98dc-4f3b-bcfc-6594e26f63d6"},"vehicle_type_id":"4","last_reported":1737839189,"current_range_meters":33600,"station_id":"ce4bhr92rcd13ifvqhsg","pricing_plan_id":"cebpf4jnsgd1na2vs0mg"},{"bike_id":"474d415f-8e9e-4808-a33e-f1dacf021fce","system_id":"levelo_inurba_marseille","lat":43.28999,"lon":5.38635,"is_reserved":false,"is_disabled":false,"rental_uris":{"android":"levelo://app?vid=474d415f-8e9e-4808-a33e-f1dacf021fce","ios":"levelo://app?vid=474d415f-8e9e-4808-a33e-f1dacf021fce"},"vehicle_type_id":"4","last_reported":1737839189,"current_range_meters":38800,"station_id":"ce4bh4p2rcd13ifvqe0g","pricing_plan_id":"cebpf4jnsgd1na2vs0mg"},{"bike_id":"64e9009f-c066-4018-b62f-9a29844a1d10","system_id":"levelo_inurba_marseille","lat":43.32033,"lon":5.4154,"is_reserved":false,"is_disabled":false,"rental_uris":{"android":"levelo://app?vid=64e9009f-c066-4018-b62f-9a29844a1d10","ios":"levelo://app?vid=64e9009f-c066-4018-b62f-9a29844a1d10"},"vehicle_type_id":"4","last_reported":1737839189,"current_range_meters":28000,"station_id":"ce4bhq92rcd13ifvqhkg","pricing_plan_id":"cebpf4jnsgd1na2vs0mg"},{"bike_id":"c959572c-6974-4ed4-8889-654758c49222","system_id":"levelo_inurba_marseille","lat":43.26558,"lon":5.38988,"is_reserved":false,"is_disabled":true,"rental_uris":{"android":"levelo://app?vid=c959572c-6974-4ed4-8889-654758c49222","ios":"levelo://app?vid=c959572c-6974-4ed4-8889-654758c49222"},"vehicle_type_id":"4","last_reported":1737839189,"current_range_meters":0,"station_id":"ce4bhe12rcd13ifvqf30","pricing_plan_id":"cebpf4jnsgd1na2vs0mg"},{"bike_id":"c3bd7401-a0a1-4db6-9bf7-5d8ba49195e1","system_id":"levelo_inurba_marseille","lat":43.26518,"lon":5.39572,"is_reserved":false,"is_disabled":false,"rental_uris":{"android":"levelo://app?vid=c3bd7401-a0a1-4db6-9bf7-5d8ba49195e1","ios":"levelo://app?vid=c3bd7401-a0a1-4db6-9bf7-5d8ba49195e1"},"vehicle_type_id":"4","last_reported":1737839189,"current_range_meters":27200,"station_id":"ce4bhi12rcd13ifvqfq0","pricing_plan_id":"cebpf4jnsgd1na2vs0mg"},{"bike_id":"3fdd7e70-3e83-43bd-b13e-16385dfa32fb","system_id":"levelo_inurba_marseille","lat":43.24544,"lon":5.3952,"is_reserved":false,"is_disabled":false,"rental_uris":{"android":"levelo://app?vid=3fdd7e70-3e83-43bd-b13e-16385dfa32fb","ios":"levelo://app?vid=3fdd7e70-3e83-43bd-b13e-16385dfa32fb"},"vehicle_type_id":"4","last_reported":1737839189,"current_range_meters":23200,"station_id":"ce4bhlp2rcd13ifvqgjg","pricing_plan_id":"cebpf4jnsgd1na2vs0mg"},{"bike_id":"d736c97b-3f09-46ad-9821-1b2826ab6750","system_id":"levelo_inurba_marseille","lat":43.29034,"lon":5.372443,"is_reserved":false,"is_disabled":false,"rental_uris":{"android":"levelo://app?vid=d736c97b-3f09-46ad-9821-1b2826ab6750","ios":"levelo://app?vid=d736c97b-3f09-46ad-9821-1b2826ab6750"},"vehicle_type_id":"4","last_reported":1737839189,"current_range_meters":30800,"station_id":"ce4bha92rcd13ifvqeh0","pricing_plan_id":"cebpf4jnsgd1na2vs0mg"},{"bike_id":"8b0b0648-de26-4ff9-8eff-79a8191695a5","system_id":"levelo_inurba_marseille","lat":43.31996,"lon":5.38166,"is_reserved":false,"is_disabled":false,"rental_uris":{"android":"levelo://app?vid=8b0b0648-de26-4ff9-8eff-79a8191695a5","ios":"levelo://app?vid=8b0b0648-de26-4ff9-8eff-79a8191695a5"},"vehicle_type_id":"4","last_reported":1737839189,"current_range_meters":21600,"station_id":"ce4bhr12rcd13ifvqhpg","pricing_plan_id":"cebpf4jnsgd1na2vs0mg"},{"bike_id":"8f2aff8a-e8ee-4a3f-8ea7-5033ef7ae1b0","system_id":"levelo_inurba_marseille","lat":43.2925,"lon":5.38435,"is_reserved":false,"is_disabled":false,"rental_uris":{"android":"levelo://app?vid=8f2aff8a-e8ee-4a3f-8ea7-5033ef7ae1b0","ios":"levelo://app?vid=8f2aff8a-e8ee-4a3f-8ea7-5033ef7ae1b0"},"vehicle_type_id":"4","last_reported":1737839189,"current_range_meters":20000,"station_id":"ce4bh692rcd13ifvqea0","pricing_plan_id":"cebpf4jnsgd1na2vs0mg"},{"bike_id":"c92042e7-2a48-419e-bf07-9fc1801d28d0","system_id":"levelo_inurba_marseille","lat":43.26941,"lon":5.40244,"is_reserved":false,"is_disabled":false,"rental_uris":{"android":"levelo://app?vid=c92042e7-2a48-419e-bf07-9fc1801d28d0","ios":"levelo://app?vid=c92042e7-2a48-419e-bf07-9fc1801d28d0"},"vehicle_type_id":"4","last_reported":1737839189,"current_range_meters":35600,"station_id":"cjm6bp8fraef2m0cb0m0","pricing_plan_id":"cebpf4jnsgd1na2vs0mg"},{"bike_id":"ccbd1964-1a90-46ab-80ae-0536fbdbe6e4","system_id":"levelo_inurba_marseille","lat":43.29267,"lon":5.38435,"is_reserved":false,"is_disabled":false,"rental_uris":{"android":"levelo://app?vid=ccbd1964-1a90-46ab-80ae-0536fbdbe6e4","ios":"levelo://app?vid=ccbd1964-1a90-46ab-80ae-0536fbdbe6e4"},"vehicle_type_id":"4","last_reported":1737839189,"current_range_meters":38400,"station_id":"ce4bh692rcd13ifvqea0","pricing_plan_id":"cebpf4jnsgd1na2vs0mg"},{"bike_id":"db318319-ded9-4fb4-b352-ca3129b34752","system_id":"levelo_inurba_marseille","lat":43.30272,"lon":5.3965,"is_reserved":false,"is_disabled":false,"rental_uris":{"android":"levelo://app?vid=db318319-ded9-4fb4-b352-ca3129b34752","ios":"levelo://app?vid=db318319-ded9-4fb4-b352-ca3129b34752"},"vehicle_type_id":"4","last_reported":1737839189,"current_range_meters":12400,"station_id":"","pricing_plan_id":"cebpf4jnsgd1na2vs0mg"},{"bike_id":"0efff2f7-79c7-4011-a6d4-0010e4d39997","system_id":"levelo_inurba_marseille","lat":43.31477,"lon":5.37302,"is_reserved":false,"is_disabled":false,"rental_uris":{"android":"levelo://app?vid=0efff2f7-79c7-4011-a6d4-0010e4d39997","ios":"levelo://app?vid=0efff2f7-79c7-4011-a6d4-0010e4d39997"},"vehicle_type_id":"4","last_reported":1737839189,"current_range_meters":38800,"station_id":"ce4bgt12rcd13ifvqcd0","pricing_plan_id":"cebpf4jnsgd1na2vs0mg"},{"bike_id":"8828d78f-20cf-4d77-bf1b-fc63accf2e99","system_id":"levelo_inurba_marseille","lat":43.29401,"lon":5.3863,"is_reserved":false,"is_disabled":false,"rental_uris":{"android":"levelo://app?vid=8828d78f-20cf-4d77-bf1b-fc63accf2e99","ios":"levelo://app?vid=8828d78f-20cf-4d77-bf1b-fc63accf2e99"},"vehicle_type_id":"4","last_reported":1737839189,"current_range_meters":8400,"station_id":"ce4bh2h2rcd13ifvqdh0","pricing_plan_id":"cebpf4jnsgd1na2vs0mg"},{"bike_id":"2d0d2073-d710-414b-b25b-4383422beed0","system_id":"levelo_inurba_marseille","lat":43.27986,"lon":5.41668,"is_reserved":false,"is_disabled":false,"rental_uris":{"android":"levelo://app?vid=2d0d2073-d710-414b-b25b-4383422beed0","ios":"levelo://app?vid=2d0d2073-d710-414b-b25b-4383422beed0"},"vehicle_type_id":"4","last_reported":1737839189,"current_range_meters":38800,"station_id":"ce4bho12rcd13ifvqh1g","pricing_plan_id":"cebpf4jnsgd1na2vs0mg"},{"bike_id":"2601af1b-37fe-4e26-9cd2-57420bd2df9f","system_id":"levelo_inurba_marseille","lat":43.308061,"lon":5.376757,"is_reserved":false,"is_disabled":false,"rental_uris":{"android":"levelo://app?vid=2601af1b-37fe-4e26-9cd2-57420bd2df9f","ios":"levelo://app?vid=2601af1b-37fe-4e26-9cd2-57420bd2df9f"},"vehicle_type_id":"4","last_reported":1737839189,"current_range_meters":34000,"station_id":"ce4bgv92rcd13ifvqcq0","pricing_plan_id":"cebpf4jnsgd1na2vs0mg"},{"bike_id":"e62dca74-f3c8-47a4-84eb-adc6351e09f8","system_id":"levelo_inurba_marseille","lat":43.29424,"lon":5.38649,"is_reserved":false,"is_disabled":false,"rental_uris":{"android":"levelo://app?vid=e62dca74-f3c8-47a4-84eb-adc6351e09f8","ios":"levelo://app?vid=e62dca74-f3c8-47a4-84eb-adc6351e09f8"},"vehicle_type_id":"4","last_reported":1737839189,"current_range_meters":8000,"station_id":"ce4bh2h2rcd13ifvqdh0","pricing_plan_id":"cebpf4jnsgd1na2vs0mg"},{"bike_id":"e9bc701b-86ce-45d6-bb9e-c295f6ce732c","system_id":"levelo_inurba_marseille","lat":43.30658,"lon":5.40097,"is_reserved":false,"is_disabled":true,"rental_uris":{"android":"levelo://app?vid=e9bc701b-86ce-45d6-bb9e-c295f6ce732c","ios":"levelo://app?vid=e9bc701b-86ce-45d6-bb9e-c295f6ce732c"},"vehicle_type_id":"4","last_reported":1737839189,"current_range_meters":37600,"station_id":"ce4bh112rcd13ifvqda0","pricing_plan_id":"cebpf4jnsgd1na2vs0mg"},{"bike_id":"ebbb6dd1-ea2a-4b9e-a0fd-f2fc38df1042","system_id":"levelo_inurba_marseille","lat":43.2502,"lon":5.38927,"is_reserved":false,"is_disabled":true,"rental_uris":{"android":"levelo://app?vid=ebbb6dd1-ea2a-4b9e-a0fd-f2fc38df1042","ios":"levelo://app?vid=ebbb6dd1-ea2a-4b9e-a0fd-f2fc38df1042"},"vehicle_type_id":"4","last_reported":1737839189,"current_range_meters":0,"station_id":"ce4bhgp2rcd13ifvqfd0","pricing_plan_id":"cebpf4jnsgd1na2vs0mg"},{"bike_id":"e7d85fe4-96d0-4088-acee-0c3316f3f163","system_id":"levelo_inurba_marseille","lat":43.30634,"lon":5.40086,"is_reserved":false,"is_disabled":false,"rental_uris":{"android":"levelo://app?vid=e7d85fe4-96d0-4088-acee-0c3316f3f163","ios":"levelo://app?vid=e7d85fe4-96d0-4088-acee-0c3316f3f163"},"vehicle_type_id":"4","last_reported":1737839189,"current_range_meters":28000,"station_id":"ce4bh112rcd13ifvqda0","pricing_plan_id":"cebpf4jnsgd1na2vs0mg"},{"bike_id":"f76a8511-1638-4bbc-81b6-3e86daf501f9","system_id":"levelo_inurba_marseille","lat":43.292279,"lon":5.364616,"is_reserved":false,"is_disabled":true,"rental_uris":{"android":"levelo://app?vid=f76a8511-1638-4bbc-81b6-3e86daf501f9","ios":"levelo://app?vid=f76a8511-1638-4bbc-81b6-3e86daf501f9"},"vehicle_type_id":"4","last_reported":1737839189,"current_range_meters":0,"station_id":"","pricing_plan_id":"cebpf4jnsgd1na2vs0mg"},{"bike_id":"1c01a65a-ed74-468f-b2fe-898f58742594","system_id":"levelo_inurba_marseille","lat":43.29194,"lon":5.39317,"is_reserved":false,"is_disabled":false,"rental_uris":{"android":"levelo://app?vid=1c01a65a-ed74-468f-b2fe-898f58742594","ios":"levelo://app?vid=1c01a65a-ed74-468f-b2fe-898f58742594"},"vehicle_type_id":"4","last_reported":1737839189,"current_range_meters":38400,"station_id":"ce4bh192rcd13ifvqdd0","pricing_plan_id":"cebpf4jnsgd1na2vs0mg"},{"bike_id":"784d372f-471f-4ee2-b3ad-2636ed3dde27","system_id":"levelo_inurba_marseille","lat":43.27835,"lon":5.40701,"is_reserved":false,"is_disabled":false,"rental_uris":{"android":"levelo://app?vid=784d372f-471f-4ee2-b3ad-2636ed3dde27","ios":"levelo://app?vid=784d372f-471f-4ee2-b3ad-2636ed3dde27"},"vehicle_type_id":"4","last_reported":1737839189,"current_range_meters":39200,"station_id":"ce4bhnh2rcd13ifvqgtg","pricing_plan_id":"cebpf4jnsgd1na2vs0mg"},{"bike_id":"82341e47-96a7-4069-b045-ab5ca9ab6cd3","system_id":"levelo_inurba_marseille","lat":43.27602,"lon":5.38446,"is_reserved":false,"is_disabled":false,"rental_uris":{"android":"levelo://app?vid=82341e47-96a7-4069-b045-ab5ca9ab6cd3","ios":"levelo://app?vid=82341e47-96a7-4069-b045-ab5ca9ab6cd3"},"vehicle_type_id":"4","last_reported":1737839189,"current_range_meters":38800,"station_id":"ce4bhh92rcd13ifvqfi0","pricing_plan_id":"cebpf4jnsgd1na2vs0mg"},{"bike_id":"540eb3f4-4b75-4535-a1de-acc1b5b108d7","system_id":"levelo_inurba_marseille","lat":43.298,"lon":5.38115,"is_reserved":false,"is_disabled":false,"rental_uris":{"android":"levelo://app?vid=540eb3f4-4b75-4535-a1de-acc1b5b108d7","ios":"levelo://app?vid=540eb3f4-4b75-4535-a1de-acc1b5b108d7"},"vehicle_type_id":"4","last_reported":1737839189,"current_range_meters":6800,"station_id":"ce4bgip2rcd13ifvqbb0","pricing_plan_id":"cebpf4jnsgd1na2vs0mg"},{"bike_id":"0af52f93-e2ad-4e70-93eb-a6c272fbfbe2","system_id":"levelo_inurba_marseille","lat":43.31273,"lon":5.3685,"is_reserved":false,"is_disabled":false,"rental_uris":{"android":"levelo://app?vid=0af52f93-e2ad-4e70-93eb-a6c272fbfbe2","ios":"levelo://app?vid=0af52f93-e2ad-4e70-93eb-a6c272fbfbe2"},"vehicle_type_id":"4","last_reported":1737839189,"current_range_meters":37600,"station_id":"","pricing_plan_id":"cebpf4jnsgd1na2vs0mg"},{"bike_id":"6f0a24e6-f18f-4ae9-be96-21eb77488e1b","system_id":"levelo_inurba_marseille","lat":43.29312,"lon":5.37167,"is_reserved":false,"is_disabled":true,"rental_uris":{"android":"levelo://app?vid=6f0a24e6-f18f-4ae9-be96-21eb77488e1b","ios":"levelo://app?vid=6f0a24e6-f18f-4ae9-be96-21eb77488e1b"},"vehicle_type_id":"4","last_reported":1737839189,"current_range_meters":0,"station_id":"ce4bgh92rcd13ifvqb40","pricing_plan_id":"cebpf4jnsgd1na2vs0mg"},{"bike_id":"26bf4424-9484-49e9-8ce4-346a151a167e","system_id":"levelo_inurba_marseille","lat":43.29012,"lon":5.38612,"is_reserved":false,"is_disabled":false,"rental_uris":{"android":"levelo://app?vid=26bf4424-9484-49e9-8ce4-346a151a167e","ios":"levelo://app?vid=26bf4424-9484-49e9-8ce4-346a151a167e"},"vehicle_type_id":"4","last_reported":1737839189,"current_range_meters":38800,"station_id":"ce4bh4p2rcd13ifvqe0g","pricing_plan_id":"cebpf4jnsgd1na2vs0mg"},{"bike_id":"b5a61b34-f1cc-4659-8e10-7a2899988e4b","system_id":"levelo_inurba_marseille","lat":43.28693,"lon":5.37381,"is_reserved":false,"is_disabled":true,"rental_uris":{"android":"levelo://app?vid=b5a61b34-f1cc-4659-8e10-7a2899988e4b","ios":"levelo://app?vid=b5a61b34-f1cc-4659-8e10-7a2899988e4b"},"vehicle_type_id":"4","last_reported":1737839189,"current_range_meters":0,"station_id":"ce4bh3p2rcd13ifvqdq0","pricing_plan_id":"cebpf4jnsgd1na2vs0mg"},{"bike_id":"99e5a445-cdc2-4210-a04c-7608d52032be","system_id":"levelo_inurba_marseille","lat":43.31219,"lon":5.36834,"is_reserved":false,"is_disabled":false,"rental_uris":{"android":"levelo://app?vid=99e5a445-cdc2-4210-a04c-7608d52032be","ios":"levelo://app?vid=99e5a445-cdc2-4210-a04c-7608d52032be"},"vehicle_type_id":"4","last_reported":1737839189,"current_range_meters":38800,"station_id":"ce4bgl92rcd13ifvqbq0","pricing_plan_id":"cebpf4jnsgd1na2vs0mg"},{"bike_id":"1a4f09c9-6ea9-4592-a365-1d2b12d5045c","system_id":"levelo_inurba_marseille","lat":43.29543,"lon":5.38544,"is_reserved":false,"is_disabled":false,"rental_uris":{"android":"levelo://app?vid=1a4f09c9-6ea9-4592-a365-1d2b12d5045c","ios":"levelo://app?vid=1a4f09c9-6ea9-4592-a365-1d2b12d5045c"},"vehicle_type_id":"4","last_reported":1737839189,"current_range_meters":36000,"station_id":"ce4bgih2rcd13ifvqba0","pricing_plan_id":"cebpf4jnsgd1na2vs0mg"},{"bike_id":"d54e7416-9133-47cb-bc55-3d590b1f98b8","system_id":"levelo_inurba_marseille","lat":43.2868,"lon":5.36363,"is_reserved":false,"is_disabled":true,"rental_uris":{"android":"levelo://app?vid=d54e7416-9133-47cb-bc55-3d590b1f98b8","ios":"levelo://app?vid=d54e7416-9133-47cb-bc55-3d590b1f98b8"},"vehicle_type_id":"4","last_reported":1737839189,"current_range_meters":0,"station_id":"ce4bhah2rcd13ifvqej0","pricing_plan_id":"cebpf4jnsgd1na2vs0mg"},{"bike_id":"739e657d-bf01-4031-a481-9ab24400ec90","system_id":"levelo_inurba_marseille","lat":43.33027,"lon":5.39038,"is_reserved":false,"is_disabled":false,"rental_uris":{"android":"levelo://app?vid=739e657d-bf01-4031-a481-9ab24400ec90","ios":"levelo://app?vid=739e657d-bf01-4031-a481-9ab24400ec90"},"vehicle_type_id":"4","last_reported":1737839189,"current_range_meters":38800,"station_id":"ce4bhr92rcd13ifvqhrg","pricing_plan_id":"cebpf4jnsgd1na2vs0mg"},{"bike_id":"8f418039-64b4-4f8b-9b93-bbb14214da89","system_id":"levelo_inurba_marseille","lat":43.3169,"lon":5.37806,"is_reserved":false,"is_disabled":false,"rental_uris":{"android":"levelo://app?vid=8f418039-64b4-4f8b-9b93-bbb14214da89","ios":"levelo://app?vid=8f418039-64b4-4f8b-9b93-bbb14214da89"},"vehicle_type_id":"4","last_reported":1737839189,"current_range_meters":14400,"station_id":"","pricing_plan_id":"cebpf4jnsgd1na2vs0mg"},{"bike_id":"4ba17b62-67ad-47d4-ae06-50d84fbf1296","system_id":"levelo_inurba_marseille","lat":43.29902,"lon":5.43658,"is_reserved":false,"is_disabled":false,"rental_uris":{"android":"levelo://app?vid=4ba17b62-67ad-47d4-ae06-50d84fbf1296","ios":"levelo://app?vid=4ba17b62-67ad-47d4-ae06-50d84fbf1296"},"vehicle_type_id":"4","last_reported":1737839189,"current_range_meters":11200,"station_id":"ce4bhpp2rcd13ifvqhfg","pricing_plan_id":"cebpf4jnsgd1na2vs0mg"},{"bike_id":"e6c970da-5280-4c30-895b-56fd92d0ff76","system_id":"levelo_inurba_marseille","lat":43.3125,"lon":5.36851,"is_reserved":false,"is_disabled":false,"rental_uris":{"android":"levelo://app?vid=e6c970da-5280-4c30-895b-56fd92d0ff76","ios":"levelo://app?vid=e6c970da-5280-4c30-895b-56fd92d0ff76"},"vehicle_type_id":"4","last_reported":1737839189,"current_range_meters":38800,"station_id":"ce4bgl92rcd13ifvqbq0","pricing_plan_id":"cebpf4jnsgd1na2vs0mg"},{"bike_id":"1c35c755-8b1c-439e-8798-f1a001a3969d","system_id":"levelo_inurba_marseille","lat":43.28099,"lon":5.37852,"is_reserved":false,"is_disabled":true,"rental_uris":{"android":"levelo://app?vid=1c35c755-8b1c-439e-8798-f1a001a3969d","ios":"levelo://app?vid=1c35c755-8b1c-439e-8798-f1a001a3969d"},"vehicle_type_id":"4","last_reported":1737839189,"current_range_meters":0,"station_id":"ce4bha12rcd13ifvqee0","pricing_plan_id":"cebpf4jnsgd1na2vs0mg"},{"bike_id":"c5da4c12-5360-4e99-9d82-509952cb5a3e","system_id":"levelo_inurba_marseille","lat":43.29536,"lon":5.38534,"is_reserved":false,"is_disabled":false,"rental_uris":{"android":"levelo://app?vid=c5da4c12-5360-4e99-9d82-509952cb5a3e","ios":"levelo://app?vid=c5da4c12-5360-4e99-9d82-509952cb5a3e"},"vehicle_type_id":"4","last_reported":1737839189,"current_range_meters":34000,"station_id":"ce4bgih2rcd13ifvqba0","pricing_plan_id":"cebpf4jnsgd1na2vs0mg"},{"bike_id":"636012c7-c239-42a3-a1e4-504db4358db4","system_id":"levelo_inurba_marseille","lat":43.2902,"lon":5.38153,"is_reserved":false,"is_disabled":false,"rental_uris":{"android":"levelo://app?vid=636012c7-c239-42a3-a1e4-504db4358db4","ios":"levelo://app?vid=636012c7-c239-42a3-a1e4-504db4358db4"},"vehicle_type_id":"4","last_reported":1737839189,"current_range_meters":30400,"station_id":"ce4bh4p2rcd13ifvqe1g","pricing_plan_id":"cebpf4jnsgd1na2vs0mg"},{"bike_id":"884f4337-debb-4f4e-9ffb-854d7bf11416","system_id":"levelo_inurba_marseille","lat":43.31761,"lon":5.38968,"is_reserved":false,"is_disabled":true,"rental_uris":{"android":"levelo://app?vid=884f4337-debb-4f4e-9ffb-854d7bf11416","ios":"levelo://app?vid=884f4337-debb-4f4e-9ffb-854d7bf11416"},"vehicle_type_id":"4","last_reported":1737839189,"current_range_meters":0,"station_id":"ce4bhqp2rcd13ifvqhng","pricing_plan_id":"cebpf4jnsgd1na2vs0mg"},{"bike_id":"0e9dcd6e-e0ea-4155-a2ad-846b0fe50ef0","system_id":"levelo_inurba_marseille","lat":43.29261,"lon":5.38429,"is_reserved":false,"is_disabled":false,"rental_uris":{"android":"levelo://app?vid=0e9dcd6e-e0ea-4155-a2ad-846b0fe50ef0","ios":"levelo://app?vid=0e9dcd6e-e0ea-4155-a2ad-846b0fe50ef0"},"vehicle_type_id":"4","last_reported":1737839189,"current_range_meters":36000,"station_id":"ce4bh692rcd13ifvqea0","pricing_plan_id":"cebpf4jnsgd1na2vs0mg"},{"bike_id":"2149d289-4183-44b6-b62f-845bce23bd20","system_id":"levelo_inurba_marseille","lat":43.31239,"lon":5.36859,"is_reserved":false,"is_disabled":false,"rental_uris":{"android":"levelo://app?vid=2149d289-4183-44b6-b62f-845bce23bd20","ios":"levelo://app?vid=2149d289-4183-44b6-b62f-845bce23bd20"},"vehicle_type_id":"4","last_reported":1737839189,"current_range_meters":30400,"station_id":"ce4bgl92rcd13ifvqbq0","pricing_plan_id":"cebpf4jnsgd1na2vs0mg"},{"bike_id":"ca99b290-f300-462a-b3c0-a185413926a0","system_id":"levelo_inurba_marseille","lat":43.29582,"lon":5.37523,"is_reserved":false,"is_disabled":false,"rental_uris":{"android":"levelo://app?vid=ca99b290-f300-462a-b3c0-a185413926a0","ios":"levelo://app?vid=ca99b290-f300-462a-b3c0-a185413926a0"},"vehicle_type_id":"4","last_reported":1737839189,"current_range_meters":37600,"station_id":"ce4bgh92rcd13ifvqb50","pricing_plan_id":"cebpf4jnsgd1na2vs0mg"},{"bike_id":"b96c22ba-a4c6-4ca8-b881-a2a2972e9bc2","system_id":"levelo_inurba_marseille","lat":43.26034,"lon":5.37556,"is_reserved":false,"is_disabled":true,"rental_uris":{"android":"levelo://app?vid=b96c22ba-a4c6-4ca8-b881-a2a2972e9bc2","ios":"levelo://app?vid=b96c22ba-a4c6-4ca8-b881-a2a2972e9bc2"},"vehicle_type_id":"4","last_reported":1737839189,"current_range_meters":35600,"station_id":"ce4bhgh2rcd13ifvqfa0","pricing_plan_id":"cebpf4jnsgd1na2vs0mg"},{"bike_id":"e06c88b0-7658-481e-acb1-b9ef7b124e6c","system_id":"levelo_inurba_marseille","lat":43.2903,"lon":5.38644,"is_reserved":false,"is_disabled":false,"rental_uris":{"android":"levelo://app?vid=e06c88b0-7658-481e-acb1-b9ef7b124e6c","ios":"levelo://app?vid=e06c88b0-7658-481e-acb1-b9ef7b124e6c"},"vehicle_type_id":"4","last_reported":1737839189,"current_range_meters":32000,"station_id":"ce4bh4p2rcd13ifvqe0g","pricing_plan_id":"cebpf4jnsgd1na2vs0mg"},{"bike_id":"b408449b-3729-4996-8063-c18eeb347432","system_id":"levelo_inurba_marseille","lat":43.27839,"lon":5.39204,"is_reserved":false,"is_disabled":false,"rental_uris":{"android":"levelo://app?vid=b408449b-3729-4996-8063-c18eeb347432","ios":"levelo://app?vid=b408449b-3729-4996-8063-c18eeb347432"},"vehicle_type_id":"4","last_reported":1737839189,"current_range_meters":38800,"station_id":"ce4bhjp2rcd13ifvqga0","pricing_plan_id":"cebpf4jnsgd1na2vs0mg"},{"bike_id":"0c0fc544-117a-463d-97e1-ca4a9ac21718","system_id":"levelo_inurba_marseille","lat":43.2798,"lon":5.38716,"is_reserved":false,"is_disabled":false,"rental_uris":{"android":"levelo://app?vid=0c0fc544-117a-463d-97e1-ca4a9ac21718","ios":"levelo://app?vid=0c0fc544-117a-463d-97e1-ca4a9ac21718"},"vehicle_type_id":"4","last_reported":1737839189,"current_range_meters":30000,"station_id":"ce4bhg12rcd13ifvqf80","pricing_plan_id":"cebpf4jnsgd1na2vs0mg"},{"bike_id":"a42d39b0-945e-45b1-90f5-9d41dd26d231","system_id":"levelo_inurba_marseille","lat":43.29259,"lon":5.38443,"is_reserved":false,"is_disabled":false,"rental_uris":{"android":"levelo://app?vid=a42d39b0-945e-45b1-90f5-9d41dd26d231","ios":"levelo://app?vid=a42d39b0-945e-45b1-90f5-9d41dd26d231"},"vehicle_type_id":"4","last_reported":1737839189,"current_range_meters":38000,"station_id":"ce4bh692rcd13ifvqea0","pricing_plan_id":"cebpf4jnsgd1na2vs0mg"},{"bike_id":"52ed80d8-090f-4f2c-93e8-7faeef711b4d","system_id":"levelo_inurba_marseille","lat":43.28362,"lon":5.381,"is_reserved":false,"is_disabled":false,"rental_uris":{"android":"levelo://app?vid=52ed80d8-090f-4f2c-93e8-7faeef711b4d","ios":"levelo://app?vid=52ed80d8-090f-4f2c-93e8-7faeef711b4d"},"vehicle_type_id":"4","last_reported":1737839189,"current_range_meters":28800,"station_id":"ce4bh412rcd13ifvqdr0","pricing_plan_id":"cebpf4jnsgd1na2vs0mg"},{"bike_id":"1346ff93-9ddb-4093-aa5d-b6cb09dfef3c","system_id":"levelo_inurba_marseille","lat":43.28507,"lon":5.36785,"is_reserved":false,"is_disabled":true,"rental_uris":{"android":"levelo://app?vid=1346ff93-9ddb-4093-aa5d-b6cb09dfef3c","ios":"levelo://app?vid=1346ff93-9ddb-4093-aa5d-b6cb09dfef3c"},"vehicle_type_id":"4","last_reported":1737839189,"current_range_meters":0,"station_id":"","pricing_plan_id":"cebpf4jnsgd1na2vs0mg"},{"bike_id":"ff2eb937-c66a-47d9-9595-d75fbfc3681c","system_id":"levelo_inurba_marseille","lat":43.29618,"lon":5.37147,"is_reserved":false,"is_disabled":false,"rental_uris":{"android":"levelo://app?vid=ff2eb937-c66a-47d9-9595-d75fbfc3681c","ios":"levelo://app?vid=ff2eb937-c66a-47d9-9595-d75fbfc3681c"},"vehicle_type_id":"4","last_reported":1737839189,"current_range_meters":36400,"station_id":"ce4bgnh2rcd13ifvqc0g","pricing_plan_id":"cebpf4jnsgd1na2vs0mg"},{"bike_id":"61f48368-0924-4207-9b71-dc3cb5f9319e","system_id":"levelo_inurba_marseille","lat":43.28032,"lon":5.36942,"is_reserved":false,"is_disabled":false,"rental_uris":{"android":"levelo://app?vid=61f48368-0924-4207-9b71-dc3cb5f9319e","ios":"levelo://app?vid=61f48368-0924-4207-9b71-dc3cb5f9319e"},"vehicle_type_id":"4","last_reported":1737839189,"current_range_meters":38000,"station_id":"ce4bha12rcd13ifvqef0","pricing_plan_id":"cebpf4jnsgd1na2vs0mg"},{"bike_id":"cff6a491-5284-4b58-81b6-6f262d74c4a9","system_id":"levelo_inurba_marseille","lat":43.27819,"lon":5.40709,"is_reserved":false,"is_disabled":false,"rental_uris":{"android":"levelo://app?vid=cff6a491-5284-4b58-81b6-6f262d74c4a9","ios":"levelo://app?vid=cff6a491-5284-4b58-81b6-6f262d74c4a9"},"vehicle_type_id":"4","last_reported":1737839189,"current_range_meters":39200,"station_id":"ce4bhnh2rcd13ifvqgtg","pricing_plan_id":"cebpf4jnsgd1na2vs0mg"},{"bike_id":"d0b97dd4-6015-4f42-b5f6-8f3b6c506949","system_id":"levelo_inurba_marseille","lat":43.29556,"lon":5.42283,"is_reserved":false,"is_disabled":false,"rental_uris":{"android":"levelo://app?vid=d0b97dd4-6015-4f42-b5f6-8f3b6c506949","ios":"levelo://app?vid=d0b97dd4-6015-4f42-b5f6-8f3b6c506949"},"vehicle_type_id":"4","last_reported":1737839189,"current_range_meters":36400,"station_id":"ce4bhph2rcd13ifvqhdg","pricing_plan_id":"cebpf4jnsgd1na2vs0mg"},{"bike_id":"c6f247f0-a037-460a-90f0-2b0c901e9375","system_id":"levelo_inurba_marseille","lat":43.32091,"lon":5.36947,"is_reserved":false,"is_disabled":false,"rental_uris":{"android":"levelo://app?vid=c6f247f0-a037-460a-90f0-2b0c901e9375","ios":"levelo://app?vid=c6f247f0-a037-460a-90f0-2b0c901e9375"},"vehicle_type_id":"4","last_reported":1737839189,"current_range_meters":31200,"station_id":"ce4bhrh2rcd13ifvqhug","pricing_plan_id":"cebpf4jnsgd1na2vs0mg"},{"bike_id":"5658bf19-5e40-4edf-ac7a-3999a5207afd","system_id":"levelo_inurba_marseille","lat":43.23205,"lon":5.35539,"is_reserved":false,"is_disabled":false,"rental_uris":{"android":"levelo://app?vid=5658bf19-5e40-4edf-ac7a-3999a5207afd","ios":"levelo://app?vid=5658bf19-5e40-4edf-ac7a-3999a5207afd"},"vehicle_type_id":"4","last_reported":1737839189,"current_range_meters":6400,"station_id":"ce4bhu92rcd13ifvqi70","pricing_plan_id":"cebpf4jnsgd1na2vs0mg"},{"bike_id":"0f621be0-9774-411f-99f8-f6a3065bf4e3","system_id":"levelo_inurba_marseille","lat":43.29789,"lon":5.37139,"is_reserved":false,"is_disabled":false,"rental_uris":{"android":"levelo://app?vid=0f621be0-9774-411f-99f8-f6a3065bf4e3","ios":"levelo://app?vid=0f621be0-9774-411f-99f8-f6a3065bf4e3"},"vehicle_type_id":"4","last_reported":1737839189,"current_range_meters":400,"station_id":"ce4bgop2rcd13ifvqc1g","pricing_plan_id":"cebpf4jnsgd1na2vs0mg"},{"bike_id":"35422ebd-a2cf-42b2-9801-6e7f91d03f6b","system_id":"levelo_inurba_marseille","lat":43.28422,"lon":5.34985,"is_reserved":false,"is_disabled":false,"rental_uris":{"android":"levelo://app?vid=35422ebd-a2cf-42b2-9801-6e7f91d03f6b","ios":"levelo://app?vid=35422ebd-a2cf-42b2-9801-6e7f91d03f6b"},"vehicle_type_id":"4","last_reported":1737839189,"current_range_meters":38800,"station_id":"ce4bhbh2rcd13ifvqepg","pricing_plan_id":"cebpf4jnsgd1na2vs0mg"},{"bike_id":"bb601805-f304-4cef-b2e9-98ddefc79cb5","system_id":"levelo_inurba_marseille","lat":43.26976,"lon":5.40286,"is_reserved":false,"is_disabled":false,"rental_uris":{"android":"levelo://app?vid=bb601805-f304-4cef-b2e9-98ddefc79cb5","ios":"levelo://app?vid=bb601805-f304-4cef-b2e9-98ddefc79cb5"},"vehicle_type_id":"4","last_reported":1737839189,"current_range_meters":28400,"station_id":"cjm6bp8fraef2m0cb0m0","pricing_plan_id":"cebpf4jnsgd1na2vs0mg"},{"bike_id":"1ac11873-f505-4afe-8684-dc584923bcf2","system_id":"levelo_inurba_marseille","lat":43.29161,"lon":5.37163,"is_reserved":false,"is_disabled":false,"rental_uris":{"android":"levelo://app?vid=1ac11873-f505-4afe-8684-dc584923bcf2","ios":"levelo://app?vid=1ac11873-f505-4afe-8684-dc584923bcf2"},"vehicle_type_id":"4","last_reported":1737839189,"current_range_meters":38000,"station_id":"ce4bha92rcd13ifvqeh0","pricing_plan_id":"cebpf4jnsgd1na2vs0mg"},{"bike_id":"1a92a786-4170-425a-92f4-80ee9de2fb16","system_id":"levelo_inurba_marseille","lat":43.28351,"lon":5.38104,"is_reserved":false,"is_disabled":true,"rental_uris":{"android":"levelo://app?vid=1a92a786-4170-425a-92f4-80ee9de2fb16","ios":"levelo://app?vid=1a92a786-4170-425a-92f4-80ee9de2fb16"},"vehicle_type_id":"4","last_reported":1737839189,"current_range_meters":0,"station_id":"ce4bh412rcd13ifvqdr0","pricing_plan_id":"cebpf4jnsgd1na2vs0mg"},{"bike_id":"17d14fb7-cbdb-44b3-ac80-3430d126c769","system_id":"levelo_inurba_marseille","lat":43.29991,"lon":5.38514,"is_reserved":false,"is_disabled":false,"rental_uris":{"android":"levelo://app?vid=17d14fb7-cbdb-44b3-ac80-3430d126c769","ios":"levelo://app?vid=17d14fb7-cbdb-44b3-ac80-3430d126c769"},"vehicle_type_id":"4","last_reported":1737839189,"current_range_meters":38400,"station_id":"ce4bgj92rcd13ifvqbd0","pricing_plan_id":"cebpf4jnsgd1na2vs0mg"},{"bike_id":"fc79826f-43c1-4702-aafc-d1a3c6212402","system_id":"levelo_inurba_marseille","lat":43.25819,"lon":5.39424,"is_reserved":false,"is_disabled":false,"rental_uris":{"android":"levelo://app?vid=fc79826f-43c1-4702-aafc-d1a3c6212402","ios":"levelo://app?vid=fc79826f-43c1-4702-aafc-d1a3c6212402"},"vehicle_type_id":"4","last_reported":1737839189,"current_range_meters":39200,"station_id":"ce4bhip2rcd13ifvqft0","pricing_plan_id":"cebpf4jnsgd1na2vs0mg"},{"bike_id":"479cb780-8c58-44a6-99d3-0353db3a07bb","system_id":"levelo_inurba_marseille","lat":43.30805,"lon":5.43523,"is_reserved":false,"is_disabled":false,"rental_uris":{"android":"levelo://app?vid=479cb780-8c58-44a6-99d3-0353db3a07bb","ios":"levelo://app?vid=479cb780-8c58-44a6-99d3-0353db3a07bb"},"vehicle_type_id":"4","last_reported":1737839189,"current_range_meters":36400,"station_id":"ce4bhph2rcd13ifvqheg","pricing_plan_id":"cebpf4jnsgd1na2vs0mg"},{"bike_id":"0d6b5fe0-b37b-4b5f-a572-54fef00b675a","system_id":"levelo_inurba_marseille","lat":43.31425,"lon":5.37577,"is_reserved":false,"is_disabled":false,"rental_uris":{"android":"levelo://app?vid=0d6b5fe0-b37b-4b5f-a572-54fef00b675a","ios":"levelo://app?vid=0d6b5fe0-b37b-4b5f-a572-54fef00b675a"},"vehicle_type_id":"4","last_reported":1737839189,"current_range_meters":23200,"station_id":"","pricing_plan_id":"cebpf4jnsgd1na2vs0mg"},{"bike_id":"c379aa4d-db37-4ead-836a-7233f4973a2c","system_id":"levelo_inurba_marseille","lat":43.31363,"lon":5.38484,"is_reserved":false,"is_disabled":false,"rental_uris":{"android":"levelo://app?vid=c379aa4d-db37-4ead-836a-7233f4973a2c","ios":"levelo://app?vid=c379aa4d-db37-4ead-836a-7233f4973a2c"},"vehicle_type_id":"4","last_reported":1737839189,"current_range_meters":38800,"station_id":"ce4bgt92rcd13ifvqcf0","pricing_plan_id":"cebpf4jnsgd1na2vs0mg"},{"bike_id":"ffff597a-37d7-49e2-9522-da0a9bac336b","system_id":"levelo_inurba_marseille","lat":43.29433,"lon":5.38602,"is_reserved":false,"is_disabled":false,"rental_uris":{"android":"levelo://app?vid=ffff597a-37d7-49e2-9522-da0a9bac336b","ios":"levelo://app?vid=ffff597a-37d7-49e2-9522-da0a9bac336b"},"vehicle_type_id":"4","last_reported":1737839189,"current_range_meters":25600,"station_id":"ce4bh2h2rcd13ifvqdh0","pricing_plan_id":"cebpf4jnsgd1na2vs0mg"},{"bike_id":"612cdb80-e2cc-4b64-a057-2821874f17be","system_id":"levelo_inurba_marseille","lat":43.32337,"lon":5.4062,"is_reserved":false,"is_disabled":false,"rental_uris":{"android":"levelo://app?vid=612cdb80-e2cc-4b64-a057-2821874f17be","ios":"levelo://app?vid=612cdb80-e2cc-4b64-a057-2821874f17be"},"vehicle_type_id":"4","last_reported":1737839189,"current_range_meters":38400,"station_id":"ce4bhq92rcd13ifvqhjg","pricing_plan_id":"cebpf4jnsgd1na2vs0mg"},{"bike_id":"14549f3c-9b93-4dce-b64e-10da7e275aeb","system_id":"levelo_inurba_marseille","lat":43.315763,"lon":5.374171,"is_reserved":false,"is_disabled":false,"rental_uris":{"android":"levelo://app?vid=14549f3c-9b93-4dce-b64e-10da7e275aeb","ios":"levelo://app?vid=14549f3c-9b93-4dce-b64e-10da7e275aeb"},"vehicle_type_id":"4","last_reported":1737839189,"current_range_meters":34000,"station_id":"","pricing_plan_id":"cebpf4jnsgd1na2vs0mg"},{"bike_id":"e84ea28d-d6c1-4a23-bfa5-fecf89bc2a9f","system_id":"levelo_inurba_marseille","lat":43.32495,"lon":5.36558,"is_reserved":false,"is_disabled":false,"rental_uris":{"android":"levelo://app?vid=e84ea28d-d6c1-4a23-bfa5-fecf89bc2a9f","ios":"levelo://app?vid=e84ea28d-d6c1-4a23-bfa5-fecf89bc2a9f"},"vehicle_type_id":"4","last_reported":1737839189,"current_range_meters":34000,"station_id":"ce4bhs12rcd13ifvqhvg","pricing_plan_id":"cebpf4jnsgd1na2vs0mg"},{"bike_id":"02612fa3-1004-453b-a06f-318eee6929b8","system_id":"levelo_inurba_marseille","lat":43.29025,"lon":5.38651,"is_reserved":false,"is_disabled":false,"rental_uris":{"android":"levelo://app?vid=02612fa3-1004-453b-a06f-318eee6929b8","ios":"levelo://app?vid=02612fa3-1004-453b-a06f-318eee6929b8"},"vehicle_type_id":"4","last_reported":1737839189,"current_range_meters":7200,"station_id":"ce4bh4p2rcd13ifvqe0g","pricing_plan_id":"cebpf4jnsgd1na2vs0mg"},{"bike_id":"57823e25-308b-4f11-a2b6-a7f52902c1c5","system_id":"levelo_inurba_marseille","lat":43.30811,"lon":5.38152,"is_reserved":false,"is_disabled":true,"rental_uris":{"android":"levelo://app?vid=57823e25-308b-4f11-a2b6-a7f52902c1c5","ios":"levelo://app?vid=57823e25-308b-4f11-a2b6-a7f52902c1c5"},"vehicle_type_id":"4","last_reported":1737839189,"current_range_meters":28000,"station_id":"ce4bgt12rcd13ifvqce0","pricing_plan_id":"cebpf4jnsgd1na2vs0mg"},{"bike_id":"ff68af14-5554-4f8d-a3de-4549d987f602","system_id":"levelo_inurba_marseille","lat":43.29905,"lon":5.43707,"is_reserved":false,"is_disabled":false,"rental_uris":{"android":"levelo://app?vid=ff68af14-5554-4f8d-a3de-4549d987f602","ios":"levelo://app?vid=ff68af14-5554-4f8d-a3de-4549d987f602"},"vehicle_type_id":"4","last_reported":1737839189,"current_range_meters":10800,"station_id":"ce4bhpp2rcd13ifvqhfg","pricing_plan_id":"cebpf4jnsgd1na2vs0mg"},{"bike_id":"fc793649-c00c-47d5-b622-02de5283e126","system_id":"levelo_inurba_marseille","lat":43.291734,"lon":5.371619,"is_reserved":false,"is_disabled":false,"rental_uris":{"android":"levelo://app?vid=fc793649-c00c-47d5-b622-02de5283e126","ios":"levelo://app?vid=fc793649-c00c-47d5-b622-02de5283e126"},"vehicle_type_id":"4","last_reported":1737839189,"current_range_meters":39200,"station_id":"ce4bha92rcd13ifvqeh0","pricing_plan_id":"cebpf4jnsgd1na2vs0mg"},{"bike_id":"787fabc3-eb91-469a-81b6-44a6fdcc4a9b","system_id":"levelo_inurba_marseille","lat":43.2307,"lon":5.35488,"is_reserved":false,"is_disabled":false,"rental_uris":{"android":"levelo://app?vid=787fabc3-eb91-469a-81b6-44a6fdcc4a9b","ios":"levelo://app?vid=787fabc3-eb91-469a-81b6-44a6fdcc4a9b"},"vehicle_type_id":"4","last_reported":1737839189,"current_range_meters":38800,"station_id":"cpo3342slgdg3j2ifvpg","pricing_plan_id":"cebpf4jnsgd1na2vs0mg"},{"bike_id":"e78c1169-47c8-4567-972b-d01ea79ea5f0","system_id":"levelo_inurba_marseille","lat":43.32479,"lon":5.36557,"is_reserved":false,"is_disabled":false,"rental_uris":{"android":"levelo://app?vid=e78c1169-47c8-4567-972b-d01ea79ea5f0","ios":"levelo://app?vid=e78c1169-47c8-4567-972b-d01ea79ea5f0"},"vehicle_type_id":"4","last_reported":1737839189,"current_range_meters":16800,"station_id":"ce4bhs12rcd13ifvqhvg","pricing_plan_id":"cebpf4jnsgd1na2vs0mg"},{"bike_id":"07bbd0c5-1ae4-4de1-8c26-cec92a82a425","system_id":"levelo_inurba_marseille","lat":43.29023,"lon":5.38105,"is_reserved":false,"is_disabled":false,"rental_uris":{"android":"levelo://app?vid=07bbd0c5-1ae4-4de1-8c26-cec92a82a425","ios":"levelo://app?vid=07bbd0c5-1ae4-4de1-8c26-cec92a82a425"},"vehicle_type_id":"4","last_reported":1737839189,"current_range_meters":38000,"station_id":"ce4bh4p2rcd13ifvqe1g","pricing_plan_id":"cebpf4jnsgd1na2vs0mg"},{"bike_id":"1e328aaf-06e5-4767-a395-a9b21576497f","system_id":"levelo_inurba_marseille","lat":43.297855,"lon":5.371067,"is_reserved":false,"is_disabled":true,"rental_uris":{"android":"levelo://app?vid=1e328aaf-06e5-4767-a395-a9b21576497f","ios":"levelo://app?vid=1e328aaf-06e5-4767-a395-a9b21576497f"},"vehicle_type_id":"4","last_reported":1737839189,"current_range_meters":20800,"station_id":"ce4bgop2rcd13ifvqc1g","pricing_plan_id":"cebpf4jnsgd1na2vs0mg"},{"bike_id":"690e5855-16c3-435f-a043-a3b33b8b61ce","system_id":"levelo_inurba_marseille","lat":43.29546,"lon":5.38548,"is_reserved":false,"is_disabled":false,"rental_uris":{"android":"levelo://app?vid=690e5855-16c3-435f-a043-a3b33b8b61ce","ios":"levelo://app?vid=690e5855-16c3-435f-a043-a3b33b8b61ce"},"vehicle_type_id":"4","last_reported":1737839189,"current_range_meters":38800,"station_id":"ce4bgih2rcd13ifvqba0","pricing_plan_id":"cebpf4jnsgd1na2vs0mg"},{"bike_id":"7facede7-71a3-4129-a1f3-f8692190d63d","system_id":"levelo_inurba_marseille","lat":43.32475,"lon":5.36575,"is_reserved":false,"is_disabled":false,"rental_uris":{"android":"levelo://app?vid=7facede7-71a3-4129-a1f3-f8692190d63d","ios":"levelo://app?vid=7facede7-71a3-4129-a1f3-f8692190d63d"},"vehicle_type_id":"4","last_reported":1737839189,"current_range_meters":22800,"station_id":"ce4bhs12rcd13ifvqhvg","pricing_plan_id":"cebpf4jnsgd1na2vs0mg"},{"bike_id":"4e4e3261-1e8e-454c-bc50-3865a1c9b7fd","system_id":"levelo_inurba_marseille","lat":43.2848,"lon":5.38527,"is_reserved":false,"is_disabled":true,"rental_uris":{"android":"levelo://app?vid=4e4e3261-1e8e-454c-bc50-3865a1c9b7fd","ios":"levelo://app?vid=4e4e3261-1e8e-454c-bc50-3865a1c9b7fd"},"vehicle_type_id":"4","last_reported":1737839189,"current_range_meters":400,"station_id":"ce4bh8p2rcd13ifvqeb0","pricing_plan_id":"cebpf4jnsgd1na2vs0mg"},{"bike_id":"ea624404-124a-4128-9041-089ad79942c5","system_id":"levelo_inurba_marseille","lat":43.29566,"lon":5.42262,"is_reserved":false,"is_disabled":false,"rental_uris":{"android":"levelo://app?vid=ea624404-124a-4128-9041-089ad79942c5","ios":"levelo://app?vid=ea624404-124a-4128-9041-089ad79942c5"},"vehicle_type_id":"4","last_reported":1737839189,"current_range_meters":30400,"station_id":"ce4bhph2rcd13ifvqhdg","pricing_plan_id":"cebpf4jnsgd1na2vs0mg"},{"bike_id":"ad243039-16c6-42b3-baed-a49a90967726","system_id":"levelo_inurba_marseille","lat":43.29275,"lon":5.36831,"is_reserved":false,"is_disabled":false,"rental_uris":{"android":"levelo://app?vid=ad243039-16c6-42b3-baed-a49a90967726","ios":"levelo://app?vid=ad243039-16c6-42b3-baed-a49a90967726"},"vehicle_type_id":"4","last_reported":1737839189,"current_range_meters":26800,"station_id":"ce4bhbp2rcd13ifvqesg","pricing_plan_id":"cebpf4jnsgd1na2vs0mg"},{"bike_id":"662826ac-353a-4d90-b4d6-b01a8f2632b2","system_id":"levelo_inurba_marseille","lat":43.2293,"lon":5.35372,"is_reserved":false,"is_disabled":false,"rental_uris":{"android":"levelo://app?vid=662826ac-353a-4d90-b4d6-b01a8f2632b2","ios":"levelo://app?vid=662826ac-353a-4d90-b4d6-b01a8f2632b2"},"vehicle_type_id":"4","last_reported":1737839189,"current_range_meters":38000,"station_id":"cpo3532slgdg3j2ikp40","pricing_plan_id":"cebpf4jnsgd1na2vs0mg"},{"bike_id":"4901f062-57f9-4c68-93bc-a4d1bef4aadb","system_id":"levelo_inurba_marseille","lat":43.294166,"lon":5.386361,"is_reserved":false,"is_disabled":false,"rental_uris":{"android":"levelo://app?vid=4901f062-57f9-4c68-93bc-a4d1bef4aadb","ios":"levelo://app?vid=4901f062-57f9-4c68-93bc-a4d1bef4aadb"},"vehicle_type_id":"4","last_reported":1737839189,"current_range_meters":33600,"station_id":"ce4bh2h2rcd13ifvqdh0","pricing_plan_id":"cebpf4jnsgd1na2vs0mg"},{"bike_id":"2244a337-af42-4783-b4cc-fef7a7bed2d2","system_id":"levelo_inurba_marseille","lat":43.29521,"lon":5.39032,"is_reserved":false,"is_disabled":false,"rental_uris":{"android":"levelo://app?vid=2244a337-af42-4783-b4cc-fef7a7bed2d2","ios":"levelo://app?vid=2244a337-af42-4783-b4cc-fef7a7bed2d2"},"vehicle_type_id":"4","last_reported":1737839189,"current_range_meters":19600,"station_id":"ce4bh3p2rcd13ifvqdp0","pricing_plan_id":"cebpf4jnsgd1na2vs0mg"},{"bike_id":"163b0be8-f1db-4665-a41b-823b767c63a6","system_id":"levelo_inurba_marseille","lat":43.26935,"lon":5.40252,"is_reserved":false,"is_disabled":false,"rental_uris":{"android":"levelo://app?vid=163b0be8-f1db-4665-a41b-823b767c63a6","ios":"levelo://app?vid=163b0be8-f1db-4665-a41b-823b767c63a6"},"vehicle_type_id":"4","last_reported":1737839189,"current_range_meters":35600,"station_id":"cjm6bp8fraef2m0cb0m0","pricing_plan_id":"cebpf4jnsgd1na2vs0mg"},{"bike_id":"9e45b811-4d07-41e3-be2a-3b2bb19050bb","system_id":"levelo_inurba_marseille","lat":43.30946,"lon":5.39027,"is_reserved":false,"is_disabled":false,"rental_uris":{"android":"levelo://app?vid=9e45b811-4d07-41e3-be2a-3b2bb19050bb","ios":"levelo://app?vid=9e45b811-4d07-41e3-be2a-3b2bb19050bb"},"vehicle_type_id":"4","last_reported":1737839189,"current_range_meters":25600,"station_id":"ce4bgup2rcd13ifvqco0","pricing_plan_id":"cebpf4jnsgd1na2vs0mg"},{"bike_id":"8ae1544f-9f85-431f-ab5b-e7e8f9977a05","system_id":"levelo_inurba_marseille","lat":43.29538,"lon":5.38545,"is_reserved":false,"is_disabled":false,"rental_uris":{"android":"levelo://app?vid=8ae1544f-9f85-431f-ab5b-e7e8f9977a05","ios":"levelo://app?vid=8ae1544f-9f85-431f-ab5b-e7e8f9977a05"},"vehicle_type_id":"4","last_reported":1737839189,"current_range_meters":31200,"station_id":"ce4bgih2rcd13ifvqba0","pricing_plan_id":"cebpf4jnsgd1na2vs0mg"},{"bike_id":"04399ddc-61aa-402a-b402-afdf25f8b6c3","system_id":"levelo_inurba_marseille","lat":43.28716,"lon":5.37912,"is_reserved":false,"is_disabled":false,"rental_uris":{"android":"levelo://app?vid=04399ddc-61aa-402a-b402-afdf25f8b6c3","ios":"levelo://app?vid=04399ddc-61aa-402a-b402-afdf25f8b6c3"},"vehicle_type_id":"4","last_reported":1737839189,"current_range_meters":27600,"station_id":"ce4bh9p2rcd13ifvqec0","pricing_plan_id":"cebpf4jnsgd1na2vs0mg"},{"bike_id":"0c5059bb-f490-46be-bc83-3789cdc5b547","system_id":"levelo_inurba_marseille","lat":43.29799,"lon":5.40398,"is_reserved":false,"is_disabled":false,"rental_uris":{"android":"levelo://app?vid=0c5059bb-f490-46be-bc83-3789cdc5b547","ios":"levelo://app?vid=0c5059bb-f490-46be-bc83-3789cdc5b547"},"vehicle_type_id":"4","last_reported":1737839189,"current_range_meters":38800,"station_id":"ce4bh112rcd13ifvqd90","pricing_plan_id":"cebpf4jnsgd1na2vs0mg"},{"bike_id":"03deefff-87ac-4b19-8932-093032a2512e","system_id":"levelo_inurba_marseille","lat":43.32289,"lon":5.38277,"is_reserved":false,"is_disabled":false,"rental_uris":{"android":"levelo://app?vid=03deefff-87ac-4b19-8932-093032a2512e","ios":"levelo://app?vid=03deefff-87ac-4b19-8932-093032a2512e"},"vehicle_type_id":"4","last_reported":1737839189,"current_range_meters":33200,"station_id":"ce4bhr12rcd13ifvqhqg","pricing_plan_id":"cebpf4jnsgd1na2vs0mg"},{"bike_id":"4b237394-74a6-4059-8607-138a1f4530ca","system_id":"levelo_inurba_marseille","lat":43.23956,"lon":5.36626,"is_reserved":false,"is_disabled":false,"rental_uris":{"android":"levelo://app?vid=4b237394-74a6-4059-8607-138a1f4530ca","ios":"levelo://app?vid=4b237394-74a6-4059-8607-138a1f4530ca"},"vehicle_type_id":"4","last_reported":1737839189,"current_range_meters":38800,"station_id":"ce4bhi12rcd13ifvqfp0","pricing_plan_id":"cebpf4jnsgd1na2vs0mg"},{"bike_id":"06db7b38-d368-4168-a3af-68cb37ab41ea","system_id":"levelo_inurba_marseille","lat":43.3169,"lon":5.40477,"is_reserved":false,"is_disabled":false,"rental_uris":{"android":"levelo://app?vid=06db7b38-d368-4168-a3af-68cb37ab41ea","ios":"levelo://app?vid=06db7b38-d368-4168-a3af-68cb37ab41ea"},"vehicle_type_id":"4","last_reported":1737839189,"current_range_meters":30400,"station_id":"ce4bh012rcd13ifvqd00","pricing_plan_id":"cebpf4jnsgd1na2vs0mg"},{"bike_id":"1b8a9691-9200-448a-9cc4-888eebbd623d","system_id":"levelo_inurba_marseille","lat":43.30781,"lon":5.37645,"is_reserved":false,"is_disabled":false,"rental_uris":{"android":"levelo://app?vid=1b8a9691-9200-448a-9cc4-888eebbd623d","ios":"levelo://app?vid=1b8a9691-9200-448a-9cc4-888eebbd623d"},"vehicle_type_id":"4","last_reported":1737839189,"current_range_meters":26000,"station_id":"ce4bgv92rcd13ifvqcq0","pricing_plan_id":"cebpf4jnsgd1na2vs0mg"},{"bike_id":"5acd6d4c-ef87-4c68-b129-dd7f9a07b39b","system_id":"levelo_inurba_marseille","lat":43.3266,"lon":5.4099,"is_reserved":false,"is_disabled":false,"rental_uris":{"android":"levelo://app?vid=5acd6d4c-ef87-4c68-b129-dd7f9a07b39b","ios":"levelo://app?vid=5acd6d4c-ef87-4c68-b129-dd7f9a07b39b"},"vehicle_type_id":"4","last_reported":1737839189,"current_range_meters":38000,"station_id":"ce4bhpp2rcd13ifvqhgg","pricing_plan_id":"cebpf4jnsgd1na2vs0mg"},{"bike_id":"d35ef97c-9889-4275-b235-6c1a4e62d9f7","system_id":"levelo_inurba_marseille","lat":43.29226,"lon":5.36081,"is_reserved":false,"is_disabled":false,"rental_uris":{"android":"levelo://app?vid=d35ef97c-9889-4275-b235-6c1a4e62d9f7","ios":"levelo://app?vid=d35ef97c-9889-4275-b235-6c1a4e62d9f7"},"vehicle_type_id":"4","last_reported":1737839189,"current_range_meters":19200,"station_id":"ce4bhbh2rcd13ifvqeqg","pricing_plan_id":"cebpf4jnsgd1na2vs0mg"},{"bike_id":"7b7093cc-ce06-4697-9543-dcfe992f40f3","system_id":"levelo_inurba_marseille","lat":43.29633,"lon":5.38101,"is_reserved":false,"is_disabled":false,"rental_uris":{"android":"levelo://app?vid=7b7093cc-ce06-4697-9543-dcfe992f40f3","ios":"levelo://app?vid=7b7093cc-ce06-4697-9543-dcfe992f40f3"},"vehicle_type_id":"4","last_reported":1737839189,"current_range_meters":32000,"station_id":"ce4bgl12rcd13ifvqbo0","pricing_plan_id":"cebpf4jnsgd1na2vs0mg"},{"bike_id":"cc73a374-a323-4f1f-b7d3-981bc8ac3477","system_id":"levelo_inurba_marseille","lat":43.29262,"lon":5.38431,"is_reserved":false,"is_disabled":false,"rental_uris":{"android":"levelo://app?vid=cc73a374-a323-4f1f-b7d3-981bc8ac3477","ios":"levelo://app?vid=cc73a374-a323-4f1f-b7d3-981bc8ac3477"},"vehicle_type_id":"4","last_reported":1737839189,"current_range_meters":16000,"station_id":"ce4bh692rcd13ifvqea0","pricing_plan_id":"cebpf4jnsgd1na2vs0mg"},{"bike_id":"cd9f1eb9-25c7-4acc-b78b-9e49628dfb04","system_id":"levelo_inurba_marseille","lat":43.29414,"lon":5.38649,"is_reserved":false,"is_disabled":false,"rental_uris":{"android":"levelo://app?vid=cd9f1eb9-25c7-4acc-b78b-9e49628dfb04","ios":"levelo://app?vid=cd9f1eb9-25c7-4acc-b78b-9e49628dfb04"},"vehicle_type_id":"4","last_reported":1737839189,"current_range_meters":10000,"station_id":"ce4bh2h2rcd13ifvqdh0","pricing_plan_id":"cebpf4jnsgd1na2vs0mg"},{"bike_id":"6a9e34c1-9f2c-44ed-af34-4f040d9ae6f3","system_id":"levelo_inurba_marseille","lat":43.295547,"lon":5.422729,"is_reserved":false,"is_disabled":false,"rental_uris":{"android":"levelo://app?vid=6a9e34c1-9f2c-44ed-af34-4f040d9ae6f3","ios":"levelo://app?vid=6a9e34c1-9f2c-44ed-af34-4f040d9ae6f3"},"vehicle_type_id":"4","last_reported":1737839189,"current_range_meters":21600,"station_id":"ce4bhph2rcd13ifvqhdg","pricing_plan_id":"cebpf4jnsgd1na2vs0mg"},{"bike_id":"02f27a8b-22e7-4915-9435-9c931c300013","system_id":"levelo_inurba_marseille","lat":43.30649,"lon":5.40102,"is_reserved":false,"is_disabled":false,"rental_uris":{"android":"levelo://app?vid=02f27a8b-22e7-4915-9435-9c931c300013","ios":"levelo://app?vid=02f27a8b-22e7-4915-9435-9c931c300013"},"vehicle_type_id":"4","last_reported":1737839189,"current_range_meters":32000,"station_id":"ce4bh112rcd13ifvqda0","pricing_plan_id":"cebpf4jnsgd1na2vs0mg"},{"bike_id":"d310d1e2-9c45-4033-ae67-5460960ae570","system_id":"levelo_inurba_marseille","lat":43.310703,"lon":5.400741,"is_reserved":false,"is_disabled":false,"rental_uris":{"android":"levelo://app?vid=d310d1e2-9c45-4033-ae67-5460960ae570","ios":"levelo://app?vid=d310d1e2-9c45-4033-ae67-5460960ae570"},"vehicle_type_id":"4","last_reported":1737839189,"current_range_meters":22400,"station_id":"","pricing_plan_id":"cebpf4jnsgd1na2vs0mg"},{"bike_id":"e7b63a5d-2827-4f63-83cd-321e7b17d5d6","system_id":"levelo_inurba_marseille","lat":43.31358,"lon":5.38496,"is_reserved":false,"is_disabled":false,"rental_uris":{"android":"levelo://app?vid=e7b63a5d-2827-4f63-83cd-321e7b17d5d6","ios":"levelo://app?vid=e7b63a5d-2827-4f63-83cd-321e7b17d5d6"},"vehicle_type_id":"4","last_reported":1737839189,"current_range_meters":32800,"station_id":"ce4bgt92rcd13ifvqcf0","pricing_plan_id":"cebpf4jnsgd1na2vs0mg"},{"bike_id":"26d3de6a-b7db-4cd7-885c-9cb71bb28aa5","system_id":"levelo_inurba_marseille","lat":43.27366,"lon":5.3626,"is_reserved":false,"is_disabled":false,"rental_uris":{"android":"levelo://app?vid=26d3de6a-b7db-4cd7-885c-9cb71bb28aa5","ios":"levelo://app?vid=26d3de6a-b7db-4cd7-885c-9cb71bb28aa5"},"vehicle_type_id":"4","last_reported":1737839189,"current_range_meters":38400,"station_id":"ce4bhbh2rcd13ifvqeo0","pricing_plan_id":"cebpf4jnsgd1na2vs0mg"},{"bike_id":"7c78a755-c7f5-4f07-a96b-621451d47948","system_id":"levelo_inurba_marseille","lat":43.29903,"lon":5.43643,"is_reserved":false,"is_disabled":false,"rental_uris":{"android":"levelo://app?vid=7c78a755-c7f5-4f07-a96b-621451d47948","ios":"levelo://app?vid=7c78a755-c7f5-4f07-a96b-621451d47948"},"vehicle_type_id":"4","last_reported":1737839189,"current_range_meters":35200,"station_id":"ce4bhpp2rcd13ifvqhfg","pricing_plan_id":"cebpf4jnsgd1na2vs0mg"},{"bike_id":"0272ba76-6ca2-48a1-97dc-d2ada6643830","system_id":"levelo_inurba_marseille","lat":43.30143,"lon":5.37403,"is_reserved":false,"is_disabled":false,"rental_uris":{"android":"levelo://app?vid=0272ba76-6ca2-48a1-97dc-d2ada6643830","ios":"levelo://app?vid=0272ba76-6ca2-48a1-97dc-d2ada6643830"},"vehicle_type_id":"4","last_reported":1737839189,"current_range_meters":12400,"station_id":"ce4bgs92rcd13ifvqcc0","pricing_plan_id":"cebpf4jnsgd1na2vs0mg"},{"bike_id":"c69d1b2a-5537-4cf0-8c1d-991576479533","system_id":"levelo_inurba_marseille","lat":43.29162,"lon":5.3715,"is_reserved":false,"is_disabled":false,"rental_uris":{"android":"levelo://app?vid=c69d1b2a-5537-4cf0-8c1d-991576479533","ios":"levelo://app?vid=c69d1b2a-5537-4cf0-8c1d-991576479533"},"vehicle_type_id":"4","last_reported":1737839189,"current_range_meters":38800,"station_id":"ce4bha92rcd13ifvqeh0","pricing_plan_id":"cebpf4jnsgd1na2vs0mg"},{"bike_id":"00524843-a085-4ee6-877f-df8ae4a002a7","system_id":"levelo_inurba_marseille","lat":43.29539,"lon":5.38548,"is_reserved":false,"is_disabled":false,"rental_uris":{"android":"levelo://app?vid=00524843-a085-4ee6-877f-df8ae4a002a7","ios":"levelo://app?vid=00524843-a085-4ee6-877f-df8ae4a002a7"},"vehicle_type_id":"4","last_reported":1737839189,"current_range_meters":16000,"station_id":"ce4bgih2rcd13ifvqba0","pricing_plan_id":"cebpf4jnsgd1na2vs0mg"},{"bike_id":"8586a018-4fea-4b1c-99a3-10529402c58c","system_id":"levelo_inurba_marseille","lat":43.29196,"lon":5.39324,"is_reserved":false,"is_disabled":false,"rental_uris":{"android":"levelo://app?vid=8586a018-4fea-4b1c-99a3-10529402c58c","ios":"levelo://app?vid=8586a018-4fea-4b1c-99a3-10529402c58c"},"vehicle_type_id":"4","last_reported":1737839189,"current_range_meters":38400,"station_id":"ce4bh192rcd13ifvqdd0","pricing_plan_id":"cebpf4jnsgd1na2vs0mg"},{"bike_id":"9f6ffb63-11cc-435e-95f9-e170913bcc73","system_id":"levelo_inurba_marseille","lat":43.24546,"lon":5.39521,"is_reserved":false,"is_disabled":false,"rental_uris":{"android":"levelo://app?vid=9f6ffb63-11cc-435e-95f9-e170913bcc73","ios":"levelo://app?vid=9f6ffb63-11cc-435e-95f9-e170913bcc73"},"vehicle_type_id":"4","last_reported":1737839189,"current_range_meters":34000,"station_id":"ce4bhlp2rcd13ifvqgjg","pricing_plan_id":"cebpf4jnsgd1na2vs0mg"},{"bike_id":"a48a4fa8-387b-4ecc-bc7a-c3f07822bf47","system_id":"levelo_inurba_marseille","lat":43.2705,"lon":5.39214,"is_reserved":false,"is_disabled":true,"rental_uris":{"android":"levelo://app?vid=a48a4fa8-387b-4ecc-bc7a-c3f07822bf47","ios":"levelo://app?vid=a48a4fa8-387b-4ecc-bc7a-c3f07822bf47"},"vehicle_type_id":"4","last_reported":1737839189,"current_range_meters":0,"station_id":"","pricing_plan_id":"cebpf4jnsgd1na2vs0mg"},{"bike_id":"40c2ad8f-19db-4f2c-83cf-e59d7547390b","system_id":"levelo_inurba_marseille","lat":43.30176,"lon":5.36602,"is_reserved":false,"is_disabled":false,"rental_uris":{"android":"levelo://app?vid=40c2ad8f-19db-4f2c-83cf-e59d7547390b","ios":"levelo://app?vid=40c2ad8f-19db-4f2c-83cf-e59d7547390b"},"vehicle_type_id":"4","last_reported":1737839189,"current_range_meters":36400,"station_id":"ce4bgrh2rcd13ifvqc8g","pricing_plan_id":"cebpf4jnsgd1na2vs0mg"},{"bike_id":"44dbd9c0-b3f8-44a0-94df-41e3a299819c","system_id":"levelo_inurba_marseille","lat":43.26495,"lon":5.39542,"is_reserved":false,"is_disabled":false,"rental_uris":{"android":"levelo://app?vid=44dbd9c0-b3f8-44a0-94df-41e3a299819c","ios":"levelo://app?vid=44dbd9c0-b3f8-44a0-94df-41e3a299819c"},"vehicle_type_id":"4","last_reported":1737839189,"current_range_meters":37600,"station_id":"ce4bhi12rcd13ifvqfq0","pricing_plan_id":"cebpf4jnsgd1na2vs0mg"},{"bike_id":"8fd0082a-8558-471d-bd5c-8f2bb03de120","system_id":"levelo_inurba_marseille","lat":43.287274,"lon":5.39995,"is_reserved":false,"is_disabled":true,"rental_uris":{"android":"levelo://app?vid=8fd0082a-8558-471d-bd5c-8f2bb03de120","ios":"levelo://app?vid=8fd0082a-8558-471d-bd5c-8f2bb03de120"},"vehicle_type_id":"4","last_reported":1737839189,"current_range_meters":29600,"station_id":"ce4bho92rcd13ifvqh3g","pricing_plan_id":"cebpf4jnsgd1na2vs0mg"},{"bike_id":"d366cae2-82ff-4e64-9fca-0a14d02521b6","system_id":"levelo_inurba_marseille","lat":43.31071,"lon":5.38369,"is_reserved":false,"is_disabled":false,"rental_uris":{"android":"levelo://app?vid=d366cae2-82ff-4e64-9fca-0a14d02521b6","ios":"levelo://app?vid=d366cae2-82ff-4e64-9fca-0a14d02521b6"},"vehicle_type_id":"4","last_reported":1737839189,"current_range_meters":38800,"station_id":"ce4bgv92rcd13ifvqcr0","pricing_plan_id":"cebpf4jnsgd1na2vs0mg"},{"bike_id":"3b5009cc-0694-450d-92d5-e0b0fd3d33ec","system_id":"levelo_inurba_marseille","lat":43.29618,"lon":5.38118,"is_reserved":false,"is_disabled":false,"rental_uris":{"android":"levelo://app?vid=3b5009cc-0694-450d-92d5-e0b0fd3d33ec","ios":"levelo://app?vid=3b5009cc-0694-450d-92d5-e0b0fd3d33ec"},"vehicle_type_id":"4","last_reported":1737839189,"current_range_meters":38000,"station_id":"ce4bgl12rcd13ifvqbo0","pricing_plan_id":"cebpf4jnsgd1na2vs0mg"},{"bike_id":"001597bf-a1f7-42cb-baa4-52ce3f1a761a","system_id":"levelo_inurba_marseille","lat":43.28154,"lon":5.42632,"is_reserved":false,"is_disabled":false,"rental_uris":{"android":"levelo://app?vid=001597bf-a1f7-42cb-baa4-52ce3f1a761a","ios":"levelo://app?vid=001597bf-a1f7-42cb-baa4-52ce3f1a761a"},"vehicle_type_id":"4","last_reported":1737839189,"current_range_meters":8400,"station_id":"ce4bhnh2rcd13ifvqgug","pricing_plan_id":"cebpf4jnsgd1na2vs0mg"},{"bike_id":"0388a30a-ad15-45cd-99a5-88b71b2b0d5f","system_id":"levelo_inurba_marseille","lat":43.24996,"lon":5.38929,"is_reserved":false,"is_disabled":false,"rental_uris":{"android":"levelo://app?vid=0388a30a-ad15-45cd-99a5-88b71b2b0d5f","ios":"levelo://app?vid=0388a30a-ad15-45cd-99a5-88b71b2b0d5f"},"vehicle_type_id":"4","last_reported":1737839189,"current_range_meters":30800,"station_id":"ce4bhgp2rcd13ifvqfd0","pricing_plan_id":"cebpf4jnsgd1na2vs0mg"},{"bike_id":"b996c87f-d903-42b5-80db-0cef1eda72fd","system_id":"levelo_inurba_marseille","lat":43.230643,"lon":5.354905,"is_reserved":false,"is_disabled":false,"rental_uris":{"android":"levelo://app?vid=b996c87f-d903-42b5-80db-0cef1eda72fd","ios":"levelo://app?vid=b996c87f-d903-42b5-80db-0cef1eda72fd"},"vehicle_type_id":"4","last_reported":1737839189,"current_range_meters":8000,"station_id":"cpo3342slgdg3j2ifvpg","pricing_plan_id":"cebpf4jnsgd1na2vs0mg"},{"bike_id":"323d4be9-bd67-43e2-8721-837d10bc21f2","system_id":"levelo_inurba_marseille","lat":43.29409,"lon":5.38627,"is_reserved":false,"is_disabled":false,"rental_uris":{"android":"levelo://app?vid=323d4be9-bd67-43e2-8721-837d10bc21f2","ios":"levelo://app?vid=323d4be9-bd67-43e2-8721-837d10bc21f2"},"vehicle_type_id":"4","last_reported":1737839189,"current_range_meters":39200,"station_id":"ce4bh2h2rcd13ifvqdh0","pricing_plan_id":"cebpf4jnsgd1na2vs0mg"},{"bike_id":"c85fb4d7-e678-49de-a42f-7829efe5ec6f","system_id":"levelo_inurba_marseille","lat":43.29542,"lon":5.38538,"is_reserved":false,"is_disabled":false,"rental_uris":{"android":"levelo://app?vid=c85fb4d7-e678-49de-a42f-7829efe5ec6f","ios":"levelo://app?vid=c85fb4d7-e678-49de-a42f-7829efe5ec6f"},"vehicle_type_id":"4","last_reported":1737839189,"current_range_meters":27200,"station_id":"ce4bgih2rcd13ifvqba0","pricing_plan_id":"cebpf4jnsgd1na2vs0mg"},{"bike_id":"66d276e2-5384-454c-bcd3-86610e7a2f37","system_id":"levelo_inurba_marseille","lat":43.31704,"lon":5.40458,"is_reserved":false,"is_disabled":false,"rental_uris":{"android":"levelo://app?vid=66d276e2-5384-454c-bcd3-86610e7a2f37","ios":"levelo://app?vid=66d276e2-5384-454c-bcd3-86610e7a2f37"},"vehicle_type_id":"4","last_reported":1737839189,"current_range_meters":9200,"station_id":"ce4bh012rcd13ifvqd00","pricing_plan_id":"cebpf4jnsgd1na2vs0mg"},{"bike_id":"9353a8c9-0fb0-4e94-853c-ea392ad3a4d6","system_id":"levelo_inurba_marseille","lat":43.33026,"lon":5.39047,"is_reserved":false,"is_disabled":false,"rental_uris":{"android":"levelo://app?vid=9353a8c9-0fb0-4e94-853c-ea392ad3a4d6","ios":"levelo://app?vid=9353a8c9-0fb0-4e94-853c-ea392ad3a4d6"},"vehicle_type_id":"4","last_reported":1737839189,"current_range_meters":27600,"station_id":"ce4bhr92rcd13ifvqhrg","pricing_plan_id":"cebpf4jnsgd1na2vs0mg"},{"bike_id":"882e4d97-ad36-4f32-b0ee-359384324109","system_id":"levelo_inurba_marseille","lat":43.2991,"lon":5.38131,"is_reserved":false,"is_disabled":false,"rental_uris":{"android":"levelo://app?vid=882e4d97-ad36-4f32-b0ee-359384324109","ios":"levelo://app?vid=882e4d97-ad36-4f32-b0ee-359384324109"},"vehicle_type_id":"4","last_reported":1737839189,"current_range_meters":30400,"station_id":"ce4bgj12rcd13ifvqbc0","pricing_plan_id":"cebpf4jnsgd1na2vs0mg"},{"bike_id":"82fd3bae-74ac-46b3-bbbf-49983b183106","system_id":"levelo_inurba_marseille","lat":43.29253,"lon":5.38448,"is_reserved":false,"is_disabled":false,"rental_uris":{"android":"levelo://app?vid=82fd3bae-74ac-46b3-bbbf-49983b183106","ios":"levelo://app?vid=82fd3bae-74ac-46b3-bbbf-49983b183106"},"vehicle_type_id":"4","last_reported":1737839189,"current_range_meters":37600,"station_id":"ce4bh692rcd13ifvqea0","pricing_plan_id":"cebpf4jnsgd1na2vs0mg"},{"bike_id":"9834520e-fb30-473b-98dd-58c8029b94dc","system_id":"levelo_inurba_marseille","lat":43.27678,"lon":5.38922,"is_reserved":false,"is_disabled":false,"rental_uris":{"android":"levelo://app?vid=9834520e-fb30-473b-98dd-58c8029b94dc","ios":"levelo://app?vid=9834520e-fb30-473b-98dd-58c8029b94dc"},"vehicle_type_id":"4","last_reported":1737839189,"current_range_meters":36000,"station_id":"ce4bhi12rcd13ifvqfo0","pricing_plan_id":"cebpf4jnsgd1na2vs0mg"},{"bike_id":"3bdbb7cf-dc74-4aeb-aee6-ee8fddcf42fe","system_id":"levelo_inurba_marseille","lat":43.29551,"lon":5.38538,"is_reserved":false,"is_disabled":false,"rental_uris":{"android":"levelo://app?vid=3bdbb7cf-dc74-4aeb-aee6-ee8fddcf42fe","ios":"levelo://app?vid=3bdbb7cf-dc74-4aeb-aee6-ee8fddcf42fe"},"vehicle_type_id":"4","last_reported":1737839189,"current_range_meters":28800,"station_id":"ce4bgih2rcd13ifvqba0","pricing_plan_id":"cebpf4jnsgd1na2vs0mg"},{"bike_id":"35b4539c-ff66-40b1-b56f-a956749f9d8a","system_id":"levelo_inurba_marseille","lat":43.32669,"lon":5.41038,"is_reserved":false,"is_disabled":false,"rental_uris":{"android":"levelo://app?vid=35b4539c-ff66-40b1-b56f-a956749f9d8a","ios":"levelo://app?vid=35b4539c-ff66-40b1-b56f-a956749f9d8a"},"vehicle_type_id":"4","last_reported":1737839189,"current_range_meters":38800,"station_id":"ce4bhpp2rcd13ifvqhgg","pricing_plan_id":"cebpf4jnsgd1na2vs0mg"},{"bike_id":"a2313206-12fc-4e3f-854d-54ac27caeb2b","system_id":"levelo_inurba_marseille","lat":43.29968,"lon":5.38497,"is_reserved":false,"is_disabled":false,"rental_uris":{"android":"levelo://app?vid=a2313206-12fc-4e3f-854d-54ac27caeb2b","ios":"levelo://app?vid=a2313206-12fc-4e3f-854d-54ac27caeb2b"},"vehicle_type_id":"4","last_reported":1737839189,"current_range_meters":38800,"station_id":"ce4bgj92rcd13ifvqbd0","pricing_plan_id":"cebpf4jnsgd1na2vs0mg"},{"bike_id":"8d4ddec4-c5b1-4949-8b22-91bcf0236bb4","system_id":"levelo_inurba_marseille","lat":43.24661,"lon":5.38896,"is_reserved":false,"is_disabled":false,"rental_uris":{"android":"levelo://app?vid=8d4ddec4-c5b1-4949-8b22-91bcf0236bb4","ios":"levelo://app?vid=8d4ddec4-c5b1-4949-8b22-91bcf0236bb4"},"vehicle_type_id":"4","last_reported":1737839189,"current_range_meters":38800,"station_id":"ce4bhg12rcd13ifvqf60","pricing_plan_id":"cebpf4jnsgd1na2vs0mg"},{"bike_id":"3d98c6ce-e80d-46e8-b577-648cd8c28632","system_id":"levelo_inurba_marseille","lat":43.35796,"lon":5.35759,"is_reserved":false,"is_disabled":false,"rental_uris":{"android":"levelo://app?vid=3d98c6ce-e80d-46e8-b577-648cd8c28632","ios":"levelo://app?vid=3d98c6ce-e80d-46e8-b577-648cd8c28632"},"vehicle_type_id":"4","last_reported":1737839189,"current_range_meters":4800,"station_id":"","pricing_plan_id":"cebpf4jnsgd1na2vs0mg"},{"bike_id":"86167669-87ec-46d8-942a-1b0cb002dce8","system_id":"levelo_inurba_marseille","lat":43.29379,"lon":5.4008,"is_reserved":false,"is_disabled":true,"rental_uris":{"android":"levelo://app?vid=86167669-87ec-46d8-942a-1b0cb002dce8","ios":"levelo://app?vid=86167669-87ec-46d8-942a-1b0cb002dce8"},"vehicle_type_id":"4","last_reported":1737839189,"current_range_meters":28000,"station_id":"","pricing_plan_id":"cebpf4jnsgd1na2vs0mg"},{"bike_id":"10a16e86-bffa-4f98-b4ba-0b88a73eeab1","system_id":"levelo_inurba_marseille","lat":43.29439,"lon":5.38625,"is_reserved":false,"is_disabled":false,"rental_uris":{"android":"levelo://app?vid=10a16e86-bffa-4f98-b4ba-0b88a73eeab1","ios":"levelo://app?vid=10a16e86-bffa-4f98-b4ba-0b88a73eeab1"},"vehicle_type_id":"4","last_reported":1737839189,"current_range_meters":7200,"station_id":"ce4bh2h2rcd13ifvqdh0","pricing_plan_id":"cebpf4jnsgd1na2vs0mg"},{"bike_id":"16cba4e1-cb10-44ef-b1a1-eca95385335f","system_id":"levelo_inurba_marseille","lat":43.2843,"lon":5.34969,"is_reserved":false,"is_disabled":true,"rental_uris":{"android":"levelo://app?vid=16cba4e1-cb10-44ef-b1a1-eca95385335f","ios":"levelo://app?vid=16cba4e1-cb10-44ef-b1a1-eca95385335f"},"vehicle_type_id":"4","last_reported":1737839189,"current_range_meters":0,"station_id":"ce4bhbh2rcd13ifvqepg","pricing_plan_id":"cebpf4jnsgd1na2vs0mg"},{"bike_id":"8f85fb93-f9da-4799-96b9-404a6969b0b0","system_id":"levelo_inurba_marseille","lat":43.29423,"lon":5.38634,"is_reserved":false,"is_disabled":false,"rental_uris":{"android":"levelo://app?vid=8f85fb93-f9da-4799-96b9-404a6969b0b0","ios":"levelo://app?vid=8f85fb93-f9da-4799-96b9-404a6969b0b0"},