{"last_updated":1687903621,"ttl":30,"version":"2.2","data":{"bikes":[{"bike_id":"dfadf1ae-67ef-42f1-b9ad-e99140cffb3f","system_id":"levelo_inurba_marseille","lat":43.313391,"lon":5.36706,"is_reserved":false,"is_disabled":false,"rental_uris":{"android":"levelo://app?vid=dfadf1ae-67ef-42f1-b9ad-e99140cffb3f","ios":"levelo://app?vid=dfadf1ae-67ef-42f1-b9ad-e99140cffb3f"},"vehicle_type_id":"4","last_reported":1687903621,"current_range_meters":0,"station_id":"ce4bgr92rcd13ifvqc6g","pricing_plan_id":"free"},{"bike_id":"7af4fe6f-13cb-44a4-a4eb-277f5a04f35d","system_id":"levelo_inurba_marseille","lat":43.314811,"lon":5.373103,"is_reserved":false,"is_disabled":false,"rental_uris":{"android":"levelo://app?vid=7af4fe6f-13cb-44a4-a4eb-277f5a04f35d","ios":"levelo://app?vid=7af4fe6f-13cb-44a4-a4eb-277f5a04f35d"},"vehicle_type_id":"4","last_reported":1687903621,"current_range_meters":13600,"station_id":"ce4bgt12rcd13ifvqcd0","pricing_plan_id":"free"},{"bike_id":"19e472e1-f1fb-4066-b6c6-709357b23198","system_id":"levelo_inurba_marseille","lat":43.308614,"lon":5.372098,"is_reserved":false,"is_disabled":false,"rental_uris":{"android":"levelo://app?vid=19e472e1-f1fb-4066-b6c6-709357b23198","ios":"levelo://app?vid=19e472e1-f1fb-4066-b6c6-709357b23198"},"vehicle_type_id":"4","last_reported":1687903621,"current_range_meters":400,"station_id":"ce4bguh2rcd13ifvqckg","pricing_plan_id":"free"},{"bike_id":"947fcf84-c636-4007-8607-690fa191dc37","system_id":"levelo_inurba_marseille","lat":43.31466,"lon":5.37377,"is_reserved":false,"is_disabled":false,"rental_uris":{"android":"levelo://app?vid=947fcf84-c636-4007-8607-690fa191dc37","ios":"levelo://app?vid=947fcf84-c636-4007-8607-690fa191dc37"},"vehicle_type_id":"4","last_reported":1687903621,"current_range_meters":24800,"station_id":"","pricing_plan_id":"free"},{"bike_id":"f78816cd-c640-4b18-abb0-69fdd80c536f","system_id":"levelo_inurba_marseille","lat":43.30552,"lon":5.36528,"is_reserved":false,"is_disabled":false,"rental_uris":{"android":"levelo://app?vid=f78816cd-c640-4b18-abb0-69fdd80c536f","ios":"levelo://app?vid=f78816cd-c640-4b18-abb0-69fdd80c536f"},"vehicle_type_id":"4","last_reported":1687903621,"current_range_meters":0,"station_id":"","pricing_plan_id":"free"},{"bike_id":"0f8f2316-cb72-4287-b678-2cdcaeafed1a","system_id":"levelo_inurba_marseille","lat":43.305989,"lon":5.37225,"is_reserved":false,"is_disabled":false,"rental_uris":{"android":"levelo://app?vid=0f8f2316-cb72-4287-b678-2cdcaeafed1a","ios":"levelo://app?vid=0f8f2316-cb72-4287-b678-2cdcaeafed1a"},"vehicle_type_id":"4","last_reported":1687903621,"current_range_meters":15200,"station_id":"ce4bgqh2rcd13ifvqc4g","pricing_plan_id":"free"},{"bike_id":"c35763eb-b34f-48e9-b588-f631f11b06b7","system_id":"levelo_inurba_marseille","lat":43.305989,"lon":5.37225,"is_reserved":false,"is_disabled":false,"rental_uris":{"android":"levelo://app?vid=c35763eb-b34f-48e9-b588-f631f11b06b7","ios":"levelo://app?vid=c35763eb-b34f-48e9-b588-f631f11b06b7"},"vehicle_type_id":"4","last_reported":1687903621,"current_range_meters":7200,"station_id":"ce4bgqh2rcd13ifvqc4g","pricing_plan_id":"free"},{"bike_id":"a532d61e-6305-40e8-9490-59f2878626e7","system_id":"levelo_inurba_marseille","lat":43.305989,"lon":5.37225,"is_reserved":false,"is_disabled":false,"rental_uris":{"android":"levelo://app?vid=a532d61e-6305-40e8-9490-59f2878626e7","ios":"levelo://app?vid=a532d61e-6305-40e8-9490-59f2878626e7"},"vehicle_type_id":"4","last_reported":1687903621,"current_range_meters":12400,"station_id":"ce4bgqh2rcd13ifvqc4g","pricing_plan_id":"free"},{"bike_id":"cb221e42-0a7f-44d8-b8b1-238e77124f3d","system_id":"levelo_inurba_marseille","lat":43.305989,"lon":5.37225,"is_reserved":false,"is_disabled":false,"rental_uris":{"android":"levelo://app?vid=cb221e42-0a7f-44d8-b8b1-238e77124f3d","ios":"levelo://app?vid=cb221e42-0a7f-44d8-b8b1-238e77124f3d"},"vehicle_type_id":"4","last_reported":1687903621,"current_range_meters":15200,"station_id":"ce4bgqh2rcd13ifvqc4g","pricing_plan_id":"free"},{"bike_id":"2ed721f4-c448-4a84-b6ea-6d085f4aaf12","system_id":"levelo_inurba_marseille","lat":43.311125,"lon":5.377624,"is_reserved":false,"is_disabled":false,"rental_uris":{"android":"levelo://app?vid=2ed721f4-c448-4a84-b6ea-6d085f4aaf12","ios":"levelo://app?vid=2ed721f4-c448-4a84-b6ea-6d085f4aaf12"},"vehicle_type_id":"4","last_reported":1687903621,"current_range_meters":18000,"station_id":"ce4bgt92rcd13ifvqcg0","pricing_plan_id":"free"},{"bike_id":"6a812bc8-2726-47e1-8a13-9d01554d771a","system_id":"levelo_inurba_marseille","lat":43.303046,"lon":5.368981,"is_reserved":false,"is_disabled":false,"rental_uris":{"android":"levelo://app?vid=6a812bc8-2726-47e1-8a13-9d01554d771a","ios":"levelo://app?vid=6a812bc8-2726-47e1-8a13-9d01554d771a"},"vehicle_type_id":"4","last_reported":1687903621,"current_range_meters":25600,"station_id":"ce4bgqh2rcd13ifvqc5g","pricing_plan_id":"free"},{"bike_id":"367798e6-a0b4-4c3e-a431-75bc9846cae4","system_id":"levelo_inurba_marseille","lat":43.303046,"lon":5.368981,"is_reserved":false,"is_disabled":false,"rental_uris":{"android":"levelo://app?vid=367798e6-a0b4-4c3e-a431-75bc9846cae4","ios":"levelo://app?vid=367798e6-a0b4-4c3e-a431-75bc9846cae4"},"vehicle_type_id":"4","last_reported":1687903621,"current_range_meters":2400,"station_id":"ce4bgqh2rcd13ifvqc5g","pricing_plan_id":"free"},{"bike_id":"e09abeec-7195-40ab-bdf8-eafe1d184ca3","system_id":"levelo_inurba_marseille","lat":43.303046,"lon":5.368981,"is_reserved":false,"is_disabled":false,"rental_uris":{"android":"levelo://app?vid=e09abeec-7195-40ab-bdf8-eafe1d184ca3","ios":"levelo://app?vid=e09abeec-7195-40ab-bdf8-eafe1d184ca3"},"vehicle_type_id":"4","last_reported":1687903621,"current_range_meters":18000,"station_id":"ce4bgqh2rcd13ifvqc5g","pricing_plan_id":"free"},{"bike_id":"bc73ecea-ddb0-4e05-958b-0c2571d0bb9d","system_id":"levelo_inurba_marseille","lat":43.303046,"lon":5.368981,"is_reserved":false,"is_disabled":false,"rental_uris":{"android":"levelo://app?vid=bc73ecea-ddb0-4e05-958b-0c2571d0bb9d","ios":"levelo://app?vid=bc73ecea-ddb0-4e05-958b-0c2571d0bb9d"},"vehicle_type_id":"4","last_reported":1687903621,"current_range_meters":0,"station_id":"ce4bgqh2rcd13ifvqc5g","pricing_plan_id":"free"},{"bike_id":"38e2864c-83c2-4388-8836-e5060b1576a6","system_id":"levelo_inurba_marseille","lat":43.303046,"lon":5.368981,"is_reserved":false,"is_disabled":false,"rental_uris":{"android":"levelo://app?vid=38e2864c-83c2-4388-8836-e5060b1576a6","ios":"levelo://app?vid=38e2864c-83c2-4388-8836-e5060b1576a6"},"vehicle_type_id":"4","last_reported":1687903621,"current_range_meters":6800,"station_id":"ce4bgqh2rcd13ifvqc5g","pricing_plan_id":"free"},{"bike_id":"c2c23684-a4f0-4d0c-bcfb-d6d850eb455c","system_id":"levelo_inurba_marseille","lat":43.303046,"lon":5.368981,"is_reserved":false,"is_disabled":false,"rental_uris":{"android":"levelo://app?vid=c2c23684-a4f0-4d0c-bcfb-d6d850eb455c","ios":"levelo://app?vid=c2c23684-a4f0-4d0c-bcfb-d6d850eb455c"},"vehicle_type_id":"4","last_reported":1687903621,"current_range_meters":17600,"station_id":"ce4bgqh2rcd13ifvqc5g","pricing_plan_id":"free"},{"bike_id":"70c23f61-7250-4c8f-89ff-ca35bace9e4e","system_id":"levelo_inurba_marseille","lat":43.303046,"lon":5.368981,"is_reserved":false,"is_disabled":false,"rental_uris":{"android":"levelo://app?vid=70c23f61-7250-4c8f-89ff-ca35bace9e4e","ios":"levelo://app?vid=70c23f61-7250-4c8f-89ff-ca35bace9e4e"},"vehicle_type_id":"4","last_reported":1687903621,"current_range_meters":800,"station_id":"ce4bgqh2rcd13ifvqc5g","pricing_plan_id":"free"},{"bike_id":"b35a468e-ace4-464a-8423-ae56e2e1a435","system_id":"levelo_inurba_marseille","lat":43.30306,"lon":5.36896,"is_reserved":false,"is_disabled":false,"rental_uris":{"android":"levelo://app?vid=b35a468e-ace4-464a-8423-ae56e2e1a435","ios":"levelo://app?vid=b35a468e-ace4-464a-8423-ae56e2e1a435"},"vehicle_type_id":"4","last_reported":1687903621,"current_range_meters":20400,"station_id":"ce4bgqh2rcd13ifvqc5g","pricing_plan_id":"free"},{"bike_id":"0cb784f1-566d-4f46-b9f0-75eb596b3813","system_id":"levelo_inurba_marseille","lat":43.315293,"lon":5.380349,"is_reserved":false,"is_disabled":false,"rental_uris":{"android":"levelo://app?vid=0cb784f1-566d-4f46-b9f0-75eb596b3813","ios":"levelo://app?vid=0cb784f1-566d-4f46-b9f0-75eb596b3813"},"vehicle_type_id":"4","last_reported":1687903621,"current_range_meters":16800,"station_id":"ce4bhsp2rcd13ifvqi50","pricing_plan_id":"free"},{"bike_id":"4ee15348-15e2-4f3c-9644-cacb33387e2c","system_id":"levelo_inurba_marseille","lat":43.315293,"lon":5.380349,"is_reserved":false,"is_disabled":false,"rental_uris":{"android":"levelo://app?vid=4ee15348-15e2-4f3c-9644-cacb33387e2c","ios":"levelo://app?vid=4ee15348-15e2-4f3c-9644-cacb33387e2c"},"vehicle_type_id":"4","last_reported":1687903621,"current_range_meters":7200,"station_id":"ce4bhsp2rcd13ifvqi50","pricing_plan_id":"free"},{"bike_id":"2affdab1-1605-4c10-b595-0ad4a97191ad","system_id":"levelo_inurba_marseille","lat":43.315293,"lon":5.380349,"is_reserved":false,"is_disabled":false,"rental_uris":{"android":"levelo://app?vid=2affdab1-1605-4c10-b595-0ad4a97191ad","ios":"levelo://app?vid=2affdab1-1605-4c10-b595-0ad4a97191ad"},"vehicle_type_id":"4","last_reported":1687903621,"current_range_meters":0,"station_id":"ce4bhsp2rcd13ifvqi50","pricing_plan_id":"free"},{"bike_id":"dd0ced3e-dcac-469a-a320-65bafec0f590","system_id":"levelo_inurba_marseille","lat":43.315293,"lon":5.380349,"is_reserved":false,"is_disabled":false,"rental_uris":{"android":"levelo://app?vid=dd0ced3e-dcac-469a-a320-65bafec0f590","ios":"levelo://app?vid=dd0ced3e-dcac-469a-a320-65bafec0f590"},"vehicle_type_id":"4","last_reported":1687903621,"current_range_meters":29200,"station_id":"ce4bhsp2rcd13ifvqi50","pricing_plan_id":"free"},{"bike_id":"1814fc2e-e44e-43b8-96a2-33b8e5ebbfce","system_id":"levelo_inurba_marseille","lat":43.301939,"lon":5.366286,"is_reserved":false,"is_disabled":false,"rental_uris":{"android":"levelo://app?vid=1814fc2e-e44e-43b8-96a2-33b8e5ebbfce","ios":"levelo://app?vid=1814fc2e-e44e-43b8-96a2-33b8e5ebbfce"},"vehicle_type_id":"4","last_reported":1687903621,"current_range_meters":30400,"station_id":"ce4bgrh2rcd13ifvqc8g","pricing_plan_id":"free"},{"bike_id":"8b83bcaa-8ff4-4acd-bde6-377d032bcf8d","system_id":"levelo_inurba_marseille","lat":43.308012,"lon":5.381511,"is_reserved":false,"is_disabled":false,"rental_uris":{"android":"levelo://app?vid=8b83bcaa-8ff4-4acd-bde6-377d032bcf8d","ios":"levelo://app?vid=8b83bcaa-8ff4-4acd-bde6-377d032bcf8d"},"vehicle_type_id":"4","last_reported":1687903621,"current_range_meters":22400,"station_id":"ce4bgt12rcd13ifvqce0","pricing_plan_id":"free"},{"bike_id":"c7921d01-9d83-4f08-8753-68fe8db31fc5","system_id":"levelo_inurba_marseille","lat":43.308012,"lon":5.381511,"is_reserved":false,"is_disabled":false,"rental_uris":{"android":"levelo://app?vid=c7921d01-9d83-4f08-8753-68fe8db31fc5","ios":"levelo://app?vid=c7921d01-9d83-4f08-8753-68fe8db31fc5"},"vehicle_type_id":"4","last_reported":1687903621,"current_range_meters":31200,"station_id":"ce4bgt12rcd13ifvqce0","pricing_plan_id":"free"},{"bike_id":"f8deaaef-262e-43a5-be18-f00754531495","system_id":"levelo_inurba_marseille","lat":43.308012,"lon":5.381511,"is_reserved":false,"is_disabled":false,"rental_uris":{"android":"levelo://app?vid=f8deaaef-262e-43a5-be18-f00754531495","ios":"levelo://app?vid=f8deaaef-262e-43a5-be18-f00754531495"},"vehicle_type_id":"4","last_reported":1687903621,"current_range_meters":19200,"station_id":"ce4bgt12rcd13ifvqce0","pricing_plan_id":"free"},{"bike_id":"b5af0e6d-3863-47bb-9eee-bc41be14d774","system_id":"levelo_inurba_marseille","lat":43.30809,"lon":5.38153,"is_reserved":false,"is_disabled":false,"rental_uris":{"android":"levelo://app?vid=b5af0e6d-3863-47bb-9eee-bc41be14d774","ios":"levelo://app?vid=b5af0e6d-3863-47bb-9eee-bc41be14d774"},"vehicle_type_id":"4","last_reported":1687903621,"current_range_meters":13600,"station_id":"ce4bgt12rcd13ifvqce0","pricing_plan_id":"free"},{"bike_id":"b961afbd-883e-444c-8131-c8042e576df6","system_id":"levelo_inurba_marseille","lat":43.308012,"lon":5.381511,"is_reserved":false,"is_disabled":false,"rental_uris":{"android":"levelo://app?vid=b961afbd-883e-444c-8131-c8042e576df6","ios":"levelo://app?vid=b961afbd-883e-444c-8131-c8042e576df6"},"vehicle_type_id":"4","last_reported":1687903621,"current_range_meters":31200,"station_id":"ce4bgt12rcd13ifvqce0","pricing_plan_id":"free"},{"bike_id":"71c1e474-8545-4602-8320-2d065e13101f","system_id":"levelo_inurba_marseille","lat":43.30802,"lon":5.38156,"is_reserved":false,"is_disabled":false,"rental_uris":{"android":"levelo://app?vid=71c1e474-8545-4602-8320-2d065e13101f","ios":"levelo://app?vid=71c1e474-8545-4602-8320-2d065e13101f"},"vehicle_type_id":"4","last_reported":1687903621,"current_range_meters":31200,"station_id":"ce4bgt12rcd13ifvqce0","pricing_plan_id":"free"},{"bike_id":"3038bb4c-a8ee-4b41-8bb4-297ec350b62e","system_id":"levelo_inurba_marseille","lat":43.308012,"lon":5.381511,"is_reserved":false,"is_disabled":false,"rental_uris":{"android":"levelo://app?vid=3038bb4c-a8ee-4b41-8bb4-297ec350b62e","ios":"levelo://app?vid=3038bb4c-a8ee-4b41-8bb4-297ec350b62e"},"vehicle_type_id":"4","last_reported":1687903621,"current_range_meters":8800,"station_id":"ce4bgt12rcd13ifvqce0","pricing_plan_id":"free"},{"bike_id":"e05e7237-25e4-4606-be73-e49ac28435f7","system_id":"levelo_inurba_marseille","lat":43.30799,"lon":5.3816,"is_reserved":false,"is_disabled":false,"rental_uris":{"android":"levelo://app?vid=e05e7237-25e4-4606-be73-e49ac28435f7","ios":"levelo://app?vid=e05e7237-25e4-4606-be73-e49ac28435f7"},"vehicle_type_id":"4","last_reported":1687903621,"current_range_meters":14000,"station_id":"ce4bgt12rcd13ifvqce0","pricing_plan_id":"free"},{"bike_id":"2a94a250-4d1d-4aaf-8b01-3b010b3d088d","system_id":"levelo_inurba_marseille","lat":43.30794,"lon":5.38162,"is_reserved":false,"is_disabled":false,"rental_uris":{"android":"levelo://app?vid=2a94a250-4d1d-4aaf-8b01-3b010b3d088d","ios":"levelo://app?vid=2a94a250-4d1d-4aaf-8b01-3b010b3d088d"},"vehicle_type_id":"4","last_reported":1687903621,"current_range_meters":11200,"station_id":"ce4bgt12rcd13ifvqce0","pricing_plan_id":"free"},{"bike_id":"696170bb-4a00-4e4e-85cd-64134ea15df6","system_id":"levelo_inurba_marseille","lat":43.30797,"lon":5.38164,"is_reserved":false,"is_disabled":false,"rental_uris":{"android":"levelo://app?vid=696170bb-4a00-4e4e-85cd-64134ea15df6","ios":"levelo://app?vid=696170bb-4a00-4e4e-85cd-64134ea15df6"},"vehicle_type_id":"4","last_reported":1687903621,"current_range_meters":16800,"station_id":"ce4bgt12rcd13ifvqce0","pricing_plan_id":"free"},{"bike_id":"4fbe4e81-c84e-486f-a829-7d1a92ed1530","system_id":"levelo_inurba_marseille","lat":43.304606,"lon":5.379026,"is_reserved":false,"is_disabled":false,"rental_uris":{"android":"levelo://app?vid=4fbe4e81-c84e-486f-a829-7d1a92ed1530","ios":"levelo://app?vid=4fbe4e81-c84e-486f-a829-7d1a92ed1530"},"vehicle_type_id":"4","last_reported":1687903621,"current_range_meters":31600,"station_id":"ce4bgup2rcd13ifvqcn0","pricing_plan_id":"free"},{"bike_id":"fe250cae-b771-4b52-bf61-525f2fae588e","system_id":"levelo_inurba_marseille","lat":43.30472,"lon":5.37901,"is_reserved":false,"is_disabled":false,"rental_uris":{"android":"levelo://app?vid=fe250cae-b771-4b52-bf61-525f2fae588e","ios":"levelo://app?vid=fe250cae-b771-4b52-bf61-525f2fae588e"},"vehicle_type_id":"4","last_reported":1687903621,"current_range_meters":11600,"station_id":"ce4bgup2rcd13ifvqcn0","pricing_plan_id":"free"},{"bike_id":"1f6d2247-ff21-4216-9b8e-7ceb53e5e500","system_id":"levelo_inurba_marseille","lat":43.3047,"lon":5.37902,"is_reserved":false,"is_disabled":false,"rental_uris":{"android":"levelo://app?vid=1f6d2247-ff21-4216-9b8e-7ceb53e5e500","ios":"levelo://app?vid=1f6d2247-ff21-4216-9b8e-7ceb53e5e500"},"vehicle_type_id":"4","last_reported":1687903621,"current_range_meters":3600,"station_id":"ce4bgup2rcd13ifvqcn0","pricing_plan_id":"free"},{"bike_id":"6fdb936a-e512-4f0f-a16e-70aa7eacd9c1","system_id":"levelo_inurba_marseille","lat":43.304606,"lon":5.379026,"is_reserved":false,"is_disabled":false,"rental_uris":{"android":"levelo://app?vid=6fdb936a-e512-4f0f-a16e-70aa7eacd9c1","ios":"levelo://app?vid=6fdb936a-e512-4f0f-a16e-70aa7eacd9c1"},"vehicle_type_id":"4","last_reported":1687903621,"current_range_meters":29200,"station_id":"ce4bgup2rcd13ifvqcn0","pricing_plan_id":"free"},{"bike_id":"36f1e1f7-1618-4d37-b0ef-451d133e8bee","system_id":"levelo_inurba_marseille","lat":43.30465,"lon":5.37898,"is_reserved":false,"is_disabled":false,"rental_uris":{"android":"levelo://app?vid=36f1e1f7-1618-4d37-b0ef-451d133e8bee","ios":"levelo://app?vid=36f1e1f7-1618-4d37-b0ef-451d133e8bee"},"vehicle_type_id":"4","last_reported":1687903621,"current_range_meters":28400,"station_id":"ce4bgup2rcd13ifvqcn0","pricing_plan_id":"free"},{"bike_id":"72d6da0e-630e-4e9e-aa59-a25b831980b4","system_id":"levelo_inurba_marseille","lat":43.304606,"lon":5.379026,"is_reserved":false,"is_disabled":false,"rental_uris":{"android":"levelo://app?vid=72d6da0e-630e-4e9e-aa59-a25b831980b4","ios":"levelo://app?vid=72d6da0e-630e-4e9e-aa59-a25b831980b4"},"vehicle_type_id":"4","last_reported":1687903621,"current_range_meters":14800,"station_id":"ce4bgup2rcd13ifvqcn0","pricing_plan_id":"free"},{"bike_id":"9abb8097-dedf-4de4-9be4-e8d60959d708","system_id":"levelo_inurba_marseille","lat":43.304606,"lon":5.379026,"is_reserved":false,"is_disabled":false,"rental_uris":{"android":"levelo://app?vid=9abb8097-dedf-4de4-9be4-e8d60959d708","ios":"levelo://app?vid=9abb8097-dedf-4de4-9be4-e8d60959d708"},"vehicle_type_id":"4","last_reported":1687903621,"current_range_meters":29600,"station_id":"ce4bgup2rcd13ifvqcn0","pricing_plan_id":"free"},{"bike_id":"06e3420b-62f4-4ce1-baa7-ce27795884cb","system_id":"levelo_inurba_marseille","lat":43.30462,"lon":5.37903,"is_reserved":false,"is_disabled":false,"rental_uris":{"android":"levelo://app?vid=06e3420b-62f4-4ce1-baa7-ce27795884cb","ios":"levelo://app?vid=06e3420b-62f4-4ce1-baa7-ce27795884cb"},"vehicle_type_id":"4","last_reported":1687903621,"current_range_meters":19200,"station_id":"ce4bgup2rcd13ifvqcn0","pricing_plan_id":"free"},{"bike_id":"f3505c6d-714e-4f14-b55b-af56c4212c96","system_id":"levelo_inurba_marseille","lat":43.304606,"lon":5.379026,"is_reserved":false,"is_disabled":false,"rental_uris":{"android":"levelo://app?vid=f3505c6d-714e-4f14-b55b-af56c4212c96","ios":"levelo://app?vid=f3505c6d-714e-4f14-b55b-af56c4212c96"},"vehicle_type_id":"4","last_reported":1687903621,"current_range_meters":31200,"station_id":"ce4bgup2rcd13ifvqcn0","pricing_plan_id":"free"},{"bike_id":"5aadbc62-ff5e-4534-83a3-ece7ae2a01a4","system_id":"levelo_inurba_marseille","lat":43.304606,"lon":5.379026,"is_reserved":false,"is_disabled":false,"rental_uris":{"android":"levelo://app?vid=5aadbc62-ff5e-4534-83a3-ece7ae2a01a4","ios":"levelo://app?vid=5aadbc62-ff5e-4534-83a3-ece7ae2a01a4"},"vehicle_type_id":"4","last_reported":1687903621,"current_range_meters":18400,"station_id":"ce4bgup2rcd13ifvqcn0","pricing_plan_id":"free"},{"bike_id":"cbcd46ef-e826-4ad7-af9b-56046a0ea98a","system_id":"levelo_inurba_marseille","lat":43.304606,"lon":5.379026,"is_reserved":false,"is_disabled":false,"rental_uris":{"android":"levelo://app?vid=cbcd46ef-e826-4ad7-af9b-56046a0ea98a","ios":"levelo://app?vid=cbcd46ef-e826-4ad7-af9b-56046a0ea98a"},"vehicle_type_id":"4","last_reported":1687903621,"current_range_meters":31600,"station_id":"ce4bgup2rcd13ifvqcn0","pricing_plan_id":"free"},{"bike_id":"bc0d9dd7-5fd3-43c9-9b15-3017e233aa7d","system_id":"levelo_inurba_marseille","lat":43.304606,"lon":5.379026,"is_reserved":false,"is_disabled":false,"rental_uris":{"android":"levelo://app?vid=bc0d9dd7-5fd3-43c9-9b15-3017e233aa7d","ios":"levelo://app?vid=bc0d9dd7-5fd3-43c9-9b15-3017e233aa7d"},"vehicle_type_id":"4","last_reported":1687903621,"current_range_meters":30400,"station_id":"ce4bgup2rcd13ifvqcn0","pricing_plan_id":"free"},{"bike_id":"335c8a47-5a3c-48a4-afa9-7fa1959183eb","system_id":"levelo_inurba_marseille","lat":43.30465,"lon":5.3791,"is_reserved":false,"is_disabled":false,"rental_uris":{"android":"levelo://app?vid=335c8a47-5a3c-48a4-afa9-7fa1959183eb","ios":"levelo://app?vid=335c8a47-5a3c-48a4-afa9-7fa1959183eb"},"vehicle_type_id":"4","last_reported":1687903621,"current_range_meters":0,"station_id":"","pricing_plan_id":"free"},{"bike_id":"87d1fcfe-766d-4765-a22a-6ba3e68a1c4c","system_id":"levelo_inurba_marseille","lat":43.304606,"lon":5.379026,"is_reserved":false,"is_disabled":false,"rental_uris":{"android":"levelo://app?vid=87d1fcfe-766d-4765-a22a-6ba3e68a1c4c","ios":"levelo://app?vid=87d1fcfe-766d-4765-a22a-6ba3e68a1c4c"},"vehicle_type_id":"4","last_reported":1687903621,"current_range_meters":0,"station_id":"ce4bgup2rcd13ifvqcn0","pricing_plan_id":"free"},{"bike_id":"13ad0de3-c848-4a2b-9d14-bc45110356bc","system_id":"levelo_inurba_marseille","lat":43.30141,"lon":5.37403,"is_reserved":false,"is_disabled":false,"rental_uris":{"android":"levelo://app?vid=13ad0de3-c848-4a2b-9d14-bc45110356bc","ios":"levelo://app?vid=13ad0de3-c848-4a2b-9d14-bc45110356bc"},"vehicle_type_id":"4","last_reported":1687903621,"current_range_meters":18400,"station_id":"ce4bgs92rcd13ifvqcc0","pricing_plan_id":"free"},{"bike_id":"3d64b8a4-6c24-4c62-b533-d3150b7f488a","system_id":"levelo_inurba_marseille","lat":43.302784,"lon":5.377158,"is_reserved":false,"is_disabled":false,"rental_uris":{"android":"levelo://app?vid=3d64b8a4-6c24-4c62-b533-d3150b7f488a","ios":"levelo://app?vid=3d64b8a4-6c24-4c62-b533-d3150b7f488a"},"vehicle_type_id":"4","last_reported":1687903621,"current_range_meters":2400,"station_id":"ce4bguh2rcd13ifvqcj0","pricing_plan_id":"free"},{"bike_id":"ff2674b5-8725-4878-b5d3-488c50f2698c","system_id":"levelo_inurba_marseille","lat":43.319935,"lon":5.381699,"is_reserved":false,"is_disabled":false,"rental_uris":{"android":"levelo://app?vid=ff2674b5-8725-4878-b5d3-488c50f2698c","ios":"levelo://app?vid=ff2674b5-8725-4878-b5d3-488c50f2698c"},"vehicle_type_id":"4","last_reported":1687903621,"current_range_meters":17200,"station_id":"ce4bhr12rcd13ifvqhpg","pricing_plan_id":"free"},{"bike_id":"e3ffbad8-9b94-4cdf-b094-f77e7df949c1","system_id":"levelo_inurba_marseille","lat":43.319935,"lon":5.381699,"is_reserved":false,"is_disabled":false,"rental_uris":{"android":"levelo://app?vid=e3ffbad8-9b94-4cdf-b094-f77e7df949c1","ios":"levelo://app?vid=e3ffbad8-9b94-4cdf-b094-f77e7df949c1"},"vehicle_type_id":"4","last_reported":1687903621,"current_range_meters":4000,"station_id":"ce4bhr12rcd13ifvqhpg","pricing_plan_id":"free"},{"bike_id":"d0174521-fb87-417e-946d-301e73fd7540","system_id":"levelo_inurba_marseille","lat":43.313571,"lon":5.384829,"is_reserved":false,"is_disabled":false,"rental_uris":{"android":"levelo://app?vid=d0174521-fb87-417e-946d-301e73fd7540","ios":"levelo://app?vid=d0174521-fb87-417e-946d-301e73fd7540"},"vehicle_type_id":"4","last_reported":1687903621,"current_range_meters":16000,"station_id":"ce4bgt92rcd13ifvqcf0","pricing_plan_id":"free"},{"bike_id":"d9f293b3-9b4e-48be-badf-a56bdafd4a80","system_id":"levelo_inurba_marseille","lat":43.31355,"lon":5.38489,"is_reserved":false,"is_disabled":false,"rental_uris":{"android":"levelo://app?vid=d9f293b3-9b4e-48be-badf-a56bdafd4a80","ios":"levelo://app?vid=d9f293b3-9b4e-48be-badf-a56bdafd4a80"},"vehicle_type_id":"4","last_reported":1687903621,"current_range_meters":18000,"station_id":"ce4bgt92rcd13ifvqcf0","pricing_plan_id":"free"},{"bike_id":"8ebfa0e7-299a-498d-8cf9-b54af4c0966b","system_id":"levelo_inurba_marseille","lat":43.299222,"lon":5.365554,"is_reserved":false,"is_disabled":false,"rental_uris":{"android":"levelo://app?vid=8ebfa0e7-299a-498d-8cf9-b54af4c0966b","ios":"levelo://app?vid=8ebfa0e7-299a-498d-8cf9-b54af4c0966b"},"vehicle_type_id":"4","last_reported":1687903621,"current_range_meters":400,"station_id":"ce4bgm92rcd13ifvqbr0","pricing_plan_id":"free"},{"bike_id":"0d1a68d7-7f9c-46fa-8803-a3915fbff80b","system_id":"levelo_inurba_marseille","lat":43.305364,"lon":5.384119,"is_reserved":false,"is_disabled":false,"rental_uris":{"android":"levelo://app?vid=0d1a68d7-7f9c-46fa-8803-a3915fbff80b","ios":"levelo://app?vid=0d1a68d7-7f9c-46fa-8803-a3915fbff80b"},"vehicle_type_id":"4","last_reported":1687903621,"current_range_meters":7200,"station_id":"ce4bgg92rcd13ifvqb30","pricing_plan_id":"free"},{"bike_id":"1db5fd78-e6b8-49a1-b3d0-152b3bf7ea86","system_id":"levelo_inurba_marseille","lat":43.305364,"lon":5.384119,"is_reserved":false,"is_disabled":false,"rental_uris":{"android":"levelo://app?vid=1db5fd78-e6b8-49a1-b3d0-152b3bf7ea86","ios":"levelo://app?vid=1db5fd78-e6b8-49a1-b3d0-152b3bf7ea86"},"vehicle_type_id":"4","last_reported":1687903621,"current_range_meters":23600,"station_id":"ce4bgg92rcd13ifvqb30","pricing_plan_id":"free"},{"bike_id":"f7038c0c-f72a-4b51-8a2c-7d229726fe1a","system_id":"levelo_inurba_marseille","lat":43.305364,"lon":5.384119,"is_reserved":false,"is_disabled":false,"rental_uris":{"android":"levelo://app?vid=f7038c0c-f72a-4b51-8a2c-7d229726fe1a","ios":"levelo://app?vid=f7038c0c-f72a-4b51-8a2c-7d229726fe1a"},"vehicle_type_id":"4","last_reported":1687903621,"current_range_meters":31200,"station_id":"ce4bgg92rcd13ifvqb30","pricing_plan_id":"free"},{"bike_id":"1b8b9c89-05a5-4edf-b55c-ac090c55057d","system_id":"levelo_inurba_marseille","lat":43.311722,"lon":5.387247,"is_reserved":false,"is_disabled":false,"rental_uris":{"android":"levelo://app?vid=1b8b9c89-05a5-4edf-b55c-ac090c55057d","ios":"levelo://app?vid=1b8b9c89-05a5-4edf-b55c-ac090c55057d"},"vehicle_type_id":"4","last_reported":1687903621,"current_range_meters":14800,"station_id":"ce4bgv12rcd13ifvqcp0","pricing_plan_id":"free"},{"bike_id":"ce6900e9-9c48-401f-86eb-746d70f9666f","system_id":"levelo_inurba_marseille","lat":43.311722,"lon":5.387247,"is_reserved":false,"is_disabled":false,"rental_uris":{"android":"levelo://app?vid=ce6900e9-9c48-401f-86eb-746d70f9666f","ios":"levelo://app?vid=ce6900e9-9c48-401f-86eb-746d70f9666f"},"vehicle_type_id":"4","last_reported":1687903621,"current_range_meters":4000,"station_id":"ce4bgv12rcd13ifvqcp0","pricing_plan_id":"free"},{"bike_id":"d6491493-c210-4340-b818-eb6487d4b285","system_id":"levelo_inurba_marseille","lat":43.311722,"lon":5.387247,"is_reserved":false,"is_disabled":false,"rental_uris":{"android":"levelo://app?vid=d6491493-c210-4340-b818-eb6487d4b285","ios":"levelo://app?vid=d6491493-c210-4340-b818-eb6487d4b285"},"vehicle_type_id":"4","last_reported":1687903621,"current_range_meters":27200,"station_id":"ce4bgv12rcd13ifvqcp0","pricing_plan_id":"free"},{"bike_id":"55f9f4f7-4cad-4f4b-8ae2-a69be8a7110a","system_id":"levelo_inurba_marseille","lat":43.311722,"lon":5.387247,"is_reserved":false,"is_disabled":false,"rental_uris":{"android":"levelo://app?vid=55f9f4f7-4cad-4f4b-8ae2-a69be8a7110a","ios":"levelo://app?vid=55f9f4f7-4cad-4f4b-8ae2-a69be8a7110a"},"vehicle_type_id":"4","last_reported":1687903621,"current_range_meters":5600,"station_id":"ce4bgv12rcd13ifvqcp0","pricing_plan_id":"free"},{"bike_id":"d76c67ae-3bf2-44ff-9f86-15453638450b","system_id":"levelo_inurba_marseille","lat":43.313571,"lon":5.384829,"is_reserved":false,"is_disabled":false,"rental_uris":{"android":"levelo://app?vid=d76c67ae-3bf2-44ff-9f86-15453638450b","ios":"levelo://app?vid=d76c67ae-3bf2-44ff-9f86-15453638450b"},"vehicle_type_id":"4","last_reported":1687903621,"current_range_meters":3200,"station_id":"ce4bgt92rcd13ifvqcf0","pricing_plan_id":"free"},{"bike_id":"92070066-e622-47a6-8116-fb58bdca040d","system_id":"levelo_inurba_marseille","lat":43.297794,"lon":5.370888,"is_reserved":false,"is_disabled":false,"rental_uris":{"android":"levelo://app?vid=92070066-e622-47a6-8116-fb58bdca040d","ios":"levelo://app?vid=92070066-e622-47a6-8116-fb58bdca040d"},"vehicle_type_id":"4","last_reported":1687903621,"current_range_meters":13600,"station_id":"ce4bgop2rcd13ifvqc1g","pricing_plan_id":"free"},{"bike_id":"a8773d6c-416b-4bb7-b3df-9ca0b27461c7","system_id":"levelo_inurba_marseille","lat":43.328371,"lon":5.366909,"is_reserved":false,"is_disabled":false,"rental_uris":{"android":"levelo://app?vid=a8773d6c-416b-4bb7-b3df-9ca0b27461c7","ios":"levelo://app?vid=a8773d6c-416b-4bb7-b3df-9ca0b27461c7"},"vehicle_type_id":"4","last_reported":1687903621,"current_range_meters":0,"station_id":"ce4bhs92rcd13ifvqi0g","pricing_plan_id":"free"},{"bike_id":"4ad0820a-b4f0-4687-9297-85e68595ea74","system_id":"levelo_inurba_marseille","lat":43.328371,"lon":5.366909,"is_reserved":false,"is_disabled":false,"rental_uris":{"android":"levelo://app?vid=4ad0820a-b4f0-4687-9297-85e68595ea74","ios":"levelo://app?vid=4ad0820a-b4f0-4687-9297-85e68595ea74"},"vehicle_type_id":"4","last_reported":1687903621,"current_range_meters":19600,"station_id":"ce4bhs92rcd13ifvqi0g","pricing_plan_id":"free"},{"bike_id":"6fffd513-4814-4955-a96a-37c2be6aeead","system_id":"levelo_inurba_marseille","lat":43.328371,"lon":5.366909,"is_reserved":false,"is_disabled":false,"rental_uris":{"android":"levelo://app?vid=6fffd513-4814-4955-a96a-37c2be6aeead","ios":"levelo://app?vid=6fffd513-4814-4955-a96a-37c2be6aeead"},"vehicle_type_id":"4","last_reported":1687903621,"current_range_meters":15200,"station_id":"ce4bhs92rcd13ifvqi0g","pricing_plan_id":"free"},{"bike_id":"edf99199-a39e-46dd-81a8-85dc01e0d88e","system_id":"levelo_inurba_marseille","lat":43.328371,"lon":5.366909,"is_reserved":false,"is_disabled":false,"rental_uris":{"android":"levelo://app?vid=edf99199-a39e-46dd-81a8-85dc01e0d88e","ios":"levelo://app?vid=edf99199-a39e-46dd-81a8-85dc01e0d88e"},"vehicle_type_id":"4","last_reported":1687903621,"current_range_meters":19200,"station_id":"ce4bhs92rcd13ifvqi0g","pricing_plan_id":"free"},{"bike_id":"8d98417a-cbe4-4269-8bc9-598373a7d5de","system_id":"levelo_inurba_marseille","lat":43.3287,"lon":5.36296,"is_reserved":false,"is_disabled":false,"rental_uris":{"android":"levelo://app?vid=8d98417a-cbe4-4269-8bc9-598373a7d5de","ios":"levelo://app?vid=8d98417a-cbe4-4269-8bc9-598373a7d5de"},"vehicle_type_id":"4","last_reported":1687903621,"current_range_meters":6000,"station_id":"","pricing_plan_id":"free"},{"bike_id":"f7195626-dbdf-4a05-abea-cd4bf2f991a0","system_id":"levelo_inurba_marseille","lat":43.29898,"lon":5.38126,"is_reserved":false,"is_disabled":false,"rental_uris":{"android":"levelo://app?vid=f7195626-dbdf-4a05-abea-cd4bf2f991a0","ios":"levelo://app?vid=f7195626-dbdf-4a05-abea-cd4bf2f991a0"},"vehicle_type_id":"4","last_reported":1687903621,"current_range_meters":22400,"station_id":"ce4bgj12rcd13ifvqbc0","pricing_plan_id":"free"},{"bike_id":"1501e74f-d3df-4df8-ac93-9d8e333ea49c","system_id":"levelo_inurba_marseille","lat":43.309589,"lon":5.390258,"is_reserved":false,"is_disabled":false,"rental_uris":{"android":"levelo://app?vid=1501e74f-d3df-4df8-ac93-9d8e333ea49c","ios":"levelo://app?vid=1501e74f-d3df-4df8-ac93-9d8e333ea49c"},"vehicle_type_id":"4","last_reported":1687903621,"current_range_meters":20400,"station_id":"ce4bgup2rcd13ifvqco0","pricing_plan_id":"free"},{"bike_id":"008f275c-72bb-4fe0-b421-f3a0fd15534f","system_id":"levelo_inurba_marseille","lat":43.317557,"lon":5.390173,"is_reserved":false,"is_disabled":false,"rental_uris":{"android":"levelo://app?vid=008f275c-72bb-4fe0-b421-f3a0fd15534f","ios":"levelo://app?vid=008f275c-72bb-4fe0-b421-f3a0fd15534f"},"vehicle_type_id":"4","last_reported":1687903621,"current_range_meters":22000,"station_id":"ce4bhqp2rcd13ifvqhng","pricing_plan_id":"free"},{"bike_id":"43ddf487-4679-47ab-a640-42eb7f0c8f92","system_id":"levelo_inurba_marseille","lat":43.31762,"lon":5.39012,"is_reserved":false,"is_disabled":false,"rental_uris":{"android":"levelo://app?vid=43ddf487-4679-47ab-a640-42eb7f0c8f92","ios":"levelo://app?vid=43ddf487-4679-47ab-a640-42eb7f0c8f92"},"vehicle_type_id":"4","last_reported":1687903621,"current_range_meters":30000,"station_id":"ce4bhqp2rcd13ifvqhng","pricing_plan_id":"free"},{"bike_id":"a1739883-1617-4892-9bdf-479ec4621cd0","system_id":"levelo_inurba_marseille","lat":43.31759,"lon":5.39017,"is_reserved":false,"is_disabled":false,"rental_uris":{"android":"levelo://app?vid=a1739883-1617-4892-9bdf-479ec4621cd0","ios":"levelo://app?vid=a1739883-1617-4892-9bdf-479ec4621cd0"},"vehicle_type_id":"4","last_reported":1687903621,"current_range_meters":8800,"station_id":"ce4bhqp2rcd13ifvqhng","pricing_plan_id":"free"},{"bike_id":"fd0a7c6f-5178-4c2c-8137-bdb4f1b6c0a9","system_id":"levelo_inurba_marseille","lat":43.298037,"lon":5.381066,"is_reserved":false,"is_disabled":false,"rental_uris":{"android":"levelo://app?vid=fd0a7c6f-5178-4c2c-8137-bdb4f1b6c0a9","ios":"levelo://app?vid=fd0a7c6f-5178-4c2c-8137-bdb4f1b6c0a9"},"vehicle_type_id":"4","last_reported":1687903621,"current_range_meters":31200,"station_id":"ce4bgip2rcd13ifvqbb0","pricing_plan_id":"free"},{"bike_id":"e2891a06-77eb-4a91-8619-cdd53458991a","system_id":"levelo_inurba_marseille","lat":43.298037,"lon":5.381066,"is_reserved":false,"is_disabled":false,"rental_uris":{"android":"levelo://app?vid=e2891a06-77eb-4a91-8619-cdd53458991a","ios":"levelo://app?vid=e2891a06-77eb-4a91-8619-cdd53458991a"},"vehicle_type_id":"4","last_reported":1687903621,"current_range_meters":31200,"station_id":"ce4bgip2rcd13ifvqbb0","pricing_plan_id":"free"},{"bike_id":"6cfebfff-f6fa-48a1-a231-d344c2e0c02c","system_id":"levelo_inurba_marseille","lat":43.298037,"lon":5.381066,"is_reserved":false,"is_disabled":false,"rental_uris":{"android":"levelo://app?vid=6cfebfff-f6fa-48a1-a231-d344c2e0c02c","ios":"levelo://app?vid=6cfebfff-f6fa-48a1-a231-d344c2e0c02c"},"vehicle_type_id":"4","last_reported":1687903621,"current_range_meters":31200,"station_id":"ce4bgip2rcd13ifvqbb0","pricing_plan_id":"free"},{"bike_id":"f27f8a8a-3a6e-4810-9b40-39c88870afe0","system_id":"levelo_inurba_marseille","lat":43.298037,"lon":5.381066,"is_reserved":false,"is_disabled":false,"rental_uris":{"android":"levelo://app?vid=f27f8a8a-3a6e-4810-9b40-39c88870afe0","ios":"levelo://app?vid=f27f8a8a-3a6e-4810-9b40-39c88870afe0"},"vehicle_type_id":"4","last_reported":1687903621,"current_range_meters":31200,"station_id":"ce4bgip2rcd13ifvqbb0","pricing_plan_id":"free"},{"bike_id":"c5f43bf4-27bc-4db4-8d9e-9be3ba4a98bc","system_id":"levelo_inurba_marseille","lat":43.304278,"lon":5.388868,"is_reserved":false,"is_disabled":false,"rental_uris":{"android":"levelo://app?vid=c5f43bf4-27bc-4db4-8d9e-9be3ba4a98bc","ios":"levelo://app?vid=c5f43bf4-27bc-4db4-8d9e-9be3ba4a98bc"},"vehicle_type_id":"4","last_reported":1687903621,"current_range_meters":22000,"station_id":"ce4bgk12rcd13ifvqbi0","pricing_plan_id":"free"},{"bike_id":"7813a6d8-fb21-467b-82f3-814ade40895a","system_id":"levelo_inurba_marseille","lat":43.29919,"lon":5.38321,"is_reserved":false,"is_disabled":false,"rental_uris":{"android":"levelo://app?vid=7813a6d8-fb21-467b-82f3-814ade40895a","ios":"levelo://app?vid=7813a6d8-fb21-467b-82f3-814ade40895a"},"vehicle_type_id":"4","last_reported":1687903621,"current_range_meters":17200,"station_id":"","pricing_plan_id":"free"},{"bike_id":"1cc06bb6-5330-4555-8559-7eb5032536c5","system_id":"levelo_inurba_marseille","lat":43.304278,"lon":5.388868,"is_reserved":false,"is_disabled":false,"rental_uris":{"android":"levelo://app?vid=1cc06bb6-5330-4555-8559-7eb5032536c5","ios":"levelo://app?vid=1cc06bb6-5330-4555-8559-7eb5032536c5"},"vehicle_type_id":"4","last_reported":1687903621,"current_range_meters":31200,"station_id":"ce4bgk12rcd13ifvqbi0","pricing_plan_id":"free"},{"bike_id":"ffb1328b-861d-4d63-94fa-3495c1dc82ec","system_id":"levelo_inurba_marseille","lat":43.30437,"lon":5.38887,"is_reserved":false,"is_disabled":false,"rental_uris":{"android":"levelo://app?vid=ffb1328b-861d-4d63-94fa-3495c1dc82ec","ios":"levelo://app?vid=ffb1328b-861d-4d63-94fa-3495c1dc82ec"},"vehicle_type_id":"4","last_reported":1687903621,"current_range_meters":31200,"station_id":"ce4bgk12rcd13ifvqbi0","pricing_plan_id":"free"},{"bike_id":"23a9df98-999f-466f-b677-92cb559ce8bd","system_id":"levelo_inurba_marseille","lat":43.304278,"lon":5.388868,"is_reserved":false,"is_disabled":false,"rental_uris":{"android":"levelo://app?vid=23a9df98-999f-466f-b677-92cb559ce8bd","ios":"levelo://app?vid=23a9df98-999f-466f-b677-92cb559ce8bd"},"vehicle_type_id":"4","last_reported":1687903621,"current_range_meters":23200,"station_id":"ce4bgk12rcd13ifvqbi0","pricing_plan_id":"free"},{"bike_id":"1e2a2a1c-a467-48b1-a779-774960b7ecc6","system_id":"levelo_inurba_marseille","lat":43.30433,"lon":5.38886,"is_reserved":false,"is_disabled":false,"rental_uris":{"android":"levelo://app?vid=1e2a2a1c-a467-48b1-a779-774960b7ecc6","ios":"levelo://app?vid=1e2a2a1c-a467-48b1-a779-774960b7ecc6"},"vehicle_type_id":"4","last_reported":1687903621,"current_range_meters":31200,"station_id":"ce4bgk12rcd13ifvqbi0","pricing_plan_id":"free"},{"bike_id":"b64a3035-6683-499b-946a-6685c5836cb2","system_id":"levelo_inurba_marseille","lat":43.304278,"lon":5.388868,"is_reserved":false,"is_disabled":false,"rental_uris":{"android":"levelo://app?vid=b64a3035-6683-499b-946a-6685c5836cb2","ios":"levelo://app?vid=b64a3035-6683-499b-946a-6685c5836cb2"},"vehicle_type_id":"4","last_reported":1687903621,"current_range_meters":12400,"station_id":"ce4bgk12rcd13ifvqbi0","pricing_plan_id":"free"},{"bike_id":"07e03f47-584c-488c-86d9-9a4dcc6285a4","system_id":"levelo_inurba_marseille","lat":43.304278,"lon":5.388868,"is_reserved":false,"is_disabled":false,"rental_uris":{"android":"levelo://app?vid=07e03f47-584c-488c-86d9-9a4dcc6285a4","ios":"levelo://app?vid=07e03f47-584c-488c-86d9-9a4dcc6285a4"},"vehicle_type_id":"4","last_reported":1687903621,"current_range_meters":16000,"station_id":"ce4bgk12rcd13ifvqbi0","pricing_plan_id":"free"},{"bike_id":"c3273ef2-6972-4201-862c-5d0f233cfada","system_id":"levelo_inurba_marseille","lat":43.304274,"lon":5.388873,"is_reserved":false,"is_disabled":false,"rental_uris":{"android":"levelo://app?vid=c3273ef2-6972-4201-862c-5d0f233cfada","ios":"levelo://app?vid=c3273ef2-6972-4201-862c-5d0f233cfada"},"vehicle_type_id":"4","last_reported":1687903621,"current_range_meters":31200,"station_id":"ce4bgk12rcd13ifvqbi0","pricing_plan_id":"free"},{"bike_id":"2868823c-c925-4d26-98c8-b956f51bf120","system_id":"levelo_inurba_marseille","lat":43.299707,"lon":5.384859,"is_reserved":false,"is_disabled":false,"rental_uris":{"android":"levelo://app?vid=2868823c-c925-4d26-98c8-b956f51bf120","ios":"levelo://app?vid=2868823c-c925-4d26-98c8-b956f51bf120"},"vehicle_type_id":"4","last_reported":1687903621,"current_range_meters":31200,"station_id":"ce4bgj92rcd13ifvqbd0","pricing_plan_id":"free"},{"bike_id":"aa99fa24-ff0a-42d7-9d2d-92b4fce502cd","system_id":"levelo_inurba_marseille","lat":43.29974,"lon":5.38484,"is_reserved":false,"is_disabled":false,"rental_uris":{"android":"levelo://app?vid=aa99fa24-ff0a-42d7-9d2d-92b4fce502cd","ios":"levelo://app?vid=aa99fa24-ff0a-42d7-9d2d-92b4fce502cd"},"vehicle_type_id":"4","last_reported":1687903621,"current_range_meters":31200,"station_id":"ce4bgj92rcd13ifvqbd0","pricing_plan_id":"free"},{"bike_id":"f73be671-6949-4cdd-b670-167df74f6def","system_id":"levelo_inurba_marseille","lat":43.29972,"lon":5.38494,"is_reserved":false,"is_disabled":false,"rental_uris":{"android":"levelo://app?vid=f73be671-6949-4cdd-b670-167df74f6def","ios":"levelo://app?vid=f73be671-6949-4cdd-b670-167df74f6def"},"vehicle_type_id":"4","last_reported":1687903621,"current_range_meters":31200,"station_id":"ce4bgj92rcd13ifvqbd0","pricing_plan_id":"free"},{"bike_id":"6d0b8a1b-3fb2-4fbd-a489-ac3494f04dd9","system_id":"levelo_inurba_marseille","lat":43.299707,"lon":5.384859,"is_reserved":false,"is_disabled":false,"rental_uris":{"android":"levelo://app?vid=6d0b8a1b-3fb2-4fbd-a489-ac3494f04dd9","ios":"levelo://app?vid=6d0b8a1b-3fb2-4fbd-a489-ac3494f04dd9"},"vehicle_type_id":"4","last_reported":1687903621,"current_range_meters":26000,"station_id":"ce4bgj92rcd13ifvqbd0","pricing_plan_id":"free"},{"bike_id":"d8158d8a-de8e-4df9-9fbc-00b5f9d93a50","system_id":"levelo_inurba_marseille","lat":43.29967,"lon":5.3849,"is_reserved":false,"is_disabled":false,"rental_uris":{"android":"levelo://app?vid=d8158d8a-de8e-4df9-9fbc-00b5f9d93a50","ios":"levelo://app?vid=d8158d8a-de8e-4df9-9fbc-00b5f9d93a50"},"vehicle_type_id":"4","last_reported":1687903621,"current_range_meters":20800,"station_id":"ce4bgj92rcd13ifvqbd0","pricing_plan_id":"free"},{"bike_id":"debc9e79-5295-48f2-8731-cf95d82766d4","system_id":"levelo_inurba_marseille","lat":43.29962,"lon":5.38487,"is_reserved":false,"is_disabled":false,"rental_uris":{"android":"levelo://app?vid=debc9e79-5295-48f2-8731-cf95d82766d4","ios":"levelo://app?vid=debc9e79-5295-48f2-8731-cf95d82766d4"},"vehicle_type_id":"4","last_reported":1687903621,"current_range_meters":800,"station_id":"ce4bgj92rcd13ifvqbd0","pricing_plan_id":"free"},{"bike_id":"84204229-c25c-4caf-b252-ae879b53c56b","system_id":"levelo_inurba_marseille","lat":43.29966,"lon":5.38493,"is_reserved":false,"is_disabled":false,"rental_uris":{"android":"levelo://app?vid=84204229-c25c-4caf-b252-ae879b53c56b","ios":"levelo://app?vid=84204229-c25c-4caf-b252-ae879b53c56b"},"vehicle_type_id":"4","last_reported":1687903621,"current_range_meters":12000,"station_id":"ce4bgj92rcd13ifvqbd0","pricing_plan_id":"free"},{"bike_id":"49d90a94-7473-4d3a-bd97-8bcfba5539e3","system_id":"levelo_inurba_marseille","lat":43.29967,"lon":5.38495,"is_reserved":false,"is_disabled":false,"rental_uris":{"android":"levelo://app?vid=49d90a94-7473-4d3a-bd97-8bcfba5539e3","ios":"levelo://app?vid=49d90a94-7473-4d3a-bd97-8bcfba5539e3"},"vehicle_type_id":"4","last_reported":1687903621,"current_range_meters":19200,"station_id":"ce4bgj92rcd13ifvqbd0","pricing_plan_id":"free"},{"bike_id":"6a83f955-ccfd-46b1-b7a6-942fa2c532ab","system_id":"levelo_inurba_marseille","lat":43.29964,"lon":5.38492,"is_reserved":false,"is_disabled":false,"rental_uris":{"android":"levelo://app?vid=6a83f955-ccfd-46b1-b7a6-942fa2c532ab","ios":"levelo://app?vid=6a83f955-ccfd-46b1-b7a6-942fa2c532ab"},"vehicle_type_id":"4","last_reported":1687903621,"current_range_meters":23200,"station_id":"ce4bgj92rcd13ifvqbd0","pricing_plan_id":"free"},{"bike_id":"dfe3d1f7-888d-4d60-8368-f3b22c44e9ca","system_id":"levelo_inurba_marseille","lat":43.29966,"lon":5.38495,"is_reserved":false,"is_disabled":false,"rental_uris":{"android":"levelo://app?vid=dfe3d1f7-888d-4d60-8368-f3b22c44e9ca","ios":"levelo://app?vid=dfe3d1f7-888d-4d60-8368-f3b22c44e9ca"},"vehicle_type_id":"4","last_reported":1687903621,"current_range_meters":21200,"station_id":"ce4bgj92rcd13ifvqbd0","pricing_plan_id":"free"},{"bike_id":"0b64ce55-2a83-4310-9fc8-0db6a542a525","system_id":"levelo_inurba_marseille","lat":43.29966,"lon":5.38496,"is_reserved":false,"is_disabled":false,"rental_uris":{"android":"levelo://app?vid=0b64ce55-2a83-4310-9fc8-0db6a542a525","ios":"levelo://app?vid=0b64ce55-2a83-4310-9fc8-0db6a542a525"},"vehicle_type_id":"4","last_reported":1687903621,"current_range_meters":31200,"station_id":"ce4bgj92rcd13ifvqbd0","pricing_plan_id":"free"},{"bike_id":"aa47e955-f262-4ace-b803-62a31c592a92","system_id":"levelo_inurba_marseille","lat":43.29971,"lon":5.38505,"is_reserved":false,"is_disabled":false,"rental_uris":{"android":"levelo://app?vid=aa47e955-f262-4ace-b803-62a31c592a92","ios":"levelo://app?vid=aa47e955-f262-4ace-b803-62a31c592a92"},"vehicle_type_id":"4","last_reported":1687903621,"current_range_meters":31200,"station_id":"ce4bgj92rcd13ifvqbd0","pricing_plan_id":"free"},{"bike_id":"80ceeaba-942f-4754-a9c7-952db80fc7be","system_id":"levelo_inurba_marseille","lat":43.32367,"lon":5.388836,"is_reserved":false,"is_disabled":false,"rental_uris":{"android":"levelo://app?vid=80ceeaba-942f-4754-a9c7-952db80fc7be","ios":"levelo://app?vid=80ceeaba-942f-4754-a9c7-952db80fc7be"},"vehicle_type_id":"4","last_reported":1687903621,"current_range_meters":24000,"station_id":"ce4bhqp2rcd13ifvqhog","pricing_plan_id":"free"},{"bike_id":"f8d99bf0-091d-4df6-93eb-3f4c79878874","system_id":"levelo_inurba_marseille","lat":43.32367,"lon":5.388836,"is_reserved":false,"is_disabled":false,"rental_uris":{"android":"levelo://app?vid=f8d99bf0-091d-4df6-93eb-3f4c79878874","ios":"levelo://app?vid=f8d99bf0-091d-4df6-93eb-3f4c79878874"},"vehicle_type_id":"4","last_reported":1687903621,"current_range_meters":23200,"station_id":"ce4bhqp2rcd13ifvqhog","pricing_plan_id":"free"},{"bike_id":"5940a31c-91d0-4bd1-85a2-4b971ae4d9d7","system_id":"levelo_inurba_marseille","lat":43.32367,"lon":5.388836,"is_reserved":false,"is_disabled":false,"rental_uris":{"android":"levelo://app?vid=5940a31c-91d0-4bd1-85a2-4b971ae4d9d7","ios":"levelo://app?vid=5940a31c-91d0-4bd1-85a2-4b971ae4d9d7"},"vehicle_type_id":"4","last_reported":1687903621,"current_range_meters":27600,"station_id":"ce4bhqp2rcd13ifvqhog","pricing_plan_id":"free"},{"bike_id":"0f1d1613-e70d-4c72-a9eb-9a15204b459d","system_id":"levelo_inurba_marseille","lat":43.32367,"lon":5.388836,"is_reserved":false,"is_disabled":false,"rental_uris":{"android":"levelo://app?vid=0f1d1613-e70d-4c72-a9eb-9a15204b459d","ios":"levelo://app?vid=0f1d1613-e70d-4c72-a9eb-9a15204b459d"},"vehicle_type_id":"4","last_reported":1687903621,"current_range_meters":24400,"station_id":"ce4bhqp2rcd13ifvqhog","pricing_plan_id":"free"},{"bike_id":"10ae1162-4e36-4f8f-b800-7fbb623ecf6b","system_id":"levelo_inurba_marseille","lat":43.32367,"lon":5.388836,"is_reserved":false,"is_disabled":false,"rental_uris":{"android":"levelo://app?vid=10ae1162-4e36-4f8f-b800-7fbb623ecf6b","ios":"levelo://app?vid=10ae1162-4e36-4f8f-b800-7fbb623ecf6b"},"vehicle_type_id":"4","last_reported":1687903621,"current_range_meters":28800,"station_id":"ce4bhqp2rcd13ifvqhog","pricing_plan_id":"free"},{"bike_id":"d94e516d-f165-4856-adcd-253e139ac1f1","system_id":"levelo_inurba_marseille","lat":43.32367,"lon":5.388836,"is_reserved":false,"is_disabled":false,"rental_uris":{"android":"levelo://app?vid=d94e516d-f165-4856-adcd-253e139ac1f1","ios":"levelo://app?vid=d94e516d-f165-4856-adcd-253e139ac1f1"},"vehicle_type_id":"4","last_reported":1687903621,"current_range_meters":20800,"station_id":"ce4bhqp2rcd13ifvqhog","pricing_plan_id":"free"},{"bike_id":"05fc088b-26e9-4f84-a7b5-2c17f767a2bc","system_id":"levelo_inurba_marseille","lat":43.29307,"lon":5.3716,"is_reserved":false,"is_disabled":false,"rental_uris":{"android":"levelo://app?vid=05fc088b-26e9-4f84-a7b5-2c17f767a2bc","ios":"levelo://app?vid=05fc088b-26e9-4f84-a7b5-2c17f767a2bc"},"vehicle_type_id":"4","last_reported":1687903621,"current_range_meters":31200,"station_id":"ce4bgh92rcd13ifvqb40","pricing_plan_id":"free"},{"bike_id":"63fe06c9-7aaf-4d6a-b3ed-ccbb7cceece0","system_id":"levelo_inurba_marseille","lat":43.29306,"lon":5.37176,"is_reserved":false,"is_disabled":false,"rental_uris":{"android":"levelo://app?vid=63fe06c9-7aaf-4d6a-b3ed-ccbb7cceece0","ios":"levelo://app?vid=63fe06c9-7aaf-4d6a-b3ed-ccbb7cceece0"},"vehicle_type_id":"4","last_reported":1687903621,"current_range_meters":31200,"station_id":"ce4bgh92rcd13ifvqb40","pricing_plan_id":"free"},{"bike_id":"37a63ea2-7a08-40e8-96fe-baa836921ce5","system_id":"levelo_inurba_marseille","lat":43.29304,"lon":5.37173,"is_reserved":false,"is_disabled":false,"rental_uris":{"android":"levelo://app?vid=37a63ea2-7a08-40e8-96fe-baa836921ce5","ios":"levelo://app?vid=37a63ea2-7a08-40e8-96fe-baa836921ce5"},"vehicle_type_id":"4","last_reported":1687903621,"current_range_meters":17600,"station_id":"ce4bgh92rcd13ifvqb40","pricing_plan_id":"free"},{"bike_id":"20737fab-369a-4ed9-ae81-e19cdb1fee97","system_id":"levelo_inurba_marseille","lat":43.29304,"lon":5.37176,"is_reserved":false,"is_disabled":false,"rental_uris":{"android":"levelo://app?vid=20737fab-369a-4ed9-ae81-e19cdb1fee97","ios":"levelo://app?vid=20737fab-369a-4ed9-ae81-e19cdb1fee97"},"vehicle_type_id":"4","last_reported":1687903621,"current_range_meters":31200,"station_id":"ce4bgh92rcd13ifvqb40","pricing_plan_id":"free"},{"bike_id":"72bef975-60fe-4878-8ff5-a504df8c305b","system_id":"levelo_inurba_marseille","lat":43.29273,"lon":5.36835,"is_reserved":false,"is_disabled":false,"rental_uris":{"android":"levelo://app?vid=72bef975-60fe-4878-8ff5-a504df8c305b","ios":"levelo://app?vid=72bef975-60fe-4878-8ff5-a504df8c305b"},"vehicle_type_id":"4","last_reported":1687903621,"current_range_meters":31200,"station_id":"ce4bhbp2rcd13ifvqesg","pricing_plan_id":"free"},{"bike_id":"fdc82d70-5628-44fe-9d82-72fbdbca368d","system_id":"levelo_inurba_marseille","lat":43.29304,"lon":5.37435,"is_reserved":false,"is_disabled":false,"rental_uris":{"android":"levelo://app?vid=fdc82d70-5628-44fe-9d82-72fbdbca368d","ios":"levelo://app?vid=fdc82d70-5628-44fe-9d82-72fbdbca368d"},"vehicle_type_id":"4","last_reported":1687903621,"current_range_meters":31200,"station_id":"ce4bgi12rcd13ifvqb70","pricing_plan_id":"free"},{"bike_id":"14757051-8f4e-4928-ba09-ec48d711a317","system_id":"levelo_inurba_marseille","lat":43.29302,"lon":5.37428,"is_reserved":false,"is_disabled":false,"rental_uris":{"android":"levelo://app?vid=14757051-8f4e-4928-ba09-ec48d711a317","ios":"levelo://app?vid=14757051-8f4e-4928-ba09-ec48d711a317"},"vehicle_type_id":"4","last_reported":1687903621,"current_range_meters":31200,"station_id":"ce4bgi12rcd13ifvqb70","pricing_plan_id":"free"},{"bike_id":"a6ac5146-acad-42d7-b124-3d54b8479800","system_id":"levelo_inurba_marseille","lat":43.29298,"lon":5.37448,"is_reserved":false,"is_disabled":false,"rental_uris":{"android":"levelo://app?vid=a6ac5146-acad-42d7-b124-3d54b8479800","ios":"levelo://app?vid=a6ac5146-acad-42d7-b124-3d54b8479800"},"vehicle_type_id":"4","last_reported":1687903621,"current_range_meters":31200,"station_id":"ce4bgi12rcd13ifvqb70","pricing_plan_id":"free"},{"bike_id":"9d4b5212-0d9f-434a-b35c-074ffdd4cec1","system_id":"levelo_inurba_marseille","lat":43.29297,"lon":5.37456,"is_reserved":false,"is_disabled":false,"rental_uris":{"android":"levelo://app?vid=9d4b5212-0d9f-434a-b35c-074ffdd4cec1","ios":"levelo://app?vid=9d4b5212-0d9f-434a-b35c-074ffdd4cec1"},"vehicle_type_id":"4","last_reported":1687903621,"current_range_meters":5200,"station_id":"ce4bgi12rcd13ifvqb70","pricing_plan_id":"free"},{"bike_id":"d84d10bf-1397-4a1c-ba05-a12bff217b62","system_id":"levelo_inurba_marseille","lat":43.305994,"lon":5.393687,"is_reserved":false,"is_disabled":false,"rental_uris":{"android":"levelo://app?vid=d84d10bf-1397-4a1c-ba05-a12bff217b62","ios":"levelo://app?vid=d84d10bf-1397-4a1c-ba05-a12bff217b62"},"vehicle_type_id":"4","last_reported":1687903621,"current_range_meters":3600,"station_id":"ce4bh0p2rcd13ifvqd80","pricing_plan_id":"free"},{"bike_id":"ece88c13-ab0c-4a9d-a26c-30a24d4e3964","system_id":"levelo_inurba_marseille","lat":43.302992,"lon":5.392136,"is_reserved":false,"is_disabled":false,"rental_uris":{"android":"levelo://app?vid=ece88c13-ab0c-4a9d-a26c-30a24d4e3964","ios":"levelo://app?vid=ece88c13-ab0c-4a9d-a26c-30a24d4e3964"},"vehicle_type_id":"4","last_reported":1687903621,"current_range_meters":2800,"station_id":"ce4bgkh2rcd13ifvqbk0","pricing_plan_id":"free"},{"bike_id":"deb330b9-c699-4458-be65-b32b445b7a36","system_id":"levelo_inurba_marseille","lat":43.303,"lon":5.39218,"is_reserved":false,"is_disabled":false,"rental_uris":{"android":"levelo://app?vid=deb330b9-c699-4458-be65-b32b445b7a36","ios":"levelo://app?vid=deb330b9-c699-4458-be65-b32b445b7a36"},"vehicle_type_id":"4","last_reported":1687903621,"current_range_meters":7200,"station_id":"ce4bgkh2rcd13ifvqbk0","pricing_plan_id":"free"},{"bike_id":"cb44fef3-e24e-47dc-a5b9-820734b691df","system_id":"levelo_inurba_marseille","lat":43.30101,"lon":5.39057,"is_reserved":false,"is_disabled":false,"rental_uris":{"android":"levelo://app?vid=cb44fef3-e24e-47dc-a5b9-820734b691df","ios":"levelo://app?vid=cb44fef3-e24e-47dc-a5b9-820734b691df"},"vehicle_type_id":"4","last_reported":1687903621,"current_range_meters":7200,"station_id":"","pricing_plan_id":"free"},{"bike_id":"3a936ae9-80bb-4920-84a2-0e66e9dc8527","system_id":"levelo_inurba_marseille","lat":43.2936,"lon":5.37835,"is_reserved":false,"is_disabled":false,"rental_uris":{"android":"levelo://app?vid=3a936ae9-80bb-4920-84a2-0e66e9dc8527","ios":"levelo://app?vid=3a936ae9-80bb-4920-84a2-0e66e9dc8527"},"vehicle_type_id":"4","last_reported":1687903621,"current_range_meters":0,"station_id":"ce4bgjh2rcd13ifvqbf0","pricing_plan_id":"free"},{"bike_id":"deb6c0c5-5fd0-4fca-b339-364eaf67dc14","system_id":"levelo_inurba_marseille","lat":43.298764,"lon":5.388973,"is_reserved":false,"is_disabled":false,"rental_uris":{"android":"levelo://app?vid=deb6c0c5-5fd0-4fca-b339-364eaf67dc14","ios":"levelo://app?vid=deb6c0c5-5fd0-4fca-b339-364eaf67dc14"},"vehicle_type_id":"4","last_reported":1687903621,"current_range_meters":5200,"station_id":"ce4bh392rcd13ifvqdl0","pricing_plan_id":"free"},{"bike_id":"2a2007d9-c41c-4319-970d-309eef792590","system_id":"levelo_inurba_marseille","lat":43.29876,"lon":5.389,"is_reserved":false,"is_disabled":false,"rental_uris":{"android":"levelo://app?vid=2a2007d9-c41c-4319-970d-309eef792590","ios":"levelo://app?vid=2a2007d9-c41c-4319-970d-309eef792590"},"vehicle_type_id":"4","last_reported":1687903621,"current_range_meters":14000,"station_id":"ce4bh392rcd13ifvqdl0","pricing_plan_id":"free"},{"bike_id":"3a37a747-757b-444f-9359-7b2f85d8bcf7","system_id":"levelo_inurba_marseille","lat":43.309038,"lon":5.396546,"is_reserved":false,"is_disabled":false,"rental_uris":{"android":"levelo://app?vid=3a37a747-757b-444f-9359-7b2f85d8bcf7","ios":"levelo://app?vid=3a37a747-757b-444f-9359-7b2f85d8bcf7"},"vehicle_type_id":"4","last_reported":1687903621,"current_range_meters":24000,"station_id":"ce4bh012rcd13ifvqcv0","pricing_plan_id":"free"},{"bike_id":"fb2420f1-8738-443d-8000-78aa8c300ab0","system_id":"levelo_inurba_marseille","lat":43.30883,"lon":5.39624,"is_reserved":false,"is_disabled":false,"rental_uris":{"android":"levelo://app?vid=fb2420f1-8738-443d-8000-78aa8c300ab0","ios":"levelo://app?vid=fb2420f1-8738-443d-8000-78aa8c300ab0"},"vehicle_type_id":"4","last_reported":1687903621,"current_range_meters":31200,"station_id":"ce4bh012rcd13ifvqcv0","pricing_plan_id":"free"},{"bike_id":"bec69e6f-7f7e-4792-a64b-f38566d3d812","system_id":"levelo_inurba_marseille","lat":43.29447,"lon":5.383,"is_reserved":false,"is_disabled":false,"rental_uris":{"android":"levelo://app?vid=bec69e6f-7f7e-4792-a64b-f38566d3d812","ios":"levelo://app?vid=bec69e6f-7f7e-4792-a64b-f38566d3d812"},"vehicle_type_id":"4","last_reported":1687903621,"current_range_meters":13600,"station_id":"","pricing_plan_id":"free"},{"bike_id":"76a3e2db-bfb0-443d-99d5-7fbfb9216ff9","system_id":"levelo_inurba_marseille","lat":43.309038,"lon":5.396546,"is_reserved":false,"is_disabled":false,"rental_uris":{"android":"levelo://app?vid=76a3e2db-bfb0-443d-99d5-7fbfb9216ff9","ios":"levelo://app?vid=76a3e2db-bfb0-443d-99d5-7fbfb9216ff9"},"vehicle_type_id":"4","last_reported":1687903621,"current_range_meters":28400,"station_id":"ce4bh012rcd13ifvqcv0","pricing_plan_id":"free"},{"bike_id":"434a7055-8c8c-4306-82a1-f0d8e35b05e8","system_id":"levelo_inurba_marseille","lat":43.309038,"lon":5.396546,"is_reserved":false,"is_disabled":false,"rental_uris":{"android":"levelo://app?vid=434a7055-8c8c-4306-82a1-f0d8e35b05e8","ios":"levelo://app?vid=434a7055-8c8c-4306-82a1-f0d8e35b05e8"},"vehicle_type_id":"4","last_reported":1687903621,"current_range_meters":30800,"station_id":"ce4bh012rcd13ifvqcv0","pricing_plan_id":"free"},{"bike_id":"1947fdcf-10c7-476c-b8a2-8f04555b0000","system_id":"levelo_inurba_marseille","lat":43.30888,"lon":5.39636,"is_reserved":false,"is_disabled":false,"rental_uris":{"android":"levelo://app?vid=1947fdcf-10c7-476c-b8a2-8f04555b0000","ios":"levelo://app?vid=1947fdcf-10c7-476c-b8a2-8f04555b0000"},"vehicle_type_id":"4","last_reported":1687903621,"current_range_meters":31200,"station_id":"ce4bh012rcd13ifvqcv0","pricing_plan_id":"free"},{"bike_id":"274f3268-a2c7-4b31-b827-7772b1c080bc","system_id":"levelo_inurba_marseille","lat":43.31329,"lon":5.39683,"is_reserved":false,"is_disabled":false,"rental_uris":{"android":"levelo://app?vid=274f3268-a2c7-4b31-b827-7772b1c080bc","ios":"levelo://app?vid=274f3268-a2c7-4b31-b827-7772b1c080bc"},"vehicle_type_id":"4","last_reported":1687903621,"current_range_meters":31200,"station_id":"ce4bgvp2rcd13ifvqcu0","pricing_plan_id":"free"},{"bike_id":"fa579a3f-baf9-4008-8de6-796c91ee8f0e","system_id":"levelo_inurba_marseille","lat":43.309038,"lon":5.396546,"is_reserved":false,"is_disabled":false,"rental_uris":{"android":"levelo://app?vid=fa579a3f-baf9-4008-8de6-796c91ee8f0e","ios":"levelo://app?vid=fa579a3f-baf9-4008-8de6-796c91ee8f0e"},"vehicle_type_id":"4","last_reported":1687903621,"current_range_meters":16400,"station_id":"ce4bh012rcd13ifvqcv0","pricing_plan_id":"free"},{"bike_id":"5e301a8c-68b8-404a-88c0-7d29a381a2b7","system_id":"levelo_inurba_marseille","lat":43.309038,"lon":5.396546,"is_reserved":false,"is_disabled":false,"rental_uris":{"android":"levelo://app?vid=5e301a8c-68b8-404a-88c0-7d29a381a2b7","ios":"levelo://app?vid=5e301a8c-68b8-404a-88c0-7d29a381a2b7"},"vehicle_type_id":"4","last_reported":1687903621,"current_range_meters":7600,"station_id":"ce4bh012rcd13ifvqcv0","pricing_plan_id":"free"},{"bike_id":"b73dbe39-7f00-4ea3-aae7-3421c4218619","system_id":"levelo_inurba_marseille","lat":43.31328,"lon":5.39686,"is_reserved":false,"is_disabled":false,"rental_uris":{"android":"levelo://app?vid=b73dbe39-7f00-4ea3-aae7-3421c4218619","ios":"levelo://app?vid=b73dbe39-7f00-4ea3-aae7-3421c4218619"},"vehicle_type_id":"4","last_reported":1687903621,"current_range_meters":11600,"station_id":"ce4bgvp2rcd13ifvqcu0","pricing_plan_id":"free"},{"bike_id":"b66e59c9-1a3b-4aff-852b-c78f614f5ecb","system_id":"levelo_inurba_marseille","lat":43.31335,"lon":5.39688,"is_reserved":false,"is_disabled":false,"rental_uris":{"android":"levelo://app?vid=b66e59c9-1a3b-4aff-852b-c78f614f5ecb","ios":"levelo://app?vid=b66e59c9-1a3b-4aff-852b-c78f614f5ecb"},"vehicle_type_id":"4","last_reported":1687903621,"current_range_meters":31200,"station_id":"ce4bgvp2rcd13ifvqcu0","pricing_plan_id":"free"},{"bike_id":"617d221d-2cad-4d53-bb9b-17cd21c7e82e","system_id":"levelo_inurba_marseille","lat":43.309038,"lon":5.396546,"is_reserved":false,"is_disabled":false,"rental_uris":{"android":"levelo://app?vid=617d221d-2cad-4d53-bb9b-17cd21c7e82e","ios":"levelo://app?vid=617d221d-2cad-4d53-bb9b-17cd21c7e82e"},"vehicle_type_id":"4","last_reported":1687903621,"current_range_meters":20400,"station_id":"ce4bh012rcd13ifvqcv0","pricing_plan_id":"free"},{"bike_id":"978f8d35-137f-4c42-a0e3-427aa982a70e","system_id":"levelo_inurba_marseille","lat":43.313291,"lon":5.396838,"is_reserved":false,"is_disabled":false,"rental_uris":{"android":"levelo://app?vid=978f8d35-137f-4c42-a0e3-427aa982a70e","ios":"levelo://app?vid=978f8d35-137f-4c42-a0e3-427aa982a70e"},"vehicle_type_id":"4","last_reported":1687903621,"current_range_meters":31200,"station_id":"ce4bgvp2rcd13ifvqcu0","pricing_plan_id":"free"},{"bike_id":"49cdcad2-644d-4957-9b9e-d9a9be9a0f56","system_id":"levelo_inurba_marseille","lat":43.3133,"lon":5.39689,"is_reserved":false,"is_disabled":false,"rental_uris":{"android":"levelo://app?vid=49cdcad2-644d-4957-9b9e-d9a9be9a0f56","ios":"levelo://app?vid=49cdcad2-644d-4957-9b9e-d9a9be9a0f56"},"vehicle_type_id":"4","last_reported":1687903621,"current_range_meters":31200,"station_id":"ce4bgvp2rcd13ifvqcu0","pricing_plan_id":"free"},{"bike_id":"b326873f-1128-4c82-b428-f1aeabb6bc73","system_id":"levelo_inurba_marseille","lat":43.313305,"lon":5.396896,"is_reserved":false,"is_disabled":false,"rental_uris":{"android":"levelo://app?vid=b326873f-1128-4c82-b428-f1aeabb6bc73","ios":"levelo://app?vid=b326873f-1128-4c82-b428-f1aeabb6bc73"},"vehicle_type_id":"4","last_reported":1687903621,"current_range_meters":7200,"station_id":"ce4bgvp2rcd13ifvqcu0","pricing_plan_id":"free"},{"bike_id":"cd702b0c-5456-4482-af10-93e8dcc45c29","system_id":"levelo_inurba_marseille","lat":43.31321,"lon":5.39691,"is_reserved":false,"is_disabled":false,"rental_uris":{"android":"levelo://app?vid=cd702b0c-5456-4482-af10-93e8dcc45c29","ios":"levelo://app?vid=cd702b0c-5456-4482-af10-93e8dcc45c29"},"vehicle_type_id":"4","last_reported":1687903621,"current_range_meters":13200,"station_id":"ce4bgvp2rcd13ifvqcu0","pricing_plan_id":"free"},{"bike_id":"e0222b56-6369-4482-b81e-01841d839459","system_id":"levelo_inurba_marseille","lat":43.31327,"lon":5.39693,"is_reserved":false,"is_disabled":false,"rental_uris":{"android":"levelo://app?vid=e0222b56-6369-4482-b81e-01841d839459","ios":"levelo://app?vid=e0222b56-6369-4482-b81e-01841d839459"},"vehicle_type_id":"4","last_reported":1687903621,"current_range_meters":20800,"station_id":"ce4bgvp2rcd13ifvqcu0","pricing_plan_id":"free"},{"bike_id":"1b889afe-80ce-4106-994c-4a1ae0adb593","system_id":"levelo_inurba_marseille","lat":43.313291,"lon":5.396838,"is_reserved":false,"is_disabled":false,"rental_uris":{"android":"levelo://app?vid=1b889afe-80ce-4106-994c-4a1ae0adb593","ios":"levelo://app?vid=1b889afe-80ce-4106-994c-4a1ae0adb593"},"vehicle_type_id":"4","last_reported":1687903621,"current_range_meters":11600,"station_id":"ce4bgvp2rcd13ifvqcu0","pricing_plan_id":"free"},{"bike_id":"abb21b9a-cfc9-40b3-b2c3-c77177cbfccc","system_id":"levelo_inurba_marseille","lat":43.309038,"lon":5.396546,"is_reserved":false,"is_disabled":false,"rental_uris":{"android":"levelo://app?vid=abb21b9a-cfc9-40b3-b2c3-c77177cbfccc","ios":"levelo://app?vid=abb21b9a-cfc9-40b3-b2c3-c77177cbfccc"},"vehicle_type_id":"4","last_reported":1687903621,"current_range_meters":14800,"station_id":"ce4bh012rcd13ifvqcv0","pricing_plan_id":"free"},{"bike_id":"b90ab953-b259-4416-8383-1106d2bd5f2f","system_id":"levelo_inurba_marseille","lat":43.29529,"lon":5.385581,"is_reserved":false,"is_disabled":false,"rental_uris":{"android":"levelo://app?vid=b90ab953-b259-4416-8383-1106d2bd5f2f","ios":"levelo://app?vid=b90ab953-b259-4416-8383-1106d2bd5f2f"},"vehicle_type_id":"4","last_reported":1687903621,"current_range_meters":20800,"station_id":"ce4bgih2rcd13ifvqba0","pricing_plan_id":"free"},{"bike_id":"48fe3ef7-6018-4b45-b64a-aac01da7c7fc","system_id":"levelo_inurba_marseille","lat":43.29529,"lon":5.385581,"is_reserved":false,"is_disabled":false,"rental_uris":{"android":"levelo://app?vid=48fe3ef7-6018-4b45-b64a-aac01da7c7fc","ios":"levelo://app?vid=48fe3ef7-6018-4b45-b64a-aac01da7c7fc"},"vehicle_type_id":"4","last_reported":1687903621,"current_range_meters":19600,"station_id":"ce4bgih2rcd13ifvqba0","pricing_plan_id":"free"},{"bike_id":"0c3ccee7-cc56-427f-af20-557640f633b5","system_id":"levelo_inurba_marseille","lat":43.302008,"lon":5.394694,"is_reserved":false,"is_disabled":false,"rental_uris":{"android":"levelo://app?vid=0c3ccee7-cc56-427f-af20-557640f633b5","ios":"levelo://app?vid=0c3ccee7-cc56-427f-af20-557640f633b5"},"vehicle_type_id":"4","last_reported":1687903621,"current_range_meters":6800,"station_id":"ce4bh0p2rcd13ifvqd70","pricing_plan_id":"free"},{"bike_id":"f7f3096d-6bd6-4fbc-8a4f-160d27784a8a","system_id":"levelo_inurba_marseille","lat":43.302008,"lon":5.394694,"is_reserved":false,"is_disabled":false,"rental_uris":{"android":"levelo://app?vid=f7f3096d-6bd6-4fbc-8a4f-160d27784a8a","ios":"levelo://app?vid=f7f3096d-6bd6-4fbc-8a4f-160d27784a8a"},"vehicle_type_id":"4","last_reported":1687903621,"current_range_meters":10800,"station_id":"ce4bh0p2rcd13ifvqd70","pricing_plan_id":"free"},{"bike_id":"46f74140-e5d8-4cee-a064-a0b4b90465b4","system_id":"levelo_inurba_marseille","lat":43.290327,"lon":5.375711,"is_reserved":false,"is_disabled":false,"rental_uris":{"android":"levelo://app?vid=46f74140-e5d8-4cee-a064-a0b4b90465b4","ios":"levelo://app?vid=46f74140-e5d8-4cee-a064-a0b4b90465b4"},"vehicle_type_id":"4","last_reported":1687903621,"current_range_meters":17600,"station_id":"ce4bh692rcd13ifvqe90","pricing_plan_id":"free"},{"bike_id":"6867df42-30dd-4825-b7fe-404564247748","system_id":"levelo_inurba_marseille","lat":43.294174,"lon":5.386231,"is_reserved":false,"is_disabled":false,"rental_uris":{"android":"levelo://app?vid=6867df42-30dd-4825-b7fe-404564247748","ios":"levelo://app?vid=6867df42-30dd-4825-b7fe-404564247748"},"vehicle_type_id":"4","last_reported":1687903621,"current_range_meters":13200,"station_id":"","pricing_plan_id":"free"},{"bike_id":"399ef6b6-bd49-40a3-a085-0dfa050cfb9f","system_id":"levelo_inurba_marseille","lat":43.29411,"lon":5.38614,"is_reserved":false,"is_disabled":false,"rental_uris":{"android":"levelo://app?vid=399ef6b6-bd49-40a3-a085-0dfa050cfb9f","ios":"levelo://app?vid=399ef6b6-bd49-40a3-a085-0dfa050cfb9f"},"vehicle_type_id":"4","last_reported":1687903621,"current_range_meters":6400,"station_id":"","pricing_plan_id":"free"},{"bike_id":"6a69bbe3-f548-47d0-a8e5-4d357ea1e653","system_id":"levelo_inurba_marseille","lat":43.29411,"lon":5.38633,"is_reserved":false,"is_disabled":false,"rental_uris":{"android":"levelo://app?vid=6a69bbe3-f548-47d0-a8e5-4d357ea1e653","ios":"levelo://app?vid=6a69bbe3-f548-47d0-a8e5-4d357ea1e653"},"vehicle_type_id":"4","last_reported":1687903621,"current_range_meters":17600,"station_id":"ce4bh2h2rcd13ifvqdh0","pricing_plan_id":"free"},{"bike_id":"b59b84a0-8ba1-4125-9c4d-8895448865b1","system_id":"levelo_inurba_marseille","lat":43.304274,"lon":5.397513,"is_reserved":false,"is_disabled":false,"rental_uris":{"android":"levelo://app?vid=b59b84a0-8ba1-4125-9c4d-8895448865b1","ios":"levelo://app?vid=b59b84a0-8ba1-4125-9c4d-8895448865b1"},"vehicle_type_id":"4","last_reported":1687903621,"current_range_meters":14400,"station_id":"ce4bh092rcd13ifvqd20","pricing_plan_id":"free"},{"bike_id":"d9afb60f-e3e2-46fa-af7e-6e22dfbbc199","system_id":"levelo_inurba_marseille","lat":43.29264,"lon":5.38437,"is_reserved":false,"is_disabled":false,"rental_uris":{"android":"levelo://app?vid=d9afb60f-e3e2-46fa-af7e-6e22dfbbc199","ios":"levelo://app?vid=d9afb60f-e3e2-46fa-af7e-6e22dfbbc199"},"vehicle_type_id":"4","last_reported":1687903621,"current_range_meters":11600,"station_id":"ce4bh692rcd13ifvqea0","pricing_plan_id":"free"},{"bike_id":"df72b9d4-6c64-4c74-abc6-dd7a6adfe6f2","system_id":"levelo_inurba_marseille","lat":43.304274,"lon":5.397513,"is_reserved":false,"is_disabled":false,"rental_uris":{"android":"levelo://app?vid=df72b9d4-6c64-4c74-abc6-dd7a6adfe6f2","ios":"levelo://app?vid=df72b9d4-6c64-4c74-abc6-dd7a6adfe6f2"},"vehicle_type_id":"4","last_reported":1687903621,"current_range_meters":0,"station_id":"ce4bh092rcd13ifvqd20","pricing_plan_id":"free"},{"bike_id":"cdf15db9-4eb9-425b-88b5-8206277b5900","system_id":"levelo_inurba_marseille","lat":43.29261,"lon":5.38439,"is_reserved":false,"is_disabled":false,"rental_uris":{"android":"levelo://app?vid=cdf15db9-4eb9-425b-88b5-8206277b5900","ios":"levelo://app?vid=cdf15db9-4eb9-425b-88b5-8206277b5900"},"vehicle_type_id":"4","last_reported":1687903621,"current_range_meters":14800,"station_id":"ce4bh692rcd13ifvqea0","pricing_plan_id":"free"},{"bike_id":"a24dfaab-bcdb-4992-98cb-2d613275050b","system_id":"levelo_inurba_marseille","lat":43.292644,"lon":5.384257,"is_reserved":false,"is_disabled":false,"rental_uris":{"android":"levelo://app?vid=a24dfaab-bcdb-4992-98cb-2d613275050b","ios":"levelo://app?vid=a24dfaab-bcdb-4992-98cb-2d613275050b"},"vehicle_type_id":"4","last_reported":1687903621,"current_range_meters":31200,"station_id":"ce4bh692rcd13ifvqea0","pricing_plan_id":"free"},{"bike_id":"0a52eda6-aef4-47ad-ae1d-76c679ae4cf0","system_id":"levelo_inurba_marseille","lat":43.33031,"lon":5.38918,"is_reserved":false,"is_disabled":false,"rental_uris":{"android":"levelo://app?vid=0a52eda6-aef4-47ad-ae1d-76c679ae4cf0","ios":"levelo://app?vid=0a52eda6-aef4-47ad-ae1d-76c679ae4cf0"},"vehicle_type_id":"4","last_reported":1687903621,"current_range_meters":16400,"station_id":"ce4bhr92rcd13ifvqhrg","pricing_plan_id":"free"},{"bike_id":"31e670fe-027d-44b4-89c1-9f7413d8e201","system_id":"levelo_inurba_marseille","lat":43.33042,"lon":5.38907,"is_reserved":false,"is_disabled":false,"rental_uris":{"android":"levelo://app?vid=31e670fe-027d-44b4-89c1-9f7413d8e201","ios":"levelo://app?vid=31e670fe-027d-44b4-89c1-9f7413d8e201"},"vehicle_type_id":"4","last_reported":1687903621,"current_range_meters":22400,"station_id":"ce4bhr92rcd13ifvqhrg","pricing_plan_id":"free"},{"bike_id":"dac39def-a5ca-4314-9d9c-8dee6f9c5927","system_id":"levelo_inurba_marseille","lat":43.33043,"lon":5.38915,"is_reserved":false,"is_disabled":false,"rental_uris":{"android":"levelo://app?vid=dac39def-a5ca-4314-9d9c-8dee6f9c5927","ios":"levelo://app?vid=dac39def-a5ca-4314-9d9c-8dee6f9c5927"},"vehicle_type_id":"4","last_reported":1687903621,"current_range_meters":24800,"station_id":"ce4bhr92rcd13ifvqhrg","pricing_plan_id":"free"},{"bike_id":"dd5e4af3-215a-4a31-8219-0c8a890a1da2","system_id":"levelo_inurba_marseille","lat":43.33047,"lon":5.38911,"is_reserved":false,"is_disabled":false,"rental_uris":{"android":"levelo://app?vid=dd5e4af3-215a-4a31-8219-0c8a890a1da2","ios":"levelo://app?vid=dd5e4af3-215a-4a31-8219-0c8a890a1da2"},"vehicle_type_id":"4","last_reported":1687903621,"current_range_meters":6000,"station_id":"ce4bhr92rcd13ifvqhrg","pricing_plan_id":"free"},{"bike_id":"dc499986-9ddd-457a-a213-8aeb13714ee0","system_id":"levelo_inurba_marseille","lat":43.33046,"lon":5.38913,"is_reserved":false,"is_disabled":false,"rental_uris":{"android":"levelo://app?vid=dc499986-9ddd-457a-a213-8aeb13714ee0","ios":"levelo://app?vid=dc499986-9ddd-457a-a213-8aeb13714ee0"},"vehicle_type_id":"4","last_reported":1687903621,"current_range_meters":22800,"station_id":"ce4bhr92rcd13ifvqhrg","pricing_plan_id":"free"},{"bike_id":"f3ce8296-a357-4ed3-991c-7c7987826693","system_id":"levelo_inurba_marseille","lat":43.33047,"lon":5.38913,"is_reserved":false,"is_disabled":false,"rental_uris":{"android":"levelo://app?vid=f3ce8296-a357-4ed3-991c-7c7987826693","ios":"levelo://app?vid=f3ce8296-a357-4ed3-991c-7c7987826693"},"vehicle_type_id":"4","last_reported":1687903621,"current_range_meters":31200,"station_id":"ce4bhr92rcd13ifvqhrg","pricing_plan_id":"free"},{"bike_id":"620d42eb-968c-4b2d-afab-1b20c736c549","system_id":"levelo_inurba_marseille","lat":43.33046,"lon":5.38915,"is_reserved":false,"is_disabled":false,"rental_uris":{"android":"levelo://app?vid=620d42eb-968c-4b2d-afab-1b20c736c549","ios":"levelo://app?vid=620d42eb-968c-4b2d-afab-1b20c736c549"},"vehicle_type_id":"4","last_reported":1687903621,"current_range_meters":800,"station_id":"ce4bhr92rcd13ifvqhrg","pricing_plan_id":"free"},{"bike_id":"f796f425-6905-4fb3-9c08-efb7921e42ce","system_id":"levelo_inurba_marseille","lat":43.33048,"lon":5.38912,"is_reserved":false,"is_disabled":false,"rental_uris":{"android":"levelo://app?vid=f796f425-6905-4fb3-9c08-efb7921e42ce","ios":"levelo://app?vid=f796f425-6905-4fb3-9c08-efb7921e42ce"},"vehicle_type_id":"4","last_reported":1687903621,"current_range_meters":31200,"station_id":"ce4bhr92rcd13ifvqhrg","pricing_plan_id":"free"},{"bike_id":"84718f7a-81b3-4376-93eb-27bbf90e5c0d","system_id":"levelo_inurba_marseille","lat":43.33047,"lon":5.38914,"is_reserved":false,"is_disabled":false,"rental_uris":{"android":"levelo://app?vid=84718f7a-81b3-4376-93eb-27bbf90e5c0d","ios":"levelo://app?vid=84718f7a-81b3-4376-93eb-27bbf90e5c0d"},"vehicle_type_id":"4","last_reported":1687903621,"current_range_meters":14800,"station_id":"ce4bhr92rcd13ifvqhrg","pricing_plan_id":"free"},{"bike_id":"f9aa9b97-fd92-4abd-93a2-07a80136da67","system_id":"levelo_inurba_marseille","lat":43.33046,"lon":5.38916,"is_reserved":false,"is_disabled":false,"rental_uris":{"android":"levelo://app?vid=f9aa9b97-fd92-4abd-93a2-07a80136da67","ios":"levelo://app?vid=f9aa9b97-fd92-4abd-93a2-07a80136da67"},"vehicle_type_id":"4","last_reported":1687903621,"current_range_meters":20000,"station_id":"ce4bhr92rcd13ifvqhrg","pricing_plan_id":"free"},{"bike_id":"1a2931cc-2400-4c11-bca8-c22187ec9431","system_id":"levelo_inurba_marseille","lat":43.33049,"lon":5.38913,"is_reserved":false,"is_disabled":false,"rental_uris":{"android":"levelo://app?vid=1a2931cc-2400-4c11-bca8-c22187ec9431","ios":"levelo://app?vid=1a2931cc-2400-4c11-bca8-c22187ec9431"},"vehicle_type_id":"4","last_reported":1687903621,"current_range_meters":31200,"station_id":"ce4bhr92rcd13ifvqhrg","pricing_plan_id":"free"},{"bike_id":"9f952cd5-a4e6-40b8-a42f-a3faa1a1bbb6","system_id":"levelo_inurba_marseille","lat":43.33049,"lon":5.38915,"is_reserved":false,"is_disabled":false,"rental_uris":{"android":"levelo://app?vid=9f952cd5-a4e6-40b8-a42f-a3faa1a1bbb6","ios":"levelo://app?vid=9f952cd5-a4e6-40b8-a42f-a3faa1a1bbb6"},"vehicle_type_id":"4","last_reported":1687903621,"current_range_meters":1200,"station_id":"ce4bhr92rcd13ifvqhrg","pricing_plan_id":"free"},{"bike_id":"1a7b853a-50f2-498a-a451-f4fc5c20ed55","system_id":"levelo_inurba_marseille","lat":43.33051,"lon":5.38912,"is_reserved":false,"is_disabled":false,"rental_uris":{"android":"levelo://app?vid=1a7b853a-50f2-498a-a451-f4fc5c20ed55","ios":"levelo://app?vid=1a7b853a-50f2-498a-a451-f4fc5c20ed55"},"vehicle_type_id":"4","last_reported":1687903621,"current_range_meters":4000,"station_id":"ce4bhr92rcd13ifvqhrg","pricing_plan_id":"free"},{"bike_id":"71e5a888-f273-4825-92ee-092cc543a09b","system_id":"levelo_inurba_marseille","lat":43.29803,"lon":5.39341,"is_reserved":false,"is_disabled":false,"rental_uris":{"android":"levelo://app?vid=71e5a888-f273-4825-92ee-092cc543a09b","ios":"levelo://app?vid=71e5a888-f273-4825-92ee-092cc543a09b"},"vehicle_type_id":"4","last_reported":1687903621,"current_range_meters":25200,"station_id":"chh1huq6cuj3fo74tm60","pricing_plan_id":"free"},{"bike_id":"c7911673-b9ed-4514-be60-74204757dae9","system_id":"levelo_inurba_marseille","lat":43.29796,"lon":5.39341,"is_reserved":false,"is_disabled":false,"rental_uris":{"android":"levelo://app?vid=c7911673-b9ed-4514-be60-74204757dae9","ios":"levelo://app?vid=c7911673-b9ed-4514-be60-74204757dae9"},"vehicle_type_id":"4","last_reported":1687903621,"current_range_meters":30800,"station_id":"chh1huq6cuj3fo74tm60","pricing_plan_id":"free"},{"bike_id":"db3b281e-7619-4a3e-b012-1f4c43bc8d6a","system_id":"levelo_inurba_marseille","lat":43.29793,"lon":5.39341,"is_reserved":false,"is_disabled":false,"rental_uris":{"android":"levelo://app?vid=db3b281e-7619-4a3e-b012-1f4c43bc8d6a","ios":"levelo://app?vid=db3b281e-7619-4a3e-b012-1f4c43bc8d6a"},"vehicle_type_id":"4","last_reported":1687903621,"current_range_meters":19200,"station_id":"chh1huq6cuj3fo74tm60","pricing_plan_id":"free"},{"bike_id":"e76544da-abf0-4851-b9c3-10f8f188038f","system_id":"levelo_inurba_marseille","lat":43.297815,"lon":5.393548,"is_reserved":false,"is_disabled":false,"rental_uris":{"android":"levelo://app?vid=e76544da-abf0-4851-b9c3-10f8f188038f","ios":"levelo://app?vid=e76544da-abf0-4851-b9c3-10f8f188038f"},"vehicle_type_id":"4","last_reported":1687903621,"current_range_meters":28400,"station_id":"chh1huq6cuj3fo74tm60","pricing_plan_id":"free"},{"bike_id":"08c2aed0-5486-41a9-a3fe-47d48f1be60f","system_id":"levelo_inurba_marseille","lat":43.28856,"lon":5.358371,"is_reserved":false,"is_disabled":false,"rental_uris":{"android":"levelo://app?vid=08c2aed0-5486-41a9-a3fe-47d48f1be60f","ios":"levelo://app?vid=08c2aed0-5486-41a9-a3fe-47d48f1be60f"},"vehicle_type_id":"4","last_reported":1687903621,"current_range_meters":10400,"station_id":"ce4bhb12rcd13ifvqem0","pricing_plan_id":"free"},{"bike_id":"c52ff0ee-318c-4cc0-8e02-dad6fd168a24","system_id":"levelo_inurba_marseille","lat":43.309371,"lon":5.401449,"is_reserved":false,"is_disabled":false,"rental_uris":{"android":"levelo://app?vid=c52ff0ee-318c-4cc0-8e02-dad6fd168a24","ios":"levelo://app?vid=c52ff0ee-318c-4cc0-8e02-dad6fd168a24"},"vehicle_type_id":"4","last_reported":1687903621,"current_range_meters":24800,"station_id":"ce4bgvp2rcd13ifvqct0","pricing_plan_id":"free"},{"bike_id":"c927a5b8-322b-4b59-b383-e70ad433a3e0","system_id":"levelo_inurba_marseille","lat":43.30934,"lon":5.40138,"is_reserved":false,"is_disabled":false,"rental_uris":{"android":"levelo://app?vid=c927a5b8-322b-4b59-b383-e70ad433a3e0","ios":"levelo://app?vid=c927a5b8-322b-4b59-b383-e70ad433a3e0"},"vehicle_type_id":"4","last_reported":1687903621,"current_range_meters":0,"station_id":"ce4bgvp2rcd13ifvqct0","pricing_plan_id":"free"},{"bike_id":"b152602a-aaa7-4eed-93ba-89050d9c58ba","system_id":"levelo_inurba_marseille","lat":43.3067,"lon":5.40078,"is_reserved":false,"is_disabled":false,"rental_uris":{"android":"levelo://app?vid=b152602a-aaa7-4eed-93ba-89050d9c58ba","ios":"levelo://app?vid=b152602a-aaa7-4eed-93ba-89050d9c58ba"},"vehicle_type_id":"4","last_reported":1687903621,"current_range_meters":25600,"station_id":"","pricing_plan_id":"free"},{"bike_id":"476cd57c-2e9c-4f0d-a086-f93a7e3396f6","system_id":"levelo_inurba_marseille","lat":43.337516,"lon":5.374747,"is_reserved":false,"is_disabled":false,"rental_uris":{"android":"levelo://app?vid=476cd57c-2e9c-4f0d-a086-f93a7e3396f6","ios":"levelo://app?vid=476cd57c-2e9c-4f0d-a086-f93a7e3396f6"},"vehicle_type_id":"4","last_reported":1687903621,"current_range_meters":30800,"station_id":"","pricing_plan_id":"free"},{"bike_id":"a27cf6f5-a11d-4fce-9239-0da28975101e","system_id":"levelo_inurba_marseille","lat":43.30642,"lon":5.401031,"is_reserved":false,"is_disabled":false,"rental_uris":{"android":"levelo://app?vid=a27cf6f5-a11d-4fce-9239-0da28975101e","ios":"levelo://app?vid=a27cf6f5-a11d-4fce-9239-0da28975101e"},"vehicle_type_id":"4","last_reported":1687903621,"current_range_meters":0,"station_id":"ce4bh112rcd13ifvqda0","pricing_plan_id":"free"},{"bike_id":"99c39598-ba0f-42b0-a832-b39c35edc233","system_id":"levelo_inurba_marseille","lat":43.306412,"lon":5.401035,"is_reserved":false,"is_disabled":false,"rental_uris":{"android":"levelo://app?vid=99c39598-ba0f-42b0-a832-b39c35edc233","ios":"levelo://app?vid=99c39598-ba0f-42b0-a832-b39c35edc233"},"vehicle_type_id":"4","last_reported":1687903621,"current_range_meters":21600,"station_id":"ce4bh112rcd13ifvqda0","pricing_plan_id":"free"},{"bike_id":"037099ed-c97c-4803-8d97-52e39fd512ce","system_id":"levelo_inurba_marseille","lat":43.33769,"lon":5.37437,"is_reserved":false,"is_disabled":false,"rental_uris":{"android":"levelo://app?vid=037099ed-c97c-4803-8d97-52e39fd512ce","ios":"levelo://app?vid=037099ed-c97c-4803-8d97-52e39fd512ce"},"vehicle_type_id":"4","last_reported":1687903621,"current_range_meters":31200,"station_id":"","pricing_plan_id":"free"},{"bike_id":"aa21e380-ae56-4340-85b5-ad80a777a7c7","system_id":"levelo_inurba_marseille","lat":43.30642,"lon":5.401031,"is_reserved":false,"is_disabled":false,"rental_uris":{"android":"levelo://app?vid=aa21e380-ae56-4340-85b5-ad80a777a7c7","ios":"levelo://app?vid=aa21e380-ae56-4340-85b5-ad80a777a7c7"},"vehicle_type_id":"4","last_reported":1687903621,"current_range_meters":19600,"station_id":"ce4bh112rcd13ifvqda0","pricing_plan_id":"free"},{"bike_id":"0e326bb2-a765-4383-8366-765cbb5e6ea6","system_id":"levelo_inurba_marseille","lat":43.301117,"lon":5.398795,"is_reserved":false,"is_disabled":false,"rental_uris":{"android":"levelo://app?vid=0e326bb2-a765-4383-8366-765cbb5e6ea6","ios":"levelo://app?vid=0e326bb2-a765-4383-8366-765cbb5e6ea6"},"vehicle_type_id":"4","last_reported":1687903621,"current_range_meters":26400,"station_id":"ce4bh0h2rcd13ifvqd40","pricing_plan_id":"free"},{"bike_id":"82387661-f6ff-428a-a0ea-4897f6362a9d","system_id":"levelo_inurba_marseille","lat":43.301117,"lon":5.398795,"is_reserved":false,"is_disabled":false,"rental_uris":{"android":"levelo://app?vid=82387661-f6ff-428a-a0ea-4897f6362a9d","ios":"levelo://app?vid=82387661-f6ff-428a-a0ea-4897f6362a9d"},"vehicle_type_id":"4","last_reported":1687903621,"current_range_meters":30400,"station_id":"ce4bh0h2rcd13ifvqd40","pricing_plan_id":"free"},{"bike_id":"114e98e4-7e89-48e7-a7d5-a67a25b85587","system_id":"levelo_inurba_marseille","lat":43.295196,"lon":5.39397,"is_reserved":false,"is_disabled":false,"rental_uris":{"android":"levelo://app?vid=114e98e4-7e89-48e7-a7d5-a67a25b85587","ios":"levelo://app?vid=114e98e4-7e89-48e7-a7d5-a67a25b85587"},"vehicle_type_id":"4","last_reported":1687903621,"current_range_meters":0,"station_id":"ce4bh292rcd13ifvqdf0","pricing_plan_id":"free"},{"bike_id":"711adc96-e548-4a43-b8c4-725fcdb5cd68","system_id":"levelo_inurba_marseille","lat":43.286961,"lon":5.373785,"is_reserved":false,"is_disabled":false,"rental_uris":{"android":"levelo://app?vid=711adc96-e548-4a43-b8c4-725fcdb5cd68","ios":"levelo://app?vid=711adc96-e548-4a43-b8c4-725fcdb5cd68"},"vehicle_type_id":"4","last_reported":1687903621,"current_range_meters":10400,"station_id":"ce4bh3p2rcd13ifvqdq0","pricing_plan_id":"free"},{"bike_id":"7a0f0227-e40b-4276-9d7f-fc1b5f73bfdd","system_id":"levelo_inurba_marseille","lat":43.28759,"lon":5.37716,"is_reserved":false,"is_disabled":false,"rental_uris":{"android":"levelo://app?vid=7a0f0227-e40b-4276-9d7f-fc1b5f73bfdd","ios":"levelo://app?vid=7a0f0227-e40b-4276-9d7f-fc1b5f73bfdd"},"vehicle_type_id":"4","last_reported":1687903621,"current_range_meters":15200,"station_id":"ce4bh3p2rcd13ifvqdq0","pricing_plan_id":"free"},{"bike_id":"a750df66-dfcb-4bd8-be8b-fa3e009ead85","system_id":"levelo_inurba_marseille","lat":43.295196,"lon":5.39397,"is_reserved":false,"is_disabled":false,"rental_uris":{"android":"levelo://app?vid=a750df66-dfcb-4bd8-be8b-fa3e009ead85","ios":"levelo://app?vid=a750df66-dfcb-4bd8-be8b-fa3e009ead85"},"vehicle_type_id":"4","last_reported":1687903621,"current_range_meters":20400,"station_id":"ce4bh292rcd13ifvqdf0","pricing_plan_id":"free"},{"bike_id":"1c547a85-6e17-4d14-a84a-05a96e5d13ec","system_id":"levelo_inurba_marseille","lat":43.286961,"lon":5.373785,"is_reserved":false,"is_disabled":false,"rental_uris":{"android":"levelo://app?vid=1c547a85-6e17-4d14-a84a-05a96e5d13ec","ios":"levelo://app?vid=1c547a85-6e17-4d14-a84a-05a96e5d13ec"},"vehicle_type_id":"4","last_reported":1687903621,"current_range_meters":23600,"station_id":"ce4bh3p2rcd13ifvqdq0","pricing_plan_id":"free"},{"bike_id":"9df9d703-c4b5-4caa-b45e-7108a2f54111","system_id":"levelo_inurba_marseille","lat":43.302759,"lon":5.400793,"is_reserved":false,"is_disabled":false,"rental_uris":{"android":"levelo://app?vid=9df9d703-c4b5-4caa-b45e-7108a2f54111","ios":"levelo://app?vid=9df9d703-c4b5-4caa-b45e-7108a2f54111"},"vehicle_type_id":"4","last_reported":1687903621,"current_range_meters":21200,"station_id":"ce4bgvh2rcd13ifvqcs0","pricing_plan_id":"free"},{"bike_id":"d67ada56-86e4-409f-93e9-d55aa2a741aa","system_id":"levelo_inurba_marseille","lat":43.302759,"lon":5.400793,"is_reserved":false,"is_disabled":false,"rental_uris":{"android":"levelo://app?vid=d67ada56-86e4-409f-93e9-d55aa2a741aa","ios":"levelo://app?vid=d67ada56-86e4-409f-93e9-d55aa2a741aa"},"vehicle_type_id":"4","last_reported":1687903621,"current_range_meters":19600,"station_id":"ce4bgvh2rcd13ifvqcs0","pricing_plan_id":"free"},{"bike_id":"acb55543-717c-45ba-a776-c75d1347156e","system_id":"levelo_inurba_marseille","lat":43.295196,"lon":5.39397,"is_reserved":false,"is_disabled":false,"rental_uris":{"android":"levelo://app?vid=acb55543-717c-45ba-a776-c75d1347156e","ios":"levelo://app?vid=acb55543-717c-45ba-a776-c75d1347156e"},"vehicle_type_id":"4","last_reported":1687903621,"current_range_meters":31200,"station_id":"ce4bh292rcd13ifvqdf0","pricing_plan_id":"free"},{"bike_id":"f33ca090-cd93-4954-a9b5-081c0f4271a1","system_id":"levelo_inurba_marseille","lat":43.302759,"lon":5.400793,"is_reserved":false,"is_disabled":false,"rental_uris":{"android":"levelo://app?vid=f33ca090-cd93-4954-a9b5-081c0f4271a1","ios":"levelo://app?vid=f33ca090-cd93-4954-a9b5-081c0f4271a1"},"vehicle_type_id":"4","last_reported":1687903621,"current_range_meters":24400,"station_id":"ce4bgvh2rcd13ifvqcs0","pricing_plan_id":"free"},{"bike_id":"cc2ddf7d-804d-4015-a5e1-eca1e79a79ad","system_id":"levelo_inurba_marseille","lat":43.30262,"lon":5.40075,"is_reserved":false,"is_disabled":false,"rental_uris":{"android":"levelo://app?vid=cc2ddf7d-804d-4015-a5e1-eca1e79a79ad","ios":"levelo://app?vid=cc2ddf7d-804d-4015-a5e1-eca1e79a79ad"},"vehicle_type_id":"4","last_reported":1687903621,"current_range_meters":15600,"station_id":"ce4bgvh2rcd13ifvqcs0","pricing_plan_id":"free"},{"bike_id":"910116c2-0318-41ca-9958-9227cfa55280","system_id":"levelo_inurba_marseille","lat":43.302759,"lon":5.400793,"is_reserved":false,"is_disabled":false,"rental_uris":{"android":"levelo://app?vid=910116c2-0318-41ca-9958-9227cfa55280","ios":"levelo://app?vid=910116c2-0318-41ca-9958-9227cfa55280"},"vehicle_type_id":"4","last_reported":1687903621,"current_range_meters":18000,"station_id":"ce4bgvh2rcd13ifvqcs0","pricing_plan_id":"free"},{"bike_id":"7f5ca696-280a-48b3-a720-74f5d6bc5d76","system_id":"levelo_inurba_marseille","lat":43.302759,"lon":5.400793,"is_reserved":false,"is_disabled":false,"rental_uris":{"android":"levelo://app?vid=7f5ca696-280a-48b3-a720-74f5d6bc5d76","ios":"levelo://app?vid=7f5ca696-280a-48b3-a720-74f5d6bc5d76"},"vehicle_type_id":"4","last_reported":1687903621,"current_range_meters":30800,"station_id":"ce4bgvh2rcd13ifvqcs0","pricing_plan_id":"free"},{"bike_id":"efa8d892-c15e-4fda-8426-489254cabd9e","system_id":"levelo_inurba_marseille","lat":43.28616,"lon":5.37045,"is_reserved":false,"is_disabled":false,"rental_uris":{"android":"levelo://app?vid=efa8d892-c15e-4fda-8426-489254cabd9e","ios":"levelo://app?vid=efa8d892-c15e-4fda-8426-489254cabd9e"},"vehicle_type_id":"4","last_reported":1687903621,"current_range_meters":26800,"station_id":"ce4bht12rcd13ifvqi60","pricing_plan_id":"free"},{"bike_id":"a923f3c7-29d2-46e7-b33a-af42f3910463","system_id":"levelo_inurba_marseille","lat":43.28612,"lon":5.3707,"is_reserved":false,"is_disabled":false,"rental_uris":{"android":"levelo://app?vid=a923f3c7-29d2-46e7-b33a-af42f3910463","ios":"levelo://app?vid=a923f3c7-29d2-46e7-b33a-af42f3910463"},"vehicle_type_id":"4","last_reported":1687903621,"current_range_meters":31200,"station_id":"ce4bht12rcd13ifvqi60","pricing_plan_id":"free"},{"bike_id":"73b8cd6c-4425-4ca8-8271-44e2a4c4843a","system_id":"levelo_inurba_marseille","lat":43.28608,"lon":5.37062,"is_reserved":false,"is_disabled":false,"rental_uris":{"android":"levelo://app?vid=73b8cd6c-4425-4ca8-8271-44e2a4c4843a","ios":"levelo://app?vid=73b8cd6c-4425-4ca8-8271-44e2a4c4843a"},"vehicle_type_id":"4","last_reported":1687903621,"current_range_meters":31200,"station_id":"ce4bht12rcd13ifvqi60","pricing_plan_id":"free"},{"bike_id":"4f37d946-e37e-4308-834e-f6b02f404b9b","system_id":"levelo_inurba_marseille","lat":43.287185,"lon":5.379373,"is_reserved":false,"is_disabled":false,"rental_uris":{"android":"levelo://app?vid=4f37d946-e37e-4308-834e-f6b02f404b9b","ios":"levelo://app?vid=4f37d946-e37e-4308-834e-f6b02f404b9b"},"vehicle_type_id":"4","last_reported":1687903621,"current_range_meters":2400,"station_id":"ce4bh9p2rcd13ifvqec0","pricing_plan_id":"free"},{"bike_id":"dacf8f79-ea9b-4848-9b2c-8522f3787abb","system_id":"levelo_inurba_marseille","lat":43.287184,"lon":5.37937,"is_reserved":false,"is_disabled":false,"rental_uris":{"android":"levelo://app?vid=dacf8f79-ea9b-4848-9b2c-8522f3787abb","ios":"levelo://app?vid=dacf8f79-ea9b-4848-9b2c-8522f3787abb"},"vehicle_type_id":"4","last_reported":1687903621,"current_range_meters":0,"station_id":"ce4bh9p2rcd13ifvqec0","pricing_plan_id":"free"},{"bike_id":"2d2d8018-09d2-470a-801b-053319ad79dc","system_id":"levelo_inurba_marseille","lat":43.316517,"lon":5.404375,"is_reserved":false,"is_disabled":false,"rental_uris":{"android":"levelo://app?vid=2d2d8018-09d2-470a-801b-053319ad79dc","ios":"levelo://app?vid=2d2d8018-09d2-470a-801b-053319ad79dc"},"vehicle_type_id":"4","last_reported":1687903621,"current_range_meters":29200,"station_id":"ce4bh012rcd13ifvqd00","pricing_plan_id":"free"},{"bike_id":"d69fed3a-efe9-46fb-b1dc-1240b8978d3e","system_id":"levelo_inurba_marseille","lat":43.316517,"lon":5.404375,"is_reserved":false,"is_disabled":false,"rental_uris":{"android":"levelo://app?vid=d69fed3a-efe9-46fb-b1dc-1240b8978d3e","ios":"levelo://app?vid=d69fed3a-efe9-46fb-b1dc-1240b8978d3e"},"vehicle_type_id":"4","last_reported":1687903621,"current_range_meters":28800,"station_id":"ce4bh012rcd13ifvqd00","pricing_plan_id":"free"},{"bike_id":"3fea75f6-22d0-4a0e-ac9e-af34ccc7360f","system_id":"levelo_inurba_marseille","lat":43.316517,"lon":5.404375,"is_reserved":false,"is_disabled":false,"rental_uris":{"android":"levelo://app?vid=3fea75f6-22d0-4a0e-ac9e-af34ccc7360f","ios":"levelo://app?vid=3fea75f6-22d0-4a0e-ac9e-af34ccc7360f"},"vehicle_type_id":"4","last_reported":1687903621,"current_range_meters":0,"station_id":"ce4bh012rcd13ifvqd00","pricing_plan_id":"free"},{"bike_id":"9a7050ba-35e6-412a-a1e7-e536561c0f65","system_id":"levelo_inurba_marseille","lat":43.316517,"lon":5.404375,"is_reserved":false,"is_disabled":false,"rental_uris":{"android":"levelo://app?vid=9a7050ba-35e6-412a-a1e7-e536561c0f65","ios":"levelo://app?vid=9a7050ba-35e6-412a-a1e7-e536561c0f65"},"vehicle_type_id":"4","last_reported":1687903621,"current_range_meters":31200,"station_id":"ce4bh012rcd13ifvqd00","pricing_plan_id":"free"},{"bike_id":"fb661348-afa9-4a7f-b7e2-a3e390f09d62","system_id":"levelo_inurba_marseille","lat":43.291994,"lon":5.392907,"is_reserved":false,"is_disabled":false,"rental_uris":{"android":"levelo://app?vid=fb661348-afa9-4a7f-b7e2-a3e390f09d62","ios":"levelo://app?vid=fb661348-afa9-4a7f-b7e2-a3e390f09d62"},"vehicle_type_id":"4","last_reported":1687903621,"current_range_meters":31600,"station_id":"ce4bh192rcd13ifvqdd0","pricing_plan_id":"free"},{"bike_id":"6da595e1-e189-4b4c-887b-35bdfe6d5e00","system_id":"levelo_inurba_marseille","lat":43.291994,"lon":5.392907,"is_reserved":false,"is_disabled":false,"rental_uris":{"android":"levelo://app?vid=6da595e1-e189-4b4c-887b-35bdfe6d5e00","ios":"levelo://app?vid=6da595e1-e189-4b4c-887b-35bdfe6d5e00"},"vehicle_type_id":"4","last_reported":1687903621,"current_range_meters":15200,"station_id":"ce4bh192rcd13ifvqdd0","pricing_plan_id":"free"},{"bike_id":"c6edb8b3-1ba5-49e1-8bcc-8f21a4519c91","system_id":"levelo_inurba_marseille","lat":43.291994,"lon":5.392907,"is_reserved":false,"is_disabled":false,"rental_uris":{"android":"levelo://app?vid=c6edb8b3-1ba5-49e1-8bcc-8f21a4519c91","ios":"levelo://app?vid=c6edb8b3-1ba5-49e1-8bcc-8f21a4519c91"},"vehicle_type_id":"4","last_reported":1687903621,"current_range_meters":16800,"station_id":"ce4bh192rcd13ifvqdd0","pricing_plan_id":"free"},{"bike_id":"f3f8e5e5-e0f3-4e42-a4b5-95935795251a","system_id":"levelo_inurba_marseille","lat":43.291994,"lon":5.392907,"is_reserved":false,"is_disabled":false,"rental_uris":{"android":"levelo://app?vid=f3f8e5e5-e0f3-4e42-a4b5-95935795251a","ios":"levelo://app?vid=f3f8e5e5-e0f3-4e42-a4b5-95935795251a"},"vehicle_type_id":"4","last_reported":1687903621,"current_range_meters":19600,"station_id":"ce4bh192rcd13ifvqdd0","pricing_plan_id":"free"},{"bike_id":"6ba16534-4dbc-4e1a-95ba-02ae30e49699","system_id":"levelo_inurba_marseille","lat":43.284534,"lon":5.358662,"is_reserved":false,"is_disabled":false,"rental_uris":{"android":"levelo://app?vid=6ba16534-4dbc-4e1a-95ba-02ae30e49699","ios":"levelo://app?vid=6ba16534-4dbc-4e1a-95ba-02ae30e49699"},"vehicle_type_id":"4","last_reported":1687903621,"current_range_meters":13600,"station_id":"ce4bhah2rcd13ifvqei0","pricing_plan_id":"free"},{"bike_id":"af05f5a9-004d-4f53-ab04-f5ea67c9b3f2","system_id":"levelo_inurba_marseille","lat":43.284534,"lon":5.358662,"is_reserved":false,"is_disabled":false,"rental_uris":{"android":"levelo://app?vid=af05f5a9-004d-4f53-ab04-f5ea67c9b3f2","ios":"levelo://app?vid=af05f5a9-004d-4f53-ab04-f5ea67c9b3f2"},"vehicle_type_id":"4","last_reported":1687903621,"current_range_meters":22800,"station_id":"ce4bhah2rcd13ifvqei0","pricing_plan_id":"free"},{"bike_id":"b24120d7-09c9-42cf-98ab-6a1761f0fab8","system_id":"levelo_inurba_marseille","lat":43.284534,"lon":5.358662,"is_reserved":false,"is_disabled":false,"rental_uris":{"android":"levelo://app?vid=b24120d7-09c9-42cf-98ab-6a1761f0fab8","ios":"levelo://app?vid=b24120d7-09c9-42cf-98ab-6a1761f0fab8"},"vehicle_type_id":"4","last_reported":1687903621,"current_range_meters":28800,"station_id":"ce4bhah2rcd13ifvqei0","pricing_plan_id":"free"},{"bike_id":"71812a3d-5e3d-4073-8fd1-f6771fa7c637","system_id":"levelo_inurba_marseille","lat":43.284534,"lon":5.358662,"is_reserved":false,"is_disabled":false,"rental_uris":{"android":"levelo://app?vid=71812a3d-5e3d-4073-8fd1-f6771fa7c637","ios":"levelo://app?vid=71812a3d-5e3d-4073-8fd1-f6771fa7c637"},"vehicle_type_id":"4","last_reported":1687903621,"current_range_meters":6800,"station_id":"ce4bhah2rcd13ifvqei0","pricing_plan_id":"free"},{"bike_id":"8583a502-a7ad-43aa-897b-f6800d0b92c3","system_id":"levelo_inurba_marseille","lat":43.283998,"lon":5.375062,"is_reserved":false,"is_disabled":false,"rental_uris":{"android":"levelo://app?vid=8583a502-a7ad-43aa-897b-f6800d0b92c3","ios":"levelo://app?vid=8583a502-a7ad-43aa-897b-f6800d0b92c3"},"vehicle_type_id":"4","last_reported":1687903621,"current_range_meters":28400,"station_id":"ce4bh412rcd13ifvqds0","pricing_plan_id":"free"},{"bike_id":"30a8ec29-cd08-4abb-8e39-a8f24ec0c412","system_id":"levelo_inurba_marseille","lat":43.28418,"lon":5.37511,"is_reserved":false,"is_disabled":false,"rental_uris":{"android":"levelo://app?vid=30a8ec29-cd08-4abb-8e39-a8f24ec0c412","ios":"levelo://app?vid=30a8ec29-cd08-4abb-8e39-a8f24ec0c412"},"vehicle_type_id":"4","last_reported":1687903621,"current_range_meters":31200,"station_id":"","pricing_plan_id":"free"},{"bike_id":"bf3f4fe1-3c1c-4a20-8dfd-e47386c28673","system_id":"levelo_inurba_marseille","lat":43.28414,"lon":5.37513,"is_reserved":false,"is_disabled":false,"rental_uris":{"android":"levelo://app?vid=bf3f4fe1-3c1c-4a20-8dfd-e47386c28673","ios":"levelo://app?vid=bf3f4fe1-3c1c-4a20-8dfd-e47386c28673"},"vehicle_type_id":"4","last_reported":1687903621,"current_range_meters":10800,"station_id":"ce4bh412rcd13ifvqds0","pricing_plan_id":"free"},{"bike_id":"a37f2314-af62-4b47-8310-5917851b933e","system_id":"levelo_inurba_marseille","lat":43.283998,"lon":5.375062,"is_reserved":false,"is_disabled":false,"rental_uris":{"android":"levelo://app?vid=a37f2314-af62-4b47-8310-5917851b933e","ios":"levelo://app?vid=a37f2314-af62-4b47-8310-5917851b933e"},"vehicle_type_id":"4","last_reported":1687903621,"current_range_meters":0,"station_id":"ce4bh412rcd13ifvqds0","pricing_plan_id":"free"},{"bike_id":"1a2ec91d-f347-418f-819b-13b7857b910a","system_id":"levelo_inurba_marseille","lat":43.295713,"lon":5.399639,"is_reserved":false,"is_disabled":false,"rental_uris":{"android":"levelo://app?vid=1a2ec91d-f347-418f-819b-13b7857b910a","ios":"levelo://app?vid=1a2ec91d-f347-418f-819b-13b7857b910a"},"vehicle_type_id":"4","last_reported":1687903621,"current_range_meters":30000,"station_id":"ce4bh312rcd13ifvqdj0","pricing_plan_id":"free"},{"bike_id":"7b20ca0e-17ba-479a-a320-a1b417f2a0db","system_id":"levelo_inurba_marseille","lat":43.295713,"lon":5.399639,"is_reserved":false,"is_disabled":false,"rental_uris":{"android":"levelo://app?vid=7b20ca0e-17ba-479a-a320-a1b417f2a0db","ios":"levelo://app?vid=7b20ca0e-17ba-479a-a320-a1b417f2a0db"},"vehicle_type_id":"4","last_reported":1687903621,"current_range_meters":2800,"station_id":"ce4bh312rcd13ifvqdj0","pricing_plan_id":"free"},{"bike_id":"c740f2a8-5616-448c-84a7-81574eab2202","system_id":"levelo_inurba_marseille","lat":43.286595,"lon":5.386795,"is_reserved":false,"is_disabled":false,"rental_uris":{"android":"levelo://app?vid=c740f2a8-5616-448c-84a7-81574eab2202","ios":"levelo://app?vid=c740f2a8-5616-448c-84a7-81574eab2202"},"vehicle_type_id":"4","last_reported":1687903621,"current_range_meters":21600,"station_id":"ce4bh492rcd13ifvqdug","pricing_plan_id":"free"},{"bike_id":"520e42db-51dc-4c32-bc55-dfd76c891c7f","system_id":"levelo_inurba_marseille","lat":43.286595,"lon":5.386795,"is_reserved":false,"is_disabled":false,"rental_uris":{"android":"levelo://app?vid=520e42db-51dc-4c32-bc55-dfd76c891c7f","ios":"levelo://app?vid=520e42db-51dc-4c32-bc55-dfd76c891c7f"},"vehicle_type_id":"4","last_reported":1687903621,"current_range_meters":14800,"station_id":"ce4bh492rcd13ifvqdug","pricing_plan_id":"free"},{"bike_id":"82f80e6d-1a1c-4399-aa35-992cf975f05b","system_id":"levelo_inurba_marseille","lat":43.28676,"lon":5.38655,"is_reserved":false,"is_disabled":false,"rental_uris":{"android":"levelo://app?vid=82f80e6d-1a1c-4399-aa35-992cf975f05b","ios":"levelo://app?vid=82f80e6d-1a1c-4399-aa35-992cf975f05b"},"vehicle_type_id":"4","last_reported":1687903621,"current_range_meters":15200,"station_id":"","pricing_plan_id":"free"},{"bike_id":"e31ac108-2bd1-4b63-a53e-b8afe04f5b8c","system_id":"levelo_inurba_marseille","lat":43.286595,"lon":5.386795,"is_reserved":false,"is_disabled":false,"rental_uris":{"android":"levelo://app?vid=e31ac108-2bd1-4b63-a53e-b8afe04f5b8c","ios":"levelo://app?vid=e31ac108-2bd1-4b63-a53e-b8afe04f5b8c"},"vehicle_type_id":"4","last_reported":1687903621,"current_range_meters":31200,"station_id":"ce4bh492rcd13ifvqdug","pricing_plan_id":"free"},{"bike_id":"a573dcd4-a0a9-46bb-91df-cfe4480c35df","system_id":"levelo_inurba_marseille","lat":43.286595,"lon":5.386795,"is_reserved":false,"is_disabled":false,"rental_uris":{"android":"levelo://app?vid=a573dcd4-a0a9-46bb-91df-cfe4480c35df","ios":"levelo://app?vid=a573dcd4-a0a9-46bb-91df-cfe4480c35df"},"vehicle_type_id":"4","last_reported":1687903621,"current_range_meters":24000,"station_id":"ce4bh492rcd13ifvqdug","pricing_plan_id":"free"},{"bike_id":"0a4054be-796a-4c4e-b853-83a33f1c001f","system_id":"levelo_inurba_marseille","lat":43.286595,"lon":5.386795,"is_reserved":false,"is_disabled":false,"rental_uris":{"android":"levelo://app?vid=0a4054be-796a-4c4e-b853-83a33f1c001f","ios":"levelo://app?vid=0a4054be-796a-4c4e-b853-83a33f1c001f"},"vehicle_type_id":"4","last_reported":1687903621,"current_range_meters":6400,"station_id":"ce4bh492rcd13ifvqdug","pricing_plan_id":"free"},{"bike_id":"d721b0bb-5525-42ce-ae22-838016d93291","system_id":"levelo_inurba_marseille","lat":43.286595,"lon":5.386795,"is_reserved":false,"is_disabled":false,"rental_uris":{"android":"levelo://app?vid=d721b0bb-5525-42ce-ae22-838016d93291","ios":"levelo://app?vid=d721b0bb-5525-42ce-ae22-838016d93291"},"vehicle_type_id":"4","last_reported":1687903621,"current_range_meters":17600,"station_id":"ce4bh492rcd13ifvqdug","pricing_plan_id":"free"},{"bike_id":"345f506c-e7f3-4af7-a4e1-6a979aada489","system_id":"levelo_inurba_marseille","lat":43.286595,"lon":5.386795,"is_reserved":false,"is_disabled":false,"rental_uris":{"android":"levelo://app?vid=345f506c-e7f3-4af7-a4e1-6a979aada489","ios":"levelo://app?vid=345f506c-e7f3-4af7-a4e1-6a979aada489"},"vehicle_type_id":"4","last_reported":1687903621,"current_range_meters":6000,"station_id":"ce4bh492rcd13ifvqdug","pricing_plan_id":"free"},{"bike_id":"0eb81602-0148-4039-b8ad-457535081c79","system_id":"levelo_inurba_marseille","lat":43.28667,"lon":5.38651,"is_reserved":false,"is_disabled":false,"rental_uris":{"android":"levelo://app?vid=0eb81602-0148-4039-b8ad-457535081c79","ios":"levelo://app?vid=0eb81602-0148-4039-b8ad-457535081c79"},"vehicle_type_id":"4","last_reported":1687903621,"current_range_meters":0,"station_id":"ce4bh492rcd13ifvqdug","pricing_plan_id":"free"},{"bike_id":"dfe7763a-0986-4069-9399-9975efa14686","system_id":"levelo_inurba_marseille","lat":43.286595,"lon":5.386795,"is_reserved":false,"is_disabled":false,"rental_uris":{"android":"levelo://app?vid=dfe7763a-0986-4069-9399-9975efa14686","ios":"levelo://app?vid=dfe7763a-0986-4069-9399-9975efa14686"},"vehicle_type_id":"4","last_reported":1687903621,"current_range_meters":19600,"station_id":"ce4bh492rcd13ifvqdug","pricing_plan_id":"free"},{"bike_id":"3ea3b014-e11e-49f8-ad11-432963710d1c","system_id":"levelo_inurba_marseille","lat":43.323464,"lon":5.406297,"is_reserved":false,"is_disabled":false,"rental_uris":{"android":"levelo://app?vid=3ea3b014-e11e-49f8-ad11-432963710d1c","ios":"levelo://app?vid=3ea3b014-e11e-49f8-ad11-432963710d1c"},"vehicle_type_id":"4","last_reported":1687903621,"current_range_meters":27200,"station_id":"ce4bhq92rcd13ifvqhjg","pricing_plan_id":"free"},{"bike_id":"f2988b82-daec-4b0e-9d7c-376293e5d54f","system_id":"levelo_inurba_marseille","lat":43.33724,"lon":5.39188,"is_reserved":false,"is_disabled":false,"rental_uris":{"android":"levelo://app?vid=f2988b82-daec-4b0e-9d7c-376293e5d54f","ios":"levelo://app?vid=f2988b82-daec-4b0e-9d7c-376293e5d54f"},