{"last_updated":1720386470,"ttl":30,"version":"2.2","data":{"bikes":[{"bike_id":"0c5475d8-7925-429f-897a-ae0321677b10","system_id":"levelo_inurba_marseille","lat":43.312239,"lon":5.368562,"is_reserved":false,"is_disabled":false,"rental_uris":{"android":"levelo://app?vid=0c5475d8-7925-429f-897a-ae0321677b10","ios":"levelo://app?vid=0c5475d8-7925-429f-897a-ae0321677b10"},"vehicle_type_id":"4","last_reported":1720386470,"current_range_meters":800,"station_id":"ce4bgl92rcd13ifvqbq0","pricing_plan_id":"cebpf4jnsgd1na2vs0mg"},{"bike_id":"436e27b8-d9f0-480a-8ff6-8781de490252","system_id":"levelo_inurba_marseille","lat":43.31249,"lon":5.36859,"is_reserved":false,"is_disabled":false,"rental_uris":{"android":"levelo://app?vid=436e27b8-d9f0-480a-8ff6-8781de490252","ios":"levelo://app?vid=436e27b8-d9f0-480a-8ff6-8781de490252"},"vehicle_type_id":"4","last_reported":1720386470,"current_range_meters":18400,"station_id":"","pricing_plan_id":"cebpf4jnsgd1na2vs0mg"},{"bike_id":"9ca6c1bd-8f87-4527-90c6-5675b86a5073","system_id":"levelo_inurba_marseille","lat":43.30783,"lon":5.3678,"is_reserved":false,"is_disabled":false,"rental_uris":{"android":"levelo://app?vid=9ca6c1bd-8f87-4527-90c6-5675b86a5073","ios":"levelo://app?vid=9ca6c1bd-8f87-4527-90c6-5675b86a5073"},"vehicle_type_id":"4","last_reported":1720386470,"current_range_meters":0,"station_id":"","pricing_plan_id":"cebpf4jnsgd1na2vs0mg"},{"bike_id":"41cdcdd6-ded1-4424-b142-2da7b544bf9d","system_id":"levelo_inurba_marseille","lat":43.317847,"lon":5.369382,"is_reserved":false,"is_disabled":false,"rental_uris":{"android":"levelo://app?vid=41cdcdd6-ded1-4424-b142-2da7b544bf9d","ios":"levelo://app?vid=41cdcdd6-ded1-4424-b142-2da7b544bf9d"},"vehicle_type_id":"4","last_reported":1720386470,"current_range_meters":0,"station_id":"","pricing_plan_id":"cebpf4jnsgd1na2vs0mg"},{"bike_id":"f7b4f44e-de19-481f-a573-23785d2538eb","system_id":"levelo_inurba_marseille","lat":43.30752,"lon":5.37377,"is_reserved":false,"is_disabled":false,"rental_uris":{"android":"levelo://app?vid=f7b4f44e-de19-481f-a573-23785d2538eb","ios":"levelo://app?vid=f7b4f44e-de19-481f-a573-23785d2538eb"},"vehicle_type_id":"4","last_reported":1720386470,"current_range_meters":27200,"station_id":"","pricing_plan_id":"cebpf4jnsgd1na2vs0mg"},{"bike_id":"a959135e-73bb-4d74-a703-61fd9ed332ec","system_id":"levelo_inurba_marseille","lat":43.30534,"lon":5.36661,"is_reserved":false,"is_disabled":false,"rental_uris":{"android":"levelo://app?vid=a959135e-73bb-4d74-a703-61fd9ed332ec","ios":"levelo://app?vid=a959135e-73bb-4d74-a703-61fd9ed332ec"},"vehicle_type_id":"4","last_reported":1720386470,"current_range_meters":27600,"station_id":"","pricing_plan_id":"cebpf4jnsgd1na2vs0mg"},{"bike_id":"cd3b6289-12bf-49d2-839c-0ccfc94e2cea","system_id":"levelo_inurba_marseille","lat":43.305989,"lon":5.37225,"is_reserved":false,"is_disabled":false,"rental_uris":{"android":"levelo://app?vid=cd3b6289-12bf-49d2-839c-0ccfc94e2cea","ios":"levelo://app?vid=cd3b6289-12bf-49d2-839c-0ccfc94e2cea"},"vehicle_type_id":"4","last_reported":1720386470,"current_range_meters":30400,"station_id":"ce4bgqh2rcd13ifvqc4g","pricing_plan_id":"cebpf4jnsgd1na2vs0mg"},{"bike_id":"66e36f9a-c5da-48a7-93b8-167d1e2716e1","system_id":"levelo_inurba_marseille","lat":43.305989,"lon":5.37225,"is_reserved":false,"is_disabled":false,"rental_uris":{"android":"levelo://app?vid=66e36f9a-c5da-48a7-93b8-167d1e2716e1","ios":"levelo://app?vid=66e36f9a-c5da-48a7-93b8-167d1e2716e1"},"vehicle_type_id":"4","last_reported":1720386470,"current_range_meters":28400,"station_id":"ce4bgqh2rcd13ifvqc4g","pricing_plan_id":"cebpf4jnsgd1na2vs0mg"},{"bike_id":"bf41442b-6381-4f35-9e09-7ca692b69cd6","system_id":"levelo_inurba_marseille","lat":43.305989,"lon":5.37225,"is_reserved":false,"is_disabled":false,"rental_uris":{"android":"levelo://app?vid=bf41442b-6381-4f35-9e09-7ca692b69cd6","ios":"levelo://app?vid=bf41442b-6381-4f35-9e09-7ca692b69cd6"},"vehicle_type_id":"4","last_reported":1720386470,"current_range_meters":29200,"station_id":"ce4bgqh2rcd13ifvqc4g","pricing_plan_id":"cebpf4jnsgd1na2vs0mg"},{"bike_id":"c0866c64-2e40-4160-a14b-8766e90c1235","system_id":"levelo_inurba_marseille","lat":43.305989,"lon":5.37225,"is_reserved":false,"is_disabled":false,"rental_uris":{"android":"levelo://app?vid=c0866c64-2e40-4160-a14b-8766e90c1235","ios":"levelo://app?vid=c0866c64-2e40-4160-a14b-8766e90c1235"},"vehicle_type_id":"4","last_reported":1720386470,"current_range_meters":31200,"station_id":"ce4bgqh2rcd13ifvqc4g","pricing_plan_id":"cebpf4jnsgd1na2vs0mg"},{"bike_id":"6e3241e8-f17b-4562-b151-e294ac54d992","system_id":"levelo_inurba_marseille","lat":43.305989,"lon":5.37225,"is_reserved":false,"is_disabled":false,"rental_uris":{"android":"levelo://app?vid=6e3241e8-f17b-4562-b151-e294ac54d992","ios":"levelo://app?vid=6e3241e8-f17b-4562-b151-e294ac54d992"},"vehicle_type_id":"4","last_reported":1720386470,"current_range_meters":30400,"station_id":"ce4bgqh2rcd13ifvqc4g","pricing_plan_id":"cebpf4jnsgd1na2vs0mg"},{"bike_id":"592d19b0-3669-4303-a067-22901e469a2b","system_id":"levelo_inurba_marseille","lat":43.305989,"lon":5.37225,"is_reserved":false,"is_disabled":false,"rental_uris":{"android":"levelo://app?vid=592d19b0-3669-4303-a067-22901e469a2b","ios":"levelo://app?vid=592d19b0-3669-4303-a067-22901e469a2b"},"vehicle_type_id":"4","last_reported":1720386470,"current_range_meters":31200,"station_id":"ce4bgqh2rcd13ifvqc4g","pricing_plan_id":"cebpf4jnsgd1na2vs0mg"},{"bike_id":"930395b1-e447-430b-ad1f-8d5527055fbd","system_id":"levelo_inurba_marseille","lat":43.311125,"lon":5.377624,"is_reserved":false,"is_disabled":false,"rental_uris":{"android":"levelo://app?vid=930395b1-e447-430b-ad1f-8d5527055fbd","ios":"levelo://app?vid=930395b1-e447-430b-ad1f-8d5527055fbd"},"vehicle_type_id":"4","last_reported":1720386470,"current_range_meters":0,"station_id":"ce4bgt92rcd13ifvqcg0","pricing_plan_id":"cebpf4jnsgd1na2vs0mg"},{"bike_id":"2daca5bb-4ca6-4c70-a0fe-672594361987","system_id":"levelo_inurba_marseille","lat":43.311125,"lon":5.377624,"is_reserved":false,"is_disabled":false,"rental_uris":{"android":"levelo://app?vid=2daca5bb-4ca6-4c70-a0fe-672594361987","ios":"levelo://app?vid=2daca5bb-4ca6-4c70-a0fe-672594361987"},"vehicle_type_id":"4","last_reported":1720386470,"current_range_meters":14000,"station_id":"ce4bgt92rcd13ifvqcg0","pricing_plan_id":"cebpf4jnsgd1na2vs0mg"},{"bike_id":"c57e575a-197d-48a6-a239-b49c0e144047","system_id":"levelo_inurba_marseille","lat":43.307945,"lon":5.376487,"is_reserved":false,"is_disabled":false,"rental_uris":{"android":"levelo://app?vid=c57e575a-197d-48a6-a239-b49c0e144047","ios":"levelo://app?vid=c57e575a-197d-48a6-a239-b49c0e144047"},"vehicle_type_id":"4","last_reported":1720386470,"current_range_meters":9600,"station_id":"ce4bgv92rcd13ifvqcq0","pricing_plan_id":"cebpf4jnsgd1na2vs0mg"},{"bike_id":"4d865e70-6abe-4be6-a1db-fb8d479aaf9a","system_id":"levelo_inurba_marseille","lat":43.307945,"lon":5.376487,"is_reserved":false,"is_disabled":false,"rental_uris":{"android":"levelo://app?vid=4d865e70-6abe-4be6-a1db-fb8d479aaf9a","ios":"levelo://app?vid=4d865e70-6abe-4be6-a1db-fb8d479aaf9a"},"vehicle_type_id":"4","last_reported":1720386470,"current_range_meters":13200,"station_id":"ce4bgv92rcd13ifvqcq0","pricing_plan_id":"cebpf4jnsgd1na2vs0mg"},{"bike_id":"51a8aafc-2ece-4666-b495-f7ce199cafff","system_id":"levelo_inurba_marseille","lat":43.301939,"lon":5.366286,"is_reserved":false,"is_disabled":false,"rental_uris":{"android":"levelo://app?vid=51a8aafc-2ece-4666-b495-f7ce199cafff","ios":"levelo://app?vid=51a8aafc-2ece-4666-b495-f7ce199cafff"},"vehicle_type_id":"4","last_reported":1720386470,"current_range_meters":5600,"station_id":"ce4bgrh2rcd13ifvqc8g","pricing_plan_id":"cebpf4jnsgd1na2vs0mg"},{"bike_id":"de7f94a0-f3a6-4702-b950-2ed30e4e8005","system_id":"levelo_inurba_marseille","lat":43.316208,"lon":5.381964,"is_reserved":false,"is_disabled":false,"rental_uris":{"android":"levelo://app?vid=de7f94a0-f3a6-4702-b950-2ed30e4e8005","ios":"levelo://app?vid=de7f94a0-f3a6-4702-b950-2ed30e4e8005"},"vehicle_type_id":"4","last_reported":1720386470,"current_range_meters":10800,"station_id":"","pricing_plan_id":"cebpf4jnsgd1na2vs0mg"},{"bike_id":"99edcf45-1c30-460d-9d95-fee2eda80585","system_id":"levelo_inurba_marseille","lat":43.308012,"lon":5.381511,"is_reserved":false,"is_disabled":false,"rental_uris":{"android":"levelo://app?vid=99edcf45-1c30-460d-9d95-fee2eda80585","ios":"levelo://app?vid=99edcf45-1c30-460d-9d95-fee2eda80585"},"vehicle_type_id":"4","last_reported":1720386470,"current_range_meters":25200,"station_id":"ce4bgt12rcd13ifvqce0","pricing_plan_id":"cebpf4jnsgd1na2vs0mg"},{"bike_id":"10547e81-fc8d-4808-b367-a784008cf1cb","system_id":"levelo_inurba_marseille","lat":43.301008,"lon":5.368712,"is_reserved":false,"is_disabled":false,"rental_uris":{"android":"levelo://app?vid=10547e81-fc8d-4808-b367-a784008cf1cb","ios":"levelo://app?vid=10547e81-fc8d-4808-b367-a784008cf1cb"},"vehicle_type_id":"4","last_reported":1720386470,"current_range_meters":14400,"station_id":"","pricing_plan_id":"cebpf4jnsgd1na2vs0mg"},{"bike_id":"9c601ecb-bf99-4f77-bc6f-53dc884851f4","system_id":"levelo_inurba_marseille","lat":43.324648,"lon":5.365808,"is_reserved":false,"is_disabled":false,"rental_uris":{"android":"levelo://app?vid=9c601ecb-bf99-4f77-bc6f-53dc884851f4","ios":"levelo://app?vid=9c601ecb-bf99-4f77-bc6f-53dc884851f4"},"vehicle_type_id":"4","last_reported":1720386470,"current_range_meters":31200,"station_id":"ce4bhs12rcd13ifvqhvg","pricing_plan_id":"cebpf4jnsgd1na2vs0mg"},{"bike_id":"bce66e79-b280-42f7-aa23-b389174e0d95","system_id":"levelo_inurba_marseille","lat":43.304606,"lon":5.379026,"is_reserved":false,"is_disabled":false,"rental_uris":{"android":"levelo://app?vid=bce66e79-b280-42f7-aa23-b389174e0d95","ios":"levelo://app?vid=bce66e79-b280-42f7-aa23-b389174e0d95"},"vehicle_type_id":"4","last_reported":1720386470,"current_range_meters":16800,"station_id":"ce4bgup2rcd13ifvqcn0","pricing_plan_id":"cebpf4jnsgd1na2vs0mg"},{"bike_id":"d262d183-ff98-4ede-a027-59f9685f8360","system_id":"levelo_inurba_marseille","lat":43.30454,"lon":5.37901,"is_reserved":false,"is_disabled":false,"rental_uris":{"android":"levelo://app?vid=d262d183-ff98-4ede-a027-59f9685f8360","ios":"levelo://app?vid=d262d183-ff98-4ede-a027-59f9685f8360"},"vehicle_type_id":"4","last_reported":1720386470,"current_range_meters":0,"station_id":"ce4bgup2rcd13ifvqcn0","pricing_plan_id":"cebpf4jnsgd1na2vs0mg"},{"bike_id":"252af102-fbb0-4bb1-87e9-a558b8829a92","system_id":"levelo_inurba_marseille","lat":43.324771,"lon":5.36557,"is_reserved":false,"is_disabled":false,"rental_uris":{"android":"levelo://app?vid=252af102-fbb0-4bb1-87e9-a558b8829a92","ios":"levelo://app?vid=252af102-fbb0-4bb1-87e9-a558b8829a92"},"vehicle_type_id":"4","last_reported":1720386470,"current_range_meters":31200,"station_id":"ce4bhs12rcd13ifvqhvg","pricing_plan_id":"cebpf4jnsgd1na2vs0mg"},{"bike_id":"2c03c0c9-4aae-493b-8cd8-96a6528d80b3","system_id":"levelo_inurba_marseille","lat":43.324771,"lon":5.36557,"is_reserved":false,"is_disabled":false,"rental_uris":{"android":"levelo://app?vid=2c03c0c9-4aae-493b-8cd8-96a6528d80b3","ios":"levelo://app?vid=2c03c0c9-4aae-493b-8cd8-96a6528d80b3"},"vehicle_type_id":"4","last_reported":1720386470,"current_range_meters":10000,"station_id":"ce4bhs12rcd13ifvqhvg","pricing_plan_id":"cebpf4jnsgd1na2vs0mg"},{"bike_id":"a8adae0f-d8b6-4fa3-81da-e9f9e15cac37","system_id":"levelo_inurba_marseille","lat":43.324771,"lon":5.36557,"is_reserved":false,"is_disabled":false,"rental_uris":{"android":"levelo://app?vid=a8adae0f-d8b6-4fa3-81da-e9f9e15cac37","ios":"levelo://app?vid=a8adae0f-d8b6-4fa3-81da-e9f9e15cac37"},"vehicle_type_id":"4","last_reported":1720386470,"current_range_meters":31200,"station_id":"ce4bhs12rcd13ifvqhvg","pricing_plan_id":"cebpf4jnsgd1na2vs0mg"},{"bike_id":"0858a16f-ce37-4166-956e-22e33af9be38","system_id":"levelo_inurba_marseille","lat":43.324804,"lon":5.365585,"is_reserved":false,"is_disabled":false,"rental_uris":{"android":"levelo://app?vid=0858a16f-ce37-4166-956e-22e33af9be38","ios":"levelo://app?vid=0858a16f-ce37-4166-956e-22e33af9be38"},"vehicle_type_id":"4","last_reported":1720386470,"current_range_meters":27200,"station_id":"ce4bhs12rcd13ifvqhvg","pricing_plan_id":"cebpf4jnsgd1na2vs0mg"},{"bike_id":"2270e663-1e41-445a-b492-6c0ce4e8e21e","system_id":"levelo_inurba_marseille","lat":43.324814,"lon":5.365625,"is_reserved":false,"is_disabled":false,"rental_uris":{"android":"levelo://app?vid=2270e663-1e41-445a-b492-6c0ce4e8e21e","ios":"levelo://app?vid=2270e663-1e41-445a-b492-6c0ce4e8e21e"},"vehicle_type_id":"4","last_reported":1720386470,"current_range_meters":31200,"station_id":"ce4bhs12rcd13ifvqhvg","pricing_plan_id":"cebpf4jnsgd1na2vs0mg"},{"bike_id":"cba06cdd-58a4-4e5d-bbdd-20cdfd8568b3","system_id":"levelo_inurba_marseille","lat":43.32483,"lon":5.3657,"is_reserved":false,"is_disabled":false,"rental_uris":{"android":"levelo://app?vid=cba06cdd-58a4-4e5d-bbdd-20cdfd8568b3","ios":"levelo://app?vid=cba06cdd-58a4-4e5d-bbdd-20cdfd8568b3"},"vehicle_type_id":"4","last_reported":1720386470,"current_range_meters":2000,"station_id":"ce4bhs12rcd13ifvqhvg","pricing_plan_id":"cebpf4jnsgd1na2vs0mg"},{"bike_id":"195a3c08-b51e-480b-818f-9838d543d9ee","system_id":"levelo_inurba_marseille","lat":43.310642,"lon":5.383489,"is_reserved":false,"is_disabled":false,"rental_uris":{"android":"levelo://app?vid=195a3c08-b51e-480b-818f-9838d543d9ee","ios":"levelo://app?vid=195a3c08-b51e-480b-818f-9838d543d9ee"},"vehicle_type_id":"4","last_reported":1720386470,"current_range_meters":31200,"station_id":"ce4bgv92rcd13ifvqcr0","pricing_plan_id":"cebpf4jnsgd1na2vs0mg"},{"bike_id":"ee63a918-2d3d-42ca-9f22-74927ee221bd","system_id":"levelo_inurba_marseille","lat":43.3107,"lon":5.38353,"is_reserved":false,"is_disabled":false,"rental_uris":{"android":"levelo://app?vid=ee63a918-2d3d-42ca-9f22-74927ee221bd","ios":"levelo://app?vid=ee63a918-2d3d-42ca-9f22-74927ee221bd"},"vehicle_type_id":"4","last_reported":1720386470,"current_range_meters":31200,"station_id":"ce4bgv92rcd13ifvqcr0","pricing_plan_id":"cebpf4jnsgd1na2vs0mg"},{"bike_id":"5e65e1ab-ca2a-42e4-9304-26f733b45267","system_id":"levelo_inurba_marseille","lat":43.31068,"lon":5.38354,"is_reserved":false,"is_disabled":false,"rental_uris":{"android":"levelo://app?vid=5e65e1ab-ca2a-42e4-9304-26f733b45267","ios":"levelo://app?vid=5e65e1ab-ca2a-42e4-9304-26f733b45267"},"vehicle_type_id":"4","last_reported":1720386470,"current_range_meters":31200,"station_id":"ce4bgv92rcd13ifvqcr0","pricing_plan_id":"cebpf4jnsgd1na2vs0mg"},{"bike_id":"5a1a0cff-2035-4b78-86d8-8542cc8b3251","system_id":"levelo_inurba_marseille","lat":43.310804,"lon":5.38359,"is_reserved":false,"is_disabled":false,"rental_uris":{"android":"levelo://app?vid=5a1a0cff-2035-4b78-86d8-8542cc8b3251","ios":"levelo://app?vid=5a1a0cff-2035-4b78-86d8-8542cc8b3251"},"vehicle_type_id":"4","last_reported":1720386470,"current_range_meters":15200,"station_id":"ce4bgv92rcd13ifvqcr0","pricing_plan_id":"cebpf4jnsgd1na2vs0mg"},{"bike_id":"abc0b9d2-6e60-4aec-b500-8929d14ac59c","system_id":"levelo_inurba_marseille","lat":43.302784,"lon":5.377158,"is_reserved":false,"is_disabled":false,"rental_uris":{"android":"levelo://app?vid=abc0b9d2-6e60-4aec-b500-8929d14ac59c","ios":"levelo://app?vid=abc0b9d2-6e60-4aec-b500-8929d14ac59c"},"vehicle_type_id":"4","last_reported":1720386470,"current_range_meters":2400,"station_id":"ce4bguh2rcd13ifvqcj0","pricing_plan_id":"cebpf4jnsgd1na2vs0mg"},{"bike_id":"cf5d0a90-9669-4c05-b9fe-9d89b41377d5","system_id":"levelo_inurba_marseille","lat":43.310804,"lon":5.38359,"is_reserved":false,"is_disabled":false,"rental_uris":{"android":"levelo://app?vid=cf5d0a90-9669-4c05-b9fe-9d89b41377d5","ios":"levelo://app?vid=cf5d0a90-9669-4c05-b9fe-9d89b41377d5"},"vehicle_type_id":"4","last_reported":1720386470,"current_range_meters":20400,"station_id":"ce4bgv92rcd13ifvqcr0","pricing_plan_id":"cebpf4jnsgd1na2vs0mg"},{"bike_id":"a50d111f-4094-47fd-a535-640fa02acf7f","system_id":"levelo_inurba_marseille","lat":43.310689,"lon":5.383631,"is_reserved":false,"is_disabled":false,"rental_uris":{"android":"levelo://app?vid=a50d111f-4094-47fd-a535-640fa02acf7f","ios":"levelo://app?vid=a50d111f-4094-47fd-a535-640fa02acf7f"},"vehicle_type_id":"4","last_reported":1720386470,"current_range_meters":31200,"station_id":"ce4bgv92rcd13ifvqcr0","pricing_plan_id":"cebpf4jnsgd1na2vs0mg"},{"bike_id":"c358a589-a618-4367-9e03-4000f1f8e4ea","system_id":"levelo_inurba_marseille","lat":43.31072,"lon":5.38364,"is_reserved":false,"is_disabled":false,"rental_uris":{"android":"levelo://app?vid=c358a589-a618-4367-9e03-4000f1f8e4ea","ios":"levelo://app?vid=c358a589-a618-4367-9e03-4000f1f8e4ea"},"vehicle_type_id":"4","last_reported":1720386470,"current_range_meters":31200,"station_id":"ce4bgv92rcd13ifvqcr0","pricing_plan_id":"cebpf4jnsgd1na2vs0mg"},{"bike_id":"6b5d6ca5-8f40-4763-aca4-9e18f0ebea8c","system_id":"levelo_inurba_marseille","lat":43.31069,"lon":5.38368,"is_reserved":false,"is_disabled":false,"rental_uris":{"android":"levelo://app?vid=6b5d6ca5-8f40-4763-aca4-9e18f0ebea8c","ios":"levelo://app?vid=6b5d6ca5-8f40-4763-aca4-9e18f0ebea8c"},"vehicle_type_id":"4","last_reported":1720386470,"current_range_meters":31200,"station_id":"ce4bgv92rcd13ifvqcr0","pricing_plan_id":"cebpf4jnsgd1na2vs0mg"},{"bike_id":"a967142e-8536-40ec-af02-5811adc09cd8","system_id":"levelo_inurba_marseille","lat":43.30143,"lon":5.37413,"is_reserved":false,"is_disabled":false,"rental_uris":{"android":"levelo://app?vid=a967142e-8536-40ec-af02-5811adc09cd8","ios":"levelo://app?vid=a967142e-8536-40ec-af02-5811adc09cd8"},"vehicle_type_id":"4","last_reported":1720386470,"current_range_meters":23600,"station_id":"ce4bgs92rcd13ifvqcc0","pricing_plan_id":"cebpf4jnsgd1na2vs0mg"},{"bike_id":"b5cd3097-a6ef-41ec-a1a7-c8805e86ee68","system_id":"levelo_inurba_marseille","lat":43.30143,"lon":5.37413,"is_reserved":false,"is_disabled":false,"rental_uris":{"android":"levelo://app?vid=b5cd3097-a6ef-41ec-a1a7-c8805e86ee68","ios":"levelo://app?vid=b5cd3097-a6ef-41ec-a1a7-c8805e86ee68"},"vehicle_type_id":"4","last_reported":1720386470,"current_range_meters":18800,"station_id":"ce4bgs92rcd13ifvqcc0","pricing_plan_id":"cebpf4jnsgd1na2vs0mg"},{"bike_id":"432cf32f-db43-4a28-aca1-8cc3666d4bc4","system_id":"levelo_inurba_marseille","lat":43.301429,"lon":5.37413,"is_reserved":false,"is_disabled":false,"rental_uris":{"android":"levelo://app?vid=432cf32f-db43-4a28-aca1-8cc3666d4bc4","ios":"levelo://app?vid=432cf32f-db43-4a28-aca1-8cc3666d4bc4"},"vehicle_type_id":"4","last_reported":1720386470,"current_range_meters":21600,"station_id":"ce4bgs92rcd13ifvqcc0","pricing_plan_id":"cebpf4jnsgd1na2vs0mg"},{"bike_id":"0c357479-1584-4d7f-84aa-10343f8457a5","system_id":"levelo_inurba_marseille","lat":43.301429,"lon":5.37413,"is_reserved":false,"is_disabled":false,"rental_uris":{"android":"levelo://app?vid=0c357479-1584-4d7f-84aa-10343f8457a5","ios":"levelo://app?vid=0c357479-1584-4d7f-84aa-10343f8457a5"},"vehicle_type_id":"4","last_reported":1720386470,"current_range_meters":26400,"station_id":"ce4bgs92rcd13ifvqcc0","pricing_plan_id":"cebpf4jnsgd1na2vs0mg"},{"bike_id":"60698180-cbfb-4a01-a135-34bec1fd3fba","system_id":"levelo_inurba_marseille","lat":43.30121,"lon":5.37406,"is_reserved":false,"is_disabled":false,"rental_uris":{"android":"levelo://app?vid=60698180-cbfb-4a01-a135-34bec1fd3fba","ios":"levelo://app?vid=60698180-cbfb-4a01-a135-34bec1fd3fba"},"vehicle_type_id":"4","last_reported":1720386470,"current_range_meters":16400,"station_id":"ce4bgs92rcd13ifvqcc0","pricing_plan_id":"cebpf4jnsgd1na2vs0mg"},{"bike_id":"da2a053f-855b-453e-b26e-b576ae14143f","system_id":"levelo_inurba_marseille","lat":43.319935,"lon":5.381699,"is_reserved":false,"is_disabled":false,"rental_uris":{"android":"levelo://app?vid=da2a053f-855b-453e-b26e-b576ae14143f","ios":"levelo://app?vid=da2a053f-855b-453e-b26e-b576ae14143f"},"vehicle_type_id":"4","last_reported":1720386470,"current_range_meters":5200,"station_id":"ce4bhr12rcd13ifvqhpg","pricing_plan_id":"cebpf4jnsgd1na2vs0mg"},{"bike_id":"a51d1405-92dd-4eee-b7b5-af34f9798af4","system_id":"levelo_inurba_marseille","lat":43.319935,"lon":5.381699,"is_reserved":false,"is_disabled":false,"rental_uris":{"android":"levelo://app?vid=a51d1405-92dd-4eee-b7b5-af34f9798af4","ios":"levelo://app?vid=a51d1405-92dd-4eee-b7b5-af34f9798af4"},"vehicle_type_id":"4","last_reported":1720386470,"current_range_meters":19200,"station_id":"ce4bhr12rcd13ifvqhpg","pricing_plan_id":"cebpf4jnsgd1na2vs0mg"},{"bike_id":"17bef63e-691c-424c-962d-a160f2f29f9d","system_id":"levelo_inurba_marseille","lat":43.31365,"lon":5.38487,"is_reserved":false,"is_disabled":false,"rental_uris":{"android":"levelo://app?vid=17bef63e-691c-424c-962d-a160f2f29f9d","ios":"levelo://app?vid=17bef63e-691c-424c-962d-a160f2f29f9d"},"vehicle_type_id":"4","last_reported":1720386470,"current_range_meters":15600,"station_id":"ce4bgt92rcd13ifvqcf0","pricing_plan_id":"cebpf4jnsgd1na2vs0mg"},{"bike_id":"dabeb2c2-10f4-49ec-84b5-eb4ebc43f17a","system_id":"levelo_inurba_marseille","lat":43.30001,"lon":5.37177,"is_reserved":false,"is_disabled":false,"rental_uris":{"android":"levelo://app?vid=dabeb2c2-10f4-49ec-84b5-eb4ebc43f17a","ios":"levelo://app?vid=dabeb2c2-10f4-49ec-84b5-eb4ebc43f17a"},"vehicle_type_id":"4","last_reported":1720386470,"current_range_meters":2800,"station_id":"","pricing_plan_id":"cebpf4jnsgd1na2vs0mg"},{"bike_id":"5d94fc74-2425-48d9-9086-1ca7673e87d6","system_id":"levelo_inurba_marseille","lat":43.299222,"lon":5.365554,"is_reserved":false,"is_disabled":false,"rental_uris":{"android":"levelo://app?vid=5d94fc74-2425-48d9-9086-1ca7673e87d6","ios":"levelo://app?vid=5d94fc74-2425-48d9-9086-1ca7673e87d6"},"vehicle_type_id":"4","last_reported":1720386470,"current_range_meters":25200,"station_id":"ce4bgm92rcd13ifvqbr0","pricing_plan_id":"cebpf4jnsgd1na2vs0mg"},{"bike_id":"e57b648f-0b55-4974-81e2-4c1af92d87c6","system_id":"levelo_inurba_marseille","lat":43.299724,"lon":5.371829,"is_reserved":false,"is_disabled":false,"rental_uris":{"android":"levelo://app?vid=e57b648f-0b55-4974-81e2-4c1af92d87c6","ios":"levelo://app?vid=e57b648f-0b55-4974-81e2-4c1af92d87c6"},"vehicle_type_id":"4","last_reported":1720386470,"current_range_meters":3200,"station_id":"ce4bgr92rcd13ifvqc7g","pricing_plan_id":"cebpf4jnsgd1na2vs0mg"},{"bike_id":"214fbd2b-fbe7-4d92-9f0b-13330c50d503","system_id":"levelo_inurba_marseille","lat":43.299724,"lon":5.371829,"is_reserved":false,"is_disabled":false,"rental_uris":{"android":"levelo://app?vid=214fbd2b-fbe7-4d92-9f0b-13330c50d503","ios":"levelo://app?vid=214fbd2b-fbe7-4d92-9f0b-13330c50d503"},"vehicle_type_id":"4","last_reported":1720386470,"current_range_meters":0,"station_id":"ce4bgr92rcd13ifvqc7g","pricing_plan_id":"cebpf4jnsgd1na2vs0mg"},{"bike_id":"cd8e2af7-4061-47df-9237-4b2eaf9659c0","system_id":"levelo_inurba_marseille","lat":43.299243,"lon":5.37481,"is_reserved":false,"is_disabled":false,"rental_uris":{"android":"levelo://app?vid=cd8e2af7-4061-47df-9237-4b2eaf9659c0","ios":"levelo://app?vid=cd8e2af7-4061-47df-9237-4b2eaf9659c0"},"vehicle_type_id":"4","last_reported":1720386470,"current_range_meters":800,"station_id":"ce4bgjh2rcd13ifvqbg0","pricing_plan_id":"cebpf4jnsgd1na2vs0mg"},{"bike_id":"c70155b5-0b43-44c5-b0ef-33aa9f4e81d1","system_id":"levelo_inurba_marseille","lat":43.29933,"lon":5.37525,"is_reserved":false,"is_disabled":false,"rental_uris":{"android":"levelo://app?vid=c70155b5-0b43-44c5-b0ef-33aa9f4e81d1","ios":"levelo://app?vid=c70155b5-0b43-44c5-b0ef-33aa9f4e81d1"},"vehicle_type_id":"4","last_reported":1720386470,"current_range_meters":30800,"station_id":"","pricing_plan_id":"cebpf4jnsgd1na2vs0mg"},{"bike_id":"f32d9efc-ffc9-4834-8ae5-e64c0dfdbbc3","system_id":"levelo_inurba_marseille","lat":43.311722,"lon":5.387247,"is_reserved":false,"is_disabled":false,"rental_uris":{"android":"levelo://app?vid=f32d9efc-ffc9-4834-8ae5-e64c0dfdbbc3","ios":"levelo://app?vid=f32d9efc-ffc9-4834-8ae5-e64c0dfdbbc3"},"vehicle_type_id":"4","last_reported":1720386470,"current_range_meters":12400,"station_id":"ce4bgv12rcd13ifvqcp0","pricing_plan_id":"cebpf4jnsgd1na2vs0mg"},{"bike_id":"7e7c1335-228d-4e1e-8b26-9ffc1f6e7bc9","system_id":"levelo_inurba_marseille","lat":43.311722,"lon":5.387247,"is_reserved":false,"is_disabled":false,"rental_uris":{"android":"levelo://app?vid=7e7c1335-228d-4e1e-8b26-9ffc1f6e7bc9","ios":"levelo://app?vid=7e7c1335-228d-4e1e-8b26-9ffc1f6e7bc9"},"vehicle_type_id":"4","last_reported":1720386470,"current_range_meters":400,"station_id":"ce4bgv12rcd13ifvqcp0","pricing_plan_id":"cebpf4jnsgd1na2vs0mg"},{"bike_id":"4d2ee2dc-0ac0-4836-8c4a-10517217dd43","system_id":"levelo_inurba_marseille","lat":43.297774,"lon":5.370875,"is_reserved":false,"is_disabled":false,"rental_uris":{"android":"levelo://app?vid=4d2ee2dc-0ac0-4836-8c4a-10517217dd43","ios":"levelo://app?vid=4d2ee2dc-0ac0-4836-8c4a-10517217dd43"},"vehicle_type_id":"4","last_reported":1720386470,"current_range_meters":0,"station_id":"ce4bgop2rcd13ifvqc1g","pricing_plan_id":"cebpf4jnsgd1na2vs0mg"},{"bike_id":"49e3571a-b01d-4c86-b893-ba18e3ad9508","system_id":"levelo_inurba_marseille","lat":43.322872,"lon":5.382756,"is_reserved":false,"is_disabled":false,"rental_uris":{"android":"levelo://app?vid=49e3571a-b01d-4c86-b893-ba18e3ad9508","ios":"levelo://app?vid=49e3571a-b01d-4c86-b893-ba18e3ad9508"},"vehicle_type_id":"4","last_reported":1720386470,"current_range_meters":17200,"station_id":"ce4bhr12rcd13ifvqhqg","pricing_plan_id":"cebpf4jnsgd1na2vs0mg"},{"bike_id":"cb45df06-48d5-4661-8941-316fba32e57f","system_id":"levelo_inurba_marseille","lat":43.297163,"lon":5.365866,"is_reserved":false,"is_disabled":false,"rental_uris":{"android":"levelo://app?vid=cb45df06-48d5-4661-8941-316fba32e57f","ios":"levelo://app?vid=cb45df06-48d5-4661-8941-316fba32e57f"},"vehicle_type_id":"4","last_reported":1720386470,"current_range_meters":14400,"station_id":"ce4bgn12rcd13ifvqbt0","pricing_plan_id":"cebpf4jnsgd1na2vs0mg"},{"bike_id":"280525b4-850d-4349-9c72-4f70d3424eeb","system_id":"levelo_inurba_marseille","lat":43.32725,"lon":5.37844,"is_reserved":false,"is_disabled":false,"rental_uris":{"android":"levelo://app?vid=280525b4-850d-4349-9c72-4f70d3424eeb","ios":"levelo://app?vid=280525b4-850d-4349-9c72-4f70d3424eeb"},"vehicle_type_id":"4","last_reported":1720386470,"current_range_meters":1200,"station_id":"","pricing_plan_id":"cebpf4jnsgd1na2vs0mg"},{"bike_id":"c946225b-d10c-468f-8862-33bbe15fe732","system_id":"levelo_inurba_marseille","lat":43.29573,"lon":5.367355,"is_reserved":false,"is_disabled":false,"rental_uris":{"android":"levelo://app?vid=c946225b-d10c-468f-8862-33bbe15fe732","ios":"levelo://app?vid=c946225b-d10c-468f-8862-33bbe15fe732"},"vehicle_type_id":"4","last_reported":1720386470,"current_range_meters":10000,"station_id":"ce4bgph2rcd13ifvqc2g","pricing_plan_id":"cebpf4jnsgd1na2vs0mg"},{"bike_id":"9f3ea985-e211-4d4a-b488-03a07e044959","system_id":"levelo_inurba_marseille","lat":43.2957,"lon":5.36749,"is_reserved":false,"is_disabled":false,"rental_uris":{"android":"levelo://app?vid=9f3ea985-e211-4d4a-b488-03a07e044959","ios":"levelo://app?vid=9f3ea985-e211-4d4a-b488-03a07e044959"},"vehicle_type_id":"4","last_reported":1720386470,"current_range_meters":400,"station_id":"","pricing_plan_id":"cebpf4jnsgd1na2vs0mg"},{"bike_id":"4690da17-6285-428f-9367-0a412594c897","system_id":"levelo_inurba_marseille","lat":43.296921,"lon":5.376579,"is_reserved":false,"is_disabled":false,"rental_uris":{"android":"levelo://app?vid=4690da17-6285-428f-9367-0a412594c897","ios":"levelo://app?vid=4690da17-6285-428f-9367-0a412594c897"},"vehicle_type_id":"4","last_reported":1720386470,"current_range_meters":19200,"station_id":"ce4bgkh2rcd13ifvqbl0","pricing_plan_id":"cebpf4jnsgd1na2vs0mg"},{"bike_id":"1e30c80d-04b8-43f4-8075-c5da2b19f16b","system_id":"levelo_inurba_marseille","lat":43.309589,"lon":5.390258,"is_reserved":false,"is_disabled":false,"rental_uris":{"android":"levelo://app?vid=1e30c80d-04b8-43f4-8075-c5da2b19f16b","ios":"levelo://app?vid=1e30c80d-04b8-43f4-8075-c5da2b19f16b"},"vehicle_type_id":"4","last_reported":1720386470,"current_range_meters":24000,"station_id":"ce4bgup2rcd13ifvqco0","pricing_plan_id":"cebpf4jnsgd1na2vs0mg"},{"bike_id":"d56cbb78-17df-4dee-a809-6ac15d40529e","system_id":"levelo_inurba_marseille","lat":43.299028,"lon":5.381509,"is_reserved":false,"is_disabled":false,"rental_uris":{"android":"levelo://app?vid=d56cbb78-17df-4dee-a809-6ac15d40529e","ios":"levelo://app?vid=d56cbb78-17df-4dee-a809-6ac15d40529e"},"vehicle_type_id":"4","last_reported":1720386470,"current_range_meters":22000,"station_id":"ce4bgj12rcd13ifvqbc0","pricing_plan_id":"cebpf4jnsgd1na2vs0mg"},{"bike_id":"1c266d41-c43a-4841-a245-4c012d72cd84","system_id":"levelo_inurba_marseille","lat":43.299028,"lon":5.381509,"is_reserved":false,"is_disabled":false,"rental_uris":{"android":"levelo://app?vid=1c266d41-c43a-4841-a245-4c012d72cd84","ios":"levelo://app?vid=1c266d41-c43a-4841-a245-4c012d72cd84"},"vehicle_type_id":"4","last_reported":1720386470,"current_range_meters":0,"station_id":"ce4bgj12rcd13ifvqbc0","pricing_plan_id":"cebpf4jnsgd1na2vs0mg"},{"bike_id":"9a5bec9c-e64c-41bc-b35a-d2573d10da0a","system_id":"levelo_inurba_marseille","lat":43.309589,"lon":5.390258,"is_reserved":false,"is_disabled":false,"rental_uris":{"android":"levelo://app?vid=9a5bec9c-e64c-41bc-b35a-d2573d10da0a","ios":"levelo://app?vid=9a5bec9c-e64c-41bc-b35a-d2573d10da0a"},"vehicle_type_id":"4","last_reported":1720386470,"current_range_meters":18400,"station_id":"ce4bgup2rcd13ifvqco0","pricing_plan_id":"cebpf4jnsgd1na2vs0mg"},{"bike_id":"2bb31537-da0f-4e5b-b44c-17f8532f630a","system_id":"levelo_inurba_marseille","lat":43.317557,"lon":5.390173,"is_reserved":false,"is_disabled":false,"rental_uris":{"android":"levelo://app?vid=2bb31537-da0f-4e5b-b44c-17f8532f630a","ios":"levelo://app?vid=2bb31537-da0f-4e5b-b44c-17f8532f630a"},"vehicle_type_id":"4","last_reported":1720386470,"current_range_meters":7200,"station_id":"ce4bhqp2rcd13ifvqhng","pricing_plan_id":"cebpf4jnsgd1na2vs0mg"},{"bike_id":"d4835303-fa11-4a57-8c14-68c0dba783cf","system_id":"levelo_inurba_marseille","lat":43.317557,"lon":5.390173,"is_reserved":false,"is_disabled":false,"rental_uris":{"android":"levelo://app?vid=d4835303-fa11-4a57-8c14-68c0dba783cf","ios":"levelo://app?vid=d4835303-fa11-4a57-8c14-68c0dba783cf"},"vehicle_type_id":"4","last_reported":1720386470,"current_range_meters":21200,"station_id":"ce4bhqp2rcd13ifvqhng","pricing_plan_id":"cebpf4jnsgd1na2vs0mg"},{"bike_id":"7c880efa-150d-4b22-bfc2-1a028df84ec6","system_id":"levelo_inurba_marseille","lat":43.31757,"lon":5.3902,"is_reserved":false,"is_disabled":false,"rental_uris":{"android":"levelo://app?vid=7c880efa-150d-4b22-bfc2-1a028df84ec6","ios":"levelo://app?vid=7c880efa-150d-4b22-bfc2-1a028df84ec6"},"vehicle_type_id":"4","last_reported":1720386470,"current_range_meters":0,"station_id":"ce4bhqp2rcd13ifvqhng","pricing_plan_id":"cebpf4jnsgd1na2vs0mg"},{"bike_id":"6ef3a2da-6ce4-488f-909a-a07b57f79665","system_id":"levelo_inurba_marseille","lat":43.304274,"lon":5.388873,"is_reserved":false,"is_disabled":false,"rental_uris":{"android":"levelo://app?vid=6ef3a2da-6ce4-488f-909a-a07b57f79665","ios":"levelo://app?vid=6ef3a2da-6ce4-488f-909a-a07b57f79665"},"vehicle_type_id":"4","last_reported":1720386470,"current_range_meters":6000,"station_id":"ce4bgk12rcd13ifvqbi0","pricing_plan_id":"cebpf4jnsgd1na2vs0mg"},{"bike_id":"ad591a0b-7e37-4d4b-9f59-ba8fd1ea2431","system_id":"levelo_inurba_marseille","lat":43.29616,"lon":5.37714,"is_reserved":false,"is_disabled":false,"rental_uris":{"android":"levelo://app?vid=ad591a0b-7e37-4d4b-9f59-ba8fd1ea2431","ios":"levelo://app?vid=ad591a0b-7e37-4d4b-9f59-ba8fd1ea2431"},"vehicle_type_id":"4","last_reported":1720386470,"current_range_meters":0,"station_id":"ce4bgi92rcd13ifvqb90","pricing_plan_id":"cebpf4jnsgd1na2vs0mg"},{"bike_id":"ed5b8b72-b74b-4e77-bd08-33e840e1ea4d","system_id":"levelo_inurba_marseille","lat":43.29619,"lon":5.37725,"is_reserved":false,"is_disabled":false,"rental_uris":{"android":"levelo://app?vid=ed5b8b72-b74b-4e77-bd08-33e840e1ea4d","ios":"levelo://app?vid=ed5b8b72-b74b-4e77-bd08-33e840e1ea4d"},"vehicle_type_id":"4","last_reported":1720386470,"current_range_meters":31200,"station_id":"ce4bgi92rcd13ifvqb90","pricing_plan_id":"cebpf4jnsgd1na2vs0mg"},{"bike_id":"7c09cfcc-a527-46d5-a5eb-1298541ac246","system_id":"levelo_inurba_marseille","lat":43.299747,"lon":5.384857,"is_reserved":false,"is_disabled":false,"rental_uris":{"android":"levelo://app?vid=7c09cfcc-a527-46d5-a5eb-1298541ac246","ios":"levelo://app?vid=7c09cfcc-a527-46d5-a5eb-1298541ac246"},"vehicle_type_id":"4","last_reported":1720386470,"current_range_meters":0,"station_id":"ce4bgj92rcd13ifvqbd0","pricing_plan_id":"cebpf4jnsgd1na2vs0mg"},{"bike_id":"2a769ce5-6b5e-4ef0-a197-46e5e7cac619","system_id":"levelo_inurba_marseille","lat":43.296263,"lon":5.377094,"is_reserved":false,"is_disabled":false,"rental_uris":{"android":"levelo://app?vid=2a769ce5-6b5e-4ef0-a197-46e5e7cac619","ios":"levelo://app?vid=2a769ce5-6b5e-4ef0-a197-46e5e7cac619"},"vehicle_type_id":"4","last_reported":1720386470,"current_range_meters":28000,"station_id":"ce4bgi92rcd13ifvqb90","pricing_plan_id":"cebpf4jnsgd1na2vs0mg"},{"bike_id":"f498228c-03c3-4119-b8f3-a8e398827439","system_id":"levelo_inurba_marseille","lat":43.295279,"lon":5.375048,"is_reserved":false,"is_disabled":false,"rental_uris":{"android":"levelo://app?vid=f498228c-03c3-4119-b8f3-a8e398827439","ios":"levelo://app?vid=f498228c-03c3-4119-b8f3-a8e398827439"},"vehicle_type_id":"4","last_reported":1720386470,"current_range_meters":8800,"station_id":"ce4bgkp2rcd13ifvqbmg","pricing_plan_id":"cebpf4jnsgd1na2vs0mg"},{"bike_id":"b67cd37f-050c-4802-aafd-51fe759e9042","system_id":"levelo_inurba_marseille","lat":43.32358,"lon":5.38879,"is_reserved":false,"is_disabled":false,"rental_uris":{"android":"levelo://app?vid=b67cd37f-050c-4802-aafd-51fe759e9042","ios":"levelo://app?vid=b67cd37f-050c-4802-aafd-51fe759e9042"},"vehicle_type_id":"4","last_reported":1720386470,"current_range_meters":0,"station_id":"ce4bhqp2rcd13ifvqhog","pricing_plan_id":"cebpf4jnsgd1na2vs0mg"},{"bike_id":"ce2b170c-f212-4cad-914d-78e2f9970b4c","system_id":"levelo_inurba_marseille","lat":43.32367,"lon":5.388836,"is_reserved":false,"is_disabled":false,"rental_uris":{"android":"levelo://app?vid=ce2b170c-f212-4cad-914d-78e2f9970b4c","ios":"levelo://app?vid=ce2b170c-f212-4cad-914d-78e2f9970b4c"},"vehicle_type_id":"4","last_reported":1720386470,"current_range_meters":31200,"station_id":"ce4bhqp2rcd13ifvqhog","pricing_plan_id":"cebpf4jnsgd1na2vs0mg"},{"bike_id":"a863fd52-68de-42c4-ac2b-dccf6ae07fdd","system_id":"levelo_inurba_marseille","lat":43.32364,"lon":5.38881,"is_reserved":false,"is_disabled":false,"rental_uris":{"android":"levelo://app?vid=a863fd52-68de-42c4-ac2b-dccf6ae07fdd","ios":"levelo://app?vid=a863fd52-68de-42c4-ac2b-dccf6ae07fdd"},"vehicle_type_id":"4","last_reported":1720386470,"current_range_meters":6000,"station_id":"ce4bhqp2rcd13ifvqhog","pricing_plan_id":"cebpf4jnsgd1na2vs0mg"},{"bike_id":"5b7ef8f9-ea74-418d-ab98-6c471f6e84ea","system_id":"levelo_inurba_marseille","lat":43.32367,"lon":5.388836,"is_reserved":false,"is_disabled":false,"rental_uris":{"android":"levelo://app?vid=5b7ef8f9-ea74-418d-ab98-6c471f6e84ea","ios":"levelo://app?vid=5b7ef8f9-ea74-418d-ab98-6c471f6e84ea"},"vehicle_type_id":"4","last_reported":1720386470,"current_range_meters":0,"station_id":"ce4bhqp2rcd13ifvqhog","pricing_plan_id":"cebpf4jnsgd1na2vs0mg"},{"bike_id":"b3a2fc60-421e-4441-9ae8-3247e65af9e9","system_id":"levelo_inurba_marseille","lat":43.32367,"lon":5.388836,"is_reserved":false,"is_disabled":false,"rental_uris":{"android":"levelo://app?vid=b3a2fc60-421e-4441-9ae8-3247e65af9e9","ios":"levelo://app?vid=b3a2fc60-421e-4441-9ae8-3247e65af9e9"},"vehicle_type_id":"4","last_reported":1720386470,"current_range_meters":28000,"station_id":"ce4bhqp2rcd13ifvqhog","pricing_plan_id":"cebpf4jnsgd1na2vs0mg"},{"bike_id":"cb84ed93-0804-4e87-b356-e5f8a858f7b8","system_id":"levelo_inurba_marseille","lat":43.32367,"lon":5.388836,"is_reserved":false,"is_disabled":false,"rental_uris":{"android":"levelo://app?vid=cb84ed93-0804-4e87-b356-e5f8a858f7b8","ios":"levelo://app?vid=cb84ed93-0804-4e87-b356-e5f8a858f7b8"},"vehicle_type_id":"4","last_reported":1720386470,"current_range_meters":31200,"station_id":"ce4bhqp2rcd13ifvqhog","pricing_plan_id":"cebpf4jnsgd1na2vs0mg"},{"bike_id":"5718ee7b-fe02-43a8-9061-2101ff3dd99d","system_id":"levelo_inurba_marseille","lat":43.29602,"lon":5.381084,"is_reserved":false,"is_disabled":false,"rental_uris":{"android":"levelo://app?vid=5718ee7b-fe02-43a8-9061-2101ff3dd99d","ios":"levelo://app?vid=5718ee7b-fe02-43a8-9061-2101ff3dd99d"},"vehicle_type_id":"4","last_reported":1720386470,"current_range_meters":0,"station_id":"ce4bgl12rcd13ifvqbo0","pricing_plan_id":"cebpf4jnsgd1na2vs0mg"},{"bike_id":"156f5cc0-0d57-4960-96de-5edafdf1adce","system_id":"levelo_inurba_marseille","lat":43.29595,"lon":5.38094,"is_reserved":false,"is_disabled":false,"rental_uris":{"android":"levelo://app?vid=156f5cc0-0d57-4960-96de-5edafdf1adce","ios":"levelo://app?vid=156f5cc0-0d57-4960-96de-5edafdf1adce"},"vehicle_type_id":"4","last_reported":1720386470,"current_range_meters":3200,"station_id":"ce4bgl12rcd13ifvqbo0","pricing_plan_id":"cebpf4jnsgd1na2vs0mg"},{"bike_id":"987c835e-f188-4e1a-b486-f6dc1329421d","system_id":"levelo_inurba_marseille","lat":43.2959,"lon":5.38098,"is_reserved":false,"is_disabled":false,"rental_uris":{"android":"levelo://app?vid=987c835e-f188-4e1a-b486-f6dc1329421d","ios":"levelo://app?vid=987c835e-f188-4e1a-b486-f6dc1329421d"},"vehicle_type_id":"4","last_reported":1720386470,"current_range_meters":0,"station_id":"ce4bgl12rcd13ifvqbo0","pricing_plan_id":"cebpf4jnsgd1na2vs0mg"},{"bike_id":"7adb48d7-16cd-4016-b75f-8a9106f978a1","system_id":"levelo_inurba_marseille","lat":43.29273,"lon":5.36845,"is_reserved":false,"is_disabled":false,"rental_uris":{"android":"levelo://app?vid=7adb48d7-16cd-4016-b75f-8a9106f978a1","ios":"levelo://app?vid=7adb48d7-16cd-4016-b75f-8a9106f978a1"},"vehicle_type_id":"4","last_reported":1720386470,"current_range_meters":22800,"station_id":"ce4bhbp2rcd13ifvqesg","pricing_plan_id":"cebpf4jnsgd1na2vs0mg"},{"bike_id":"a18f3fd0-6c1f-423e-9646-a4b7e6de3226","system_id":"levelo_inurba_marseille","lat":43.29272,"lon":5.36839,"is_reserved":false,"is_disabled":false,"rental_uris":{"android":"levelo://app?vid=a18f3fd0-6c1f-423e-9646-a4b7e6de3226","ios":"levelo://app?vid=a18f3fd0-6c1f-423e-9646-a4b7e6de3226"},"vehicle_type_id":"4","last_reported":1720386470,"current_range_meters":0,"station_id":"ce4bhbp2rcd13ifvqesg","pricing_plan_id":"cebpf4jnsgd1na2vs0mg"},{"bike_id":"ef427f18-4f2c-4b5d-8d21-85ec69050447","system_id":"levelo_inurba_marseille","lat":43.29305,"lon":5.37458,"is_reserved":false,"is_disabled":false,"rental_uris":{"android":"levelo://app?vid=ef427f18-4f2c-4b5d-8d21-85ec69050447","ios":"levelo://app?vid=ef427f18-4f2c-4b5d-8d21-85ec69050447"},"vehicle_type_id":"4","last_reported":1720386470,"current_range_meters":0,"station_id":"ce4bgi12rcd13ifvqb70","pricing_plan_id":"cebpf4jnsgd1na2vs0mg"},{"bike_id":"c27e8371-e4ec-464e-9bda-f15a4285f366","system_id":"levelo_inurba_marseille","lat":43.29234,"lon":5.36416,"is_reserved":false,"is_disabled":false,"rental_uris":{"android":"levelo://app?vid=c27e8371-e4ec-464e-9bda-f15a4285f366","ios":"levelo://app?vid=c27e8371-e4ec-464e-9bda-f15a4285f366"},"vehicle_type_id":"4","last_reported":1720386470,"current_range_meters":1200,"station_id":"","pricing_plan_id":"cebpf4jnsgd1na2vs0mg"},{"bike_id":"d727e9e2-37ff-4a05-a33a-5c299610acdd","system_id":"levelo_inurba_marseille","lat":43.289363,"lon":5.396322,"is_reserved":false,"is_disabled":false,"rental_uris":{"android":"levelo://app?vid=d727e9e2-37ff-4a05-a33a-5c299610acdd","ios":"levelo://app?vid=d727e9e2-37ff-4a05-a33a-5c299610acdd"},"vehicle_type_id":"4","last_reported":1720386470,"current_range_meters":3200,"station_id":"ce4bh3h2rcd13ifvqdn0","pricing_plan_id":"cebpf4jnsgd1na2vs0mg"},{"bike_id":"bb0773a6-6ba5-46cc-a5b9-ad06fb9d11b1","system_id":"levelo_inurba_marseille","lat":43.291675,"lon":5.371583,"is_reserved":false,"is_disabled":false,"rental_uris":{"android":"levelo://app?vid=bb0773a6-6ba5-46cc-a5b9-ad06fb9d11b1","ios":"levelo://app?vid=bb0773a6-6ba5-46cc-a5b9-ad06fb9d11b1"},"vehicle_type_id":"4","last_reported":1720386470,"current_range_meters":1200,"station_id":"ce4bha92rcd13ifvqeh0","pricing_plan_id":"cebpf4jnsgd1na2vs0mg"},{"bike_id":"426ef95b-3b7a-49dc-8b54-e7a969bf1656","system_id":"levelo_inurba_marseille","lat":43.298764,"lon":5.388973,"is_reserved":false,"is_disabled":false,"rental_uris":{"android":"levelo://app?vid=426ef95b-3b7a-49dc-8b54-e7a969bf1656","ios":"levelo://app?vid=426ef95b-3b7a-49dc-8b54-e7a969bf1656"},"vehicle_type_id":"4","last_reported":1720386470,"current_range_meters":4000,"station_id":"ce4bh392rcd13ifvqdl0","pricing_plan_id":"cebpf4jnsgd1na2vs0mg"},{"bike_id":"adccf49b-0f0b-4068-ae31-4c72877f90a0","system_id":"levelo_inurba_marseille","lat":43.313291,"lon":5.396838,"is_reserved":false,"is_disabled":false,"rental_uris":{"android":"levelo://app?vid=adccf49b-0f0b-4068-ae31-4c72877f90a0","ios":"levelo://app?vid=adccf49b-0f0b-4068-ae31-4c72877f90a0"},"vehicle_type_id":"4","last_reported":1720386470,"current_range_meters":15200,"station_id":"ce4bgvp2rcd13ifvqcu0","pricing_plan_id":"cebpf4jnsgd1na2vs0mg"},{"bike_id":"fa3a54ab-49c9-4e93-82cf-e1779ff332c7","system_id":"levelo_inurba_marseille","lat":43.313291,"lon":5.396838,"is_reserved":false,"is_disabled":false,"rental_uris":{"android":"levelo://app?vid=fa3a54ab-49c9-4e93-82cf-e1779ff332c7","ios":"levelo://app?vid=fa3a54ab-49c9-4e93-82cf-e1779ff332c7"},"vehicle_type_id":"4","last_reported":1720386470,"current_range_meters":24000,"station_id":"ce4bgvp2rcd13ifvqcu0","pricing_plan_id":"cebpf4jnsgd1na2vs0mg"},{"bike_id":"615d1db0-d48e-49b4-8bfa-8dd5a2ef3fd0","system_id":"levelo_inurba_marseille","lat":43.309047,"lon":5.396551,"is_reserved":false,"is_disabled":false,"rental_uris":{"android":"levelo://app?vid=615d1db0-d48e-49b4-8bfa-8dd5a2ef3fd0","ios":"levelo://app?vid=615d1db0-d48e-49b4-8bfa-8dd5a2ef3fd0"},"vehicle_type_id":"4","last_reported":1720386470,"current_range_meters":2400,"station_id":"ce4bh012rcd13ifvqcv0","pricing_plan_id":"cebpf4jnsgd1na2vs0mg"},{"bike_id":"2be131e2-2971-4429-8069-7fed1e2404ae","system_id":"levelo_inurba_marseille","lat":43.309047,"lon":5.396551,"is_reserved":false,"is_disabled":false,"rental_uris":{"android":"levelo://app?vid=2be131e2-2971-4429-8069-7fed1e2404ae","ios":"levelo://app?vid=2be131e2-2971-4429-8069-7fed1e2404ae"},"vehicle_type_id":"4","last_reported":1720386470,"current_range_meters":28000,"station_id":"ce4bh012rcd13ifvqcv0","pricing_plan_id":"cebpf4jnsgd1na2vs0mg"},{"bike_id":"60abbcb0-50fd-436d-9ade-7ad5c7a734b3","system_id":"levelo_inurba_marseille","lat":43.309038,"lon":5.396546,"is_reserved":false,"is_disabled":false,"rental_uris":{"android":"levelo://app?vid=60abbcb0-50fd-436d-9ade-7ad5c7a734b3","ios":"levelo://app?vid=60abbcb0-50fd-436d-9ade-7ad5c7a734b3"},"vehicle_type_id":"4","last_reported":1720386470,"current_range_meters":22800,"station_id":"ce4bh012rcd13ifvqcv0","pricing_plan_id":"cebpf4jnsgd1na2vs0mg"},{"bike_id":"8d8f9069-8bfd-481d-8e16-2d4c8418d755","system_id":"levelo_inurba_marseille","lat":43.309038,"lon":5.396546,"is_reserved":false,"is_disabled":false,"rental_uris":{"android":"levelo://app?vid=8d8f9069-8bfd-481d-8e16-2d4c8418d755","ios":"levelo://app?vid=8d8f9069-8bfd-481d-8e16-2d4c8418d755"},"vehicle_type_id":"4","last_reported":1720386470,"current_range_meters":20800,"station_id":"ce4bh012rcd13ifvqcv0","pricing_plan_id":"cebpf4jnsgd1na2vs0mg"},{"bike_id":"3b7b064c-6d91-472b-9aaf-0044f7b21830","system_id":"levelo_inurba_marseille","lat":43.309038,"lon":5.396546,"is_reserved":false,"is_disabled":false,"rental_uris":{"android":"levelo://app?vid=3b7b064c-6d91-472b-9aaf-0044f7b21830","ios":"levelo://app?vid=3b7b064c-6d91-472b-9aaf-0044f7b21830"},"vehicle_type_id":"4","last_reported":1720386470,"current_range_meters":16400,"station_id":"ce4bh012rcd13ifvqcv0","pricing_plan_id":"cebpf4jnsgd1na2vs0mg"},{"bike_id":"6f1c13d0-5816-495b-82d7-1185e778d44a","system_id":"levelo_inurba_marseille","lat":43.29529,"lon":5.385581,"is_reserved":false,"is_disabled":false,"rental_uris":{"android":"levelo://app?vid=6f1c13d0-5816-495b-82d7-1185e778d44a","ios":"levelo://app?vid=6f1c13d0-5816-495b-82d7-1185e778d44a"},"vehicle_type_id":"4","last_reported":1720386470,"current_range_meters":22400,"station_id":"ce4bgih2rcd13ifvqba0","pricing_plan_id":"cebpf4jnsgd1na2vs0mg"},{"bike_id":"81233ff7-cefa-49c2-bebb-9c870889349a","system_id":"levelo_inurba_marseille","lat":43.30228,"lon":5.39485,"is_reserved":false,"is_disabled":false,"rental_uris":{"android":"levelo://app?vid=81233ff7-cefa-49c2-bebb-9c870889349a","ios":"levelo://app?vid=81233ff7-cefa-49c2-bebb-9c870889349a"},"vehicle_type_id":"4","last_reported":1720386470,"current_range_meters":2000,"station_id":"ce4bh0p2rcd13ifvqd70","pricing_plan_id":"cebpf4jnsgd1na2vs0mg"},{"bike_id":"8f702476-82c4-459d-8739-4837c0ea4cb4","system_id":"levelo_inurba_marseille","lat":43.29041,"lon":5.35913,"is_reserved":false,"is_disabled":false,"rental_uris":{"android":"levelo://app?vid=8f702476-82c4-459d-8739-4837c0ea4cb4","ios":"levelo://app?vid=8f702476-82c4-459d-8739-4837c0ea4cb4"},"vehicle_type_id":"4","last_reported":1720386470,"current_range_meters":0,"station_id":"ce4bha92rcd13ifvqeg0","pricing_plan_id":"cebpf4jnsgd1na2vs0mg"},{"bike_id":"2608441f-bf3e-4d9c-84ca-5c98bc75c3f7","system_id":"levelo_inurba_marseille","lat":43.29413,"lon":5.38628,"is_reserved":false,"is_disabled":false,"rental_uris":{"android":"levelo://app?vid=2608441f-bf3e-4d9c-84ca-5c98bc75c3f7","ios":"levelo://app?vid=2608441f-bf3e-4d9c-84ca-5c98bc75c3f7"},"vehicle_type_id":"4","last_reported":1720386470,"current_range_meters":0,"station_id":"ce4bh2h2rcd13ifvqdh0","pricing_plan_id":"cebpf4jnsgd1na2vs0mg"},{"bike_id":"fb85b5a2-63d6-4d0b-93db-12c012b862dd","system_id":"levelo_inurba_marseille","lat":43.289184,"lon":5.366408,"is_reserved":false,"is_disabled":false,"rental_uris":{"android":"levelo://app?vid=fb85b5a2-63d6-4d0b-93db-12c012b862dd","ios":"levelo://app?vid=fb85b5a2-63d6-4d0b-93db-12c012b862dd"},"vehicle_type_id":"4","last_reported":1720386470,"current_range_meters":0,"station_id":"ce4bhap2rcd13ifvqek0","pricing_plan_id":"cebpf4jnsgd1na2vs0mg"},{"bike_id":"ada25ea0-8a0b-43e1-b25b-43c18631af48","system_id":"levelo_inurba_marseille","lat":43.28937,"lon":5.36627,"is_reserved":false,"is_disabled":false,"rental_uris":{"android":"levelo://app?vid=ada25ea0-8a0b-43e1-b25b-43c18631af48","ios":"levelo://app?vid=ada25ea0-8a0b-43e1-b25b-43c18631af48"},"vehicle_type_id":"4","last_reported":1720386470,"current_range_meters":0,"station_id":"ce4bhap2rcd13ifvqek0","pricing_plan_id":"cebpf4jnsgd1na2vs0mg"},{"bike_id":"e8efdb41-3e8b-4a38-8bd8-c5ebcdf1798f","system_id":"levelo_inurba_marseille","lat":43.289468,"lon":5.363719,"is_reserved":false,"is_disabled":false,"rental_uris":{"android":"levelo://app?vid=e8efdb41-3e8b-4a38-8bd8-c5ebcdf1798f","ios":"levelo://app?vid=e8efdb41-3e8b-4a38-8bd8-c5ebcdf1798f"},"vehicle_type_id":"4","last_reported":1720386470,"current_range_meters":0,"station_id":"ce4bhc92rcd13ifvqetg","pricing_plan_id":"cebpf4jnsgd1na2vs0mg"},{"bike_id":"078bed90-b0ad-4f83-9eea-38b181751131","system_id":"levelo_inurba_marseille","lat":43.31259,"lon":5.39944,"is_reserved":false,"is_disabled":false,"rental_uris":{"android":"levelo://app?vid=078bed90-b0ad-4f83-9eea-38b181751131","ios":"levelo://app?vid=078bed90-b0ad-4f83-9eea-38b181751131"},"vehicle_type_id":"4","last_reported":1720386470,"current_range_meters":800,"station_id":"","pricing_plan_id":"cebpf4jnsgd1na2vs0mg"},{"bike_id":"ab104040-41be-4185-a3ca-993335cc4702","system_id":"levelo_inurba_marseille","lat":43.292644,"lon":5.384257,"is_reserved":false,"is_disabled":false,"rental_uris":{"android":"levelo://app?vid=ab104040-41be-4185-a3ca-993335cc4702","ios":"levelo://app?vid=ab104040-41be-4185-a3ca-993335cc4702"},"vehicle_type_id":"4","last_reported":1720386470,"current_range_meters":21600,"station_id":"ce4bh692rcd13ifvqea0","pricing_plan_id":"cebpf4jnsgd1na2vs0mg"},{"bike_id":"eafd59dc-9dcc-4cbb-a559-1e3c36b7c25c","system_id":"levelo_inurba_marseille","lat":43.2926,"lon":5.38438,"is_reserved":false,"is_disabled":false,"rental_uris":{"android":"levelo://app?vid=eafd59dc-9dcc-4cbb-a559-1e3c36b7c25c","ios":"levelo://app?vid=eafd59dc-9dcc-4cbb-a559-1e3c36b7c25c"},"vehicle_type_id":"4","last_reported":1720386470,"current_range_meters":0,"station_id":"ce4bh692rcd13ifvqea0","pricing_plan_id":"cebpf4jnsgd1na2vs0mg"},{"bike_id":"f783e95a-cab3-4512-96e0-6b490633e197","system_id":"levelo_inurba_marseille","lat":43.2926,"lon":5.38441,"is_reserved":false,"is_disabled":false,"rental_uris":{"android":"levelo://app?vid=f783e95a-cab3-4512-96e0-6b490633e197","ios":"levelo://app?vid=f783e95a-cab3-4512-96e0-6b490633e197"},"vehicle_type_id":"4","last_reported":1720386470,"current_range_meters":0,"station_id":"ce4bh692rcd13ifvqea0","pricing_plan_id":"cebpf4jnsgd1na2vs0mg"},{"bike_id":"a0399305-eed7-48af-8789-42749e1eea57","system_id":"levelo_inurba_marseille","lat":43.30296,"lon":5.39681,"is_reserved":false,"is_disabled":false,"rental_uris":{"android":"levelo://app?vid=a0399305-eed7-48af-8789-42749e1eea57","ios":"levelo://app?vid=a0399305-eed7-48af-8789-42749e1eea57"},"vehicle_type_id":"4","last_reported":1720386470,"current_range_meters":22000,"station_id":"","pricing_plan_id":"cebpf4jnsgd1na2vs0mg"},{"bike_id":"fa44c838-ba7a-4816-8267-201b89b71507","system_id":"levelo_inurba_marseille","lat":43.304296,"lon":5.397513,"is_reserved":false,"is_disabled":false,"rental_uris":{"android":"levelo://app?vid=fa44c838-ba7a-4816-8267-201b89b71507","ios":"levelo://app?vid=fa44c838-ba7a-4816-8267-201b89b71507"},"vehicle_type_id":"4","last_reported":1720386470,"current_range_meters":9600,"station_id":"ce4bh092rcd13ifvqd20","pricing_plan_id":"cebpf4jnsgd1na2vs0mg"},{"bike_id":"7cacdff7-3f09-4f31-af63-7c43ed5b1fa3","system_id":"levelo_inurba_marseille","lat":43.292644,"lon":5.384257,"is_reserved":false,"is_disabled":false,"rental_uris":{"android":"levelo://app?vid=7cacdff7-3f09-4f31-af63-7c43ed5b1fa3","ios":"levelo://app?vid=7cacdff7-3f09-4f31-af63-7c43ed5b1fa3"},"vehicle_type_id":"4","last_reported":1720386470,"current_range_meters":0,"station_id":"ce4bh692rcd13ifvqea0","pricing_plan_id":"cebpf4jnsgd1na2vs0mg"},{"bike_id":"52289a9d-2b1a-45ee-9d04-6b714168835e","system_id":"levelo_inurba_marseille","lat":43.292642,"lon":5.384254,"is_reserved":false,"is_disabled":false,"rental_uris":{"android":"levelo://app?vid=52289a9d-2b1a-45ee-9d04-6b714168835e","ios":"levelo://app?vid=52289a9d-2b1a-45ee-9d04-6b714168835e"},"vehicle_type_id":"4","last_reported":1720386470,"current_range_meters":800,"station_id":"ce4bh692rcd13ifvqea0","pricing_plan_id":"cebpf4jnsgd1na2vs0mg"},{"bike_id":"7dd9ba61-cd60-4e88-b7af-05c8216d8de9","system_id":"levelo_inurba_marseille","lat":43.330442,"lon":5.389148,"is_reserved":false,"is_disabled":false,"rental_uris":{"android":"levelo://app?vid=7dd9ba61-cd60-4e88-b7af-05c8216d8de9","ios":"levelo://app?vid=7dd9ba61-cd60-4e88-b7af-05c8216d8de9"},"vehicle_type_id":"4","last_reported":1720386470,"current_range_meters":17200,"station_id":"ce4bhr92rcd13ifvqhrg","pricing_plan_id":"cebpf4jnsgd1na2vs0mg"},{"bike_id":"b59c30ab-8127-46e8-9d79-8b3ce7b35338","system_id":"levelo_inurba_marseille","lat":43.295169,"lon":5.390426,"is_reserved":false,"is_disabled":false,"rental_uris":{"android":"levelo://app?vid=b59c30ab-8127-46e8-9d79-8b3ce7b35338","ios":"levelo://app?vid=b59c30ab-8127-46e8-9d79-8b3ce7b35338"},"vehicle_type_id":"4","last_reported":1720386470,"current_range_meters":0,"station_id":"ce4bh3p2rcd13ifvqdp0","pricing_plan_id":"cebpf4jnsgd1na2vs0mg"},{"bike_id":"301b6003-1f19-466e-9ff4-8ccf55e918ec","system_id":"levelo_inurba_marseille","lat":43.330442,"lon":5.389148,"is_reserved":false,"is_disabled":false,"rental_uris":{"android":"levelo://app?vid=301b6003-1f19-466e-9ff4-8ccf55e918ec","ios":"levelo://app?vid=301b6003-1f19-466e-9ff4-8ccf55e918ec"},"vehicle_type_id":"4","last_reported":1720386470,"current_range_meters":14000,"station_id":"ce4bhr92rcd13ifvqhrg","pricing_plan_id":"cebpf4jnsgd1na2vs0mg"},{"bike_id":"3aadc220-1dc5-4257-a07e-53385aa7e5f0","system_id":"levelo_inurba_marseille","lat":43.289741,"lon":5.378306,"is_reserved":false,"is_disabled":false,"rental_uris":{"android":"levelo://app?vid=3aadc220-1dc5-4257-a07e-53385aa7e5f0","ios":"levelo://app?vid=3aadc220-1dc5-4257-a07e-53385aa7e5f0"},"vehicle_type_id":"4","last_reported":1720386470,"current_range_meters":17600,"station_id":"ce4bh9p2rcd13ifvqed0","pricing_plan_id":"cebpf4jnsgd1na2vs0mg"},{"bike_id":"99dca79f-672d-4e06-b5ed-c7e9ea165daf","system_id":"levelo_inurba_marseille","lat":43.295169,"lon":5.390426,"is_reserved":false,"is_disabled":false,"rental_uris":{"android":"levelo://app?vid=99dca79f-672d-4e06-b5ed-c7e9ea165daf","ios":"levelo://app?vid=99dca79f-672d-4e06-b5ed-c7e9ea165daf"},"vehicle_type_id":"4","last_reported":1720386470,"current_range_meters":0,"station_id":"ce4bh3p2rcd13ifvqdp0","pricing_plan_id":"cebpf4jnsgd1na2vs0mg"},{"bike_id":"a2710c9d-63dd-4aae-bc6a-f1b4d3be3527","system_id":"levelo_inurba_marseille","lat":43.33031,"lon":5.39043,"is_reserved":false,"is_disabled":false,"rental_uris":{"android":"levelo://app?vid=a2710c9d-63dd-4aae-bc6a-f1b4d3be3527","ios":"levelo://app?vid=a2710c9d-63dd-4aae-bc6a-f1b4d3be3527"},"vehicle_type_id":"4","last_reported":1720386470,"current_range_meters":1600,"station_id":"","pricing_plan_id":"cebpf4jnsgd1na2vs0mg"},{"bike_id":"ec0cf8fb-44e8-4f94-8ae8-9fbb453a67e1","system_id":"levelo_inurba_marseille","lat":43.28856,"lon":5.358371,"is_reserved":false,"is_disabled":false,"rental_uris":{"android":"levelo://app?vid=ec0cf8fb-44e8-4f94-8ae8-9fbb453a67e1","ios":"levelo://app?vid=ec0cf8fb-44e8-4f94-8ae8-9fbb453a67e1"},"vehicle_type_id":"4","last_reported":1720386470,"current_range_meters":0,"station_id":"ce4bhb12rcd13ifvqem0","pricing_plan_id":"cebpf4jnsgd1na2vs0mg"},{"bike_id":"91cc4b63-96b4-4317-9f52-de02e6423024","system_id":"levelo_inurba_marseille","lat":43.2884,"lon":5.35849,"is_reserved":false,"is_disabled":false,"rental_uris":{"android":"levelo://app?vid=91cc4b63-96b4-4317-9f52-de02e6423024","ios":"levelo://app?vid=91cc4b63-96b4-4317-9f52-de02e6423024"},"vehicle_type_id":"4","last_reported":1720386470,"current_range_meters":0,"station_id":"ce4bhb12rcd13ifvqem0","pricing_plan_id":"cebpf4jnsgd1na2vs0mg"},{"bike_id":"0605d7c2-1fe3-4178-a5af-1a72291b2120","system_id":"levelo_inurba_marseille","lat":43.294162,"lon":5.386292,"is_reserved":false,"is_disabled":false,"rental_uris":{"android":"levelo://app?vid=0605d7c2-1fe3-4178-a5af-1a72291b2120","ios":"levelo://app?vid=0605d7c2-1fe3-4178-a5af-1a72291b2120"},"vehicle_type_id":"4","last_reported":1720386470,"current_range_meters":12400,"station_id":"ce4bh2h2rcd13ifvqdh0","pricing_plan_id":"cebpf4jnsgd1na2vs0mg"},{"bike_id":"fdbfcc29-04c6-4739-ba7e-441fb2e2593e","system_id":"levelo_inurba_marseille","lat":43.337408,"lon":5.374532,"is_reserved":false,"is_disabled":false,"rental_uris":{"android":"levelo://app?vid=fdbfcc29-04c6-4739-ba7e-441fb2e2593e","ios":"levelo://app?vid=fdbfcc29-04c6-4739-ba7e-441fb2e2593e"},"vehicle_type_id":"4","last_reported":1720386470,"current_range_meters":30000,"station_id":"","pricing_plan_id":"cebpf4jnsgd1na2vs0mg"},{"bike_id":"88f27a2f-daa4-4dfc-b23a-0cfd244fc967","system_id":"levelo_inurba_marseille","lat":43.337447,"lon":5.374523,"is_reserved":false,"is_disabled":false,"rental_uris":{"android":"levelo://app?vid=88f27a2f-daa4-4dfc-b23a-0cfd244fc967","ios":"levelo://app?vid=88f27a2f-daa4-4dfc-b23a-0cfd244fc967"},"vehicle_type_id":"4","last_reported":1720386470,"current_range_meters":12400,"station_id":"","pricing_plan_id":"cebpf4jnsgd1na2vs0mg"},{"bike_id":"d7100aec-b636-4937-8a8c-0a428a1a1136","system_id":"levelo_inurba_marseille","lat":43.312609,"lon":5.401662,"is_reserved":false,"is_disabled":false,"rental_uris":{"android":"levelo://app?vid=d7100aec-b636-4937-8a8c-0a428a1a1136","ios":"levelo://app?vid=d7100aec-b636-4937-8a8c-0a428a1a1136"},"vehicle_type_id":"4","last_reported":1720386470,"current_range_meters":16800,"station_id":"ce4bh092rcd13ifvqd30","pricing_plan_id":"cebpf4jnsgd1na2vs0mg"},{"bike_id":"8fb03546-6a95-42cc-a9de-20078ef410e8","system_id":"levelo_inurba_marseille","lat":43.309371,"lon":5.401449,"is_reserved":false,"is_disabled":false,"rental_uris":{"android":"levelo://app?vid=8fb03546-6a95-42cc-a9de-20078ef410e8","ios":"levelo://app?vid=8fb03546-6a95-42cc-a9de-20078ef410e8"},"vehicle_type_id":"4","last_reported":1720386470,"current_range_meters":18000,"station_id":"ce4bgvp2rcd13ifvqct0","pricing_plan_id":"cebpf4jnsgd1na2vs0mg"},{"bike_id":"41fcb31e-469f-4a07-8a88-fbe57c2d85f5","system_id":"levelo_inurba_marseille","lat":43.33755,"lon":5.37455,"is_reserved":false,"is_disabled":false,"rental_uris":{"android":"levelo://app?vid=41fcb31e-469f-4a07-8a88-fbe57c2d85f5","ios":"levelo://app?vid=41fcb31e-469f-4a07-8a88-fbe57c2d85f5"},"vehicle_type_id":"4","last_reported":1720386470,"current_range_meters":22400,"station_id":"","pricing_plan_id":"cebpf4jnsgd1na2vs0mg"},{"bike_id":"22664dbb-05c6-44b7-ac76-723d395f476e","system_id":"levelo_inurba_marseille","lat":43.33755,"lon":5.3746,"is_reserved":false,"is_disabled":false,"rental_uris":{"android":"levelo://app?vid=22664dbb-05c6-44b7-ac76-723d395f476e","ios":"levelo://app?vid=22664dbb-05c6-44b7-ac76-723d395f476e"},"vehicle_type_id":"4","last_reported":1720386470,"current_range_meters":24000,"station_id":"","pricing_plan_id":"cebpf4jnsgd1na2vs0mg"},{"bike_id":"568e51fe-3317-4e32-82a4-2bd4944c6912","system_id":"levelo_inurba_marseille","lat":43.337614,"lon":5.374325,"is_reserved":false,"is_disabled":false,"rental_uris":{"android":"levelo://app?vid=568e51fe-3317-4e32-82a4-2bd4944c6912","ios":"levelo://app?vid=568e51fe-3317-4e32-82a4-2bd4944c6912"},"vehicle_type_id":"4","last_reported":1720386470,"current_range_meters":1200,"station_id":"","pricing_plan_id":"cebpf4jnsgd1na2vs0mg"},{"bike_id":"ba77c056-6fe7-4228-884f-a9f07e3f5ccc","system_id":"levelo_inurba_marseille","lat":43.337615,"lon":5.374405,"is_reserved":false,"is_disabled":false,"rental_uris":{"android":"levelo://app?vid=ba77c056-6fe7-4228-884f-a9f07e3f5ccc","ios":"levelo://app?vid=ba77c056-6fe7-4228-884f-a9f07e3f5ccc"},"vehicle_type_id":"4","last_reported":1720386470,"current_range_meters":30000,"station_id":"ce4rr2p2rcd13i802rgg","pricing_plan_id":"cebpf4jnsgd1na2vs0mg"},{"bike_id":"e8043679-5e2d-45ca-af32-4c2eeb2d3b4d","system_id":"levelo_inurba_marseille","lat":43.337642,"lon":5.374325,"is_reserved":false,"is_disabled":false,"rental_uris":{"android":"levelo://app?vid=e8043679-5e2d-45ca-af32-4c2eeb2d3b4d","ios":"levelo://app?vid=e8043679-5e2d-45ca-af32-4c2eeb2d3b4d"},"vehicle_type_id":"4","last_reported":1720386470,"current_range_meters":14000,"station_id":"","pricing_plan_id":"cebpf4jnsgd1na2vs0mg"},{"bike_id":"d18fc15d-e9a7-4dbb-9aed-fc17bcc86552","system_id":"levelo_inurba_marseille","lat":43.337646,"lon":5.374335,"is_reserved":false,"is_disabled":false,"rental_uris":{"android":"levelo://app?vid=d18fc15d-e9a7-4dbb-9aed-fc17bcc86552","ios":"levelo://app?vid=d18fc15d-e9a7-4dbb-9aed-fc17bcc86552"},"vehicle_type_id":"4","last_reported":1720386470,"current_range_meters":11600,"station_id":"","pricing_plan_id":"cebpf4jnsgd1na2vs0mg"},{"bike_id":"ca28a750-034c-4926-945c-7b5f8a0741a9","system_id":"levelo_inurba_marseille","lat":43.337667,"lon":5.374389,"is_reserved":false,"is_disabled":false,"rental_uris":{"android":"levelo://app?vid=ca28a750-034c-4926-945c-7b5f8a0741a9","ios":"levelo://app?vid=ca28a750-034c-4926-945c-7b5f8a0741a9"},"vehicle_type_id":"4","last_reported":1720386470,"current_range_meters":25200,"station_id":"","pricing_plan_id":"cebpf4jnsgd1na2vs0mg"},{"bike_id":"8c771010-2080-4a27-92c5-3ef1d3730296","system_id":"levelo_inurba_marseille","lat":43.30643,"lon":5.40091,"is_reserved":false,"is_disabled":false,"rental_uris":{"android":"levelo://app?vid=8c771010-2080-4a27-92c5-3ef1d3730296","ios":"levelo://app?vid=8c771010-2080-4a27-92c5-3ef1d3730296"},"vehicle_type_id":"4","last_reported":1720386470,"current_range_meters":0,"station_id":"ce4bh112rcd13ifvqda0","pricing_plan_id":"cebpf4jnsgd1na2vs0mg"},{"bike_id":"435d022a-3d7d-4a23-941f-58e7bd58457e","system_id":"levelo_inurba_marseille","lat":43.30642,"lon":5.401031,"is_reserved":false,"is_disabled":false,"rental_uris":{"android":"levelo://app?vid=435d022a-3d7d-4a23-941f-58e7bd58457e","ios":"levelo://app?vid=435d022a-3d7d-4a23-941f-58e7bd58457e"},"vehicle_type_id":"4","last_reported":1720386470,"current_range_meters":17600,"station_id":"ce4bh112rcd13ifvqda0","pricing_plan_id":"cebpf4jnsgd1na2vs0mg"},{"bike_id":"b267d4b8-6d52-4b86-ac65-c94aed4f1f8f","system_id":"levelo_inurba_marseille","lat":43.30642,"lon":5.401031,"is_reserved":false,"is_disabled":false,"rental_uris":{"android":"levelo://app?vid=b267d4b8-6d52-4b86-ac65-c94aed4f1f8f","ios":"levelo://app?vid=b267d4b8-6d52-4b86-ac65-c94aed4f1f8f"},"vehicle_type_id":"4","last_reported":1720386470,"current_range_meters":8000,"station_id":"ce4bh112rcd13ifvqda0","pricing_plan_id":"cebpf4jnsgd1na2vs0mg"},{"bike_id":"ca425638-6549-4c92-ac44-79614c6643fe","system_id":"levelo_inurba_marseille","lat":43.301117,"lon":5.398795,"is_reserved":false,"is_disabled":false,"rental_uris":{"android":"levelo://app?vid=ca425638-6549-4c92-ac44-79614c6643fe","ios":"levelo://app?vid=ca425638-6549-4c92-ac44-79614c6643fe"},"vehicle_type_id":"4","last_reported":1720386470,"current_range_meters":27600,"station_id":"ce4bh0h2rcd13ifvqd40","pricing_plan_id":"cebpf4jnsgd1na2vs0mg"},{"bike_id":"521138e1-cc76-4f6c-a6ca-333c20821687","system_id":"levelo_inurba_marseille","lat":43.33728,"lon":5.355838,"is_reserved":false,"is_disabled":false,"rental_uris":{"android":"levelo://app?vid=521138e1-cc76-4f6c-a6ca-333c20821687","ios":"levelo://app?vid=521138e1-cc76-4f6c-a6ca-333c20821687"},"vehicle_type_id":"4","last_reported":1720386470,"current_range_meters":25200,"station_id":"","pricing_plan_id":"cebpf4jnsgd1na2vs0mg"},{"bike_id":"ca9cbafa-5e7c-49a5-ab5b-21879a890323","system_id":"levelo_inurba_marseille","lat":43.28727,"lon":5.36078,"is_reserved":false,"is_disabled":false,"rental_uris":{"android":"levelo://app?vid=ca9cbafa-5e7c-49a5-ab5b-21879a890323","ios":"levelo://app?vid=ca9cbafa-5e7c-49a5-ab5b-21879a890323"},"vehicle_type_id":"4","last_reported":1720386470,"current_range_meters":26400,"station_id":"cki0cbj6b192h4jlfktg","pricing_plan_id":"cebpf4jnsgd1na2vs0mg"},{"bike_id":"f34d2d82-fc30-43eb-9706-d7f3810c8032","system_id":"levelo_inurba_marseille","lat":43.30127,"lon":5.39889,"is_reserved":false,"is_disabled":false,"rental_uris":{"android":"levelo://app?vid=f34d2d82-fc30-43eb-9706-d7f3810c8032","ios":"levelo://app?vid=f34d2d82-fc30-43eb-9706-d7f3810c8032"},"vehicle_type_id":"4","last_reported":1720386470,"current_range_meters":8400,"station_id":"ce4bh0h2rcd13ifvqd40","pricing_plan_id":"cebpf4jnsgd1na2vs0mg"},{"bike_id":"493e1d13-1307-463e-8056-d494f7c84f39","system_id":"levelo_inurba_marseille","lat":43.298681,"lon":5.397225,"is_reserved":false,"is_disabled":false,"rental_uris":{"android":"levelo://app?vid=493e1d13-1307-463e-8056-d494f7c84f39","ios":"levelo://app?vid=493e1d13-1307-463e-8056-d494f7c84f39"},"vehicle_type_id":"4","last_reported":1720386470,"current_range_meters":5600,"station_id":"ce4bh0h2rcd13ifvqd50","pricing_plan_id":"cebpf4jnsgd1na2vs0mg"},{"bike_id":"612ad69a-7ad3-4423-b772-b92d2ad549d3","system_id":"levelo_inurba_marseille","lat":43.298681,"lon":5.397225,"is_reserved":false,"is_disabled":false,"rental_uris":{"android":"levelo://app?vid=612ad69a-7ad3-4423-b772-b92d2ad549d3","ios":"levelo://app?vid=612ad69a-7ad3-4423-b772-b92d2ad549d3"},"vehicle_type_id":"4","last_reported":1720386470,"current_range_meters":6400,"station_id":"ce4bh0h2rcd13ifvqd50","pricing_plan_id":"cebpf4jnsgd1na2vs0mg"},{"bike_id":"c7d4268b-c223-42c4-86ff-525e636a3348","system_id":"levelo_inurba_marseille","lat":43.29868,"lon":5.39729,"is_reserved":false,"is_disabled":false,"rental_uris":{"android":"levelo://app?vid=c7d4268b-c223-42c4-86ff-525e636a3348","ios":"levelo://app?vid=c7d4268b-c223-42c4-86ff-525e636a3348"},"vehicle_type_id":"4","last_reported":1720386470,"current_range_meters":0,"station_id":"ce4bh0h2rcd13ifvqd50","pricing_plan_id":"cebpf4jnsgd1na2vs0mg"},{"bike_id":"83d73f1e-94b1-4b8b-af63-8158b5e8a0ae","system_id":"levelo_inurba_marseille","lat":43.298681,"lon":5.397225,"is_reserved":false,"is_disabled":false,"rental_uris":{"android":"levelo://app?vid=83d73f1e-94b1-4b8b-af63-8158b5e8a0ae","ios":"levelo://app?vid=83d73f1e-94b1-4b8b-af63-8158b5e8a0ae"},"vehicle_type_id":"4","last_reported":1720386470,"current_range_meters":14000,"station_id":"ce4bh0h2rcd13ifvqd50","pricing_plan_id":"cebpf4jnsgd1na2vs0mg"},{"bike_id":"295be8bf-20af-4600-adc2-d77b9d7d617c","system_id":"levelo_inurba_marseille","lat":43.298843,"lon":5.397513,"is_reserved":false,"is_disabled":false,"rental_uris":{"android":"levelo://app?vid=295be8bf-20af-4600-adc2-d77b9d7d617c","ios":"levelo://app?vid=295be8bf-20af-4600-adc2-d77b9d7d617c"},"vehicle_type_id":"4","last_reported":1720386470,"current_range_meters":31200,"station_id":"ce4bh0h2rcd13ifvqd50","pricing_plan_id":"cebpf4jnsgd1na2vs0mg"},{"bike_id":"4af9b799-7fc1-4c7c-8fb2-466aed93bd8d","system_id":"levelo_inurba_marseille","lat":43.292571,"lon":5.409107,"is_reserved":false,"is_disabled":false,"rental_uris":{"android":"levelo://app?vid=4af9b799-7fc1-4c7c-8fb2-466aed93bd8d","ios":"levelo://app?vid=4af9b799-7fc1-4c7c-8fb2-466aed93bd8d"},"vehicle_type_id":"4","last_reported":1720386470,"current_range_meters":0,"station_id":"ce4bh192rcd13ifvqdc0","pricing_plan_id":"cebpf4jnsgd1na2vs0mg"},{"bike_id":"0bfeb263-e1e8-4366-95c3-94d322d81b9e","system_id":"levelo_inurba_marseille","lat":43.302759,"lon":5.400793,"is_reserved":false,"is_disabled":false,"rental_uris":{"android":"levelo://app?vid=0bfeb263-e1e8-4366-95c3-94d322d81b9e","ios":"levelo://app?vid=0bfeb263-e1e8-4366-95c3-94d322d81b9e"},"vehicle_type_id":"4","last_reported":1720386470,"current_range_meters":1200,"station_id":"ce4bgvh2rcd13ifvqcs0","pricing_plan_id":"cebpf4jnsgd1na2vs0mg"},{"bike_id":"9646cb8c-607f-46e0-add5-b64cb755fde1","system_id":"levelo_inurba_marseille","lat":43.302759,"lon":5.400793,"is_reserved":false,"is_disabled":false,"rental_uris":{"android":"levelo://app?vid=9646cb8c-607f-46e0-add5-b64cb755fde1","ios":"levelo://app?vid=9646cb8c-607f-46e0-add5-b64cb755fde1"},"vehicle_type_id":"4","last_reported":1720386470,"current_range_meters":26000,"station_id":"ce4bgvh2rcd13ifvqcs0","pricing_plan_id":"cebpf4jnsgd1na2vs0mg"},{"bike_id":"79b39ef4-777c-480f-8a69-5dfd70ec50bc","system_id":"levelo_inurba_marseille","lat":43.302759,"lon":5.400793,"is_reserved":false,"is_disabled":false,"rental_uris":{"android":"levelo://app?vid=79b39ef4-777c-480f-8a69-5dfd70ec50bc","ios":"levelo://app?vid=79b39ef4-777c-480f-8a69-5dfd70ec50bc"},"vehicle_type_id":"4","last_reported":1720386470,"current_range_meters":23200,"station_id":"ce4bgvh2rcd13ifvqcs0","pricing_plan_id":"cebpf4jnsgd1na2vs0mg"},{"bike_id":"292be5d8-4942-4a4e-9184-3e8aa065157a","system_id":"levelo_inurba_marseille","lat":43.302759,"lon":5.400793,"is_reserved":false,"is_disabled":false,"rental_uris":{"android":"levelo://app?vid=292be5d8-4942-4a4e-9184-3e8aa065157a","ios":"levelo://app?vid=292be5d8-4942-4a4e-9184-3e8aa065157a"},"vehicle_type_id":"4","last_reported":1720386470,"current_range_meters":7200,"station_id":"ce4bgvh2rcd13ifvqcs0","pricing_plan_id":"cebpf4jnsgd1na2vs0mg"},{"bike_id":"3d2b9f33-5d5b-4a91-95bb-febf2b191e1f","system_id":"levelo_inurba_marseille","lat":43.287184,"lon":5.37937,"is_reserved":false,"is_disabled":false,"rental_uris":{"android":"levelo://app?vid=3d2b9f33-5d5b-4a91-95bb-febf2b191e1f","ios":"levelo://app?vid=3d2b9f33-5d5b-4a91-95bb-febf2b191e1f"},"vehicle_type_id":"4","last_reported":1720386470,"current_range_meters":24400,"station_id":"ce4bh9p2rcd13ifvqec0","pricing_plan_id":"cebpf4jnsgd1na2vs0mg"},{"bike_id":"0e483b0b-b93f-47f0-accc-3305338bb2c1","system_id":"levelo_inurba_marseille","lat":43.3164,"lon":5.4048,"is_reserved":false,"is_disabled":false,"rental_uris":{"android":"levelo://app?vid=0e483b0b-b93f-47f0-accc-3305338bb2c1","ios":"levelo://app?vid=0e483b0b-b93f-47f0-accc-3305338bb2c1"},"vehicle_type_id":"4","last_reported":1720386470,"current_range_meters":14000,"station_id":"","pricing_plan_id":"cebpf4jnsgd1na2vs0mg"},{"bike_id":"3586604b-0838-450d-82b4-ed21774e4784","system_id":"levelo_inurba_marseille","lat":43.31645,"lon":5.40486,"is_reserved":false,"is_disabled":false,"rental_uris":{"android":"levelo://app?vid=3586604b-0838-450d-82b4-ed21774e4784","ios":"levelo://app?vid=3586604b-0838-450d-82b4-ed21774e4784"},"vehicle_type_id":"4","last_reported":1720386470,"current_range_meters":10800,"station_id":"","pricing_plan_id":"cebpf4jnsgd1na2vs0mg"},{"bike_id":"5faaac0b-9d76-4456-a77c-adbaff197d8c","system_id":"levelo_inurba_marseille","lat":43.288847,"lon":5.38727,"is_reserved":false,"is_disabled":false,"rental_uris":{"android":"levelo://app?vid=5faaac0b-9d76-4456-a77c-adbaff197d8c","ios":"levelo://app?vid=5faaac0b-9d76-4456-a77c-adbaff197d8c"},"vehicle_type_id":"4","last_reported":1720386470,"current_range_meters":4000,"station_id":"","pricing_plan_id":"cebpf4jnsgd1na2vs0mg"},{"bike_id":"0d05fca4-3535-4338-abab-fb6914a3a680","system_id":"levelo_inurba_marseille","lat":43.28462,"lon":5.35891,"is_reserved":false,"is_disabled":false,"rental_uris":{"android":"levelo://app?vid=0d05fca4-3535-4338-abab-fb6914a3a680","ios":"levelo://app?vid=0d05fca4-3535-4338-abab-fb6914a3a680"},"vehicle_type_id":"4","last_reported":1720386470,"current_range_meters":0,"station_id":"ce4bhah2rcd13ifvqei0","pricing_plan_id":"cebpf4jnsgd1na2vs0mg"},{"bike_id":"e812a8ff-c090-4ef2-8f33-e1103eca0a0c","system_id":"levelo_inurba_marseille","lat":43.294314,"lon":5.397498,"is_reserved":false,"is_disabled":false,"rental_uris":{"android":"levelo://app?vid=e812a8ff-c090-4ef2-8f33-e1103eca0a0c","ios":"levelo://app?vid=e812a8ff-c090-4ef2-8f33-e1103eca0a0c"},"vehicle_type_id":"4","last_reported":1720386470,"current_range_meters":30400,"station_id":"ce4bh3h2rcd13ifvqdo0","pricing_plan_id":"cebpf4jnsgd1na2vs0mg"},{"bike_id":"2ea31fda-dde0-4289-9e3a-c9ed4e05578a","system_id":"levelo_inurba_marseille","lat":43.284538,"lon":5.358657,"is_reserved":false,"is_disabled":false,"rental_uris":{"android":"levelo://app?vid=2ea31fda-dde0-4289-9e3a-c9ed4e05578a","ios":"levelo://app?vid=2ea31fda-dde0-4289-9e3a-c9ed4e05578a"},"vehicle_type_id":"4","last_reported":1720386470,"current_range_meters":27200,"station_id":"ce4bhah2rcd13ifvqei0","pricing_plan_id":"cebpf4jnsgd1na2vs0mg"},{"bike_id":"fdf55f87-8b71-4008-a97e-f6203bf12370","system_id":"levelo_inurba_marseille","lat":43.294314,"lon":5.397498,"is_reserved":false,"is_disabled":false,"rental_uris":{"android":"levelo://app?vid=fdf55f87-8b71-4008-a97e-f6203bf12370","ios":"levelo://app?vid=fdf55f87-8b71-4008-a97e-f6203bf12370"},"vehicle_type_id":"4","last_reported":1720386470,"current_range_meters":0,"station_id":"ce4bh3h2rcd13ifvqdo0","pricing_plan_id":"cebpf4jnsgd1na2vs0mg"},{"bike_id":"326e8412-015a-4d5e-860d-400478d90c43","system_id":"levelo_inurba_marseille","lat":43.28617,"lon":5.35099,"is_reserved":false,"is_disabled":false,"rental_uris":{"android":"levelo://app?vid=326e8412-015a-4d5e-860d-400478d90c43","ios":"levelo://app?vid=326e8412-015a-4d5e-860d-400478d90c43"},"vehicle_type_id":"4","last_reported":1720386470,"current_range_meters":0,"station_id":"ce4bhch2rcd13ifvqeug","pricing_plan_id":"cebpf4jnsgd1na2vs0mg"},{"bike_id":"3f5cd5b1-918f-4a2b-a521-7e3f4a667b7c","system_id":"levelo_inurba_marseille","lat":43.283998,"lon":5.375062,"is_reserved":false,"is_disabled":false,"rental_uris":{"android":"levelo://app?vid=3f5cd5b1-918f-4a2b-a521-7e3f4a667b7c","ios":"levelo://app?vid=3f5cd5b1-918f-4a2b-a521-7e3f4a667b7c"},"vehicle_type_id":"4","last_reported":1720386470,"current_range_meters":26400,"station_id":"ce4bh412rcd13ifvqds0","pricing_plan_id":"cebpf4jnsgd1na2vs0mg"},{"bike_id":"906eb329-fb9c-4c3e-a450-e2212eed7285","system_id":"levelo_inurba_marseille","lat":43.29953,"lon":5.403268,"is_reserved":false,"is_disabled":false,"rental_uris":{"android":"levelo://app?vid=906eb329-fb9c-4c3e-a450-e2212eed7285","ios":"levelo://app?vid=906eb329-fb9c-4c3e-a450-e2212eed7285"},"vehicle_type_id":"4","last_reported":1720386470,"current_range_meters":16400,"station_id":"","pricing_plan_id":"cebpf4jnsgd1na2vs0mg"},{"bike_id":"ba502912-9e31-4d01-bd33-ac47a59ce650","system_id":"levelo_inurba_marseille","lat":43.2864,"lon":5.38539,"is_reserved":false,"is_disabled":false,"rental_uris":{"android":"levelo://app?vid=ba502912-9e31-4d01-bd33-ac47a59ce650","ios":"levelo://app?vid=ba502912-9e31-4d01-bd33-ac47a59ce650"},"vehicle_type_id":"4","last_reported":1720386470,"current_range_meters":18800,"station_id":"","pricing_plan_id":"cebpf4jnsgd1na2vs0mg"},{"bike_id":"44cd95e7-4fa1-499f-a3d7-0b294778abcc","system_id":"levelo_inurba_marseille","lat":43.28671,"lon":5.38659,"is_reserved":false,"is_disabled":false,"rental_uris":{"android":"levelo://app?vid=44cd95e7-4fa1-499f-a3d7-0b294778abcc","ios":"levelo://app?vid=44cd95e7-4fa1-499f-a3d7-0b294778abcc"},"vehicle_type_id":"4","last_reported":1720386470,"current_range_meters":0,"station_id":"ce4bh492rcd13ifvqdug","pricing_plan_id":"cebpf4jnsgd1na2vs0mg"},{"bike_id":"efe24664-bf6f-4ebe-89a4-c1317208ed9d","system_id":"levelo_inurba_marseille","lat":43.286595,"lon":5.386795,"is_reserved":false,"is_disabled":false,"rental_uris":{"android":"levelo://app?vid=efe24664-bf6f-4ebe-89a4-c1317208ed9d","ios":"levelo://app?vid=efe24664-bf6f-4ebe-89a4-c1317208ed9d"},"vehicle_type_id":"4","last_reported":1720386470,"current_range_meters":0,"station_id":"ce4bh492rcd13ifvqdug","pricing_plan_id":"cebpf4jnsgd1na2vs0mg"},{"bike_id":"211595c1-45b9-4b68-bbbc-093e791d8d70","system_id":"levelo_inurba_marseille","lat":43.286595,"lon":5.386795,"is_reserved":false,"is_disabled":false,"rental_uris":{"android":"levelo://app?vid=211595c1-45b9-4b68-bbbc-093e791d8d70","ios":"levelo://app?vid=211595c1-45b9-4b68-bbbc-093e791d8d70"},"vehicle_type_id":"4","last_reported":1720386470,"current_range_meters":5600,"station_id":"ce4bh492rcd13ifvqdug","pricing_plan_id":"cebpf4jnsgd1na2vs0mg"},{"bike_id":"a44dc317-3d90-47f8-94a8-5c98e181144f","system_id":"levelo_inurba_marseille","lat":43.319179,"lon":5.407725,"is_reserved":false,"is_disabled":false,"rental_uris":{"android":"levelo://app?vid=a44dc317-3d90-47f8-94a8-5c98e181144f","ios":"levelo://app?vid=a44dc317-3d90-47f8-94a8-5c98e181144f"},"vehicle_type_id":"4","last_reported":1720386470,"current_range_meters":6000,"station_id":"ce4bhq12rcd13ifvqhig","pricing_plan_id":"cebpf4jnsgd1na2vs0mg"},{"bike_id":"b110f18d-1ca7-42d4-aa80-90b46efa3ec4","system_id":"levelo_inurba_marseille","lat":43.31876,"lon":5.40758,"is_reserved":false,"is_disabled":false,"rental_uris":{"android":"levelo://app?vid=b110f18d-1ca7-42d4-aa80-90b46efa3ec4","ios":"levelo://app?vid=b110f18d-1ca7-42d4-aa80-90b46efa3ec4"},"vehicle_type_id":"4","last_reported":1720386470,"current_range_meters":2000,"station_id":"ce4bhq12rcd13ifvqhig","pricing_plan_id":"cebpf4jnsgd1na2vs0mg"},{"bike_id":"8bebc82f-6aeb-4b1e-a63a-0e4a59d093a3","system_id":"levelo_inurba_marseille","lat":43.323464,"lon":5.406297,"is_reserved":false,"is_disabled":false,"rental_uris":{"android":"levelo://app?vid=8bebc82f-6aeb-4b1e-a63a-0e4a59d093a3","ios":"levelo://app?vid=8bebc82f-6aeb-4b1e-a63a-0e4a59d093a3"},"vehicle_type_id":"4","last_reported":1720386470,"current_range_meters":26800,"station_id":"ce4bhq92rcd13ifvqhjg","pricing_plan_id":"cebpf4jnsgd1na2vs0mg"},{"bike_id":"5f79a5a1-51c1-4edd-80a7-7c9bef5071a5","system_id":"levelo_inurba_marseille","lat":43.337168,"lon":5.391825,"is_reserved":false,"is_disabled":false,"rental_uris":{"android":"levelo://app?vid=5f79a5a1-51c1-4edd-80a7-7c9bef5071a5","ios":"levelo://app?vid=5f79a5a1-51c1-4edd-80a7-7c9bef5071a5"},"vehicle_type_id":"4","last_reported":1720386470,"current_range_meters":1600,"station_id":"ce4bhr92rcd13ifvqhsg","pricing_plan_id":"cebpf4jnsgd1na2vs0mg"},{"bike_id":"8feb17dd-f8a2-498f-afed-ca9a4f0b6feb","system_id":"levelo_inurba_marseille","lat":43.323464,"lon":5.406297,"is_reserved":false,"is_disabled":false,"rental_uris":{"android":"levelo://app?vid=8feb17dd-f8a2-498f-afed-ca9a4f0b6feb","ios":"levelo://app?vid=8feb17dd-f8a2-498f-afed-ca9a4f0b6feb"},"vehicle_type_id":"4","last_reported":1720386470,"current_range_meters":0,"station_id":"ce4bhq92rcd13ifvqhjg","pricing_plan_id":"cebpf4jnsgd1na2vs0mg"},{"bike_id":"41901c03-97aa-4e4a-bcf0-50dbcba89c2f","system_id":"levelo_inurba_marseille","lat":43.288501,"lon":5.393087,"is_reserved":false,"is_disabled":false,"rental_uris":{"android":"levelo://app?vid=41901c03-97aa-4e4a-bcf0-50dbcba89c2f","ios":"levelo://app?vid=41901c03-97aa-4e4a-bcf0-50dbcba89c2f"},"vehicle_type_id":"4","last_reported":1720386470,"current_range_meters":31200,"station_id":"ce4bh2p2rcd13ifvqdi0","pricing_plan_id":"cebpf4jnsgd1na2vs0mg"},{"bike_id":"fa674261-6e47-4a04-ba7a-2c02b341edda","system_id":"levelo_inurba_marseille","lat":43.288497,"lon":5.393089,"is_reserved":false,"is_disabled":false,"rental_uris":{"android":"levelo://app?vid=fa674261-6e47-4a04-ba7a-2c02b341edda","ios":"levelo://app?vid=fa674261-6e47-4a04-ba7a-2c02b341edda"},"vehicle_type_id":"4","last_reported":1720386470,"current_range_meters":13200,"station_id":"ce4bh2p2rcd13ifvqdi0","pricing_plan_id":"cebpf4jnsgd1na2vs0mg"},{"bike_id":"1c52c72e-e07f-4bff-882f-8677593e46df","system_id":"levelo_inurba_marseille","lat":43.283498,"lon":5.380948,"is_reserved":false,"is_disabled":false,"rental_uris":{"android":"levelo://app?vid=1c52c72e-e07f-4bff-882f-8677593e46df","ios":"levelo://app?vid=1c52c72e-e07f-4bff-882f-8677593e46df"},"vehicle_type_id":"4","last_reported":1720386470,"current_range_meters":20800,"station_id":"ce4bh412rcd13ifvqdr0","pricing_plan_id":"cebpf4jnsgd1na2vs0mg"},{"bike_id":"ec6d9889-623d-4f61-90be-eb990a269ec5","system_id":"levelo_inurba_marseille","lat":43.28353,"lon":5.381,"is_reserved":false,"is_disabled":false,"rental_uris":{"android":"levelo://app?vid=ec6d9889-623d-4f61-90be-eb990a269ec5","ios":"levelo://app?vid=ec6d9889-623d-4f61-90be-eb990a269ec5"},"vehicle_type_id":"4","last_reported":1720386470,"current_range_meters":18800,"station_id":"ce4bh412rcd13ifvqdr0","pricing_plan_id":"cebpf4jnsgd1na2vs0mg"},{"bike_id":"52ccbd48-cdd6-476d-86ec-c68d2d30d6f7","system_id":"levelo_inurba_marseille","lat":43.288497,"lon":5.393089,"is_reserved":false,"is_disabled":false,"rental_uris":{"android":"levelo://app?vid=52ccbd48-cdd6-476d-86ec-c68d2d30d6f7","ios":"levelo://app?vid=52ccbd48-cdd6-476d-86ec-c68d2d30d6f7"},"vehicle_type_id":"4","last_reported":1720386470,"current_range_meters":8400,"station_id":"ce4bh2p2rcd13ifvqdi0","pricing_plan_id":"cebpf4jnsgd1na2vs0mg"},{"bike_id":"b93ae6d6-8987-4cd6-9ed5-2cff7d8ffd21","system_id":"levelo_inurba_marseille","lat":43.29375,"lon":5.401245,"is_reserved":false,"is_disabled":false,"rental_uris":{"android":"levelo://app?vid=b93ae6d6-8987-4cd6-9ed5-2cff7d8ffd21","ios":"levelo://app?vid=b93ae6d6-8987-4cd6-9ed5-2cff7d8ffd21"},"vehicle_type_id":"4","last_reported":1720386470,"current_range_meters":2400,"station_id":"ce4bh312rcd13ifvqdk0","pricing_plan_id":"cebpf4jnsgd1na2vs0mg"},{"bike_id":"7233480c-70f4-405b-a456-f716110f008e","system_id":"levelo_inurba_marseille","lat":43.289363,"lon":5.396322,"is_reserved":false,"is_disabled":false,"rental_uris":{"android":"levelo://app?vid=7233480c-70f4-405b-a456-f716110f008e","ios":"levelo://app?vid=7233480c-70f4-405b-a456-f716110f008e"},"vehicle_type_id":"4","last_reported":1720386470,"current_range_meters":27600,"station_id":"ce4bh3h2rcd13ifvqdn0","pricing_plan_id":"cebpf4jnsgd1na2vs0mg"},{"bike_id":"8cd98579-900d-4a55-8554-2afb6bfcfaa2","system_id":"levelo_inurba_marseille","lat":43.292724,"lon":5.401131,"is_reserved":false,"is_disabled":false,"rental_uris":{"android":"levelo://app?vid=8cd98579-900d-4a55-8554-2afb6bfcfaa2","ios":"levelo://app?vid=8cd98579-900d-4a55-8554-2afb6bfcfaa2"},"vehicle_type_id":"4","last_reported":1720386470,"current_range_meters":6000,"station_id":"ce4bh312rcd13ifvqdk0","pricing_plan_id":"cebpf4jnsgd1na2vs0mg"},{"bike_id":"fa4504ae-542d-4c5d-a791-acb39e987d71","system_id":"levelo_inurba_marseille","lat":43.2928,"lon":5.4012,"is_reserved":false,"is_disabled":false,"rental_uris":{"android":"levelo://app?vid=fa4504ae-542d-4c5d-a791-acb39e987d71","ios":"levelo://app?vid=fa4504ae-542d-4c5d-a791-acb39e987d71"},"vehicle_type_id":"4","last_reported":1720386470,"current_range_meters":6400,"station_id":"ce4bh312rcd13ifvqdk0","pricing_plan_id":"cebpf4jnsgd1na2vs0mg"},{"bike_id":"819cf586-4287-4419-a4cc-a7f509f9b528","system_id":"levelo_inurba_marseille","lat":43.29277,"lon":5.40145,"is_reserved":false,"is_disabled":false,"rental_uris":{"android":"levelo://app?vid=819cf586-4287-4419-a4cc-a7f509f9b528","ios":"levelo://app?vid=819cf586-4287-4419-a4cc-a7f509f9b528"},"vehicle_type_id":"4","last_reported":1720386470,"current_range_meters":0,"station_id":"ce4bh312rcd13ifvqdk0","pricing_plan_id":"cebpf4jnsgd1na2vs0mg"},{"bike_id":"60f39364-3094-4bc1-97dc-12c9cac31762","system_id":"levelo_inurba_marseille","lat":43.29268,"lon":5.40139,"is_reserved":false,"is_disabled":false,"rental_uris":{"android":"levelo://app?vid=60f39364-3094-4bc1-97dc-12c9cac31762","ios":"levelo://app?vid=60f39364-3094-4bc1-97dc-12c9cac31762"},"vehicle_type_id":"4","last_reported":1720386470,"current_range_meters":15200,"station_id":"ce4bh312rcd13ifvqdk0","pricing_plan_id":"cebpf4jnsgd1na2vs0mg"},{"bike_id":"7d577be8-c117-4b83-ace4-2cb39ee70258","system_id":"levelo_inurba_marseille","lat":43.280382,"lon":5.369291,"is_reserved":false,"is_disabled":false,"rental_uris":{"android":"levelo://app?vid=7d577be8-c117-4b83-ace4-2cb39ee70258","ios":"levelo://app?vid=7d577be8-c117-4b83-ace4-2cb39ee70258"},"vehicle_type_id":"4","last_reported":1720386470,"current_range_meters":15200,"station_id":"ce4bha12rcd13ifvqef0","pricing_plan_id":"cebpf4jnsgd1na2vs0mg"},{"bike_id":"1264c059-7210-461c-bab0-d156e06d13a5","system_id":"levelo_inurba_marseille","lat":43.282754,"lon":5.350519,"is_reserved":false,"is_disabled":false,"rental_uris":{"android":"levelo://app?vid=1264c059-7210-461c-bab0-d156e06d13a5","ios":"levelo://app?vid=1264c059-7210-461c-bab0-d156e06d13a5"},"vehicle_type_id":"4","last_reported":1720386470,"current_range_meters":24400,"station_id":"ce4bhbp2rcd13ifvqerg","pricing_plan_id":"cebpf4jnsgd1na2vs0mg"},{"bike_id":"746bdb55-0792-44a6-b976-da3a1d769986","system_id":"levelo_inurba_marseille","lat":43.281044,"lon":5.378308,"is_reserved":false,"is_disabled":false,"rental_uris":{"android":"levelo://app?vid=746bdb55-0792-44a6-b976-da3a1d769986","ios":"levelo://app?vid=746bdb55-0792-44a6-b976-da3a1d769986"},"vehicle_type_id":"4","last_reported":1720386470,"current_range_meters":9600,"station_id":"ce4bha12rcd13ifvqee0","pricing_plan_id":"cebpf4jnsgd1na2vs0mg"},{"bike_id":"6d77e403-e2df-4107-8702-aee705a99759","system_id":"levelo_inurba_marseille","lat":43.29047,"lon":5.40028,"is_reserved":false,"is_disabled":false,"rental_uris":{"android":"levelo://app?vid=6d77e403-e2df-4107-8702-aee705a99759","ios":"levelo://app?vid=6d77e403-e2df-4107-8702-aee705a99759"},"vehicle_type_id":"4","last_reported":1720386470,"current_range_meters":20800,"station_id":"","pricing_plan_id":"cebpf4jnsgd1na2vs0mg"},{"bike_id":"e6cd2958-a067-495d-9991-9190aaec3484","system_id":"levelo_inurba_marseille","lat":43.285723,"lon":5.394841,"is_reserved":false,"is_disabled":false,"rental_uris":{"android":"levelo://app?vid=e6cd2958-a067-495d-9991-9190aaec3484","ios":"levelo://app?vid=e6cd2958-a067-495d-9991-9190aaec3484"},"vehicle_type_id":"4","last_reported":1720386470,"current_range_meters":0,"station_id":"ce4bh292rcd13ifvqdg0","pricing_plan_id":"cebpf4jnsgd1na2vs0mg"},{"bike_id":"99ecdd81-998d-49e5-bc92-4954a229610c","system_id":"levelo_inurba_marseille","lat":43.326605,"lon":5.409903,"is_reserved":false,"is_disabled":false,"rental_uris":{"android":"levelo://app?vid=99ecdd81-998d-49e5-bc92-4954a229610c","ios":"levelo://app?vid=99ecdd81-998d-49e5-bc92-4954a229610c"},"vehicle_type_id":"4","last_reported":1720386470,"current_range_meters":5200,"station_id":"ce4bhpp2rcd13ifvqhgg","pricing_plan_id":"cebpf4jnsgd1na2vs0mg"},{"bike_id":"0afb3dc7-c64c-46b3-8b68-df59db35be47","system_id":"levelo_inurba_marseille","lat":43.30414,"lon":5.41288,"is_reserved":false,"is_disabled":false,"rental_uris":{"android":"levelo://app?vid=0afb3dc7-c64c-46b3-8b68-df59db35be47","ios":"levelo://app?vid=0afb3dc7-c64c-46b3-8b68-df59db35be47"},"vehicle_type_id":"4","last_reported":1720386470,"current_range_meters":7200,"station_id":"ce4bhop2rcd13ifvqh8g","pricing_plan_id":"cebpf4jnsgd1na2vs0mg"},{"bike_id":"1f97b350-34b8-45e5-8137-a5e2a9993d37","system_id":"levelo_inurba_marseille","lat":43.27901,"lon":5.38,"is_reserved":false,"is_disabled":false,"rental_uris":{"android":"levelo://app?vid=1f97b350-34b8-45e5-8137-a5e2a9993d37","ios":"levelo://app?vid=1f97b350-34b8-45e5-8137-a5e2a9993d37"},"vehicle_type_id":"4","last_reported":1720386470,"current_range_meters":4800,"station_id":"ce4bhf92rcd13ifvqf50","pricing_plan_id":"cebpf4jnsgd1na2vs0mg"},{"bike_id":"390d20e2-afad-4677-a89c-9dea64937b79","system_id":"levelo_inurba_marseille","lat":43.279087,"lon":5.380114,"is_reserved":false,"is_disabled":false,"rental_uris":{"android":"levelo://app?vid=390d20e2-afad-4677-a89c-9dea64937b79","ios":"levelo://app?vid=390d20e2-afad-4677-a89c-9dea64937b79"},"vehicle_type_id":"4","last_reported":1720386470,"current_range_meters":16800,"station_id":"ce4bhf92rcd13ifvqf50","pricing_plan_id":"cebpf4jnsgd1na2vs0mg"},{"bike_id":"65875d16-6718-4ba3-8be5-b135a7f38a79","system_id":"levelo_inurba_marseille","lat":43.287154,"lon":5.399979,"is_reserved":false,"is_disabled":false,"rental_uris":{"android":"levelo://app?vid=65875d16-6718-4ba3-8be5-b135a7f38a79","ios":"levelo://app?vid=65875d16-6718-4ba3-8be5-b135a7f38a79"},"vehicle_type_id":"4","last_reported":1720386470,"current_range_meters":26800,"station_id":"ce4bho92rcd13ifvqh3g","pricing_plan_id":"cebpf4jnsgd1na2vs0mg"},{"bike_id":"7a6ee590-816c-4c53-a090-2423a834231f","system_id":"levelo_inurba_marseille","lat":43.279028,"lon":5.382865,"is_reserved":false,"is_disabled":false,"rental_uris":{"android":"levelo://app?vid=7a6ee590-816c-4c53-a090-2423a834231f","ios":"levelo://app?vid=7a6ee590-816c-4c53-a090-2423a834231f"},"vehicle_type_id":"4","last_reported":1720386470,"current_range_meters":7600,"station_id":"","pricing_plan_id":"cebpf4jnsgd1na2vs0mg"},{"bike_id":"1e5ca607-345f-4340-ad12-5164cdb507af","system_id":"levelo_inurba_marseille","lat":43.27847,"lon":5.380587,"is_reserved":false,"is_disabled":false,"rental_uris":{"android":"levelo://app?vid=1e5ca607-345f-4340-ad12-5164cdb507af","ios":"levelo://app?vid=1e5ca607-345f-4340-ad12-5164cdb507af"},"vehicle_type_id":"4","last_reported":1720386470,"current_range_meters":12400,"station_id":"","pricing_plan_id":"cebpf4jnsgd1na2vs0mg"},{"bike_id":"c29da58c-186a-4ab6-b4b9-f7b2844e788d","system_id":"levelo_inurba_marseille","lat":43.320045,"lon":5.415048,"is_reserved":false,"is_disabled":false,"rental_uris":{"android":"levelo://app?vid=c29da58c-186a-4ab6-b4b9-f7b2844e788d","ios":"levelo://app?vid=c29da58c-186a-4ab6-b4b9-f7b2844e788d"},"vehicle_type_id":"4","last_reported":1720386470,"current_range_meters":10800,"station_id":"ce4bhq92rcd13ifvqhkg","pricing_plan_id":"cebpf4jnsgd1na2vs0mg"},{"bike_id":"7dd9cde2-f0c3-4b5e-bcf3-96f03e4e4265","system_id":"levelo_inurba_marseille","lat":43.320045,"lon":5.415048,"is_reserved":false,"is_disabled":false,"rental_uris":{"android":"levelo://app?vid=7dd9cde2-f0c3-4b5e-bcf3-96f03e4e4265","ios":"levelo://app?vid=7dd9cde2-f0c3-4b5e-bcf3-96f03e4e4265"},"vehicle_type_id":"4","last_reported":1720386470,"current_range_meters":12800,"station_id":"ce4bhq92rcd13ifvqhkg","pricing_plan_id":"cebpf4jnsgd1na2vs0mg"},{"bike_id":"a5b37a34-e318-4717-a542-9bc9771a3a1d","system_id":"levelo_inurba_marseille","lat":43.279742,"lon":5.38744,"is_reserved":false,"is_disabled":false,"rental_uris":{"android":"levelo://app?vid=a5b37a34-e318-4717-a542-9bc9771a3a1d","ios":"levelo://app?vid=a5b37a34-e318-4717-a542-9bc9771a3a1d"},"vehicle_type_id":"4","last_reported":1720386470,"current_range_meters":2400,"station_id":"ce4bhg12rcd13ifvqf80","pricing_plan_id":"cebpf4jnsgd1na2vs0mg"},{"bike_id":"73250c68-0ea8-424e-9546-a6f0e416ee47","system_id":"levelo_inurba_marseille","lat":43.27931,"lon":5.38679,"is_reserved":false,"is_disabled":false,"rental_uris":{"android":"levelo://app?vid=73250c68-0ea8-424e-9546-a6f0e416ee47","ios":"levelo://app?vid=73250c68-0ea8-424e-9546-a6f0e416ee47"},"vehicle_type_id":"4","last_reported":1720386470,"current_range_meters":3200,"station_id":"","pricing_plan_id":"cebpf4jnsgd1na2vs0mg"},{"bike_id":"5f6d66a2-af52-4b01-9d2e-c2bf0ad924e1","system_id":"levelo_inurba_marseille","lat":43.292571,"lon":5.409107,"is_reserved":false,"is_disabled":false,"rental_uris":{"android":"levelo://app?vid=5f6d66a2-af52-4b01-9d2e-c2bf0ad924e1","ios":"levelo://app?vid=5f6d66a2-af52-4b01-9d2e-c2bf0ad924e1"},"vehicle_type_id":"4","last_reported":1720386470,"current_range_meters":2000,"station_id":"ce4bh192rcd13ifvqdc0","pricing_plan_id":"cebpf4jnsgd1na2vs0mg"},{"bike_id":"a21c1a03-5211-4b63-b498-35470f9d17cd","system_id":"levelo_inurba_marseille","lat":43.280784,"lon":5.396622,"is_reserved":false,"is_disabled":false,"rental_uris":{"android":"levelo://app?vid=a21c1a03-5211-4b63-b498-35470f9d17cd","ios":"levelo://app?vid=a21c1a03-5211-4b63-b498-35470f9d17cd"},"vehicle_type_id":"4","last_reported":1720386470,"current_range_meters":26000,"station_id":"ce4bho12rcd13ifvqh2g","pricing_plan_id":"cebpf4jnsgd1na2vs0mg"},{"bike_id":"dc352409-b94e-41fc-bbf7-cdd61daf55b2","system_id":"levelo_inurba_marseille","lat":43.273609,"lon":5.362708,"is_reserved":false,"is_disabled":false,"rental_uris":{"android":"levelo://app?vid=dc352409-b94e-41fc-bbf7-cdd61daf55b2","ios":"levelo://app?vid=dc352409-b94e-41fc-bbf7-cdd61daf55b2"},"vehicle_type_id":"4","last_reported":1720386470,"current_range_meters":16800,"station_id":"ce4bhbh2rcd13ifvqeo0","pricing_plan_id":"cebpf4jnsgd1na2vs0mg"},{"bike_id":"7d4894ad-5572-449b-8507-3461e89c8a56","system_id":"levelo_inurba_marseille","lat":43.273613,"lon":5.362705,"is_reserved":false,"is_disabled":false,"rental_uris":{"android":"levelo://app?vid=7d4894ad-5572-449b-8507-3461e89c8a56","ios":"levelo://app?vid=7d4894ad-5572-449b-8507-3461e89c8a56"},"vehicle_type_id":"4","last_reported":1720386470,"current_range_meters":12400,"station_id":"ce4bhbh2rcd13ifvqeo0","pricing_plan_id":"cebpf4jnsgd1na2vs0mg"},{"bike_id":"acb16131-30ad-4b6d-b456-93ab4be301e6","system_id":"levelo_inurba_marseille","lat":43.273752,"lon":5.362591,"is_reserved":false,"is_disabled":false,"rental_uris":{"android":"levelo://app?vid=acb16131-30ad-4b6d-b456-93ab4be301e6","ios":"levelo://app?vid=acb16131-30ad-4b6d-b456-93ab4be301e6"},"vehicle_type_id":"4","last_reported":1720386470,"current_range_meters":10000,"station_id":"ce4bhbh2rcd13ifvqeo0","pricing_plan_id":"cebpf4jnsgd1na2vs0mg"},{"bike_id":"436d8961-db17-4720-aefd-ac583fc28e2e","system_id":"levelo_inurba_marseille","lat":43.336148,"lon":5.410349,"is_reserved":false,"is_disabled":false,"rental_uris":{"android":"levelo://app?vid=436d8961-db17-4720-aefd-ac583fc28e2e","ios":"levelo://app?vid=436d8961-db17-4720-aefd-ac583fc28e2e"},"vehicle_type_id":"4","last_reported":1720386470,"current_range_meters":13200,"station_id":"ce4bhqh2rcd13ifvqhmg","pricing_plan_id":"cebpf4jnsgd1na2vs0mg"},{"bike_id":"5e182741-7671-4651-a260-28ad98cad1d8","system_id":"levelo_inurba_marseille","lat":43.275625,"lon":5.384392,"is_reserved":false,"is_disabled":false,"rental_uris":{"android":"levelo://app?vid=5e182741-7671-4651-a260-28ad98cad1d8","ios":"levelo://app?vid=5e182741-7671-4651-a260-28ad98cad1d8"},"vehicle_type_id":"4","last_reported":1720386470,"current_range_meters":0,"station_id":"ce4bhh92rcd13ifvqfi0","pricing_plan_id":"cebpf4jnsgd1na2vs0mg"},{"bike_id":"5c1b08c4-6da8-4856-b0cc-fbf0e8fa5bf5","system_id":"levelo_inurba_marseille","lat":43.33611,"lon":5.41015,"is_reserved":false,"is_disabled":false,"rental_uris":{"android":"levelo://app?vid=5c1b08c4-6da8-4856-b0cc-fbf0e8fa5bf5","ios":"levelo://app?vid=5c1b08c4-6da8-4856-b0cc-fbf0e8fa5bf5"},"vehicle_type_id":"4","last_reported":1720386470,"current_range_meters":31600,"station_id":"ce4bhqh2rcd13ifvqhmg","pricing_plan_id":"cebpf4jnsgd1na2vs0mg"},{"bike_id":"0f307162-b3e6-4482-8267-9a25266c4c60","system_id":"levelo_inurba_marseille","lat":43.273609,"lon":5.362708,"is_reserved":false,"is_disabled":false,"rental_uris":{"android":"levelo://app?vid=0f307162-b3e6-4482-8267-9a25266c4c60","ios":"levelo://app?vid=0f307162-b3e6-4482-8267-9a25266c4c60"},"vehicle_type_id":"4","last_reported":1720386470,"current_range_meters":12800,"station_id":"ce4bhbh2rcd13ifvqeo0","pricing_plan_id":"cebpf4jnsgd1na2vs0mg"},{"bike_id":"ff673b66-6d06-4bad-aff8-3fed648c5b68","system_id":"levelo_inurba_marseille","lat":43.27558,"lon":5.38416,"is_reserved":false,"is_disabled":false,"rental_uris":{"android":"levelo://app?vid=ff673b66-6d06-4bad-aff8-3fed648c5b68","ios":"levelo://app?vid=ff673b66-6d06-4bad-aff8-3fed648c5b68"},"vehicle_type_id":"4","last_reported":1720386470,"current_range_meters":0,"station_id":"ce4bhh92rcd13ifvqfi0","pricing_plan_id":"cebpf4jnsgd1na2vs0mg"},{"bike_id":"1694cee0-78e6-4f30-a8ef-fef7ac960aea","system_id":"levelo_inurba_marseille","lat":43.276769,"lon":5.388787,"is_reserved":false,"is_disabled":false,"rental_uris":{"android":"levelo://app?vid=1694cee0-78e6-4f30-a8ef-fef7ac960aea","ios":"levelo://app?vid=1694cee0-78e6-4f30-a8ef-fef7ac960aea"},"vehicle_type_id":"4","last_reported":1720386470,"current_range_meters":6400,"station_id":"ce4bhi12rcd13ifvqfo0","pricing_plan_id":"cebpf4jnsgd1na2vs0mg"},{"bike_id":"2bcf23ad-e620-4b34-92bc-5b033bdf47c5","system_id":"levelo_inurba_marseille","lat":43.336148,"lon":5.410349,"is_reserved":false,"is_disabled":false,"rental_uris":{"android":"levelo://app?vid=2bcf23ad-e620-4b34-92bc-5b033bdf47c5","ios":"levelo://app?vid=2bcf23ad-e620-4b34-92bc-5b033bdf47c5"},"vehicle_type_id":"4","last_reported":1720386470,"current_range_meters":31200,"station_id":"ce4bhqh2rcd13ifvqhmg","pricing_plan_id":"cebpf4jnsgd1na2vs0mg"},{"bike_id":"72784687-2818-43ae-bfed-8294e54f8791","system_id":"levelo_inurba_marseille","lat":43.276769,"lon":5.388787,"is_reserved":false,"is_disabled":false,"rental_uris":{"android":"levelo://app?vid=72784687-2818-43ae-bfed-8294e54f8791","ios":"levelo://app?vid=72784687-2818-43ae-bfed-8294e54f8791"},"vehicle_type_id":"4","last_reported":1720386470,"current_range_meters":3600,"station_id":"ce4bhi12rcd13ifvqfo0","pricing_plan_id":"cebpf4jnsgd1na2vs0mg"},{"bike_id":"7d0bd57b-e408-4d2a-b9dc-8b02cf91df3b","system_id":"levelo_inurba_marseille","lat":43.33609,"lon":5.41038,"is_reserved":false,"is_disabled":false,"rental_uris":{"android":"levelo://app?vid=7d0bd57b-e408-4d2a-b9dc-8b02cf91df3b","ios":"levelo://app?vid=7d0bd57b-e408-4d2a-b9dc-8b02cf91df3b"},"vehicle_type_id":"4","last_reported":1720386470,"current_range_meters":31200,"station_id":"ce4bhqh2rcd13ifvqhmg","pricing_plan_id":"cebpf4jnsgd1na2vs0mg"},{"bike_id":"6794011d-688c-4c1c-a763-585ac4552f19","system_id":"levelo_inurba_marseille","lat":43.35235,"lon":5.366965,"is_reserved":false,"is_disabled":false,"rental_uris":{"android":"levelo://app?vid=6794011d-688c-4c1c-a763-585ac4552f19","ios":"levelo://app?vid=6794011d-688c-4c1c-a763-585ac4552f19"},"vehicle_type_id":"4","last_reported":1720386470,"current_range_meters":16800,"station_id":"","pricing_plan_id":"cebpf4jnsgd1na2vs0mg"},{"bike_id":"97ab271c-9f97-4b8f-b126-e4ac9a9bbcde","system_id":"levelo_inurba_marseille","lat":43.279185,"lon":5.395692,"is_reserved":false,"is_disabled":false,"rental_uris":{"android":"levelo://app?vid=97ab271c-9f97-4b8f-b126-e4ac9a9bbcde","ios":"levelo://app?vid=97ab271c-9f97-4b8f-b126-e4ac9a9bbcde"},"vehicle_type_id":"4","last_reported":1720386470,"current_range_meters":0,"station_id":"ce4bhf92rcd13ifvqf40","pricing_plan_id":"cebpf4jnsgd1na2vs0mg"},{"bike_id":"9c3cecb0-9a25-4c28-afba-0265fc3b2903","system_id":"levelo_inurba_marseille","lat":43.27993,"lon":5.4,"is_reserved":false,"is_disabled":false,"rental_uris":{"android":"levelo://app?vid=9c3cecb0-9a25-4c28-afba-0265fc3b2903","ios":"levelo://app?vid=9c3cecb0-9a25-4c28-afba-0265fc3b2903"},"vehicle_type_id":"4","last_reported":1720386470,"current_range_meters":0,"station_id":"ce4bho92rcd13ifvqh4g","pricing_plan_id":"cebpf4jnsgd1na2vs0mg"},{"bike_id":"50af3ece-858f-4ed5-942b-6c4ee00fba1b","system_id":"levelo_inurba_marseille","lat":43.27494,"lon":5.38957,"is_reserved":false,"is_disabled":false,"rental_uris":{"android":"levelo://app?vid=50af3ece-858f-4ed5-942b-6c4ee00fba1b","ios":"levelo://app?vid=50af3ece-858f-4ed5-942b-6c4ee00fba1b"},"vehicle_type_id":"4","last_reported":1720386470,"current_range_meters":0,"station_id":"","pricing_plan_id":"cebpf4jnsgd1na2vs0mg"},{"bike_id":"a1c77f5e-f042-4d4b-b349-02e8505a8a1b","system_id":"levelo_inurba_marseille","lat":43.29839,"lon":5.42105,"is_reserved":false,"is_disabled":false,"rental_uris":{"android":"levelo://app?vid=a1c77f5e-f042-4d4b-b349-02e8505a8a1b","ios":"levelo://app?vid=a1c77f5e-f042-4d4b-b349-02e8505a8a1b"},"vehicle_type_id":"4","last_reported":1720386470,"current_range_meters":0,"station_id":"","pricing_plan_id":"cebpf4jnsgd1na2vs0mg"},{"bike_id":"944afc63-187a-4c87-8c56-7deb87e275d4","system_id":"levelo_inurba_marseille","lat":43.29555,"lon":5.42289,"is_reserved":false,"is_disabled":false,"rental_uris":{"android":"levelo://app?vid=944afc63-187a-4c87-8c56-7deb87e275d4","ios":"levelo://app?vid=944afc63-187a-4c87-8c56-7deb87e275d4"},"vehicle_type_id":"4","last_reported":1720386470,"current_range_meters":3200,"station_id":"ce4bhph2rcd13ifvqhdg","pricing_plan_id":"cebpf4jnsgd1na2vs0mg"},{"bike_id":"942df5b7-2153-4bac-b65a-09365df2effc","system_id":"levelo_inurba_marseille","lat":43.295511,"lon":5.422926,"is_reserved":false,"is_disabled":false,"rental_uris":{"android":"levelo://app?vid=942df5b7-2153-4bac-b65a-09365df2effc","ios":"levelo://app?vid=942df5b7-2153-4bac-b65a-09365df2effc"},"vehicle_type_id":"4","last_reported":1720386470,"current_range_meters":30400,"station_id":"ce4bhph2rcd13ifvqhdg","pricing_plan_id":"cebpf4jnsgd1na2vs0mg"},{"bike_id":"fd51755d-0234-436b-a4a6-d45fb58a8f35","system_id":"levelo_inurba_marseille","lat":43.28328,"lon":5.41268,"is_reserved":false,"is_disabled":false,"rental_uris":{"android":"levelo://app?vid=fd51755d-0234-436b-a4a6-d45fb58a8f35","ios":"levelo://app?vid=fd51755d-0234-436b-a4a6-d45fb58a8f35"},"vehicle_type_id":"4","last_reported":1720386470,"current_range_meters":23200,"station_id":"","pricing_plan_id":"cebpf4jnsgd1na2vs0mg"},{"bike_id":"e6e8c304-77a8-4e3f-bfef-7cc1a2e84ee4","system_id":"levelo_inurba_marseille","lat":43.28335,"lon":5.41284,"is_reserved":false,"is_disabled":false,"rental_uris":{"android":"levelo://app?vid=e6e8c304-77a8-4e3f-bfef-7cc1a2e84ee4","ios":"levelo://app?vid=e6e8c304-77a8-4e3f-bfef-7cc1a2e84ee4"},"vehicle_type_id":"4","last_reported":1720386470,"current_range_meters":13600,"station_id":"","pricing_plan_id":"cebpf4jnsgd1na2vs0mg"},{"bike_id":"bf0295a9-a15f-410a-92dc-776185a7717c","system_id":"levelo_inurba_marseille","lat":43.278128,"lon":5.407195,"is_reserved":false,"is_disabled":false,"rental_uris":{"android":"levelo://app?vid=bf0295a9-a15f-410a-92dc-776185a7717c","ios":"levelo://app?vid=bf0295a9-a15f-410a-92dc-776185a7717c"},"vehicle_type_id":"4","last_reported":1720386470,"current_range_meters":27600,"station_id":"ce4bhnh2rcd13ifvqgtg","pricing_plan_id":"cebpf4jnsgd1na2vs0mg"},