{"last_updated":1745183309,"ttl":60,"version":"2.2","data":{"bikes":[{"bike_id":"9fe8c14c-2d24-41b2-9662-956cdf9f075c","system_id":"levelo_inurba_marseille","lat":43.24478,"lon":5.36915,"is_reserved":false,"is_disabled":false,"rental_uris":{"android":"levelo://app?vid=9fe8c14c-2d24-41b2-9662-956cdf9f075c","ios":"levelo://app?vid=9fe8c14c-2d24-41b2-9662-956cdf9f075c"},"vehicle_type_id":"4","last_reported":1745183310,"current_range_meters":2800,"station_id":"","pricing_plan_id":"cebpf4jnsgd1na2vs0mg"},{"bike_id":"25cb6338-d492-492c-b50f-241f00833c2c","system_id":"levelo_inurba_marseille","lat":43.276679,"lon":5.388952,"is_reserved":false,"is_disabled":true,"rental_uris":{"android":"levelo://app?vid=25cb6338-d492-492c-b50f-241f00833c2c","ios":"levelo://app?vid=25cb6338-d492-492c-b50f-241f00833c2c"},"vehicle_type_id":"4","last_reported":1745183310,"current_range_meters":2800,"station_id":"ce4bhi12rcd13ifvqfo0","pricing_plan_id":"cebpf4jnsgd1na2vs0mg"},{"bike_id":"c8ba3045-a806-40b7-9f18-55b18047218f","system_id":"levelo_inurba_marseille","lat":43.26495,"lon":5.395344,"is_reserved":false,"is_disabled":true,"rental_uris":{"android":"levelo://app?vid=c8ba3045-a806-40b7-9f18-55b18047218f","ios":"levelo://app?vid=c8ba3045-a806-40b7-9f18-55b18047218f"},"vehicle_type_id":"4","last_reported":1745183310,"current_range_meters":2800,"station_id":"ce4bhi12rcd13ifvqfq0","pricing_plan_id":"cebpf4jnsgd1na2vs0mg"},{"bike_id":"ab42e793-35c0-4a52-a3f6-ac07eb6ffa88","system_id":"levelo_inurba_marseille","lat":43.2319,"lon":5.35552,"is_reserved":false,"is_disabled":true,"rental_uris":{"android":"levelo://app?vid=ab42e793-35c0-4a52-a3f6-ac07eb6ffa88","ios":"levelo://app?vid=ab42e793-35c0-4a52-a3f6-ac07eb6ffa88"},"vehicle_type_id":"4","last_reported":1745183310,"current_range_meters":2800,"station_id":"ce4bhu92rcd13ifvqi70","pricing_plan_id":"cebpf4jnsgd1na2vs0mg"},{"bike_id":"a0ddb0a5-f7f0-4281-aa27-9e82747cc573","system_id":"levelo_inurba_marseille","lat":43.33754,"lon":5.37491,"is_reserved":false,"is_disabled":false,"rental_uris":{"android":"levelo://app?vid=a0ddb0a5-f7f0-4281-aa27-9e82747cc573","ios":"levelo://app?vid=a0ddb0a5-f7f0-4281-aa27-9e82747cc573"},"vehicle_type_id":"4","last_reported":1745183310,"current_range_meters":2800,"station_id":"","pricing_plan_id":"cebpf4jnsgd1na2vs0mg"},{"bike_id":"fc7f94bf-9c4d-408e-8f51-3158944a4dbc","system_id":"levelo_inurba_marseille","lat":43.31998,"lon":5.38144,"is_reserved":false,"is_disabled":false,"rental_uris":{"android":"levelo://app?vid=fc7f94bf-9c4d-408e-8f51-3158944a4dbc","ios":"levelo://app?vid=fc7f94bf-9c4d-408e-8f51-3158944a4dbc"},"vehicle_type_id":"4","last_reported":1745183310,"current_range_meters":3200,"station_id":"ce4bhr12rcd13ifvqhpg","pricing_plan_id":"cebpf4jnsgd1na2vs0mg"},{"bike_id":"70d2637b-5833-4c07-a153-276593de976c","system_id":"levelo_inurba_marseille","lat":43.24804,"lon":5.37454,"is_reserved":false,"is_disabled":false,"rental_uris":{"android":"levelo://app?vid=70d2637b-5833-4c07-a153-276593de976c","ios":"levelo://app?vid=70d2637b-5833-4c07-a153-276593de976c"},"vehicle_type_id":"4","last_reported":1745183310,"current_range_meters":3200,"station_id":"ce4bhgh2rcd13ifvqfb0","pricing_plan_id":"cebpf4jnsgd1na2vs0mg"},{"bike_id":"7afeef51-2056-4d06-b296-c2c124d55600","system_id":"levelo_inurba_marseille","lat":43.31723,"lon":5.42391,"is_reserved":false,"is_disabled":false,"rental_uris":{"android":"levelo://app?vid=7afeef51-2056-4d06-b296-c2c124d55600","ios":"levelo://app?vid=7afeef51-2056-4d06-b296-c2c124d55600"},"vehicle_type_id":"4","last_reported":1745183310,"current_range_meters":3200,"station_id":"ce4bhp92rcd13ifvqhbg","pricing_plan_id":"cebpf4jnsgd1na2vs0mg"},{"bike_id":"608caa31-fe6b-4659-bca1-9d8d0fed7dbf","system_id":"levelo_inurba_marseille","lat":43.21185,"lon":5.35074,"is_reserved":false,"is_disabled":false,"rental_uris":{"android":"levelo://app?vid=608caa31-fe6b-4659-bca1-9d8d0fed7dbf","ios":"levelo://app?vid=608caa31-fe6b-4659-bca1-9d8d0fed7dbf"},"vehicle_type_id":"4","last_reported":1745183310,"current_range_meters":3200,"station_id":"st_cvj6sg6p6f1abm77japg","pricing_plan_id":"cebpf4jnsgd1na2vs0mg"},{"bike_id":"e3ac940e-4d1b-4d51-ad04-b3abc26d819e","system_id":"levelo_inurba_marseille","lat":43.28943,"lon":5.38374,"is_reserved":false,"is_disabled":true,"rental_uris":{"android":"levelo://app?vid=e3ac940e-4d1b-4d51-ad04-b3abc26d819e","ios":"levelo://app?vid=e3ac940e-4d1b-4d51-ad04-b3abc26d819e"},"vehicle_type_id":"4","last_reported":1745183310,"current_range_meters":3600,"station_id":"ce4bh612rcd13ifvqe6g","pricing_plan_id":"cebpf4jnsgd1na2vs0mg"},{"bike_id":"59b8a710-c124-451a-a8fb-8229b190174f","system_id":"levelo_inurba_marseille","lat":43.241833,"lon":5.363848,"is_reserved":false,"is_disabled":true,"rental_uris":{"android":"levelo://app?vid=59b8a710-c124-451a-a8fb-8229b190174f","ios":"levelo://app?vid=59b8a710-c124-451a-a8fb-8229b190174f"},"vehicle_type_id":"4","last_reported":1745183310,"current_range_meters":3600,"station_id":"cpo36qri1sfpv3e86is0","pricing_plan_id":"cebpf4jnsgd1na2vs0mg"},{"bike_id":"cecd7c84-becb-41c3-9869-71d934006a59","system_id":"levelo_inurba_marseille","lat":43.27388,"lon":5.36265,"is_reserved":false,"is_disabled":true,"rental_uris":{"android":"levelo://app?vid=cecd7c84-becb-41c3-9869-71d934006a59","ios":"levelo://app?vid=cecd7c84-becb-41c3-9869-71d934006a59"},"vehicle_type_id":"4","last_reported":1745183310,"current_range_meters":3600,"station_id":"ce4bhbh2rcd13ifvqeo0","pricing_plan_id":"cebpf4jnsgd1na2vs0mg"},{"bike_id":"844db808-751e-4d57-805b-c6e5d3fe29c5","system_id":"levelo_inurba_marseille","lat":43.28995,"lon":5.35614,"is_reserved":false,"is_disabled":true,"rental_uris":{"android":"levelo://app?vid=844db808-751e-4d57-805b-c6e5d3fe29c5","ios":"levelo://app?vid=844db808-751e-4d57-805b-c6e5d3fe29c5"},"vehicle_type_id":"4","last_reported":1745183310,"current_range_meters":4000,"station_id":"ce4bhb92rcd13ifvqen0","pricing_plan_id":"cebpf4jnsgd1na2vs0mg"},{"bike_id":"48cb89cd-b18b-4490-8e7a-4d3ea80ee61a","system_id":"levelo_inurba_marseille","lat":43.31729,"lon":5.42394,"is_reserved":false,"is_disabled":false,"rental_uris":{"android":"levelo://app?vid=48cb89cd-b18b-4490-8e7a-4d3ea80ee61a","ios":"levelo://app?vid=48cb89cd-b18b-4490-8e7a-4d3ea80ee61a"},"vehicle_type_id":"4","last_reported":1745183310,"current_range_meters":0,"station_id":"ce4bhp92rcd13ifvqhbg","pricing_plan_id":"cebpf4jnsgd1na2vs0mg"},{"bike_id":"0831736e-ce18-4e68-93f8-47c05c9b1361","system_id":"levelo_inurba_marseille","lat":43.29914,"lon":5.3813,"is_reserved":false,"is_disabled":false,"rental_uris":{"android":"levelo://app?vid=0831736e-ce18-4e68-93f8-47c05c9b1361","ios":"levelo://app?vid=0831736e-ce18-4e68-93f8-47c05c9b1361"},"vehicle_type_id":"4","last_reported":1745183310,"current_range_meters":4000,"station_id":"ce4bgj12rcd13ifvqbc0","pricing_plan_id":"cebpf4jnsgd1na2vs0mg"},{"bike_id":"8a1dde72-6b8d-4113-a8d9-29ea6b05ede2","system_id":"levelo_inurba_marseille","lat":43.29264,"lon":5.38201,"is_reserved":false,"is_disabled":false,"rental_uris":{"android":"levelo://app?vid=8a1dde72-6b8d-4113-a8d9-29ea6b05ede2","ios":"levelo://app?vid=8a1dde72-6b8d-4113-a8d9-29ea6b05ede2"},"vehicle_type_id":"4","last_reported":1745183310,"current_range_meters":4400,"station_id":"","pricing_plan_id":"cebpf4jnsgd1na2vs0mg"},{"bike_id":"220ab7fa-a81f-4a51-805c-3d4feeb64942","system_id":"levelo_inurba_marseille","lat":43.28707,"lon":5.37393,"is_reserved":false,"is_disabled":true,"rental_uris":{"android":"levelo://app?vid=220ab7fa-a81f-4a51-805c-3d4feeb64942","ios":"levelo://app?vid=220ab7fa-a81f-4a51-805c-3d4feeb64942"},"vehicle_type_id":"4","last_reported":1745183310,"current_range_meters":4400,"station_id":"ce4bh3p2rcd13ifvqdq0","pricing_plan_id":"cebpf4jnsgd1na2vs0mg"},{"bike_id":"656ac081-c121-4824-81a4-fa92b7720ed4","system_id":"levelo_inurba_marseille","lat":43.23187,"lon":5.35573,"is_reserved":false,"is_disabled":false,"rental_uris":{"android":"levelo://app?vid=656ac081-c121-4824-81a4-fa92b7720ed4","ios":"levelo://app?vid=656ac081-c121-4824-81a4-fa92b7720ed4"},"vehicle_type_id":"4","last_reported":1745183310,"current_range_meters":4800,"station_id":"ce4bhu92rcd13ifvqi70","pricing_plan_id":"cebpf4jnsgd1na2vs0mg"},{"bike_id":"eb8a0172-041a-4b50-a689-d16c499fd520","system_id":"levelo_inurba_marseille","lat":43.25476,"lon":5.37671,"is_reserved":false,"is_disabled":false,"rental_uris":{"android":"levelo://app?vid=eb8a0172-041a-4b50-a689-d16c499fd520","ios":"levelo://app?vid=eb8a0172-041a-4b50-a689-d16c499fd520"},"vehicle_type_id":"4","last_reported":1745183310,"current_range_meters":4800,"station_id":"ce4bhh12rcd13ifvqff0","pricing_plan_id":"cebpf4jnsgd1na2vs0mg"},{"bike_id":"a4f53f83-a203-4112-88cd-432220291605","system_id":"levelo_inurba_marseille","lat":43.28416,"lon":5.34986,"is_reserved":false,"is_disabled":true,"rental_uris":{"android":"levelo://app?vid=a4f53f83-a203-4112-88cd-432220291605","ios":"levelo://app?vid=a4f53f83-a203-4112-88cd-432220291605"},"vehicle_type_id":"4","last_reported":1745183310,"current_range_meters":4800,"station_id":"ce4bhbh2rcd13ifvqepg","pricing_plan_id":"cebpf4jnsgd1na2vs0mg"},{"bike_id":"186380b9-3dab-457b-b648-71d123fa0368","system_id":"levelo_inurba_marseille","lat":43.25098,"lon":5.40347,"is_reserved":false,"is_disabled":true,"rental_uris":{"android":"levelo://app?vid=186380b9-3dab-457b-b648-71d123fa0368","ios":"levelo://app?vid=186380b9-3dab-457b-b648-71d123fa0368"},"vehicle_type_id":"4","last_reported":1745183310,"current_range_meters":4800,"station_id":"ce4bhlh2rcd13ifvqgig","pricing_plan_id":"cebpf4jnsgd1na2vs0mg"},{"bike_id":"d2ba4413-c35f-41b1-8baf-f83e6001a359","system_id":"levelo_inurba_marseille","lat":43.29028,"lon":5.38627,"is_reserved":false,"is_disabled":true,"rental_uris":{"android":"levelo://app?vid=d2ba4413-c35f-41b1-8baf-f83e6001a359","ios":"levelo://app?vid=d2ba4413-c35f-41b1-8baf-f83e6001a359"},"vehicle_type_id":"4","last_reported":1745183310,"current_range_meters":4800,"station_id":"ce4bh4p2rcd13ifvqe0g","pricing_plan_id":"cebpf4jnsgd1na2vs0mg"},{"bike_id":"564fb40e-5fad-4e99-b12d-f5030eebc05e","system_id":"levelo_inurba_marseille","lat":43.265472,"lon":5.372858,"is_reserved":false,"is_disabled":true,"rental_uris":{"android":"levelo://app?vid=564fb40e-5fad-4e99-b12d-f5030eebc05e","ios":"levelo://app?vid=564fb40e-5fad-4e99-b12d-f5030eebc05e"},"vehicle_type_id":"4","last_reported":1745183310,"current_range_meters":4800,"station_id":"ce4bhap2rcd13ifvqek0","pricing_plan_id":"cebpf4jnsgd1na2vs0mg"},{"bike_id":"1e3ce282-0e2f-45fb-9862-5638bd1f30c1","system_id":"levelo_inurba_marseille","lat":43.26681,"lon":5.38267,"is_reserved":false,"is_disabled":false,"rental_uris":{"android":"levelo://app?vid=1e3ce282-0e2f-45fb-9862-5638bd1f30c1","ios":"levelo://app?vid=1e3ce282-0e2f-45fb-9862-5638bd1f30c1"},"vehicle_type_id":"4","last_reported":1745183310,"current_range_meters":5600,"station_id":"ce4bhg92rcd13ifvqf90","pricing_plan_id":"cebpf4jnsgd1na2vs0mg"},{"bike_id":"9a601666-d017-4a14-9ed4-ae70c1b359f9","system_id":"levelo_inurba_marseille","lat":43.30932,"lon":5.40141,"is_reserved":false,"is_disabled":false,"rental_uris":{"android":"levelo://app?vid=9a601666-d017-4a14-9ed4-ae70c1b359f9","ios":"levelo://app?vid=9a601666-d017-4a14-9ed4-ae70c1b359f9"},"vehicle_type_id":"4","last_reported":1745183310,"current_range_meters":5600,"station_id":"ce4bgvp2rcd13ifvqct0","pricing_plan_id":"cebpf4jnsgd1na2vs0mg"},{"bike_id":"220a9965-7565-4003-b0ce-c078a8a693fa","system_id":"levelo_inurba_marseille","lat":43.28439,"lon":5.392,"is_reserved":false,"is_disabled":false,"rental_uris":{"android":"levelo://app?vid=220a9965-7565-4003-b0ce-c078a8a693fa","ios":"levelo://app?vid=220a9965-7565-4003-b0ce-c078a8a693fa"},"vehicle_type_id":"4","last_reported":1745183310,"current_range_meters":5600,"station_id":"ce4bhoh2rcd13ifvqh5g","pricing_plan_id":"cebpf4jnsgd1na2vs0mg"},{"bike_id":"0d21f9f9-922e-4003-8dc4-8224af9ef712","system_id":"levelo_inurba_marseille","lat":43.32624,"lon":5.35886,"is_reserved":false,"is_disabled":true,"rental_uris":{"android":"levelo://app?vid=0d21f9f9-922e-4003-8dc4-8224af9ef712","ios":"levelo://app?vid=0d21f9f9-922e-4003-8dc4-8224af9ef712"},"vehicle_type_id":"4","last_reported":1745183310,"current_range_meters":5600,"station_id":"","pricing_plan_id":"cebpf4jnsgd1na2vs0mg"},{"bike_id":"1eaca8f5-0017-418a-9bfc-52185bf67513","system_id":"levelo_inurba_marseille","lat":43.33755,"lon":5.39154,"is_reserved":false,"is_disabled":false,"rental_uris":{"android":"levelo://app?vid=1eaca8f5-0017-418a-9bfc-52185bf67513","ios":"levelo://app?vid=1eaca8f5-0017-418a-9bfc-52185bf67513"},"vehicle_type_id":"4","last_reported":1745183310,"current_range_meters":6000,"station_id":"ce4bhr92rcd13ifvqhsg","pricing_plan_id":"cebpf4jnsgd1na2vs0mg"},{"bike_id":"f5125268-38bb-4053-ad57-af0bf71e62e1","system_id":"levelo_inurba_marseille","lat":43.30305,"lon":5.39209,"is_reserved":false,"is_disabled":false,"rental_uris":{"android":"levelo://app?vid=f5125268-38bb-4053-ad57-af0bf71e62e1","ios":"levelo://app?vid=f5125268-38bb-4053-ad57-af0bf71e62e1"},"vehicle_type_id":"4","last_reported":1745183310,"current_range_meters":6000,"station_id":"ce4bgkh2rcd13ifvqbk0","pricing_plan_id":"cebpf4jnsgd1na2vs0mg"},{"bike_id":"f138fa1d-93d0-4663-b941-adb937d975e2","system_id":"levelo_inurba_marseille","lat":43.27178,"lon":5.40987,"is_reserved":false,"is_disabled":false,"rental_uris":{"android":"levelo://app?vid=f138fa1d-93d0-4663-b941-adb937d975e2","ios":"levelo://app?vid=f138fa1d-93d0-4663-b941-adb937d975e2"},"vehicle_type_id":"4","last_reported":1745183310,"current_range_meters":6000,"station_id":"ce4bhl12rcd13ifvqgf0","pricing_plan_id":"cebpf4jnsgd1na2vs0mg"},{"bike_id":"e64f789a-b60e-48be-aa28-52df7a2341c8","system_id":"levelo_inurba_marseille","lat":43.29021,"lon":5.38132,"is_reserved":false,"is_disabled":false,"rental_uris":{"android":"levelo://app?vid=e64f789a-b60e-48be-aa28-52df7a2341c8","ios":"levelo://app?vid=e64f789a-b60e-48be-aa28-52df7a2341c8"},"vehicle_type_id":"4","last_reported":1745183310,"current_range_meters":4800,"station_id":"ce4bh4p2rcd13ifvqe1g","pricing_plan_id":"cebpf4jnsgd1na2vs0mg"},{"bike_id":"677ad226-f2e6-4e3a-87af-cf8da4f1aba4","system_id":"levelo_inurba_marseille","lat":43.3106,"lon":5.3835,"is_reserved":false,"is_disabled":false,"rental_uris":{"android":"levelo://app?vid=677ad226-f2e6-4e3a-87af-cf8da4f1aba4","ios":"levelo://app?vid=677ad226-f2e6-4e3a-87af-cf8da4f1aba4"},"vehicle_type_id":"4","last_reported":1745183310,"current_range_meters":6000,"station_id":"ce4bgv92rcd13ifvqcr0","pricing_plan_id":"cebpf4jnsgd1na2vs0mg"},{"bike_id":"cb9127a5-76f8-4cfa-9e72-3f333449e26a","system_id":"levelo_inurba_marseille","lat":43.27937,"lon":5.41048,"is_reserved":false,"is_disabled":false,"rental_uris":{"android":"levelo://app?vid=cb9127a5-76f8-4cfa-9e72-3f333449e26a","ios":"levelo://app?vid=cb9127a5-76f8-4cfa-9e72-3f333449e26a"},"vehicle_type_id":"4","last_reported":1745183310,"current_range_meters":6400,"station_id":"ce4bhnp2rcd13ifvqh0g","pricing_plan_id":"cebpf4jnsgd1na2vs0mg"},{"bike_id":"1965f819-3778-4654-96e5-aaaf9c36cc08","system_id":"levelo_inurba_marseille","lat":43.30384,"lon":5.42472,"is_reserved":false,"is_disabled":true,"rental_uris":{"android":"levelo://app?vid=1965f819-3778-4654-96e5-aaaf9c36cc08","ios":"levelo://app?vid=1965f819-3778-4654-96e5-aaaf9c36cc08"},"vehicle_type_id":"4","last_reported":1745183310,"current_range_meters":6400,"station_id":"ce4bhoh2rcd13ifvqh6g","pricing_plan_id":"cebpf4jnsgd1na2vs0mg"},{"bike_id":"358e1f20-d875-48ca-9d8c-02d4bc4fc797","system_id":"levelo_inurba_marseille","lat":43.33719,"lon":5.392133,"is_reserved":false,"is_disabled":false,"rental_uris":{"android":"levelo://app?vid=358e1f20-d875-48ca-9d8c-02d4bc4fc797","ios":"levelo://app?vid=358e1f20-d875-48ca-9d8c-02d4bc4fc797"},"vehicle_type_id":"4","last_reported":1745183310,"current_range_meters":6400,"station_id":"ce4bhr92rcd13ifvqhsg","pricing_plan_id":"cebpf4jnsgd1na2vs0mg"},{"bike_id":"1b4a8f9d-2faa-464e-b7a7-813f9c13d848","system_id":"levelo_inurba_marseille","lat":43.24161,"lon":5.36403,"is_reserved":false,"is_disabled":false,"rental_uris":{"android":"levelo://app?vid=1b4a8f9d-2faa-464e-b7a7-813f9c13d848","ios":"levelo://app?vid=1b4a8f9d-2faa-464e-b7a7-813f9c13d848"},"vehicle_type_id":"4","last_reported":1745183310,"current_range_meters":6400,"station_id":"cpo36qri1sfpv3e86is0","pricing_plan_id":"cebpf4jnsgd1na2vs0mg"},{"bike_id":"931800f0-f5ae-42dc-9401-5ef75e1edc12","system_id":"levelo_inurba_marseille","lat":43.27379,"lon":5.41411,"is_reserved":false,"is_disabled":false,"rental_uris":{"android":"levelo://app?vid=931800f0-f5ae-42dc-9401-5ef75e1edc12","ios":"levelo://app?vid=931800f0-f5ae-42dc-9401-5ef75e1edc12"},"vehicle_type_id":"4","last_reported":1745183310,"current_range_meters":6800,"station_id":"","pricing_plan_id":"cebpf4jnsgd1na2vs0mg"},{"bike_id":"1c585d5f-928b-4936-9632-b3dc2d2af080","system_id":"levelo_inurba_marseille","lat":43.24163,"lon":5.36391,"is_reserved":false,"is_disabled":false,"rental_uris":{"android":"levelo://app?vid=1c585d5f-928b-4936-9632-b3dc2d2af080","ios":"levelo://app?vid=1c585d5f-928b-4936-9632-b3dc2d2af080"},"vehicle_type_id":"4","last_reported":1745183310,"current_range_meters":6800,"station_id":"cpo36qri1sfpv3e86is0","pricing_plan_id":"cebpf4jnsgd1na2vs0mg"},{"bike_id":"24213b37-b766-4d9c-a174-f6bf34920497","system_id":"levelo_inurba_marseille","lat":43.28469,"lon":5.384178,"is_reserved":false,"is_disabled":false,"rental_uris":{"android":"levelo://app?vid=24213b37-b766-4d9c-a174-f6bf34920497","ios":"levelo://app?vid=24213b37-b766-4d9c-a174-f6bf34920497"},"vehicle_type_id":"4","last_reported":1745183310,"current_range_meters":7200,"station_id":"ce4bh512rcd13ifvqe3g","pricing_plan_id":"cebpf4jnsgd1na2vs0mg"},{"bike_id":"0dd13644-e942-427d-9540-f17eaef6dd89","system_id":"levelo_inurba_marseille","lat":43.27022,"lon":5.38791,"is_reserved":false,"is_disabled":true,"rental_uris":{"android":"levelo://app?vid=0dd13644-e942-427d-9540-f17eaef6dd89","ios":"levelo://app?vid=0dd13644-e942-427d-9540-f17eaef6dd89"},"vehicle_type_id":"4","last_reported":1745183310,"current_range_meters":7200,"station_id":"","pricing_plan_id":"cebpf4jnsgd1na2vs0mg"},{"bike_id":"8dcdbddf-c32e-4b31-8e8c-b20dbb5dcd33","system_id":"levelo_inurba_marseille","lat":43.27939,"lon":5.41052,"is_reserved":false,"is_disabled":false,"rental_uris":{"android":"levelo://app?vid=8dcdbddf-c32e-4b31-8e8c-b20dbb5dcd33","ios":"levelo://app?vid=8dcdbddf-c32e-4b31-8e8c-b20dbb5dcd33"},"vehicle_type_id":"4","last_reported":1745183310,"current_range_meters":7200,"station_id":"ce4bhnp2rcd13ifvqh0g","pricing_plan_id":"cebpf4jnsgd1na2vs0mg"},{"bike_id":"27fc9e89-85ef-468e-bdd6-486fe541609c","system_id":"levelo_inurba_marseille","lat":43.31329,"lon":5.37366,"is_reserved":false,"is_disabled":false,"rental_uris":{"android":"levelo://app?vid=27fc9e89-85ef-468e-bdd6-486fe541609c","ios":"levelo://app?vid=27fc9e89-85ef-468e-bdd6-486fe541609c"},"vehicle_type_id":"4","last_reported":1745183310,"current_range_meters":7200,"station_id":"","pricing_plan_id":"cebpf4jnsgd1na2vs0mg"},{"bike_id":"2d46f81e-bf83-4416-bba9-7e11b13652fc","system_id":"levelo_inurba_marseille","lat":43.30129,"lon":5.37356,"is_reserved":false,"is_disabled":true,"rental_uris":{"android":"levelo://app?vid=2d46f81e-bf83-4416-bba9-7e11b13652fc","ios":"levelo://app?vid=2d46f81e-bf83-4416-bba9-7e11b13652fc"},"vehicle_type_id":"4","last_reported":1745183310,"current_range_meters":7200,"station_id":"ce4bgs92rcd13ifvqcc0","pricing_plan_id":"cebpf4jnsgd1na2vs0mg"},{"bike_id":"2ba8c5c4-f0af-4f23-add7-feee032d7669","system_id":"levelo_inurba_marseille","lat":43.28277,"lon":5.3507,"is_reserved":false,"is_disabled":false,"rental_uris":{"android":"levelo://app?vid=2ba8c5c4-f0af-4f23-add7-feee032d7669","ios":"levelo://app?vid=2ba8c5c4-f0af-4f23-add7-feee032d7669"},"vehicle_type_id":"4","last_reported":1745183310,"current_range_meters":7200,"station_id":"ce4bhbp2rcd13ifvqerg","pricing_plan_id":"cebpf4jnsgd1na2vs0mg"},{"bike_id":"a969d1ed-77d3-4189-b5a7-0bf8cf90d349","system_id":"levelo_inurba_marseille","lat":43.23192,"lon":5.35553,"is_reserved":false,"is_disabled":false,"rental_uris":{"android":"levelo://app?vid=a969d1ed-77d3-4189-b5a7-0bf8cf90d349","ios":"levelo://app?vid=a969d1ed-77d3-4189-b5a7-0bf8cf90d349"},"vehicle_type_id":"4","last_reported":1745183310,"current_range_meters":7200,"station_id":"ce4bhu92rcd13ifvqi70","pricing_plan_id":"cebpf4jnsgd1na2vs0mg"},{"bike_id":"e4eb5b99-f9a3-4cbb-a9bb-fca2efca5609","system_id":"levelo_inurba_marseille","lat":43.30885,"lon":5.3965,"is_reserved":false,"is_disabled":false,"rental_uris":{"android":"levelo://app?vid=e4eb5b99-f9a3-4cbb-a9bb-fca2efca5609","ios":"levelo://app?vid=e4eb5b99-f9a3-4cbb-a9bb-fca2efca5609"},"vehicle_type_id":"4","last_reported":1745183310,"current_range_meters":7200,"station_id":"ce4bh012rcd13ifvqcv0","pricing_plan_id":"cebpf4jnsgd1na2vs0mg"},{"bike_id":"138d6608-886e-4863-a664-7df6e5cc9a47","system_id":"levelo_inurba_marseille","lat":43.32663,"lon":5.42184,"is_reserved":false,"is_disabled":false,"rental_uris":{"android":"levelo://app?vid=138d6608-886e-4863-a664-7df6e5cc9a47","ios":"levelo://app?vid=138d6608-886e-4863-a664-7df6e5cc9a47"},"vehicle_type_id":"4","last_reported":1745183310,"current_range_meters":7200,"station_id":"","pricing_plan_id":"cebpf4jnsgd1na2vs0mg"},{"bike_id":"97e50bb0-9a70-481b-b370-e509345e710a","system_id":"levelo_inurba_marseille","lat":43.28041,"lon":5.36928,"is_reserved":false,"is_disabled":true,"rental_uris":{"android":"levelo://app?vid=97e50bb0-9a70-481b-b370-e509345e710a","ios":"levelo://app?vid=97e50bb0-9a70-481b-b370-e509345e710a"},"vehicle_type_id":"4","last_reported":1745183310,"current_range_meters":8000,"station_id":"ce4bha12rcd13ifvqef0","pricing_plan_id":"cebpf4jnsgd1na2vs0mg"},{"bike_id":"cb1906e0-eddc-4a43-b28c-29be8c0aa51a","system_id":"levelo_inurba_marseille","lat":43.27493,"lon":5.42461,"is_reserved":false,"is_disabled":true,"rental_uris":{"android":"levelo://app?vid=cb1906e0-eddc-4a43-b28c-29be8c0aa51a","ios":"levelo://app?vid=cb1906e0-eddc-4a43-b28c-29be8c0aa51a"},"vehicle_type_id":"4","last_reported":1745183310,"current_range_meters":8000,"station_id":"ce4bhn92rcd13ifvqgrg","pricing_plan_id":"cebpf4jnsgd1na2vs0mg"},{"bike_id":"ab9be9a2-b412-4e12-b774-0ac14e1c75f2","system_id":"levelo_inurba_marseille","lat":43.231983,"lon":5.355591,"is_reserved":false,"is_disabled":false,"rental_uris":{"android":"levelo://app?vid=ab9be9a2-b412-4e12-b774-0ac14e1c75f2","ios":"levelo://app?vid=ab9be9a2-b412-4e12-b774-0ac14e1c75f2"},"vehicle_type_id":"4","last_reported":1745183310,"current_range_meters":8000,"station_id":"ce4bhu92rcd13ifvqi70","pricing_plan_id":"cebpf4jnsgd1na2vs0mg"},{"bike_id":"dc901913-7038-4881-86f2-f816646eb17a","system_id":"levelo_inurba_marseille","lat":43.24544,"lon":5.3955,"is_reserved":false,"is_disabled":false,"rental_uris":{"android":"levelo://app?vid=dc901913-7038-4881-86f2-f816646eb17a","ios":"levelo://app?vid=dc901913-7038-4881-86f2-f816646eb17a"},"vehicle_type_id":"4","last_reported":1745183310,"current_range_meters":8000,"station_id":"ce4bhlp2rcd13ifvqgjg","pricing_plan_id":"cebpf4jnsgd1na2vs0mg"},{"bike_id":"f0b6af0d-1cbf-47a3-af07-dab09fabbbf0","system_id":"levelo_inurba_marseille","lat":43.23191,"lon":5.35548,"is_reserved":false,"is_disabled":false,"rental_uris":{"android":"levelo://app?vid=f0b6af0d-1cbf-47a3-af07-dab09fabbbf0","ios":"levelo://app?vid=f0b6af0d-1cbf-47a3-af07-dab09fabbbf0"},"vehicle_type_id":"4","last_reported":1745183310,"current_range_meters":8000,"station_id":"ce4bhu92rcd13ifvqi70","pricing_plan_id":"cebpf4jnsgd1na2vs0mg"},{"bike_id":"6565ca44-2e63-4f42-a847-09fa2bdb37f3","system_id":"levelo_inurba_marseille","lat":43.32003,"lon":5.38162,"is_reserved":false,"is_disabled":true,"rental_uris":{"android":"levelo://app?vid=6565ca44-2e63-4f42-a847-09fa2bdb37f3","ios":"levelo://app?vid=6565ca44-2e63-4f42-a847-09fa2bdb37f3"},"vehicle_type_id":"4","last_reported":1745183310,"current_range_meters":8000,"station_id":"ce4bhr12rcd13ifvqhpg","pricing_plan_id":"cebpf4jnsgd1na2vs0mg"},{"bike_id":"42ce6626-7686-4892-9c0d-b0d5d90c0674","system_id":"levelo_inurba_marseille","lat":43.308906,"lon":5.371953,"is_reserved":false,"is_disabled":false,"rental_uris":{"android":"levelo://app?vid=42ce6626-7686-4892-9c0d-b0d5d90c0674","ios":"levelo://app?vid=42ce6626-7686-4892-9c0d-b0d5d90c0674"},"vehicle_type_id":"4","last_reported":1745183310,"current_range_meters":8400,"station_id":"ce4bh3h2rcd13ifvqdo0","pricing_plan_id":"cebpf4jnsgd1na2vs0mg"},{"bike_id":"1b64a06c-8c3f-4044-b435-0c5447524fd5","system_id":"levelo_inurba_marseille","lat":43.28684,"lon":5.37407,"is_reserved":false,"is_disabled":true,"rental_uris":{"android":"levelo://app?vid=1b64a06c-8c3f-4044-b435-0c5447524fd5","ios":"levelo://app?vid=1b64a06c-8c3f-4044-b435-0c5447524fd5"},"vehicle_type_id":"4","last_reported":1745183310,"current_range_meters":8400,"station_id":"ce4bh3p2rcd13ifvqdq0","pricing_plan_id":"cebpf4jnsgd1na2vs0mg"},{"bike_id":"eaa57991-cf8f-4f30-bafe-914707062a6e","system_id":"levelo_inurba_marseille","lat":43.31485,"lon":5.37308,"is_reserved":false,"is_disabled":false,"rental_uris":{"android":"levelo://app?vid=eaa57991-cf8f-4f30-bafe-914707062a6e","ios":"levelo://app?vid=eaa57991-cf8f-4f30-bafe-914707062a6e"},"vehicle_type_id":"4","last_reported":1745183310,"current_range_meters":8400,"station_id":"ce4bgt12rcd13ifvqcd0","pricing_plan_id":"cebpf4jnsgd1na2vs0mg"},{"bike_id":"d0395819-ea40-46d3-acfe-3a01d6c396c0","system_id":"levelo_inurba_marseille","lat":43.23197,"lon":5.40011,"is_reserved":false,"is_disabled":true,"rental_uris":{"android":"levelo://app?vid=d0395819-ea40-46d3-acfe-3a01d6c396c0","ios":"levelo://app?vid=d0395819-ea40-46d3-acfe-3a01d6c396c0"},"vehicle_type_id":"4","last_reported":1745183310,"current_range_meters":8400,"station_id":"ce4bhn12rcd13ifvqgqg","pricing_plan_id":"cebpf4jnsgd1na2vs0mg"},{"bike_id":"2d741c77-47aa-429e-9684-bd61f722333f","system_id":"levelo_inurba_marseille","lat":43.27899,"lon":5.38009,"is_reserved":false,"is_disabled":false,"rental_uris":{"android":"levelo://app?vid=2d741c77-47aa-429e-9684-bd61f722333f","ios":"levelo://app?vid=2d741c77-47aa-429e-9684-bd61f722333f"},"vehicle_type_id":"4","last_reported":1745183310,"current_range_meters":8800,"station_id":"ce4bhf92rcd13ifvqf50","pricing_plan_id":"cebpf4jnsgd1na2vs0mg"},{"bike_id":"4e6892ef-dbe3-43e4-bc69-b2da5d802c90","system_id":"levelo_inurba_marseille","lat":43.2738,"lon":5.36262,"is_reserved":false,"is_disabled":true,"rental_uris":{"android":"levelo://app?vid=4e6892ef-dbe3-43e4-bc69-b2da5d802c90","ios":"levelo://app?vid=4e6892ef-dbe3-43e4-bc69-b2da5d802c90"},"vehicle_type_id":"4","last_reported":1745183310,"current_range_meters":8800,"station_id":"ce4bhbh2rcd13ifvqeo0","pricing_plan_id":"cebpf4jnsgd1na2vs0mg"},{"bike_id":"527fac75-0783-4b2c-bd4e-07f2f2fee902","system_id":"levelo_inurba_marseille","lat":43.31124,"lon":5.37802,"is_reserved":false,"is_disabled":true,"rental_uris":{"android":"levelo://app?vid=527fac75-0783-4b2c-bd4e-07f2f2fee902","ios":"levelo://app?vid=527fac75-0783-4b2c-bd4e-07f2f2fee902"},"vehicle_type_id":"4","last_reported":1745183310,"current_range_meters":8800,"station_id":"ce4bgt92rcd13ifvqcg0","pricing_plan_id":"cebpf4jnsgd1na2vs0mg"},{"bike_id":"dbabc9e8-2121-42fe-9334-3ba5c6f7925a","system_id":"levelo_inurba_marseille","lat":43.25483,"lon":5.37658,"is_reserved":false,"is_disabled":false,"rental_uris":{"android":"levelo://app?vid=dbabc9e8-2121-42fe-9334-3ba5c6f7925a","ios":"levelo://app?vid=dbabc9e8-2121-42fe-9334-3ba5c6f7925a"},"vehicle_type_id":"4","last_reported":1745183310,"current_range_meters":9200,"station_id":"ce4bhh12rcd13ifvqff0","pricing_plan_id":"cebpf4jnsgd1na2vs0mg"},{"bike_id":"fe945396-bc41-4fac-aacb-16316850202c","system_id":"levelo_inurba_marseille","lat":43.28143,"lon":5.4264,"is_reserved":false,"is_disabled":false,"rental_uris":{"android":"levelo://app?vid=fe945396-bc41-4fac-aacb-16316850202c","ios":"levelo://app?vid=fe945396-bc41-4fac-aacb-16316850202c"},"vehicle_type_id":"4","last_reported":1745183310,"current_range_meters":9200,"station_id":"ce4bhnh2rcd13ifvqgug","pricing_plan_id":"cebpf4jnsgd1na2vs0mg"},{"bike_id":"044b6cdf-529a-462e-b435-6c399001a1a6","system_id":"levelo_inurba_marseille","lat":43.30932,"lon":5.4014,"is_reserved":false,"is_disabled":false,"rental_uris":{"android":"levelo://app?vid=044b6cdf-529a-462e-b435-6c399001a1a6","ios":"levelo://app?vid=044b6cdf-529a-462e-b435-6c399001a1a6"},"vehicle_type_id":"4","last_reported":1745183310,"current_range_meters":9200,"station_id":"ce4bgvp2rcd13ifvqct0","pricing_plan_id":"cebpf4jnsgd1na2vs0mg"},{"bike_id":"1886fb80-2895-40f7-844d-7933f5d904dc","system_id":"levelo_inurba_marseille","lat":43.27877,"lon":5.39325,"is_reserved":false,"is_disabled":false,"rental_uris":{"android":"levelo://app?vid=1886fb80-2895-40f7-844d-7933f5d904dc","ios":"levelo://app?vid=1886fb80-2895-40f7-844d-7933f5d904dc"},"vehicle_type_id":"4","last_reported":1745183310,"current_range_meters":9200,"station_id":"","pricing_plan_id":"cebpf4jnsgd1na2vs0mg"},{"bike_id":"e2a53fcf-8c26-4043-9b7d-def7bc703d34","system_id":"levelo_inurba_marseille","lat":43.31217,"lon":5.36873,"is_reserved":false,"is_disabled":false,"rental_uris":{"android":"levelo://app?vid=e2a53fcf-8c26-4043-9b7d-def7bc703d34","ios":"levelo://app?vid=e2a53fcf-8c26-4043-9b7d-def7bc703d34"},"vehicle_type_id":"4","last_reported":1745183310,"current_range_meters":9600,"station_id":"ce4bgl92rcd13ifvqbq0","pricing_plan_id":"cebpf4jnsgd1na2vs0mg"},{"bike_id":"f7d85225-c65d-4484-ac26-03a6b1fbb5c6","system_id":"levelo_inurba_marseille","lat":43.29602,"lon":5.38094,"is_reserved":false,"is_disabled":true,"rental_uris":{"android":"levelo://app?vid=f7d85225-c65d-4484-ac26-03a6b1fbb5c6","ios":"levelo://app?vid=f7d85225-c65d-4484-ac26-03a6b1fbb5c6"},"vehicle_type_id":"4","last_reported":1745183310,"current_range_meters":9600,"station_id":"ce4bgl12rcd13ifvqbo0","pricing_plan_id":"cebpf4jnsgd1na2vs0mg"},{"bike_id":"6276c712-dc71-4137-9a44-e63299fa20b2","system_id":"levelo_inurba_marseille","lat":43.3272,"lon":5.35902,"is_reserved":false,"is_disabled":false,"rental_uris":{"android":"levelo://app?vid=6276c712-dc71-4137-9a44-e63299fa20b2","ios":"levelo://app?vid=6276c712-dc71-4137-9a44-e63299fa20b2"},"vehicle_type_id":"4","last_reported":1745183310,"current_range_meters":9600,"station_id":"","pricing_plan_id":"cebpf4jnsgd1na2vs0mg"},{"bike_id":"d8754dce-3ce6-4f68-ba47-f64cfc8b26ab","system_id":"levelo_inurba_marseille","lat":43.23194,"lon":5.35577,"is_reserved":false,"is_disabled":false,"rental_uris":{"android":"levelo://app?vid=d8754dce-3ce6-4f68-ba47-f64cfc8b26ab","ios":"levelo://app?vid=d8754dce-3ce6-4f68-ba47-f64cfc8b26ab"},"vehicle_type_id":"4","last_reported":1745183310,"current_range_meters":9600,"station_id":"ce4bhu92rcd13ifvqi70","pricing_plan_id":"cebpf4jnsgd1na2vs0mg"},{"bike_id":"575ecb3d-9a37-407e-bd15-e9b0ede0cfdd","system_id":"levelo_inurba_marseille","lat":43.292543,"lon":5.401058,"is_reserved":false,"is_disabled":false,"rental_uris":{"android":"levelo://app?vid=575ecb3d-9a37-407e-bd15-e9b0ede0cfdd","ios":"levelo://app?vid=575ecb3d-9a37-407e-bd15-e9b0ede0cfdd"},"vehicle_type_id":"4","last_reported":1745183310,"current_range_meters":9600,"station_id":"ce4bh312rcd13ifvqdk0","pricing_plan_id":"cebpf4jnsgd1na2vs0mg"},{"bike_id":"33399c5a-7b71-4ae2-a964-55b2f2e618d0","system_id":"levelo_inurba_marseille","lat":43.30213,"lon":5.36597,"is_reserved":false,"is_disabled":true,"rental_uris":{"android":"levelo://app?vid=33399c5a-7b71-4ae2-a964-55b2f2e618d0","ios":"levelo://app?vid=33399c5a-7b71-4ae2-a964-55b2f2e618d0"},"vehicle_type_id":"4","last_reported":1745183310,"current_range_meters":9600,"station_id":"ce4bgrh2rcd13ifvqc8g","pricing_plan_id":"cebpf4jnsgd1na2vs0mg"},{"bike_id":"9e5c4965-852e-43a7-97d6-2a6be5a767d6","system_id":"levelo_inurba_marseille","lat":43.24803,"lon":5.37456,"is_reserved":false,"is_disabled":false,"rental_uris":{"android":"levelo://app?vid=9e5c4965-852e-43a7-97d6-2a6be5a767d6","ios":"levelo://app?vid=9e5c4965-852e-43a7-97d6-2a6be5a767d6"},"vehicle_type_id":"4","last_reported":1745183310,"current_range_meters":9600,"station_id":"ce4bhgh2rcd13ifvqfb0","pricing_plan_id":"cebpf4jnsgd1na2vs0mg"},{"bike_id":"fa22f285-c123-45a4-984d-fec5c2b43250","system_id":"levelo_inurba_marseille","lat":43.25123,"lon":5.40315,"is_reserved":false,"is_disabled":false,"rental_uris":{"android":"levelo://app?vid=fa22f285-c123-45a4-984d-fec5c2b43250","ios":"levelo://app?vid=fa22f285-c123-45a4-984d-fec5c2b43250"},"vehicle_type_id":"4","last_reported":1745183310,"current_range_meters":9600,"station_id":"ce4bhlh2rcd13ifvqgig","pricing_plan_id":"cebpf4jnsgd1na2vs0mg"},{"bike_id":"d177bdcb-ba4d-4c2e-8899-f6b0f9af395c","system_id":"levelo_inurba_marseille","lat":43.25977,"lon":5.40911,"is_reserved":false,"is_disabled":false,"rental_uris":{"android":"levelo://app?vid=d177bdcb-ba4d-4c2e-8899-f6b0f9af395c","ios":"levelo://app?vid=d177bdcb-ba4d-4c2e-8899-f6b0f9af395c"},"vehicle_type_id":"4","last_reported":1745183310,"current_range_meters":10000,"station_id":"ce4bhm92rcd13ifvqglg","pricing_plan_id":"cebpf4jnsgd1na2vs0mg"},{"bike_id":"f8ad6ece-182c-4864-9dbf-29458f42c85c","system_id":"levelo_inurba_marseille","lat":43.29038,"lon":5.39949,"is_reserved":false,"is_disabled":false,"rental_uris":{"android":"levelo://app?vid=f8ad6ece-182c-4864-9dbf-29458f42c85c","ios":"levelo://app?vid=f8ad6ece-182c-4864-9dbf-29458f42c85c"},"vehicle_type_id":"4","last_reported":1745183310,"current_range_meters":10000,"station_id":"ce4bh392rcd13ifvqdm0","pricing_plan_id":"cebpf4jnsgd1na2vs0mg"},{"bike_id":"cc4e8daf-8846-4035-942b-a36b9137d061","system_id":"levelo_inurba_marseille","lat":43.25521,"lon":5.37654,"is_reserved":false,"is_disabled":true,"rental_uris":{"android":"levelo://app?vid=cc4e8daf-8846-4035-942b-a36b9137d061","ios":"levelo://app?vid=cc4e8daf-8846-4035-942b-a36b9137d061"},"vehicle_type_id":"4","last_reported":1745183310,"current_range_meters":10000,"station_id":"ce4bhh12rcd13ifvqff0","pricing_plan_id":"cebpf4jnsgd1na2vs0mg"},{"bike_id":"ae701c5e-5e0e-4431-9167-95d75c59ed1b","system_id":"levelo_inurba_marseille","lat":43.29594,"lon":5.38106,"is_reserved":false,"is_disabled":false,"rental_uris":{"android":"levelo://app?vid=ae701c5e-5e0e-4431-9167-95d75c59ed1b","ios":"levelo://app?vid=ae701c5e-5e0e-4431-9167-95d75c59ed1b"},"vehicle_type_id":"4","last_reported":1745183310,"current_range_meters":10000,"station_id":"ce4bgl12rcd13ifvqbo0","pricing_plan_id":"cebpf4jnsgd1na2vs0mg"},{"bike_id":"d5ef647d-00ca-43ce-8de2-a9826ded3f15","system_id":"levelo_inurba_marseille","lat":43.21191,"lon":5.35079,"is_reserved":false,"is_disabled":false,"rental_uris":{"android":"levelo://app?vid=d5ef647d-00ca-43ce-8de2-a9826ded3f15","ios":"levelo://app?vid=d5ef647d-00ca-43ce-8de2-a9826ded3f15"},"vehicle_type_id":"4","last_reported":1745183310,"current_range_meters":10000,"station_id":"st_cvj6sg6p6f1abm77japg","pricing_plan_id":"cebpf4jnsgd1na2vs0mg"},{"bike_id":"ff62b9d0-0cdf-448d-ada3-96d9918ce15c","system_id":"levelo_inurba_marseille","lat":43.31151,"lon":5.36928,"is_reserved":false,"is_disabled":false,"rental_uris":{"android":"levelo://app?vid=ff62b9d0-0cdf-448d-ada3-96d9918ce15c","ios":"levelo://app?vid=ff62b9d0-0cdf-448d-ada3-96d9918ce15c"},"vehicle_type_id":"4","last_reported":1745183310,"current_range_meters":10800,"station_id":"","pricing_plan_id":"cebpf4jnsgd1na2vs0mg"},{"bike_id":"983a3a7c-fc2b-4372-b9f3-1ccd300d1e23","system_id":"levelo_inurba_marseille","lat":43.3235,"lon":5.36752,"is_reserved":false,"is_disabled":false,"rental_uris":{"android":"levelo://app?vid=983a3a7c-fc2b-4372-b9f3-1ccd300d1e23","ios":"levelo://app?vid=983a3a7c-fc2b-4372-b9f3-1ccd300d1e23"},"vehicle_type_id":"4","last_reported":1745183310,"current_range_meters":10800,"station_id":"ce4bhsh2rcd13ifvqi2g","pricing_plan_id":"cebpf4jnsgd1na2vs0mg"},{"bike_id":"3c68d4af-f244-4d5b-a673-170645748e37","system_id":"levelo_inurba_marseille","lat":43.276819,"lon":5.397926,"is_reserved":false,"is_disabled":false,"rental_uris":{"android":"levelo://app?vid=3c68d4af-f244-4d5b-a673-170645748e37","ios":"levelo://app?vid=3c68d4af-f244-4d5b-a673-170645748e37"},"vehicle_type_id":"4","last_reported":1745183310,"current_range_meters":10800,"station_id":"","pricing_plan_id":"cebpf4jnsgd1na2vs0mg"},{"bike_id":"64904af7-8595-4150-91ff-57ff6ea5c1cc","system_id":"levelo_inurba_marseille","lat":43.31512,"lon":5.37311,"is_reserved":false,"is_disabled":false,"rental_uris":{"android":"levelo://app?vid=64904af7-8595-4150-91ff-57ff6ea5c1cc","ios":"levelo://app?vid=64904af7-8595-4150-91ff-57ff6ea5c1cc"},"vehicle_type_id":"4","last_reported":1745183310,"current_range_meters":11200,"station_id":"ce4bgt12rcd13ifvqcd0","pricing_plan_id":"cebpf4jnsgd1na2vs0mg"},{"bike_id":"3f9b351e-24c7-4831-949f-a89b33917557","system_id":"levelo_inurba_marseille","lat":43.24087,"lon":5.37779,"is_reserved":false,"is_disabled":false,"rental_uris":{"android":"levelo://app?vid=3f9b351e-24c7-4831-949f-a89b33917557","ios":"levelo://app?vid=3f9b351e-24c7-4831-949f-a89b33917557"},"vehicle_type_id":"4","last_reported":1745183310,"current_range_meters":10800,"station_id":"ce4bhnp2rcd13ifvqgvg","pricing_plan_id":"cebpf4jnsgd1na2vs0mg"},{"bike_id":"4e0feb4b-9af5-4c5c-a215-eabded87c4f9","system_id":"levelo_inurba_marseille","lat":43.231938,"lon":5.355511,"is_reserved":false,"is_disabled":false,"rental_uris":{"android":"levelo://app?vid=4e0feb4b-9af5-4c5c-a215-eabded87c4f9","ios":"levelo://app?vid=4e0feb4b-9af5-4c5c-a215-eabded87c4f9"},"vehicle_type_id":"4","last_reported":1745183310,"current_range_meters":10800,"station_id":"ce4bhu92rcd13ifvqi70","pricing_plan_id":"cebpf4jnsgd1na2vs0mg"},{"bike_id":"59216526-d01c-4d77-b6e3-a6c766976571","system_id":"levelo_inurba_marseille","lat":43.22507,"lon":5.3478,"is_reserved":false,"is_disabled":false,"rental_uris":{"android":"levelo://app?vid=59216526-d01c-4d77-b6e3-a6c766976571","ios":"levelo://app?vid=59216526-d01c-4d77-b6e3-a6c766976571"},"vehicle_type_id":"4","last_reported":1745183310,"current_range_meters":10800,"station_id":"st_cvj5dfep6f1abm77gieg","pricing_plan_id":"cebpf4jnsgd1na2vs0mg"},{"bike_id":"eab1522a-0988-4433-951c-8f02fd8220b3","system_id":"levelo_inurba_marseille","lat":43.26946,"lon":5.40244,"is_reserved":false,"is_disabled":false,"rental_uris":{"android":"levelo://app?vid=eab1522a-0988-4433-951c-8f02fd8220b3","ios":"levelo://app?vid=eab1522a-0988-4433-951c-8f02fd8220b3"},"vehicle_type_id":"4","last_reported":1745183310,"current_range_meters":10800,"station_id":"cjm6bp8fraef2m0cb0m0","pricing_plan_id":"cebpf4jnsgd1na2vs0mg"},{"bike_id":"478adf2f-07e1-4396-965c-e1a74e1fa681","system_id":"levelo_inurba_marseille","lat":43.27888,"lon":5.37998,"is_reserved":false,"is_disabled":false,"rental_uris":{"android":"levelo://app?vid=478adf2f-07e1-4396-965c-e1a74e1fa681","ios":"levelo://app?vid=478adf2f-07e1-4396-965c-e1a74e1fa681"},"vehicle_type_id":"4","last_reported":1745183310,"current_range_meters":10800,"station_id":"ce4bhf92rcd13ifvqf50","pricing_plan_id":"cebpf4jnsgd1na2vs0mg"},{"bike_id":"8c254f0e-5bb9-4e08-a92a-88658f0f797e","system_id":"levelo_inurba_marseille","lat":43.29624,"lon":5.37715,"is_reserved":false,"is_disabled":false,"rental_uris":{"android":"levelo://app?vid=8c254f0e-5bb9-4e08-a92a-88658f0f797e","ios":"levelo://app?vid=8c254f0e-5bb9-4e08-a92a-88658f0f797e"},"vehicle_type_id":"4","last_reported":1745183310,"current_range_meters":14000,"station_id":"ce4bgi92rcd13ifvqb90","pricing_plan_id":"cebpf4jnsgd1na2vs0mg"},{"bike_id":"c412a709-637d-420b-a890-af678ae9bc86","system_id":"levelo_inurba_marseille","lat":43.298515,"lon":5.388109,"is_reserved":false,"is_disabled":false,"rental_uris":{"android":"levelo://app?vid=c412a709-637d-420b-a890-af678ae9bc86","ios":"levelo://app?vid=c412a709-637d-420b-a890-af678ae9bc86"},"vehicle_type_id":"4","last_reported":1745183310,"current_range_meters":10800,"station_id":"ce4bgg92rcd13ifvqb30","pricing_plan_id":"cebpf4jnsgd1na2vs0mg"},{"bike_id":"9ec00016-bdd1-44d1-be62-4b7d926dd044","system_id":"levelo_inurba_marseille","lat":43.30896,"lon":5.37301,"is_reserved":false,"is_disabled":false,"rental_uris":{"android":"levelo://app?vid=9ec00016-bdd1-44d1-be62-4b7d926dd044","ios":"levelo://app?vid=9ec00016-bdd1-44d1-be62-4b7d926dd044"},"vehicle_type_id":"4","last_reported":1745183310,"current_range_meters":11200,"station_id":"","pricing_plan_id":"cebpf4jnsgd1na2vs0mg"},{"bike_id":"f01fc261-033f-49c7-b09e-b9967362bd76","system_id":"levelo_inurba_marseille","lat":43.28863,"lon":5.35867,"is_reserved":false,"is_disabled":true,"rental_uris":{"android":"levelo://app?vid=f01fc261-033f-49c7-b09e-b9967362bd76","ios":"levelo://app?vid=f01fc261-033f-49c7-b09e-b9967362bd76"},"vehicle_type_id":"4","last_reported":1745183310,"current_range_meters":11200,"station_id":"ce4bhb12rcd13ifvqem0","pricing_plan_id":"cebpf4jnsgd1na2vs0mg"},{"bike_id":"f15e6d6c-4e91-4850-86dd-4c3b99eca958","system_id":"levelo_inurba_marseille","lat":43.2808,"lon":5.39646,"is_reserved":false,"is_disabled":false,"rental_uris":{"android":"levelo://app?vid=f15e6d6c-4e91-4850-86dd-4c3b99eca958","ios":"levelo://app?vid=f15e6d6c-4e91-4850-86dd-4c3b99eca958"},"vehicle_type_id":"4","last_reported":1745183310,"current_range_meters":11200,"station_id":"ce4bho12rcd13ifvqh2g","pricing_plan_id":"cebpf4jnsgd1na2vs0mg"},{"bike_id":"1ba58ab0-f8e3-4ca7-b66e-b0f8c2d56e00","system_id":"levelo_inurba_marseille","lat":43.25493,"lon":5.37643,"is_reserved":false,"is_disabled":false,"rental_uris":{"android":"levelo://app?vid=1ba58ab0-f8e3-4ca7-b66e-b0f8c2d56e00","ios":"levelo://app?vid=1ba58ab0-f8e3-4ca7-b66e-b0f8c2d56e00"},"vehicle_type_id":"4","last_reported":1745183310,"current_range_meters":11600,"station_id":"ce4bhh12rcd13ifvqff0","pricing_plan_id":"cebpf4jnsgd1na2vs0mg"},{"bike_id":"cab64969-2640-47ee-abb9-f11afb1f3a59","system_id":"levelo_inurba_marseille","lat":43.28626,"lon":5.35077,"is_reserved":false,"is_disabled":true,"rental_uris":{"android":"levelo://app?vid=cab64969-2640-47ee-abb9-f11afb1f3a59","ios":"levelo://app?vid=cab64969-2640-47ee-abb9-f11afb1f3a59"},"vehicle_type_id":"4","last_reported":1745183310,"current_range_meters":11600,"station_id":"ce4bhch2rcd13ifvqeug","pricing_plan_id":"cebpf4jnsgd1na2vs0mg"},{"bike_id":"5801a3ca-80c0-4f04-85da-122046aa79e1","system_id":"levelo_inurba_marseille","lat":43.28991,"lon":5.43831,"is_reserved":false,"is_disabled":false,"rental_uris":{"android":"levelo://app?vid=5801a3ca-80c0-4f04-85da-122046aa79e1","ios":"levelo://app?vid=5801a3ca-80c0-4f04-85da-122046aa79e1"},"vehicle_type_id":"4","last_reported":1745183310,"current_range_meters":11600,"station_id":"","pricing_plan_id":"cebpf4jnsgd1na2vs0mg"},{"bike_id":"1ace1b61-e2c8-4a41-a3cf-5c94b36f34ae","system_id":"levelo_inurba_marseille","lat":43.21213,"lon":5.350553,"is_reserved":false,"is_disabled":false,"rental_uris":{"android":"levelo://app?vid=1ace1b61-e2c8-4a41-a3cf-5c94b36f34ae","ios":"levelo://app?vid=1ace1b61-e2c8-4a41-a3cf-5c94b36f34ae"},"vehicle_type_id":"4","last_reported":1745183310,"current_range_meters":11600,"station_id":"st_cvj6sg6p6f1abm77japg","pricing_plan_id":"cebpf4jnsgd1na2vs0mg"},{"bike_id":"e58d5985-4b02-442b-954b-1487d5804196","system_id":"levelo_inurba_marseille","lat":43.24072,"lon":5.37762,"is_reserved":false,"is_disabled":false,"rental_uris":{"android":"levelo://app?vid=e58d5985-4b02-442b-954b-1487d5804196","ios":"levelo://app?vid=e58d5985-4b02-442b-954b-1487d5804196"},"vehicle_type_id":"4","last_reported":1745183310,"current_range_meters":11600,"station_id":"ce4bhnp2rcd13ifvqgvg","pricing_plan_id":"cebpf4jnsgd1na2vs0mg"},{"bike_id":"a3dd9a0b-1e95-49bd-9b52-a761b312f104","system_id":"levelo_inurba_marseille","lat":43.25569,"lon":5.38246,"is_reserved":false,"is_disabled":false,"rental_uris":{"android":"levelo://app?vid=a3dd9a0b-1e95-49bd-9b52-a761b312f104","ios":"levelo://app?vid=a3dd9a0b-1e95-49bd-9b52-a761b312f104"},"vehicle_type_id":"4","last_reported":1745183310,"current_range_meters":12000,"station_id":"ce4bhih2rcd13ifvqfs0","pricing_plan_id":"cebpf4jnsgd1na2vs0mg"},{"bike_id":"b2824bf6-8552-4f18-8f40-49bc145757f1","system_id":"levelo_inurba_marseille","lat":43.29608,"lon":5.38071,"is_reserved":false,"is_disabled":false,"rental_uris":{"android":"levelo://app?vid=b2824bf6-8552-4f18-8f40-49bc145757f1","ios":"levelo://app?vid=b2824bf6-8552-4f18-8f40-49bc145757f1"},"vehicle_type_id":"4","last_reported":1745183310,"current_range_meters":12000,"station_id":"","pricing_plan_id":"cebpf4jnsgd1na2vs0mg"},{"bike_id":"50720bbe-5512-41d7-86e0-3df313b565c6","system_id":"levelo_inurba_marseille","lat":43.32356,"lon":5.38927,"is_reserved":false,"is_disabled":true,"rental_uris":{"android":"levelo://app?vid=50720bbe-5512-41d7-86e0-3df313b565c6","ios":"levelo://app?vid=50720bbe-5512-41d7-86e0-3df313b565c6"},"vehicle_type_id":"4","last_reported":1745183310,"current_range_meters":12000,"station_id":"ce4bhqp2rcd13ifvqhog","pricing_plan_id":"cebpf4jnsgd1na2vs0mg"},{"bike_id":"1184e7cb-97e6-48bd-84cd-8e59c100c07b","system_id":"levelo_inurba_marseille","lat":43.293,"lon":5.36818,"is_reserved":false,"is_disabled":true,"rental_uris":{"android":"levelo://app?vid=1184e7cb-97e6-48bd-84cd-8e59c100c07b","ios":"levelo://app?vid=1184e7cb-97e6-48bd-84cd-8e59c100c07b"},"vehicle_type_id":"4","last_reported":1745183310,"current_range_meters":12800,"station_id":"ce4bhbp2rcd13ifvqesg","pricing_plan_id":"cebpf4jnsgd1na2vs0mg"},{"bike_id":"aa4956c6-6845-4783-8776-ee4b88f920ec","system_id":"levelo_inurba_marseille","lat":43.28652,"lon":5.3707,"is_reserved":false,"is_disabled":true,"rental_uris":{"android":"levelo://app?vid=aa4956c6-6845-4783-8776-ee4b88f920ec","ios":"levelo://app?vid=aa4956c6-6845-4783-8776-ee4b88f920ec"},"vehicle_type_id":"4","last_reported":1745183310,"current_range_meters":12400,"station_id":"","pricing_plan_id":"cebpf4jnsgd1na2vs0mg"},{"bike_id":"1737dea4-541f-4bc8-9731-1ab03c2deae6","system_id":"levelo_inurba_marseille","lat":43.23961,"lon":5.36624,"is_reserved":false,"is_disabled":true,"rental_uris":{"android":"levelo://app?vid=1737dea4-541f-4bc8-9731-1ab03c2deae6","ios":"levelo://app?vid=1737dea4-541f-4bc8-9731-1ab03c2deae6"},"vehicle_type_id":"4","last_reported":1745183310,"current_range_meters":12400,"station_id":"ce4bhi12rcd13ifvqfp0","pricing_plan_id":"cebpf4jnsgd1na2vs0mg"},{"bike_id":"73ebf1d6-e517-4d16-bf08-5609326ad51e","system_id":"levelo_inurba_marseille","lat":43.31326,"lon":5.39697,"is_reserved":false,"is_disabled":false,"rental_uris":{"android":"levelo://app?vid=73ebf1d6-e517-4d16-bf08-5609326ad51e","ios":"levelo://app?vid=73ebf1d6-e517-4d16-bf08-5609326ad51e"},"vehicle_type_id":"4","last_reported":1745183310,"current_range_meters":12400,"station_id":"ce4bgvp2rcd13ifvqcu0","pricing_plan_id":"cebpf4jnsgd1na2vs0mg"},{"bike_id":"d53e964c-f934-484c-a259-3e8f23cdd819","system_id":"levelo_inurba_marseille","lat":43.33754,"lon":5.39142,"is_reserved":false,"is_disabled":false,"rental_uris":{"android":"levelo://app?vid=d53e964c-f934-484c-a259-3e8f23cdd819","ios":"levelo://app?vid=d53e964c-f934-484c-a259-3e8f23cdd819"},"vehicle_type_id":"4","last_reported":1745183310,"current_range_meters":12800,"station_id":"","pricing_plan_id":"cebpf4jnsgd1na2vs0mg"},{"bike_id":"b157dc81-51c5-45f3-a677-9e9c3cf6283b","system_id":"levelo_inurba_marseille","lat":43.30812,"lon":5.37094,"is_reserved":false,"is_disabled":false,"rental_uris":{"android":"levelo://app?vid=b157dc81-51c5-45f3-a677-9e9c3cf6283b","ios":"levelo://app?vid=b157dc81-51c5-45f3-a677-9e9c3cf6283b"},"vehicle_type_id":"4","last_reported":1745183310,"current_range_meters":12800,"station_id":"","pricing_plan_id":"cebpf4jnsgd1na2vs0mg"},{"bike_id":"066f731a-96d8-4fba-8a3d-d7d6b83a2184","system_id":"levelo_inurba_marseille","lat":43.29278,"lon":5.38433,"is_reserved":false,"is_disabled":false,"rental_uris":{"android":"levelo://app?vid=066f731a-96d8-4fba-8a3d-d7d6b83a2184","ios":"levelo://app?vid=066f731a-96d8-4fba-8a3d-d7d6b83a2184"},"vehicle_type_id":"4","last_reported":1745183310,"current_range_meters":12800,"station_id":"ce4bh692rcd13ifvqea0","pricing_plan_id":"cebpf4jnsgd1na2vs0mg"},{"bike_id":"54333f71-3852-4e7b-b374-b14e492e4962","system_id":"levelo_inurba_marseille","lat":43.30392,"lon":5.41257,"is_reserved":false,"is_disabled":true,"rental_uris":{"android":"levelo://app?vid=54333f71-3852-4e7b-b374-b14e492e4962","ios":"levelo://app?vid=54333f71-3852-4e7b-b374-b14e492e4962"},"vehicle_type_id":"4","last_reported":1745183310,"current_range_meters":13600,"station_id":"ce4bhop2rcd13ifvqh8g","pricing_plan_id":"cebpf4jnsgd1na2vs0mg"},{"bike_id":"879c4764-ec34-4053-99a8-4501c6e0ccc4","system_id":"levelo_inurba_marseille","lat":43.2573,"lon":5.41109,"is_reserved":false,"is_disabled":false,"rental_uris":{"android":"levelo://app?vid=879c4764-ec34-4053-99a8-4501c6e0ccc4","ios":"levelo://app?vid=879c4764-ec34-4053-99a8-4501c6e0ccc4"},"vehicle_type_id":"4","last_reported":1745183310,"current_range_meters":13600,"station_id":"ce4bhkp2rcd13ifvqgd0","pricing_plan_id":"cebpf4jnsgd1na2vs0mg"},{"bike_id":"cb04d036-524e-497d-b1e8-d53251979b05","system_id":"levelo_inurba_marseille","lat":43.29921,"lon":5.39723,"is_reserved":false,"is_disabled":true,"rental_uris":{"android":"levelo://app?vid=cb04d036-524e-497d-b1e8-d53251979b05","ios":"levelo://app?vid=cb04d036-524e-497d-b1e8-d53251979b05"},"vehicle_type_id":"4","last_reported":1745183310,"current_range_meters":14000,"station_id":"","pricing_plan_id":"cebpf4jnsgd1na2vs0mg"},{"bike_id":"b25b6470-ff43-4d6b-b299-0f21ec070f27","system_id":"levelo_inurba_marseille","lat":43.29911,"lon":5.3812,"is_reserved":false,"is_disabled":true,"rental_uris":{"android":"levelo://app?vid=b25b6470-ff43-4d6b-b299-0f21ec070f27","ios":"levelo://app?vid=b25b6470-ff43-4d6b-b299-0f21ec070f27"},"vehicle_type_id":"4","last_reported":1745183310,"current_range_meters":14000,"station_id":"ce4bgj12rcd13ifvqbc0","pricing_plan_id":"cebpf4jnsgd1na2vs0mg"},{"bike_id":"d66f2fbf-84c1-4006-a003-d92ef3aa9479","system_id":"levelo_inurba_marseille","lat":43.23195,"lon":5.35545,"is_reserved":false,"is_disabled":false,"rental_uris":{"android":"levelo://app?vid=d66f2fbf-84c1-4006-a003-d92ef3aa9479","ios":"levelo://app?vid=d66f2fbf-84c1-4006-a003-d92ef3aa9479"},"vehicle_type_id":"4","last_reported":1745183310,"current_range_meters":14000,"station_id":"ce4bhu92rcd13ifvqi70","pricing_plan_id":"cebpf4jnsgd1na2vs0mg"},{"bike_id":"280be209-ab5b-4a2b-9246-1bdbcaea657a","system_id":"levelo_inurba_marseille","lat":43.28084,"lon":5.39664,"is_reserved":false,"is_disabled":false,"rental_uris":{"android":"levelo://app?vid=280be209-ab5b-4a2b-9246-1bdbcaea657a","ios":"levelo://app?vid=280be209-ab5b-4a2b-9246-1bdbcaea657a"},"vehicle_type_id":"4","last_reported":1745183310,"current_range_meters":14400,"station_id":"ce4bho12rcd13ifvqh2g","pricing_plan_id":"cebpf4jnsgd1na2vs0mg"},{"bike_id":"c2a8322a-b557-4826-9e4b-8601da0804ef","system_id":"levelo_inurba_marseille","lat":43.29903,"lon":5.3815,"is_reserved":false,"is_disabled":false,"rental_uris":{"android":"levelo://app?vid=c2a8322a-b557-4826-9e4b-8601da0804ef","ios":"levelo://app?vid=c2a8322a-b557-4826-9e4b-8601da0804ef"},"vehicle_type_id":"4","last_reported":1745183310,"current_range_meters":14400,"station_id":"ce4bgj12rcd13ifvqbc0","pricing_plan_id":"cebpf4jnsgd1na2vs0mg"},{"bike_id":"ac0d196c-b189-4bee-8cc5-148be6f01c79","system_id":"levelo_inurba_marseille","lat":43.256963,"lon":5.381686,"is_reserved":false,"is_disabled":false,"rental_uris":{"android":"levelo://app?vid=ac0d196c-b189-4bee-8cc5-148be6f01c79","ios":"levelo://app?vid=ac0d196c-b189-4bee-8cc5-148be6f01c79"},"vehicle_type_id":"4","last_reported":1745183310,"current_range_meters":14400,"station_id":"ce4bhgp2rcd13ifvqfc0","pricing_plan_id":"cebpf4jnsgd1na2vs0mg"},{"bike_id":"1b0600a5-6215-4de2-b2e4-3f424170b044","system_id":"levelo_inurba_marseille","lat":43.29601,"lon":5.38096,"is_reserved":false,"is_disabled":false,"rental_uris":{"android":"levelo://app?vid=1b0600a5-6215-4de2-b2e4-3f424170b044","ios":"levelo://app?vid=1b0600a5-6215-4de2-b2e4-3f424170b044"},"vehicle_type_id":"4","last_reported":1745183310,"current_range_meters":14400,"station_id":"ce4bgl12rcd13ifvqbo0","pricing_plan_id":"cebpf4jnsgd1na2vs0mg"},{"bike_id":"9fc1dd27-12bb-4c7c-855d-f82b71b82bf7","system_id":"levelo_inurba_marseille","lat":43.23208,"lon":5.35561,"is_reserved":false,"is_disabled":false,"rental_uris":{"android":"levelo://app?vid=9fc1dd27-12bb-4c7c-855d-f82b71b82bf7","ios":"levelo://app?vid=9fc1dd27-12bb-4c7c-855d-f82b71b82bf7"},"vehicle_type_id":"4","last_reported":1745183310,"current_range_meters":14400,"station_id":"ce4bhu92rcd13ifvqi70","pricing_plan_id":"cebpf4jnsgd1na2vs0mg"},{"bike_id":"b1a92491-f6da-45e2-a9a5-178685f0efe8","system_id":"levelo_inurba_marseille","lat":43.30913,"lon":5.40181,"is_reserved":false,"is_disabled":false,"rental_uris":{"android":"levelo://app?vid=b1a92491-f6da-45e2-a9a5-178685f0efe8","ios":"levelo://app?vid=b1a92491-f6da-45e2-a9a5-178685f0efe8"},"vehicle_type_id":"4","last_reported":1745183310,"current_range_meters":14800,"station_id":"ce4bgvp2rcd13ifvqct0","pricing_plan_id":"cebpf4jnsgd1na2vs0mg"},{"bike_id":"a95b4b55-a444-4974-a88e-eb1c2974865e","system_id":"levelo_inurba_marseille","lat":43.25869,"lon":5.39894,"is_reserved":false,"is_disabled":false,"rental_uris":{"android":"levelo://app?vid=a95b4b55-a444-4974-a88e-eb1c2974865e","ios":"levelo://app?vid=a95b4b55-a444-4974-a88e-eb1c2974865e"},"vehicle_type_id":"4","last_reported":1745183310,"current_range_meters":14800,"station_id":"ce4bhl92rcd13ifvqghg","pricing_plan_id":"cebpf4jnsgd1na2vs0mg"},{"bike_id":"efb51f70-abd4-498c-b432-5b1a5df963b3","system_id":"levelo_inurba_marseille","lat":43.28934,"lon":5.36638,"is_reserved":false,"is_disabled":false,"rental_uris":{"android":"levelo://app?vid=efb51f70-abd4-498c-b432-5b1a5df963b3","ios":"levelo://app?vid=efb51f70-abd4-498c-b432-5b1a5df963b3"},"vehicle_type_id":"4","last_reported":1745183310,"current_range_meters":14800,"station_id":"ce4bhap2rcd13ifvqek0","pricing_plan_id":"cebpf4jnsgd1na2vs0mg"},{"bike_id":"066f1a3f-2f55-42ac-aa57-b561bb82f13e","system_id":"levelo_inurba_marseille","lat":43.30888,"lon":5.37187,"is_reserved":false,"is_disabled":false,"rental_uris":{"android":"levelo://app?vid=066f1a3f-2f55-42ac-aa57-b561bb82f13e","ios":"levelo://app?vid=066f1a3f-2f55-42ac-aa57-b561bb82f13e"},"vehicle_type_id":"4","last_reported":1745183310,"current_range_meters":14800,"station_id":"ce4bguh2rcd13ifvqckg","pricing_plan_id":"cebpf4jnsgd1na2vs0mg"},{"bike_id":"2d2e4840-713e-4771-ae07-2155d13a6672","system_id":"levelo_inurba_marseille","lat":43.29942,"lon":5.36556,"is_reserved":false,"is_disabled":true,"rental_uris":{"android":"levelo://app?vid=2d2e4840-713e-4771-ae07-2155d13a6672","ios":"levelo://app?vid=2d2e4840-713e-4771-ae07-2155d13a6672"},"vehicle_type_id":"4","last_reported":1745183310,"current_range_meters":14800,"station_id":"ce4bgm92rcd13ifvqbr0","pricing_plan_id":"cebpf4jnsgd1na2vs0mg"},{"bike_id":"9cd66f20-0974-44a3-a00c-3af08e74ebf2","system_id":"levelo_inurba_marseille","lat":43.2601,"lon":5.41751,"is_reserved":false,"is_disabled":false,"rental_uris":{"android":"levelo://app?vid=9cd66f20-0974-44a3-a00c-3af08e74ebf2","ios":"levelo://app?vid=9cd66f20-0974-44a3-a00c-3af08e74ebf2"},"vehicle_type_id":"4","last_reported":1745183310,"current_range_meters":14800,"station_id":"","pricing_plan_id":"cebpf4jnsgd1na2vs0mg"},{"bike_id":"46600b5c-7330-43b7-8392-789f98f83f0b","system_id":"levelo_inurba_marseille","lat":43.30926,"lon":5.40143,"is_reserved":false,"is_disabled":false,"rental_uris":{"android":"levelo://app?vid=46600b5c-7330-43b7-8392-789f98f83f0b","ios":"levelo://app?vid=46600b5c-7330-43b7-8392-789f98f83f0b"},"vehicle_type_id":"4","last_reported":1745183310,"current_range_meters":14800,"station_id":"ce4bgvp2rcd13ifvqct0","pricing_plan_id":"cebpf4jnsgd1na2vs0mg"},{"bike_id":"f95b6ba3-4ffd-4dee-8387-c1e0a51dcdd2","system_id":"levelo_inurba_marseille","lat":43.27947,"lon":5.4104,"is_reserved":false,"is_disabled":false,"rental_uris":{"android":"levelo://app?vid=f95b6ba3-4ffd-4dee-8387-c1e0a51dcdd2","ios":"levelo://app?vid=f95b6ba3-4ffd-4dee-8387-c1e0a51dcdd2"},"vehicle_type_id":"4","last_reported":1745183310,"current_range_meters":14800,"station_id":"ce4bhnp2rcd13ifvqh0g","pricing_plan_id":"cebpf4jnsgd1na2vs0mg"},{"bike_id":"7e6f35d2-8daa-4404-9726-6d21ae474b1a","system_id":"levelo_inurba_marseille","lat":43.29263,"lon":5.38439,"is_reserved":false,"is_disabled":false,"rental_uris":{"android":"levelo://app?vid=7e6f35d2-8daa-4404-9726-6d21ae474b1a","ios":"levelo://app?vid=7e6f35d2-8daa-4404-9726-6d21ae474b1a"},"vehicle_type_id":"4","last_reported":1745183310,"current_range_meters":15200,"station_id":"ce4bh692rcd13ifvqea0","pricing_plan_id":"cebpf4jnsgd1na2vs0mg"},{"bike_id":"4d8ee2c5-8346-4b66-ae86-f443b6bdd2d9","system_id":"levelo_inurba_marseille","lat":43.24542,"lon":5.41302,"is_reserved":false,"is_disabled":false,"rental_uris":{"android":"levelo://app?vid=4d8ee2c5-8346-4b66-ae86-f443b6bdd2d9","ios":"levelo://app?vid=4d8ee2c5-8346-4b66-ae86-f443b6bdd2d9"},"vehicle_type_id":"4","last_reported":1745183310,"current_range_meters":15200,"station_id":"","pricing_plan_id":"cebpf4jnsgd1na2vs0mg"},{"bike_id":"c4fc050b-7c58-4380-8033-ffe242748317","system_id":"levelo_inurba_marseille","lat":43.29515,"lon":5.3944,"is_reserved":false,"is_disabled":true,"rental_uris":{"android":"levelo://app?vid=c4fc050b-7c58-4380-8033-ffe242748317","ios":"levelo://app?vid=c4fc050b-7c58-4380-8033-ffe242748317"},"vehicle_type_id":"4","last_reported":1745183310,"current_range_meters":16000,"station_id":"ce4bh292rcd13ifvqdf0","pricing_plan_id":"cebpf4jnsgd1na2vs0mg"},{"bike_id":"53b3b9c9-bf4c-40f9-ba2e-ec3f8e3f866c","system_id":"levelo_inurba_marseille","lat":43.22945,"lon":5.3536,"is_reserved":false,"is_disabled":false,"rental_uris":{"android":"levelo://app?vid=53b3b9c9-bf4c-40f9-ba2e-ec3f8e3f866c","ios":"levelo://app?vid=53b3b9c9-bf4c-40f9-ba2e-ec3f8e3f866c"},"vehicle_type_id":"4","last_reported":1745183310,"current_range_meters":16000,"station_id":"cpo3532slgdg3j2ikp40","pricing_plan_id":"cebpf4jnsgd1na2vs0mg"},{"bike_id":"ee910e3a-4ec1-4a75-b39a-8a2ef121fc79","system_id":"levelo_inurba_marseille","lat":43.25483,"lon":5.37651,"is_reserved":false,"is_disabled":false,"rental_uris":{"android":"levelo://app?vid=ee910e3a-4ec1-4a75-b39a-8a2ef121fc79","ios":"levelo://app?vid=ee910e3a-4ec1-4a75-b39a-8a2ef121fc79"},"vehicle_type_id":"4","last_reported":1745183310,"current_range_meters":16000,"station_id":"ce4bhh12rcd13ifvqff0","pricing_plan_id":"cebpf4jnsgd1na2vs0mg"},{"bike_id":"a049c569-0294-4594-b06b-589d19df1531","system_id":"levelo_inurba_marseille","lat":43.248385,"lon":5.381995,"is_reserved":false,"is_disabled":false,"rental_uris":{"android":"levelo://app?vid=a049c569-0294-4594-b06b-589d19df1531","ios":"levelo://app?vid=a049c569-0294-4594-b06b-589d19df1531"},"vehicle_type_id":"4","last_reported":1745183310,"current_range_meters":16000,"station_id":"","pricing_plan_id":"cebpf4jnsgd1na2vs0mg"},{"bike_id":"5069dd58-c0a4-4a82-89c4-361b75ac07f9","system_id":"levelo_inurba_marseille","lat":43.25539,"lon":5.38203,"is_reserved":false,"is_disabled":false,"rental_uris":{"android":"levelo://app?vid=5069dd58-c0a4-4a82-89c4-361b75ac07f9","ios":"levelo://app?vid=5069dd58-c0a4-4a82-89c4-361b75ac07f9"},"vehicle_type_id":"4","last_reported":1745183310,"current_range_meters":16000,"station_id":"ce4bhih2rcd13ifvqfs0","pricing_plan_id":"cebpf4jnsgd1na2vs0mg"},{"bike_id":"a5984312-2869-4820-8cb6-c49aefed6914","system_id":"levelo_inurba_marseille","lat":43.28036,"lon":5.369378,"is_reserved":false,"is_disabled":false,"rental_uris":{"android":"levelo://app?vid=a5984312-2869-4820-8cb6-c49aefed6914","ios":"levelo://app?vid=a5984312-2869-4820-8cb6-c49aefed6914"},"vehicle_type_id":"4","last_reported":1745183310,"current_range_meters":16000,"station_id":"ce4bha12rcd13ifvqef0","pricing_plan_id":"cebpf4jnsgd1na2vs0mg"},{"bike_id":"d33ae2b4-7c8c-45e9-8aae-2ac37dd64517","system_id":"levelo_inurba_marseille","lat":43.299,"lon":5.38138,"is_reserved":false,"is_disabled":false,"rental_uris":{"android":"levelo://app?vid=d33ae2b4-7c8c-45e9-8aae-2ac37dd64517","ios":"levelo://app?vid=d33ae2b4-7c8c-45e9-8aae-2ac37dd64517"},"vehicle_type_id":"4","last_reported":1745183310,"current_range_meters":16000,"station_id":"ce4bgj12rcd13ifvqbc0","pricing_plan_id":"cebpf4jnsgd1na2vs0mg"},{"bike_id":"f4f7624b-eec9-47f5-9227-aa44836a7a81","system_id":"levelo_inurba_marseille","lat":43.23199,"lon":5.35535,"is_reserved":false,"is_disabled":false,"rental_uris":{"android":"levelo://app?vid=f4f7624b-eec9-47f5-9227-aa44836a7a81","ios":"levelo://app?vid=f4f7624b-eec9-47f5-9227-aa44836a7a81"},"vehicle_type_id":"4","last_reported":1745183310,"current_range_meters":16000,"station_id":"ce4bhu92rcd13ifvqi70","pricing_plan_id":"cebpf4jnsgd1na2vs0mg"},{"bike_id":"c007a0f8-f30c-4b87-aa69-78967dd55fdb","system_id":"levelo_inurba_marseille","lat":43.3009,"lon":5.39074,"is_reserved":false,"is_disabled":false,"rental_uris":{"android":"levelo://app?vid=c007a0f8-f30c-4b87-aa69-78967dd55fdb","ios":"levelo://app?vid=c007a0f8-f30c-4b87-aa69-78967dd55fdb"},"vehicle_type_id":"4","last_reported":1745183310,"current_range_meters":16400,"station_id":"ce4bh192rcd13ifvqdb0","pricing_plan_id":"cebpf4jnsgd1na2vs0mg"},{"bike_id":"afc17e5e-d712-457e-a5c1-e1f8947bc205","system_id":"levelo_inurba_marseille","lat":43.3043,"lon":5.3974,"is_reserved":false,"is_disabled":false,"rental_uris":{"android":"levelo://app?vid=afc17e5e-d712-457e-a5c1-e1f8947bc205","ios":"levelo://app?vid=afc17e5e-d712-457e-a5c1-e1f8947bc205"},"vehicle_type_id":"4","last_reported":1745183310,"current_range_meters":16400,"station_id":"ce4bh092rcd13ifvqd20","pricing_plan_id":"cebpf4jnsgd1na2vs0mg"},{"bike_id":"b50ac1ac-8112-49a9-9684-58c93de8a551","system_id":"levelo_inurba_marseille","lat":43.25499,"lon":5.37659,"is_reserved":false,"is_disabled":false,"rental_uris":{"android":"levelo://app?vid=b50ac1ac-8112-49a9-9684-58c93de8a551","ios":"levelo://app?vid=b50ac1ac-8112-49a9-9684-58c93de8a551"},"vehicle_type_id":"4","last_reported":1745183310,"current_range_meters":16400,"station_id":"ce4bhh12rcd13ifvqff0","pricing_plan_id":"cebpf4jnsgd1na2vs0mg"},{"bike_id":"f0b75540-3915-464c-aa98-99fbded9f707","system_id":"levelo_inurba_marseille","lat":43.28415,"lon":5.375062,"is_reserved":false,"is_disabled":false,"rental_uris":{"android":"levelo://app?vid=f0b75540-3915-464c-aa98-99fbded9f707","ios":"levelo://app?vid=f0b75540-3915-464c-aa98-99fbded9f707"},"vehicle_type_id":"4","last_reported":1745183310,"current_range_meters":16400,"station_id":"ce4bh412rcd13ifvqds0","pricing_plan_id":"cebpf4jnsgd1na2vs0mg"},{"bike_id":"b63b7a5e-a38c-41b2-b8ca-03dcb2ce1a70","system_id":"levelo_inurba_marseille","lat":43.250987,"lon":5.395195,"is_reserved":false,"is_disabled":true,"rental_uris":{"android":"levelo://app?vid=b63b7a5e-a38c-41b2-b8ca-03dcb2ce1a70","ios":"levelo://app?vid=b63b7a5e-a38c-41b2-b8ca-03dcb2ce1a70"},"vehicle_type_id":"4","last_reported":1745183310,"current_range_meters":16400,"station_id":"ce4bhm12rcd13ifvqgkg","pricing_plan_id":"cebpf4jnsgd1na2vs0mg"},{"bike_id":"04494bc7-45b7-4bae-8033-eab647359250","system_id":"levelo_inurba_marseille","lat":43.29185,"lon":5.39309,"is_reserved":false,"is_disabled":false,"rental_uris":{"android":"levelo://app?vid=04494bc7-45b7-4bae-8033-eab647359250","ios":"levelo://app?vid=04494bc7-45b7-4bae-8033-eab647359250"},"vehicle_type_id":"4","last_reported":1745183310,"current_range_meters":16800,"station_id":"ce4bh192rcd13ifvqdd0","pricing_plan_id":"cebpf4jnsgd1na2vs0mg"},{"bike_id":"acb337f8-9a02-4c16-ad32-3a6e67af21e4","system_id":"levelo_inurba_marseille","lat":43.28466,"lon":5.35891,"is_reserved":false,"is_disabled":true,"rental_uris":{"android":"levelo://app?vid=acb337f8-9a02-4c16-ad32-3a6e67af21e4","ios":"levelo://app?vid=acb337f8-9a02-4c16-ad32-3a6e67af21e4"},"vehicle_type_id":"4","last_reported":1745183310,"current_range_meters":16800,"station_id":"ce4bhah2rcd13ifvqei0","pricing_plan_id":"cebpf4jnsgd1na2vs0mg"},{"bike_id":"5e1b1adf-c925-4a54-928f-3b7e01d2404a","system_id":"levelo_inurba_marseille","lat":43.24803,"lon":5.37453,"is_reserved":false,"is_disabled":false,"rental_uris":{"android":"levelo://app?vid=5e1b1adf-c925-4a54-928f-3b7e01d2404a","ios":"levelo://app?vid=5e1b1adf-c925-4a54-928f-3b7e01d2404a"},"vehicle_type_id":"4","last_reported":1745183310,"current_range_meters":16800,"station_id":"ce4bhgh2rcd13ifvqfb0","pricing_plan_id":"cebpf4jnsgd1na2vs0mg"},{"bike_id":"f0ec5bfa-658e-402a-a360-850ad57798c8","system_id":"levelo_inurba_marseille","lat":43.2293,"lon":5.35373,"is_reserved":false,"is_disabled":false,"rental_uris":{"android":"levelo://app?vid=f0ec5bfa-658e-402a-a360-850ad57798c8","ios":"levelo://app?vid=f0ec5bfa-658e-402a-a360-850ad57798c8"},"vehicle_type_id":"4","last_reported":1745183310,"current_range_meters":16800,"station_id":"cpo3532slgdg3j2ikp40","pricing_plan_id":"cebpf4jnsgd1na2vs0mg"},{"bike_id":"7677c4ef-d832-47d2-8cdb-18c973bf10e9","system_id":"levelo_inurba_marseille","lat":43.30886,"lon":5.39659,"is_reserved":false,"is_disabled":false,"rental_uris":{"android":"levelo://app?vid=7677c4ef-d832-47d2-8cdb-18c973bf10e9","ios":"levelo://app?vid=7677c4ef-d832-47d2-8cdb-18c973bf10e9"},"vehicle_type_id":"4","last_reported":1745183310,"current_range_meters":16800,"station_id":"ce4bh012rcd13ifvqcv0","pricing_plan_id":"cebpf4jnsgd1na2vs0mg"},{"bike_id":"0aed8a3c-4bd8-44b7-b892-b25e4121392f","system_id":"levelo_inurba_marseille","lat":43.287141,"lon":5.373951,"is_reserved":false,"is_disabled":false,"rental_uris":{"android":"levelo://app?vid=0aed8a3c-4bd8-44b7-b892-b25e4121392f","ios":"levelo://app?vid=0aed8a3c-4bd8-44b7-b892-b25e4121392f"},"vehicle_type_id":"4","last_reported":1745183310,"current_range_meters":16800,"station_id":"ce4bh3p2rcd13ifvqdq0","pricing_plan_id":"cebpf4jnsgd1na2vs0mg"},{"bike_id":"9ac91a11-50b7-43ea-a7fc-c2a024699865","system_id":"levelo_inurba_marseille","lat":43.31077,"lon":5.38361,"is_reserved":false,"is_disabled":false,"rental_uris":{"android":"levelo://app?vid=9ac91a11-50b7-43ea-a7fc-c2a024699865","ios":"levelo://app?vid=9ac91a11-50b7-43ea-a7fc-c2a024699865"},"vehicle_type_id":"4","last_reported":1745183310,"current_range_meters":16800,"station_id":"ce4bgv92rcd13ifvqcr0","pricing_plan_id":"cebpf4jnsgd1na2vs0mg"},{"bike_id":"03d24903-f179-419e-a56a-ea0a3e600a13","system_id":"levelo_inurba_marseille","lat":43.25499,"lon":5.37648,"is_reserved":false,"is_disabled":true,"rental_uris":{"android":"levelo://app?vid=03d24903-f179-419e-a56a-ea0a3e600a13","ios":"levelo://app?vid=03d24903-f179-419e-a56a-ea0a3e600a13"},"vehicle_type_id":"4","last_reported":1745183310,"current_range_meters":16800,"station_id":"ce4bhh12rcd13ifvqff0","pricing_plan_id":"cebpf4jnsgd1na2vs0mg"},{"bike_id":"f05206d0-588d-406a-b7f4-c6c279d0ced9","system_id":"levelo_inurba_marseille","lat":43.305291,"lon":5.384335,"is_reserved":false,"is_disabled":false,"rental_uris":{"android":"levelo://app?vid=f05206d0-588d-406a-b7f4-c6c279d0ced9","ios":"levelo://app?vid=f05206d0-588d-406a-b7f4-c6c279d0ced9"},"vehicle_type_id":"4","last_reported":1745183310,"current_range_meters":16400,"station_id":"ce4bh9p2rcd13ifvqec0","pricing_plan_id":"cebpf4jnsgd1na2vs0mg"},{"bike_id":"a7f91fb8-2846-493f-a68f-69867197cfa1","system_id":"levelo_inurba_marseille","lat":43.33662,"lon":5.39782,"is_reserved":false,"is_disabled":false,"rental_uris":{"android":"levelo://app?vid=a7f91fb8-2846-493f-a68f-69867197cfa1","ios":"levelo://app?vid=a7f91fb8-2846-493f-a68f-69867197cfa1"},"vehicle_type_id":"4","last_reported":1745183310,"current_range_meters":17200,"station_id":"","pricing_plan_id":"cebpf4jnsgd1na2vs0mg"},{"bike_id":"08613843-ecc7-47b7-b3c0-700b05b736ed","system_id":"levelo_inurba_marseille","lat":43.28946,"lon":5.36413,"is_reserved":false,"is_disabled":false,"rental_uris":{"android":"levelo://app?vid=08613843-ecc7-47b7-b3c0-700b05b736ed","ios":"levelo://app?vid=08613843-ecc7-47b7-b3c0-700b05b736ed"},"vehicle_type_id":"4","last_reported":1745183310,"current_range_meters":17200,"station_id":"ce4bhc92rcd13ifvqetg","pricing_plan_id":"cebpf4jnsgd1na2vs0mg"},{"bike_id":"8948378a-8cf1-462e-aa91-ec35e1de05f5","system_id":"levelo_inurba_marseille","lat":43.30281,"lon":5.38639,"is_reserved":false,"is_disabled":false,"rental_uris":{"android":"levelo://app?vid=8948378a-8cf1-462e-aa91-ec35e1de05f5","ios":"levelo://app?vid=8948378a-8cf1-462e-aa91-ec35e1de05f5"},"vehicle_type_id":"4","last_reported":1745183310,"current_range_meters":16800,"station_id":"","pricing_plan_id":"cebpf4jnsgd1na2vs0mg"},{"bike_id":"4165524f-8ebd-43e6-af1d-403959a8c769","system_id":"levelo_inurba_marseille","lat":43.27418,"lon":5.39413,"is_reserved":false,"is_disabled":false,"rental_uris":{"android":"levelo://app?vid=4165524f-8ebd-43e6-af1d-403959a8c769","ios":"levelo://app?vid=4165524f-8ebd-43e6-af1d-403959a8c769"},"vehicle_type_id":"4","last_reported":1745183310,"current_range_meters":17200,"station_id":"ce4bhdp2rcd13ifvqf20","pricing_plan_id":"cebpf4jnsgd1na2vs0mg"},{"bike_id":"4d0c211d-cc3b-4460-a3c4-121acaf031ae","system_id":"levelo_inurba_marseille","lat":43.33758,"lon":5.39173,"is_reserved":false,"is_disabled":false,"rental_uris":{"android":"levelo://app?vid=4d0c211d-cc3b-4460-a3c4-121acaf031ae","ios":"levelo://app?vid=4d0c211d-cc3b-4460-a3c4-121acaf031ae"},"vehicle_type_id":"4","last_reported":1745183310,"current_range_meters":17200,"station_id":"ce4bhr92rcd13ifvqhsg","pricing_plan_id":"cebpf4jnsgd1na2vs0mg"},{"bike_id":"820f62be-9c86-4ba0-b470-a6efb3442528","system_id":"levelo_inurba_marseille","lat":43.24078,"lon":5.37739,"is_reserved":false,"is_disabled":true,"rental_uris":{"android":"levelo://app?vid=820f62be-9c86-4ba0-b470-a6efb3442528","ios":"levelo://app?vid=820f62be-9c86-4ba0-b470-a6efb3442528"},"vehicle_type_id":"4","last_reported":1745183310,"current_range_meters":17200,"station_id":"ce4bhnp2rcd13ifvqgvg","pricing_plan_id":"cebpf4jnsgd1na2vs0mg"},{"bike_id":"54547122-c9e3-44aa-92d3-ee29b2aa8445","system_id":"levelo_inurba_marseille","lat":43.28426,"lon":5.34991,"is_reserved":false,"is_disabled":true,"rental_uris":{"android":"levelo://app?vid=54547122-c9e3-44aa-92d3-ee29b2aa8445","ios":"levelo://app?vid=54547122-c9e3-44aa-92d3-ee29b2aa8445"},"vehicle_type_id":"4","last_reported":1745183310,"current_range_meters":17200,"station_id":"ce4bhbh2rcd13ifvqepg","pricing_plan_id":"cebpf4jnsgd1na2vs0mg"},{"bike_id":"1472ee69-7a18-469a-ad90-c444da82f0e2","system_id":"levelo_inurba_marseille","lat":43.29533,"lon":5.3854,"is_reserved":false,"is_disabled":false,"rental_uris":{"android":"levelo://app?vid=1472ee69-7a18-469a-ad90-c444da82f0e2","ios":"levelo://app?vid=1472ee69-7a18-469a-ad90-c444da82f0e2"},"vehicle_type_id":"4","last_reported":1745183310,"current_range_meters":17200,"station_id":"ce4bgih2rcd13ifvqba0","pricing_plan_id":"cebpf4jnsgd1na2vs0mg"},{"bike_id":"5421f91f-c5b9-4312-b8b1-ba44221bb5c0","system_id":"levelo_inurba_marseille","lat":43.26211,"lon":5.37936,"is_reserved":false,"is_disabled":true,"rental_uris":{"android":"levelo://app?vid=5421f91f-c5b9-4312-b8b1-ba44221bb5c0","ios":"levelo://app?vid=5421f91f-c5b9-4312-b8b1-ba44221bb5c0"},"vehicle_type_id":"4","last_reported":1745183310,"current_range_meters":17200,"station_id":"ce4bhjp2rcd13ifvqg90","pricing_plan_id":"cebpf4jnsgd1na2vs0mg"},{"bike_id":"1ac1b160-80aa-4c3d-8047-868b15af45f6","system_id":"levelo_inurba_marseille","lat":43.27918,"lon":5.39582,"is_reserved":false,"is_disabled":false,"rental_uris":{"android":"levelo://app?vid=1ac1b160-80aa-4c3d-8047-868b15af45f6","ios":"levelo://app?vid=1ac1b160-80aa-4c3d-8047-868b15af45f6"},"vehicle_type_id":"4","last_reported":1745183310,"current_range_meters":17200,"station_id":"ce4bhf92rcd13ifvqf40","pricing_plan_id":"cebpf4jnsgd1na2vs0mg"},{"bike_id":"b8cd5422-1e24-48d1-bc5d-5f973732c00b","system_id":"levelo_inurba_marseille","lat":43.23183,"lon":5.35561,"is_reserved":false,"is_disabled":false,"rental_uris":{"android":"levelo://app?vid=b8cd5422-1e24-48d1-bc5d-5f973732c00b","ios":"levelo://app?vid=b8cd5422-1e24-48d1-bc5d-5f973732c00b"},"vehicle_type_id":"4","last_reported":1745183310,"current_range_meters":17200,"station_id":"ce4bhu92rcd13ifvqi70","pricing_plan_id":"cebpf4jnsgd1na2vs0mg"},{"bike_id":"7974a0b9-d888-4717-8913-9d7bc8fa8019","system_id":"levelo_inurba_marseille","lat":43.30041,"lon":5.36556,"is_reserved":false,"is_disabled":false,"rental_uris":{"android":"levelo://app?vid=7974a0b9-d888-4717-8913-9d7bc8fa8019","ios":"levelo://app?vid=7974a0b9-d888-4717-8913-9d7bc8fa8019"},"vehicle_type_id":"4","last_reported":1745183310,"current_range_meters":17600,"station_id":"","pricing_plan_id":"cebpf4jnsgd1na2vs0mg"},{"bike_id":"ab0626bc-75d8-4ee3-bbb3-9157219f339b","system_id":"levelo_inurba_marseille","lat":43.26329,"lon":5.37697,"is_reserved":false,"is_disabled":false,"rental_uris":{"android":"levelo://app?vid=ab0626bc-75d8-4ee3-bbb3-9157219f339b","ios":"levelo://app?vid=ab0626bc-75d8-4ee3-bbb3-9157219f339b"},"vehicle_type_id":"4","last_reported":1745183310,"current_range_meters":17600,"station_id":"","pricing_plan_id":"cebpf4jnsgd1na2vs0mg"},{"bike_id":"2e62bd50-8ce6-4b79-8517-7402c9904232","system_id":"levelo_inurba_marseille","lat":43.23191,"lon":5.39985,"is_reserved":false,"is_disabled":false,"rental_uris":{"android":"levelo://app?vid=2e62bd50-8ce6-4b79-8517-7402c9904232","ios":"levelo://app?vid=2e62bd50-8ce6-4b79-8517-7402c9904232"},"vehicle_type_id":"4","last_reported":1745183310,"current_range_meters":17600,"station_id":"ce4bhn12rcd13ifvqgqg","pricing_plan_id":"cebpf4jnsgd1na2vs0mg"},{"bike_id":"a0ef24cb-02ba-4a28-bfd3-4e4342b66249","system_id":"levelo_inurba_marseille","lat":43.29266,"lon":5.38437,"is_reserved":false,"is_disabled":false,"rental_uris":{"android":"levelo://app?vid=a0ef24cb-02ba-4a28-bfd3-4e4342b66249","ios":"levelo://app?vid=a0ef24cb-02ba-4a28-bfd3-4e4342b66249"},"vehicle_type_id":"4","last_reported":1745183310,"current_range_meters":17600,"station_id":"ce4bh692rcd13ifvqea0","pricing_plan_id":"cebpf4jnsgd1na2vs0mg"},{"bike_id":"68501225-8cea-4f95-ae47-484785f78e68","system_id":"levelo_inurba_marseille","lat":43.32363,"lon":5.38892,"is_reserved":false,"is_disabled":true,"rental_uris":{"android":"levelo://app?vid=68501225-8cea-4f95-ae47-484785f78e68","ios":"levelo://app?vid=68501225-8cea-4f95-ae47-484785f78e68"},"vehicle_type_id":"4","last_reported":1745183310,"current_range_meters":17600,"station_id":"ce4bhqp2rcd13ifvqhog","pricing_plan_id":"cebpf4jnsgd1na2vs0mg"},{"bike_id":"70910b66-5a2c-44f9-9789-d25afa574fbb","system_id":"levelo_inurba_marseille","lat":43.29957,"lon":5.41321,"is_reserved":false,"is_disabled":false,"rental_uris":{"android":"levelo://app?vid=70910b66-5a2c-44f9-9789-d25afa574fbb","ios":"levelo://app?vid=70910b66-5a2c-44f9-9789-d25afa574fbb"},"vehicle_type_id":"4","last_reported":1745183310,"current_range_meters":17600,"station_id":"ce4bhp12rcd13ifvqh9g","pricing_plan_id":"cebpf4jnsgd1na2vs0mg"},{"bike_id":"7f85cb0c-933e-490b-a0c3-bfacab605268","system_id":"levelo_inurba_marseille","lat":43.28877,"lon":5.35964,"is_reserved":false,"is_disabled":true,"rental_uris":{"android":"levelo://app?vid=7f85cb0c-933e-490b-a0c3-bfacab605268","ios":"levelo://app?vid=7f85cb0c-933e-490b-a0c3-bfacab605268"},"vehicle_type_id":"4","last_reported":1745183310,"current_range_meters":17600,"station_id":"","pricing_plan_id":"cebpf4jnsgd1na2vs0mg"},{"bike_id":"f5082407-ad9f-416d-b3f3-a40cd04bfde3","system_id":"levelo_inurba_marseille","lat":43.23017,"lon":5.355,"is_reserved":false,"is_disabled":false,"rental_uris":{"android":"levelo://app?vid=f5082407-ad9f-416d-b3f3-a40cd04bfde3","ios":"levelo://app?vid=f5082407-ad9f-416d-b3f3-a40cd04bfde3"},"vehicle_type_id":"4","last_reported":1745183310,"current_range_meters":17600,"station_id":"cpo3342slgdg3j2ifvpg","pricing_plan_id":"cebpf4jnsgd1na2vs0mg"},{"bike_id":"84e509b4-2ebc-40d7-81d7-77950df3e094","system_id":"levelo_inurba_marseille","lat":43.29031,"lon":5.39971,"is_reserved":false,"is_disabled":false,"rental_uris":{"android":"levelo://app?vid=84e509b4-2ebc-40d7-81d7-77950df3e094","ios":"levelo://app?vid=84e509b4-2ebc-40d7-81d7-77950df3e094"},"vehicle_type_id":"4","last_reported":1745183310,"current_range_meters":17600,"station_id":"ce4bh392rcd13ifvqdm0","pricing_plan_id":"cebpf4jnsgd1na2vs0mg"},{"bike_id":"49e44546-d950-48d4-81ad-6ad303d08980","system_id":"levelo_inurba_marseille","lat":43.21743,"lon":5.34601,"is_reserved":false,"is_disabled":true,"rental_uris":{"android":"levelo://app?vid=49e44546-d950-48d4-81ad-6ad303d08980","ios":"levelo://app?vid=49e44546-d950-48d4-81ad-6ad303d08980"},"vehicle_type_id":"4","last_reported":1745183310,"current_range_meters":17600,"station_id":"","pricing_plan_id":"cebpf4jnsgd1na2vs0mg"},{"bike_id":"0df66e0a-9fc8-4b65-8ac4-cdbc9cef329a","system_id":"levelo_inurba_marseille","lat":43.31149,"lon":5.38377,"is_reserved":false,"is_disabled":true,"rental_uris":{"android":"levelo://app?vid=0df66e0a-9fc8-4b65-8ac4-cdbc9cef329a","ios":"levelo://app?vid=0df66e0a-9fc8-4b65-8ac4-cdbc9cef329a"},"vehicle_type_id":"4","last_reported":1745183310,"current_range_meters":17600,"station_id":"","pricing_plan_id":"cebpf4jnsgd1na2vs0mg"},{"bike_id":"b27a9d1c-abb4-43c8-8463-09cd46049d42","system_id":"levelo_inurba_marseille","lat":43.26203,"lon":5.37439,"is_reserved":false,"is_disabled":true,"rental_uris":{"android":"levelo://app?vid=b27a9d1c-abb4-43c8-8463-09cd46049d42","ios":"levelo://app?vid=b27a9d1c-abb4-43c8-8463-09cd46049d42"},"vehicle_type_id":"4","last_reported":1745183310,"current_range_meters":17600,"station_id":"ce4bhgp2rcd13ifvqfc0","pricing_plan_id":"cebpf4jnsgd1na2vs0mg"},{"bike_id":"dbaaf1ea-ade8-4f5f-b915-d93153091b62","system_id":"levelo_inurba_marseille","lat":43.25575,"lon":5.38223,"is_reserved":false,"is_disabled":false,"rental_uris":{"android":"levelo://app?vid=dbaaf1ea-ade8-4f5f-b915-d93153091b62","ios":"levelo://app?vid=dbaaf1ea-ade8-4f5f-b915-d93153091b62"},"vehicle_type_id":"4","last_reported":1745183310,"current_range_meters":17600,"station_id":"ce4bhih2rcd13ifvqfs0","pricing_plan_id":"cebpf4jnsgd1na2vs0mg"},{"bike_id":"608afa2a-e3df-4335-ae2c-e8de6a01e0fb","system_id":"levelo_inurba_marseille","lat":43.25028,"lon":5.38925,"is_reserved":false,"is_disabled":false,"rental_uris":{"android":"levelo://app?vid=608afa2a-e3df-4335-ae2c-e8de6a01e0fb","ios":"levelo://app?vid=608afa2a-e3df-4335-ae2c-e8de6a01e0fb"},"vehicle_type_id":"4","last_reported":1745183310,"current_range_meters":17600,"station_id":"ce4bhgp2rcd13ifvqfd0","pricing_plan_id":"cebpf4jnsgd1na2vs0mg"},{"bike_id":"f5af73f6-a509-41da-b4ce-01f33ecbc430","system_id":"levelo_inurba_marseille","lat":43.29414,"lon":5.38613,"is_reserved":false,"is_disabled":false,"rental_uris":{"android":"levelo://app?vid=f5af73f6-a509-41da-b4ce-01f33ecbc430","ios":"levelo://app?vid=f5af73f6-a509-41da-b4ce-01f33ecbc430"},"vehicle_type_id":"4","last_reported":1745183310,"current_range_meters":18000,"station_id":"ce4bh2h2rcd13ifvqdh0","pricing_plan_id":"cebpf4jnsgd1na2vs0mg"},{"bike_id":"2b9dc3a3-9ca1-4379-9bb7-4b8dbd4e17cf","system_id":"levelo_inurba_marseille","lat":43.23953,"lon":5.36662,"is_reserved":false,"is_disabled":true,"rental_uris":{"android":"levelo://app?vid=2b9dc3a3-9ca1-4379-9bb7-4b8dbd4e17cf","ios":"levelo://app?vid=2b9dc3a3-9ca1-4379-9bb7-4b8dbd4e17cf"},"vehicle_type_id":"4","last_reported":1745183310,"current_range_meters":18000,"station_id":"ce4bhi12rcd13ifvqfp0","pricing_plan_id":"cebpf4jnsgd1na2vs0mg"},{"bike_id":"af5ba08c-0730-4dda-a43c-3e08ff505b3c","system_id":"levelo_inurba_marseille","lat":43.23188,"lon":5.35594,"is_reserved":false,"is_disabled":false,"rental_uris":{"android":"levelo://app?vid=af5ba08c-0730-4dda-a43c-3e08ff505b3c","ios":"levelo://app?vid=af5ba08c-0730-4dda-a43c-3e08ff505b3c"},"vehicle_type_id":"4","last_reported":1745183310,"current_range_meters":18000,"station_id":"ce4bhu92rcd13ifvqi70","pricing_plan_id":"cebpf4jnsgd1na2vs0mg"},{"bike_id":"dd97ac6e-46e0-4759-98db-840330173a57","system_id":"levelo_inurba_marseille","lat":43.29425,"lon":5.38619,"is_reserved":false,"is_disabled":false,"rental_uris":{"android":"levelo://app?vid=dd97ac6e-46e0-4759-98db-840330173a57","ios":"levelo://app?vid=dd97ac6e-46e0-4759-98db-840330173a57"},"vehicle_type_id":"4","last_reported":1745183310,"current_range_meters":18000,"station_id":"ce4bh2h2rcd13ifvqdh0","pricing_plan_id":"cebpf4jnsgd1na2vs0mg"},{"bike_id":"f7fee935-7576-46f4-8635-2f2fd8e0a49a","system_id":"levelo_inurba_marseille","lat":43.29534,"lon":5.38542,"is_reserved":false,"is_disabled":false,"rental_uris":{"android":"levelo://app?vid=f7fee935-7576-46f4-8635-2f2fd8e0a49a","ios":"levelo://app?vid=f7fee935-7576-46f4-8635-2f2fd8e0a49a"},"vehicle_type_id":"4","last_reported":1745183310,"current_range_meters":18000,"station_id":"ce4bgih2rcd13ifvqba0","pricing_plan_id":"cebpf4jnsgd1na2vs0mg"},{"bike_id":"788ef9d3-8692-48a2-904c-394a6cb97e1c","system_id":"levelo_inurba_marseille","lat":43.28403,"lon":5.35021,"is_reserved":false,"is_disabled":false,"rental_uris":{"android":"levelo://app?vid=788ef9d3-8692-48a2-904c-394a6cb97e1c","ios":"levelo://app?vid=788ef9d3-8692-48a2-904c-394a6cb97e1c"},"vehicle_type_id":"4","last_reported":1745183310,"current_range_meters":18000,"station_id":"ce4bhbh2rcd13ifvqepg","pricing_plan_id":"cebpf4jnsgd1na2vs0mg"},{"bike_id":"90a044fd-0db6-4aee-ab59-8b4b6a7ababe","system_id":"levelo_inurba_marseille","lat":43.29126,"lon":5.38141,"is_reserved":false,"is_disabled":false,"rental_uris":{"android":"levelo://app?vid=90a044fd-0db6-4aee-ab59-8b4b6a7ababe","ios":"levelo://app?vid=90a044fd-0db6-4aee-ab59-8b4b6a7ababe"},"vehicle_type_id":"4","last_reported":1745183310,"current_range_meters":18000,"station_id":"ce4bh512rcd13ifvqe2g","pricing_plan_id":"cebpf4jnsgd1na2vs0mg"},{"bike_id":"fc7dadf2-e6d7-4733-8483-ffd94caab27d","system_id":"levelo_inurba_marseille","lat":43.28722,"lon":5.36082,"is_reserved":false,"is_disabled":false,"rental_uris":{"android":"levelo://app?vid=fc7dadf2-e6d7-4733-8483-ffd94caab27d","ios":"levelo://app?vid=fc7dadf2-e6d7-4733-8483-ffd94caab27d"},"vehicle_type_id":"4","last_reported":1745183310,"current_range_meters":18000,"station_id":"cki0cbj6b192h4jlfktg","pricing_plan_id":"cebpf4jnsgd1na2vs0mg"},{"bike_id":"96c1ac31-9fea-4c51-b639-a5cb1598ae10","system_id":"levelo_inurba_marseille","lat":43.295956,"lon":5.380901,"is_reserved":false,"is_disabled":false,"rental_uris":{"android":"levelo://app?vid=96c1ac31-9fea-4c51-b639-a5cb1598ae10","ios":"levelo://app?vid=96c1ac31-9fea-4c51-b639-a5cb1598ae10"},"vehicle_type_id":"4","last_reported":1745183310,"current_range_meters":18000,"station_id":"ce4bgl12rcd13ifvqbo0","pricing_plan_id":"cebpf4jnsgd1na2vs0mg"},{"bike_id":"1bee1f6b-dcb8-46b9-a0b3-876cad04fee4","system_id":"levelo_inurba_marseille","lat":43.24662,"lon":5.38158,"is_reserved":false,"is_disabled":false,"rental_uris":{"android":"levelo://app?vid=1bee1f6b-dcb8-46b9-a0b3-876cad04fee4","ios":"levelo://app?vid=1bee1f6b-dcb8-46b9-a0b3-876cad04fee4"},"vehicle_type_id":"4","last_reported":1745183310,"current_range_meters":18000,"station_id":"ce4bhih2rcd13ifvqfr0","pricing_plan_id":"cebpf4jnsgd1na2vs0mg"},{"bike_id":"708a791d-3040-4b21-8706-33329d812143","system_id":"levelo_inurba_marseille","lat":43.30704,"lon":5.39267,"is_reserved":false,"is_disabled":true,"rental_uris":{"android":"levelo://app?vid=708a791d-3040-4b21-8706-33329d812143","ios":"levelo://app?vid=708a791d-3040-4b21-8706-33329d812143"},"vehicle_type_id":"4","last_reported":1745183310,"current_range_meters":18000,"station_id":"","pricing_plan_id":"cebpf4jnsgd1na2vs0mg"},{"bike_id":"f33c9509-83d8-478a-bac9-567282b1608a","system_id":"levelo_inurba_marseille","lat":43.28458,"lon":5.35884,"is_reserved":false,"is_disabled":false,"rental_uris":{"android":"levelo://app?vid=f33c9509-83d8-478a-bac9-567282b1608a","ios":"levelo://app?vid=f33c9509-83d8-478a-bac9-567282b1608a"},"vehicle_type_id":"4","last_reported":1745183310,"current_range_meters":18000,"station_id":"ce4bhah2rcd13ifvqei0","pricing_plan_id":"cebpf4jnsgd1na2vs0mg"},{"bike_id":"76453cd1-7d95-428f-9fac-4fd01a322ba9","system_id":"levelo_inurba_marseille","lat":43.29018,"lon":5.35612,"is_reserved":false,"is_disabled":true,"rental_uris":{"android":"levelo://app?vid=76453cd1-7d95-428f-9fac-4fd01a322ba9","ios":"levelo://app?vid=76453cd1-7d95-428f-9fac-4fd01a322ba9"},"vehicle_type_id":"4","last_reported":1745183310,"current_range_meters":18800,"station_id":"ce4bhb92rcd13ifvqen0","pricing_plan_id":"cebpf4jnsgd1na2vs0mg"},{"bike_id":"a80c9f0f-dee4-4870-af5e-65bded0c0955","system_id":"levelo_inurba_marseille","lat":43.297881,"lon":5.371041,"is_reserved":false,"is_disabled":false,"rental_uris":{"android":"levelo://app?vid=a80c9f0f-dee4-4870-af5e-65bded0c0955","ios":"levelo://app?vid=a80c9f0f-dee4-4870-af5e-65bded0c0955"},"vehicle_type_id":"4","last_reported":1745183310,"current_range_meters":18000,"station_id":"ce4bgop2rcd13ifvqc1g","pricing_plan_id":"cebpf4jnsgd1na2vs0mg"},{"bike_id":"948d5a35-9c81-459d-880f-1bf6fdb9262c","system_id":"levelo_inurba_marseille","lat":43.33781,"lon":5.37448,"is_reserved":false,"is_disabled":false,"rental_uris":{"android":"levelo://app?vid=948d5a35-9c81-459d-880f-1bf6fdb9262c","ios":"levelo://app?vid=948d5a35-9c81-459d-880f-1bf6fdb9262c"},"vehicle_type_id":"4","last_reported":1745183310,"current_range_meters":18800,"station_id":"","pricing_plan_id":"cebpf4jnsgd1na2vs0mg"},{"bike_id":"044ca77b-b086-4312-a091-d7b33a48d41a","system_id":"levelo_inurba_marseille","lat":43.278312,"lon":5.39214,"is_reserved":false,"is_disabled":false,"rental_uris":{"android":"levelo://app?vid=044ca77b-b086-4312-a091-d7b33a48d41a","ios":"levelo://app?vid=044ca77b-b086-4312-a091-d7b33a48d41a"},"vehicle_type_id":"4","last_reported":1745183310,"current_range_meters":18800,"station_id":"ce4bh012rcd13ifvqd10","pricing_plan_id":"cebpf4jnsgd1na2vs0mg"},{"bike_id":"3242031d-70ee-42c4-80dd-fc750a7fa2d1","system_id":"levelo_inurba_marseille","lat":43.3372,"lon":5.35616,"is_reserved":false,"is_disabled":false,"rental_uris":{"android":"levelo://app?vid=3242031d-70ee-42c4-80dd-fc750a7fa2d1","ios":"levelo://app?vid=3242031d-70ee-42c4-80dd-fc750a7fa2d1"},"vehicle_type_id":"4","last_reported":1745183310,"current_range_meters":19200,"station_id":"","pricing_plan_id":"cebpf4jnsgd1na2vs0mg"},{"bike_id":"90ce21df-5f7c-4551-a99a-0900c11e065d","system_id":"levelo_inurba_marseille","lat":43.28376,"lon":5.41849,"is_reserved":false,"is_disabled":false,"rental_uris":{"android":"levelo://app?vid=90ce21df-5f7c-4551-a99a-0900c11e065d","ios":"levelo://app?vid=90ce21df-5f7c-4551-a99a-0900c11e065d"},"vehicle_type_id":"4","last_reported":1745183310,"current_range_meters":19200,"station_id":"","pricing_plan_id":"cebpf4jnsgd1na2vs0mg"},{"bike_id":"495096e8-215c-4369-b42a-f8123bca3e0d","system_id":"levelo_inurba_marseille","lat":43.26241,"lon":5.40468,"is_reserved":false,"is_disabled":false,"rental_uris":{"android":"levelo://app?vid=495096e8-215c-4369-b42a-f8123bca3e0d","ios":"levelo://app?vid=495096e8-215c-4369-b42a-f8123bca3e0d"},"vehicle_type_id":"4","last_reported":1745183310,"current_range_meters":16400,"station_id":"ce4bhmh2rcd13ifvqgmg","pricing_plan_id":"cebpf4jnsgd1na2vs0mg"},{"bike_id":"2b22eb8e-177c-4ead-8259-66e572a51a0a","system_id":"levelo_inurba_marseille","lat":43.30926,"lon":5.40142,"is_reserved":false,"is_disabled":false,"rental_uris":{"android":"levelo://app?vid=2b22eb8e-177c-4ead-8259-66e572a51a0a","ios":"levelo://app?vid=2b22eb8e-177c-4ead-8259-66e572a51a0a"},"vehicle_type_id":"4","last_reported":1745183310,"current_range_meters":19200,"station_id":"ce4bgvp2rcd13ifvqct0","pricing_plan_id":"cebpf4jnsgd1na2vs0mg"},{"bike_id":"56f99e67-d079-47ed-9bb2-a7635f2b0972","system_id":"levelo_inurba_marseille","lat":43.248128,"lon":5.374603,"is_reserved":false,"is_disabled":false,"rental_uris":{"android":"levelo://app?vid=56f99e67-d079-47ed-9bb2-a7635f2b0972","ios":"levelo://app?vid=56f99e67-d079-47ed-9bb2-a7635f2b0972"},"vehicle_type_id":"4","last_reported":1745183310,"current_range_meters":19200,"station_id":"ce4bhgh2rcd13ifvqfb0","pricing_plan_id":"cebpf4jnsgd1na2vs0mg"},{"bike_id":"9ebb9e31-b181-4120-a985-5579f166c1c4","system_id":"levelo_inurba_marseille","lat":43.2799,"lon":5.40027,"is_reserved":false,"is_disabled":true,"rental_uris":{"android":"levelo://app?vid=9ebb9e31-b181-4120-a985-5579f166c1c4","ios":"levelo://app?vid=9ebb9e31-b181-4120-a985-5579f166c1c4"},"vehicle_type_id":"4","last_reported":1745183310,"current_range_meters":19600,"station_id":"ce4bho92rcd13ifvqh4g","pricing_plan_id":"cebpf4jnsgd1na2vs0mg"},{"bike_id":"c5e3d54c-a3b9-49be-b43b-87868e82f29e","system_id":"levelo_inurba_marseille","lat":43.26217,"lon":5.40461,"is_reserved":false,"is_disabled":false,"rental_uris":{"android":"levelo://app?vid=c5e3d54c-a3b9-49be-b43b-87868e82f29e","ios":"levelo://app?vid=c5e3d54c-a3b9-49be-b43b-87868e82f29e"},"vehicle_type_id":"4","last_reported":1745183310,"current_range_meters":19600,"station_id":"ce4bhmh2rcd13ifvqgmg","pricing_plan_id":"cebpf4jnsgd1na2vs0mg"},{"bike_id":"424472fe-27b5-4a70-ac8d-22bb29861317","system_id":"levelo_inurba_marseille","lat":43.29718,"lon":5.37685,"is_reserved":false,"is_disabled":false,"rental_uris":{"android":"levelo://app?vid=424472fe-27b5-4a70-ac8d-22bb29861317","ios":"levelo://app?vid=424472fe-27b5-4a70-ac8d-22bb29861317"},"vehicle_type_id":"4","last_reported":1745183310,"current_range_meters":19600,"station_id":"ce4bgkh2rcd13ifvqbl0","pricing_plan_id":"cebpf4jnsgd1na2vs0mg"},{"bike_id":"d86af837-a879-43b1-879c-7f4e6e0afaf3","system_id":"levelo_inurba_marseille","lat":43.29418,"lon":5.38609,"is_reserved":false,"is_disabled":false,"rental_uris":{"android":"levelo://app?vid=d86af837-a879-43b1-879c-7f4e6e0afaf3","ios":"levelo://app?vid=d86af837-a879-43b1-879c-7f4e6e0afaf3"},"vehicle_type_id":"4","last_reported":1745183310,"current_range_meters":19600,"station_id":"ce4bh2h2rcd13ifvqdh0","pricing_plan_id":"cebpf4jnsgd1na2vs0mg"},{"bike_id":"b1cbbde4-1469-43dd-bb73-72ae57c3c87e","system_id":"levelo_inurba_marseille","lat":43.25541,"lon":5.37753,"is_reserved":false,"is_disabled":false,"rental_uris":{"android":"levelo://app?vid=b1cbbde4-1469-43dd-bb73-72ae57c3c87e","ios":"levelo://app?vid=b1cbbde4-1469-43dd-bb73-72ae57c3c87e"},"vehicle_type_id":"4","last_reported":1745183310,"current_range_meters":19600,"station_id":"","pricing_plan_id":"cebpf4jnsgd1na2vs0mg"},{"bike_id":"ed1536ee-f6eb-4e2e-a617-13e00564bca9","system_id":"levelo_inurba_marseille","lat":43.303334,"lon":5.404386,"is_reserved":false,"is_disabled":false,"rental_uris":{"android":"levelo://app?vid=ed1536ee-f6eb-4e2e-a617-13e00564bca9","ios":"levelo://app?vid=ed1536ee-f6eb-4e2e-a617-13e00564bca9"},"vehicle_type_id":"4","last_reported":1745183310,"current_range_meters":19600,"station_id":"ce4bh012rcd13ifvqd10","pricing_plan_id":"cebpf4jnsgd1na2vs0mg"},{"bike_id":"48120a19-6317-4074-b837-ac1256ddf54b","system_id":"levelo_inurba_marseille","lat":43.29809,"lon":5.40398,"is_reserved":false,"is_disabled":false,"rental_uris":{"android":"levelo://app?vid=48120a19-6317-4074-b837-ac1256ddf54b","ios":"levelo://app?vid=48120a19-6317-4074-b837-ac1256ddf54b"},"vehicle_type_id":"4","last_reported":1745183310,"current_range_meters":21600,"station_id":"ce4bh112rcd13ifvqd90","pricing_plan_id":"cebpf4jnsgd1na2vs0mg"},{"bike_id":"4548ac9e-e96e-45c1-a769-0832297babba","system_id":"levelo_inurba_marseille","lat":43.32112,"lon":5.36767,"is_reserved":false,"is_disabled":false,"rental_uris":{"android":"levelo://app?vid=4548ac9e-e96e-45c1-a769-0832297babba","ios":"levelo://app?vid=4548ac9e-e96e-45c1-a769-0832297babba"},"vehicle_type_id":"4","last_reported":1745183310,"current_range_meters":20000,"station_id":"ce4bhrh2rcd13ifvqhug","pricing_plan_id":"cebpf4jnsgd1na2vs0mg"},{"bike_id":"00ffbdc2-2962-4e85-97f2-b2875d1e2753","system_id":"levelo_inurba_marseille","lat":43.2827,"lon":5.35075,"is_reserved":false,"is_disabled":true,"rental_uris":{"android":"levelo://app?vid=00ffbdc2-2962-4e85-97f2-b2875d1e2753","ios":"levelo://app?vid=00ffbdc2-2962-4e85-97f2-b2875d1e2753"},"vehicle_type_id":"4","last_reported":1745183310,"current_range_meters":20000,"station_id":"ce4bhbp2rcd13ifvqerg","pricing_plan_id":"cebpf4jnsgd1na2vs0mg"},{"bike_id":"19928206-fb7a-4806-bb57-5d0451dbd3b5","system_id":"levelo_inurba_marseille","lat":43.29539,"lon":5.38529,"is_reserved":false,"is_disabled":false,"rental_uris":{"android":"levelo://app?vid=19928206-fb7a-4806-bb57-5d0451dbd3b5","ios":"levelo://app?vid=19928206-fb7a-4806-bb57-5d0451dbd3b5"},"vehicle_type_id":"4","last_reported":1745183310,"current_range_meters":20000,"station_id":"ce4bgih2rcd13ifvqba0","pricing_plan_id":"cebpf4jnsgd1na2vs0mg"},{"bike_id":"de6524b5-0d4f-4e06-ba84-338f86533b89","system_id":"levelo_inurba_marseille","lat":43.26505,"lon":5.39545,"is_reserved":false,"is_disabled":false,"rental_uris":{"android":"levelo://app?vid=de6524b5-0d4f-4e06-ba84-338f86533b89","ios":"levelo://app?vid=de6524b5-0d4f-4e06-ba84-338f86533b89"},"vehicle_type_id":"4","last_reported":1745183310,"current_range_meters":20000,"station_id":"ce4bhi12rcd13ifvqfq0","pricing_plan_id":"cebpf4jnsgd1na2vs0mg"},{"bike_id":"45e81cf0-845a-4c37-804a-aac0693b9a6c","system_id":"levelo_inurba_marseille","lat":43.2873,"lon":5.39974,"is_reserved":false,"is_disabled":false,"rental_uris":{"android":"levelo://app?vid=45e81cf0-845a-4c37-804a-aac0693b9a6c","ios":"levelo://app?vid=45e81cf0-845a-4c37-804a-aac0693b9a6c"},"vehicle_type_id":"4","last_reported":1745183310,"current_range_meters":24400,"station_id":"ce4bho92rcd13ifvqh3g","pricing_plan_id":"cebpf4jnsgd1na2vs0mg"},{"bike_id":"961e8b31-7168-4b77-b471-830ac9510468","system_id":"levelo_inurba_marseille","lat":43.30596,"lon":5.37198,"is_reserved":false,"is_disabled":false,"rental_uris":{"android":"levelo://app?vid=961e8b31-7168-4b77-b471-830ac9510468","ios":"levelo://app?vid=961e8b31-7168-4b77-b471-830ac9510468"},"vehicle_type_id":"4","last_reported":1745183310,"current_range_meters":20000,"station_id":"ce4bgqh2rcd13ifvqc4g","pricing_plan_id":"cebpf4jnsgd1na2vs0mg"},{"bike_id":"0af98c77-e735-4f11-8f26-a525403634d8","system_id":"levelo_inurba_marseille","lat":43.30879,"lon":5.37186,"is_reserved":false,"is_disabled":false,"rental_uris":{"android":"levelo://app?vid=0af98c77-e735-4f11-8f26-a525403634d8","ios":"levelo://app?vid=0af98c77-e735-4f11-8f26-a525403634d8"},"vehicle_type_id":"4","last_reported":1745183310,"current_range_meters":20400,"station_id":"ce4bguh2rcd13ifvqckg","pricing_plan_id":"cebpf4jnsgd1na2vs0mg"},{"bike_id":"60027e7f-947e-4d79-8def-289a5bd73c78","system_id":"levelo_inurba_marseille","lat":43.30196,"lon":5.36593,"is_reserved":false,"is_disabled":false,"rental_uris":{"android":"levelo://app?vid=60027e7f-947e-4d79-8def-289a5bd73c78","ios":"levelo://app?vid=60027e7f-947e-4d79-8def-289a5bd73c78"},"vehicle_type_id":"4","last_reported":1745183310,"current_range_meters":20400,"station_id":"ce4bgrh2rcd13ifvqc8g","pricing_plan_id":"cebpf4jnsgd1na2vs0mg"},{"bike_id":"9235e989-b644-4df1-b668-556e4921b40e","system_id":"levelo_inurba_marseille","lat":43.24153,"lon":5.39705,"is_reserved":false,"is_disabled":true,"rental_uris":{"android":"levelo://app?vid=9235e989-b644-4df1-b668-556e4921b40e","ios":"levelo://app?vid=9235e989-b644-4df1-b668-556e4921b40e"},"vehicle_type_id":"4","last_reported":1745183310,"current_range_meters":20400,"station_id":"ce4bhn12rcd13ifvqgpg","pricing_plan_id":"cebpf4jnsgd1na2vs0mg"},{"bike_id":"64c1e03b-2971-4be3-b430-369489f10b8e","system_id":"levelo_inurba_marseille","lat":43.29312,"lon":5.37434,"is_reserved":false,"is_disabled":true,"rental_uris":{"android":"levelo://app?vid=64c1e03b-2971-4be3-b430-369489f10b8e","ios":"levelo://app?vid=64c1e03b-2971-4be3-b430-369489f10b8e"},"vehicle_type_id":"4","last_reported":1745183310,"current_range_meters":20400,"station_id":"ce4bgi12rcd13ifvqb70","pricing_plan_id":"cebpf4jnsgd1na2vs0mg"},{"bike_id":"7fbfc9a0-3123-40fa-bbce-c6ce9edda5ed","system_id":"levelo_inurba_marseille","lat":43.27104,"lon":5.42305,"is_reserved":false,"is_disabled":true,"rental_uris":{"android":"levelo://app?vid=7fbfc9a0-3123-40fa-bbce-c6ce9edda5ed","ios":"levelo://app?vid=7fbfc9a0-3123-40fa-bbce-c6ce9edda5ed"},"vehicle_type_id":"4","last_reported":1745183310,"current_range_meters":20400,"station_id":"ce4bhk92rcd13ifvqgb0","pricing_plan_id":"cebpf4jnsgd1na2vs0mg"},{"bike_id":"4776f0ad-0567-42e7-91fa-0fc15c18286c","system_id":"levelo_inurba_marseille","lat":43.29881,"lon":5.38906,"is_reserved":false,"is_disabled":false,"rental_uris":{"android":"levelo://app?vid=4776f0ad-0567-42e7-91fa-0fc15c18286c","ios":"levelo://app?vid=4776f0ad-0567-42e7-91fa-0fc15c18286c"},"vehicle_type_id":"4","last_reported":1745183310,"current_range_meters":20800,"station_id":"ce4bh392rcd13ifvqdl0","pricing_plan_id":"cebpf4jnsgd1na2vs0mg"},{"bike_id":"9341d702-e60c-4eb3-a384-8a55c2d8cc42","system_id":"levelo_inurba_marseille","lat":43.28034,"lon":5.36969,"is_reserved":false,"is_disabled":false,"rental_uris":{"android":"levelo://app?vid=9341d702-e60c-4eb3-a384-8a55c2d8cc42","ios":"levelo://app?vid=9341d702-e60c-4eb3-a384-8a55c2d8cc42"},"vehicle_type_id":"4","last_reported":1745183310,"current_range_meters":20800,"station_id":"ce4bha12rcd13ifvqef0","pricing_plan_id":"cebpf4jnsgd1na2vs0mg"},{"bike_id":"7806dd9c-868f-4ffd-a1a9-a5b538daceb8","system_id":"levelo_inurba_marseille","lat":43.30496,"lon":5.3668,"is_reserved":false,"is_disabled":false,"rental_uris":{"android":"levelo://app?vid=7806dd9c-868f-4ffd-a1a9-a5b538daceb8","ios":"levelo://app?vid=7806dd9c-868f-4ffd-a1a9-a5b538daceb8"},"vehicle_type_id":"4","last_reported":1745183310,"current_range_meters":20800,"station_id":"","pricing_plan_id":"cebpf4jnsgd1na2vs0mg"},{"bike_id":"5a46db62-513a-4883-9f49-f4d5b01aab0e","system_id":"levelo_inurba_marseille","lat":43.31539,"lon":5.3806,"is_reserved":false,"is_disabled":false,"rental_uris":{"android":"levelo://app?vid=5a46db62-513a-4883-9f49-f4d5b01aab0e","ios":"levelo://app?vid=5a46db62-513a-4883-9f49-f4d5b01aab0e"},"vehicle_type_id":"4","last_reported":1745183310,"current_range_meters":20800,"station_id":"ce4bhsp2rcd13ifvqi50","pricing_plan_id":"cebpf4jnsgd1na2vs0mg"},{"bike_id":"2cf5be3a-dd83-40ce-8a9d-0967a2587429","system_id":"levelo_inurba_marseille","lat":43.31656,"lon":5.37357,"is_reserved":false,"is_disabled":false,"rental_uris":{"android":"levelo://app?vid=2cf5be3a-dd83-40ce-8a9d-0967a2587429","ios":"levelo://app?vid=2cf5be3a-dd83-40ce-8a9d-0967a2587429"},"vehicle_type_id":"4","last_reported":1745183310,"current_range_meters":20800,"station_id":"","pricing_plan_id":"cebpf4jnsgd1na2vs0mg"},{"bike_id":"897cbbac-68ec-45a5-b920-1698261dd2b3","system_id":"levelo_inurba_marseille","lat":43.306405,"lon":5.40091,"is_reserved":false,"is_disabled":false,"rental_uris":{"android":"levelo://app?vid=897cbbac-68ec-45a5-b920-1698261dd2b3","ios":"levelo://app?vid=897cbbac-68ec-45a5-b920-1698261dd2b3"},"vehicle_type_id":"4","last_reported":1745183310,"current_range_meters":21600,"station_id":"ce4bh112rcd13ifvqda0","pricing_plan_id":"cebpf4jnsgd1na2vs0mg"},{"bike_id":"b261fe84-cd86-4730-b2ee-802177904fc1","system_id":"levelo_inurba_marseille","lat":43.31731,"lon":5.37776,"is_reserved":false,"is_disabled":false,"rental_uris":{"android":"levelo://app?vid=b261fe84-cd86-4730-b2ee-802177904fc1","ios":"levelo://app?vid=b261fe84-cd86-4730-b2ee-802177904fc1"},"vehicle_type_id":"4","last_reported":1745183310,"current_range_meters":21600,"station_id":"ce4bgth2rcd13ifvqch0","pricing_plan_id":"cebpf4jnsgd1na2vs0mg"},{"bike_id":"edb5d909-a522-40a7-afb8-0b251bbbb305","system_id":"levelo_inurba_marseille","lat":43.26931,"lon":5.38657,"is_reserved":false,"is_disabled":true,"rental_uris":{"android":"levelo://app?vid=edb5d909-a522-40a7-afb8-0b251bbbb305","ios":"levelo://app?vid=edb5d909-a522-40a7-afb8-0b251bbbb305"},"vehicle_type_id":"4","last_reported":1745183310,"current_range_meters":21600,"station_id":"ce4bhh92rcd13ifvqfh0","pricing_plan_id":"cebpf4jnsgd1na2vs0mg"},