{"last_updated":1701626877,"ttl":30,"version":"2.2","data":{"bikes":[{"bike_id":"6db96f70-db68-4fc2-8aac-47af5166d23b","system_id":"levelo_inurba_marseille","lat":43.314811,"lon":5.373103,"is_reserved":false,"is_disabled":false,"rental_uris":{"android":"levelo://app?vid=6db96f70-db68-4fc2-8aac-47af5166d23b","ios":"levelo://app?vid=6db96f70-db68-4fc2-8aac-47af5166d23b"},"vehicle_type_id":"4","last_reported":1701626877,"current_range_meters":21200,"station_id":"ce4bgt12rcd13ifvqcd0","pricing_plan_id":"free"},{"bike_id":"6669ddd7-8e52-4fe9-86b9-167f235bc738","system_id":"levelo_inurba_marseille","lat":43.314811,"lon":5.373103,"is_reserved":false,"is_disabled":false,"rental_uris":{"android":"levelo://app?vid=6669ddd7-8e52-4fe9-86b9-167f235bc738","ios":"levelo://app?vid=6669ddd7-8e52-4fe9-86b9-167f235bc738"},"vehicle_type_id":"4","last_reported":1701626877,"current_range_meters":26400,"station_id":"ce4bgt12rcd13ifvqcd0","pricing_plan_id":"free"},{"bike_id":"bb0c0767-52d1-4fb4-8acf-33434846e113","system_id":"levelo_inurba_marseille","lat":43.309039,"lon":5.371797,"is_reserved":false,"is_disabled":false,"rental_uris":{"android":"levelo://app?vid=bb0c0767-52d1-4fb4-8acf-33434846e113","ios":"levelo://app?vid=bb0c0767-52d1-4fb4-8acf-33434846e113"},"vehicle_type_id":"4","last_reported":1701626877,"current_range_meters":0,"station_id":"ce4bguh2rcd13ifvqckg","pricing_plan_id":"free"},{"bike_id":"7b75c43f-162c-4ee9-896e-da55dcf8c01e","system_id":"levelo_inurba_marseille","lat":43.305714,"lon":5.365633,"is_reserved":false,"is_disabled":false,"rental_uris":{"android":"levelo://app?vid=7b75c43f-162c-4ee9-896e-da55dcf8c01e","ios":"levelo://app?vid=7b75c43f-162c-4ee9-896e-da55dcf8c01e"},"vehicle_type_id":"4","last_reported":1701626877,"current_range_meters":6800,"station_id":"ce4bgs12rcd13ifvqcag","pricing_plan_id":"free"},{"bike_id":"f427a2c3-6e4a-446b-ae2f-9be8aa7f4122","system_id":"levelo_inurba_marseille","lat":43.31719,"lon":5.376813,"is_reserved":false,"is_disabled":false,"rental_uris":{"android":"levelo://app?vid=f427a2c3-6e4a-446b-ae2f-9be8aa7f4122","ios":"levelo://app?vid=f427a2c3-6e4a-446b-ae2f-9be8aa7f4122"},"vehicle_type_id":"4","last_reported":1701626877,"current_range_meters":0,"station_id":"","pricing_plan_id":"free"},{"bike_id":"e913f328-1e31-4c22-bd87-f809ea246de4","system_id":"levelo_inurba_marseille","lat":43.317168,"lon":5.376883,"is_reserved":false,"is_disabled":false,"rental_uris":{"android":"levelo://app?vid=e913f328-1e31-4c22-bd87-f809ea246de4","ios":"levelo://app?vid=e913f328-1e31-4c22-bd87-f809ea246de4"},"vehicle_type_id":"4","last_reported":1701626877,"current_range_meters":0,"station_id":"","pricing_plan_id":"free"},{"bike_id":"fb6fd937-527b-4585-9058-0dfdc6436ac8","system_id":"levelo_inurba_marseille","lat":43.31351,"lon":5.37909,"is_reserved":false,"is_disabled":false,"rental_uris":{"android":"levelo://app?vid=fb6fd937-527b-4585-9058-0dfdc6436ac8","ios":"levelo://app?vid=fb6fd937-527b-4585-9058-0dfdc6436ac8"},"vehicle_type_id":"4","last_reported":1701626877,"current_range_meters":17200,"station_id":"","pricing_plan_id":"free"},{"bike_id":"d7e75120-fb02-44c6-87af-9e224de4f681","system_id":"levelo_inurba_marseille","lat":43.308012,"lon":5.381511,"is_reserved":false,"is_disabled":false,"rental_uris":{"android":"levelo://app?vid=d7e75120-fb02-44c6-87af-9e224de4f681","ios":"levelo://app?vid=d7e75120-fb02-44c6-87af-9e224de4f681"},"vehicle_type_id":"4","last_reported":1701626877,"current_range_meters":24400,"station_id":"ce4bgt12rcd13ifvqce0","pricing_plan_id":"free"},{"bike_id":"83005485-7f98-49d8-9208-306c44b49d1d","system_id":"levelo_inurba_marseille","lat":43.30801,"lon":5.38155,"is_reserved":false,"is_disabled":false,"rental_uris":{"android":"levelo://app?vid=83005485-7f98-49d8-9208-306c44b49d1d","ios":"levelo://app?vid=83005485-7f98-49d8-9208-306c44b49d1d"},"vehicle_type_id":"4","last_reported":1701626877,"current_range_meters":400,"station_id":"ce4bgt12rcd13ifvqce0","pricing_plan_id":"free"},{"bike_id":"deeed940-b191-4511-8413-12110bb140f2","system_id":"levelo_inurba_marseille","lat":43.30463,"lon":5.37899,"is_reserved":false,"is_disabled":false,"rental_uris":{"android":"levelo://app?vid=deeed940-b191-4511-8413-12110bb140f2","ios":"levelo://app?vid=deeed940-b191-4511-8413-12110bb140f2"},"vehicle_type_id":"4","last_reported":1701626877,"current_range_meters":31200,"station_id":"ce4bgup2rcd13ifvqcn0","pricing_plan_id":"free"},{"bike_id":"a10afb74-4e76-4024-a812-f2ac51bdc401","system_id":"levelo_inurba_marseille","lat":43.30457,"lon":5.37902,"is_reserved":false,"is_disabled":false,"rental_uris":{"android":"levelo://app?vid=a10afb74-4e76-4024-a812-f2ac51bdc401","ios":"levelo://app?vid=a10afb74-4e76-4024-a812-f2ac51bdc401"},"vehicle_type_id":"4","last_reported":1701626877,"current_range_meters":31200,"station_id":"ce4bgup2rcd13ifvqcn0","pricing_plan_id":"free"},{"bike_id":"c65c74ac-31ac-4f80-bd82-43b0ec917ba3","system_id":"levelo_inurba_marseille","lat":43.30143,"lon":5.37413,"is_reserved":false,"is_disabled":false,"rental_uris":{"android":"levelo://app?vid=c65c74ac-31ac-4f80-bd82-43b0ec917ba3","ios":"levelo://app?vid=c65c74ac-31ac-4f80-bd82-43b0ec917ba3"},"vehicle_type_id":"4","last_reported":1701626877,"current_range_meters":10400,"station_id":"ce4bgs92rcd13ifvqcc0","pricing_plan_id":"free"},{"bike_id":"c32b4a1c-8be5-4f93-a794-fd809cd16078","system_id":"levelo_inurba_marseille","lat":43.319935,"lon":5.381699,"is_reserved":false,"is_disabled":false,"rental_uris":{"android":"levelo://app?vid=c32b4a1c-8be5-4f93-a794-fd809cd16078","ios":"levelo://app?vid=c32b4a1c-8be5-4f93-a794-fd809cd16078"},"vehicle_type_id":"4","last_reported":1701626877,"current_range_meters":10400,"station_id":"ce4bhr12rcd13ifvqhpg","pricing_plan_id":"free"},{"bike_id":"2275aca5-3158-4c2c-8022-ca5d2714bc86","system_id":"levelo_inurba_marseille","lat":43.319997,"lon":5.381594,"is_reserved":false,"is_disabled":false,"rental_uris":{"android":"levelo://app?vid=2275aca5-3158-4c2c-8022-ca5d2714bc86","ios":"levelo://app?vid=2275aca5-3158-4c2c-8022-ca5d2714bc86"},"vehicle_type_id":"4","last_reported":1701626877,"current_range_meters":10800,"station_id":"ce4bhr12rcd13ifvqhpg","pricing_plan_id":"free"},{"bike_id":"1b836397-024f-4ce5-8ba8-e625623686d0","system_id":"levelo_inurba_marseille","lat":43.31995,"lon":5.38167,"is_reserved":false,"is_disabled":false,"rental_uris":{"android":"levelo://app?vid=1b836397-024f-4ce5-8ba8-e625623686d0","ios":"levelo://app?vid=1b836397-024f-4ce5-8ba8-e625623686d0"},"vehicle_type_id":"4","last_reported":1701626877,"current_range_meters":8400,"station_id":"ce4bhr12rcd13ifvqhpg","pricing_plan_id":"free"},{"bike_id":"29c0ea44-70ef-4ca7-8fc0-bca82e39f09f","system_id":"levelo_inurba_marseille","lat":43.313571,"lon":5.384829,"is_reserved":false,"is_disabled":false,"rental_uris":{"android":"levelo://app?vid=29c0ea44-70ef-4ca7-8fc0-bca82e39f09f","ios":"levelo://app?vid=29c0ea44-70ef-4ca7-8fc0-bca82e39f09f"},"vehicle_type_id":"4","last_reported":1701626877,"current_range_meters":25600,"station_id":"ce4bgt92rcd13ifvqcf0","pricing_plan_id":"free"},{"bike_id":"9fdb7f97-586d-42d2-befd-15216ba2e422","system_id":"levelo_inurba_marseille","lat":43.31183,"lon":5.38523,"is_reserved":false,"is_disabled":false,"rental_uris":{"android":"levelo://app?vid=9fdb7f97-586d-42d2-befd-15216ba2e422","ios":"levelo://app?vid=9fdb7f97-586d-42d2-befd-15216ba2e422"},"vehicle_type_id":"4","last_reported":1701626877,"current_range_meters":0,"station_id":"","pricing_plan_id":"free"},{"bike_id":"f080c125-e83e-4c61-9f01-6184c63d40b5","system_id":"levelo_inurba_marseille","lat":43.299222,"lon":5.365554,"is_reserved":false,"is_disabled":false,"rental_uris":{"android":"levelo://app?vid=f080c125-e83e-4c61-9f01-6184c63d40b5","ios":"levelo://app?vid=f080c125-e83e-4c61-9f01-6184c63d40b5"},"vehicle_type_id":"4","last_reported":1701626877,"current_range_meters":14400,"station_id":"ce4bgm92rcd13ifvqbr0","pricing_plan_id":"free"},{"bike_id":"748d12ab-8e09-4ecd-b2d2-cbe0ea9624f6","system_id":"levelo_inurba_marseille","lat":43.298876,"lon":5.367378,"is_reserved":false,"is_disabled":false,"rental_uris":{"android":"levelo://app?vid=748d12ab-8e09-4ecd-b2d2-cbe0ea9624f6","ios":"levelo://app?vid=748d12ab-8e09-4ecd-b2d2-cbe0ea9624f6"},"vehicle_type_id":"4","last_reported":1701626877,"current_range_meters":800,"station_id":"","pricing_plan_id":"free"},{"bike_id":"8f471969-8e2d-4ef5-8d2e-654dab26d28a","system_id":"levelo_inurba_marseille","lat":43.31225,"lon":5.386497,"is_reserved":false,"is_disabled":false,"rental_uris":{"android":"levelo://app?vid=8f471969-8e2d-4ef5-8d2e-654dab26d28a","ios":"levelo://app?vid=8f471969-8e2d-4ef5-8d2e-654dab26d28a"},"vehicle_type_id":"4","last_reported":1701626877,"current_range_meters":20400,"station_id":"","pricing_plan_id":"free"},{"bike_id":"0a39dd03-261e-42e4-8565-1ecf12f7bfae","system_id":"levelo_inurba_marseille","lat":43.322933,"lon":5.382572,"is_reserved":false,"is_disabled":false,"rental_uris":{"android":"levelo://app?vid=0a39dd03-261e-42e4-8565-1ecf12f7bfae","ios":"levelo://app?vid=0a39dd03-261e-42e4-8565-1ecf12f7bfae"},"vehicle_type_id":"4","last_reported":1701626877,"current_range_meters":20000,"station_id":"ce4bhr12rcd13ifvqhqg","pricing_plan_id":"free"},{"bike_id":"08a721db-bf5d-46b3-9ba3-2a9c6c13bcf6","system_id":"levelo_inurba_marseille","lat":43.328256,"lon":5.366905,"is_reserved":false,"is_disabled":false,"rental_uris":{"android":"levelo://app?vid=08a721db-bf5d-46b3-9ba3-2a9c6c13bcf6","ios":"levelo://app?vid=08a721db-bf5d-46b3-9ba3-2a9c6c13bcf6"},"vehicle_type_id":"4","last_reported":1701626877,"current_range_meters":24000,"station_id":"","pricing_plan_id":"free"},{"bike_id":"65a9133c-c61d-4979-8e7b-24fafb96941b","system_id":"levelo_inurba_marseille","lat":43.328371,"lon":5.366909,"is_reserved":false,"is_disabled":false,"rental_uris":{"android":"levelo://app?vid=65a9133c-c61d-4979-8e7b-24fafb96941b","ios":"levelo://app?vid=65a9133c-c61d-4979-8e7b-24fafb96941b"},"vehicle_type_id":"4","last_reported":1701626877,"current_range_meters":10400,"station_id":"ce4bhs92rcd13ifvqi0g","pricing_plan_id":"free"},{"bike_id":"8874ef37-d11b-4860-b7df-daab8952a737","system_id":"levelo_inurba_marseille","lat":43.328371,"lon":5.366909,"is_reserved":false,"is_disabled":false,"rental_uris":{"android":"levelo://app?vid=8874ef37-d11b-4860-b7df-daab8952a737","ios":"levelo://app?vid=8874ef37-d11b-4860-b7df-daab8952a737"},"vehicle_type_id":"4","last_reported":1701626877,"current_range_meters":22800,"station_id":"ce4bhs92rcd13ifvqi0g","pricing_plan_id":"free"},{"bike_id":"5a977767-353d-46a4-9a62-7b1cf59366c1","system_id":"levelo_inurba_marseille","lat":43.297163,"lon":5.365866,"is_reserved":false,"is_disabled":false,"rental_uris":{"android":"levelo://app?vid=5a977767-353d-46a4-9a62-7b1cf59366c1","ios":"levelo://app?vid=5a977767-353d-46a4-9a62-7b1cf59366c1"},"vehicle_type_id":"4","last_reported":1701626877,"current_range_meters":18800,"station_id":"ce4bgn12rcd13ifvqbt0","pricing_plan_id":"free"},{"bike_id":"56c27ac6-d3be-4b1b-a869-2d0f1759ad4a","system_id":"levelo_inurba_marseille","lat":43.298208,"lon":5.376707,"is_reserved":false,"is_disabled":false,"rental_uris":{"android":"levelo://app?vid=56c27ac6-d3be-4b1b-a869-2d0f1759ad4a","ios":"levelo://app?vid=56c27ac6-d3be-4b1b-a869-2d0f1759ad4a"},"vehicle_type_id":"4","last_reported":1701626877,"current_range_meters":0,"station_id":"","pricing_plan_id":"free"},{"bike_id":"eaa0e7e7-2390-47fa-909b-7b240952cbef","system_id":"levelo_inurba_marseille","lat":43.316511,"lon":5.3896,"is_reserved":false,"is_disabled":false,"rental_uris":{"android":"levelo://app?vid=eaa0e7e7-2390-47fa-909b-7b240952cbef","ios":"levelo://app?vid=eaa0e7e7-2390-47fa-909b-7b240952cbef"},"vehicle_type_id":"4","last_reported":1701626877,"current_range_meters":18000,"station_id":"","pricing_plan_id":"free"},{"bike_id":"50451858-4fd4-406d-badc-776a2e8a63c3","system_id":"levelo_inurba_marseille","lat":43.32972,"lon":5.36735,"is_reserved":false,"is_disabled":false,"rental_uris":{"android":"levelo://app?vid=50451858-4fd4-406d-badc-776a2e8a63c3","ios":"levelo://app?vid=50451858-4fd4-406d-badc-776a2e8a63c3"},"vehicle_type_id":"4","last_reported":1701626877,"current_range_meters":16400,"station_id":"","pricing_plan_id":"free"},{"bike_id":"5c26bdfb-7b7c-43fb-8a01-250128a1a6f8","system_id":"levelo_inurba_marseille","lat":43.32974,"lon":5.36729,"is_reserved":false,"is_disabled":false,"rental_uris":{"android":"levelo://app?vid=5c26bdfb-7b7c-43fb-8a01-250128a1a6f8","ios":"levelo://app?vid=5c26bdfb-7b7c-43fb-8a01-250128a1a6f8"},"vehicle_type_id":"4","last_reported":1701626877,"current_range_meters":18400,"station_id":"","pricing_plan_id":"free"},{"bike_id":"9fd3552d-6d9e-4a61-a0b6-d86150197496","system_id":"levelo_inurba_marseille","lat":43.309589,"lon":5.390258,"is_reserved":false,"is_disabled":false,"rental_uris":{"android":"levelo://app?vid=9fd3552d-6d9e-4a61-a0b6-d86150197496","ios":"levelo://app?vid=9fd3552d-6d9e-4a61-a0b6-d86150197496"},"vehicle_type_id":"4","last_reported":1701626877,"current_range_meters":30400,"station_id":"ce4bgup2rcd13ifvqco0","pricing_plan_id":"free"},{"bike_id":"8f93fff0-3eb1-4876-bb47-5f9f3e2fa1aa","system_id":"levelo_inurba_marseille","lat":43.317557,"lon":5.390173,"is_reserved":false,"is_disabled":false,"rental_uris":{"android":"levelo://app?vid=8f93fff0-3eb1-4876-bb47-5f9f3e2fa1aa","ios":"levelo://app?vid=8f93fff0-3eb1-4876-bb47-5f9f3e2fa1aa"},"vehicle_type_id":"4","last_reported":1701626877,"current_range_meters":24800,"station_id":"ce4bhqp2rcd13ifvqhng","pricing_plan_id":"free"},{"bike_id":"a60ec318-e3a7-448b-bee1-f7ba7014bdd7","system_id":"levelo_inurba_marseille","lat":43.304278,"lon":5.388868,"is_reserved":false,"is_disabled":false,"rental_uris":{"android":"levelo://app?vid=a60ec318-e3a7-448b-bee1-f7ba7014bdd7","ios":"levelo://app?vid=a60ec318-e3a7-448b-bee1-f7ba7014bdd7"},"vehicle_type_id":"4","last_reported":1701626877,"current_range_meters":0,"station_id":"ce4bgk12rcd13ifvqbi0","pricing_plan_id":"free"},{"bike_id":"01dcd54d-6018-46cd-85eb-9894190e4d30","system_id":"levelo_inurba_marseille","lat":43.299724,"lon":5.384848,"is_reserved":false,"is_disabled":false,"rental_uris":{"android":"levelo://app?vid=01dcd54d-6018-46cd-85eb-9894190e4d30","ios":"levelo://app?vid=01dcd54d-6018-46cd-85eb-9894190e4d30"},"vehicle_type_id":"4","last_reported":1701626877,"current_range_meters":3600,"station_id":"ce4bgj92rcd13ifvqbd0","pricing_plan_id":"free"},{"bike_id":"6dbe2398-f84c-4e15-8acb-d7684398d2c3","system_id":"levelo_inurba_marseille","lat":43.301929,"lon":5.38955,"is_reserved":false,"is_disabled":false,"rental_uris":{"android":"levelo://app?vid=6dbe2398-f84c-4e15-8acb-d7684398d2c3","ios":"levelo://app?vid=6dbe2398-f84c-4e15-8acb-d7684398d2c3"},"vehicle_type_id":"4","last_reported":1701626877,"current_range_meters":29600,"station_id":"","pricing_plan_id":"free"},{"bike_id":"72080112-d84c-4845-9d3b-4af9d2299e27","system_id":"levelo_inurba_marseille","lat":43.29311,"lon":5.37175,"is_reserved":false,"is_disabled":false,"rental_uris":{"android":"levelo://app?vid=72080112-d84c-4845-9d3b-4af9d2299e27","ios":"levelo://app?vid=72080112-d84c-4845-9d3b-4af9d2299e27"},"vehicle_type_id":"4","last_reported":1701626877,"current_range_meters":0,"station_id":"ce4bgh92rcd13ifvqb40","pricing_plan_id":"free"},{"bike_id":"909cedbc-79a4-4f8a-9283-3fb2a3be89b2","system_id":"levelo_inurba_marseille","lat":43.291671,"lon":5.371575,"is_reserved":false,"is_disabled":false,"rental_uris":{"android":"levelo://app?vid=909cedbc-79a4-4f8a-9283-3fb2a3be89b2","ios":"levelo://app?vid=909cedbc-79a4-4f8a-9283-3fb2a3be89b2"},"vehicle_type_id":"4","last_reported":1701626877,"current_range_meters":2800,"station_id":"ce4bha92rcd13ifvqeh0","pricing_plan_id":"free"},{"bike_id":"fd51ceae-6134-477a-96c6-8aa598e77fac","system_id":"levelo_inurba_marseille","lat":43.309047,"lon":5.396551,"is_reserved":false,"is_disabled":false,"rental_uris":{"android":"levelo://app?vid=fd51ceae-6134-477a-96c6-8aa598e77fac","ios":"levelo://app?vid=fd51ceae-6134-477a-96c6-8aa598e77fac"},"vehicle_type_id":"4","last_reported":1701626877,"current_range_meters":6800,"station_id":"ce4bh012rcd13ifvqcv0","pricing_plan_id":"free"},{"bike_id":"aa8c981b-e227-4987-b364-a812215aa753","system_id":"levelo_inurba_marseille","lat":43.313291,"lon":5.396838,"is_reserved":false,"is_disabled":false,"rental_uris":{"android":"levelo://app?vid=aa8c981b-e227-4987-b364-a812215aa753","ios":"levelo://app?vid=aa8c981b-e227-4987-b364-a812215aa753"},"vehicle_type_id":"4","last_reported":1701626877,"current_range_meters":8400,"station_id":"ce4bgvp2rcd13ifvqcu0","pricing_plan_id":"free"},{"bike_id":"587b6467-b08c-4761-a87c-5f323a5f438a","system_id":"levelo_inurba_marseille","lat":43.291994,"lon":5.357886,"is_reserved":false,"is_disabled":false,"rental_uris":{"android":"levelo://app?vid=587b6467-b08c-4761-a87c-5f323a5f438a","ios":"levelo://app?vid=587b6467-b08c-4761-a87c-5f323a5f438a"},"vehicle_type_id":"4","last_reported":1701626877,"current_range_meters":31200,"station_id":"ce4bhb12rcd13ifvqel0","pricing_plan_id":"free"},{"bike_id":"d58c3966-5c73-483e-80f2-79f964e82cd5","system_id":"levelo_inurba_marseille","lat":43.309038,"lon":5.396546,"is_reserved":false,"is_disabled":false,"rental_uris":{"android":"levelo://app?vid=d58c3966-5c73-483e-80f2-79f964e82cd5","ios":"levelo://app?vid=d58c3966-5c73-483e-80f2-79f964e82cd5"},"vehicle_type_id":"4","last_reported":1701626877,"current_range_meters":2800,"station_id":"ce4bh012rcd13ifvqcv0","pricing_plan_id":"free"},{"bike_id":"09d52067-e6fa-4893-9f93-f9d3c28809a1","system_id":"levelo_inurba_marseille","lat":43.30882,"lon":5.39657,"is_reserved":false,"is_disabled":false,"rental_uris":{"android":"levelo://app?vid=09d52067-e6fa-4893-9f93-f9d3c28809a1","ios":"levelo://app?vid=09d52067-e6fa-4893-9f93-f9d3c28809a1"},"vehicle_type_id":"4","last_reported":1701626877,"current_range_meters":14000,"station_id":"ce4bh012rcd13ifvqcv0","pricing_plan_id":"free"},{"bike_id":"7a331b11-b412-40e2-baf7-1ce97883ed65","system_id":"levelo_inurba_marseille","lat":43.309038,"lon":5.396546,"is_reserved":false,"is_disabled":false,"rental_uris":{"android":"levelo://app?vid=7a331b11-b412-40e2-baf7-1ce97883ed65","ios":"levelo://app?vid=7a331b11-b412-40e2-baf7-1ce97883ed65"},"vehicle_type_id":"4","last_reported":1701626877,"current_range_meters":20000,"station_id":"ce4bh012rcd13ifvqcv0","pricing_plan_id":"free"},{"bike_id":"71c3947f-8d34-4d30-8b08-52877d3fa320","system_id":"levelo_inurba_marseille","lat":43.309047,"lon":5.396551,"is_reserved":false,"is_disabled":false,"rental_uris":{"android":"levelo://app?vid=71c3947f-8d34-4d30-8b08-52877d3fa320","ios":"levelo://app?vid=71c3947f-8d34-4d30-8b08-52877d3fa320"},"vehicle_type_id":"4","last_reported":1701626877,"current_range_meters":6000,"station_id":"ce4bh012rcd13ifvqcv0","pricing_plan_id":"free"},{"bike_id":"f12fa2ee-4c69-41e4-99ba-a88f9f7ce07b","system_id":"levelo_inurba_marseille","lat":43.304274,"lon":5.397513,"is_reserved":false,"is_disabled":false,"rental_uris":{"android":"levelo://app?vid=f12fa2ee-4c69-41e4-99ba-a88f9f7ce07b","ios":"levelo://app?vid=f12fa2ee-4c69-41e4-99ba-a88f9f7ce07b"},"vehicle_type_id":"4","last_reported":1701626877,"current_range_meters":4800,"station_id":"ce4bh092rcd13ifvqd20","pricing_plan_id":"free"},{"bike_id":"e14af431-cca0-46fe-b680-041033484745","system_id":"levelo_inurba_marseille","lat":43.29091,"lon":5.38119,"is_reserved":false,"is_disabled":false,"rental_uris":{"android":"levelo://app?vid=e14af431-cca0-46fe-b680-041033484745","ios":"levelo://app?vid=e14af431-cca0-46fe-b680-041033484745"},"vehicle_type_id":"4","last_reported":1701626877,"current_range_meters":18000,"station_id":"ce4bh512rcd13ifvqe2g","pricing_plan_id":"free"},{"bike_id":"61baa2f3-b646-4e5b-b3bb-5ce8d9038ce4","system_id":"levelo_inurba_marseille","lat":43.29091,"lon":5.38152,"is_reserved":false,"is_disabled":false,"rental_uris":{"android":"levelo://app?vid=61baa2f3-b646-4e5b-b3bb-5ce8d9038ce4","ios":"levelo://app?vid=61baa2f3-b646-4e5b-b3bb-5ce8d9038ce4"},"vehicle_type_id":"4","last_reported":1701626877,"current_range_meters":0,"station_id":"ce4bh512rcd13ifvqe2g","pricing_plan_id":"free"},{"bike_id":"80ac9a83-47dc-4474-ba9e-95f62f2a5969","system_id":"levelo_inurba_marseille","lat":43.31273,"lon":5.40175,"is_reserved":false,"is_disabled":false,"rental_uris":{"android":"levelo://app?vid=80ac9a83-47dc-4474-ba9e-95f62f2a5969","ios":"levelo://app?vid=80ac9a83-47dc-4474-ba9e-95f62f2a5969"},"vehicle_type_id":"4","last_reported":1701626877,"current_range_meters":0,"station_id":"ce4bh092rcd13ifvqd30","pricing_plan_id":"free"},{"bike_id":"08d21638-9787-46b3-a6d0-98512be83a7f","system_id":"levelo_inurba_marseille","lat":43.309371,"lon":5.401449,"is_reserved":false,"is_disabled":false,"rental_uris":{"android":"levelo://app?vid=08d21638-9787-46b3-a6d0-98512be83a7f","ios":"levelo://app?vid=08d21638-9787-46b3-a6d0-98512be83a7f"},"vehicle_type_id":"4","last_reported":1701626877,"current_range_meters":10000,"station_id":"ce4bgvp2rcd13ifvqct0","pricing_plan_id":"free"},{"bike_id":"84d9f669-8fa3-4a14-91d6-028b64e16e98","system_id":"levelo_inurba_marseille","lat":43.309371,"lon":5.401449,"is_reserved":false,"is_disabled":false,"rental_uris":{"android":"levelo://app?vid=84d9f669-8fa3-4a14-91d6-028b64e16e98","ios":"levelo://app?vid=84d9f669-8fa3-4a14-91d6-028b64e16e98"},"vehicle_type_id":"4","last_reported":1701626877,"current_range_meters":18000,"station_id":"ce4bgvp2rcd13ifvqct0","pricing_plan_id":"free"},{"bike_id":"c20f04af-c047-488a-b634-e7831ed17fc9","system_id":"levelo_inurba_marseille","lat":43.3093,"lon":5.40146,"is_reserved":false,"is_disabled":false,"rental_uris":{"android":"levelo://app?vid=c20f04af-c047-488a-b634-e7831ed17fc9","ios":"levelo://app?vid=c20f04af-c047-488a-b634-e7831ed17fc9"},"vehicle_type_id":"4","last_reported":1701626877,"current_range_meters":27600,"station_id":"ce4bgvp2rcd13ifvqct0","pricing_plan_id":"free"},{"bike_id":"a503a26c-1b6b-493c-b737-27a05690e1b0","system_id":"levelo_inurba_marseille","lat":43.306412,"lon":5.401035,"is_reserved":false,"is_disabled":false,"rental_uris":{"android":"levelo://app?vid=a503a26c-1b6b-493c-b737-27a05690e1b0","ios":"levelo://app?vid=a503a26c-1b6b-493c-b737-27a05690e1b0"},"vehicle_type_id":"4","last_reported":1701626877,"current_range_meters":14800,"station_id":"ce4bh112rcd13ifvqda0","pricing_plan_id":"free"},{"bike_id":"62b81309-a172-45c5-8cf0-9ab27639ed2c","system_id":"levelo_inurba_marseille","lat":43.30135,"lon":5.39851,"is_reserved":false,"is_disabled":false,"rental_uris":{"android":"levelo://app?vid=62b81309-a172-45c5-8cf0-9ab27639ed2c","ios":"levelo://app?vid=62b81309-a172-45c5-8cf0-9ab27639ed2c"},"vehicle_type_id":"4","last_reported":1701626877,"current_range_meters":24400,"station_id":"ce4bh0h2rcd13ifvqd40","pricing_plan_id":"free"},{"bike_id":"b9d8d5bb-52d9-413b-a2d9-be31357e90df","system_id":"levelo_inurba_marseille","lat":43.301117,"lon":5.398795,"is_reserved":false,"is_disabled":false,"rental_uris":{"android":"levelo://app?vid=b9d8d5bb-52d9-413b-a2d9-be31357e90df","ios":"levelo://app?vid=b9d8d5bb-52d9-413b-a2d9-be31357e90df"},"vehicle_type_id":"4","last_reported":1701626877,"current_range_meters":6000,"station_id":"ce4bh0h2rcd13ifvqd40","pricing_plan_id":"free"},{"bike_id":"ff866d42-31af-408d-8952-4ebbad1027e5","system_id":"levelo_inurba_marseille","lat":43.298681,"lon":5.397225,"is_reserved":false,"is_disabled":false,"rental_uris":{"android":"levelo://app?vid=ff866d42-31af-408d-8952-4ebbad1027e5","ios":"levelo://app?vid=ff866d42-31af-408d-8952-4ebbad1027e5"},"vehicle_type_id":"4","last_reported":1701626877,"current_range_meters":18000,"station_id":"ce4bh0h2rcd13ifvqd50","pricing_plan_id":"free"},{"bike_id":"27b3892b-93e8-450a-9bc6-fa13b08d8644","system_id":"levelo_inurba_marseille","lat":43.286961,"lon":5.373785,"is_reserved":false,"is_disabled":false,"rental_uris":{"android":"levelo://app?vid=27b3892b-93e8-450a-9bc6-fa13b08d8644","ios":"levelo://app?vid=27b3892b-93e8-450a-9bc6-fa13b08d8644"},"vehicle_type_id":"4","last_reported":1701626877,"current_range_meters":16000,"station_id":"ce4bh3p2rcd13ifvqdq0","pricing_plan_id":"free"},{"bike_id":"f340f122-5610-4d3b-a666-a504e2669cec","system_id":"levelo_inurba_marseille","lat":43.298681,"lon":5.397225,"is_reserved":false,"is_disabled":false,"rental_uris":{"android":"levelo://app?vid=f340f122-5610-4d3b-a666-a504e2669cec","ios":"levelo://app?vid=f340f122-5610-4d3b-a666-a504e2669cec"},"vehicle_type_id":"4","last_reported":1701626877,"current_range_meters":2400,"station_id":"ce4bh0h2rcd13ifvqd50","pricing_plan_id":"free"},{"bike_id":"d8e35915-8496-485b-89c6-0f1a27009971","system_id":"levelo_inurba_marseille","lat":43.286591,"lon":5.363346,"is_reserved":false,"is_disabled":false,"rental_uris":{"android":"levelo://app?vid=d8e35915-8496-485b-89c6-0f1a27009971","ios":"levelo://app?vid=d8e35915-8496-485b-89c6-0f1a27009971"},"vehicle_type_id":"4","last_reported":1701626877,"current_range_meters":12800,"station_id":"ce4bhah2rcd13ifvqej0","pricing_plan_id":"free"},{"bike_id":"62abc91f-bd3e-4de2-9a0e-95540924a680","system_id":"levelo_inurba_marseille","lat":43.298681,"lon":5.397225,"is_reserved":false,"is_disabled":false,"rental_uris":{"android":"levelo://app?vid=62abc91f-bd3e-4de2-9a0e-95540924a680","ios":"levelo://app?vid=62abc91f-bd3e-4de2-9a0e-95540924a680"},"vehicle_type_id":"4","last_reported":1701626877,"current_range_meters":12800,"station_id":"ce4bh0h2rcd13ifvqd50","pricing_plan_id":"free"},{"bike_id":"c58c7c7d-7caa-483d-add9-91a44074922f","system_id":"levelo_inurba_marseille","lat":43.286591,"lon":5.363346,"is_reserved":false,"is_disabled":false,"rental_uris":{"android":"levelo://app?vid=c58c7c7d-7caa-483d-add9-91a44074922f","ios":"levelo://app?vid=c58c7c7d-7caa-483d-add9-91a44074922f"},"vehicle_type_id":"4","last_reported":1701626877,"current_range_meters":20800,"station_id":"ce4bhah2rcd13ifvqej0","pricing_plan_id":"free"},{"bike_id":"98c0c43a-317f-44e0-bb4d-b23a0644f18a","system_id":"levelo_inurba_marseille","lat":43.295196,"lon":5.39397,"is_reserved":false,"is_disabled":false,"rental_uris":{"android":"levelo://app?vid=98c0c43a-317f-44e0-bb4d-b23a0644f18a","ios":"levelo://app?vid=98c0c43a-317f-44e0-bb4d-b23a0644f18a"},"vehicle_type_id":"4","last_reported":1701626877,"current_range_meters":24800,"station_id":"ce4bh292rcd13ifvqdf0","pricing_plan_id":"free"},{"bike_id":"4546f60d-77cd-468f-ac43-6ec1db4135da","system_id":"levelo_inurba_marseille","lat":43.286591,"lon":5.363346,"is_reserved":false,"is_disabled":false,"rental_uris":{"android":"levelo://app?vid=4546f60d-77cd-468f-ac43-6ec1db4135da","ios":"levelo://app?vid=4546f60d-77cd-468f-ac43-6ec1db4135da"},"vehicle_type_id":"4","last_reported":1701626877,"current_range_meters":8000,"station_id":"ce4bhah2rcd13ifvqej0","pricing_plan_id":"free"},{"bike_id":"557b08b4-0ddc-4433-918b-6f2522414348","system_id":"levelo_inurba_marseille","lat":43.2903,"lon":5.38641,"is_reserved":false,"is_disabled":false,"rental_uris":{"android":"levelo://app?vid=557b08b4-0ddc-4433-918b-6f2522414348","ios":"levelo://app?vid=557b08b4-0ddc-4433-918b-6f2522414348"},"vehicle_type_id":"4","last_reported":1701626877,"current_range_meters":18400,"station_id":"ce4bh4p2rcd13ifvqe0g","pricing_plan_id":"free"},{"bike_id":"e88049c8-6053-49c0-87fd-b6702c2e79ac","system_id":"levelo_inurba_marseille","lat":43.291994,"lon":5.392907,"is_reserved":false,"is_disabled":false,"rental_uris":{"android":"levelo://app?vid=e88049c8-6053-49c0-87fd-b6702c2e79ac","ios":"levelo://app?vid=e88049c8-6053-49c0-87fd-b6702c2e79ac"},"vehicle_type_id":"4","last_reported":1701626877,"current_range_meters":11200,"station_id":"ce4bh192rcd13ifvqdd0","pricing_plan_id":"free"},{"bike_id":"f02f3243-ea83-483a-8af1-4c8628210ea2","system_id":"levelo_inurba_marseille","lat":43.286138,"lon":5.351,"is_reserved":false,"is_disabled":false,"rental_uris":{"android":"levelo://app?vid=f02f3243-ea83-483a-8af1-4c8628210ea2","ios":"levelo://app?vid=f02f3243-ea83-483a-8af1-4c8628210ea2"},"vehicle_type_id":"4","last_reported":1701626877,"current_range_meters":14800,"station_id":"ce4bhch2rcd13ifvqeug","pricing_plan_id":"free"},{"bike_id":"4b22133d-6fbf-475b-98a8-eaef71155c6e","system_id":"levelo_inurba_marseille","lat":43.319179,"lon":5.407725,"is_reserved":false,"is_disabled":false,"rental_uris":{"android":"levelo://app?vid=4b22133d-6fbf-475b-98a8-eaef71155c6e","ios":"levelo://app?vid=4b22133d-6fbf-475b-98a8-eaef71155c6e"},"vehicle_type_id":"4","last_reported":1701626877,"current_range_meters":0,"station_id":"ce4bhq12rcd13ifvqhig","pricing_plan_id":"free"},{"bike_id":"23a6e18e-5ad6-40cf-b6fb-7a4b1a6034c9","system_id":"levelo_inurba_marseille","lat":43.33745,"lon":5.39116,"is_reserved":false,"is_disabled":false,"rental_uris":{"android":"levelo://app?vid=23a6e18e-5ad6-40cf-b6fb-7a4b1a6034c9","ios":"levelo://app?vid=23a6e18e-5ad6-40cf-b6fb-7a4b1a6034c9"},"vehicle_type_id":"4","last_reported":1701626877,"current_range_meters":27600,"station_id":"","pricing_plan_id":"free"},{"bike_id":"4b021143-be23-4d8d-ac72-086548831286","system_id":"levelo_inurba_marseille","lat":43.33717,"lon":5.391857,"is_reserved":false,"is_disabled":false,"rental_uris":{"android":"levelo://app?vid=4b021143-be23-4d8d-ac72-086548831286","ios":"levelo://app?vid=4b021143-be23-4d8d-ac72-086548831286"},"vehicle_type_id":"4","last_reported":1701626877,"current_range_meters":24400,"station_id":"ce4bhr92rcd13ifvqhsg","pricing_plan_id":"free"},{"bike_id":"433fae96-c9d2-47cf-990d-0d286a603f2d","system_id":"levelo_inurba_marseille","lat":43.289363,"lon":5.396322,"is_reserved":false,"is_disabled":false,"rental_uris":{"android":"levelo://app?vid=433fae96-c9d2-47cf-990d-0d286a603f2d","ios":"levelo://app?vid=433fae96-c9d2-47cf-990d-0d286a603f2d"},"vehicle_type_id":"4","last_reported":1701626877,"current_range_meters":4800,"station_id":"ce4bh3h2rcd13ifvqdn0","pricing_plan_id":"free"},{"bike_id":"8061dc54-898e-4c00-9905-3f61e2ab3127","system_id":"levelo_inurba_marseille","lat":43.289363,"lon":5.396322,"is_reserved":false,"is_disabled":false,"rental_uris":{"android":"levelo://app?vid=8061dc54-898e-4c00-9905-3f61e2ab3127","ios":"levelo://app?vid=8061dc54-898e-4c00-9905-3f61e2ab3127"},"vehicle_type_id":"4","last_reported":1701626877,"current_range_meters":9200,"station_id":"ce4bh3h2rcd13ifvqdn0","pricing_plan_id":"free"},{"bike_id":"ffd0f445-c315-47d0-bd2e-08562e20ea25","system_id":"levelo_inurba_marseille","lat":43.282744,"lon":5.350533,"is_reserved":false,"is_disabled":false,"rental_uris":{"android":"levelo://app?vid=ffd0f445-c315-47d0-bd2e-08562e20ea25","ios":"levelo://app?vid=ffd0f445-c315-47d0-bd2e-08562e20ea25"},"vehicle_type_id":"4","last_reported":1701626877,"current_range_meters":18400,"station_id":"ce4bhbp2rcd13ifvqerg","pricing_plan_id":"free"},{"bike_id":"a9cec647-2fa3-4d82-a42f-4dd28accb0c0","system_id":"levelo_inurba_marseille","lat":43.28039,"lon":5.369297,"is_reserved":false,"is_disabled":false,"rental_uris":{"android":"levelo://app?vid=a9cec647-2fa3-4d82-a42f-4dd28accb0c0","ios":"levelo://app?vid=a9cec647-2fa3-4d82-a42f-4dd28accb0c0"},"vehicle_type_id":"4","last_reported":1701626877,"current_range_meters":30000,"station_id":"ce4bha12rcd13ifvqef0","pricing_plan_id":"free"},{"bike_id":"2bc3ede3-14be-4629-9ad4-5b4ae198650f","system_id":"levelo_inurba_marseille","lat":43.28039,"lon":5.369297,"is_reserved":false,"is_disabled":false,"rental_uris":{"android":"levelo://app?vid=2bc3ede3-14be-4629-9ad4-5b4ae198650f","ios":"levelo://app?vid=2bc3ede3-14be-4629-9ad4-5b4ae198650f"},"vehicle_type_id":"4","last_reported":1701626877,"current_range_meters":26000,"station_id":"ce4bha12rcd13ifvqef0","pricing_plan_id":"free"},{"bike_id":"2bb6c6e3-3605-48ff-aa4a-063f9b7b33fd","system_id":"levelo_inurba_marseille","lat":43.279087,"lon":5.380114,"is_reserved":false,"is_disabled":false,"rental_uris":{"android":"levelo://app?vid=2bb6c6e3-3605-48ff-aa4a-063f9b7b33fd","ios":"levelo://app?vid=2bb6c6e3-3605-48ff-aa4a-063f9b7b33fd"},"vehicle_type_id":"4","last_reported":1701626877,"current_range_meters":20400,"station_id":"ce4bhf92rcd13ifvqf50","pricing_plan_id":"free"},{"bike_id":"0834691c-8136-4964-b045-7c490170071c","system_id":"levelo_inurba_marseille","lat":43.292647,"lon":5.409162,"is_reserved":false,"is_disabled":false,"rental_uris":{"android":"levelo://app?vid=0834691c-8136-4964-b045-7c490170071c","ios":"levelo://app?vid=0834691c-8136-4964-b045-7c490170071c"},"vehicle_type_id":"4","last_reported":1701626877,"current_range_meters":15600,"station_id":"","pricing_plan_id":"free"},{"bike_id":"08c270e9-878b-4530-9c6d-c88b6c7a35a8","system_id":"levelo_inurba_marseille","lat":43.280784,"lon":5.396622,"is_reserved":false,"is_disabled":false,"rental_uris":{"android":"levelo://app?vid=08c270e9-878b-4530-9c6d-c88b6c7a35a8","ios":"levelo://app?vid=08c270e9-878b-4530-9c6d-c88b6c7a35a8"},"vehicle_type_id":"4","last_reported":1701626877,"current_range_meters":14000,"station_id":"ce4bho12rcd13ifvqh2g","pricing_plan_id":"free"},{"bike_id":"42724f3c-8f40-42f6-bc27-ef448d3caf37","system_id":"levelo_inurba_marseille","lat":43.280784,"lon":5.396622,"is_reserved":false,"is_disabled":false,"rental_uris":{"android":"levelo://app?vid=42724f3c-8f40-42f6-bc27-ef448d3caf37","ios":"levelo://app?vid=42724f3c-8f40-42f6-bc27-ef448d3caf37"},"vehicle_type_id":"4","last_reported":1701626877,"current_range_meters":16400,"station_id":"ce4bho12rcd13ifvqh2g","pricing_plan_id":"free"},{"bike_id":"487ad7ad-ee7f-40ab-b43c-43d7d5434705","system_id":"levelo_inurba_marseille","lat":43.303837,"lon":5.418724,"is_reserved":false,"is_disabled":false,"rental_uris":{"android":"levelo://app?vid=487ad7ad-ee7f-40ab-b43c-43d7d5434705","ios":"levelo://app?vid=487ad7ad-ee7f-40ab-b43c-43d7d5434705"},"vehicle_type_id":"4","last_reported":1701626877,"current_range_meters":31200,"station_id":"ce4bhop2rcd13ifvqh7g","pricing_plan_id":"free"},{"bike_id":"810bc3cc-ab46-42cc-887f-686e140c0017","system_id":"levelo_inurba_marseille","lat":43.303837,"lon":5.418724,"is_reserved":false,"is_disabled":false,"rental_uris":{"android":"levelo://app?vid=810bc3cc-ab46-42cc-887f-686e140c0017","ios":"levelo://app?vid=810bc3cc-ab46-42cc-887f-686e140c0017"},"vehicle_type_id":"4","last_reported":1701626877,"current_range_meters":21600,"station_id":"ce4bhop2rcd13ifvqh7g","pricing_plan_id":"free"},{"bike_id":"af7d7dbe-6e9b-4664-b785-d9b904bb20bd","system_id":"levelo_inurba_marseille","lat":43.33612,"lon":5.410321,"is_reserved":false,"is_disabled":false,"rental_uris":{"android":"levelo://app?vid=af7d7dbe-6e9b-4664-b785-d9b904bb20bd","ios":"levelo://app?vid=af7d7dbe-6e9b-4664-b785-d9b904bb20bd"},"vehicle_type_id":"4","last_reported":1701626877,"current_range_meters":23200,"station_id":"ce4bhqh2rcd13ifvqhmg","pricing_plan_id":"free"},{"bike_id":"ba2cdc49-316c-4fb7-ae87-5812c3ece311","system_id":"levelo_inurba_marseille","lat":43.317121,"lon":5.423936,"is_reserved":false,"is_disabled":false,"rental_uris":{"android":"levelo://app?vid=ba2cdc49-316c-4fb7-ae87-5812c3ece311","ios":"levelo://app?vid=ba2cdc49-316c-4fb7-ae87-5812c3ece311"},"vehicle_type_id":"4","last_reported":1701626877,"current_range_meters":28400,"station_id":"ce4bhp92rcd13ifvqhbg","pricing_plan_id":"free"},{"bike_id":"910fd3aa-d2e0-4553-894a-6161d41c7fcd","system_id":"levelo_inurba_marseille","lat":43.27609,"lon":5.39475,"is_reserved":false,"is_disabled":false,"rental_uris":{"android":"levelo://app?vid=910fd3aa-d2e0-4553-894a-6161d41c7fcd","ios":"levelo://app?vid=910fd3aa-d2e0-4553-894a-6161d41c7fcd"},"vehicle_type_id":"4","last_reported":1701626877,"current_range_meters":14400,"station_id":"","pricing_plan_id":"free"},{"bike_id":"7dad5fee-3b24-4370-be23-bef38d7b72fb","system_id":"levelo_inurba_marseille","lat":43.273125,"lon":5.390731,"is_reserved":false,"is_disabled":false,"rental_uris":{"android":"levelo://app?vid=7dad5fee-3b24-4370-be23-bef38d7b72fb","ios":"levelo://app?vid=7dad5fee-3b24-4370-be23-bef38d7b72fb"},"vehicle_type_id":"4","last_reported":1701626877,"current_range_meters":12400,"station_id":"ce4bhgp2rcd13ifvqfe0","pricing_plan_id":"free"},{"bike_id":"a60caa65-7f0f-42c1-91e4-ee2cbeace7c6","system_id":"levelo_inurba_marseille","lat":43.273125,"lon":5.390731,"is_reserved":false,"is_disabled":false,"rental_uris":{"android":"levelo://app?vid=a60caa65-7f0f-42c1-91e4-ee2cbeace7c6","ios":"levelo://app?vid=a60caa65-7f0f-42c1-91e4-ee2cbeace7c6"},"vehicle_type_id":"4","last_reported":1701626877,"current_range_meters":12400,"station_id":"ce4bhgp2rcd13ifvqfe0","pricing_plan_id":"free"},{"bike_id":"c455efda-4aa9-4d9a-a729-963ba18ddfe0","system_id":"levelo_inurba_marseille","lat":43.274103,"lon":5.394016,"is_reserved":false,"is_disabled":false,"rental_uris":{"android":"levelo://app?vid=c455efda-4aa9-4d9a-a729-963ba18ddfe0","ios":"levelo://app?vid=c455efda-4aa9-4d9a-a729-963ba18ddfe0"},"vehicle_type_id":"4","last_reported":1701626877,"current_range_meters":25200,"station_id":"ce4bhdp2rcd13ifvqf20","pricing_plan_id":"free"},{"bike_id":"3a085ded-79fe-4229-ba36-720621cc3c5b","system_id":"levelo_inurba_marseille","lat":43.27996,"lon":5.416624,"is_reserved":false,"is_disabled":false,"rental_uris":{"android":"levelo://app?vid=3a085ded-79fe-4229-ba36-720621cc3c5b","ios":"levelo://app?vid=3a085ded-79fe-4229-ba36-720621cc3c5b"},"vehicle_type_id":"4","last_reported":1701626877,"current_range_meters":800,"station_id":"ce4bho12rcd13ifvqh1g","pricing_plan_id":"free"},{"bike_id":"99a12360-a6f0-49ab-b45a-aa05f4693ecd","system_id":"levelo_inurba_marseille","lat":43.265569,"lon":5.390047,"is_reserved":false,"is_disabled":false,"rental_uris":{"android":"levelo://app?vid=99a12360-a6f0-49ab-b45a-aa05f4693ecd","ios":"levelo://app?vid=99a12360-a6f0-49ab-b45a-aa05f4693ecd"},"vehicle_type_id":"4","last_reported":1701626877,"current_range_meters":22000,"station_id":"ce4bhe12rcd13ifvqf30","pricing_plan_id":"free"},{"bike_id":"14817988-5edd-44d1-a6da-9e4f801da6b7","system_id":"levelo_inurba_marseille","lat":43.26949,"lon":5.40262,"is_reserved":false,"is_disabled":false,"rental_uris":{"android":"levelo://app?vid=14817988-5edd-44d1-a6da-9e4f801da6b7","ios":"levelo://app?vid=14817988-5edd-44d1-a6da-9e4f801da6b7"},"vehicle_type_id":"4","last_reported":1701626877,"current_range_meters":23600,"station_id":"cjm6bp8fraef2m0cb0m0","pricing_plan_id":"free"},{"bike_id":"e9eca45e-9bea-400a-925f-9536b4a307b0","system_id":"levelo_inurba_marseille","lat":43.269426,"lon":5.402543,"is_reserved":false,"is_disabled":false,"rental_uris":{"android":"levelo://app?vid=e9eca45e-9bea-400a-925f-9536b4a307b0","ios":"levelo://app?vid=e9eca45e-9bea-400a-925f-9536b4a307b0"},"vehicle_type_id":"4","last_reported":1701626877,"current_range_meters":0,"station_id":"cjm6bp8fraef2m0cb0m0","pricing_plan_id":"free"},{"bike_id":"20b540af-223f-493d-a347-4e9ea2d240bd","system_id":"levelo_inurba_marseille","lat":43.26942,"lon":5.40255,"is_reserved":false,"is_disabled":false,"rental_uris":{"android":"levelo://app?vid=20b540af-223f-493d-a347-4e9ea2d240bd","ios":"levelo://app?vid=20b540af-223f-493d-a347-4e9ea2d240bd"},"vehicle_type_id":"4","last_reported":1701626877,"current_range_meters":16800,"station_id":"cjm6bp8fraef2m0cb0m0","pricing_plan_id":"free"},{"bike_id":"c6052785-f1f5-410e-adc9-c02642b5e6d3","system_id":"levelo_inurba_marseille","lat":43.26949,"lon":5.40262,"is_reserved":false,"is_disabled":false,"rental_uris":{"android":"levelo://app?vid=c6052785-f1f5-410e-adc9-c02642b5e6d3","ios":"levelo://app?vid=c6052785-f1f5-410e-adc9-c02642b5e6d3"},"vehicle_type_id":"4","last_reported":1701626877,"current_range_meters":24000,"station_id":"cjm6bp8fraef2m0cb0m0","pricing_plan_id":"free"},{"bike_id":"bf4ad048-f8b7-41c5-b87b-d5135b06aace","system_id":"levelo_inurba_marseille","lat":43.261782,"lon":5.374515,"is_reserved":false,"is_disabled":false,"rental_uris":{"android":"levelo://app?vid=bf4ad048-f8b7-41c5-b87b-d5135b06aace","ios":"levelo://app?vid=bf4ad048-f8b7-41c5-b87b-d5135b06aace"},"vehicle_type_id":"4","last_reported":1701626877,"current_range_meters":6400,"station_id":"ce4bhgp2rcd13ifvqfc0","pricing_plan_id":"free"},{"bike_id":"1c037b83-f5aa-4eb4-ba71-e4f8ef922e17","system_id":"levelo_inurba_marseille","lat":43.271368,"lon":5.40928,"is_reserved":false,"is_disabled":false,"rental_uris":{"android":"levelo://app?vid=1c037b83-f5aa-4eb4-ba71-e4f8ef922e17","ios":"levelo://app?vid=1c037b83-f5aa-4eb4-ba71-e4f8ef922e17"},"vehicle_type_id":"4","last_reported":1701626877,"current_range_meters":4000,"station_id":"ce4bhl12rcd13ifvqgf0","pricing_plan_id":"free"},{"bike_id":"19daf5e3-6af4-4e70-b97c-c9dda04c99d9","system_id":"levelo_inurba_marseille","lat":43.267959,"lon":5.402687,"is_reserved":false,"is_disabled":false,"rental_uris":{"android":"levelo://app?vid=19daf5e3-6af4-4e70-b97c-c9dda04c99d9","ios":"levelo://app?vid=19daf5e3-6af4-4e70-b97c-c9dda04c99d9"},"vehicle_type_id":"4","last_reported":1701626877,"current_range_meters":12400,"station_id":"ce501612rcd8frsf0b60","pricing_plan_id":"free"},{"bike_id":"577b6cd3-6946-40f0-88a6-f913101b8be5","system_id":"levelo_inurba_marseille","lat":43.26949,"lon":5.40262,"is_reserved":false,"is_disabled":false,"rental_uris":{"android":"levelo://app?vid=577b6cd3-6946-40f0-88a6-f913101b8be5","ios":"levelo://app?vid=577b6cd3-6946-40f0-88a6-f913101b8be5"},"vehicle_type_id":"4","last_reported":1701626877,"current_range_meters":9200,"station_id":"cjm6bp8fraef2m0cb0m0","pricing_plan_id":"free"},{"bike_id":"29a520d0-38f3-4808-95aa-92cc0f49450e","system_id":"levelo_inurba_marseille","lat":43.281548,"lon":5.42643,"is_reserved":false,"is_disabled":false,"rental_uris":{"android":"levelo://app?vid=29a520d0-38f3-4808-95aa-92cc0f49450e","ios":"levelo://app?vid=29a520d0-38f3-4808-95aa-92cc0f49450e"},"vehicle_type_id":"4","last_reported":1701626877,"current_range_meters":20800,"station_id":"ce4bhnh2rcd13ifvqgug","pricing_plan_id":"free"},{"bike_id":"f9643c8e-6c13-42df-b911-6ab290ac1a0a","system_id":"levelo_inurba_marseille","lat":43.281548,"lon":5.42643,"is_reserved":false,"is_disabled":false,"rental_uris":{"android":"levelo://app?vid=f9643c8e-6c13-42df-b911-6ab290ac1a0a","ios":"levelo://app?vid=f9643c8e-6c13-42df-b911-6ab290ac1a0a"},"vehicle_type_id":"4","last_reported":1701626877,"current_range_meters":15600,"station_id":"ce4bhnh2rcd13ifvqgug","pricing_plan_id":"free"},{"bike_id":"0fd8254e-a95a-4dc5-963d-03782d038304","system_id":"levelo_inurba_marseille","lat":43.281548,"lon":5.42643,"is_reserved":false,"is_disabled":false,"rental_uris":{"android":"levelo://app?vid=0fd8254e-a95a-4dc5-963d-03782d038304","ios":"levelo://app?vid=0fd8254e-a95a-4dc5-963d-03782d038304"},"vehicle_type_id":"4","last_reported":1701626877,"current_range_meters":16000,"station_id":"ce4bhnh2rcd13ifvqgug","pricing_plan_id":"free"},{"bike_id":"19337c19-12ca-4f3b-a568-40a561779510","system_id":"levelo_inurba_marseille","lat":43.281498,"lon":5.429906,"is_reserved":false,"is_disabled":false,"rental_uris":{"android":"levelo://app?vid=19337c19-12ca-4f3b-a568-40a561779510","ios":"levelo://app?vid=19337c19-12ca-4f3b-a568-40a561779510"},"vehicle_type_id":"4","last_reported":1701626877,"current_range_meters":25600,"station_id":"","pricing_plan_id":"free"},{"bike_id":"6f1ab2a1-1e37-46ed-a48b-2301bdf9c918","system_id":"levelo_inurba_marseille","lat":43.25579,"lon":5.3823,"is_reserved":false,"is_disabled":false,"rental_uris":{"android":"levelo://app?vid=6f1ab2a1-1e37-46ed-a48b-2301bdf9c918","ios":"levelo://app?vid=6f1ab2a1-1e37-46ed-a48b-2301bdf9c918"},"vehicle_type_id":"4","last_reported":1701626877,"current_range_meters":31200,"station_id":"ce4bhih2rcd13ifvqfs0","pricing_plan_id":"free"},{"bike_id":"ec6d0f62-a89a-4a57-9bee-33721a03d6d4","system_id":"levelo_inurba_marseille","lat":43.25575,"lon":5.38229,"is_reserved":false,"is_disabled":false,"rental_uris":{"android":"levelo://app?vid=ec6d0f62-a89a-4a57-9bee-33721a03d6d4","ios":"levelo://app?vid=ec6d0f62-a89a-4a57-9bee-33721a03d6d4"},"vehicle_type_id":"4","last_reported":1701626877,"current_range_meters":10400,"station_id":"ce4bhih2rcd13ifvqfs0","pricing_plan_id":"free"},{"bike_id":"bdc72d7c-9d46-4016-8a92-851cd50823f9","system_id":"levelo_inurba_marseille","lat":43.25929,"lon":5.40906,"is_reserved":false,"is_disabled":false,"rental_uris":{"android":"levelo://app?vid=bdc72d7c-9d46-4016-8a92-851cd50823f9","ios":"levelo://app?vid=bdc72d7c-9d46-4016-8a92-851cd50823f9"},"vehicle_type_id":"4","last_reported":1701626877,"current_range_meters":22800,"station_id":"ce4bhm92rcd13ifvqglg","pricing_plan_id":"free"},{"bike_id":"8a71ef35-7495-4100-9fba-54e41698ab95","system_id":"levelo_inurba_marseille","lat":43.25718,"lon":5.41113,"is_reserved":false,"is_disabled":false,"rental_uris":{"android":"levelo://app?vid=8a71ef35-7495-4100-9fba-54e41698ab95","ios":"levelo://app?vid=8a71ef35-7495-4100-9fba-54e41698ab95"},"vehicle_type_id":"4","last_reported":1701626877,"current_range_meters":0,"station_id":"ce4bhkp2rcd13ifvqgd0","pricing_plan_id":"free"},{"bike_id":"05ffcfcb-20c3-4466-b79e-af248191fe78","system_id":"levelo_inurba_marseille","lat":43.257079,"lon":5.411051,"is_reserved":false,"is_disabled":false,"rental_uris":{"android":"levelo://app?vid=05ffcfcb-20c3-4466-b79e-af248191fe78","ios":"levelo://app?vid=05ffcfcb-20c3-4466-b79e-af248191fe78"},"vehicle_type_id":"4","last_reported":1701626877,"current_range_meters":30800,"station_id":"ce4bhkp2rcd13ifvqgd0","pricing_plan_id":"free"},{"bike_id":"cfd8f419-f4a3-4f36-b630-39cb4293b968","system_id":"levelo_inurba_marseille","lat":43.250966,"lon":5.395186,"is_reserved":false,"is_disabled":false,"rental_uris":{"android":"levelo://app?vid=cfd8f419-f4a3-4f36-b630-39cb4293b968","ios":"levelo://app?vid=cfd8f419-f4a3-4f36-b630-39cb4293b968"},"vehicle_type_id":"4","last_reported":1701626877,"current_range_meters":13600,"station_id":"ce4bhm12rcd13ifvqgkg","pricing_plan_id":"free"},{"bike_id":"5c1d2219-23ff-4983-85eb-ccd642ee87d0","system_id":"levelo_inurba_marseille","lat":43.25091,"lon":5.39523,"is_reserved":false,"is_disabled":false,"rental_uris":{"android":"levelo://app?vid=5c1d2219-23ff-4983-85eb-ccd642ee87d0","ios":"levelo://app?vid=5c1d2219-23ff-4983-85eb-ccd642ee87d0"},"vehicle_type_id":"4","last_reported":1701626877,"current_range_meters":6000,"station_id":"ce4bhm12rcd13ifvqgkg","pricing_plan_id":"free"},{"bike_id":"a0c992ae-4310-49d4-9b11-b3a813bde620","system_id":"levelo_inurba_marseille","lat":43.24693,"lon":5.382096,"is_reserved":false,"is_disabled":false,"rental_uris":{"android":"levelo://app?vid=a0c992ae-4310-49d4-9b11-b3a813bde620","ios":"levelo://app?vid=a0c992ae-4310-49d4-9b11-b3a813bde620"},"vehicle_type_id":"4","last_reported":1701626877,"current_range_meters":26800,"station_id":"ce4bhih2rcd13ifvqfr0","pricing_plan_id":"free"},{"bike_id":"47218376-6c80-47cd-991a-4badc7584f1a","system_id":"levelo_inurba_marseille","lat":43.25102,"lon":5.403214,"is_reserved":false,"is_disabled":false,"rental_uris":{"android":"levelo://app?vid=47218376-6c80-47cd-991a-4badc7584f1a","ios":"levelo://app?vid=47218376-6c80-47cd-991a-4badc7584f1a"},"vehicle_type_id":"4","last_reported":1701626877,"current_range_meters":8400,"station_id":"ce4bhlh2rcd13ifvqgig","pricing_plan_id":"free"},{"bike_id":"044403c6-9f82-455d-86dd-0f7d7f6925a9","system_id":"levelo_inurba_marseille","lat":43.25112,"lon":5.40322,"is_reserved":false,"is_disabled":false,"rental_uris":{"android":"levelo://app?vid=044403c6-9f82-455d-86dd-0f7d7f6925a9","ios":"levelo://app?vid=044403c6-9f82-455d-86dd-0f7d7f6925a9"},"vehicle_type_id":"4","last_reported":1701626877,"current_range_meters":20000,"station_id":"ce4bhlh2rcd13ifvqgig","pricing_plan_id":"free"},{"bike_id":"10f65538-9a21-44ea-aca5-d617c0a205e5","system_id":"levelo_inurba_marseille","lat":43.25102,"lon":5.403214,"is_reserved":false,"is_disabled":false,"rental_uris":{"android":"levelo://app?vid=10f65538-9a21-44ea-aca5-d617c0a205e5","ios":"levelo://app?vid=10f65538-9a21-44ea-aca5-d617c0a205e5"},"vehicle_type_id":"4","last_reported":1701626877,"current_range_meters":17600,"station_id":"ce4bhlh2rcd13ifvqgig","pricing_plan_id":"free"},{"bike_id":"ad4b3bdf-788e-47ad-92bb-285d02a9e8da","system_id":"levelo_inurba_marseille","lat":43.246467,"lon":5.388984,"is_reserved":false,"is_disabled":false,"rental_uris":{"android":"levelo://app?vid=ad4b3bdf-788e-47ad-92bb-285d02a9e8da","ios":"levelo://app?vid=ad4b3bdf-788e-47ad-92bb-285d02a9e8da"},"vehicle_type_id":"4","last_reported":1701626877,"current_range_meters":22400,"station_id":"ce4bhg12rcd13ifvqf60","pricing_plan_id":"free"},{"bike_id":"20da71ce-65aa-46d5-afe4-54da2b66db77","system_id":"levelo_inurba_marseille","lat":43.246467,"lon":5.388984,"is_reserved":false,"is_disabled":false,"rental_uris":{"android":"levelo://app?vid=20da71ce-65aa-46d5-afe4-54da2b66db77","ios":"levelo://app?vid=20da71ce-65aa-46d5-afe4-54da2b66db77"},"vehicle_type_id":"4","last_reported":1701626877,"current_range_meters":0,"station_id":"ce4bhg12rcd13ifvqf60","pricing_plan_id":"free"},{"bike_id":"f934e747-d928-4372-9567-14de9075e397","system_id":"levelo_inurba_marseille","lat":43.246467,"lon":5.388984,"is_reserved":false,"is_disabled":false,"rental_uris":{"android":"levelo://app?vid=f934e747-d928-4372-9567-14de9075e397","ios":"levelo://app?vid=f934e747-d928-4372-9567-14de9075e397"},"vehicle_type_id":"4","last_reported":1701626877,"current_range_meters":24400,"station_id":"ce4bhg12rcd13ifvqf60","pricing_plan_id":"free"},{"bike_id":"d61b5f41-e01d-4ded-8bed-a9c596243b0e","system_id":"levelo_inurba_marseille","lat":43.245581,"lon":5.395069,"is_reserved":false,"is_disabled":false,"rental_uris":{"android":"levelo://app?vid=d61b5f41-e01d-4ded-8bed-a9c596243b0e","ios":"levelo://app?vid=d61b5f41-e01d-4ded-8bed-a9c596243b0e"},"vehicle_type_id":"4","last_reported":1701626877,"current_range_meters":15600,"station_id":"ce4bhlp2rcd13ifvqgjg","pricing_plan_id":"free"},{"bike_id":"52da0dca-f57d-4100-af31-b47f386b9017","system_id":"levelo_inurba_marseille","lat":43.2397,"lon":5.366285,"is_reserved":false,"is_disabled":false,"rental_uris":{"android":"levelo://app?vid=52da0dca-f57d-4100-af31-b47f386b9017","ios":"levelo://app?vid=52da0dca-f57d-4100-af31-b47f386b9017"},"vehicle_type_id":"4","last_reported":1701626877,"current_range_meters":29600,"station_id":"ce4bhi12rcd13ifvqfp0","pricing_plan_id":"free"},{"bike_id":"66d07158-1c05-469e-a266-b66692f04cb5","system_id":"levelo_inurba_marseille","lat":43.239588,"lon":5.366238,"is_reserved":false,"is_disabled":false,"rental_uris":{"android":"levelo://app?vid=66d07158-1c05-469e-a266-b66692f04cb5","ios":"levelo://app?vid=66d07158-1c05-469e-a266-b66692f04cb5"},"vehicle_type_id":"4","last_reported":1701626877,"current_range_meters":31200,"station_id":"ce4bhi12rcd13ifvqfp0","pricing_plan_id":"free"},{"bike_id":"b101f295-ac85-402a-8afe-c635c176f114","system_id":"levelo_inurba_marseille","lat":43.28532,"lon":5.46077,"is_reserved":false,"is_disabled":false,"rental_uris":{"android":"levelo://app?vid=b101f295-ac85-402a-8afe-c635c176f114","ios":"levelo://app?vid=b101f295-ac85-402a-8afe-c635c176f114"},"vehicle_type_id":"4","last_reported":1701626877,"current_range_meters":18400,"station_id":"","pricing_plan_id":"free"},{"bike_id":"a3aad75b-64ef-4634-9f77-a5b976c8f7fb","system_id":"levelo_inurba_marseille","lat":43.241782,"lon":5.397261,"is_reserved":false,"is_disabled":false,"rental_uris":{"android":"levelo://app?vid=a3aad75b-64ef-4634-9f77-a5b976c8f7fb","ios":"levelo://app?vid=a3aad75b-64ef-4634-9f77-a5b976c8f7fb"},"vehicle_type_id":"4","last_reported":1701626877,"current_range_meters":7200,"station_id":"ce4bhn12rcd13ifvqgpg","pricing_plan_id":"free"},{"bike_id":"a2778a75-2f32-457d-810c-ad5c32010803","system_id":"levelo_inurba_marseille","lat":43.23215,"lon":5.35551,"is_reserved":false,"is_disabled":false,"rental_uris":{"android":"levelo://app?vid=a2778a75-2f32-457d-810c-ad5c32010803","ios":"levelo://app?vid=a2778a75-2f32-457d-810c-ad5c32010803"},"vehicle_type_id":"4","last_reported":1701626877,"current_range_meters":19200,"station_id":"ce4bhu92rcd13ifvqi70","pricing_plan_id":"free"},{"bike_id":"6041d620-664b-4836-b597-a0e62593a032","system_id":"levelo_inurba_marseille","lat":43.231923,"lon":5.355545,"is_reserved":false,"is_disabled":false,"rental_uris":{"android":"levelo://app?vid=6041d620-664b-4836-b597-a0e62593a032","ios":"levelo://app?vid=6041d620-664b-4836-b597-a0e62593a032"},"vehicle_type_id":"4","last_reported":1701626877,"current_range_meters":27600,"station_id":"ce4bhu92rcd13ifvqi70","pricing_plan_id":"free"},{"bike_id":"87815193-0a9e-4a5a-8f22-63817bf9d429","system_id":"levelo_inurba_marseille","lat":43.23198,"lon":5.35543,"is_reserved":false,"is_disabled":false,"rental_uris":{"android":"levelo://app?vid=87815193-0a9e-4a5a-8f22-63817bf9d429","ios":"levelo://app?vid=87815193-0a9e-4a5a-8f22-63817bf9d429"},"vehicle_type_id":"4","last_reported":1701626877,"current_range_meters":29200,"station_id":"ce4bhu92rcd13ifvqi70","pricing_plan_id":"free"},{"bike_id":"2b04708e-eed8-4471-916a-9fdeea01eec7","system_id":"levelo_inurba_marseille","lat":43.231923,"lon":5.355545,"is_reserved":false,"is_disabled":false,"rental_uris":{"android":"levelo://app?vid=2b04708e-eed8-4471-916a-9fdeea01eec7","ios":"levelo://app?vid=2b04708e-eed8-4471-916a-9fdeea01eec7"},"vehicle_type_id":"4","last_reported":1701626877,"current_range_meters":31200,"station_id":"ce4bhu92rcd13ifvqi70","pricing_plan_id":"free"},{"bike_id":"58d4edcd-4441-486c-8457-28ebda4ac431","system_id":"levelo_inurba_marseille","lat":43.23194,"lon":5.35545,"is_reserved":false,"is_disabled":false,"rental_uris":{"android":"levelo://app?vid=58d4edcd-4441-486c-8457-28ebda4ac431","ios":"levelo://app?vid=58d4edcd-4441-486c-8457-28ebda4ac431"},"vehicle_type_id":"4","last_reported":1701626877,"current_range_meters":19200,"station_id":"ce4bhu92rcd13ifvqi70","pricing_plan_id":"free"},{"bike_id":"cf3102c4-88e0-4a41-86b7-69a76932d3e6","system_id":"levelo_inurba_marseille","lat":43.231923,"lon":5.355545,"is_reserved":false,"is_disabled":false,"rental_uris":{"android":"levelo://app?vid=cf3102c4-88e0-4a41-86b7-69a76932d3e6","ios":"levelo://app?vid=cf3102c4-88e0-4a41-86b7-69a76932d3e6"},"vehicle_type_id":"4","last_reported":1701626877,"current_range_meters":31600,"station_id":"ce4bhu92rcd13ifvqi70","pricing_plan_id":"free"},{"bike_id":"9e01ee59-41e6-425c-ae1f-3e33312fefcd","system_id":"levelo_inurba_marseille","lat":43.231923,"lon":5.355545,"is_reserved":false,"is_disabled":false,"rental_uris":{"android":"levelo://app?vid=9e01ee59-41e6-425c-ae1f-3e33312fefcd","ios":"levelo://app?vid=9e01ee59-41e6-425c-ae1f-3e33312fefcd"},"vehicle_type_id":"4","last_reported":1701626877,"current_range_meters":15200,"station_id":"ce4bhu92rcd13ifvqi70","pricing_plan_id":"free"},{"bike_id":"d8ad9864-eb6b-4faa-b8e1-e2e245ce7f97","system_id":"levelo_inurba_marseille","lat":43.2319,"lon":5.39982,"is_reserved":false,"is_disabled":false,"rental_uris":{"android":"levelo://app?vid=d8ad9864-eb6b-4faa-b8e1-e2e245ce7f97","ios":"levelo://app?vid=d8ad9864-eb6b-4faa-b8e1-e2e245ce7f97"},"vehicle_type_id":"4","last_reported":1701626877,"current_range_meters":14800,"station_id":"ce4bhn12rcd13ifvqgqg","pricing_plan_id":"free"},{"bike_id":"118d4a35-86b4-49cc-8abc-987caa7ffe62","system_id":"levelo_inurba_marseille","lat":43.231909,"lon":5.399935,"is_reserved":false,"is_disabled":false,"rental_uris":{"android":"levelo://app?vid=118d4a35-86b4-49cc-8abc-987caa7ffe62","ios":"levelo://app?vid=118d4a35-86b4-49cc-8abc-987caa7ffe62"},"vehicle_type_id":"4","last_reported":1701626877,"current_range_meters":31200,"station_id":"ce4bhn12rcd13ifvqgqg","pricing_plan_id":"free"},{"bike_id":"77b1a551-da7f-429a-980e-bfc6767a5958","system_id":"levelo_inurba_marseille","lat":43.231794,"lon":5.400052,"is_reserved":false,"is_disabled":false,"rental_uris":{"android":"levelo://app?vid=77b1a551-da7f-429a-980e-bfc6767a5958","ios":"levelo://app?vid=77b1a551-da7f-429a-980e-bfc6767a5958"},"vehicle_type_id":"4","last_reported":1701626877,"current_range_meters":31600,"station_id":"ce4bhn12rcd13ifvqgqg","pricing_plan_id":"free"},{"bike_id":"22bd98e3-c33f-4c44-ae2b-f96729d36f4f","system_id":"levelo_inurba_marseille","lat":43.231793,"lon":5.400044,"is_reserved":false,"is_disabled":false,"rental_uris":{"android":"levelo://app?vid=22bd98e3-c33f-4c44-ae2b-f96729d36f4f","ios":"levelo://app?vid=22bd98e3-c33f-4c44-ae2b-f96729d36f4f"},"vehicle_type_id":"4","last_reported":1701626877,"current_range_meters":31200,"station_id":"ce4bhn12rcd13ifvqgqg","pricing_plan_id":"free"},{"bike_id":"d7955d6f-88ae-4e83-97c1-4a0668d076f6","system_id":"levelo_inurba_marseille","lat":43.23188,"lon":5.39986,"is_reserved":false,"is_disabled":false,"rental_uris":{"android":"levelo://app?vid=d7955d6f-88ae-4e83-97c1-4a0668d076f6","ios":"levelo://app?vid=d7955d6f-88ae-4e83-97c1-4a0668d076f6"},"vehicle_type_id":"4","last_reported":1701626877,"current_range_meters":18000,"station_id":"ce4bhn12rcd13ifvqgqg","pricing_plan_id":"free"},{"bike_id":"a926f4bb-1e59-4822-80ea-1d5ff6f2a5c5","system_id":"levelo_inurba_marseille","lat":43.23187,"lon":5.39984,"is_reserved":false,"is_disabled":false,"rental_uris":{"android":"levelo://app?vid=a926f4bb-1e59-4822-80ea-1d5ff6f2a5c5","ios":"levelo://app?vid=a926f4bb-1e59-4822-80ea-1d5ff6f2a5c5"},"vehicle_type_id":"4","last_reported":1701626877,"current_range_meters":14000,"station_id":"ce4bhn12rcd13ifvqgqg","pricing_plan_id":"free"},{"bike_id":"e47e98e0-4256-4c41-ae86-e531a41b9213","system_id":"levelo_inurba_marseille","lat":43.231794,"lon":5.400052,"is_reserved":false,"is_disabled":false,"rental_uris":{"android":"levelo://app?vid=e47e98e0-4256-4c41-ae86-e531a41b9213","ios":"levelo://app?vid=e47e98e0-4256-4c41-ae86-e531a41b9213"},"vehicle_type_id":"4","last_reported":1701626877,"current_range_meters":31600,"station_id":"ce4bhn12rcd13ifvqgqg","pricing_plan_id":"free"},{"bike_id":"6bd9f065-50d9-4657-9ca0-a006f413d305","system_id":"levelo_inurba_marseille","lat":43.231794,"lon":5.400052,"is_reserved":false,"is_disabled":false,"rental_uris":{"android":"levelo://app?vid=6bd9f065-50d9-4657-9ca0-a006f413d305","ios":"levelo://app?vid=6bd9f065-50d9-4657-9ca0-a006f413d305"},"vehicle_type_id":"4","last_reported":1701626877,"current_range_meters":32000,"station_id":"ce4bhn12rcd13ifvqgqg","pricing_plan_id":"free"},{"bike_id":"ab5eae98-96ca-4718-91b7-353de917f40d","system_id":"levelo_inurba_marseille","lat":43.231793,"lon":5.400044,"is_reserved":false,"is_disabled":false,"rental_uris":{"android":"levelo://app?vid=ab5eae98-96ca-4718-91b7-353de917f40d","ios":"levelo://app?vid=ab5eae98-96ca-4718-91b7-353de917f40d"},"vehicle_type_id":"4","last_reported":1701626877,"current_range_meters":31200,"station_id":"ce4bhn12rcd13ifvqgqg","pricing_plan_id":"free"},{"bike_id":"3fdd6789-d52a-4c7f-96f4-f754cbf436d6","system_id":"levelo_inurba_marseille","lat":43.231835,"lon":5.399783,"is_reserved":false,"is_disabled":false,"rental_uris":{"android":"levelo://app?vid=3fdd6789-d52a-4c7f-96f4-f754cbf436d6","ios":"levelo://app?vid=3fdd6789-d52a-4c7f-96f4-f754cbf436d6"},"vehicle_type_id":"4","last_reported":1701626877,"current_range_meters":31200,"station_id":"ce4bhn12rcd13ifvqgqg","pricing_plan_id":"free"},{"bike_id":"88cf855f-bb31-40e0-8afc-686df3c193ab","system_id":"levelo_inurba_marseille","lat":43.231794,"lon":5.400052,"is_reserved":false,"is_disabled":false,"rental_uris":{"android":"levelo://app?vid=88cf855f-bb31-40e0-8afc-686df3c193ab","ios":"levelo://app?vid=88cf855f-bb31-40e0-8afc-686df3c193ab"},"vehicle_type_id":"4","last_reported":1701626877,"current_range_meters":28800,"station_id":"ce4bhn12rcd13ifvqgqg","pricing_plan_id":"free"},{"bike_id":"4ee99995-f63f-4ddb-ac4b-88a5ee23324c","system_id":"levelo_inurba_marseille","lat":43.23183,"lon":5.39983,"is_reserved":false,"is_disabled":false,"rental_uris":{"android":"levelo://app?vid=4ee99995-f63f-4ddb-ac4b-88a5ee23324c","ios":"levelo://app?vid=4ee99995-f63f-4ddb-ac4b-88a5ee23324c"},"vehicle_type_id":"4","last_reported":1701626877,"current_range_meters":12400,"station_id":"ce4bhn12rcd13ifvqgqg","pricing_plan_id":"free"},{"bike_id":"0cf73e26-cfe4-495a-8675-6603ab968aec","system_id":"levelo_inurba_marseille","lat":43.231794,"lon":5.400052,"is_reserved":false,"is_disabled":false,"rental_uris":{"android":"levelo://app?vid=0cf73e26-cfe4-495a-8675-6603ab968aec","ios":"levelo://app?vid=0cf73e26-cfe4-495a-8675-6603ab968aec"},"vehicle_type_id":"4","last_reported":1701626877,"current_range_meters":12800,"station_id":"ce4bhn12rcd13ifvqgqg","pricing_plan_id":"free"},{"bike_id":"7119d2ec-3a1f-47f1-97aa-a12f1d72912d","system_id":"levelo_inurba_marseille","lat":43.23182,"lon":5.39986,"is_reserved":false,"is_disabled":false,"rental_uris":{"android":"levelo://app?vid=7119d2ec-3a1f-47f1-97aa-a12f1d72912d","ios":"levelo://app?vid=7119d2ec-3a1f-47f1-97aa-a12f1d72912d"},"vehicle_type_id":"4","last_reported":1701626877,"current_range_meters":12000,"station_id":"ce4bhn12rcd13ifvqgqg","pricing_plan_id":"free"},{"bike_id":"457c552c-8af5-4b7b-9f6b-8c901265a623","system_id":"levelo_inurba_marseille","lat":43.23176,"lon":5.39995,"is_reserved":false,"is_disabled":false,"rental_uris":{"android":"levelo://app?vid=457c552c-8af5-4b7b-9f6b-8c901265a623","ios":"levelo://app?vid=457c552c-8af5-4b7b-9f6b-8c901265a623"},"vehicle_type_id":"4","last_reported":1701626877,"current_range_meters":27600,"station_id":"ce4bhn12rcd13ifvqgqg","pricing_plan_id":"free"},{"bike_id":"8f0fb87f-53e2-432d-b05f-ab1e816b61dc","system_id":"levelo_inurba_marseille","lat":43.231794,"lon":5.400052,"is_reserved":false,"is_disabled":false,"rental_uris":{"android":"levelo://app?vid=8f0fb87f-53e2-432d-b05f-ab1e816b61dc","ios":"levelo://app?vid=8f0fb87f-53e2-432d-b05f-ab1e816b61dc"},"vehicle_type_id":"4","last_reported":1701626877,"current_range_meters":15600,"station_id":"ce4bhn12rcd13ifvqgqg","pricing_plan_id":"free"}]}}